time_stamp,MODE,lat,lon,relative_alt,roll,pitch,yaw,rollspeed,pitchspeed,yawspeed,xacc,yacc,zacc,xgyro,ygyro,zgyro,vx,vy,vz,RTL_ALT
16:36:43.862,STABILIZE,-35.3632621,149.1652375,0,-0.0011970456689596176,0.0009456199477426708,0.023849694058299065,0.0001846846571424976,0.0002633199910633266,0.0019413853297010064,0,1,-1000,0,0,0,-1,1,0,1500.0
16:36:44.063,STABILIZE,-35.3632621,149.1652375,0,-0.0011970456689596176,0.0009456199477426708,0.023849694058299065,0.0001846846571424976,0.0002633199910633266,0.0019413853297010064,0,1,-1000,0,0,0,-1,1,0,1500.0
16:36:44.264,STABILIZE,-35.3632621,149.1652375,0,-0.0011970456689596176,0.0009456199477426708,0.023849694058299065,0.0001846846571424976,0.0002633199910633266,0.0019413853297010064,0,1,-1000,0,0,0,-1,1,0,1500.0
16:36:44.465,STABILIZE,-35.3632621,149.1652375,0,-0.0011970456689596176,0.0009456199477426708,0.023849694058299065,0.0001846846571424976,0.0002633199910633266,0.0019413853297010064,0,1,-1000,0,0,0,-1,1,0,1500.0
16:36:44.665,STABILIZE,-35.3632621,149.1652375,0,-0.0011970456689596176,0.0009456199477426708,0.023849694058299065,0.0001846846571424976,0.0002633199910633266,0.0019413853297010064,0,1,-1000,0,0,0,-1,1,0,1500.0
16:36:44.866,STABILIZE,-35.3632621,149.1652375,0,-0.001024184632115066,0.0009230669820681214,0.02339557372033596,0.00026194110978394747,0.00022820034064352512,0.0017340707127004862,0,1,-1000,0,0,0,-1,0,-1,1500.0
16:36:45.067,STABILIZE,-35.3632621,149.1652375,0,-0.001024184632115066,0.0009230669820681214,0.02339557372033596,0.00026194110978394747,0.00022820034064352512,0.0017340707127004862,0,1,-1000,0,0,0,-1,0,-1,1500.0
16:36:45.268,STABILIZE,-35.3632621,149.1652375,0,-0.001024184632115066,0.0009230669820681214,0.02339557372033596,0.00026194110978394747,0.00022820034064352512,0.0017340707127004862,0,1,-1000,0,0,0,-1,0,-1,1500.0
16:36:45.468,STABILIZE,-35.3632621,149.1652375,0,-0.0009589375695213675,0.0009219246567226946,0.02323293313384056,0.0001618808164494112,0.0002559551503509283,0.0018030130304396152,0,1,-1000,0,0,0,-1,0,-1,1500.0
16:36:45.669,STABILIZE,-35.3632621,149.1652375,0,-0.0009230367140844464,0.0009301225654780865,0.023156559094786644,0.00033771147718653083,0.0002596821286715567,0.0015936772106215358,0,1,-1000,0,0,0,-1,0,-1,1500.0
16:36:45.870,STABILIZE,-35.3632621,149.1652375,0,-0.0009230367140844464,0.0009301225654780865,0.023156559094786644,0.00033771147718653083,0.0002596821286715567,0.0015936772106215358,0,1,-1000,0,0,0,-1,0,-1,1500.0
16:36:46.070,STABILIZE,-35.3632621,149.1652375,0,-0.0009230367140844464,0.0009301225654780865,0.023156559094786644,0.00033771147718653083,0.0002596821286715567,0.0015936772106215358,0,1,-1000,0,0,0,-1,0,-1,1500.0
16:36:46.271,STABILIZE,-35.3632621,149.1652375,0,-0.0009230367140844464,0.0009301225654780865,0.023156559094786644,0.00033771147718653083,0.0002596821286715567,0.0015936772106215358,0,1,-1000,0,0,0,-1,0,-1,1500.0
16:36:46.472,STABILIZE,-35.3632621,149.1652375,0,-0.0008739902987144887,0.0009270578739233315,0.022892983630299568,0.00025449777604080737,0.00017309776740148664,0.001556247822009027,0,1,-1000,0,0,0,-1,0,-1,1500.0
16:36:46.673,STABILIZE,-35.3632621,149.1652375,0,-0.0008739902987144887,0.0009270578739233315,0.022892983630299568,0.00025449777604080737,0.00017309776740148664,0.001556247822009027,0,1,-1000,0,0,0,-1,1,-1,1500.0
16:36:46.873,STABILIZE,-35.3632621,149.1652375,0,-0.0008739902987144887,0.0009270578739233315,0.022892983630299568,0.00025449777604080737,0.00017309776740148664,0.001556247822009027,0,1,-1000,0,0,0,-1,1,-1,1500.0
16:36:47.074,STABILIZE,-35.3632621,149.1652375,0,-0.0008739902987144887,0.0009270578739233315,0.022892983630299568,0.00025449777604080737,0.00017309776740148664,0.001556247822009027,0,1,-1000,0,0,0,-1,1,-1,1500.0
16:36:47.275,STABILIZE,-35.3632621,149.1652375,0,-0.0008739902987144887,0.0009270578739233315,0.022892983630299568,0.00025449777604080737,0.00017309776740148664,0.001556247822009027,0,1,-1000,0,0,0,-1,1,-1,1500.0
16:36:47.475,STABILIZE,-35.3632621,149.1652375,0,-0.0008739902987144887,0.0009270578739233315,0.022892983630299568,0.00025449777604080737,0.00017309776740148664,0.001556247822009027,0,1,-1000,0,0,0,-1,1,-1,1500.0
16:36:47.676,STABILIZE,-35.3632621,149.1652375,0,-0.0008739902987144887,0.0009270578739233315,0.022892983630299568,0.00025449777604080737,0.00017309776740148664,0.001556247822009027,0,1,-1000,0,0,0,-1,1,-1,1500.0
16:36:47.876,STABILIZE,-35.3632621,149.1652375,0,-0.0008739902987144887,0.0009270578739233315,0.022892983630299568,0.00025449777604080737,0.00017309776740148664,0.001556247822009027,0,1,-1000,0,0,0,-1,1,-1,1500.0
16:36:48.077,STABILIZE,-35.3632621,149.1652375,0,-0.0008739902987144887,0.0009270578739233315,0.022892983630299568,0.00025449777604080737,0.00017309776740148664,0.001556247822009027,0,1,-1000,0,0,0,-1,1,-1,1500.0
16:36:48.277,STABILIZE,-35.3632621,149.1652375,0,-0.0008739902987144887,0.0009270578739233315,0.022892983630299568,0.00025449777604080737,0.00017309776740148664,0.001556247822009027,0,1,-1000,0,0,0,-1,1,-1,1500.0
16:36:48.478,STABILIZE,-35.3632621,149.1652375,0,-0.0008739902987144887,0.0009270578739233315,0.022892983630299568,0.00025449777604080737,0.00017309776740148664,0.001556247822009027,0,1,-1000,0,0,0,-1,1,-1,1500.0
16:36:48.679,STABILIZE,-35.3632621,149.1652375,0,-0.0008739902987144887,0.0009270578739233315,0.022892983630299568,0.00025449777604080737,0.00017309776740148664,0.001556247822009027,0,1,-1000,0,0,0,-1,1,-1,1500.0
16:36:48.880,STABILIZE,-35.3632621,149.1652375,0,-0.0005919775576330721,0.0009485140908509493,0.022101828828454018,0.00029404120869003236,0.00017592537915334105,0.001616117195226252,0,1,-1000,0,0,0,-1,1,-1,1500.0
16:36:49.080,STABILIZE,-35.3632622,149.1652375,0,-0.0005919775576330721,0.0009485140908509493,0.022101828828454018,0.00029404120869003236,0.00017592537915334105,0.001616117195226252,0,2,-1000,0,1,0,-1,1,-1,1500.0
16:36:49.281,STABILIZE,-35.3632622,149.1652375,0,-0.0005919775576330721,0.0009485140908509493,0.022101828828454018,0.00029404120869003236,0.00017592537915334105,0.001616117195226252,0,2,-1000,0,1,0,-1,1,-1,1500.0
16:36:49.482,STABILIZE,-35.3632622,149.1652375,0,-0.0005919775576330721,0.0009485140908509493,0.022101828828454018,0.00029404120869003236,0.00017592537915334105,0.001616117195226252,0,2,-1000,0,1,0,-1,1,-1,1500.0
16:36:49.682,STABILIZE,-35.3632622,149.1652375,0,-0.0005912613705731928,0.0009573393617756665,0.021846650168299675,0.0003167996765114367,0.00028712901985272765,0.0015944059705361724,0,2,-1000,0,1,0,-1,1,-1,1500.0
16:36:49.883,STABILIZE,-35.3632622,149.1652375,0,-0.0005912613705731928,0.0009573393617756665,0.021846650168299675,0.0003167996765114367,0.00028712901985272765,0.0015944059705361724,0,2,-1000,0,1,0,-1,1,-1,1500.0
16:36:50.083,STABILIZE,-35.3632622,149.1652375,0,-0.0005912613705731928,0.0009573393617756665,0.021846650168299675,0.0003167996765114367,0.00028712901985272765,0.0015944059705361724,0,2,-1000,0,1,0,-1,1,-1,1500.0
16:36:50.285,STABILIZE,-35.3632622,149.1652375,0,-0.0005912613705731928,0.0009573393617756665,0.021846650168299675,0.0003167996765114367,0.00028712901985272765,0.0015944059705361724,0,2,-1000,0,1,0,-1,1,-1,1500.0
16:36:50.486,STABILIZE,-35.3632622,149.1652375,0,-0.0006230241851881146,0.0009585850639268756,0.021620137616991997,0.0002834143815562129,0.00024203065549954772,0.0016063415678218007,0,2,-1000,0,0,1,-1,1,-1,1500.0
16:36:50.686,STABILIZE,-35.3632622,149.1652375,0,-0.0006384326261468232,0.0009552506380714476,0.021546993404626846,0.0002611953532323241,0.00017945870058611035,0.00147722358815372,0,1,-1000,0,0,0,-1,1,-1,1500.0
16:36:50.889,STABILIZE,-35.3632622,149.1652375,0,-0.0006384326261468232,0.0009552506380714476,0.021546993404626846,0.0002611953532323241,0.00017945870058611035,0.00147722358815372,0,1,-1000,0,1,0,-1,1,-1,1500.0
16:36:51.089,STABILIZE,-35.3632622,149.1652375,0,-0.0006384326261468232,0.0009552506380714476,0.021546993404626846,0.0002611953532323241,0.00017945870058611035,0.00147722358815372,0,1,-1000,0,1,0,-1,1,-1,1500.0
16:36:51.290,STABILIZE,-35.3632622,149.1652376,0,-0.00039369650767184794,0.0009620102937333286,0.021306412294507027,0.0003284426929894835,0.00027142209000885487,0.001473109470680356,0,2,-1000,0,1,0,-1,3,2,1500.0
16:36:51.491,STABILIZE,-35.3632622,149.1652376,0,-0.00039369650767184794,0.0009620102937333286,0.021306412294507027,0.0003284426929894835,0.00027142209000885487,0.001473109470680356,0,2,-1000,0,1,0,-1,3,2,1500.0
16:36:51.692,STABILIZE,-35.3632622,149.1652376,0,-0.00047753346734680235,0.0009667707490734756,0.021237779408693314,0.00018762421677820385,0.000349869136698544,0.001513642375357449,0,2,-1000,0,1,0,-1,3,2,1500.0
16:36:51.892,STABILIZE,-35.3632622,149.1652376,0,-0.00047753346734680235,0.0009667707490734756,0.021237779408693314,0.00018762421677820385,0.000349869136698544,0.001513642375357449,0,2,-1000,0,1,0,-1,3,2,1500.0
16:36:52.093,STABILIZE,-35.3632622,149.1652376,0,-0.00047753346734680235,0.0009667707490734756,0.021237779408693314,0.00018762421677820385,0.000349869136698544,0.001513642375357449,0,2,-1000,0,1,0,-1,3,2,1500.0
16:36:52.294,STABILIZE,-35.3632622,149.1652376,0,-0.00047753346734680235,0.0009667707490734756,0.021237779408693314,0.00018762421677820385,0.000349869136698544,0.001513642375357449,0,2,-1000,0,1,0,-1,3,2,1500.0
16:36:52.495,STABILIZE,-35.3632622,149.1652376,0,-0.00073325663106516,0.000986569095402956,0.021008968353271484,0.00015067195636220276,0.00021433306392282248,0.0014057555235922337,0,1,-1000,0,1,0,-1,3,2,1500.0
16:36:52.695,STABILIZE,-35.3632622,149.1652376,0,-0.000796027947217226,0.0009907452622428536,0.020927630364894867,0.0002132202498614788,0.00033788406290113926,0.00130206230096519,0,2,-1000,0,0,0,-1,2,1,1500.0
16:36:52.896,STABILIZE,-35.3632622,149.1652376,0,-0.000796027947217226,0.0009907452622428536,0.020927630364894867,0.0002132202498614788,0.00033788406290113926,0.00130206230096519,0,2,-1000,0,0,0,-1,2,1,1500.0
16:36:53.097,STABILIZE,-35.3632622,149.1652376,0,-0.0009298132499679923,0.000982977100647986,0.020806603133678436,0.00025103497318923473,0.00020130357006564736,0.0015645937528461218,0,2,-1000,0,0,0,-1,2,1,1500.0
16:36:53.298,STABILIZE,-35.3632622,149.1652376,0,-0.0009839388076215982,0.0009824961889535189,0.020762065425515175,0.0003337388043291867,0.00024639430921524763,0.0015522416215389967,0,1,-1000,0,0,1,-1,2,1,1500.0
16:36:53.499,STABILIZE,-35.3632622,149.1652376,0,-0.0009839388076215982,0.0009824961889535189,0.020762065425515175,0.0003337388043291867,0.00024639430921524763,0.0015522416215389967,0,1,-1000,0,0,1,-1,2,1,1500.0
16:36:53.700,STABILIZE,-35.3632622,149.1652376,0,-0.0010328976204618812,0.0009872373193502426,0.020708857104182243,0.00033580424496904016,0.00027856341330334544,0.0013248925097286701,0,2,-1000,0,0,0,-1,2,1,1500.0
16:36:53.901,STABILIZE,-35.3632622,149.1652376,0,-0.0010328976204618812,0.0009872373193502426,0.020708857104182243,0.00033580424496904016,0.00027856341330334544,0.0013248925097286701,0,2,-1000,0,0,0,-1,2,1,1500.0
16:36:54.102,STABILIZE,-35.3632622,149.1652376,0,-0.0010328976204618812,0.0009872373193502426,0.020708857104182243,0.00033580424496904016,0.00027856341330334544,0.0013248925097286701,0,2,-1000,0,0,0,-1,2,1,1500.0
16:36:54.303,STABILIZE,-35.3632622,149.1652376,0,-0.0010328976204618812,0.0009872373193502426,0.020708857104182243,0.00033580424496904016,0.00027856341330334544,0.0013248925097286701,0,2,-1000,0,0,0,-1,2,1,1500.0
16:36:54.504,STABILIZE,-35.3632622,149.1652376,0,-0.0010328976204618812,0.0009872373193502426,0.020708857104182243,0.00033580424496904016,0.00027856341330334544,0.0013248925097286701,0,2,-1000,0,0,0,-1,2,1,1500.0
16:36:54.705,STABILIZE,-35.3632622,149.1652375,0,-0.001016126829199493,0.001008644700050354,0.02052754908800125,0.00018041094881482422,0.00027846486773341894,0.0013088947162032127,0,2,-1000,0,0,0,-1,0,0,1500.0
16:36:54.906,STABILIZE,-35.3632622,149.1652375,0,-0.0010204825084656477,0.001000683638267219,0.02050103433430195,0.00022577348863705993,0.00032216229010373354,0.0013709021732211113,0,2,-1000,0,0,0,-1,0,0,1500.0
16:36:55.107,STABILIZE,-35.3632622,149.1652375,0,-0.0010092711308971047,0.001005183788947761,0.020453229546546936,0.00021264643874019384,0.0003341364790685475,0.0013576081255450845,0,1,-1000,0,1,0,-1,0,0,1500.0
16:36:55.307,STABILIZE,-35.3632622,149.1652375,0,-0.0010092711308971047,0.001005183788947761,0.020453229546546936,0.00021264643874019384,0.0003341364790685475,0.0013576081255450845,0,1,-1000,0,1,0,-1,0,0,1500.0
16:36:55.508,STABILIZE,-35.3632622,149.1652375,0,-0.0010092711308971047,0.001005183788947761,0.020453229546546936,0.00021264643874019384,0.0003341364790685475,0.0013576081255450845,0,1,-1000,0,1,0,-1,0,0,1500.0
16:36:55.709,STABILIZE,-35.3632622,149.1652375,0,-0.0009887262713164091,0.000997262541204691,0.02036474086344242,0.0001944464456755668,0.00012254022294655442,0.0012450182111933827,0,1,-1000,0,1,1,-1,0,0,1500.0
16:36:55.910,STABILIZE,-35.3632622,149.1652375,0,-0.0009887262713164091,0.000997262541204691,0.02036474086344242,0.0001944464456755668,0.00012254022294655442,0.0012450182111933827,0,1,-1000,0,1,1,-1,0,0,1500.0
16:36:56.111,STABILIZE,-35.3632622,149.1652375,0,-0.0009887262713164091,0.000997262541204691,0.02036474086344242,0.0001944464456755668,0.00012254022294655442,0.0012450182111933827,0,1,-1000,0,1,1,-1,0,0,1500.0
16:36:56.312,STABILIZE,-35.3632622,149.1652375,0,-0.0009887262713164091,0.000997262541204691,0.02036474086344242,0.0001944464456755668,0.00012254022294655442,0.0012450182111933827,0,1,-1000,0,1,1,-1,0,0,1500.0
16:36:56.512,STABILIZE,-35.3632622,149.1652375,0,-0.0009887262713164091,0.000997262541204691,0.02036474086344242,0.0001944464456755668,0.00012254022294655442,0.0012450182111933827,0,1,-1000,0,0,0,-1,0,0,1500.0
16:36:56.713,STABILIZE,-35.3632622,149.1652375,0,-0.0009887262713164091,0.000997262541204691,0.02036474086344242,0.0001944464456755668,0.00012254022294655442,0.0012450182111933827,0,1,-1000,0,0,0,-1,0,0,1500.0
16:36:56.914,AUTO,-35.3632622,149.1652375,0,-0.000965299375820905,0.0009830888593569398,0.020199861377477646,0.00020284930360503495,0.0002029482857324183,0.001339391921646893,0,1,-1000,0,1,1,-1,0,0,1500.0
16:36:57.115,AUTO,-35.3632622,149.1652375,2,-0.0009633736335672438,0.0009833871154114604,0.020159823819994926,0.00023042826796881855,0.00028050877153873444,0.0013956711627542973,0,2,-1000,0,0,0,-1,1,0,1500.0
16:36:57.316,AUTO,-35.3632622,149.1652375,3,-0.0009557820740155876,0.0009922393364831805,0.02013988047838211,0.0003668552963063121,0.0003016943228431046,0.0012984962668269873,0,2,-1000,0,0,0,-1,1,0,1500.0
16:36:57.517,AUTO,-35.3632622,149.1652375,3,-0.0009557820740155876,0.0009922393364831805,0.02013988047838211,0.0003668552963063121,0.0003016943228431046,0.0012984962668269873,0,2,-1000,0,0,0,-1,1,0,1500.0
16:36:57.717,AUTO,-35.3632622,149.1652375,3,-0.0009409936610609293,0.0010048465337604284,0.020100705325603485,0.00037990271812304854,0.0002582453307695687,0.0012935297563672066,0,1,-1000,0,0,0,-1,0,0,1500.0
16:36:57.918,AUTO,-35.3632622,149.1652375,3,-0.0009409936610609293,0.0010048465337604284,0.020100705325603485,0.00037990271812304854,0.0002582453307695687,0.0012935297563672066,0,1,-1000,0,0,0,-1,0,0,1500.0
16:36:58.119,AUTO,-35.3632622,149.1652375,3,-0.0009409936610609293,0.0010048465337604284,0.020100705325603485,0.00037990271812304854,0.0002582453307695687,0.0012935297563672066,0,1,-1000,0,0,0,-1,0,0,1500.0
16:36:58.321,AUTO,-35.3632622,149.1652375,3,-0.0009409936610609293,0.0010048465337604284,0.020100705325603485,0.00037990271812304854,0.0002582453307695687,0.0012935297563672066,0,1,-1000,0,0,0,-1,0,0,1500.0
16:36:58.523,AUTO,-35.3632622,149.1652375,3,-0.0005190636729821563,0.0010978158097714186,0.01997668296098709,0.00040540951886214316,0.000281758897472173,0.0012381530832499266,0,1,-1000,0,0,0,-1,0,0,1500.0
16:36:58.725,AUTO,-35.3632621,149.1652375,4,-0.0004775451379828155,0.0011512357741594315,0.019917920231819153,0.00033272046130150557,0.00021099916193634272,0.0014044411946088076,0,1,-1000,0,0,1,0,0,0,1500.0
16:36:58.926,AUTO,-35.3632621,149.1652375,4,-0.0004305946931708604,0.0012153384741395712,0.01986844837665558,0.0002162554010283202,0.00034745829179883003,0.0013601534301415086,0,1,-1000,0,1,0,0,0,0,1500.0
16:36:59.127,AUTO,-35.3632621,149.1652375,4,-0.00038178800605237484,0.0012778419768437743,0.019818952307105064,0.00024471760843880475,0.0002241702750325203,0.001270683715119958,0,1,-1000,0,1,0,0,0,0,1500.0
16:36:59.327,AUTO,-35.3632621,149.1652375,4,-0.000323216721881181,0.0013458149041980505,0.019746767356991768,0.00017229665536433458,0.0003080902970395982,0.001317251706495881,0,1,-1000,0,1,0,0,0,0,1500.0
16:36:59.528,AUTO,-35.3632621,149.1652375,4,-0.000323216721881181,0.0013458149041980505,0.019746767356991768,0.00017229665536433458,0.0003080902970395982,0.001317251706495881,0,1,-1000,0,1,0,0,0,0,1500.0
16:36:59.729,AUTO,-35.3632621,149.1652375,4,-0.00026782703935168684,0.0014150321949273348,0.01968289352953434,0.000252577883657068,0.00020140217384323478,0.0013229360338300467,0,1,-1000,0,0,0,0,0,0,1500.0
16:36:59.930,AUTO,-35.3632621,149.1652375,4,-0.00026782703935168684,0.0014150321949273348,0.01968289352953434,0.000252577883657068,0.00020140217384323478,0.0013229360338300467,0,1,-1000,0,0,0,0,0,0,1500.0
16:37:00.131,AUTO,-35.3632621,149.1652375,4,-0.00026782703935168684,0.0014150321949273348,0.01968289352953434,0.000252577883657068,0.00020140217384323478,0.0013229360338300467,0,1,-1000,0,0,0,0,0,0,1500.0
16:37:00.332,AUTO,-35.3632621,149.1652375,4,-0.00026782703935168684,0.0014150321949273348,0.01968289352953434,0.000252577883657068,0.00020140217384323478,0.0013229360338300467,0,1,-1000,0,0,0,0,0,0,1500.0
16:37:00.533,AUTO,-35.3632621,149.1652375,4,-9.01534986041952e-06,0.0017075841315090656,0.019442487508058548,0.00035017685149796307,0.00028178724460303783,0.001259335782378912,0,2,-1000,0,0,1,0,0,0,1500.0
16:37:00.735,AUTO,-35.3632621,149.1652375,4,-9.01534986041952e-06,0.0017075841315090656,0.019442487508058548,0.00035017685149796307,0.00028178724460303783,0.001259335782378912,0,1,-1000,0,0,0,0,0,0,1500.0
16:37:00.936,AUTO,-35.3632621,149.1652375,5,0.0008001783862709999,0.001146285212598741,0.019402988255023956,0.007004427723586559,-0.00970442034304142,0.0024616713635623455,0,0,-1080,7,-9,2,0,0,-4,1500.0
16:37:01.137,AUTO,-35.3632621,149.1652375,62,0.003394379047676921,-0.0005512714269571006,0.019516166299581528,0.010223899967968464,-0.0012738890945911407,0.0009743982809595764,0,0,-1141,10,0,0,0,0,-39,1500.0
16:37:01.338,AUTO,-35.3632621,149.1652375,203,0.0028775448445230722,0.00025276950327679515,0.019396072253584862,-0.0036205104552209377,0.004118436016142368,0.002097406890243292,0,0,-1130,-3,4,1,0,0,-72,1500.0
16:37:01.538,AUTO,-35.3632621,149.1652375,203,0.0028775448445230722,0.00025276950327679515,0.019396072253584862,-0.0036205104552209377,0.004118436016142368,0.002097406890243292,0,0,-1130,-3,4,1,0,0,-72,1500.0
16:37:01.739,AUTO,-35.3632621,149.1652375,421,0.0019457631278783083,0.001158823724836111,0.019364522770047188,-0.006988151930272579,0.003873206675052643,0.0018114668782800436,0,0,-1108,-6,4,1,0,1,-101,1500.0
16:37:01.940,AUTO,-35.3632621,149.1652375,421,0.0019457631278783083,0.001158823724836111,0.019364522770047188,-0.006988151930272579,0.003873206675052643,0.0018114668782800436,0,0,-1108,-6,4,1,0,1,-101,1500.0
16:37:02.141,AUTO,-35.3632621,149.1652375,421,0.0019457631278783083,0.001158823724836111,0.019364522770047188,-0.006988151930272579,0.003873206675052643,0.0018114668782800436,0,0,-1108,-6,4,1,0,1,-101,1500.0
16:37:02.342,AUTO,-35.3632621,149.1652375,421,0.0019457631278783083,0.001158823724836111,0.019364522770047188,-0.006988151930272579,0.003873206675052643,0.0018114668782800436,0,0,-1108,-6,4,1,0,1,-101,1500.0
16:37:02.543,AUTO,-35.363262,149.1652377,1784,0.03417997062206268,-0.002759471070021391,0.01890939474105835,0.04504382610321045,-0.007956063374876976,0.002513099694624543,0,0,-1017,47,-6,1,1,11,-147,1500.0
16:37:02.744,AUTO,-35.363262,149.1652377,1784,0.03417997062206268,-0.002759471070021391,0.01890939474105835,0.04504382610321045,-0.007956063374876976,0.002513099694624543,0,-1,-1007,45,-7,2,1,11,-147,1500.0
16:37:02.945,AUTO,-35.3632619,149.1652381,2167,0.04506636783480644,-0.004906105808913708,0.019089387729763985,0.04262932389974594,-0.009394542314112186,0.0029138755053281784,0,-2,-1002,42,-8,2,3,20,-148,1500.0
16:37:03.145,AUTO,-35.3632618,149.1652387,2551,0.055202726274728775,-0.00762213347479701,0.019311541691422462,0.03922629728913307,-0.01173554640263319,0.0034762611612677574,1,-4,-1000,39,-10,3,5,30,-148,1500.0
16:37:03.347,AUTO,-35.3632616,149.1652397,2935,0.0626862421631813,-0.009259751066565514,-0.008006752468645573,-0.007728791795670986,0.017509615048766136,-0.039383258670568466,0,-8,-992,-7,18,-39,8,43,-148,1500.0
16:37:03.548,AUTO,-35.3632614,149.165241,3315,0.04284295439720154,0.012137282639741898,-0.0303327776491642,-0.1347159892320633,0.0990680679678917,-0.10274682939052582,3,-12,-991,-134,99,-102,9,53,-145,1500.0
16:37:03.750,AUTO,-35.3632614,149.165241,3315,0.04284295439720154,0.012137282639741898,-0.0303327776491642,-0.1347159892320633,0.0990680679678917,-0.10274682939052582,3,-12,-991,-134,99,-102,9,53,-145,1500.0
16:37:03.951,AUTO,-35.3632614,149.165241,3315,0.04284295439720154,0.012137282639741898,-0.0303327776491642,-0.1347159892320633,0.0990680679678917,-0.10274682939052582,3,-12,-991,-134,99,-102,9,53,-145,1500.0
16:37:04.152,AUTO,-35.3632614,149.165241,3315,0.04284295439720154,0.012137282639741898,-0.0303327776491642,-0.1347159892320633,0.0990680679678917,-0.10274682939052582,3,-12,-991,-134,99,-102,9,53,-145,1500.0
16:37:04.355,AUTO,-35.3632614,149.165241,3315,0.04284295439720154,0.012137282639741898,-0.0303327776491642,-0.1347159892320633,0.0990680679678917,-0.10274682939052582,3,-12,-991,-134,99,-102,9,53,-145,1500.0
16:37:04.556,AUTO,-35.3632607,149.1652459,4836,-0.03799118474125862,6.34498501312919e-05,-0.06635541468858719,-0.0559755340218544,0.012703387066721916,-0.04449208080768585,2,-6,-1000,-55,13,-44,5,28,-149,1500.0
16:37:04.757,AUTO,-35.3632607,149.1652459,4836,-0.03799118474125862,6.34498501312919e-05,-0.06635541468858719,-0.0559755340218544,0.012703387066721916,-0.04449208080768585,2,-6,-1000,-55,13,-44,5,28,-149,1500.0
16:37:04.958,AUTO,-35.3632606,149.1652465,5221,-0.05728491395711899,0.003978871274739504,-0.0793628841638565,-0.0891571119427681,0.022531602531671524,-0.05513458326458931,1,-5,-998,-88,23,-55,5,14,-149,1500.0
16:37:05.159,AUTO,-35.3632605,149.1652466,5604,-0.08116531372070312,0.007994038052856922,-0.09357660263776779,-0.05409667640924454,0.013391638174653053,-0.04760565981268883,0,-1,-1006,-53,14,-47,2,-4,-148,1500.0
16:37:05.360,AUTO,-35.3632605,149.1652463,5988,-0.07813437283039093,0.007613710593432188,-0.10322707146406174,0.04570530727505684,-0.0023377900943160057,-0.032603077590465546,-1,2,-1004,45,-1,-32,0,-24,-149,1500.0
16:37:05.561,AUTO,-35.3632605,149.1652454,6371,-0.06521430611610413,0.006976076867431402,-0.11000233143568039,0.05575428530573845,0.0013590080197900534,-0.022627724334597588,-4,6,-1001,55,2,-22,-5,-41,-148,1500.0
16:37:05.762,AUTO,-35.3632605,149.1652454,6371,-0.06521430611610413,0.006976076867431402,-0.11000233143568039,0.05575428530573845,0.0013590080197900534,-0.022627724334597588,-4,6,-1001,55,2,-22,-5,-41,-148,1500.0
16:37:05.963,AUTO,-35.3632605,149.1652454,6371,-0.06521430611610413,0.006976076867431402,-0.11000233143568039,0.05575428530573845,0.0013590080197900534,-0.022627724334597588,-4,6,-1001,55,2,-22,-5,-41,-148,1500.0
16:37:06.164,AUTO,-35.3632605,149.1652454,6371,-0.06521430611610413,0.006976076867431402,-0.11000233143568039,0.05575428530573845,0.0013590080197900534,-0.022627724334597588,-4,6,-1001,55,2,-22,-5,-41,-148,1500.0
16:37:06.365,AUTO,-35.3632605,149.1652454,6371,-0.06521430611610413,0.006976076867431402,-0.11000233143568039,0.05575428530573845,0.0013590080197900534,-0.022627724334597588,-4,6,-1001,55,2,-22,-5,-41,-148,1500.0
16:37:06.566,AUTO,-35.3632615,149.165239,7908,-0.0005263870698399842,0.014259807765483856,-0.12049594521522522,0.07021894305944443,0.009799614548683167,-0.00321140862070024,-3,13,-1004,70,10,-3,-20,-63,-150,1500.0
16:37:06.767,AUTO,-35.3632615,149.165239,7908,-0.0005263870698399842,0.014259807765483856,-0.12049594521522522,0.07021894305944443,0.009799614548683167,-0.00321140862070024,-3,13,-1004,70,10,-3,-20,-63,-150,1500.0
16:37:06.968,AUTO,-35.363262,149.1652373,8297,0.017122000455856323,0.016297705471515656,-0.12020841985940933,0.07090670615434647,0.0068493252620100975,0.0003231676237192005,-5,15,-1004,71,7,0,-24,-57,-151,1500.0
16:37:07.169,AUTO,-35.3632626,149.1652358,8691,0.034760281443595886,0.017430586740374565,-0.11908787488937378,0.07057100534439087,0.0032170035410672426,0.0016140618827193975,-3,12,-1004,71,3,1,-28,-48,-152,1500.0
16:37:07.370,AUTO,-35.3632633,149.1652346,9084,0.051800087094306946,0.017223287373781204,-0.11742454767227173,0.06719925254583359,-0.0032447113189846277,0.004044586792588234,0,12,-1003,67,-2,3,-30,-34,-153,1500.0
16:37:07.571,AUTO,-35.363264,149.1652338,9478,0.06746882945299149,0.0151150431483984,-0.11503155529499054,0.04364519938826561,-0.021650858223438263,0.029421869665384293,0,9,-999,43,-20,29,-32,-17,-153,1500.0
16:37:07.772,AUTO,-35.363264,149.1652338,9478,0.06746882945299149,0.0151150431483984,-0.11503155529499054,0.04364519938826561,-0.021650858223438263,0.029421869665384293,0,9,-999,43,-20,29,-32,-17,-153,1500.0
16:37:07.973,AUTO,-35.363264,149.1652338,9478,0.06746882945299149,0.0151150431483984,-0.11503155529499054,0.04364519938826561,-0.021650858223438263,0.029421869665384293,0,9,-999,43,-20,29,-32,-17,-153,1500.0
16:37:08.174,AUTO,-35.363264,149.1652338,9478,0.06746882945299149,0.0151150431483984,-0.11503155529499054,0.04364519938826561,-0.021650858223438263,0.029421869665384293,0,9,-999,43,-20,29,-32,-17,-153,1500.0
16:37:08.375,AUTO,-35.363264,149.1652338,9478,0.06746882945299149,0.0151150431483984,-0.11503155529499054,0.04364519938826561,-0.021650858223438263,0.029421869665384293,0,9,-999,43,-20,29,-32,-17,-153,1500.0
16:37:08.577,AUTO,-35.3632656,149.1652347,11030,0.050206348299980164,-0.08054886758327484,-0.021601706743240356,0.008794396184384823,-0.05305610969662666,0.10439139604568481,3,-4,-999,8,-52,104,12,34,-150,1500.0
16:37:08.777,AUTO,-35.3632656,149.1652347,11030,0.050206348299980164,-0.08054886758327484,-0.021601706743240356,0.008794396184384823,-0.05305610969662666,0.10439139604568481,3,-4,-999,8,-52,104,12,34,-150,1500.0
16:37:08.979,AUTO,-35.3632652,149.1652357,11412,0.029102129861712456,-0.07686952501535416,-0.016736969351768494,-0.13660801947116852,0.08372767269611359,-0.03464864566922188,0,-11,-991,-136,84,-34,33,41,-147,1500.0
16:37:09.179,AUTO,-35.3632643,149.1652368,11788,-0.004409255459904671,-0.04630192741751671,-0.03622175753116608,-0.1289881467819214,0.13358667492866516,-0.10449360311031342,-3,-13,-1002,-128,134,-104,48,39,-146,1500.0
16:37:09.380,AUTO,-35.3632632,149.1652377,12166,-0.029129115864634514,-0.016598643735051155,-0.06678363680839539,-0.07551315426826477,0.10705400258302689,-0.1261216104030609,-4,-14,-1010,-75,107,-126,54,30,-148,1500.0
16:37:09.581,AUTO,-35.363262,149.1652383,12548,-0.042388610541820526,0.005031163338571787,-0.09982175379991531,-0.03288313373923302,0.07576114684343338,-0.12116240710020065,-8,-13,-1010,-32,76,-121,52,17,-150,1500.0
16:37:09.782,AUTO,-35.363262,149.1652383,12548,-0.042388610541820526,0.005031163338571787,-0.09982175379991531,-0.03288313373923302,0.07576114684343338,-0.12116240710020065,-8,-13,-1010,-32,76,-121,52,17,-150,1500.0
16:37:09.983,AUTO,-35.363262,149.1652383,12548,-0.042388610541820526,0.005031163338571787,-0.09982175379991531,-0.03288313373923302,0.07576114684343338,-0.12116240710020065,-8,-13,-1010,-32,76,-121,52,17,-150,1500.0
16:37:10.183,AUTO,-35.363262,149.1652383,12548,-0.042388610541820526,0.005031163338571787,-0.09982175379991531,-0.03288313373923302,0.07576114684343338,-0.12116240710020065,-8,-13,-1010,-32,76,-121,52,17,-150,1500.0
16:37:10.384,AUTO,-35.363262,149.1652383,12548,-0.042388610541820526,0.005031163338571787,-0.09982175379991531,-0.03288313373923302,0.07576114684343338,-0.12116240710020065,-8,-13,-1010,-32,76,-121,52,17,-150,1500.0
16:37:10.585,AUTO,-35.3632586,149.1652376,14113,-0.023535657674074173,0.03749207779765129,-0.18420615792274475,0.04636360704898834,0.015607218258082867,-0.043087974190711975,-7,0,-1001,46,16,-43,15,-23,-153,1500.0
16:37:10.786,AUTO,-35.3632586,149.1652376,14113,-0.023535657674074173,0.03749207779765129,-0.18420615792274475,0.04636360704898834,0.015607218258082867,-0.043087974190711975,-7,0,-1001,46,16,-43,15,-23,-153,1500.0
16:37:10.987,AUTO,-35.3632583,149.1652369,14505,-0.011828516609966755,0.04073499143123627,-0.1932232826948166,0.050385743379592896,0.012476742267608643,-0.031408537179231644,-6,2,-1001,50,13,-31,4,-26,-153,1500.0
16:37:11.188,AUTO,-35.3632583,149.1652362,14899,0.0008615597616881132,0.04311782494187355,-0.1993114948272705,0.05349263921380043,0.008051308803260326,-0.022243842482566833,-4,4,-1001,54,8,-22,-6,-25,-153,1500.0
16:37:11.389,AUTO,-35.3632585,149.1652355,15293,0.014265763573348522,0.04423809424042702,-0.20319737493991852,0.05567266792058945,0.0022122871596366167,-0.015412313863635063,-2,5,-1001,55,3,-15,-16,-20,-153,1500.0
16:37:11.590,AUTO,-35.3632588,149.165235,15685,0.028083615005016327,0.04377640038728714,-0.20554021000862122,0.05603998899459839,-0.005079722031950951,-0.007957031950354576,0,5,-1000,56,-4,-8,-25,-12,-153,1500.0
16:37:11.792,AUTO,-35.3632588,149.165235,15685,0.028083615005016327,0.04377640038728714,-0.20554021000862122,0.05603998899459839,-0.005079722031950951,-0.007957031950354576,0,5,-1000,56,-4,-8,-25,-12,-153,1500.0
16:37:11.992,AUTO,-35.3632588,149.165235,15685,0.028083615005016327,0.04377640038728714,-0.20554021000862122,0.05603998899459839,-0.005079722031950951,-0.007957031950354576,0,5,-1000,56,-4,-8,-25,-12,-153,1500.0
16:37:12.194,AUTO,-35.3632588,149.165235,15685,0.028083615005016327,0.04377640038728714,-0.20554021000862122,0.05603998899459839,-0.005079722031950951,-0.007957031950354576,0,5,-1000,56,-4,-8,-25,-12,-153,1500.0
16:37:12.395,AUTO,-35.3632588,149.165235,15685,0.028083615005016327,0.04377640038728714,-0.20554021000862122,0.05603998899459839,-0.005079722031950951,-0.007957031950354576,0,5,-1000,56,-4,-8,-25,-12,-153,1500.0
16:37:12.596,AUTO,-35.3632614,149.1652353,17243,0.01726505532860756,-0.026689575985074043,-0.14692986011505127,-0.06006982550024986,-0.022615456953644753,0.038666848093271255,6,0,-999,-59,-21,38,-23,19,-151,1500.0
16:37:12.798,AUTO,-35.3632618,149.1652358,17630,0.0027635095175355673,-0.024593593552708626,-0.14452698826789856,-0.050235994160175323,0.024829234927892685,-0.00996679812669754,6,0,-999,-59,-21,38,-14,19,-151,1500.0
16:37:12.999,AUTO,-35.3632618,149.1652358,17630,0.0027635095175355673,-0.024593593552708626,-0.14452698826789856,-0.050235994160175323,0.024829234927892685,-0.00996679812669754,5,-2,-1001,-49,25,-10,-14,19,-151,1500.0
16:37:13.200,AUTO,-35.363262,149.1652363,18022,-0.006486476399004459,-0.017722681164741516,-0.15083789825439453,-0.03103448450565338,0.02784442901611328,-0.03612026944756508,4,-1,-1001,-30,28,-36,-7,17,-152,1500.0
16:37:13.401,AUTO,-35.363262,149.1652366,18411,-0.01146543025970459,-0.011765459552407265,-0.16138964891433716,-0.010464843362569809,0.022002778947353363,-0.04642217606306076,2,-1,-1002,-10,22,-46,-3,12,-152,1500.0
16:37:13.602,AUTO,-35.3632621,149.1652368,18802,-0.013132058084011078,-0.0074225012212991714,-0.17347170412540436,-0.0009448221535421908,0.01706324703991413,-0.050680384039878845,1,-1,-1001,0,18,-50,0,8,-152,1500.0
16:37:13.803,AUTO,-35.3632621,149.1652368,18802,-0.013132058084011078,-0.0074225012212991714,-0.17347170412540436,-0.0009448221535421908,0.01706324703991413,-0.050680384039878845,1,-1,-1001,0,18,-50,0,8,-152,1500.0
16:37:14.004,AUTO,-35.3632621,149.1652368,18802,-0.013132058084011078,-0.0074225012212991714,-0.17347170412540436,-0.0009448221535421908,0.01706324703991413,-0.050680384039878845,1,-1,-1001,0,18,-50,0,8,-152,1500.0
16:37:14.205,AUTO,-35.3632621,149.1652368,18802,-0.013132058084011078,-0.0074225012212991714,-0.17347170412540436,-0.0009448221535421908,0.01706324703991413,-0.050680384039878845,1,-1,-1001,0,18,-50,0,8,-152,1500.0
16:37:14.406,AUTO,-35.3632621,149.1652368,18802,-0.013132058084011078,-0.0074225012212991714,-0.17347170412540436,-0.0009448221535421908,0.01706324703991413,-0.050680384039878845,1,-1,-1001,0,18,-50,0,8,-152,1500.0
16:37:14.607,AUTO,-35.363262,149.1652368,20363,-0.0013998416252434254,0.0034517275635153055,-0.21741646528244019,0.015707168728113174,0.007531375624239445,-0.03409678116440773,-1,0,-1000,15,8,-34,0,-4,-153,1500.0
16:37:14.808,AUTO,-35.3632619,149.1652366,20753,0.00255430955439806,0.0048735495656728745,-0.2254081517457962,0.01532985270023346,0.0055108508095145226,-0.02946396917104721,-1,0,-1000,15,6,-29,0,-4,-153,1500.0
16:37:15.008,AUTO,-35.3632619,149.1652366,20753,0.00255430955439806,0.0048735495656728745,-0.2254081517457962,0.01532985270023346,0.0055108508095145226,-0.02946396917104721,-1,0,-1000,15,6,-29,0,-4,-153,1500.0
16:37:15.209,AUTO,-35.3632619,149.1652364,21145,0.00532583286985755,0.0059473211877048016,-0.23229381442070007,0.010469604283571243,0.003564054612070322,-0.02595660649240017,-1,0,-1000,10,4,-26,-1,-3,-153,1500.0
16:37:15.410,AUTO,-35.3632619,149.1652363,21537,0.00699777714908123,0.006537821609526873,-0.23819193243980408,0.004797023721039295,0.0022306805476546288,-0.02319597266614437,-1,0,-999,5,2,-23,-1,-2,-153,1500.0
16:37:15.611,AUTO,-35.3632619,149.1652362,21928,0.008025769144296646,0.006656343583017588,-0.24325428903102875,0.0038493878673762083,0.0013491411227732897,-0.020580725744366646,0,0,-1000,4,2,-20,-2,0,-153,1500.0
16:37:15.812,AUTO,-35.3632619,149.1652362,21928,0.008025769144296646,0.006656343583017588,-0.24325428903102875,0.0038493878673762083,0.0013491411227732897,-0.020580725744366646,0,0,-1000,4,2,-20,-2,0,-153,1500.0
16:37:16.014,AUTO,-35.3632619,149.1652362,21928,0.008025769144296646,0.006656343583017588,-0.24325428903102875,0.0038493878673762083,0.0013491411227732897,-0.020580725744366646,0,0,-1000,4,2,-20,-2,0,-153,1500.0
16:37:16.215,AUTO,-35.3632619,149.1652362,21928,0.008025769144296646,0.006656343583017588,-0.24325428903102875,0.0038493878673762083,0.0013491411227732897,-0.020580725744366646,0,0,-1000,4,2,-20,-2,0,-153,1500.0
16:37:16.416,AUTO,-35.3632619,149.1652361,23104,0.0070348819717764854,0.005209626629948616,-0.2557166814804077,-0.0040268488228321075,-0.0012467704946175218,-0.016375182196497917,0,0,-1000,-3,0,-16,-3,3,-153,1500.0
16:37:16.617,AUTO,-35.3632619,149.1652361,23494,0.0058725569397211075,0.00464974157512188,-0.25967687368392944,-0.00460850540548563,-0.0016315716784447432,-0.015889683738350868,0,0,-1000,-4,0,-15,-4,4,-153,1500.0
16:37:16.818,AUTO,-35.3632619,149.1652361,23885,0.00478404900059104,0.004147052764892578,-0.26382187008857727,-0.0014943904243409634,-0.001111057703383267,-0.0159241184592247,0,0,-1000,0,0,-16,-3,5,-153,1500.0
16:37:17.019,AUTO,-35.3632619,149.1652361,23885,0.00478404900059104,0.004147052764892578,-0.26382187008857727,-0.0014943904243409634,-0.001111057703383267,-0.0159241184592247,0,0,-1000,0,0,-16,-3,5,-153,1500.0
16:37:17.220,AUTO,-35.363262,149.1652362,24274,0.0040128338150680065,0.0035385219380259514,-0.26803964376449585,-0.003330974141135812,-0.0029106740839779377,-0.017598435282707214,0,0,-1000,-2,-2,-17,-3,5,-153,1500.0
16:37:17.421,AUTO,-35.363262,149.1652363,24664,0.003574244910851121,0.002810167847201228,-0.2723805904388428,-0.0022024731151759624,3.557588206604123e-05,-0.019436553120613098,0,0,-1000,-1,0,-19,-3,5,-153,1500.0
16:37:17.621,AUTO,-35.3632621,149.1652364,25059,0.0022645925637334585,0.002375091426074505,-0.2769191563129425,-0.034288011491298676,-0.00033536372939124703,-0.01692960597574711,0,-2,-993,-34,0,-16,-3,5,-153,1500.0
16:37:17.823,AUTO,-35.3632621,149.1652364,25059,0.0022645925637334585,0.002375091426074505,-0.2769191563129425,-0.034288011491298676,-0.00033536372939124703,-0.01692960597574711,0,-2,-993,-34,0,-16,-3,5,-153,1500.0
16:37:18.024,AUTO,-35.3632621,149.1652364,25059,0.0022645925637334585,0.002375091426074505,-0.2769191563129425,-0.034288011491298676,-0.00033536372939124703,-0.01692960597574711,0,-2,-993,-34,0,-16,-3,5,-153,1500.0
16:37:18.226,AUTO,-35.3632621,149.1652364,25059,0.0022645925637334585,0.002375091426074505,-0.2769191563129425,-0.034288011491298676,-0.00033536372939124703,-0.01692960597574711,0,-2,-993,-34,0,-16,-3,5,-153,1500.0
16:37:18.427,AUTO,-35.3632622,149.1652363,26223,0.0005781605141237378,0.003457641927525401,-0.28576087951660156,0.03739069029688835,0.004950933624058962,0.002633876632899046,0,0,-1000,38,5,2,-4,-1,-153,1500.0
16:37:18.628,AUTO,-35.3632623,149.1652364,26615,0.007778939791023731,0.003851056331768632,-0.2832376956939697,0.02391030080616474,0.002876001875847578,0.012763776816427708,0,0,-999,24,3,12,-4,0,-153,1500.0
16:37:18.829,AUTO,-35.3632624,149.1652363,27005,0.011671683751046658,0.003737117862328887,-0.2788138687610626,0.008114784955978394,-0.0010113765019923449,0.021115172654390335,0,0,-999,8,0,21,-4,1,-153,1500.0
16:37:19.030,AUTO,-35.3632624,149.1652363,27005,0.011671683751046658,0.003737117862328887,-0.2788138687610626,0.008114784955978394,-0.0010113765019923449,0.021115172654390335,0,0,-999,8,0,21,-4,1,-153,1500.0
16:37:19.231,AUTO,-35.3632624,149.1652363,27395,0.012959044426679611,0.003465899033471942,-0.27346715331077576,0.003247019136324525,-8.133822120726109e-05,0.023369256407022476,0,0,-999,3,0,23,-4,3,-153,1500.0
16:37:19.432,AUTO,-35.3632625,149.1652364,27784,0.012441997416317463,0.0029604104347527027,-0.2674502730369568,-0.005973298102617264,-0.0003164566005580127,0.024153130128979683,0,0,-999,-5,0,24,-3,6,-152,1500.0
16:37:19.634,AUTO,-35.3632625,149.1652364,28173,0.010718698613345623,0.0024228401016443968,-0.26107296347618103,-0.00509455194696784,-0.0010287497425451875,0.025432134047150612,1,0,-1000,-4,0,25,-2,8,-152,1500.0
16:37:19.835,AUTO,-35.3632625,149.1652364,28173,0.010718698613345623,0.0024228401016443968,-0.26107296347618103,-0.00509455194696784,-0.0010287497425451875,0.025432134047150612,1,0,-1000,-4,0,25,-2,8,-152,1500.0
16:37:20.036,AUTO,-35.3632625,149.1652364,28173,0.010718698613345623,0.0024228401016443968,-0.26107296347618103,-0.00509455194696784,-0.0010287497425451875,0.025432134047150612,1,0,-1000,-4,0,25,-2,8,-152,1500.0
16:37:20.240,AUTO,-35.3632625,149.1652364,28173,0.010718698613345623,0.0024228401016443968,-0.26107296347618103,-0.00509455194696784,-0.0010287497425451875,0.025432134047150612,1,0,-1000,-4,0,25,-2,8,-152,1500.0
16:37:20.441,AUTO,-35.3632625,149.1652371,29338,0.003973542712628841,0.001684178365394473,-0.24340862035751343,-0.004095104988664389,0.001100369030609727,0.023174522444605827,1,-1,-1000,-3,2,22,0,10,-152,1500.0
16:37:20.642,AUTO,-35.3632625,149.1652373,29731,0.002008917974308133,0.001644308096729219,-0.23796431720256805,-0.008312132209539413,0.001136328442953527,0.021878838539123535,1,-1,-1000,-7,2,22,0,10,-152,1500.0
16:37:20.843,AUTO,-35.3632625,149.1652375,30119,0.0003636629553511739,0.0014568801270797849,-0.23271088302135468,-0.006150003522634506,-0.0011465847492218018,0.019318068400025368,0,-1,-1001,-5,0,19,0,9,-152,1500.0
16:37:21.043,AUTO,-35.3632625,149.1652375,30119,0.0003636629553511739,0.0014568801270797849,-0.23271088302135468,-0.006150003522634506,-0.0011465847492218018,0.019318068400025368,0,-1,-1001,-5,0,19,0,9,-152,1500.0
16:37:21.244,AUTO,-35.3632625,149.1652377,30508,-0.0007802974432706833,0.0014042534166947007,-0.22765474021434784,-0.0019324516179040074,0.0007537876954302192,0.019378403201699257,0,-1,-1000,-1,1,19,0,8,-153,1500.0
16:37:21.445,AUTO,-35.3632625,149.1652378,30897,-0.0013365006307139993,0.0014364379458129406,-0.22314319014549255,-0.0009121022303588688,0.0010416784789413214,0.018385954201221466,0,-1,-1000,0,2,18,0,7,-153,1500.0
16:37:21.646,AUTO,-35.3632625,149.165238,31286,-0.0015557573642581701,0.0012670097639784217,-0.21871334314346313,-0.00043874714174307883,-0.0016977654304355383,0.018199214711785316,0,-1,-1000,0,0,18,0,5,-153,1500.0
16:37:21.846,AUTO,-35.3632625,149.165238,31286,-0.0015557573642581701,0.0012670097639784217,-0.21871334314346313,-0.00043874714174307883,-0.0016977654304355383,0.018199214711785316,0,-1,-1000,0,0,18,0,5,-153,1500.0
16:37:22.048,AUTO,-35.3632625,149.165238,31286,-0.0015557573642581701,0.0012670097639784217,-0.21871334314346313,-0.00043874714174307883,-0.0016977654304355383,0.018199214711785316,0,-1,-1000,0,0,18,0,5,-153,1500.0
16:37:22.250,AUTO,-35.3632625,149.165238,31286,-0.0015557573642581701,0.0012670097639784217,-0.21871334314346313,-0.00043874714174307883,-0.0016977654304355383,0.018199214711785316,0,-1,-1000,0,0,18,0,5,-153,1500.0
16:37:22.451,AUTO,-35.3632625,149.1652381,32450,-0.00034944299841299653,0.0013198290253058076,-0.20603042840957642,0.0026334268040955067,0.0020232954993844032,0.017902284860610962,0,0,-1000,3,2,18,0,2,-153,1500.0
16:37:22.652,AUTO,-35.3632624,149.1652381,32840,1.4332122191262897e-05,0.0014964042929932475,-0.20198416709899902,0.0033096587285399437,0.0020463396795094013,0.015489993616938591,0,0,-1000,4,2,15,0,1,-153,1500.0
16:37:22.852,AUTO,-35.3632624,149.1652381,33230,0.00044661021092906594,0.0016962428344413638,-0.1982283592224121,0.003078917972743511,0.002288989955559373,0.01688537374138832,0,0,-1000,4,3,16,0,1,-153,1500.0
16:37:23.053,AUTO,-35.3632624,149.1652381,33619,0.0007647959282621741,0.001716249855235219,-0.1945280134677887,0.0007685519522055984,0.0011624949984252453,0.015283537097275257,0,0,-999,1,2,15,0,0,-153,1500.0
16:37:23.254,AUTO,-35.3632624,149.1652381,33619,0.0007647959282621741,0.001716249855235219,-0.1945280134677887,0.0007685519522055984,0.0011624949984252453,0.015283537097275257,0,0,-999,1,2,15,0,0,-153,1500.0
16:37:23.454,AUTO,-35.3632623,149.1652381,34009,0.0010328758507966995,0.0017587875481694937,-0.19124016165733337,0.00050621188711375,0.00021643622312694788,0.013734834268689156,0,0,-999,1,1,13,0,0,-153,1500.0
16:37:23.655,AUTO,-35.3632623,149.1652381,34403,0.0012595995794981718,0.0017046499997377396,-0.1877271831035614,0.0020440223161131144,0.0007084424141794443,0.016131047159433365,0,0,-1000,2,1,16,0,0,-153,1500.0
16:37:23.856,AUTO,-35.3632623,149.1652381,34403,0.0012595995794981718,0.0017046499997377396,-0.1877271831035614,0.0020440223161131144,0.0007084424141794443,0.016131047159433365,0,0,-1000,2,1,16,0,0,-153,1500.0
16:37:24.057,AUTO,-35.3632623,149.1652381,34403,0.0012595995794981718,0.0017046499997377396,-0.1877271831035614,0.0020440223161131144,0.0007084424141794443,0.016131047159433365,0,0,-1000,2,1,16,0,0,-153,1500.0
16:37:24.260,AUTO,-35.3632623,149.1652381,34403,0.0012595995794981718,0.0017046499997377396,-0.1877271831035614,0.0020440223161131144,0.0007084424141794443,0.016131047159433365,0,0,-1000,2,1,16,0,0,-153,1500.0
16:37:24.461,AUTO,-35.3632623,149.165238,35571,0.0015756069915369153,0.0010276813991367817,-0.17813226580619812,0.0010086898691952229,-9.78677999228239e-05,0.012474608607590199,0,0,-1000,1,1,12,0,0,-153,1500.0
16:37:24.662,AUTO,-35.3632623,149.165238,35961,0.0019085996318608522,0.0010193519992753863,-0.175091952085495,0.0030377248767763376,0.0015180937480181456,0.014280082657933235,0,0,-1000,3,2,14,0,0,-153,1500.0
16:37:24.863,AUTO,-35.3632623,149.1652379,36350,0.001991934608668089,0.0008262888877652586,-0.17205654084682465,0.0019140189979225397,0.00044796185102313757,0.012684750370681286,0,0,-1000,2,1,12,0,0,-153,1500.0
16:37:25.064,AUTO,-35.3632623,149.1652379,36747,0.001943720504641533,0.0008186557097360492,-0.16944637894630432,0.0007597172516398132,0.00027033500373363495,0.011941090226173401,0,0,-1000,1,1,12,0,0,-153,1500.0
16:37:25.265,AUTO,-35.3632623,149.1652379,36747,0.001943720504641533,0.0008186557097360492,-0.16944637894630432,0.0007597172516398132,0.00027033500373363495,0.011941090226173401,0,0,-1000,1,1,12,0,0,-153,1500.0
16:37:25.466,AUTO,-35.3632622,149.1652379,37136,0.0021421972196549177,0.0009299696539528668,-0.16672931611537933,0.00041032402077689767,0.002619984094053507,0.010434690862894058,0,0,-1000,1,3,10,0,0,-153,1500.0
16:37:25.667,AUTO,-35.3632622,149.1652378,37526,0.0021729080472141504,0.001007505925372243,-0.164301797747612,0.0034747484605759382,-0.00016594142653048038,0.010109307244420052,0,0,-1001,3,0,10,0,0,-153,1500.0
16:37:25.868,AUTO,-35.3632622,149.1652378,37526,0.0021729080472141504,0.001007505925372243,-0.164301797747612,0.0034747484605759382,-0.00016594142653048038,0.010109307244420052,0,0,-1001,3,0,10,0,0,-153,1500.0
16:37:26.069,AUTO,-35.3632622,149.1652378,37526,0.0021729080472141504,0.001007505925372243,-0.164301797747612,0.0034747484605759382,-0.00016594142653048038,0.010109307244420052,0,0,-1001,3,0,10,0,0,-153,1500.0
16:37:26.270,AUTO,-35.3632622,149.1652378,37526,0.0021729080472141504,0.001007505925372243,-0.164301797747612,0.0034747484605759382,-0.00016594142653048038,0.010109307244420052,0,0,-1001,3,0,10,0,0,-153,1500.0
16:37:26.472,AUTO,-35.3632622,149.1652377,38686,0.002694288734346628,0.0016450176481157541,-0.15737292170524597,0.004220223985612392,0.0016455581644549966,0.007869084365665913,0,0,-1000,4,2,7,0,0,-153,1500.0
16:37:26.673,AUTO,-35.3632622,149.1652376,39075,0.0026957776863127947,0.0016698993276804686,-0.1551959365606308,-0.0028186857234686613,0.00014297140296548605,0.009063390083611012,0,0,-999,-2,1,9,0,0,-153,1500.0
16:37:26.874,AUTO,-35.3632622,149.1652376,39465,0.0027226381935179234,0.0014130236813798547,-0.15309932827949524,0.0012671643635258079,-0.0010547428391873837,0.008793150074779987,0,0,-1000,2,0,8,0,0,-153,1500.0
16:37:27.095,AUTO,-35.3632622,149.1652376,39853,0.0026075609494000673,0.0011377999326214194,-0.15096569061279297,0.0013027670793235302,-0.0011447323486208916,0.00873267836868763,0,0,-1000,2,0,8,0,0,-153,1500.0
16:37:27.298,AUTO,-35.3632621,149.1652376,40242,0.0025226259604096413,0.0012283577816560864,-0.14888212084770203,-0.002233249833807349,0.0018025714671239257,0.008939012885093689,0,0,-1000,2,0,8,0,0,-153,1500.0
16:37:27.500,AUTO,-35.3632621,149.1652376,40242,0.0025226259604096413,0.0012283577816560864,-0.14888212084770203,-0.002233249833807349,0.0018025714671239257,0.008939012885093689,0,0,-999,-1,2,9,0,0,-153,1500.0
16:37:27.701,AUTO,-35.3632621,149.1652375,40632,0.0027318308129906654,0.001732948119752109,-0.14694306254386902,0.0024444139562547207,0.001253433059900999,0.00747460825368762,0,0,-1001,3,2,7,0,0,-153,1500.0
16:37:27.902,AUTO,-35.3632621,149.1652375,40632,0.0027318308129906654,0.001732948119752109,-0.14694306254386902,0.0024444139562547207,0.001253433059900999,0.00747460825368762,0,0,-1001,3,2,7,0,0,-153,1500.0
16:37:28.105,AUTO,-35.3632621,149.1652375,40632,0.0027318308129906654,0.001732948119752109,-0.14694306254386902,0.0024444139562547207,0.001253433059900999,0.00747460825368762,0,0,-1001,3,2,7,0,0,-153,1500.0
16:37:28.306,AUTO,-35.3632621,149.1652375,40632,0.0027318308129906654,0.001732948119752109,-0.14694306254386902,0.0024444139562547207,0.001253433059900999,0.00747460825368762,0,0,-1001,3,2,7,0,0,-153,1500.0
16:37:28.507,AUTO,-35.3632621,149.1652375,41800,0.0024633973371237516,0.0014147314941510558,-0.141472727060318,0.0013634621864184737,-0.00016402703477069736,0.010774362832307816,0,0,-1000,2,0,10,0,1,-153,1500.0
16:37:28.708,AUTO,-35.3632621,149.1652374,42190,0.0024540619924664497,0.0014100103871896863,-0.14011254906654358,-2.8722977731376886e-05,0.00018550653476268053,0.0046902368776500225,0,0,-1000,0,1,4,0,1,-153,1500.0
16:37:28.909,AUTO,-35.3632621,149.1652374,42580,0.0023914866615086794,0.001312377629801631,-0.13835765421390533,-0.0007863037753850222,-0.002003505127504468,0.00809689424932003,0,0,-1000,0,0,8,0,1,-153,1500.0
16:37:29.110,AUTO,-35.3632621,149.1652374,42969,0.0021728218998759985,0.001122420304454863,-0.13651114702224731,-0.001418825937435031,-0.0008181043085642159,0.007704367861151695,0,0,-1000,0,0,7,0,1,-153,1500.0
16:37:29.311,AUTO,-35.3632621,149.1652374,43359,0.0019604922272264957,0.0013895815936848521,-0.13504628837108612,-0.0013329086359590292,0.0007487643742933869,0.0060676452703773975,0,0,-1000,0,2,6,0,1,-153,1500.0
16:37:29.512,AUTO,-35.3632621,149.1652374,43359,0.0019604922272264957,0.0013895815936848521,-0.13504628837108612,-0.0013329086359590292,0.0007487643742933869,0.0060676452703773975,0,0,-1000,0,2,6,0,1,-153,1500.0
16:37:29.713,AUTO,-35.363262,149.1652374,43747,0.0020286240614950657,0.0016478722682222724,-0.13341963291168213,-0.00015587493544444442,0.003891744650900364,0.006615015212446451,0,0,-1000,0,5,6,0,1,-153,1500.0
16:37:29.913,AUTO,-35.363262,149.1652374,43747,0.0020286240614950657,0.0016478722682222724,-0.13341963291168213,-0.00015587493544444442,0.003891744650900364,0.006615015212446451,0,0,-1000,0,5,6,0,1,-153,1500.0
16:37:30.115,AUTO,-35.363262,149.1652374,43747,0.0020286240614950657,0.0016478722682222724,-0.13341963291168213,-0.00015587493544444442,0.003891744650900364,0.006615015212446451,0,0,-1000,0,5,6,0,1,-153,1500.0
16:37:30.316,AUTO,-35.363262,149.1652374,43747,0.0020286240614950657,0.0016478722682222724,-0.13341963291168213,-0.00015587493544444442,0.003891744650900364,0.006615015212446451,0,0,-1000,0,5,6,0,1,-153,1500.0
16:37:30.517,AUTO,-35.363262,149.1652374,44915,0.002034394768998027,0.001603713259100914,-0.1289788782596588,-0.002412807196378708,0.0007503523956984282,0.008024608716368675,0,0,-998,-1,1,8,-1,1,-153,1500.0
16:37:30.718,AUTO,-35.363262,149.1652374,45305,0.0021805267315357924,0.0014418164500966668,-0.1275365650653839,0.004506997764110565,-0.0006705984706059098,0.006920328829437494,0,0,-1001,5,0,7,-1,1,-153,1500.0
16:37:30.919,AUTO,-35.363262,149.1652374,45701,0.0023520169779658318,0.0014620936708524823,-0.1259555071592331,-0.000490160658955574,0.0010666955495253205,0.00841803289949894,0,0,-999,0,2,8,-1,1,-153,1500.0
16:37:31.120,AUTO,-35.363262,149.1652374,46091,0.0022199286613613367,0.0013002699706703424,-0.12457337975502014,0.0003545273211784661,-0.0010755362454801798,0.008107944391667843,0,0,-1000,1,0,8,-1,1,-153,1500.0
16:37:31.321,AUTO,-35.363262,149.1652374,46480,0.002133838599547744,0.0010892876889556646,-0.12304559350013733,0.003777365433052182,0.001185905304737389,0.007256135810166597,0,0,-1000,4,2,7,-1,1,-153,1500.0
16:37:31.523,AUTO,-35.363262,149.1652374,46480,0.002133838599547744,0.0010892876889556646,-0.12304559350013733,0.003777365433052182,0.001185905304737389,0.007256135810166597,0,0,-1000,4,2,7,-1,1,-153,1500.0
16:37:31.724,AUTO,-35.363262,149.1652373,46870,0.0019346252083778381,0.0010135042248293757,-0.12165381759405136,-0.003332768566906452,0.00027511303778737783,0.006359835620969534,0,0,-999,-2,1,6,-1,1,-153,1500.0
16:37:31.925,AUTO,-35.363262,149.1652373,46870,0.0019346252083778381,0.0010135042248293757,-0.12165381759405136,-0.003332768566906452,0.00027511303778737783,0.006359835620969534,0,0,-999,-2,1,6,-1,1,-153,1500.0
16:37:32.126,AUTO,-35.363262,149.1652373,46870,0.0019346252083778381,0.0010135042248293757,-0.12165381759405136,-0.003332768566906452,0.00027511303778737783,0.006359835620969534,0,0,-999,-2,1,6,-1,1,-153,1500.0
16:37:32.327,AUTO,-35.363262,149.1652373,46870,0.0019346252083778381,0.0010135042248293757,-0.12165381759405136,-0.003332768566906452,0.00027511303778737783,0.006359835620969534,0,0,-999,-2,1,6,-1,1,-153,1500.0
16:37:32.528,AUTO,-35.363262,149.1652373,48015,-0.03620922937989235,0.04206407815217972,-0.02360367216169834,-0.16804926097393036,0.1596190631389618,0.4799867868423462,0,-1,-965,-167,160,480,-7,-3,-140,1500.0
16:37:32.729,AUTO,-35.3632623,149.165237,48361,-0.06392519921064377,0.07567775994539261,0.11629422008991241,-0.05571277439594269,-0.019419357180595398,0.49252134561538696,2,3,-933,-54,-18,492,-20,-17,-128,1500.0
16:37:32.929,AUTO,-35.3632629,149.1652363,48667,-0.04877040907740593,0.041872017085552216,0.20723851025104523,0.08611709624528885,-0.21434040367603302,0.2617742717266083,3,6,-932,87,-213,262,-31,-31,-111,1500.0
16:37:33.130,AUTO,-35.3632635,149.1652353,48929,-0.019524894654750824,-0.007957065477967262,0.25336891412734985,0.1245650202035904,-0.17871405184268951,0.12401890754699707,4,10,-940,125,-177,124,-32,-37,-95,1500.0
16:37:33.331,AUTO,-35.3632642,149.1652343,49155,0.00611680094152689,-0.040220584720373154,0.2719712555408478,0.08596063405275345,-0.09074436128139496,0.04644859954714775,3,10,-949,86,-89,46,-25,-35,-81,1500.0
16:37:33.532,AUTO,-35.3632642,149.1652343,49155,0.00611680094152689,-0.040220584720373154,0.2719712555408478,0.08596063405275345,-0.09074436128139496,0.04644859954714775,3,10,-949,86,-89,46,-25,-35,-81,1500.0
16:37:33.733,AUTO,-35.3632646,149.1652334,49349,0.024583864957094193,-0.05393943563103676,0.2755257189273834,0.05977829918265343,-0.02993650548160076,0.002378100296482444,2,8,-956,60,-28,2,-15,-26,-69,1500.0
16:37:33.934,AUTO,-35.3632646,149.1652334,49349,0.024583864957094193,-0.05393943563103676,0.2755257189273834,0.05977829918265343,-0.02993650548160076,0.002378100296482444,2,8,-956,60,-28,2,-15,-26,-69,1500.0
16:37:34.135,AUTO,-35.3632646,149.1652334,49349,0.024583864957094193,-0.05393943563103676,0.2755257189273834,0.05977829918265343,-0.02993650548160076,0.002378100296482444,2,8,-956,60,-28,2,-15,-26,-69,1500.0
16:37:34.336,AUTO,-35.3632646,149.1652334,49349,0.024583864957094193,-0.05393943563103676,0.2755257189273834,0.05977829918265343,-0.02993650548160076,0.002378100296482444,2,8,-956,60,-28,2,-15,-26,-69,1500.0
16:37:34.537,AUTO,-35.3632647,149.1652326,49774,0.03931135684251785,-0.039646975696086884,0.2552894651889801,0.041961848735809326,0.04150355979800224,-0.035290442407131195,-2,3,-976,43,42,-35,11,8,-44,1500.0
16:37:34.737,AUTO,-35.3632645,149.1652328,49878,0.03861602768301964,-0.02856185846030712,0.24608595669269562,0.15522144734859467,0.04415373131632805,-0.03514889255166054,-2,0,-978,155,45,-34,17,17,-38,1500.0
16:37:34.938,AUTO,-35.363264,149.1652333,49966,0.02656705118715763,-0.017891915515065193,0.2366264909505844,-0.5069004893302917,0.043198440223932266,-0.038327477872371674,-2,-35,-957,-508,44,-37,20,23,-31,1500.0
16:37:35.139,AUTO,-35.3632635,149.1652339,50034,0.0168274138122797,-0.007789838593453169,0.22766771912574768,-0.545813262462616,0.04048638418316841,-0.030757786706089973,-4,-20,-980,-543,41,-30,21,28,-24,1500.0
16:37:35.341,AUTO,-35.363263,149.1652347,50090,0.014093594625592232,0.0010405151406303048,0.21917957067489624,0.12102816998958588,0.027334943413734436,-0.027975084260106087,-3,13,-984,125,28,-27,21,31,-20,1500.0
16:37:35.542,AUTO,-35.363263,149.1652347,50090,0.014093594625592232,0.0010405151406303048,0.21917957067489624,0.12102816998958588,0.027334943413734436,-0.027975084260106087,-3,13,-984,125,28,-27,21,31,-20,1500.0
16:37:35.743,AUTO,-35.3632625,149.1652355,50136,0.0163781326264143,0.007730224169790745,0.21111661195755005,0.7036302089691162,0.02441934123635292,-0.025033488869667053,-1,27,-986,706,25,-24,19,31,-16,1500.0
16:37:35.943,AUTO,-35.3632625,149.1652355,50136,0.0163781326264143,0.007730224169790745,0.21111661195755005,0.7036302089691162,0.02441934123635292,-0.025033488869667053,-1,27,-986,706,25,-24,19,31,-16,1500.0
16:37:36.144,AUTO,-35.3632625,149.1652355,50136,0.0163781326264143,0.007730224169790745,0.21111661195755005,0.7036302089691162,0.02441934123635292,-0.025033488869667053,-1,27,-986,706,25,-24,19,31,-16,1500.0
16:37:36.346,AUTO,-35.3632625,149.1652355,50136,0.0163781326264143,0.007730224169790745,0.21111661195755005,0.7036302089691162,0.02441934123635292,-0.025033488869667053,-1,27,-986,706,25,-24,19,31,-16,1500.0
16:37:36.547,AUTO,-35.3632613,149.1652376,50177,-0.022759296000003815,0.03591002896428108,0.18877366185188293,-0.8242594599723816,0.13167762756347656,0.02209288626909256,4,-44,-960,-825,132,22,10,21,5,1500.0
16:37:36.748,AUTO,-35.3632612,149.1652381,50149,-0.036784376949071884,0.043578676879405975,0.185419961810112,-0.7867672443389893,-0.06363235414028168,-0.03153187409043312,1,-25,-963,-784,-62,-31,1,13,14,1500.0
16:37:36.949,AUTO,-35.3632612,149.1652384,50107,-0.01639149896800518,0.017468787729740143,0.17998091876506805,-0.02065844088792801,-0.10716044902801514,-0.026438113301992416,3,18,-996,-15,-105,-25,-4,7,14,1500.0
16:37:37.150,AUTO,-35.3632613,149.1652386,50068,0.006187544669955969,-0.004499615170061588,0.17492760717868805,0.6168013215065002,-0.06530341506004333,-0.02140800841152668,1,40,-1008,621,-63,-20,-4,6,11,1500.0
16:37:37.351,AUTO,-35.3632613,149.1652388,50036,0.02415468916296959,-0.016762789338827133,0.16957217454910278,0.8296658992767334,-0.03788071125745773,-0.016099246218800545,2,33,-1019,831,-36,-15,-2,9,8,1500.0
16:37:37.551,AUTO,-35.3632613,149.1652388,50036,0.02415468916296959,-0.016762789338827133,0.16957217454910278,0.8296658992767334,-0.03788071125745773,-0.016099246218800545,2,33,-1019,831,-36,-15,-2,9,8,1500.0
16:37:37.753,AUTO,-35.3632613,149.1652392,50012,0.035058777779340744,-0.025171371176838875,0.16340257227420807,0.7330146431922913,-0.03258030489087105,-0.018511265516281128,4,14,-998,732,-31,-18,2,13,7,1500.0
16:37:37.953,AUTO,-35.3632613,149.1652392,50012,0.035058777779340744,-0.025171371176838875,0.16340257227420807,0.7330146431922913,-0.03258030489087105,-0.018511265516281128,4,14,-998,732,-31,-18,2,13,7,1500.0
16:37:38.156,AUTO,-35.3632613,149.1652392,50012,0.035058777779340744,-0.025171371176838875,0.16340257227420807,0.7330146431922913,-0.03258030489087105,-0.018511265516281128,4,14,-998,732,-31,-18,2,13,7,1500.0
16:37:38.356,AUTO,-35.3632613,149.1652392,50012,0.035058777779340744,-0.025171371176838875,0.16340257227420807,0.7330146431922913,-0.03258030489087105,-0.018511265516281128,4,14,-998,732,-31,-18,2,13,7,1500.0
16:37:38.558,AUTO,-35.36326,149.1652422,49966,0.062107015401124954,-0.06997449696063995,0.2342589646577835,-0.33975324034690857,-0.08344519138336182,0.6017994284629822,0,-41,-999,-698,-53,72,36,54,0,1500.0
16:37:38.759,AUTO,-35.36326,149.1652422,49966,0.062107015401124954,-0.06997449696063995,0.2342589646577835,-0.33975324034690857,-0.08344519138336182,0.6017994284629822,-3,-12,-996,-336,-81,602,36,54,0,1500.0
16:37:38.960,BRAKE,-35.3632591,149.1652438,49961,0.06817618757486343,-0.09521076828241348,0.4216596484184265,0.29131290316581726,-0.034885335713624954,0.8223497867584229,-7,7,-1004,295,-33,822,49,72,-1,1500.0
16:37:39.161,BRAKE,-35.3632579,149.1652458,49958,0.04405935853719711,-0.043475233018398285,0.6190630793571472,0.45479846000671387,0.5553637742996216,0.6432127952575684,-15,5,-1031,456,556,643,59,87,-3,1500.0
16:37:39.364,BRAKE,-35.3632567,149.1652481,49963,0.021159814670681953,0.04534129425883293,0.6999595761299133,0.16337303817272186,0.14468279480934143,0.10075373947620392,-13,-23,-1003,161,145,101,54,82,-4,1500.0
16:37:39.565,BRAKE,-35.3632556,149.1652501,49970,0.003207097528502345,0.05019431561231613,0.6953582763671875,-0.573215126991272,-0.02937336266040802,-0.0749804899096489,-10,-51,-988,-575,-28,-74,43,70,-4,1500.0
16:37:39.767,BRAKE,-35.3632556,149.1652501,49970,0.003207097528502345,0.05019431561231613,0.6953582763671875,-0.573215126991272,-0.02937336266040802,-0.0749804899096489,-10,-51,-988,-575,-28,-74,43,70,-4,1500.0
16:37:39.969,BRAKE,-35.3632556,149.1652501,49970,0.003207097528502345,0.05019431561231613,0.6953582763671875,-0.573215126991272,-0.02937336266040802,-0.0749804899096489,-10,-51,-988,-575,-28,-74,43,70,-4,1500.0
16:37:40.172,BRAKE,-35.3632556,149.1652501,49970,0.003207097528502345,0.05019431561231613,0.6953582763671875,-0.573215126991272,-0.02937336266040802,-0.0749804899096489,-10,-51,-988,-575,-28,-74,43,70,-4,1500.0
16:37:40.373,BRAKE,-35.3632556,149.1652501,49970,0.003207097528502345,0.05019431561231613,0.6953582763671875,-0.573215126991272,-0.02937336266040802,-0.0749804899096489,-10,-51,-988,-575,-28,-74,43,70,-4,1500.0
16:37:40.574,BRAKE,-35.3632533,149.1652552,49976,0.001032420783303678,0.02418890781700611,0.6034491658210754,0.7008712887763977,-0.030236978083848953,-0.04207553341984749,-4,16,-1002,701,-28,-41,16,31,-2,1500.0
16:37:40.775,BRAKE,-35.3632533,149.1652552,49976,0.001032420783303678,0.02418890781700611,0.6034491658210754,0.7008712887763977,-0.030236978083848953,-0.04207553341984749,-4,16,-1002,701,-28,-41,16,31,-2,1500.0
