time_stamp,roll,pitch,yaw,rollspeed,pitchspeed,yawspeed,alt,lat,lon,relative_alt,vx,vy,vz,xacc,yacc,zacc,xgyro,ygyro,zgyro,MODE
10:26:41,2.0358154870336875e-05,0.00145141186658293,0.028887439519166946,0.0001573547488078475,0.0003882036544382572,0.002476626308634877,584040.0,-35.3632621,149.1652374,57.0,0.0,0.0,-2.0,0.0,1.0,-1000.0,0.0,0.0,0.0,STABILIZE
10:26:43,-0.00010717628902057186,0.0013576748315244913,0.02671576663851738,0.00022982241353020072,0.00025562202790752053,0.0020324583165347576,584010.0,-35.3632621,149.1652375,23.0,-2.0,2.0,0.0,0.0,1.0,-1000.0,0.0,0.0,1.0,STABILIZE
10:26:51,-0.0007168672455009073,0.0009334496280644089,0.023854240775108337,0.0003021419106516987,0.00026598916156217456,0.0017702793702483177,583990.0,-35.3632622,149.1652375,2.5,-1.0,1.0,0.0,0.0,1.25,-1000.0,0.5,0.0,0.0,STABILIZE
10:26:55,-0.0009118848538491875,0.0009653151646489277,0.022617429960519075,0.0030399526440305635,0.00024996482534334064,0.0016587027930654585,583962.5,-35.3632622,149.1652375,0.0,-1.0,1.25,1.25,0.0,7.6,-991.2,2.4,0.2,0.0,STABILIZE
10:26:57,-0.0009000131588739654,0.0009687103447504342,0.022064024582505226,0.00021574339674164852,0.0002826446240457396,0.001571907855880757,583950.0,-35.3632622,149.1652375,0.0,-1.0,1.3333333333333333,2.0,0.0,1.5,-1000.0,0.5,0.0,0.0,STABILIZE
10:27:01,-0.0009100714620823661,0.0009838826372288167,0.021255952616532642,0.0002841220120899379,0.0002836653341849645,0.001464837269547085,583956.6666666666,-35.3632622,149.1652375,0.0,-1.0,1.0,0.0,0.0,1.4,-1000.0,0.4,0.8,0.6,STABILIZE
10:27:03,-0.0009502480776670078,0.0009689760821250578,0.0208735844741265,0.00025362906550678116,0.0002737349520126979,0.0013934536448990305,583960.0,-35.3632622,149.1652375,1.1666666666666667,-1.0,1.0,0.0,0.0,1.3333333333333333,-1000.0,0.6666666666666666,0.5,0.16666666666666666,AUTO
10:27:05,-0.0008646320784464478,0.001081787922885269,0.020572127774357796,0.0002644024110243966,0.00023593001727325222,0.0013778140613188346,583960.0,-35.3632622,149.1652375,7.0,-0.16666666666666666,0.16666666666666666,0.0,0.0,1.8333333333333333,-1000.0,0.16666666666666666,0.8333333333333334,0.6666666666666666,AUTO
10:27:07,-6.738711575356622e-05,0.0014106263600600262,0.02019580826163292,0.0029137083232247583,-0.0014418259961530566,0.0014445691679914792,583970.0,-35.3632622,149.16523743333332,13.5,0.0,0.0,-1.6666666666666667,0.0,1.0,-1020.1666666666666,3.3333333333333335,-1.1666666666666667,0.16666666666666666,AUTO
10:27:09,0.020832461401975404,-0.0011266331372704979,0.019703389145433903,0.034559028688818216,-0.004927249799948186,0.0016571880114497617,585273.3333333334,-35.363262033333335,149.16523763333333,1316.6666666666667,1.0,7.0,-135.66666666666666,0.16666666666666666,-0.6666666666666666,-1040.6666666666667,34.833333333333336,-3.8333333333333335,1.1666666666666667,AUTO
10:27:11,-0.026433783505732816,0.014021170209161937,-0.06763791665434837,-0.0894861997415622,-0.0052863864790803445,-0.046626651232751705,588293.3333333334,-35.36326101666666,149.16524416666667,4340.0,1.5,36.5,-147.16666666666666,3.6666666666666665,-7.833333333333333,-1002.1666666666666,-88.33333333333333,-4.333333333333333,-46.5,AUTO
10:27:13,-0.0184800341570129,-0.003699502606953805,-0.09147340680162112,0.06298285598556201,0.00936566322343424,0.0008660986301644394,591221.6666666666,-35.36326125,149.16524138333332,7265.833333333333,-2.6666666666666665,-51.833333333333336,-150.0,-5.666666666666667,9.666666666666666,-1002.3333333333334,63.166666666666664,9.5,0.3333333333333333,AUTO
10:27:15,0.03886072934255935,0.0008418387442361563,-0.08251509939630826,-0.03503243780384461,-0.00873905944172293,0.004333728303511937,594031.6666666666,-35.3632622,149.16523465,10076.666666666666,-5.666666666666667,4.0,-150.33333333333334,0.6666666666666666,1.1666666666666667,-998.5,-34.166666666666664,-7.833333333333333,3.8333333333333335,AUTO
10:27:17,-0.009122761525213718,-0.0009238357946742326,-0.11554040163755416,0.012126655038446187,0.005932784685865044,-0.02440263219177723,596950.0,-35.36326226,149.16523642,12991.4,3.8,-0.4,-151.6,-0.8,-0.6,-1000.4,12.4,6.4,-24.2,AUTO
10:27:18,0.00475094902018706,0.004827926711489757,-0.1388606329758962,0.011778416422506174,0.0046660564839839935,-0.017094676693280537,598510.0,-35.36326183333333,149.1652359,14555.666666666666,2.0,-5.0,-152.0,-2.0,0.0,-1000.0,12.0,5.0,-16.666666666666668,AUTO
10:27:19,0.009220042265951633,0.006643213486919801,-0.15616401533285776,-0.0004861693790492912,-0.001119833478393654,-0.011674339572588602,600303.3333333334,-35.3632616,149.1652354,16349.333333333334,-1.0,1.3333333333333333,-152.0,-0.3333333333333333,0.0,-1000.0,0.3333333333333333,0.0,-11.666666666666666,AUTO
10:27:20,0.0068174150461951894,0.005208519597848256,-0.16587543984254202,-0.0031513196881860495,-0.0013058252322177093,-0.014124128657082716,601480.0,-35.3632616,149.1652354,17522.333333333332,-2.6666666666666665,5.0,-152.0,0.0,0.0,-999.6666666666666,-1.6666666666666667,-0.3333333333333333,-14.0,AUTO
10:27:21,0.00268959680882593,0.0036623463965952396,-0.18484233816464743,-0.0006986181251704693,0.00023010262520983815,-0.01939553829530875,603270.0,-35.363261666666666,149.16523583333336,19318.333333333332,-3.0,6.0,-152.0,0.0,0.0,-1000.0,-1.0,0.0,-18.0,AUTO
10:27:22,0.0015934369002934545,0.0034732858766801655,-0.2022782415151596,0.0006168000254547223,3.7749792682006955e-05,-0.020483203697949648,604645.0,-35.3632617,149.16523617500002,20686.5,-3.0,4.5,-152.75,0.0,-0.2,-1000.4,1.6,0.6,-20.4,AUTO
10:27:25,0.0020454668410820886,0.002803971932735294,-0.23920492827892303,0.0009504174231551588,-4.8865036660572514e-05,-0.01990771945565939,607540.0,-35.363261824999995,149.16523657499997,23583.875,-2.125,3.0,-153.0,0.0,0.0,-999.875,1.625,0.625,-19.625,AUTO
10:27:27,0.0005138288882638639,0.0006146964927514394,-0.23974090814590454,0.0032527557438394674,-0.006781970849260688,0.023473867525657017,610886.6666666666,-35.363262299999995,149.16523701666665,26932.666666666668,-4.666666666666667,0.8333333333333334,-152.33333333333334,0.0,0.5,-1000.0,4.333333333333333,-5.0,22.833333333333332,AUTO
10:27:29,-0.0004239013360347599,-0.003941207891330123,-0.19695210456848145,0.002838105961148228,0.0014727412739635579,0.02045548441154616,613877.1428571428,-35.36326259999999,149.1652380857143,29922.0,0.5714285714285714,0.8571428571428571,-152.0,-1.8571428571428572,1.2857142857142858,-1000.0,3.2857142857142856,2.142857142857143,20.0,AUTO
10:27:32,0.08043740876019001,0.1071071419864893,0.05504244410743316,-0.147003346918306,-0.059716843999922276,0.08305231799992423,617543.3333333334,-35.3632546,149.16522721666666,33588.333333333336,-73.66666666666667,100.83333333333333,-137.66666666666666,29.833333333333332,-9.0,-1005.6666666666666,-145.83333333333334,-58.166666666666664,82.66666666666667,AUTO
10:27:34,-0.1331787183880806,-0.08563459515571595,0.15715589821338655,0.043950421782210466,-0.03840327588841319,0.01496802531182766,620132.0,-35.36326756,149.16524220000002,36177.2,-1.0,-17.2,-153.2,9.4,4.6,-1000.6,44.6,-37.2,14.6,AUTO
10:27:36,0.0004082857631146908,-0.042036763654323295,0.15051591768860817,0.11147906398400664,0.01802309462800622,0.00972783355973661,623293.75,-35.363256725,149.16522276249998,39337.75,100.875,-112.125,-129.25,-27.25,16.25,-935.75,112.0,18.75,9.375,LOITER
10:27:38,0.12903496623039246,0.16292686121804373,0.21548540677343095,0.4050007292202541,-0.009471915130104338,-0.003661378794017115,623037.1428571428,-35.36324212857143,149.16521691428574,39081.28571428572,-53.42857142857143,89.85714285714286,170.71428571428572,32.42857142857143,0.2857142857142857,-977.5714285714286,402.57142857142856,-8.571428571428571,-2.857142857142857,LAND
10:27:40,-0.04557771049439907,0.01809534803032875,0.1971263661980629,-0.3192041963338852,-0.019572563469409943,-0.0005882037803530693,620290.0,-35.36324875,149.16521995,36332.0,-111.0,35.5,11.5,35.5,-25.5,-1112.5,-323.5,-18.0,0.0,LAND
10:27:42,-0.00799333934926174,0.005681620529768142,0.19508703323927792,0.16727375171401285,-0.005150342889299447,-0.0055747207529334855,620484.5454545454,-35.36326050909091,149.1651972,36528.454545454544,-92.45454545454545,-19.727272727272727,-39.54545454545455,16.727272727272727,28.818181818181817,-979.2727272727273,169.8181818181818,-4.181818181818182,-4.7272727272727275,LAND
10:27:45,0.010448037181049585,0.0015015906122113978,0.1777337065764836,0.4653420288647924,-0.0025563634823941228,-0.014368530895028795,620021.4285714285,-35.36328631428571,149.16518305714285,36065.71428571428,-87.14285714285714,8.285714285714286,55.57142857142857,9.142857142857142,18.0,-1001.4285714285714,465.0,-1.8571428571428572,-13.142857142857142,LAND
10:27:47,0.005690509481480278,0.0003868300742137113,0.166376565183912,-0.302972857441221,0.0006978938555611032,-0.010891435451672546,618762.8571428572,-35.36329741428572,149.16519830000001,34808.0,-55.42857142857143,58.285714285714285,71.42857142857143,2.7142857142857144,-31.428571428571427,-967.1428571428571,-309.14285714285717,1.5714285714285714,-9.714285714285714,LAND
10:27:49,-0.01346609101165086,0.0007304612566561749,0.1594172790646553,-0.605365552008152,-0.0019999590973990657,-0.01262452961721768,617586.6666666666,-35.363325333333336,149.16521955,33631.166666666664,-72.66666666666667,73.5,82.33333333333333,2.0,4.333333333333333,-981.1666666666666,-598.0,-0.8333333333333334,-11.5,LOITER
10:27:51,0.01235623531586801,-0.11813102088247736,0.18412543336550394,1.0287549458444118,0.37571832491084933,-0.05978551631172498,614690.0,-35.363330100000006,149.16520129999998,30734.666666666668,102.5,20.666666666666668,174.0,-43.333333333333336,22.333333333333332,-991.5,1030.1666666666667,376.3333333333333,-59.166666666666664,LOITER
10:27:53,0.004371816017997584,0.05408696178346872,0.1779432679925646,0.7065169624984264,-0.18946083887879336,-0.03214069056723799,610255.7142857143,-35.363308428571436,149.16519884285714,26299.571428571428,12.571428571428571,28.285714285714285,156.71428571428572,11.142857142857142,40.714285714285715,-1053.0,708.2857142857143,-188.0,-31.857142857142858,LAND
10:27:54,-0.01048884354531765,-0.003157922299578786,0.17092923820018768,-0.31985482573509216,0.0034692201297730207,-0.019998569041490555,608570.0,-35.3633072,149.1651926,24615.0,17.0,1.0,95.0,16.0,14.0,-1108.0,-317.0,4.0,-20.0,LAND
10:27:55,0.0042630473326426,-0.0008390800494453288,0.16085045039653778,0.22910698503255844,-0.011598031502217054,0.014087466290220618,607550.0,-35.363329625,149.16518445,23593.25,-55.75,-9.25,43.25,20.75,6.0,-1038.5,230.75,-10.25,13.5,LAND
10:27:59,-0.00044732700334861877,-0.0022684289957396685,0.1651294857263565,-0.10676093697547913,0.006333141401410103,-0.02013178337365389,607054.0,-35.36333702,149.16519595999998,23100.0,0.0,27.4,17.4,15.4,-32.4,-985.6,-106.0,7.0,-19.8,LAND
10:28:01,0.01951773464679718,0.0006144364015199244,0.15932399034500122,1.3023732900619507,-0.00011193484533578157,-0.0029837884940207005,606560.0,-35.3633296,149.1652058,22604.0,39.0,45.0,95.0,17.0,8.0,-911.0,1302.0,0.0,-3.0,LAND
10:28:02,0.0005305879167281091,0.0016206793719902635,0.15568599253892898,-0.18403967022895812,0.0012369940290227533,-0.0024277934455312787,604622.0,-35.363322929999995,149.16522052000002,20666.4,61.0,46.6,163.1,16.1,-34.2,-959.6,-184.1,2.1,-3.1,LAND
10:28:04,0.013371293832148825,0.00210894931972559,0.14794743273939406,0.7596875429153442,-0.007429985662123987,0.016276606790987507,599678.5714285715,-35.36331992857142,149.16525030000003,15723.285714285714,45.42857142857143,62.0,211.85714285714286,8.0,12.0,-991.7142857142857,758.8571428571429,-6.571428571428571,15.714285714285714,LAND
10:28:06,0.022000022465363145,0.0021048346866986583,0.14574619701930455,0.18021737677710398,-0.005112589474135477,-0.012290772250188249,595257.1428571428,-35.363319242857145,149.1652633714286,11302.285714285714,13.857142857142858,57.857142857142854,202.57142857142858,-2.857142857142857,3.142857142857143,-1020.5714285714286,179.57142857142858,-4.714285714285714,-11.571428571428571,LAND
10:28:07,-0.0141875259578228,0.002019157400354743,0.14514930546283722,-1.1343814134597778,-0.006677677854895592,-0.010411480441689491,593600.0,-35.3633182,149.1652661,9641.0,1.0,57.0,173.0,-8.0,24.0,-1003.0,-1134.0,-6.0,-9.0,LOITER
10:28:09,0.13408926292322576,-0.01658102823421359,0.1494173463433981,-0.6418055966496468,0.001870219421107322,-0.02147217518358957,592187.5,-35.3633171375,149.1652562125,8233.5,-7.0,70.875,107.5,-5.0,-49.75,-969.875,-640.5,2.125,-20.5,LOITER
10:28:11,-0.018776548228093555,-0.03802784904837608,-0.11868066659995488,-1.1189319789409637,-0.13003351858683995,-0.2212412032697882,589114.2857142857,-35.36330067142857,149.1652825857143,5157.0,-81.57142857142857,-17.142857142857142,126.28571428571429,12.285714285714286,-35.42857142857143,-1030.5714285714287,-1117.142857142857,-129.42857142857142,-219.71428571428572,LOITER
10:28:13,0.07021937945059367,0.020181723055429757,-0.1807326546737126,-0.7502170907599586,-0.1796130851975509,-0.10566175250070435,585602.8571428572,-35.363300728571424,149.16528072857142,1647.2857142857142,-40.285714285714285,-17.428571428571427,123.71428571428571,-5.428571428571429,1.8571428571428572,-1133.7142857142858,-748.4285714285714,-178.85714285714286,-104.0,AUTO
10:28:15,-0.15351427967349687,-0.01208498231911411,-0.24884108205636343,-0.13343943655490875,0.035110696529348694,0.0930481373022,584653.3333333334,-35.36330623333334,149.16528995000002,696.8333333333334,68.16666666666667,15.166666666666666,-13.5,-15.4,-25.2,-1059.4,-136.0,53.0,106.0,AUTO
10:28:16,-0.009766902774572372,-0.008591814897954464,-0.22425557672977448,0.2772684693336487,-0.0422847680747509,0.00043928553350269794,584980.0,-35.363305,149.1652892,1024.0,22.0,-95.0,-40.0,-31.5,2.5,-1040.5,83.0,-46.0,17.0,AUTO
10:28:18,0.08700583875179291,0.02984671387821436,-0.2200654335319996,-0.07384064514189959,0.029030108475126326,-0.0005591750668827444,585912.5,-35.363302525,149.16527965,1955.25,25.0,-4.5,-86.75,-11.75,-6.75,-1029.0,-72.0,29.75,0.75,AUTO
10:28:19,-0.011808619524041811,0.029715993752082188,-0.22815982500712076,-0.024899677916740377,-0.019613277399912477,-0.007042673610461255,588228.3333333334,-35.3632984,149.1652831333333,4273.5,-5.0,37.166666666666664,-144.66666666666666,9.5,-11.166666666666666,-1023.1666666666666,-23.333333333333332,-17.833333333333332,-5.5,AUTO
10:28:20,-0.0015633500297553837,0.006517135305330157,-0.25389856845140457,-0.02150903712026775,-0.002989118918776512,-0.04600365273654461,589705.0,-35.36329725,149.1652903,5749.0,-3.0,40.5,-150.5,12.0,-8.5,-996.0,-20.0,-2.0,-44.0,AUTO
10:28:21,-0.30189140141010284,-0.08204299863427877,-0.14505183976143599,-0.18888762779533863,-0.15873033925890923,0.1995921153575182,591612.5,-35.363301525,149.165325675,7660.25,-12.0,-43.5,-131.25,-3.5,12.0,-981.75,-187.0,-157.5,200.75,AUTO
10:28:22,-0.30150653421878815,-0.025856067892163992,0.07099566981196404,0.21552637219429016,0.07463425677269697,0.06720598298124969,592885.0,-35.36330855,149.16530505,8931.0,-8.0,-377.0,-43.5,-41.0,74.0,-980.0,166.0,121.0,132.0,AUTO
10:28:23,-0.1468999981880188,-0.039064631797373295,0.03390520950779319,0.3714562654495239,-0.06517918780446053,-0.19026925414800644,593080.0,-35.3633088,149.16528025,9125.5,-16.0,-452.5,-66.0,-58.333333333333336,101.0,-1075.6666666666667,337.6666666666667,-33.666666666666664,-123.33333333333333,AUTO
10:28:24,0.23373841345310212,0.014204220660030843,-0.2627983331680298,0.2279086023569107,0.09848391786217689,-0.20473250448703767,594870.0,-35.363307999999996,149.16522451999998,10914.2,2.0,-242.2,-207.8,-66.4,52.6,-1089.0,229.2,98.8,-202.4,AUTO
10:28:25,0.43012256920337677,0.12463575229048729,-0.4007311314344406,0.03594884369522333,-0.03984177764505148,-0.0702376663684845,597275.0,-35.363307500000005,149.16521434999999,13319.5,19.5,191.0,-135.0,4.5,-22.5,-924.5,38.0,-38.5,-68.0,AUTO
10:28:26,0.22737226635217667,0.0736751205404289,-0.4246174544095993,-0.50001360476017,0.07435348629951477,-0.054417635314166546,597710.0,-35.363301674999995,149.165235225,13754.25,86.0,370.25,-63.0,41.0,-70.75,-996.25,-497.0,75.75,-52.25,LOITER
10:28:27,-0.28874703496694565,0.23823842406272888,-0.27605102211236954,-0.6101703941822052,0.038437300361692905,0.7121820151805878,598715.0,-35.3632829,149.16528855,14757.0,0.0,304.5,-152.0,52.5,-57.5,-1083.0,-608.0,40.0,714.5,LOITER
10:28:28,-0.41189640015363693,0.12894919142127037,0.17838008422404528,-0.11557183600962162,-0.6050001606345177,0.16605366580188274,599602.5,-35.363294925,149.1653095,15648.5,-159.75,54.5,-91.75,38.5,4.75,-986.5,-114.0,-603.75,169.5,LAND
10:28:29,-0.14176947250962257,-0.0980052649974823,0.31135140359401703,0.4758516624569893,0.20768509060144424,0.038562155328691006,599645.0,-35.3633247,149.16529665000002,15691.5,-75.0,-189.0,32.5,-20.5,52.5,-902.0,477.5,207.5,42.0,LAND
10:28:30,-0.050296150613576174,-0.021961624966934323,0.3075966462492943,-0.800348088145256,0.06484562996774912,-0.007117668399587274,599045.0,-35.36331235,149.165268925,15088.5,-1.5,-233.0,105.0,-24.5,-10.5,-950.0,-798.0,65.25,-3.0,LAND
10:28:34,0.01494370334382568,0.0003754291558704738,0.2940881167139326,0.941149373405746,-0.0021528812857078655,0.004810377290206296,596974.2857142857,-35.363273885714285,149.16521361428573,13018.714285714286,3.0,-149.28571428571428,121.57142857142857,-6.571428571428571,105.0,-1042.7142857142858,942.4285714285714,-1.2857142857142858,8.142857142857142,LAND
10:28:36,-0.005972253779570262,-0.0020325594038392105,0.28725356856981915,-0.0800476713726918,0.0009411576320417225,0.00040121504571288824,595216.6666666666,-35.3632804,149.16518754999998,11261.0,-37.666666666666664,-60.5,38.333333333333336,7.5,26.666666666666668,-991.6666666666666,-78.16666666666667,1.3333333333333333,3.6666666666666665,LAND
10:28:38,-0.001280840622105946,-0.0016226569229426484,0.2822732130686442,-0.3708871553341548,0.00016692296291391054,-0.00876324635464698,594118.3333333334,-35.363289666666674,149.16519231666666,10164.5,-31.0,3.8333333333333335,34.166666666666664,12.666666666666666,-36.5,-972.5,-369.5,0.8333333333333334,-5.333333333333333,LAND
10:28:40,-0.0024522221979818176,-0.0005885682081238233,0.27830175842557636,-0.07583103435380119,0.003428884399389582,-0.003812523192859122,593114.2857142857,-35.36329427142857,149.16520889999998,9159.857142857143,-0.8571428571428571,34.714285714285715,30.142857142857142,10.714285714285714,-25.571428571428573,-1000.7142857142857,-75.28571428571429,3.5714285714285716,-0.42857142857142855,LAND
10:28:42,0.00332001368709219,-6.812277054753697e-05,0.2739848494529724,-0.14265625551342964,0.002410656694943706,-0.005132835319576164,592121.6666666666,-35.363291333333336,149.1652322,8167.5,28.333333333333332,61.5,11.5,8.666666666666666,-43.5,-1026.1666666666667,-142.5,2.8333333333333335,-1.8333333333333333,LAND
10:28:44,-0.0008016236724870396,0.0016592321189818904,0.26898712292313576,-0.14731012424454093,0.0002536212850827724,-0.0034691525215748698,591591.25,-35.3632997,149.16523635,7635.5,35.0,73.0,21.75,0.25,-30.125,-997.125,-148.0,1.0,-0.125,LAND
10:28:46,-0.0877965360879898,0.034292851015925406,0.2657324314117432,0.7806694149971009,-0.02388310292735696,0.013815659936517477,590372.0,-35.36331602,149.16521238,6417.4,6.8,25.8,122.8,-7.4,65.2,-881.2,779.4,-22.6,16.8,LOITER
10:28:47,-0.06906678713858128,0.0011241438332945108,0.26734721660614014,-1.9017716646194458,-0.050460098311305046,0.011042912723496556,588840.0,-35.363315549999996,149.16521315,4885.5,-5.5,-13.5,181.0,-12.0,-52.0,-1016.5,-1902.5,-49.0,14.0,LOITER
10:28:49,0.14496347308158875,0.01073597465126243,0.2671383704457964,-0.6084388393376555,0.010706169331180198,-0.03400656903561737,586281.4285714285,-35.363305371428574,149.16517725714286,2325.5714285714284,-36.0,71.71428571428571,105.42857142857143,11.0,-48.857142857142854,-1128.857142857143,-608.5714285714286,12.0,-30.714285714285715,LAND
10:28:51,0.009332289274815204,0.000390751360100694,0.26337256176131113,0.026963357414518083,0.0008430041572345155,0.0016775445713262474,586012.8571428572,-35.36330865714286,149.16518917142858,2059.285714285714,-25.857142857142858,128.57142857142858,-7.571428571428571,9.142857142857142,-12.285714285714286,-982.2857142857143,27.571428571428573,1.4285714285714286,4.285714285714286,LAND
10:28:52,0.003848317079246044,0.0020028651342727244,0.26269736140966415,-0.053878702223300934,0.0017874508339446038,-0.003104007919318974,585790.0,-35.363311249999995,149.16521204999998,1835.75,-12.75,117.0,5.0,0.75,-14.5,-1002.5,-53.5,2.5,0.25,LAND
10:28:54,-0.00788610492600128,0.003149087307974696,0.2601762190461159,0.07116903364658356,-0.0013629752356791869,-0.0021157481241971254,585537.5,-35.363319775,149.165208975,1583.75,-32.25,52.75,28.25,-4.0,11.25,-952.75,72.5,0.0,1.0,LAND
10:28:56,-0.011464425921440124,0.0002251787735076505,0.259630024433136,-0.33321823477745055,0.0036861007567495106,-0.0013167849741876126,585398.0,-35.363323879999996,149.1651894,1440.4,-26.2,-2.0,73.6,-6.6,9.8,-953.4,-331.4,4.4,1.8,LAND
10:28:57,-0.006572779384441674,-0.000739032548153773,0.2581391781568527,-0.8547451496124268,0.0006869618518976495,-0.004333586199209094,584702.5,-35.3633191,149.165176475,745.75,9.25,-51.0,79.25,-2.25,-70.0,-988.5,-852.0,1.75,-1.5,LAND
10:28:59,-0.016899715084582566,-0.0011540105566382407,0.2575447618961334,-0.6962751763872802,0.0028251202078536154,-0.0028049449902027845,583930.0,-35.36331326,149.165168,23.2,31.6,-64.4,50.6,-1.6,-43.8,-990.4,-693.4,3.8,0.2,LAND
10:29:01,-0.01353642325848341,0.0021732946042902768,0.25367286801338196,0.0009350229054689407,0.001313376915641129,-0.0003512084949761629,583848.0,-35.3633114,149.16516478,0.0,21.6,-54.4,29.0,0.0,-1.2,-1000.0,2.0,2.0,2.0,LAND
10:29:03,-0.005482538137584925,0.005846166051924229,0.2507801324129105,0.0009972303407266736,0.0013269931310787796,-0.0003722027875483036,583848.0,-35.36331934,149.16521618,0.0,-4.0,24.2,17.0,0.0,-1.6,-1000.0,2.0,2.2,2.0,LOITER
10:29:07,-0.00811307846258084,0.007875012777124843,0.24860481172800064,0.0008291294022152821,0.0013448443302574258,-0.0003657826455309987,583811.6666666666,-35.3633203,149.16522306666664,0.0,-7.0,9.333333333333334,11.0,0.0,-1.8,-1000.0,2.0,2.0,2.0,LOITER
10:29:09,-0.007630339125171304,0.008175016070405642,0.24776622901360193,0.0008230033175398906,0.001315852840586255,-0.00030112833095093566,583793.3333333334,-35.3633203,149.1652224,0.0,-7.0,-1.8333333333333333,5.666666666666667,0.0,-2.0,-1000.0,2.0,2.0,2.1666666666666665,AUTO
10:29:11,-0.005728514399379492,0.007999079301953316,0.2469376176595688,0.0008942045193786422,0.0012147154581422608,-0.00031322543509304523,583811.6666666666,-35.3633203,149.16522204999998,0.0,-7.0,-2.8333333333333335,2.8333333333333335,0.0,-1.8333333333333333,-1000.0,2.3333333333333335,2.0,2.1666666666666665,AUTO
10:29:13,-0.003851553269972404,0.007536845747381449,0.24594051390886307,0.0009952531739448507,0.00113711878657341,-0.00030483709027369815,583850.0,-35.3633203,149.16522204999998,0.0,-7.166666666666667,-0.8333333333333334,0.5,0.0,-1.8333333333333333,-1000.0,2.3333333333333335,2.0,2.0,AUTO
10:29:15,-0.0027862221856291094,0.00692133279517293,0.24499305337667465,0.0009380022335487107,0.0010302118801822264,-0.0002552481989065806,583885.0,-35.3633204,149.16522215,0.0,-7.0,0.16666666666666666,0.5,0.0,-1.6666666666666667,-1000.0,2.0,2.3333333333333335,2.1666666666666665,AUTO
10:29:17,-0.0020275586617312263,0.006301331533385175,0.244243609053748,0.0009318828316671508,0.0009447707561776042,-0.00024017072947961942,583915.7142857143,-35.36332038571428,149.16522237142857,0.0,-6.142857142857143,2.2857142857142856,0.0,0.0,-1.8571428571428572,-1000.0,2.4285714285714284,2.2857142857142856,2.0,AUTO
10:29:19,-0.001964120912210395,0.005843495096390446,0.2437584102153778,0.0008097460183004538,0.000777044837983946,-0.0002149463010330995,583941.6666666666,-35.3633203,149.1652225,0.0,-5.666666666666667,3.0,-0.8333333333333334,0.0,-1.6666666666666667,-1000.0,2.3333333333333335,2.1666666666666665,2.0,AUTO
10:29:21,-0.0022036025378232202,0.005465582866842548,0.24348397552967072,0.0008234434450666109,0.0007000887223208944,-0.00016359771446635327,583965.0,-35.3633203,149.1652225,9.166666666666666,-5.0,3.0,-1.0,0.0,-2.0,-1000.0,2.6666666666666665,2.6666666666666665,2.0,AUTO
10:29:23,-0.0025203906698152423,0.005162613776822885,0.24343006561199823,0.0006946737024312218,0.0006589224794879556,-0.00013938755728304386,583970.0,-35.3633203,149.16522241666667,16.333333333333332,-4.0,1.6666666666666667,0.0,0.0,-1.8333333333333333,-1000.0,2.6666666666666665,2.6666666666666665,2.5,AUTO
10:29:25,-0.002616304399756094,0.004921751484895746,0.24351491034030914,0.0006420549470931292,0.0005738359177485108,-0.00012511472838620344,583980.0,-35.3633203,149.16522239999998,21.333333333333332,-4.0,2.0,-0.16666666666666666,0.0,-2.0,-1000.0,2.5,2.0,2.1666666666666665,AUTO
10:29:27,-0.0030460702255368233,0.0047173464360336466,0.24367855489253998,0.0006634803721681237,0.0006114403173948327,-0.00012351584155112505,583980.0,-35.36332023333333,149.16522239999998,24.333333333333332,-3.1666666666666665,1.0,0.0,0.0,-1.8333333333333333,-1000.0,2.5,2.3333333333333335,2.3333333333333335,AUTO
