time_stamp,MODE,lat,lon,relative_alt,roll,pitch,yaw,rollspeed,pitchspeed,yawspeed,xacc,yacc,zacc,xgyro,ygyro,zgyro,vx,vy,vz,RTL_ALT,LAND_SPEED
22:48:19.708,GUIDED,-35.3632621,149.1652374,0,3.44943800882902e-05,0.001367597607895732,0.028611786663532257,0.00032307454966939986,0.00024037575349211693,0.002462969860062003,0,1,-1000,0,0,0,0,0,2,1500.0,50.0
22:48:19.909,GUIDED,-35.3632621,149.1652374,0,7.444914081133902e-05,0.001427452894859016,0.028441840782761574,0.0002515529340598732,0.0001482127991039306,0.002438520547002554,0,1,-1000,0,0,0,0,0,2,1500.0,50.0
22:48:20.109,GUIDED,-35.3632621,149.1652374,0,0.00010535112960496917,0.0014862630050629377,0.0282546728849411,0.00018433848163112998,0.0002458558592479676,0.002350535709410906,0,1,-1000,0,0,0,0,0,1,1500.0,50.0
22:48:20.310,GUIDED,-35.3632621,149.1652374,0,0.0001268801570404321,0.0015360270626842976,0.02806422859430313,0.00019813349354080856,0.00020578995463438332,0.00237197894603014,0,1,-1000,0,0,0,-1,1,1,1500.0,50.0
22:48:20.511,GUIDED,-35.3632621,149.1652374,0,0.0001390273537253961,0.001570653636008501,0.027887506410479546,0.0003667432174552232,0.00035585943260230124,0.002336032222956419,0,1,-1000,0,1,0,-1,1,1,1500.0,50.0
22:48:20.711,GUIDED,-35.3632621,149.1652374,0,0.0001390273537253961,0.001570653636008501,0.027887506410479546,0.0003667432174552232,0.00035585943260230124,0.002336032222956419,0,1,-1000,0,1,0,-1,1,1,1500.0,50.0
22:48:20.912,GUIDED,-35.3632621,149.1652374,0,0.00013404212950263172,0.0015913640381768346,0.027710655704140663,0.00035292175016365945,0.0003317374794278294,0.0023013404570519924,0,1,-1000,0,0,0,-1,1,1,1500.0,50.0
22:48:21.113,GUIDED,-35.3632621,149.1652374,0,0.00013404212950263172,0.0015913640381768346,0.027710655704140663,0.00035292175016365945,0.0003317374794278294,0.0023013404570519924,0,1,-1000,0,0,0,-1,1,1,1500.0,50.0
22:48:21.313,GUIDED,-35.3632621,149.1652374,0,0.00013404212950263172,0.0015913640381768346,0.027710655704140663,0.00035292175016365945,0.0003317374794278294,0.0023013404570519924,0,1,-1000,0,0,0,-1,1,1,1500.0,50.0
22:48:21.514,GUIDED,-35.3632621,149.1652374,0,0.00013404212950263172,0.0015913640381768346,0.027710655704140663,0.00035292175016365945,0.0003317374794278294,0.0023013404570519924,0,1,-1000,0,0,0,-1,1,1,1500.0,50.0
22:48:21.715,GUIDED,-35.3632621,149.1652374,0,4.203177377348766e-05,0.0015882920706644654,0.027201561257243156,0.0002818885841406882,0.0002596624253783375,0.0024525849148631096,0,2,-1000,0,0,0,-1,1,0,1500.0,50.0
22:48:21.916,GUIDED,-35.3632621,149.1652375,0,-2.3236030756379478e-05,0.0015577940503135324,0.027014700695872307,0.0003277030191384256,0.0002702512720134109,0.0022304952144622803,0,1,-1000,0,0,0,-2,2,0,1500.0,50.0
22:48:22.117,GUIDED,-35.3632621,149.1652375,6,-0.00010251393541693687,0.0015145735815167427,0.026864415034651756,0.00025137883494608104,0.00037266965955495834,0.0021381741389632225,0,1,-1000,0,0,0,-2,2,0,1500.0,50.0
22:48:22.318,GUIDED,-35.3632622,149.1652375,7,-0.00017747741367202252,0.0014709429815411568,0.026733698323369026,0.00016963895177468657,0.00024401681730523705,0.0022021839395165443,0,-55,-1086,0,1,0,-2,0,-2,1500.0,50.0
22:48:22.519,GUIDED,-35.3632622,149.1652374,15,-0.0002504197764210403,0.001434728386811912,0.026569446548819542,0.0002073186042252928,0.00032450383878313005,0.0022055068984627724,0,1,-1000,0,0,0,-1,0,-2,1500.0,50.0
22:48:22.720,GUIDED,-35.3632622,149.1652374,15,-0.0002504197764210403,0.001434728386811912,0.026569446548819542,0.0002073186042252928,0.00032450383878313005,0.0022055068984627724,0,1,-1000,0,0,0,-1,0,-2,1500.0,50.0
22:48:22.921,GUIDED,-35.3632622,149.1652374,19,-0.0002547925687395036,0.001405851449817419,0.026417896151542664,0.00022686112788505852,0.00032301092869602144,0.002274887403473258,0,1,-1000,0,0,0,-1,0,-2,1500.0,50.0
22:48:23.121,GUIDED,-35.3632622,149.1652374,19,-0.0002547925687395036,0.001405851449817419,0.026417896151542664,0.00022686112788505852,0.00032301092869602144,0.002274887403473258,0,1,-1000,0,0,0,-1,0,-2,1500.0,50.0
22:48:23.323,GUIDED,-35.3632622,149.1652374,19,-0.0002547925687395036,0.001405851449817419,0.026417896151542664,0.00022686112788505852,0.00032301092869602144,0.002274887403473258,0,1,-1000,0,0,0,-1,0,-2,1500.0,50.0
22:48:23.523,GUIDED,-35.3632622,149.1652374,19,-0.0002547925687395036,0.001405851449817419,0.026417896151542664,0.00022686112788505852,0.00032301092869602144,0.002274887403473258,0,1,-1000,0,0,0,-1,0,-2,1500.0,50.0
22:48:23.725,GUIDED,-35.3632621,149.1652374,24,-0.0001606491714483127,0.0014481901889666915,0.026018712669610977,0.000186003657290712,0.0001881236967165023,0.0021840622648596764,0,1,-1000,0,0,0,0,0,-2,1500.0,50.0
22:48:23.926,GUIDED,-35.3632621,149.1652374,24,-0.0001290449290536344,0.0014963774010539055,0.02587568573653698,0.00026479241205379367,0.00019635428907349706,0.0021171094849705696,0,1,-1000,0,1,0,0,0,-2,1500.0,50.0
22:48:24.127,GUIDED,-35.3632621,149.1652374,25,-9.150274854619056e-05,0.0015536764403805137,0.025747064501047134,0.00028795914840884507,0.0002416560600977391,0.0021565568167716265,0,1,-1000,0,1,1,0,0,-1,1500.0,50.0
22:48:24.327,GUIDED,-35.3632621,149.1652374,25,-5.4918295063544065e-05,0.0016239696415141225,0.025594759732484818,0.00018608634127303958,0.0003217303892597556,0.002139314543455839,0,1,-1000,0,1,0,0,0,-1,1500.0,50.0
22:48:24.528,GUIDED,-35.3632621,149.1652374,26,-1.1886496395163704e-05,0.001689018914476037,0.025430593639612198,0.0003183769586030394,0.0003578086325433105,0.0018888816703110933,0,1,-1000,0,0,1,0,0,-1,1500.0,50.0
22:48:24.729,GUIDED,-35.3632621,149.1652374,26,2.9570574042736553e-05,0.0017698905430734158,0.025314811617136,0.00021414677030406892,0.0003374451189301908,0.002095031552016735,0,1,-1000,0,0,1,0,0,-1,1500.0,50.0
22:48:24.930,GUIDED,-35.3632621,149.1652374,26,2.9570574042736553e-05,0.0017698905430734158,0.025314811617136,0.00021414677030406892,0.0003374451189301908,0.002095031552016735,0,1,-1000,0,1,0,0,0,-1,1500.0,50.0
22:48:25.130,GUIDED,-35.3632621,149.1652374,26,2.9570574042736553e-05,0.0017698905430734158,0.025314811617136,0.00021414677030406892,0.0003374451189301908,0.002095031552016735,0,1,-1000,0,1,0,0,0,-1,1500.0,50.0
22:48:25.331,GUIDED,-35.3632621,149.1652374,26,2.9570574042736553e-05,0.0017698905430734158,0.025314811617136,0.00021414677030406892,0.0003374451189301908,0.002095031552016735,0,1,-1000,0,1,0,0,0,-1,1500.0,50.0
22:48:25.532,GUIDED,-35.3632621,149.1652374,26,2.9570574042736553e-05,0.0017698905430734158,0.025314811617136,0.00021414677030406892,0.0003374451189301908,0.002095031552016735,0,1,-1000,0,1,0,0,0,-1,1500.0,50.0
22:48:25.733,GUIDED,-35.3632621,149.1652374,27,0.00023546474403701723,0.0020573062356561422,0.02469620294868946,0.0002228829835075885,0.0003289826854597777,0.001935235457494855,0,1,-1000,0,0,0,0,0,-1,1500.0,50.0
22:48:25.934,GUIDED,-35.3632621,149.1652374,27,0.00023546474403701723,0.0020573062356561422,0.02469620294868946,0.0002228829835075885,0.0003289826854597777,0.001935235457494855,0,1,-1000,0,0,0,0,0,-1,1500.0,50.0
22:48:26.135,GUIDED,-35.3632621,149.1652374,29,0.00038472909363918006,0.002138381125405431,0.02452893555164337,0.0002788738929666579,0.00037184543907642365,0.0019775028340518475,0,2,-1000,0,0,0,0,0,-2,1500.0,50.0
22:48:26.336,GUIDED,-35.3632621,149.1652374,31,0.00045163938193582,0.002214411273598671,0.024372708052396774,0.0003548433887772262,0.0003248662396799773,0.001796178286895156,0,1,-1000,1,0,0,0,0,-2,1500.0,50.0
22:48:26.536,GUIDED,-35.3632621,149.1652374,41,0.00230222987011075,0.00023619300918653607,0.024300161749124527,0.004526930395513773,-0.01433130819350481,0.0028074919246137142,0,0,-1136,4,-13,1,0,0,-17,1500.0,50.0
22:48:26.737,GUIDED,-35.3632621,149.1652374,126,0.0035688651259988546,-0.0007756507839076221,0.024322837591171265,0.007532448507845402,0.002357340883463621,0.001469947281293571,0,0,-1141,8,3,0,0,0,-51,1500.0,50.0
22:48:26.938,GUIDED,-35.3632621,149.1652374,126,0.0035688651259988546,-0.0007756507839076221,0.024322837591171265,0.007532448507845402,0.002357340883463621,0.001469947281293571,0,0,-1141,8,3,0,0,0,-51,1500.0,50.0
22:48:27.139,GUIDED,-35.3632621,149.1652374,126,0.0035688651259988546,-0.0007756507839076221,0.024322837591171265,0.007532448507845402,0.002357340883463621,0.001469947281293571,0,0,-1141,8,3,0,0,0,-51,1500.0,50.0
22:48:27.340,GUIDED,-35.3632621,149.1652374,126,0.0035688651259988546,-0.0007756507839076221,0.024322837591171265,0.007532448507845402,0.002357340883463621,0.001469947281293571,0,0,-1141,8,3,0,0,0,-51,1500.0,50.0
22:48:27.541,GUIDED,-35.3632621,149.1652374,126,0.0035688651259988546,-0.0007756507839076221,0.024322837591171265,0.007532448507845402,0.002357340883463621,0.001469947281293571,0,0,-1141,8,3,0,0,0,-51,1500.0,50.0
22:48:27.742,GUIDED,-35.363262,149.1652374,1179,0.015729639679193497,0.0008228758233599365,0.02379279024899006,0.04774904623627663,-0.005976101383566856,0.0021671834401786327,0,0,-1031,48,-5,0,0,3,-143,1500.0,50.0
22:48:27.943,GUIDED,-35.363262,149.1652374,1179,0.015729639679193497,0.0008228758233599365,0.02379279024899006,0.04774904623627663,-0.005976101383566856,0.0021671834401786327,0,0,-1031,48,-5,0,0,3,-143,1500.0,50.0
22:48:28.144,GUIDED,-35.363262,149.1652376,1550,0.027443107217550278,-0.0009045854094438255,0.023780256509780884,0.04631420224905014,-0.007229352369904518,0.0028389086946845055,0,0,-1013,46,-6,1,1,7,-147,1500.0,50.0
22:48:28.345,GUIDED,-35.3632619,149.1652378,1929,0.03865516185760498,-0.0028092258144170046,0.02384633757174015,0.044245023280382156,-0.00790559034794569,0.00353079941123724,0,-2,-1005,44,-7,2,2,15,-149,1500.0,50.0
22:48:28.545,GUIDED,-35.3632619,149.1652383,2313,0.04926079139113426,-0.005146649666130543,0.023963889107108116,0.04119480401277542,-0.009178834967315197,0.0037259934470057487,1,-4,-1001,41,-8,2,3,24,-149,1500.0,50.0
22:48:28.746,GUIDED,-35.3632617,149.1652391,2698,0.05907253175973892,-0.007928723469376564,0.024105047807097435,0.03792120888829231,-0.012063303031027317,0.00412003556266427,1,-5,-999,38,-11,3,6,36,-149,1500.0,50.0
22:48:28.947,GUIDED,-35.3632617,149.1652391,2698,0.05907253175973892,-0.007928723469376564,0.024105047807097435,0.03792120888829231,-0.012063303031027317,0.00412003556266427,1,-5,-999,38,-11,3,6,36,-149,1500.0,50.0
22:48:29.148,GUIDED,-35.3632617,149.1652391,2698,0.05907253175973892,-0.007928723469376564,0.024105047807097435,0.03792120888829231,-0.012063303031027317,0.00412003556266427,1,-5,-999,38,-11,3,6,36,-149,1500.0,50.0
22:48:29.349,GUIDED,-35.3632617,149.1652391,2698,0.05907253175973892,-0.007928723469376564,0.024105047807097435,0.03792120888829231,-0.012063303031027317,0.00412003556266427,1,-5,-999,38,-11,3,6,36,-149,1500.0,50.0
22:48:29.550,GUIDED,-35.3632617,149.1652391,2698,0.05907253175973892,-0.007928723469376564,0.024105047807097435,0.03792120888829231,-0.012063303031027317,0.00412003556266427,1,-5,-999,38,-11,3,6,36,-149,1500.0,50.0
22:48:29.751,GUIDED,-35.3632609,149.1652444,4219,-0.023790381848812103,0.014292776584625244,-0.06294795870780945,-0.029966792091727257,-0.029738694429397583,-0.037196993827819824,6,-13,-1009,-29,-29,-38,2,45,-149,1500.0,50.0
22:48:29.952,GUIDED,-35.3632609,149.1652444,4219,-0.023790381848812103,0.014292776584625244,-0.06294795870780945,-0.029966792091727257,-0.029738694429397583,-0.037196993827819824,6,-13,-1009,-29,-29,-38,2,45,-149,1500.0,50.0
22:48:30.152,GUIDED,-35.3632608,149.1652454,4604,-0.029385067522525787,0.007340224925428629,-0.06920468807220459,-0.028223827481269836,-0.021410299465060234,-0.03075718879699707,4,-8,-1003,-27,-20,-31,1,36,-150,1500.0,50.0
22:48:30.353,GUIDED,-35.3632608,149.1652463,4990,-0.04203058034181595,0.0036291107535362244,-0.07626881450414658,-0.06788047403097153,-0.008586644195020199,-0.030461424961686134,4,-6,-999,-67,-8,-31,1,25,-150,1500.0,50.0
22:48:30.554,GUIDED,-35.3632607,149.1652467,5375,-0.06326550245285034,0.0016622733091935515,-0.0841003805398941,-0.09783464670181274,-0.0038256850093603134,-0.03029639646410942,3,-4,-998,-97,-3,-31,0,10,-149,1500.0,50.0
22:48:30.755,GUIDED,-35.3632607,149.1652468,5764,-0.08334760367870331,0.0007341898744925857,-0.09215279668569565,-0.016430538147687912,-0.0014755114680156112,-0.027135394513607025,0,0,-1006,-15,0,-28,0,-9,-148,1500.0,50.0
22:48:30.955,GUIDED,-35.3632607,149.1652468,5764,-0.08334760367870331,0.0007341898744925857,-0.09215279668569565,-0.016430538147687912,-0.0014755114680156112,-0.027135394513607025,0,0,-1006,-15,0,-28,0,-9,-148,1500.0,50.0
22:48:31.156,GUIDED,-35.3632607,149.1652468,5764,-0.08334760367870331,0.0007341898744925857,-0.09215279668569565,-0.016430538147687912,-0.0014755114680156112,-0.027135394513607025,0,0,-1006,-15,0,-28,0,-9,-148,1500.0,50.0
22:48:31.357,GUIDED,-35.3632607,149.1652468,5764,-0.08334760367870331,0.0007341898744925857,-0.09215279668569565,-0.016430538147687912,-0.0014755114680156112,-0.027135394513607025,0,0,-1006,-15,0,-28,0,-9,-148,1500.0,50.0
22:48:31.558,GUIDED,-35.3632607,149.1652468,5764,-0.08334760367870331,0.0007341898744925857,-0.09215279668569565,-0.016430538147687912,-0.0014755114680156112,-0.027135394513607025,0,0,-1006,-15,0,-28,0,-9,-148,1500.0,50.0
22:48:31.759,GUIDED,-35.363261,149.1652423,7287,-0.03038617968559265,0.002965783467516303,-0.10788815468549728,0.06611690670251846,0.010763647966086864,-0.004624893888831139,-7,12,-1002,66,11,-5,-8,-63,-149,1500.0,50.0
22:48:31.960,GUIDED,-35.363261,149.1652423,7287,-0.03038617968559265,0.002965783467516303,-0.10788815468549728,0.06611690670251846,0.010763647966086864,-0.004624893888831139,-7,12,-1002,66,11,-5,-8,-63,-149,1500.0,50.0
22:48:32.161,GUIDED,-35.3632613,149.1652405,7671,-0.013670668005943298,0.005952497012913227,-0.10891459137201309,0.06861796975135803,0.012685418128967285,-0.0013611366739496589,-7,13,-1003,69,12,-2,-10,-65,-150,1500.0,50.0
22:48:32.361,GUIDED,-35.3632615,149.1652387,8058,0.0035467713605612516,0.009096933528780937,-0.10914786905050278,0.06938707828521729,0.012161986902356148,0.0002949733752757311,-6,14,-1004,69,12,0,-13,-63,-151,1500.0,50.0
22:48:32.562,GUIDED,-35.3632619,149.165237,8447,0.020831268280744553,0.011925051920115948,-0.1086660698056221,0.0696113109588623,0.010130658745765686,0.002526541706174612,-6,13,-1004,70,10,1,-16,-57,-152,1500.0,50.0
22:48:32.763,GUIDED,-35.3632623,149.1652355,8838,0.03791673108935356,0.013930234126746655,-0.10770901292562485,0.06779088079929352,0.006369324401021004,0.003986882045865059,-3,13,-1004,68,6,2,-19,-47,-153,1500.0,50.0
22:48:32.963,GUIDED,-35.3632623,149.1652355,8838,0.03791673108935356,0.013930234126746655,-0.10770901292562485,0.06779088079929352,0.006369324401021004,0.003986882045865059,-3,13,-1004,68,6,2,-19,-47,-153,1500.0,50.0
22:48:33.164,GUIDED,-35.3632623,149.1652355,8838,0.03791673108935356,0.013930234126746655,-0.10770901292562485,0.06779088079929352,0.006369324401021004,0.003986882045865059,-3,13,-1004,68,6,2,-19,-47,-153,1500.0,50.0
22:48:33.365,GUIDED,-35.3632623,149.1652355,8838,0.03791673108935356,0.013930234126746655,-0.10770901292562485,0.06779088079929352,0.006369324401021004,0.003986882045865059,-3,13,-1004,68,6,2,-19,-47,-153,1500.0,50.0
22:48:33.567,GUIDED,-35.3632623,149.1652355,8838,0.03791673108935356,0.013930234126746655,-0.10770901292562485,0.06779088079929352,0.006369324401021004,0.003986882045865059,-3,13,-1004,68,6,2,-19,-47,-153,1500.0,50.0
22:48:33.769,GUIDED,-35.3632642,149.1652335,10405,0.07361243665218353,-0.016014831140637398,-0.08190679550170898,-0.05293519049882889,-0.1248474046587944,0.10961630195379257,5,0,-995,-52,-124,108,-19,21,-150,1500.0,50.0
22:48:33.970,GUIDED,-35.3632642,149.1652335,10405,0.07361243665218353,-0.016014831140637398,-0.08190679550170898,-0.05293519049882889,-0.1248474046587944,0.10961630195379257,5,0,-995,-52,-124,108,-19,21,-150,1500.0,50.0
22:48:34.170,GUIDED,-35.3632646,149.1652342,10792,0.05970144271850586,-0.05051068589091301,-0.05295068398118019,-0.0600401908159256,-0.13417300581932068,0.1485932320356369,6,-3,-998,-59,-133,147,-7,36,-149,1500.0,50.0
22:48:34.371,GUIDED,-35.3632645,149.1652353,11172,0.029278822243213654,-0.06910602748394012,-0.033812642097473145,-0.14724436402320862,0.012087958864867687,0.02276802621781826,4,-7,-995,-146,12,21,10,44,-147,1500.0,50.0
22:48:34.572,GUIDED,-35.3632642,149.1652364,11550,-0.006730715278536081,-0.05098103731870651,-0.041221983730793,-0.1263200044631958,0.09862127155065536,-0.06452257931232452,3,-10,-1004,-125,99,-65,26,43,-146,1500.0,50.0
22:48:34.773,GUIDED,-35.3632635,149.1652375,11927,-0.030194098129868507,-0.026074690744280815,-0.06320641189813614,-0.07149305194616318,0.09291554987430573,-0.1011212021112442,1,-13,-1009,-70,93,-102,35,33,-148,1500.0,50.0
22:48:34.974,GUIDED,-35.3632635,149.1652375,11927,-0.030194098129868507,-0.026074690744280815,-0.06320641189813614,-0.07149305194616318,0.09291554987430573,-0.1011212021112442,1,-13,-1009,-70,93,-102,35,33,-148,1500.0,50.0
22:48:35.174,GUIDED,-35.3632635,149.1652375,11927,-0.030194098129868507,-0.026074690744280815,-0.06320641189813614,-0.07149305194616318,0.09291554987430573,-0.1011212021112442,1,-13,-1009,-70,93,-102,35,33,-148,1500.0,50.0
22:48:35.375,GUIDED,-35.3632635,149.1652375,11927,-0.030194098129868507,-0.026074690744280815,-0.06320641189813614,-0.07149305194616318,0.09291554987430573,-0.1011212021112442,1,-13,-1009,-70,93,-102,35,33,-148,1500.0,50.0
22:48:35.577,GUIDED,-35.3632635,149.1652375,11927,-0.030194098129868507,-0.026074690744280815,-0.06320641189813614,-0.07149305194616318,0.09291554987430573,-0.1011212021112442,1,-13,-1009,-70,93,-102,35,33,-148,1500.0,50.0
22:48:35.778,GUIDED,-35.3632604,149.1652384,13476,-0.03334765136241913,0.019142040982842445,-0.15419559180736542,0.039654217660427094,0.01816478930413723,-0.05479314550757408,-7,-3,-1002,40,18,-55,24,-14,-152,1500.0,50.0
22:48:35.979,GUIDED,-35.3632604,149.1652384,13476,-0.03334765136241913,0.019142040982842445,-0.15419559180736542,0.039654217660427094,0.01816478930413723,-0.05479314550757408,-7,-3,-1002,40,18,-55,24,-14,-152,1500.0,50.0
22:48:36.180,GUIDED,-35.3632599,149.1652379,13872,-0.022600539028644562,0.022379837930202484,-0.16613388061523438,0.04548637568950653,0.013471458107233047,-0.03933439031243324,-6,0,-1001,46,14,-40,17,-21,-152,1500.0,50.0
22:48:36.381,GUIDED,-35.3632596,149.1652373,14264,-0.010885152965784073,0.025326747447252274,-0.17456652224063873,0.049439068883657455,0.012119954451918602,-0.028538083657622337,-7,1,-1001,49,12,-29,9,-24,-153,1500.0,50.0
22:48:36.582,GUIDED,-35.3632594,149.1652366,14656,0.0015609562397003174,0.027915477752685547,-0.18033312261104584,0.05196493864059448,0.009676619432866573,-0.02015197090804577,-5,3,-1001,52,10,-21,2,-24,-153,1500.0,50.0
22:48:36.783,GUIDED,-35.3632594,149.1652359,15049,0.014510774053633213,0.02981242723762989,-0.18409155309200287,0.0531814768910408,0.006228099577128887,-0.013758598826825619,-3,4,-1001,53,7,-14,-4,-20,-153,1500.0,50.0
22:48:36.985,GUIDED,-35.3632594,149.1652359,15049,0.014510774053633213,0.02981242723762989,-0.18409155309200287,0.0531814768910408,0.006228099577128887,-0.013758598826825619,-3,4,-1001,53,7,-14,-4,-20,-153,1500.0,50.0
22:48:37.185,GUIDED,-35.3632594,149.1652359,15049,0.014510774053633213,0.02981242723762989,-0.18409155309200287,0.0531814768910408,0.006228099577128887,-0.013758598826825619,-3,4,-1001,53,7,-14,-4,-20,-153,1500.0,50.0
22:48:37.387,GUIDED,-35.3632594,149.1652359,15049,0.014510774053633213,0.02981242723762989,-0.18409155309200287,0.0531814768910408,0.006228099577128887,-0.013758598826825619,-3,4,-1001,53,7,-14,-4,-20,-153,1500.0,50.0
22:48:37.589,GUIDED,-35.3632594,149.1652359,15049,0.014510774053633213,0.02981242723762989,-0.18409155309200287,0.0531814768910408,0.006228099577128887,-0.013758598826825619,-3,4,-1001,53,7,-14,-4,-20,-153,1500.0,50.0
22:48:37.790,GUIDED,-35.3632603,149.165235,16609,0.020194923505187035,0.011149335652589798,-0.1730034351348877,-0.030511455610394478,-0.02198946662247181,0.01624017395079136,2,2,-999,-29,-21,15,-18,8,-151,1500.0,50.0
22:48:37.991,GUIDED,-35.3632607,149.1652352,16996,0.0129162622615695,0.006120460573583841,-0.17003220319747925,-0.024474207311868668,-0.017541708424687386,0.008197000250220299,2,2,-999,-29,-21,15,-18,11,-151,1500.0,50.0
22:48:38.192,GUIDED,-35.3632607,149.1652352,16996,0.0129162622615695,0.006120460573583841,-0.17003220319747925,-0.024474207311868668,-0.017541708424687386,0.008197000250220299,3,1,-1000,-23,-17,7,-18,11,-151,1500.0,50.0
22:48:38.393,GUIDED,-35.363261,149.1652355,17383,0.006475530099123716,0.0020866678096354008,-0.16891059279441833,-0.021017348393797874,-0.01336883194744587,-0.00010176346404477954,4,0,-1001,-20,-12,-1,-16,13,-151,1500.0,50.0
22:48:38.594,GUIDED,-35.3632613,149.1652358,17771,0.0021541924215853214,-0.0007542567327618599,-0.16984733939170837,-0.015456384047865868,-0.008320456370711327,-0.008014623075723648,3,1,-1000,-14,-7,-8,-15,13,-151,1500.0,50.0
22:48:38.795,GUIDED,-35.3632616,149.165236,18164,-0.0013731233775615692,-0.002817180473357439,-0.17244358360767365,-0.008056644350290298,-0.005124283023178577,-0.013207044452428818,3,0,-1001,-7,-4,-13,-13,11,-151,1500.0,50.0
22:48:38.995,GUIDED,-35.3632616,149.165236,18164,-0.0013731233775615692,-0.002817180473357439,-0.17244358360767365,-0.008056644350290298,-0.005124283023178577,-0.013207044452428818,3,0,-1001,-7,-4,-13,-13,11,-151,1500.0,50.0
22:48:39.197,GUIDED,-35.3632616,149.165236,18164,-0.0013731233775615692,-0.002817180473357439,-0.17244358360767365,-0.008056644350290298,-0.005124283023178577,-0.013207044452428818,3,0,-1001,-7,-4,-13,-13,11,-151,1500.0,50.0
22:48:39.399,GUIDED,-35.3632616,149.165236,18164,-0.0013731233775615692,-0.002817180473357439,-0.17244358360767365,-0.008056644350290298,-0.005124283023178577,-0.013207044452428818,3,0,-1001,-7,-4,-13,-13,11,-151,1500.0,50.0
22:48:39.599,GUIDED,-35.3632616,149.165236,18164,-0.0013731233775615692,-0.002817180473357439,-0.17244358360767365,-0.008056644350290298,-0.005124283023178577,-0.013207044452428818,3,0,-1001,-7,-4,-13,-13,11,-151,1500.0,50.0
22:48:39.800,GUIDED,-35.3632622,149.1652367,19718,-0.0032358046155422926,-0.0038779976312071085,-0.1945124715566635,0.005602976307272911,0.0038542801048606634,-0.02649657428264618,1,0,-1000,6,4,-27,-4,3,-152,1500.0,50.0
22:48:40.002,GUIDED,-35.3632622,149.1652367,20108,-0.0017376814503222704,-0.003144500544294715,-0.20135392248630524,0.0071755750104784966,0.0038730164524167776,-0.02845672518014908,0,0,-1000,7,4,-29,-3,2,-152,1500.0,50.0
22:48:40.203,GUIDED,-35.3632622,149.1652367,20108,-0.0017376814503222704,-0.003144500544294715,-0.20135392248630524,0.0071755750104784966,0.0038730164524167776,-0.02845672518014908,0,0,-1000,7,4,-29,-3,2,-152,1500.0,50.0
22:48:40.404,GUIDED,-35.3632623,149.1652366,20499,-1.3834792298439424e-05,-0.0018959006993100047,-0.208521768450737,0.005019358824938536,0.006401536986231804,-0.02935314178466797,0,0,-1000,5,7,-30,-1,0,-152,1500.0,50.0
22:48:40.605,GUIDED,-35.3632623,149.1652366,20889,0.0013835873687639832,-0.0005718851462006569,-0.21557030081748962,0.006325745955109596,0.0055699460208415985,-0.029397975653409958,0,0,-1000,7,6,-30,-1,0,-152,1500.0,50.0
22:48:40.806,GUIDED,-35.3632623,149.1652366,21279,0.0026460089720785618,0.0006953469128347933,-0.2223663032054901,0.00369613547809422,0.0046255080960690975,-0.02536766603589058,0,0,-999,4,5,-26,0,0,-152,1500.0,50.0
22:48:41.006,GUIDED,-35.3632623,149.1652366,21279,0.0026460089720785618,0.0006953469128347933,-0.2223663032054901,0.00369613547809422,0.0046255080960690975,-0.02536766603589058,0,0,-999,4,5,-26,0,0,-152,1500.0,50.0
22:48:41.207,GUIDED,-35.3632623,149.1652366,21279,0.0026460089720785618,0.0006953469128347933,-0.2223663032054901,0.00369613547809422,0.0046255080960690975,-0.02536766603589058,0,0,-999,4,5,-26,0,0,-152,1500.0,50.0
22:48:41.408,GUIDED,-35.3632623,149.1652366,21279,0.0026460089720785618,0.0006953469128347933,-0.2223663032054901,0.00369613547809422,0.0046255080960690975,-0.02536766603589058,0,0,-999,4,5,-26,0,0,-152,1500.0,50.0
22:48:41.609,GUIDED,-35.3632622,149.1652365,22450,0.004643850494176149,0.0031460898462682962,-0.24059946835041046,0.0025349396746605635,0.00293511594645679,-0.02181757614016533,0,0,-1000,3,3,-22,0,0,-152,1500.0,50.0
22:48:41.810,GUIDED,-35.3632622,149.1652365,22844,0.004755705129355192,0.0038749203085899353,-0.24621042609214783,-0.0015052168164402246,0.00243661692366004,-0.019592588767409325,0,0,-1000,0,3,-20,0,1,-152,1500.0,50.0
22:48:42.011,GUIDED,-35.3632622,149.1652365,23234,0.004754028748720884,0.004249284975230694,-0.2514041066169739,0.0005836502532474697,0.0008848053403198719,-0.019962072372436523,0,0,-1000,1,1,-20,0,2,-152,1500.0,50.0
22:48:42.212,GUIDED,-35.3632622,149.1652365,23234,0.004754028748720884,0.004249284975230694,-0.2514041066169739,0.0005836502532474697,0.0008848053403198719,-0.019962072372436523,0,0,-1000,1,1,-20,0,2,-152,1500.0,50.0
22:48:42.413,GUIDED,-35.3632622,149.1652365,23624,0.004771623760461807,0.004554913379251957,-0.2564780116081238,0.0015951039968058467,0.0012613069266080856,-0.019357455894351006,0,0,-1000,2,1,-20,0,2,-152,1500.0,50.0
22:48:42.614,GUIDED,-35.3632622,149.1652365,24013,0.004565882496535778,0.0042940727435052395,-0.260943740606308,0.00032976572401821613,-0.001045079086907208,-0.017842140048742294,0,0,-1000,1,0,-18,-1,3,-152,1500.0,50.0
22:48:42.815,GUIDED,-35.3632621,149.1652365,24404,0.004166333936154842,0.0038651807699352503,-0.2651192545890808,-0.0004960953956469893,-0.00018182769417762756,-0.014805370941758156,0,0,-1000,0,0,-15,-1,3,-152,1500.0,50.0
22:48:43.016,GUIDED,-35.3632621,149.1652365,24404,0.004166333936154842,0.0038651807699352503,-0.2651192545890808,-0.0004960953956469893,-0.00018182769417762756,-0.014805370941758156,0,0,-1000,0,0,-15,-1,3,-152,1500.0,50.0
22:48:43.217,GUIDED,-35.3632621,149.1652365,24404,0.004166333936154842,0.0038651807699352503,-0.2651192545890808,-0.0004960953956469893,-0.00018182769417762756,-0.014805370941758156,0,0,-1000,0,0,-15,-1,3,-152,1500.0,50.0
22:48:43.418,GUIDED,-35.3632621,149.1652365,24404,0.004166333936154842,0.0038651807699352503,-0.2651192545890808,-0.0004960953956469893,-0.00018182769417762756,-0.014805370941758156,0,0,-1000,0,0,-15,-1,3,-152,1500.0,50.0
22:48:43.620,GUIDED,-35.3632621,149.1652366,25568,-0.013133428059518337,0.004023874178528786,-0.27750059962272644,-0.01048057246953249,0.006895803846418858,-0.009303607977926731,0,0,-1002,-9,7,-10,-2,1,-152,1500.0,50.0
22:48:43.820,GUIDED,-35.3632621,149.1652365,25956,-0.0069151767529547215,0.005181444808840752,-0.2786411643028259,0.03737306967377663,0.0038688171189278364,0.0011257176520302892,0,0,-1003,38,4,0,-3,-1,-152,1500.0,50.0
22:48:44.021,GUIDED,-35.3632621,149.1652365,26346,0.0025412230752408504,0.005515625700354576,-0.2767793536186218,0.03401137515902519,-0.0005023436970077455,0.011314422823488712,0,1,-1001,34,0,10,-4,-2,-153,1500.0,50.0
22:48:44.222,GUIDED,-35.3632621,149.1652365,26346,0.0025412230752408504,0.005515625700354576,-0.2767793536186218,0.03401137515902519,-0.0005023436970077455,0.011314422823488712,0,1,-1001,34,0,10,-4,-2,-153,1500.0,50.0
22:48:44.423,GUIDED,-35.3632622,149.1652364,26736,0.008983151987195015,0.0052706715650856495,-0.27281370759010315,0.020739147439599037,-0.0003829509951174259,0.018928103148937225,0,0,-1000,21,0,18,-4,0,-153,1500.0,50.0
22:48:44.624,GUIDED,-35.3632622,149.1652364,27127,0.012033525854349136,0.004694626200944185,-0.2672443985939026,0.006935263983905315,-0.00047966570127755404,0.022241730242967606,0,0,-999,7,0,21,-4,1,-152,1500.0,50.0
22:48:44.825,GUIDED,-35.3632623,149.1652364,27520,0.012728577479720116,0.004056144505739212,-0.26065897941589355,0.0007829949026927352,-0.0019319835118949413,0.027142591774463654,0,0,-999,1,-1,26,-4,4,-152,1500.0,50.0
22:48:45.027,GUIDED,-35.3632623,149.1652364,27520,0.012728577479720116,0.004056144505739212,-0.26065897941589355,0.0007829949026927352,-0.0019319835118949413,0.027142591774463654,0,0,-999,1,-1,26,-4,4,-152,1500.0,50.0
22:48:45.228,GUIDED,-35.3632623,149.1652364,27520,0.012728577479720116,0.004056144505739212,-0.26065897941589355,0.0007829949026927352,-0.0019319835118949413,0.027142591774463654,0,0,-999,1,-1,26,-4,4,-152,1500.0,50.0
22:48:45.430,GUIDED,-35.3632623,149.1652364,27520,0.012728577479720116,0.004056144505739212,-0.26065897941589355,0.0007829949026927352,-0.0019319835118949413,0.027142591774463654,0,0,-999,1,-1,26,-4,4,-152,1500.0,50.0
22:48:45.631,GUIDED,-35.3632624,149.1652367,28686,0.006700940430164337,0.0025231381878256798,-0.24241691827774048,-0.007535763084888458,0.0019433803390711546,0.022253284230828285,1,0,-1000,-6,2,21,-2,9,-152,1500.0,50.0
22:48:45.831,GUIDED,-35.3632624,149.165237,29073,0.004392032045871019,0.0024947253987193108,-0.23682837188243866,-0.010182327590882778,0.0007970547885634005,0.022814761847257614,1,-1,-1000,-9,1,22,-1,10,-152,1500.0,50.0
22:48:46.032,GUIDED,-35.3632623,149.1652372,29461,0.0022648051381111145,0.002322948072105646,-0.2314688265323639,-0.005763706751167774,-0.001795623917132616,0.02280057780444622,1,-1,-1001,-4,0,22,-1,10,-152,1500.0,50.0
22:48:46.233,GUIDED,-35.3632623,149.1652372,29461,0.0022648051381111145,0.002322948072105646,-0.2314688265323639,-0.005763706751167774,-0.001795623917132616,0.02280057780444622,1,-1,-1001,-4,0,22,-1,10,-152,1500.0,50.0
22:48:46.434,GUIDED,-35.3632623,149.1652374,29857,0.00033434719080105424,0.002274302765727043,-0.22606812417507172,-0.007107124663889408,0.00012833101209253073,0.022546036168932915,1,-1,-1000,-6,0,21,0,9,-152,1500.0,50.0
22:48:46.635,GUIDED,-35.3632623,149.1652376,30245,-0.0009426405886188149,0.0022180217783898115,-0.2208624929189682,-0.004535710904747248,0.0009779417887330055,0.02213846705853939,1,-1,-1000,-3,1,21,0,8,-152,1500.0,50.0
22:48:46.836,GUIDED,-35.3632623,149.1652378,30634,-0.001699739950709045,0.002112071728333831,-0.2159532755613327,-0.00197502295486629,-0.0014145984314382076,0.01819150522351265,0,-1,-1001,-1,0,17,0,7,-152,1500.0,50.0
22:48:47.036,GUIDED,-35.3632623,149.1652378,30634,-0.001699739950709045,0.002112071728333831,-0.2159532755613327,-0.00197502295486629,-0.0014145984314382076,0.01819150522351265,0,-1,-1001,-1,0,17,0,7,-152,1500.0,50.0
22:48:47.238,GUIDED,-35.3632623,149.1652378,30634,-0.001699739950709045,0.002112071728333831,-0.2159532755613327,-0.00197502295486629,-0.0014145984314382076,0.01819150522351265,0,-1,-1001,-1,0,17,0,7,-152,1500.0,50.0
22:48:47.439,GUIDED,-35.3632623,149.1652378,30634,-0.001699739950709045,0.002112071728333831,-0.2159532755613327,-0.00197502295486629,-0.0014145984314382076,0.01819150522351265,0,-1,-1001,-1,0,17,0,7,-152,1500.0,50.0
22:48:47.640,GUIDED,-35.3632623,149.1652381,31792,-0.0016751480288803577,0.0014614096144214272,-0.20240388810634613,0.0025103811640292406,0.0006825104355812073,0.019418487325310707,0,0,-1000,3,1,18,0,3,-152,1500.0,50.0
22:48:47.841,GUIDED,-35.3632623,149.1652382,32182,-0.001348579884506762,0.0012738824589177966,-0.19807808101177216,-0.0003921959432773292,-0.0015239235945045948,0.01603315956890583,0,0,-1000,0,0,15,0,3,-152,1500.0,50.0
22:48:48.042,GUIDED,-35.3632623,149.1652382,32570,-0.000985525082796812,0.0011389257851988077,-0.19413062930107117,0.0011858332436531782,-0.0012607378885149956,0.01475763600319624,0,0,-1000,2,0,14,0,2,-152,1500.0,50.0
22:48:48.242,GUIDED,-35.3632623,149.1652382,32959,-0.0006708783330395818,0.0012073057005181909,-0.19070659577846527,0.0009775523794814944,-0.0006921277963556349,0.015690982341766357,0,0,-1000,2,0,14,0,1,-152,1500.0,50.0
22:48:48.443,GUIDED,-35.3632623,149.1652382,32959,-0.0006708783330395818,0.0012073057005181909,-0.19070659577846527,0.0009775523794814944,-0.0006921277963556349,0.015690982341766357,0,0,-1000,1,0,15,0,1,-152,1500.0,50.0
22:48:48.644,GUIDED,-35.3632623,149.1652382,33349,-0.00042678305180743337,0.0009789990726858377,-0.1870887577533722,0.0036737804766744375,0.000952752074226737,0.017269324511289597,0,0,-1000,4,1,17,0,0,-152,1500.0,50.0
22:48:48.845,GUIDED,-35.3632623,149.1652382,33738,1.246124838871765e-06,0.0009760395623743534,-0.1835813969373703,0.0017932031769305468,0.0006154067232273519,0.014336345717310905,0,0,-1000,2,1,13,0,0,-152,1500.0,50.0
22:48:49.045,GUIDED,-35.3632623,149.1652382,33738,1.246124838871765e-06,0.0009760395623743534,-0.1835813969373703,0.0017932031769305468,0.0006154067232273519,0.014336345717310905,0,0,-1000,2,1,13,0,0,-152,1500.0,50.0
22:48:49.247,GUIDED,-35.3632623,149.1652382,33738,1.246124838871765e-06,0.0009760395623743534,-0.1835813969373703,0.0017932031769305468,0.0006154067232273519,0.014336345717310905,0,0,-1000,2,1,13,0,0,-152,1500.0,50.0
22:48:49.449,GUIDED,-35.3632623,149.1652382,33738,1.246124838871765e-06,0.0009760395623743534,-0.1835813969373703,0.0017932031769305468,0.0006154067232273519,0.014336345717310905,0,0,-1000,2,1,13,0,0,-152,1500.0,50.0
22:48:49.651,GUIDED,-35.3632623,149.1652382,34905,0.000842822715640068,0.0006120171747170389,-0.17327146232128143,0.0006857699481770396,-0.00029310816898941994,0.01331949234008789,0,0,-1000,1,0,12,0,0,-152,1500.0,50.0
22:48:49.851,GUIDED,-35.3632623,149.1652381,35294,0.0014215499395504594,0.0008101413841359317,-0.17017978429794312,0.0016523376107215881,0.0012258316855877638,0.013462266884744167,0,0,-1000,2,2,13,0,0,-152,1500.0,50.0
22:48:50.052,GUIDED,-35.3632623,149.1652381,35683,0.0015964423073455691,0.000867552706040442,-0.1671757698059082,-0.002573656849563122,0.0007882973295636475,0.012069660238921642,0,0,-999,-1,1,11,0,0,-152,1500.0,50.0
22:48:50.253,GUIDED,-35.3632623,149.165238,36072,0.001964258262887597,0.000930835900362581,-0.16443292796611786,0.006150721572339535,0.0013576275669038296,0.012981574051082134,0,0,-1001,7,2,12,0,0,-152,1500.0,50.0
22:48:50.454,GUIDED,-35.3632623,149.165238,36072,0.001964258262887597,0.000930835900362581,-0.16443292796611786,0.006150721572339535,0.0013576275669038296,0.012981574051082134,0,0,-1001,7,2,12,0,0,-152,1500.0,50.0
22:48:50.654,GUIDED,-35.3632623,149.1652379,36461,0.0020766127854585648,0.0008708660025149584,-0.16166014969348907,0.0011742603965103626,-0.000758475624024868,0.011419085785746574,0,0,-1000,2,0,10,0,0,-152,1500.0,50.0
22:48:50.855,GUIDED,-35.3632623,149.1652379,36850,0.0021242888178676367,0.0008805027464404702,-0.15890561044216156,-0.002170851221308112,0.000985779333859682,0.012092274613678455,0,0,-999,-1,1,11,0,0,-152,1500.0,50.0
22:48:51.056,GUIDED,-35.3632623,149.1652379,36850,0.0021242888178676367,0.0008805027464404702,-0.15890561044216156,-0.002170851221308112,0.000985779333859682,0.012092274613678455,0,0,-999,-1,1,11,0,0,-152,1500.0,50.0
22:48:51.257,GUIDED,-35.3632623,149.1652379,36850,0.0021242888178676367,0.0008805027464404702,-0.15890561044216156,-0.002170851221308112,0.000985779333859682,0.012092274613678455,0,0,-999,-1,1,11,0,0,-152,1500.0,50.0
22:48:51.459,GUIDED,-35.3632623,149.1652379,36850,0.0021242888178676367,0.0008805027464404702,-0.15890561044216156,-0.002170851221308112,0.000985779333859682,0.012092274613678455,0,0,-999,-1,1,11,0,0,-152,1500.0,50.0
22:48:51.660,GUIDED,-35.3632622,149.1652378,38016,0.002207962330430746,0.0009555885335430503,-0.15149849653244019,-0.0021750275045633316,0.0006238212226890028,0.011181270703673363,0,0,-999,-1,1,11,0,0,-152,1500.0,50.0
22:48:51.861,GUIDED,-35.3632622,149.1652377,38405,0.0025524224620312452,0.0011698639718815684,-0.14913900196552277,0.00013909762492403388,0.0012906156480312347,0.010550991632044315,0,0,-1000,0,2,10,0,0,-152,1500.0,50.0
22:48:52.061,GUIDED,-35.3632622,149.1652377,38794,0.0024680886417627335,0.001001714263111353,-0.14671166241168976,-0.0006528167868964374,-0.0011180744040757418,0.010446249507367611,0,0,-1000,0,0,10,0,0,-152,1500.0,50.0
22:48:52.262,GUIDED,-35.3632622,149.1652376,39191,0.002578276675194502,0.001061278861016035,-0.14470693469047546,0.003760145977139473,0.00046284159179776907,0.009142684750258923,0,0,-1000,4,1,8,0,0,-152,1500.0,50.0
22:48:52.463,GUIDED,-35.3632622,149.1652376,39191,0.002578276675194502,0.001061278861016035,-0.14470693469047546,0.003760145977139473,0.00046284159179776907,0.009142684750258923,0,0,-1000,4,1,8,0,0,-152,1500.0,50.0
22:48:52.664,GUIDED,-35.3632622,149.1652376,39579,0.002367447828873992,0.001010627718642354,-0.14257460832595825,-0.002318751998245716,-0.00027760054217651486,0.010498509742319584,0,0,-1000,-1,0,10,0,0,-152,1500.0,50.0
22:48:52.865,GUIDED,-35.3632622,149.1652376,39969,0.002026381902396679,0.0009976106230169535,-0.14053909480571747,-0.004050504416227341,0.00046072201803326607,0.008618284948170185,0,0,-999,-3,1,8,0,0,-152,1500.0,50.0
22:48:53.066,GUIDED,-35.3632622,149.1652376,39969,0.002026381902396679,0.0009976106230169535,-0.14053909480571747,-0.004050504416227341,0.00046072201803326607,0.008618284948170185,0,0,-999,-3,1,8,0,0,-152,1500.0,50.0
22:48:53.267,GUIDED,-35.3632622,149.1652376,39969,0.002026381902396679,0.0009976106230169535,-0.14053909480571747,-0.004050504416227341,0.00046072201803326607,0.008618284948170185,0,0,-999,-3,1,8,0,0,-152,1500.0,50.0
22:48:53.467,GUIDED,-35.3632622,149.1652376,39969,0.002026381902396679,0.0009976106230169535,-0.14053909480571747,-0.004050504416227341,0.00046072201803326607,0.008618284948170185,0,0,-999,-3,1,8,0,0,-152,1500.0,50.0
22:48:53.668,GUIDED,-35.3632621,149.1652376,41135,0.0018385289004072547,0.0014990713680163026,-0.13484565913677216,0.0006602508365176618,0.00203522271476686,0.008965780027210712,0,0,-1000,1,2,8,0,0,-152,1500.0,50.0
22:48:53.869,GUIDED,-35.3632621,149.1652375,41524,0.00187379727140069,0.001461529522202909,-0.13298451900482178,0.003799130441620946,-0.00039226002991199493,0.00967371091246605,0,0,-1001,4,0,9,0,0,-152,1500.0,50.0
22:48:54.069,GUIDED,-35.3632621,149.1652375,41913,0.0018631882267072797,0.0016883312491700053,-0.13130494952201843,-0.00200901017524302,0.00036745506804436445,0.006445858161896467,0,0,-1000,0,1,6,0,1,-152,1500.0,50.0
22:48:54.270,GUIDED,-35.3632621,149.1652375,42302,0.0016759440768510103,0.001834677066653967,-0.1297730654478073,0.0024434286169707775,0.0011714997235685587,0.008517737500369549,0,0,-1000,3,2,8,0,1,-152,1500.0,50.0
22:48:54.471,GUIDED,-35.3632621,149.1652375,42302,0.0016759440768510103,0.001834677066653967,-0.1297730654478073,0.0024434286169707775,0.0011714997235685587,0.008517737500369549,0,0,-1000,3,2,8,0,1,-152,1500.0,50.0
22:48:54.672,GUIDED,-35.3632621,149.1652375,42692,0.0015837907558307052,0.001812664675526321,-0.1280931532382965,0.0008840303053148091,0.0002321212086826563,0.008116468787193298,0,0,-1000,1,1,7,0,1,-152,1500.0,50.0
22:48:54.873,GUIDED,-35.3632621,149.1652375,43081,0.0014401882654055953,0.0015994691057130694,-0.1264602541923523,-0.0005125639727339149,0.0014514720533043146,0.008370179682970047,0,0,-999,0,2,8,0,1,-152,1500.0,50.0
22:48:55.074,GUIDED,-35.3632621,149.1652375,43081,0.0014401882654055953,0.0015994691057130694,-0.1264602541923523,-0.0005125639727339149,0.0014514720533043146,0.008370179682970047,0,0,-999,0,2,8,0,1,-152,1500.0,50.0
22:48:55.274,GUIDED,-35.3632621,149.1652375,43081,0.0014401882654055953,0.0015994691057130694,-0.1264602541923523,-0.0005125639727339149,0.0014514720533043146,0.008370179682970047,0,0,-999,0,2,8,0,1,-152,1500.0,50.0
22:48:55.475,GUIDED,-35.3632621,149.1652375,43081,0.0014401882654055953,0.0015994691057130694,-0.1264602541923523,-0.0005125639727339149,0.0014514720533043146,0.008370179682970047,0,0,-999,0,2,8,0,1,-152,1500.0,50.0
22:48:55.676,GUIDED,-35.363262,149.1652375,44247,0.0017121845157817006,0.001657165470533073,-0.12166287004947662,-0.003930465318262577,-0.00014084548456594348,0.005710574798285961,0,0,-999,-2,1,5,-1,1,-152,1500.0,50.0
22:48:55.877,GUIDED,-35.363262,149.1652375,44636,0.0017772711580619216,0.001528157969005406,-0.1200965866446495,0.00305249635130167,0.00037254783092066646,0.007420379668474197,0,0,-1000,4,1,7,-1,1,-152,1500.0,50.0
22:48:56.078,GUIDED,-35.363262,149.1652374,45025,0.0017460110830143094,0.0013834584970027208,-0.11849448829889297,-0.001805311068892479,9.72389243543148e-05,0.007018577307462692,0,0,-1000,0,0,6,-1,1,-152,1500.0,50.0
22:48:56.279,GUIDED,-35.363262,149.1652374,45413,0.001761742983944714,0.001363923423923552,-0.11710453033447266,-0.0010344344191253185,0.00023720774333924055,0.005000696517527103,0,0,-1000,0,1,5,-1,1,-152,1500.0,50.0
22:48:56.479,GUIDED,-35.363262,149.1652374,45413,0.001761742983944714,0.001363923423923552,-0.11710453033447266,-0.0010344344191253185,0.00023720774333924055,0.005000696517527103,0,0,-1000,0,1,5,-1,1,-152,1500.0,50.0
22:48:56.680,GUIDED,-35.363262,149.1652374,45802,0.001716667553409934,0.0011840886436402798,-0.11561578512191772,0.0031795089598745108,0.00018785352585837245,0.0058332690969109535,0,0,-1000,4,1,5,-1,1,-152,1500.0,50.0
22:48:56.881,GUIDED,-35.363262,149.1652374,46192,0.0015825096052139997,0.0010882741771638393,-0.1142040565609932,-0.000889677437953651,0.001434038276784122,0.008803482167422771,0,0,-999,0,2,8,-1,1,-152,1500.0,50.0
22:48:57.081,GUIDED,-35.363262,149.1652374,46192,0.0015825096052139997,0.0010882741771638393,-0.1142040565609932,-0.000889677437953651,0.001434038276784122,0.008803482167422771,0,0,-999,0,2,8,-1,1,-152,1500.0,50.0
22:48:57.282,GUIDED,-35.363262,149.1652374,46192,0.0015825096052139997,0.0010882741771638393,-0.1142040565609932,-0.000889677437953651,0.001434038276784122,0.008803482167422771,0,0,-999,0,2,8,-1,1,-152,1500.0,50.0
22:48:57.483,GUIDED,-35.363262,149.1652374,46192,0.0015825096052139997,0.0010882741771638393,-0.1142040565609932,-0.000889677437953651,0.001434038276784122,0.008803482167422771,0,0,-999,0,2,8,-1,1,-152,1500.0,50.0
22:48:57.684,GUIDED,-35.363262,149.1652374,47358,0.001437705708667636,0.001226272201165557,-0.11006313562393188,-0.0025396717246621847,0.0006885421462357044,0.00731794536113739,0,0,-999,-1,1,7,-1,1,-152,1500.0,50.0
22:48:57.884,GUIDED,-35.363262,149.1652374,47747,0.0014543499564751983,0.0012170168338343501,-0.10860125720500946,0.0007224003784358501,-0.00040741002885624766,0.009818010032176971,0,0,-1000,1,0,10,-1,1,-152,1500.0,50.0
22:48:58.085,GUIDED,-35.363262,149.1652374,48136,0.0014790481654927135,0.0011037938529625535,-0.10738873481750488,0.0011665653437376022,-9.041826706379652e-05,0.004132469650357962,0,0,-1001,2,0,4,-1,1,-152,1500.0,50.0
22:48:58.287,GUIDED,-35.363262,149.1652374,48528,0.001417716033756733,0.0011067502200603485,-0.10624729841947556,0.0020075535867363214,0.0018925727345049381,0.006420932710170746,0,0,-999,2,2,6,-1,1,-152,1500.0,50.0
22:48:58.487,GUIDED,-35.363262,149.1652374,48528,0.001417716033756733,0.0011067502200603485,-0.10624729841947556,0.0020075535867363214,0.0018925727345049381,0.006420932710170746,0,0,-999,2,2,6,-1,1,-152,1500.0,50.0
22:48:58.688,GUIDED,-35.363262,149.1652374,48917,0.0017019249498844147,0.0010053192963823676,-0.10474886000156403,0.0006587633979506791,-0.0012264624238014221,0.004475798457860947,0,0,-1000,1,0,4,-1,1,-152,1500.0,50.0
22:48:58.889,GUIDED,-35.363262,149.1652374,49307,0.0018219157354906201,0.0008748698746785522,-0.10366085171699524,0.0036085525061935186,-0.00027954677352681756,0.004918685182929039,0,0,-1001,4,0,5,-1,1,-152,1500.0,50.0
22:48:59.090,GUIDED,-35.363262,149.1652374,49307,0.0018219157354906201,0.0008748698746785522,-0.10366085171699524,0.0036085525061935186,-0.00027954677352681756,0.004918685182929039,0,0,-1001,4,0,5,-1,1,-152,1500.0,50.0
22:48:59.290,GUIDED,-35.363262,149.1652374,49307,0.0018219157354906201,0.0008748698746785522,-0.10366085171699524,0.0036085525061935186,-0.00027954677352681756,0.004918685182929039,0,0,-1001,4,0,5,-1,1,-152,1500.0,50.0
22:48:59.492,GUIDED,-35.363262,149.1652374,49307,0.0018219157354906201,0.0008748698746785522,-0.10366085171699524,0.0036085525061935186,-0.00027954677352681756,0.004918685182929039,0,0,-1001,4,0,5,-1,1,-152,1500.0,50.0
22:48:59.693,GUIDED,-35.363262,149.1652374,50469,0.0018407757161185145,0.0011609309585765004,-0.1001909151673317,-0.00046874547842890024,0.0037986307870596647,0.007294590584933758,0,0,-999,0,4,7,-1,1,-152,1500.0,50.0
22:48:59.894,GUIDED,-35.363262,149.1652374,50858,0.0016681995475664735,0.0014642748283222318,-0.09854898601770401,-0.00038143963320180774,3.4666736610233784e-06,0.00562523165717721,0,0,-1001,0,1,5,-1,1,-152,1500.0,50.0
22:49:00.095,GUIDED,-35.363262,149.1652374,51246,0.001609759870916605,0.001110956072807312,-0.09708426147699356,-0.00020914134802296758,-0.0018252889858558774,0.003933019936084747,0,0,-1000,0,0,4,-1,1,-152,1500.0,50.0
22:49:00.297,GUIDED,-35.363262,149.1652374,51636,0.001599336159415543,0.0010614142520353198,-0.0958666205406189,0.0009352245833724737,0.0005224081105552614,0.005205162335187197,0,0,-1000,2,1,5,-1,1,-152,1500.0,50.0
22:49:00.498,GUIDED,-35.363262,149.1652374,52025,0.0017639807192608714,0.0009551960974931717,-0.09477012604475021,0.002579085063189268,-2.543441951274872e-06,0.0060340347699820995,0,0,-1000,2,1,5,-1,1,-152,1500.0,50.0
22:49:00.699,GUIDED,-35.363262,149.1652374,52025,0.0017639807192608714,0.0009551960974931717,-0.09477012604475021,0.002579085063189268,-2.543441951274872e-06,0.0060340347699820995,0,0,-1000,3,0,6,-1,1,-152,1500.0,50.0
22:49:00.900,GUIDED,-35.363262,149.1652373,52414,0.0016887043602764606,0.0007089376449584961,-0.09373673796653748,0.000500321970321238,0.00013083789963275194,0.006923477631062269,0,0,-999,1,1,7,-1,1,-152,1500.0,50.0
22:49:01.103,LAND,-35.363262,149.1652373,52414,0.0016887043602764606,0.0007089376449584961,-0.09373673796653748,0.000500321970321238,0.00013083789963275194,0.006923477631062269,0,0,-999,1,1,7,-1,1,-152,1500.0,50.0
22:49:01.304,LAND,-35.363262,149.1652373,52414,0.0016887043602764606,0.0007089376449584961,-0.09373673796653748,0.000500321970321238,0.00013083789963275194,0.006923477631062269,0,0,-999,1,1,7,-1,1,-152,1500.0,50.0
22:49:01.506,LAND,-35.363262,149.1652373,52414,0.0016887043602764606,0.0007089376449584961,-0.09373673796653748,0.000500321970321238,0.00013083789963275194,0.006923477631062269,0,0,-999,1,1,7,-1,1,-152,1500.0,50.0
22:49:01.707,LAND,-35.363262,149.1652373,53579,0.001558257034048438,0.001057720510289073,-0.09048681706190109,-0.00334464805200696,0.00023058266378939152,0.004812263883650303,0,0,-999,-1,1,4,-1,1,-152,1500.0,50.0
22:49:01.907,LAND,-35.363262,149.1652373,53969,0.0015990912215784192,0.000996629474684596,-0.08965905010700226,0.0019547794945538044,-0.0008573739905841649,0.0036705087404698133,0,0,-1001,2,0,3,-1,1,-152,1500.0,50.0
22:49:02.147,LAND,-35.363262,149.1652373,54350,-0.018921537324786186,0.020936062559485435,-0.046480387449264526,-0.15196996927261353,0.15301042795181274,0.344635933637619,0,-1,-954,-150,153,344,-3,0,-144,1500.0,50.0
22:49:02.348,LAND,-35.3632621,149.1652372,54702,-0.05980944260954857,0.07014226913452148,0.08877619355916977,-0.17185768485069275,0.15107856690883636,0.642092764377594,1,2,-942,-170,152,642,-13,-10,-131,1500.0,50.0
22:49:02.550,LAND,-35.3632625,149.1652367,55010,-0.06134488433599472,0.06569109857082367,0.20953014492988586,0.05380501598119736,-0.18421441316604614,0.3640393614768982,2,5,-907,55,-183,364,-26,-26,-109,1500.0,50.0
22:49:02.751,LAND,-35.3632632,149.1652357,55261,-0.03478352725505829,0.013582642190158367,0.2781270742416382,0.10657113045454025,-0.2174776941537857,0.1935977190732956,2,5,-907,55,-183,364,-32,-37,-87,1500.0,50.0
22:49:02.952,LAND,-35.3632632,149.1652357,55261,-0.03478352725505829,0.013582642190158367,0.2781270742416382,0.10657113045454025,-0.2174776941537857,0.1935977190732956,4,9,-913,107,-216,193,-32,-37,-87,1500.0,50.0
22:49:03.153,LAND,-35.3632632,149.1652357,55261,-0.03478352725505829,0.013582642190158367,0.2781270742416382,0.10657113045454025,-0.2174776941537857,0.1935977190732956,4,9,-913,107,-216,193,-32,-37,-87,1500.0,50.0
22:49:03.353,LAND,-35.3632632,149.1652357,55261,-0.03478352725505829,0.013582642190158367,0.2781270742416382,0.10657113045454025,-0.2174776941537857,0.1935977190732956,4,9,-913,107,-216,193,-32,-37,-87,1500.0,50.0
22:49:03.554,LAND,-35.3632632,149.1652357,55261,-0.03478352725505829,0.013582642190158367,0.2781270742416382,0.10657113045454025,-0.2174776941537857,0.1935977190732956,4,9,-913,107,-216,193,-32,-37,-87,1500.0,50.0
22:49:03.755,LAND,-35.3632648,149.1652325,55765,0.03705170750617981,-0.05542382970452309,0.32074952125549316,0.031564708799123764,0.020165635272860527,-0.02481137402355671,-1,6,-942,33,21,-24,0,-9,-14,1500.0,50.0
22:49:03.956,LAND,-35.3632648,149.1652325,55765,0.03705170750617981,-0.05542382970452309,0.32074952125549316,0.031564708799123764,0.020165635272860527,-0.02481137402355671,-1,6,-942,33,21,-24,0,-9,-14,1500.0,50.0
22:49:04.157,LAND,-35.3632647,149.1652324,55785,0.04936886951327324,-0.04758566617965698,0.31276726722717285,0.5696579813957214,0.035240232944488525,-0.0363340824842453,0,18,-946,570,36,-35,8,3,0,1500.0,50.0
22:49:04.358,LAND,-35.3632645,149.1652326,55761,0.04806126281619072,-0.03666578233242035,0.30282774567604065,0.19234895706176758,0.042378656566143036,-0.04683668166399002,-1,-17,-928,190,43,-46,14,12,19,1500.0,50.0
22:49:04.558,LAND,-35.3632641,149.165233,55698,0.03524979203939438,-0.02433939278125763,0.2929142713546753,-0.4480215907096863,0.053816597908735275,-0.04620013013482094,-2,-47,-936,-449,55,-45,19,20,28,1500.0,50.0
22:49:04.759,LAND,-35.3632637,149.1652335,55611,0.02298208326101303,-0.012531556189060211,0.28259366750717163,-0.9437565803527832,0.0438232496380806,-0.04235461726784706,-1,-62,-957,-944,44,-41,21,26,37,1500.0,50.0
22:49:04.959,LAND,-35.3632637,149.1652335,55611,0.02298208326101303,-0.012531556189060211,0.28259366750717163,-0.9437565803527832,0.0438232496380806,-0.04235461726784706,-1,-62,-957,-944,44,-41,21,26,37,1500.0,50.0
22:49:05.160,LAND,-35.3632637,149.1652335,55611,0.02298208326101303,-0.012531556189060211,0.28259366750717163,-0.9437565803527832,0.0438232496380806,-0.04235461726784706,-1,-62,-957,-944,44,-41,21,26,37,1500.0,50.0
22:49:05.361,LAND,-35.3632637,149.1652335,55611,0.02298208326101303,-0.012531556189060211,0.28259366750717163,-0.9437565803527832,0.0438232496380806,-0.04235461726784706,-1,-62,-957,-944,44,-41,21,26,37,1500.0,50.0
22:49:05.563,LAND,-35.3632637,149.1652335,55611,0.02298208326101303,-0.012531556189060211,0.28259366750717163,-0.9437565803527832,0.0438232496380806,-0.04235461726784706,-1,-62,-957,-944,44,-41,21,26,37,1500.0,50.0
22:49:05.764,LAND,-35.3632619,149.1652369,55080,-0.01543489471077919,0.013918465003371239,0.246880441904068,-0.7397638559341431,0.015610705129802227,-0.03164253011345863,0,-14,-1013,-736,16,-31,15,28,53,1500.0,50.0
22:49:05.965,LAND,-35.3632619,149.1652369,55080,-0.01543489471077919,0.013918465003371239,0.246880441904068,-0.7397638559341431,0.015610705129802227,-0.03164253011345863,0,-14,-1013,-736,16,-31,15,28,53,1500.0,50.0
22:49:06.186,LAND,-35.3632616,149.1652376,54945,-0.020711561664938927,0.015215214341878891,0.23871983587741852,-0.7077981233596802,0.002331923460587859,-0.02842387743294239,0,-6,-1006,-704,3,-27,12,25,50,1500.0,50.0
22:49:06.387,LAND,-35.3632614,149.1652383,54820,-0.020060701295733452,0.015300839208066463,0.23049384355545044,-0.11003459244966507,-0.008686671033501625,-0.0163072869181633,1,20,-1021,-106,-7,-16,8,21,42,1500.0,50.0
22:49:06.589,LAND,-35.3632612,149.1652389,54711,-0.009832724928855896,0.013761498034000397,0.2235238254070282,0.5421252846717834,-0.008773582987487316,-0.020786385983228683,2,39,-1033,545,-7,-20,6,17,38,1500.0,50.0
22:49:06.790,LAND,-35.3632611,149.1652394,54612,-0.0031274529173970222,0.012321134097874165,0.21645012497901917,0.9691925644874573,-0.008992298506200314,-0.02279493398964405,0,41,-1024,971,-7,-22,4,12,35,1500.0,50.0
22:49:06.991,LAND,-35.3632611,149.1652394,54612,-0.0031274529173970222,0.012321134097874165,0.21645012497901917,0.9691925644874573,-0.008992298506200314,-0.02279493398964405,0,41,-1024,971,-7,-22,4,12,35,1500.0,50.0
22:49:07.192,LAND,-35.3632611,149.1652394,54612,-0.0031274529173970222,0.012321134097874165,0.21645012497901917,0.9691925644874573,-0.008992298506200314,-0.02279493398964405,0,41,-1024,971,-7,-22,4,12,35,1500.0,50.0
22:49:07.394,LAND,-35.3632611,149.1652394,54612,-0.0031274529173970222,0.012321134097874165,0.21645012497901917,0.9691925644874573,-0.008992298506200314,-0.02279493398964405,0,41,-1024,971,-7,-22,4,12,35,1500.0,50.0
22:49:07.595,LAND,-35.3632611,149.1652394,54612,-0.0031274529173970222,0.012321134097874165,0.21645012497901917,0.9691925644874573,-0.008992298506200314,-0.02279493398964405,0,41,-1024,971,-7,-22,4,12,35,1500.0,150.0
22:49:07.796,LAND,-35.3632612,149.1652398,54225,-0.012534845620393753,0.0021193663123995066,0.19102638959884644,-1.0400524139404297,-0.012780914083123207,-0.021437086164951324,0,-61,-898,-1041,-11,-20,-1,-1,49,1500.0,150.0
22:49:07.997,LAND,-35.3632612,149.1652398,54225,-0.012534845620393753,0.0021193663123995066,0.19102638959884644,-1.0400524139404297,-0.012780914083123207,-0.021437086164951324,0,-61,-898,-1041,-11,-20,-1,-1,49,1500.0,150.0
22:49:08.199,LAND,-35.3632612,149.1652397,54070,-0.011782500892877579,0.00016813521506264806,0.1847829818725586,-1.2007906436920166,-0.00472704041749239,-0.020642096176743507,0,-67,-919,-1202,-3,-20,-1,-3,68,1500.0,150.0
22:49:08.400,LAND,-35.3632612,149.1652395,53873,-0.011953242123126984,-0.002071557566523552,0.18035554885864258,-1.3932154178619385,-0.012064452283084393,-0.01867849752306938,0,-81,-834,-1395,-11,-17,-1,-4,89,1500.0,150.0
22:49:08.601,LAND,-35.3632613,149.1652393,53596,0.005489787086844444,-0.003610804211348295,0.17448736727237701,-0.7739105224609375,-0.013108855113387108,-0.03666742518544197,0,-80,-920,-777,-12,-36,-1,-5,116,1500.0,150.0
22:49:08.803,LAND,-35.3632614,149.165239,53273,0.017553800716996193,-0.005159376654773951,0.17029228806495667,-0.17078132927417755,-0.007247820030897856,-0.03797021880745888,0,-54,-1039,-173,-6,-37,-1,-4,121,1500.0,150.0
22:49:09.004,LAND,-35.3632614,149.165239,53273,0.017553800716996193,-0.005159376654773951,0.17029228806495667,-0.17078132927417755,-0.007247820030897856,-0.03797021880745888,0,-54,-1039,-173,-6,-37,-1,-4,121,1500.0,150.0
22:49:09.205,LAND,-35.3632614,149.165239,53273,0.017553800716996193,-0.005159376654773951,0.17029228806495667,-0.17078132927417755,-0.007247820030897856,-0.03797021880745888,0,-54,-1039,-173,-6,-37,-1,-4,121,1500.0,150.0
22:49:09.406,LAND,-35.3632614,149.165239,53273,0.017553800716996193,-0.005159376654773951,0.17029228806495667,-0.17078132927417755,-0.007247820030897856,-0.03797021880745888,0,-54,-1039,-173,-6,-37,-1,-4,121,1500.0,150.0
22:49:09.607,LAND,-35.3632614,149.165239,53273,0.017553800716996193,-0.005159376654773951,0.17029228806495667,-0.17078132927417755,-0.007247820030897856,-0.03797021880745888,0,-54,-1039,-173,-6,-37,-1,-4,121,1500.0,150.0
22:49:09.808,LAND,-35.3632617,149.1652379,52140,0.029389498755335808,-0.005012151785194874,0.15068776905536652,1.1791993379592896,-0.006317883264273405,-0.018005495890975,0,25,-1072,1178,-5,-17,0,2,94,1500.0,150.0
22:49:10.009,LAND,-35.3632618,149.1652378,51879,0.028753476217389107,-0.005199235398322344,0.14675085246562958,1.5040396451950073,-0.006556867156177759,-0.020055003464221954,0,57,-1027,1505,-5,-19,0,4,101,1500.0,150.0
22:49:10.211,LAND,-35.3632618,149.1652378,51879,0.028753476217389107,-0.005199235398322344,0.14675085246562958,1.5040396451950073,-0.006556867156177759,-0.020055003464221954,0,57,-1027,1505,-5,-19,0,4,101,1500.0,150.0
22:49:10.412,LAND,-35.3632618,149.1652376,51624,0.03442663699388504,-0.004481490235775709,0.1421702355146408,1.5166163444519043,0.0034117898903787136,-0.009296160191297531,0,50,-989,1517,4,-8,0,4,94,1500.0,150.0
22:49:10.614,LAND,-35.3632618,149.1652374,51369,0.029478473588824272,-0.004334774799644947,0.13897059857845306,1.2399556636810303,0.0010783195029944181,-0.01271058339625597,0,47,-1074,1240,1,-12,0,5,92,1500.0,150.0
22:49:10.815,LAND,-35.3632619,149.1652372,51117,0.02838580124080181,-0.003895403118804097,0.13450312614440918,1.5771045684814453,-0.0006404841551557183,-0.00969248078763485,0,63,-977,1578,0,-8,0,7,104,1500.0,150.0
22:49:11.017,LAND,-35.3632619,149.1652372,51117,0.02838580124080181,-0.003895403118804097,0.13450312614440918,1.5771045684814453,-0.0006404841551557183,-0.00969248078763485,0,63,-977,1578,0,-8,0,7,104,1500.0,150.0
22:49:11.220,LAND,-35.3632619,149.1652372,51117,0.02838580124080181,-0.003895403118804097,0.13450312614440918,1.5771045684814453,-0.0006404841551557183,-0.00969248078763485,0,63,-977,1578,0,-8,0,7,104,1500.0,150.0
22:49:11.423,LAND,-35.3632619,149.1652372,51117,0.02838580124080181,-0.003895403118804097,0.13450312614440918,1.5771045684814453,-0.0006404841551557183,-0.00969248078763485,0,63,-977,1578,0,-8,0,7,104,1500.0,150.0
22:49:11.624,LAND,-35.3632619,149.1652372,51117,0.02838580124080181,-0.003895403118804097,0.13450312614440918,1.5771045684814453,-0.0006404841551557183,-0.00969248078763485,0,63,-977,1578,0,-8,0,7,104,1500.0,150.0
22:49:11.825,LAND,-35.363262,149.1652368,50111,0.02592341974377632,-0.001993730664253235,0.12090365588665009,1.4511492252349854,-0.007954307831823826,-0.008008678443729877,0,59,-1016,1452,-7,-7,1,9,101,1500.0,50.0
22:49:12.026,LAND,-35.363262,149.1652368,49862,0.0246377345174551,-0.0015786581207066774,0.11789662390947342,1.182240605354309,-0.0021925324108451605,-0.013703840784728527,1,43,-1127,1183,-1,-13,1,10,87,1500.0,50.0
22:49:12.227,LAND,-35.363262,149.1652368,49862,0.0246377345174551,-0.0015786581207066774,0.11789662390947342,1.182240605354309,-0.0021925324108451605,-0.013703840784728527,1,43,-1127,1183,-1,-13,1,10,87,1500.0,50.0
22:49:12.427,LAND,-35.363262,149.1652368,49686,0.01858038455247879,-0.0005213635740801692,0.11439476162195206,0.8853054046630859,-0.000271777156740427,-0.007894905284047127,0,23,-1076,886,0,-7,1,10,53,1500.0,50.0
22:49:12.628,LAND,-35.363262,149.1652369,49558,0.016745809465646744,-0.0008829942089505494,0.11131291836500168,0.6974493861198425,-0.0012826262973248959,-0.011180886067450047,0,5,-1011,697,0,-10,1,9,47,1500.0,50.0
22:49:12.829,LAND,-35.363262,149.1652369,49439,0.017347048968076706,-0.0007798700244165957,0.10807477682828903,0.5392141938209534,-0.0018778052181005478,-0.011047625914216042,0,-11,-978,538,-1,-10,2,7,47,1500.0,50.0
22:49:13.030,LAND,-35.363262,149.1652369,49439,0.017347048968076706,-0.0007798700244165957,0.10807477682828903,0.5392141938209534,-0.0018778052181005478,-0.011047625914216042,0,-11,-978,538,-1,-10,2,7,47,1500.0,50.0
22:49:13.232,LAND,-35.363262,149.1652369,49439,0.017347048968076706,-0.0007798700244165957,0.10807477682828903,0.5392141938209534,-0.0018778052181005478,-0.011047625914216042,0,-11,-978,538,-1,-10,2,7,47,1500.0,50.0
22:49:13.434,LAND,-35.363262,149.1652369,49439,0.017347048968076706,-0.0007798700244165957,0.10807477682828903,0.5392141938209534,-0.0018778052181005478,-0.011047625914216042,0,-11,-978,538,-1,-10,2,7,47,1500.0,50.0
22:49:13.635,LAND,-35.363262,149.1652368,49055,-0.0010998275829479098,-0.00019648698798846453,0.09899481385946274,-0.824510931968689,-0.0028004550840705633,-0.017907574772834778,-1,-58,-985,-825,-1,-17,1,6,56,1500.0,50.0
22:49:13.836,LAND,-35.3632621,149.1652368,48913,-0.0034302310086786747,-0.0004307905910536647,0.09712935239076614,-1.0243985652923584,-0.0004922145744785666,-0.006578531116247177,0,-60,-999,-1024,0,-5,2,6,57,1500.0,50.0
22:49:14.037,LAND,-35.3632621,149.1652368,48770,-0.007798061240464449,-0.0001515152252977714,0.0951642394065857,-1.2413394451141357,0.006248798221349716,-0.015141637064516544,0,-47,-996,-1240,6,-14,2,6,58,1500.0,50.0
22:49:14.238,LAND,-35.3632621,149.1652368,48770,-0.007798061240464449,-0.0001515152252977714,0.0951642394065857,-1.2413394451141357,0.006248798221349716,-0.015141637064516544,0,-47,-996,-1240,6,-14,2,6,58,1500.0,50.0
22:49:14.438,LAND,-35.3632621,149.1652368,48619,-0.009824955835938454,-0.0010919761843979359,0.09269428998231888,-1.1076312065124512,0.0029552720952779055,-0.00999863725155592,-1,-39,-1018,-1105,3,-9,1,7,59,1500.0,50.0
22:49:14.639,LAND,-35.3632621,149.1652368,48466,-0.014808171428740025,-0.0010218963725492358,0.09095029532909393,-0.8627105355262756,0.005051854532212019,-0.006403667852282524,0,-5,-974,-858,5,-5,2,7,61,1500.0,50.0
22:49:14.841,LAND,-35.3632622,149.1652369,48309,-0.009163808077573776,-0.0010438546305522323,0.08782150596380234,-0.38705679774284363,-0.0028294548392295837,-0.0033313522581011057,1,11,-1016,-383,-1,-2,2,7,60,1500.0,50.0
