time_stamp,MODE,lat,lon,relative_alt,roll,pitch,yaw,rollspeed,pitchspeed,yawspeed,xacc,yacc,zacc,xgyro,ygyro,zgyro,vx,vy,vz,RTL_ALT,LAND_SPEED
17:00:39.691,GUIDED,-35.3632621,149.1652374,0,-0.00040046664071269333,0.001349891535937786,0.02845798432826996,0.00023019028594717383,0.0003371517814230174,0.00237468583509326,0,1,-1000,0,0,0,0,0,0,1500.0,30.0
17:00:39.892,GUIDED,-35.3632621,149.1652374,0,-0.0002802247181534767,0.0015542663168162107,0.027788668870925903,0.0002537743712309748,0.00034489622339606285,0.0024733322206884623,0,1,-1000,0,0,0,-1,1,0,1500.0,30.0
17:00:40.094,GUIDED,-35.3632621,149.1652374,0,-0.00026704021729528904,0.0015715031186118722,0.027620501816272736,0.00021741457749158144,0.0003253334725741297,0.0023312775883823633,0,1,-1000,0,0,0,-1,1,0,1500.0,30.0
17:00:40.297,GUIDED,-35.3632621,149.1652374,0,-0.00026704021729528904,0.0015715031186118722,0.027620501816272736,0.00021741457749158144,0.0003253334725741297,0.0023312775883823633,0,1,-1000,0,0,0,-1,1,0,1500.0,30.0
17:00:40.498,GUIDED,-35.3632621,149.1652374,0,-0.00026704021729528904,0.0015715031186118722,0.027620501816272736,0.00021741457749158144,0.0003253334725741297,0.0023312775883823633,0,1,-1000,0,0,0,-1,1,0,1500.0,30.0
17:00:40.700,GUIDED,-35.3632621,149.1652374,0,-0.00026704021729528904,0.0015715031186118722,0.027620501816272736,0.00021741457749158144,0.0003253334725741297,0.0023312775883823633,0,1,-1000,0,0,0,-1,1,0,1500.0,30.0
17:00:40.902,GUIDED,-35.3632621,149.1652374,0,-0.00026704021729528904,0.0015715031186118722,0.027620501816272736,0.00021741457749158144,0.0003253334725741297,0.0023312775883823633,0,1,-1000,0,0,0,-1,1,0,1500.0,30.0
17:00:41.105,GUIDED,-35.3632621,149.1652374,0,-0.00026704021729528904,0.0015715031186118722,0.027620501816272736,0.00021741457749158144,0.0003253334725741297,0.0023312775883823633,0,1,-1000,0,0,0,-1,1,0,1500.0,30.0
17:00:41.307,GUIDED,-35.3632621,149.1652374,0,-0.00026704021729528904,0.0015715031186118722,0.027620501816272736,0.00021741457749158144,0.0003253334725741297,0.0023312775883823633,0,1,-1000,0,0,0,-1,1,0,1500.0,30.0
17:00:41.511,GUIDED,-35.3632621,149.1652374,0,-0.00026704021729528904,0.0015715031186118722,0.027620501816272736,0.00021741457749158144,0.0003253334725741297,0.0023312775883823633,0,1,-1000,0,0,0,-1,1,0,1500.0,30.0
17:00:41.714,GUIDED,-35.3632621,149.1652374,0,-0.00029324518982321024,0.0015719268703833222,0.027115682139992714,0.00036710622953251004,0.00032320120953954756,0.0022702328860759735,0,1,-1000,0,0,0,-1,1,0,1500.0,30.0
17:00:41.918,GUIDED,-35.3632622,149.1652375,8,-0.000461779156466946,0.0014111482305452228,0.02652634121477604,0.00024510204093530774,0.0002473988861311227,0.0022433982230722904,0,2,-1000,0,0,0,-2,1,0,1500.0,30.0
17:00:42.121,GUIDED,-35.3632622,149.1652375,9,-0.0005267301457934082,0.0013546084519475698,0.026398951187729836,0.00042573711834847927,0.00023071956820786,0.0021739769726991653,0,1,-1000,0,0,0,-2,1,0,1500.0,30.0
17:00:42.325,GUIDED,-35.3632622,149.1652375,9,-0.0005267301457934082,0.0013546084519475698,0.026398951187729836,0.00042573711834847927,0.00023071956820786,0.0021739769726991653,0,1,-1000,0,0,0,-2,1,0,1500.0,30.0
17:00:42.535,GUIDED,-35.3632622,149.1652375,9,-0.0005267301457934082,0.0013546084519475698,0.026398951187729836,0.00042573711834847927,0.00023071956820786,0.0021739769726991653,0,1,-1000,0,0,0,-2,1,0,1500.0,30.0
17:00:42.737,GUIDED,-35.3632622,149.1652375,9,-0.0005267301457934082,0.0013546084519475698,0.026398951187729836,0.00042573711834847927,0.00023071956820786,0.0021739769726991653,0,1,-1000,0,0,0,-2,1,0,1500.0,30.0
17:00:42.942,GUIDED,-35.3632622,149.1652375,9,-0.0005267301457934082,0.0013546084519475698,0.026398951187729836,0.00042573711834847927,0.00023071956820786,0.0021739769726991653,0,1,-1000,0,0,0,-2,1,0,1500.0,30.0
17:00:43.147,GUIDED,-35.3632622,149.1652375,9,-0.0005267301457934082,0.0013546084519475698,0.026398951187729836,0.00042573711834847927,0.00023071956820786,0.0021739769726991653,0,1,-1000,0,0,0,-2,1,0,1500.0,30.0
17:00:43.348,GUIDED,-35.3632622,149.1652375,9,-0.0005267301457934082,0.0013546084519475698,0.026398951187729836,0.00042573711834847927,0.00023071956820786,0.0021739769726991653,0,1,-1000,0,0,0,-2,1,0,1500.0,30.0
17:00:43.551,GUIDED,-35.3632622,149.1652375,9,-0.0005267301457934082,0.0013546084519475698,0.026398951187729836,0.00042573711834847927,0.00023071956820786,0.0021739769726991653,0,1,-1000,0,0,0,-2,1,0,1500.0,30.0
17:00:43.754,GUIDED,-35.3632621,149.1652375,0,-0.00030689971754327416,0.001309362007305026,0.02567671425640583,0.0002264411887153983,0.0002841033274307847,0.0021112728863954544,0,1,-1000,1,0,1,0,0,0,1500.0,30.0
17:00:43.956,GUIDED,-35.3632621,149.1652375,0,-0.0002694958238862455,0.0014089130563661456,0.025407353416085243,0.0001888750703074038,0.0003226881963200867,0.0020234689582139254,0,1,-1000,0,0,0,0,0,0,1500.0,30.0
17:00:44.158,GUIDED,-35.3632621,149.1652375,1,-0.00022538872144650668,0.001466194400563836,0.0252787247300148,0.0002982430160045624,0.0002755130990408361,0.0019936435855925083,0,1,-1000,0,0,0,0,0,0,1500.0,30.0
17:00:44.360,GUIDED,-35.3632621,149.1652375,1,-0.00022538872144650668,0.001466194400563836,0.0252787247300148,0.0002982430160045624,0.0002755130990408361,0.0019936435855925083,0,1,-1000,0,0,0,0,0,0,1500.0,30.0
17:00:44.562,GUIDED,-35.3632621,149.1652375,1,-0.00022538872144650668,0.001466194400563836,0.0252787247300148,0.0002982430160045624,0.0002755130990408361,0.0019936435855925083,0,1,-1000,0,0,0,0,0,0,1500.0,30.0
17:00:44.765,GUIDED,-35.3632621,149.1652375,1,-0.00022538872144650668,0.001466194400563836,0.0252787247300148,0.0002982430160045624,0.0002755130990408361,0.0019936435855925083,0,1,-1000,0,0,0,0,0,0,1500.0,30.0
17:00:44.968,GUIDED,-35.3632621,149.1652375,1,-0.00022538872144650668,0.001466194400563836,0.0252787247300148,0.0002982430160045624,0.0002755130990408361,0.0019936435855925083,0,1,-1000,0,0,0,0,0,0,1500.0,30.0
17:00:45.169,GUIDED,-35.3632621,149.1652375,1,-0.00022538872144650668,0.001466194400563836,0.0252787247300148,0.0002982430160045624,0.0002755130990408361,0.0019936435855925083,0,1,-1000,0,0,0,0,0,0,1500.0,30.0
17:00:45.371,GUIDED,-35.3632621,149.1652375,1,-0.00022538872144650668,0.001466194400563836,0.0252787247300148,0.0002982430160045624,0.0002755130990408361,0.0019936435855925083,0,1,-1000,0,0,0,0,0,0,1500.0,30.0
17:00:45.574,GUIDED,-35.3632621,149.1652375,1,-0.00022538872144650668,0.001466194400563836,0.0252787247300148,0.0002982430160045624,0.0002755130990408361,0.0019936435855925083,0,1,-1000,0,0,0,0,0,0,1500.0,30.0
17:00:45.778,GUIDED,-35.3632621,149.1652374,2,1.635806620470248e-05,0.0018052593804895878,0.024588966742157936,0.00032628700137138367,0.00024073143140412867,0.0019821813330054283,0,1,-1000,0,0,0,0,0,0,1500.0,30.0
17:00:45.979,GUIDED,-35.3632621,149.1652374,5,0.00154001300688833,0.0012140946928411722,0.024349765852093697,0.01249893382191658,-0.00963236391544342,0.003373826388269663,0,0,-1096,13,-9,2,0,0,-6,1500.0,30.0
17:00:46.180,GUIDED,-35.3632621,149.1652374,70,0.004532639402896166,-0.00032646002364344895,0.024414032697677612,0.011889191344380379,-0.0015309698646888137,0.0018341878894716501,0,0,-1139,12,0,1,0,0,-40,1500.0,30.0
17:00:46.382,GUIDED,-35.3632621,149.1652374,70,0.004532639402896166,-0.00032646002364344895,0.024414032697677612,0.011889191344380379,-0.0015309698646888137,0.0018341878894716501,0,0,-1139,12,0,1,0,0,-40,1500.0,30.0
17:00:46.586,GUIDED,-35.3632621,149.1652374,70,0.004532639402896166,-0.00032646002364344895,0.024414032697677612,0.011889191344380379,-0.0015309698646888137,0.0018341878894716501,0,0,-1139,12,0,1,0,0,-40,1500.0,30.0
17:00:46.789,GUIDED,-35.3632621,149.1652374,70,0.004532639402896166,-0.00032646002364344895,0.024414032697677612,0.011889191344380379,-0.0015309698646888137,0.0018341878894716501,0,0,-1139,12,0,1,0,0,-40,1500.0,30.0
17:00:46.992,GUIDED,-35.3632621,149.1652374,70,0.004532639402896166,-0.00032646002364344895,0.024414032697677612,0.011889191344380379,-0.0015309698646888137,0.0018341878894716501,0,0,-1139,12,0,1,0,0,-40,1500.0,30.0
17:00:47.193,GUIDED,-35.3632621,149.1652374,70,0.004532639402896166,-0.00032646002364344895,0.024414032697677612,0.011889191344380379,-0.0015309698646888137,0.0018341878894716501,0,0,-1139,12,0,1,0,0,-40,1500.0,30.0
17:00:47.395,GUIDED,-35.3632621,149.1652374,70,0.004532639402896166,-0.00032646002364344895,0.024414032697677612,0.011889191344380379,-0.0015309698646888137,0.0018341878894716501,0,0,-1139,12,0,1,0,0,-40,1500.0,30.0
17:00:47.599,GUIDED,-35.3632621,149.1652374,70,0.004532639402896166,-0.00032646002364344895,0.024414032697677612,0.011889191344380379,-0.0015309698646888137,0.0018341878894716501,0,0,-1139,12,0,1,0,0,-40,1500.0,30.0
17:00:47.801,GUIDED,-35.3632619,149.1652381,2183,0.04493036866188049,-0.00505962735041976,0.024498069658875465,0.04207878187298775,-0.009470915421843529,0.0037349415943026543,0,-3,-1002,42,-9,2,3,19,-149,1500.0,30.0
17:00:48.003,GUIDED,-35.3632619,149.1652381,2183,0.04493036866188049,-0.00505962735041976,0.024498069658875465,0.04207878187298775,-0.009470915421843529,0.0037349415943026543,0,-3,-1002,42,-9,2,3,19,-149,1500.0,30.0
17:00:48.204,GUIDED,-35.3632618,149.1652388,2570,0.05503622069954872,-0.007698540575802326,0.02472805418074131,0.039220601320266724,-0.011060643009841442,0.004331492818892002,1,-5,-1000,39,-10,3,5,30,-149,1500.0,30.0
17:00:48.407,GUIDED,-35.3632618,149.1652388,2570,0.05503622069954872,-0.007698540575802326,0.02472805418074131,0.039220601320266724,-0.011060643009841442,0.004331492818892002,1,-5,-1000,39,-10,3,5,30,-149,1500.0,30.0
17:00:48.609,GUIDED,-35.3632618,149.1652388,2570,0.05503622069954872,-0.007698540575802326,0.02472805418074131,0.039220601320266724,-0.011060643009841442,0.004331492818892002,1,-5,-1000,39,-10,3,5,30,-149,1500.0,30.0
17:00:48.815,GUIDED,-35.3632618,149.1652388,2570,0.05503622069954872,-0.007698540575802326,0.02472805418074131,0.039220601320266724,-0.011060643009841442,0.004331492818892002,1,-5,-1000,39,-10,3,5,30,-149,1500.0,30.0
17:00:49.020,GUIDED,-35.3632618,149.1652388,2570,0.05503622069954872,-0.007698540575802326,0.02472805418074131,0.039220601320266724,-0.011060643009841442,0.004331492818892002,1,-5,-1000,39,-10,3,5,30,-149,1500.0,30.0
17:00:49.223,GUIDED,-35.3632618,149.1652388,2570,0.05503622069954872,-0.007698540575802326,0.02472805418074131,0.039220601320266724,-0.011060643009841442,0.004331492818892002,1,-5,-1000,39,-10,3,5,30,-149,1500.0,30.0
17:00:49.425,GUIDED,-35.3632618,149.1652388,2570,0.05503622069954872,-0.007698540575802326,0.02472805418074131,0.039220601320266724,-0.011060643009841442,0.004331492818892002,1,-5,-1000,39,-10,3,5,30,-149,1500.0,30.0
17:00:49.627,GUIDED,-35.3632618,149.1652388,2570,0.05503622069954872,-0.007698540575802326,0.02472805418074131,0.039220601320266724,-0.011060643009841442,0.004331492818892002,1,-5,-1000,39,-10,3,5,30,-149,1500.0,30.0
17:00:49.830,GUIDED,-35.3632609,149.1652463,5255,-0.061007384210824966,0.0017678547883406281,-0.08775880187749863,-0.07758445292711258,-0.04930813983082771,0.007115530781447887,3,-3,-999,-76,-49,6,-5,9,-150,1500.0,30.0
17:00:50.032,GUIDED,-35.3632609,149.1652463,5255,-0.061007384210824966,0.0017678547883406281,-0.08775880187749863,-0.07758445292711258,-0.04930813983082771,0.007115530781447887,3,-3,-999,-76,-49,6,-5,9,-150,1500.0,30.0
17:00:50.235,GUIDED,-35.363261,149.1652464,5639,-0.07591493427753448,-0.008987274020910263,-0.08566199988126755,-0.013646128587424755,-0.02342905104160309,-0.004458473064005375,1,0,-1004,-13,-23,-5,-4,-8,-149,1500.0,30.0
17:00:50.441,GUIDED,-35.363261,149.1652464,5639,-0.07591493427753448,-0.008987274020910263,-0.08566199988126755,-0.013646128587424755,-0.02342905104160309,-0.004458473064005375,1,0,-1004,-13,-23,-5,-4,-8,-149,1500.0,30.0
17:00:50.643,GUIDED,-35.363261,149.1652464,5639,-0.07591493427753448,-0.008987274020910263,-0.08566199988126755,-0.013646128587424755,-0.02342905104160309,-0.004458473064005375,1,0,-1004,-13,-23,-5,-4,-8,-149,1500.0,30.0
17:00:50.844,GUIDED,-35.363261,149.1652464,5639,-0.07591493427753448,-0.008987274020910263,-0.08566199988126755,-0.013646128587424755,-0.02342905104160309,-0.004458473064005375,1,0,-1004,-13,-23,-5,-4,-8,-149,1500.0,30.0
17:00:51.047,GUIDED,-35.363261,149.1652464,5639,-0.07591493427753448,-0.008987274020910263,-0.08566199988126755,-0.013646128587424755,-0.02342905104160309,-0.004458473064005375,1,0,-1004,-13,-23,-5,-4,-8,-149,1500.0,30.0
17:00:51.251,GUIDED,-35.363261,149.1652464,5639,-0.07591493427753448,-0.008987274020910263,-0.08566199988126755,-0.013646128587424755,-0.02342905104160309,-0.004458473064005375,1,0,-1004,-13,-23,-5,-4,-8,-149,1500.0,30.0
17:00:51.453,GUIDED,-35.363261,149.1652464,5639,-0.07591493427753448,-0.008987274020910263,-0.08566199988126755,-0.013646128587424755,-0.02342905104160309,-0.004458473064005375,1,0,-1004,-13,-23,-5,-4,-8,-149,1500.0,30.0
17:00:51.656,GUIDED,-35.3632612,149.1652429,7021,-0.03190552443265915,-0.008621128275990486,-0.08933840692043304,0.06420250982046127,0.009629914537072182,0.0020063077099621296,-6,9,-1001,64,10,1,-1,-55,-150,1500.0,30.0
17:00:51.857,GUIDED,-35.3632614,149.165238,8193,0.01704353280365467,0.0017659838777035475,-0.08806664496660233,0.06585440039634705,0.014622957445681095,0.004320388659834862,-7,11,-1004,66,14,3,-2,-54,-153,1500.0,30.0
17:00:52.059,GUIDED,-35.3632614,149.1652365,8585,0.033214934170246124,0.005122288130223751,-0.08704821765422821,0.0642407238483429,0.012209638953208923,0.0047198147512972355,-6,9,-1003,64,12,4,-4,-46,-153,1500.0,30.0
17:00:52.261,GUIDED,-35.3632614,149.1652365,8585,0.033214934170246124,0.005122288130223751,-0.08704821765422821,0.0642407238483429,0.012209638953208923,0.0047198147512972355,-6,9,-1003,64,12,4,-4,-46,-153,1500.0,30.0
17:00:52.466,GUIDED,-35.3632614,149.1652365,8585,0.033214934170246124,0.005122288130223751,-0.08704821765422821,0.0642407238483429,0.012209638953208923,0.0047198147512972355,-6,9,-1003,64,12,4,-4,-46,-153,1500.0,30.0
17:00:52.669,GUIDED,-35.3632614,149.1652365,8585,0.033214934170246124,0.005122288130223751,-0.08704821765422821,0.0642407238483429,0.012209638953208923,0.0047198147512972355,-6,9,-1003,64,12,4,-4,-46,-153,1500.0,30.0
17:00:52.872,GUIDED,-35.3632614,149.1652365,8585,0.033214934170246124,0.005122288130223751,-0.08704821765422821,0.0642407238483429,0.012209638953208923,0.0047198147512972355,-6,9,-1003,64,12,4,-4,-46,-153,1500.0,30.0
17:00:53.077,GUIDED,-35.3632614,149.1652365,8585,0.033214934170246124,0.005122288130223751,-0.08704821765422821,0.0642407238483429,0.012209638953208923,0.0047198147512972355,-6,9,-1003,64,12,4,-4,-46,-153,1500.0,30.0
17:00:53.282,GUIDED,-35.3632614,149.1652365,8585,0.033214934170246124,0.005122288130223751,-0.08704821765422821,0.0642407238483429,0.012209638953208923,0.0047198147512972355,-6,9,-1003,64,12,4,-4,-46,-153,1500.0,30.0
17:00:53.485,GUIDED,-35.3632614,149.1652365,8585,0.033214934170246124,0.005122288130223751,-0.08704821765422821,0.0642407238483429,0.012209638953208923,0.0047198147512972355,-6,9,-1003,64,12,4,-4,-46,-153,1500.0,30.0
17:00:53.688,GUIDED,-35.3632614,149.1652365,8585,0.033214934170246124,0.005122288130223751,-0.08704821765422821,0.0642407238483429,0.012209638953208923,0.0047198147512972355,-6,9,-1003,64,12,4,-4,-46,-153,1500.0,30.0
17:00:53.890,GUIDED,-35.3632624,149.1652355,11303,-0.0039772819727659225,-0.003497256198897958,-0.08642285317182541,-0.04396049678325653,-0.008111563511192799,-0.013330252841114998,3,-4,-1003,-43,-7,-14,-3,20,-151,1500.0,30.0
17:00:54.092,GUIDED,-35.3632624,149.165236,11689,-0.01179114356637001,-0.004535422194749117,-0.09093581885099411,-0.023371171206235886,-0.002455763751640916,-0.01911555789411068,2,-2,-1003,-22,-2,-20,-1,16,-151,1500.0,30.0
17:00:54.294,GUIDED,-35.3632624,149.165236,11689,-0.01179114356637001,-0.004535422194749117,-0.09093581885099411,-0.023371171206235886,-0.002455763751640916,-0.01911555789411068,2,-2,-1003,-22,-2,-20,-1,16,-151,1500.0,30.0
17:00:54.495,GUIDED,-35.3632624,149.165236,11689,-0.01179114356637001,-0.004535422194749117,-0.09093581885099411,-0.023371171206235886,-0.002455763751640916,-0.01911555789411068,2,-2,-1003,-22,-2,-20,-1,16,-151,1500.0,30.0
17:00:54.698,GUIDED,-35.3632624,149.165236,11689,-0.01179114356637001,-0.004535422194749117,-0.09093581885099411,-0.023371171206235886,-0.002455763751640916,-0.01911555789411068,2,-2,-1003,-22,-2,-20,-1,16,-151,1500.0,30.0
17:00:54.901,GUIDED,-35.3632624,149.165236,11689,-0.01179114356637001,-0.004535422194749117,-0.09093581885099411,-0.023371171206235886,-0.002455763751640916,-0.01911555789411068,2,-2,-1003,-22,-2,-20,-1,16,-151,1500.0,30.0
17:00:55.103,GUIDED,-35.3632624,149.165236,11689,-0.01179114356637001,-0.004535422194749117,-0.09093581885099411,-0.023371171206235886,-0.002455763751640916,-0.01911555789411068,2,-2,-1003,-22,-2,-20,-1,16,-151,1500.0,30.0
17:00:55.305,GUIDED,-35.3632624,149.165236,11689,-0.01179114356637001,-0.004535422194749117,-0.09093581885099411,-0.023371171206235886,-0.002455763751640916,-0.01911555789411068,2,-2,-1003,-22,-2,-20,-1,16,-151,1500.0,30.0
17:00:55.509,GUIDED,-35.3632624,149.165236,11689,-0.01179114356637001,-0.004535422194749117,-0.09093581885099411,-0.023371171206235886,-0.002455763751640916,-0.01911555789411068,2,-2,-1003,-22,-2,-20,-1,16,-151,1500.0,30.0
17:00:55.709,GUIDED,-35.3632624,149.1652366,13247,-0.008900249376893044,-0.002560027176514268,-0.11549610644578934,0.016138695180416107,0.003953661769628525,-0.02215750701725483,-1,0,-1000,16,4,-22,3,-2,-153,1500.0,30.0
17:00:55.914,GUIDED,-35.3632621,149.1652362,14420,0.0033088154159486294,0.002587785478681326,-0.1331925392150879,0.013491306453943253,0.006609712261706591,-0.02030515857040882,-2,0,-1000,13,6,-21,3,-6,-153,1500.0,30.0
17:00:56.115,GUIDED,-35.363262,149.165236,14812,0.005853333510458469,0.004057030193507671,-0.1382174789905548,0.008461466059088707,0.005706280469894409,-0.018434928730130196,-2,0,-1000,8,5,-19,3,-5,-153,1500.0,30.0
17:00:56.318,GUIDED,-35.363262,149.165236,14812,0.005853333510458469,0.004057030193507671,-0.1382174789905548,0.008461466059088707,0.005706280469894409,-0.018434928730130196,-2,0,-1000,8,5,-19,3,-5,-153,1500.0,30.0
17:00:56.523,GUIDED,-35.363262,149.165236,14812,0.005853333510458469,0.004057030193507671,-0.1382174789905548,0.008461466059088707,0.005706280469894409,-0.018434928730130196,-2,0,-1000,8,5,-19,3,-5,-153,1500.0,30.0
17:00:56.725,GUIDED,-35.363262,149.165236,14812,0.005853333510458469,0.004057030193507671,-0.1382174789905548,0.008461466059088707,0.005706280469894409,-0.018434928730130196,-2,0,-1000,8,5,-19,3,-5,-153,1500.0,30.0
17:00:56.926,GUIDED,-35.363262,149.165236,14812,0.005853333510458469,0.004057030193507671,-0.1382174789905548,0.008461466059088707,0.005706280469894409,-0.018434928730130196,-2,0,-1000,8,5,-19,3,-5,-153,1500.0,30.0
17:00:57.131,GUIDED,-35.363262,149.165236,14812,0.005853333510458469,0.004057030193507671,-0.1382174789905548,0.008461466059088707,0.005706280469894409,-0.018434928730130196,-2,0,-1000,8,5,-19,3,-5,-153,1500.0,30.0
17:00:57.332,GUIDED,-35.363262,149.165236,14812,0.005853333510458469,0.004057030193507671,-0.1382174789905548,0.008461466059088707,0.005706280469894409,-0.018434928730130196,-2,0,-1000,8,5,-19,3,-5,-153,1500.0,30.0
17:00:57.535,GUIDED,-35.363262,149.165236,14812,0.005853333510458469,0.004057030193507671,-0.1382174789905548,0.008461466059088707,0.005706280469894409,-0.018434928730130196,-2,0,-1000,8,5,-19,3,-5,-153,1500.0,30.0
17:00:57.741,GUIDED,-35.3632617,149.1652355,16376,0.009284605272114277,0.006622452288866043,-0.15391020476818085,-0.0017840889049693942,-0.0007465534145012498,-0.012970671989023685,-1,0,-1000,-1,0,-13,0,0,-153,1500.0,30.0
17:00:57.943,GUIDED,-35.3632616,149.1652356,17555,0.007258730009198189,0.005975073669105768,-0.16388191282749176,-0.0036024334840476513,-0.0009853884112089872,-0.014008807018399239,0,0,-1000,-3,0,-14,-1,4,-153,1500.0,30.0
17:00:58.144,GUIDED,-35.3632616,149.1652355,17946,0.006478124763816595,0.005550628062337637,-0.16735133528709412,-0.0007083984091877937,-0.0015989674720913172,-0.014601042494177818,0,0,-1000,0,-1,-15,-2,4,-153,1500.0,30.0
17:00:58.347,GUIDED,-35.3632616,149.1652355,17946,0.006478124763816595,0.005550628062337637,-0.16735133528709412,-0.0007083984091877937,-0.0015989674720913172,-0.014601042494177818,0,0,-1000,0,-1,-15,-2,4,-153,1500.0,30.0
17:00:58.552,GUIDED,-35.3632616,149.1652355,17946,0.006478124763816595,0.005550628062337637,-0.16735133528709412,-0.0007083984091877937,-0.0015989674720913172,-0.014601042494177818,0,0,-1000,0,-1,-15,-2,4,-153,1500.0,30.0
17:00:58.755,GUIDED,-35.3632616,149.1652355,17946,0.006478124763816595,0.005550628062337637,-0.16735133528709412,-0.0007083984091877937,-0.0015989674720913172,-0.014601042494177818,0,0,-1000,0,-1,-15,-2,4,-153,1500.0,30.0
17:00:58.958,GUIDED,-35.3632616,149.1652355,17946,0.006478124763816595,0.005550628062337637,-0.16735133528709412,-0.0007083984091877937,-0.0015989674720913172,-0.014601042494177818,0,0,-1000,0,-1,-15,-2,4,-153,1500.0,30.0
17:00:59.161,GUIDED,-35.3632616,149.1652355,17946,0.006478124763816595,0.005550628062337637,-0.16735133528709412,-0.0007083984091877937,-0.0015989674720913172,-0.014601042494177818,0,0,-1000,0,-1,-15,-2,4,-153,1500.0,30.0
17:00:59.363,GUIDED,-35.3632616,149.1652355,17946,0.006478124763816595,0.005550628062337637,-0.16735133528709412,-0.0007083984091877937,-0.0015989674720913172,-0.014601042494177818,0,0,-1000,0,-1,-15,-2,4,-153,1500.0,30.0
17:00:59.567,GUIDED,-35.3632616,149.1652355,17946,0.006478124763816595,0.005550628062337637,-0.16735133528709412,-0.0007083984091877937,-0.0015989674720913172,-0.014601042494177818,0,0,-1000,0,-1,-15,-2,4,-153,1500.0,30.0
17:00:59.768,GUIDED,-35.3632616,149.1652358,19118,0.00440908782184124,0.00447536027058959,-0.17884482443332672,-0.0019700201228260994,-0.00246332841925323,-0.016024114564061165,0,0,-1000,0,-1,-15,-3,5,-153,1500.0,30.0
17:00:59.970,GUIDED,-35.3632617,149.1652361,20681,0.002257777377963066,0.0036013962235301733,-0.1968863606452942,-0.00014490255853161216,-0.0010528125567361712,-0.01902557723224163,0,0,-1000,0,0,-19,-3,5,-153,1500.0,30.0
17:01:00.171,GUIDED,-35.3632617,149.1652362,21071,0.0020532533526420593,0.003522048471495509,-0.20182959735393524,0.00024908018531277776,-0.0007937347982078791,-0.021668285131454468,0,0,-1000,0,0,-22,-3,4,-154,1500.0,30.0
17:01:00.373,GUIDED,-35.3632617,149.1652362,21071,0.0020532533526420593,0.003522048471495509,-0.20182959735393524,0.00024908018531277776,-0.0007937347982078791,-0.021668285131454468,0,0,-1000,0,0,-22,-3,4,-154,1500.0,30.0
17:01:00.576,GUIDED,-35.3632617,149.1652362,21071,0.0020532533526420593,0.003522048471495509,-0.20182959735393524,0.00024908018531277776,-0.0007937347982078791,-0.021668285131454468,0,0,-1000,0,0,-22,-3,4,-154,1500.0,30.0
17:01:00.778,GUIDED,-35.3632617,149.1652362,21071,0.0020532533526420593,0.003522048471495509,-0.20182959735393524,0.00024908018531277776,-0.0007937347982078791,-0.021668285131454468,0,0,-1000,0,0,-22,-3,4,-154,1500.0,30.0
17:01:00.979,GUIDED,-35.3632617,149.1652362,21071,0.0020532533526420593,0.003522048471495509,-0.20182959735393524,0.00024908018531277776,-0.0007937347982078791,-0.021668285131454468,0,0,-1000,0,0,-22,-3,4,-154,1500.0,30.0
17:01:01.182,GUIDED,-35.3632617,149.1652362,21071,0.0020532533526420593,0.003522048471495509,-0.20182959735393524,0.00024908018531277776,-0.0007937347982078791,-0.021668285131454468,0,0,-1000,0,0,-22,-3,4,-154,1500.0,30.0
17:01:01.384,GUIDED,-35.3632617,149.1652362,21071,0.0020532533526420593,0.003522048471495509,-0.20182959735393524,0.00024908018531277776,-0.0007937347982078791,-0.021668285131454468,0,0,-1000,0,0,-22,-3,4,-154,1500.0,30.0
17:01:01.586,GUIDED,-35.3632617,149.1652362,21071,0.0020532533526420593,0.003522048471495509,-0.20182959735393524,0.00024908018531277776,-0.0007937347982078791,-0.021668285131454468,0,0,-1000,0,0,-22,-3,4,-154,1500.0,30.0
17:01:01.788,GUIDED,-35.3632617,149.1652362,21071,0.0020532533526420593,0.003522048471495509,-0.20182959735393524,0.00024908018531277776,-0.0007937347982078791,-0.021668285131454468,0,0,-1000,0,0,-22,-3,4,-154,1500.0,30.0
17:01:01.990,GUIDED,-35.3632618,149.1652366,23417,0.0022828904911875725,0.002905828645452857,-0.2311166673898697,0.0036404172424227,0.0008138861157931387,-0.019811786711215973,0,0,-1001,4,1,-20,-2,3,-154,1500.0,30.0
17:01:02.193,GUIDED,-35.3632618,149.1652366,24198,0.0021787001751363277,0.0030733495950698853,-0.24114470183849335,0.00034863519249483943,0.0011846714187413454,-0.02073545753955841,0,0,-1000,1,1,-21,-2,3,-154,1500.0,30.0
17:01:02.395,GUIDED,-35.3632618,149.1652366,24198,0.0021787001751363277,0.0030733495950698853,-0.24114470183849335,0.00034863519249483943,0.0011846714187413454,-0.02073545753955841,0,0,-1000,1,1,-21,-2,3,-154,1500.0,30.0
17:01:02.597,GUIDED,-35.3632618,149.1652366,24198,0.0021787001751363277,0.0030733495950698853,-0.24114470183849335,0.00034863519249483943,0.0011846714187413454,-0.02073545753955841,0,0,-1000,1,1,-21,-2,3,-154,1500.0,30.0
17:01:02.801,GUIDED,-35.3632618,149.1652366,24198,0.0021787001751363277,0.0030733495950698853,-0.24114470183849335,0.00034863519249483943,0.0011846714187413454,-0.02073545753955841,0,0,-1000,1,1,-21,-2,3,-154,1500.0,30.0
17:01:03.007,GUIDED,-35.3632618,149.1652366,24198,0.0021787001751363277,0.0030733495950698853,-0.24114470183849335,0.00034863519249483943,0.0011846714187413454,-0.02073545753955841,0,0,-1000,1,1,-21,-2,3,-154,1500.0,30.0
17:01:03.209,GUIDED,-35.3632618,149.1652366,24198,0.0021787001751363277,0.0030733495950698853,-0.24114470183849335,0.00034863519249483943,0.0011846714187413454,-0.02073545753955841,0,0,-1000,1,1,-21,-2,3,-154,1500.0,30.0
17:01:03.410,GUIDED,-35.3632618,149.1652366,24198,0.0021787001751363277,0.0030733495950698853,-0.24114470183849335,0.00034863519249483943,0.0011846714187413454,-0.02073545753955841,0,0,-1000,1,1,-21,-2,3,-154,1500.0,30.0
17:01:03.612,GUIDED,-35.3632618,149.1652366,24198,0.0021787001751363277,0.0030733495950698853,-0.24114470183849335,0.00034863519249483943,0.0011846714187413454,-0.02073545753955841,0,0,-1000,1,1,-21,-2,3,-154,1500.0,30.0
17:01:03.816,GUIDED,-35.3632619,149.1652367,25757,-0.007051507942378521,0.004562979564070702,-0.2535983920097351,0.040719009935855865,0.0014984258450567722,0.005952066741883755,0,0,-1003,41,2,5,-4,-2,-153,1500.0,30.0
17:01:04.018,GUIDED,-35.3632622,149.1652364,26934,0.012281124480068684,0.0030032643117010593,-0.23961172997951508,0.005719983018934727,-0.0027867471799254417,0.025801805779337883,0,0,-999,6,-2,25,-4,0,-154,1500.0,30.0
17:01:04.220,GUIDED,-35.3632623,149.1652364,27322,0.01290083583444357,0.002352040261030197,-0.23324990272521973,-0.001828311593271792,-0.0009726519347168505,0.026177162304520607,0,0,-999,0,0,25,-4,3,-153,1500.0,30.0
17:01:04.421,GUIDED,-35.3632623,149.1652364,27322,0.01290083583444357,0.002352040261030197,-0.23324990272521973,-0.001828311593271792,-0.0009726519347168505,0.026177162304520607,0,0,-999,0,0,25,-4,3,-153,1500.0,30.0
17:01:04.625,GUIDED,-35.3632623,149.1652364,27322,0.01290083583444357,0.002352040261030197,-0.23324990272521973,-0.001828311593271792,-0.0009726519347168505,0.026177162304520607,0,0,-999,0,0,25,-4,3,-153,1500.0,30.0
17:01:04.830,GUIDED,-35.3632623,149.1652364,27322,0.01290083583444357,0.002352040261030197,-0.23324990272521973,-0.001828311593271792,-0.0009726519347168505,0.026177162304520607,0,0,-999,0,0,25,-4,3,-153,1500.0,30.0
17:01:05.034,GUIDED,-35.3632623,149.1652364,27322,0.01290083583444357,0.002352040261030197,-0.23324990272521973,-0.001828311593271792,-0.0009726519347168505,0.026177162304520607,0,0,-999,0,0,25,-4,3,-153,1500.0,30.0
17:01:05.235,GUIDED,-35.3632623,149.1652364,27322,0.01290083583444357,0.002352040261030197,-0.23324990272521973,-0.001828311593271792,-0.0009726519347168505,0.026177162304520607,0,0,-999,0,0,25,-4,3,-153,1500.0,30.0
17:01:05.440,GUIDED,-35.3632623,149.1652364,27322,0.01290083583444357,0.002352040261030197,-0.23324990272521973,-0.001828311593271792,-0.0009726519347168505,0.026177162304520607,0,0,-999,0,0,25,-4,3,-153,1500.0,30.0
17:01:05.642,GUIDED,-35.3632623,149.1652364,27322,0.01290083583444357,0.002352040261030197,-0.23324990272521973,-0.001828311593271792,-0.0009726519347168505,0.026177162304520607,0,0,-999,0,0,25,-4,3,-153,1500.0,30.0
17:01:05.845,GUIDED,-35.3632624,149.1652367,28486,0.007466631010174751,0.0015622443752363324,-0.21537092328071594,-0.014072911813855171,-0.0009243943495675921,0.022066297009587288,0,-1,-1000,-13,0,21,-1,8,-153,1500.0,30.0
17:01:06.049,GUIDED,-35.3632624,149.1652376,30429,-0.0004284486931283027,0.0019234406063333154,-0.19015516340732574,-0.004418965894728899,0.0009624529047869146,0.019703084602952003,0,-1,-1001,-3,0,19,0,7,-153,1500.0,30.0
17:01:06.251,GUIDED,-35.3632624,149.1652376,30429,-0.0004284486931283027,0.0019234406063333154,-0.19015516340732574,-0.004418965894728899,0.0009624529047869146,0.019703084602952003,0,-1,-1000,-3,1,19,0,7,-153,1500.0,30.0
17:01:06.454,GUIDED,-35.3632624,149.1652376,30429,-0.0004284486931283027,0.0019234406063333154,-0.19015516340732574,-0.004418965894728899,0.0009624529047869146,0.019703084602952003,0,-1,-1000,-3,1,19,0,7,-153,1500.0,30.0
17:01:06.656,GUIDED,-35.3632624,149.1652376,30429,-0.0004284486931283027,0.0019234406063333154,-0.19015516340732574,-0.004418965894728899,0.0009624529047869146,0.019703084602952003,0,-1,-1000,-3,1,19,0,7,-153,1500.0,30.0
17:01:06.859,GUIDED,-35.3632624,149.1652376,30429,-0.0004284486931283027,0.0019234406063333154,-0.19015516340732574,-0.004418965894728899,0.0009624529047869146,0.019703084602952003,0,-1,-1000,-3,1,19,0,7,-153,1500.0,30.0
17:01:07.060,GUIDED,-35.3632624,149.1652376,30429,-0.0004284486931283027,0.0019234406063333154,-0.19015516340732574,-0.004418965894728899,0.0009624529047869146,0.019703084602952003,0,-1,-1000,-3,1,19,0,7,-153,1500.0,30.0
17:01:07.262,GUIDED,-35.3632624,149.1652376,30429,-0.0004284486931283027,0.0019234406063333154,-0.19015516340732574,-0.004418965894728899,0.0009624529047869146,0.019703084602952003,0,-1,-1000,-3,1,19,0,7,-153,1500.0,30.0
17:01:07.469,GUIDED,-35.3632624,149.1652376,30429,-0.0004284486931283027,0.0019234406063333154,-0.19015516340732574,-0.004418965894728899,0.0009624529047869146,0.019703084602952003,0,-1,-1000,-3,1,19,0,7,-153,1500.0,30.0
17:01:07.672,GUIDED,-35.3632624,149.1652376,30429,-0.0004284486931283027,0.0019234406063333154,-0.19015516340732574,-0.004418965894728899,0.0009624529047869146,0.019703084602952003,0,-1,-1000,-3,1,19,0,7,-153,1500.0,30.0
17:01:07.877,GUIDED,-35.3632623,149.165238,32378,-0.0002208841178799048,0.0011067696614190936,-0.16889047622680664,0.002785440068691969,0.0017109806649386883,0.017230994999408722,0,0,-1000,3,2,16,0,2,-153,1500.0,30.0
17:01:08.078,GUIDED,-35.3632623,149.165238,33546,0.0008885589777491987,0.0012946140486747026,-0.15803802013397217,-0.0011276851873844862,0.00011237093713134527,0.015195213258266449,0,0,-1000,0,0,14,0,0,-153,1500.0,30.0
17:01:08.280,GUIDED,-35.3632623,149.165238,33546,0.0008885589777491987,0.0012946140486747026,-0.15803802013397217,-0.0011276851873844862,0.00011237093713134527,0.015195213258266449,0,0,-1000,0,0,14,0,0,-153,1500.0,30.0
17:01:08.484,GUIDED,-35.3632623,149.165238,33546,0.0008885589777491987,0.0012946140486747026,-0.15803802013397217,-0.0011276851873844862,0.00011237093713134527,0.015195213258266449,0,0,-1000,0,0,14,0,0,-153,1500.0,30.0
17:01:08.687,GUIDED,-35.3632623,149.165238,33546,0.0008885589777491987,0.0012946140486747026,-0.15803802013397217,-0.0011276851873844862,0.00011237093713134527,0.015195213258266449,0,0,-1000,0,0,14,0,0,-153,1500.0,30.0
17:01:08.896,GUIDED,-35.3632623,149.165238,33546,0.0008885589777491987,0.0012946140486747026,-0.15803802013397217,-0.0011276851873844862,0.00011237093713134527,0.015195213258266449,0,0,-1000,0,0,14,0,0,-153,1500.0,30.0
17:01:09.100,GUIDED,-35.3632623,149.165238,33546,0.0008885589777491987,0.0012946140486747026,-0.15803802013397217,-0.0011276851873844862,0.00011237093713134527,0.015195213258266449,0,0,-1000,0,0,14,0,0,-153,1500.0,30.0
17:01:09.303,GUIDED,-35.3632623,149.165238,33546,0.0008885589777491987,0.0012946140486747026,-0.15803802013397217,-0.0011276851873844862,0.00011237093713134527,0.015195213258266449,0,0,-1000,0,0,14,0,0,-153,1500.0,30.0
17:01:09.506,GUIDED,-35.3632623,149.165238,33546,0.0008885589777491987,0.0012946140486747026,-0.15803802013397217,-0.0011276851873844862,0.00011237093713134527,0.015195213258266449,0,0,-1000,0,0,14,0,0,-153,1500.0,30.0
17:01:09.707,GUIDED,-35.3632622,149.165238,35104,0.0015871820505708456,0.000985524384304881,-0.14518731832504272,0.005011403001844883,-0.000171970808878541,0.014437207020819187,0,0,-1000,0,0,12,0,0,-153,1500.0,30.0
17:01:09.909,GUIDED,-35.3632622,149.1652379,36276,0.0017210741061717272,0.0009435078827664256,-0.13686664402484894,-0.0010534044122323394,0.0005106269964016974,0.013522090390324593,0,0,-1000,0,1,13,0,0,-153,1500.0,30.0
17:01:10.112,GUIDED,-35.3632622,149.1652378,36665,0.0018544538179412484,0.0010785049526020885,-0.13410435616970062,0.0007193879573605955,0.0005655643180944026,0.01185312308371067,0,0,-1000,1,1,11,0,0,-153,1500.0,30.0
17:01:10.314,GUIDED,-35.3632622,149.1652378,36665,0.0018544538179412484,0.0010785049526020885,-0.13410435616970062,0.0007193879573605955,0.0005655643180944026,0.01185312308371067,0,0,-1000,1,1,11,0,0,-153,1500.0,30.0
17:01:10.517,GUIDED,-35.3632622,149.1652378,36665,0.0018544538179412484,0.0010785049526020885,-0.13410435616970062,0.0007193879573605955,0.0005655643180944026,0.01185312308371067,0,0,-1000,1,1,11,0,0,-153,1500.0,30.0
17:01:10.720,GUIDED,-35.3632622,149.1652378,36665,0.0018544538179412484,0.0010785049526020885,-0.13410435616970062,0.0007193879573605955,0.0005655643180944026,0.01185312308371067,0,0,-1000,1,1,11,0,0,-153,1500.0,30.0
17:01:10.924,GUIDED,-35.3632622,149.1652378,36665,0.0018544538179412484,0.0010785049526020885,-0.13410435616970062,0.0007193879573605955,0.0005655643180944026,0.01185312308371067,0,0,-1000,1,1,11,0,0,-153,1500.0,30.0
17:01:11.126,GUIDED,-35.3632622,149.1652378,36665,0.0018544538179412484,0.0010785049526020885,-0.13410435616970062,0.0007193879573605955,0.0005655643180944026,0.01185312308371067,0,0,-1000,1,1,11,0,0,-153,1500.0,30.0
17:01:11.328,GUIDED,-35.3632622,149.1652378,36665,0.0018544538179412484,0.0010785049526020885,-0.13410435616970062,0.0007193879573605955,0.0005655643180944026,0.01185312308371067,0,0,-1000,1,1,11,0,0,-153,1500.0,30.0
17:01:11.529,GUIDED,-35.3632622,149.1652378,36665,0.0018544538179412484,0.0010785049526020885,-0.13410435616970062,0.0007193879573605955,0.0005655643180944026,0.01185312308371067,0,0,-1000,1,1,11,0,0,-153,1500.0,30.0
17:01:11.731,GUIDED,-35.3632622,149.1652376,38064,0.0028813539538532495,0.0013910239795222878,-0.125287264585495,0.0010193863417953253,0.0006680379738099873,0.011417686007916927,0,0,-999,0,2,11,0,0,-153,1500.0,30.0
17:01:11.933,GUIDED,-35.3632621,149.1652375,39232,0.002694050082936883,0.0016379914013668895,-0.11883734166622162,-0.0036787930876016617,0.00021703372476622462,0.009106324054300785,0,0,-999,-2,0,8,0,0,-153,1500.0,30.0
17:01:12.135,GUIDED,-35.3632621,149.1652375,39621,0.002642094623297453,0.0015056011034175754,-0.11666344106197357,0.002059800550341606,0.00032918353099375963,0.011650890111923218,0,0,-1000,2,1,11,0,0,-153,1500.0,30.0
17:01:12.336,GUIDED,-35.3632621,149.1652375,39621,0.002642094623297453,0.0015056011034175754,-0.11666344106197357,0.002059800550341606,0.00032918353099375963,0.011650890111923218,0,0,-1000,2,1,11,0,0,-153,1500.0,30.0
17:01:12.538,GUIDED,-35.3632621,149.1652375,39621,0.002642094623297453,0.0015056011034175754,-0.11666344106197357,0.002059800550341606,0.00032918353099375963,0.011650890111923218,0,0,-1000,2,1,11,0,0,-153,1500.0,30.0
17:01:12.739,GUIDED,-35.3632621,149.1652375,39621,0.002642094623297453,0.0015056011034175754,-0.11666344106197357,0.002059800550341606,0.00032918353099375963,0.011650890111923218,0,0,-1000,2,1,11,0,0,-153,1500.0,30.0
17:01:12.941,GUIDED,-35.3632621,149.1652375,39621,0.002642094623297453,0.0015056011034175754,-0.11666344106197357,0.002059800550341606,0.00032918353099375963,0.011650890111923218,0,0,-1000,2,1,11,0,0,-153,1500.0,30.0
17:01:13.144,GUIDED,-35.3632621,149.1652375,39621,0.002642094623297453,0.0015056011034175754,-0.11666344106197357,0.002059800550341606,0.00032918353099375963,0.011650890111923218,0,0,-1000,2,1,11,0,0,-153,1500.0,30.0
17:01:13.347,GUIDED,-35.3632621,149.1652375,39621,0.002642094623297453,0.0015056011034175754,-0.11666344106197357,0.002059800550341606,0.00032918353099375963,0.011650890111923218,0,0,-1000,2,1,11,0,0,-153,1500.0,30.0
17:01:13.549,GUIDED,-35.3632621,149.1652375,39621,0.002642094623297453,0.0015056011034175754,-0.11666344106197357,0.002059800550341606,0.00032918353099375963,0.011650890111923218,0,0,-1000,2,1,11,0,0,-153,1500.0,30.0
17:01:13.754,GUIDED,-35.3632621,149.1652374,40793,0.002339489059522748,0.0012439385754987597,-0.11095399409532547,0.002528401091694832,0.0010798301082104445,0.008810010738670826,0,0,-1000,3,2,8,0,0,-153,1500.0,30.0
17:01:13.957,GUIDED,-35.3632621,149.1652374,42360,0.002286926144734025,0.001625496195629239,-0.10407814383506775,0.00267589557915926,0.003430320415645838,0.007844995707273483,0,0,-1000,3,4,7,0,0,-153,1500.0,30.0
17:01:14.158,GUIDED,-35.363262,149.1652374,42749,0.0022162478417158127,0.0014636206906288862,-0.10249059647321701,0.0011945697478950024,0.0008210267405956984,0.005955380853265524,0,0,-1000,2,1,6,-1,0,-153,1500.0,30.0
17:01:14.360,GUIDED,-35.363262,149.1652374,42749,0.0022162478417158127,0.0014636206906288862,-0.10249059647321701,0.0011945697478950024,0.0008210267405956984,0.005955380853265524,0,0,-1000,2,1,6,-1,0,-153,1500.0,30.0
17:01:14.564,GUIDED,-35.363262,149.1652374,42749,0.0022162478417158127,0.0014636206906288862,-0.10249059647321701,0.0011945697478950024,0.0008210267405956984,0.005955380853265524,0,0,-1000,2,1,6,-1,0,-153,1500.0,30.0
17:01:14.770,GUIDED,-35.363262,149.1652374,42749,0.0022162478417158127,0.0014636206906288862,-0.10249059647321701,0.0011945697478950024,0.0008210267405956984,0.005955380853265524,0,0,-1000,2,1,6,-1,0,-153,1500.0,30.0
17:01:14.975,GUIDED,-35.363262,149.1652374,42749,0.0022162478417158127,0.0014636206906288862,-0.10249059647321701,0.0011945697478950024,0.0008210267405956984,0.005955380853265524,0,0,-1000,2,1,6,-1,0,-153,1500.0,30.0
17:01:15.177,GUIDED,-35.363262,149.1652374,42749,0.0022162478417158127,0.0014636206906288862,-0.10249059647321701,0.0011945697478950024,0.0008210267405956984,0.005955380853265524,0,0,-1000,2,1,6,-1,0,-153,1500.0,30.0
17:01:15.380,GUIDED,-35.363262,149.1652374,42749,0.0022162478417158127,0.0014636206906288862,-0.10249059647321701,0.0011945697478950024,0.0008210267405956984,0.005955380853265524,0,0,-1000,2,1,6,-1,0,-153,1500.0,30.0
17:01:15.581,GUIDED,-35.363262,149.1652374,42749,0.0022162478417158127,0.0014636206906288862,-0.10249059647321701,0.0011945697478950024,0.0008210267405956984,0.005955380853265524,0,0,-1000,2,1,6,-1,0,-153,1500.0,30.0
17:01:15.783,GUIDED,-35.363262,149.1652373,44298,0.002280033892020583,0.0014301843475550413,-0.09669316560029984,-0.0018590253312140703,-0.00041075824992731214,0.006265121512115002,0,0,-1000,-1,0,6,-1,1,-153,1500.0,30.0
17:01:15.985,GUIDED,-35.363262,149.1652373,45467,0.0020793748553842306,0.0011002165265381336,-0.09216699004173279,0.00038862961810082197,0.0024993077386170626,0.005449906922876835,0,0,-1000,1,3,5,-1,1,-153,1500.0,30.0
17:01:16.186,GUIDED,-35.363262,149.1652373,45856,0.002195269800722599,0.0010784110054373741,-0.09075209498405457,0.0023741270415484905,-0.00010014156578108668,0.005003628320991993,0,0,-1001,3,0,5,-1,1,-153,1500.0,30.0
17:01:16.388,GUIDED,-35.363262,149.1652373,45856,0.002195269800722599,0.0010784110054373741,-0.09075209498405457,0.0023741270415484905,-0.00010014156578108668,0.005003628320991993,0,0,-1001,3,0,5,-1,1,-153,1500.0,30.0
17:01:16.591,GUIDED,-35.363262,149.1652373,45856,0.002195269800722599,0.0010784110054373741,-0.09075209498405457,0.0023741270415484905,-0.00010014156578108668,0.005003628320991993,0,0,-1001,3,0,5,-1,1,-153,1500.0,30.0
17:01:16.793,GUIDED,-35.363262,149.1652373,45856,0.002195269800722599,0.0010784110054373741,-0.09075209498405457,0.0023741270415484905,-0.00010014156578108668,0.005003628320991993,0,0,-1001,3,0,5,-1,1,-153,1500.0,30.0
17:01:16.994,GUIDED,-35.363262,149.1652373,45856,0.002195269800722599,0.0010784110054373741,-0.09075209498405457,0.0023741270415484905,-0.00010014156578108668,0.005003628320991993,0,0,-1001,3,0,5,-1,1,-153,1500.0,30.0
17:01:17.196,GUIDED,-35.363262,149.1652373,45856,0.002195269800722599,0.0010784110054373741,-0.09075209498405457,0.0023741270415484905,-0.00010014156578108668,0.005003628320991993,0,0,-1001,3,0,5,-1,1,-153,1500.0,30.0
17:01:17.397,GUIDED,-35.363262,149.1652373,45856,0.002195269800722599,0.0010784110054373741,-0.09075209498405457,0.0023741270415484905,-0.00010014156578108668,0.005003628320991993,0,0,-1001,3,0,5,-1,1,-153,1500.0,30.0
17:01:17.601,GUIDED,-35.363262,149.1652373,45856,0.002195269800722599,0.0010784110054373741,-0.09075209498405457,0.0023741270415484905,-0.00010014156578108668,0.005003628320991993,0,0,-1001,3,0,5,-1,1,-153,1500.0,30.0
17:01:17.804,GUIDED,-35.363262,149.1652373,47803,0.0026967390440404415,0.0012312803883105516,-0.08400662243366241,-0.002920398022979498,0.0005024194251745939,0.007562022656202316,0,0,-999,-2,1,7,-1,1,-153,1500.0,30.0
17:01:18.005,GUIDED,-35.363262,149.1652372,48581,0.00266581354662776,0.0010404743952676654,-0.08146610856056213,2.9320595785975456e-05,0.001537778414785862,0.00495421327650547,0,0,-999,0,2,5,-1,1,-153,1500.0,30.0
17:01:18.207,GUIDED,-35.363262,149.1652372,48971,0.002604794455692172,0.0009726081043481827,-0.08033842593431473,0.0011340291239321232,-0.00016019382746890187,0.009547918103635311,0,0,-1000,2,0,9,-1,1,-153,1500.0,30.0
17:01:18.410,GUIDED,-35.363262,149.1652372,48971,0.002604794455692172,0.0009726081043481827,-0.08033842593431473,0.0011340291239321232,-0.00016019382746890187,0.009547918103635311,0,0,-1000,2,0,9,-1,1,-153,1500.0,30.0
17:01:18.611,GUIDED,-35.363262,149.1652372,48971,0.002604794455692172,0.0009726081043481827,-0.08033842593431473,0.0011340291239321232,-0.00016019382746890187,0.009547918103635311,0,0,-1000,2,0,9,-1,1,-153,1500.0,30.0
17:01:18.812,GUIDED,-35.363262,149.1652372,48971,0.002604794455692172,0.0009726081043481827,-0.08033842593431473,0.0011340291239321232,-0.00016019382746890187,0.009547918103635311,0,0,-1000,2,0,9,-1,1,-153,1500.0,30.0
17:01:19.014,GUIDED,-35.363262,149.1652372,48971,0.002604794455692172,0.0009726081043481827,-0.08033842593431473,0.0011340291239321232,-0.00016019382746890187,0.009547918103635311,0,0,-1000,2,0,9,-1,1,-153,1500.0,30.0
17:01:19.216,GUIDED,-35.363262,149.1652372,48971,0.002604794455692172,0.0009726081043481827,-0.08033842593431473,0.0011340291239321232,-0.00016019382746890187,0.009547918103635311,0,0,-1000,2,0,9,-1,1,-153,1500.0,30.0
17:01:19.417,GUIDED,-35.363262,149.1652372,48971,0.002604794455692172,0.0009726081043481827,-0.08033842593431473,0.0011340291239321232,-0.00016019382746890187,0.009547918103635311,0,0,-1000,2,0,9,-1,1,-153,1500.0,30.0
17:01:19.619,GUIDED,-35.363262,149.1652372,48971,0.002604794455692172,0.0009726081043481827,-0.08033842593431473,0.0011340291239321232,-0.00016019382746890187,0.009547918103635311,0,0,-1000,2,0,9,-1,1,-153,1500.0,30.0
17:01:19.823,GUIDED,-35.363262,149.1652372,51705,0.002019348321482539,0.0010403599590063095,-0.07131018489599228,-0.0009727123542688787,0.0015559929888695478,0.006713978946208954,0,0,-1000,0,-1,4,-1,1,-153,1500.0,30.0
17:01:20.026,GUIDED,-35.363262,149.1652372,52095,0.0018972688121721148,0.0008459434611722827,-0.07030525803565979,0.0012253557797521353,-0.0006754518835805357,0.004834979772567749,0,0,-999,0,2,7,-1,1,-153,1500.0,30.0
17:01:20.230,LAND,-35.363262,149.1652372,52095,0.0018972688121721148,0.0008459434611722827,-0.07030525803565979,0.0012253557797521353,-0.0006754518835805357,0.004834979772567749,0,0,-1001,2,0,5,-1,1,-153,1500.0,30.0
17:01:20.431,LAND,-35.363262,149.1652372,52095,0.0018972688121721148,0.0008459434611722827,-0.07030525803565979,0.0012253557797521353,-0.0006754518835805357,0.004834979772567749,0,0,-1001,2,0,5,-1,1,-153,1500.0,30.0
17:01:20.632,LAND,-35.363262,149.1652372,52095,0.0018972688121721148,0.0008459434611722827,-0.07030525803565979,0.0012253557797521353,-0.0006754518835805357,0.004834979772567749,0,0,-1001,2,0,5,-1,1,-153,1500.0,30.0
17:01:20.836,LAND,-35.363262,149.1652372,52095,0.0018972688121721148,0.0008459434611722827,-0.07030525803565979,0.0012253557797521353,-0.0006754518835805357,0.004834979772567749,0,0,-1001,2,0,5,-1,1,-153,1500.0,30.0
17:01:21.039,LAND,-35.363262,149.1652372,52095,0.0018972688121721148,0.0008459434611722827,-0.07030525803565979,0.0012253557797521353,-0.0006754518835805357,0.004834979772567749,0,0,-1001,2,0,5,-1,1,-153,1500.0,30.0
17:01:21.241,LAND,-35.363262,149.1652372,52095,0.0018972688121721148,0.0008459434611722827,-0.07030525803565979,0.0012253557797521353,-0.0006754518835805357,0.004834979772567749,0,0,-1001,2,0,5,-1,1,-153,1500.0,30.0
17:01:21.444,LAND,-35.363262,149.1652372,52095,0.0018972688121721148,0.0008459434611722827,-0.07030525803565979,0.0012253557797521353,-0.0006754518835805357,0.004834979772567749,0,0,-1001,2,0,5,-1,1,-153,1500.0,30.0
17:01:21.646,LAND,-35.363262,149.1652372,52095,0.0018972688121721148,0.0008459434611722827,-0.07030525803565979,0.0012253557797521353,-0.0006754518835805357,0.004834979772567749,0,0,-1001,2,0,5,-1,1,-153,1500.0,30.0
17:01:21.850,LAND,-35.363262,149.1652372,52095,0.0018972688121721148,0.0008459434611722827,-0.07030525803565979,0.0012253557797521353,-0.0006754518835805357,0.004834979772567749,0,0,-1001,2,0,5,-1,1,-153,1500.0,30.0
17:01:22.053,LAND,-35.363262,149.1652372,54398,-0.050301410257816315,0.05849570408463478,0.0745067447423935,-0.20563161373138428,0.18543897569179535,0.6493474841117859,0,0,-954,-204,186,649,-9,-7,-136,1500.0,30.0
17:01:22.254,LAND,-35.363263,149.1652359,54987,-0.04077601060271263,0.025774583220481873,0.28708547353744507,0.1197812557220459,-0.2231406271457672,0.22363846004009247,2,9,-907,120,-222,223,-30,-36,-92,1500.0,90.0
17:01:22.456,LAND,-35.363263,149.1652359,54987,-0.04077601060271263,0.025774583220481873,0.28708547353744507,0.1197812557220459,-0.2231406271457672,0.22363846004009247,2,9,-907,120,-222,223,-30,-36,-92,1500.0,90.0
17:01:22.661,LAND,-35.363263,149.1652359,54987,-0.04077601060271263,0.025774583220481873,0.28708547353744507,0.1197812557220459,-0.2231406271457672,0.22363846004009247,2,9,-907,120,-222,223,-30,-36,-92,1500.0,90.0
17:01:22.863,LAND,-35.363263,149.1652359,54987,-0.04077601060271263,0.025774583220481873,0.28708547353744507,0.1197812557220459,-0.2231406271457672,0.22363846004009247,2,9,-907,120,-222,223,-30,-36,-92,1500.0,90.0
17:01:23.065,LAND,-35.363263,149.1652359,54987,-0.04077601060271263,0.025774583220481873,0.28708547353744507,0.1197812557220459,-0.2231406271457672,0.22363846004009247,2,9,-907,120,-222,223,-30,-36,-92,1500.0,90.0
17:01:23.267,LAND,-35.363263,149.1652359,54987,-0.04077601060271263,0.025774583220481873,0.28708547353744507,0.1197812557220459,-0.2231406271457672,0.22363846004009247,2,9,-907,120,-222,223,-30,-36,-92,1500.0,90.0
17:01:23.471,LAND,-35.363263,149.1652359,54987,-0.04077601060271263,0.025774583220481873,0.28708547353744507,0.1197812557220459,-0.2231406271457672,0.22363846004009247,2,9,-907,120,-222,223,-30,-36,-92,1500.0,90.0
17:01:23.673,LAND,-35.363263,149.1652359,54987,-0.04077601060271263,0.025774583220481873,0.28708547353744507,0.1197812557220459,-0.2231406271457672,0.22363846004009247,2,9,-907,120,-222,223,-30,-36,-92,1500.0,90.0
17:01:23.876,LAND,-35.3632644,149.1652323,55501,0.034586381167173386,-0.03874647989869118,0.3231462836265564,-0.8947752714157104,0.048464640974998474,-0.04417216777801514,-2,-41,-920,-344,39,-39,12,10,16,1500.0,90.0
17:01:24.080,LAND,-35.3632637,149.1652332,55361,0.015392069704830647,-0.015689779072999954,0.30237215757369995,-1.0701520442962646,0.040563128888607025,-0.04125484451651573,-3,-35,-975,-1068,41,-40,19,26,37,1500.0,90.0
17:01:24.288,LAND,-35.3632637,149.1652332,55361,0.015392069704830647,-0.015689779072999954,0.30237215757369995,-1.0701520442962646,0.040563128888607025,-0.04125484451651573,-3,-35,-975,-1068,41,-40,19,26,37,1500.0,90.0
17:01:24.515,LAND,-35.3632637,149.1652332,55361,0.015392069704830647,-0.015689779072999954,0.30237215757369995,-1.0701520442962646,0.040563128888607025,-0.04125484451651573,-3,-35,-975,-1068,41,-40,19,26,37,1500.0,90.0
17:01:24.748,LAND,-35.3632637,149.1652332,55361,0.015392069704830647,-0.015689779072999954,0.30237215757369995,-1.0701520442962646,0.040563128888607025,-0.04125484451651573,-3,-35,-975,-1068,41,-40,19,26,37,1500.0,90.0
17:01:24.966,LAND,-35.3632637,149.1652332,55361,0.015392069704830647,-0.015689779072999954,0.30237215757369995,-1.0701520442962646,0.040563128888607025,-0.04125484451651573,-3,-35,-975,-1068,41,-40,19,26,37,1500.0,90.0
17:01:25.191,LAND,-35.3632637,149.1652332,55361,0.015392069704830647,-0.015689779072999954,0.30237215757369995,-1.0701520442962646,0.040563128888607025,-0.04125484451651573,-3,-35,-975,-1068,41,-40,19,26,37,1500.0,90.0
17:01:25.420,LAND,-35.3632637,149.1652332,55361,0.015392069704830647,-0.015689779072999954,0.30237215757369995,-1.0701520442962646,0.040563128888607025,-0.04125484451651573,-3,-35,-975,-1068,41,-40,19,26,37,1500.0,90.0
17:01:25.623,LAND,-35.3632637,149.1652332,55361,0.015392069704830647,-0.015689779072999954,0.30237215757369995,-1.0701520442962646,0.040563128888607025,-0.04125484451651573,-3,-35,-975,-1068,41,-40,19,26,37,1500.0,90.0
17:01:25.828,LAND,-35.3632617,149.1652372,54598,-0.015496143139898777,0.013421386480331421,0.2598700225353241,-1.4101078510284424,0.010615183040499687,-0.038435351103544235,1,-66,-973,-1410,11,-38,13,24,76,1500.0,90.0
17:01:26.029,LAND,-35.3632613,149.1652386,54202,-0.023486679419875145,0.01393083669245243,0.2475951761007309,-1.434489130973816,7.220346014946699e-05,-0.021656379103660583,1,-65,-994,-1434,1,-21,7,16,78,1500.0,120.0
17:01:26.231,LAND,-35.3632612,149.1652391,54018,-0.02675325982272625,0.013883806765079498,0.2397117018699646,-1.1979411840438843,-0.00031091005075722933,-0.03305098041892052,0,-36,-981,-1195,0,-32,5,13,69,1500.0,120.0
17:01:26.432,LAND,-35.3632612,149.1652391,54018,-0.02675325982272625,0.013883806765079498,0.2397117018699646,-1.1979411840438843,-0.00031091005075722933,-0.03305098041892052,0,-36,-981,-1195,0,-32,5,13,69,1500.0,120.0
17:01:26.635,LAND,-35.3632612,149.1652391,54018,-0.02675325982272625,0.013883806765079498,0.2397117018699646,-1.1979411840438843,-0.00031091005075722933,-0.03305098041892052,0,-36,-981,-1195,0,-32,5,13,69,1500.0,120.0
17:01:26.836,LAND,-35.3632612,149.1652391,54018,-0.02675325982272625,0.013883806765079498,0.2397117018699646,-1.1979411840438843,-0.00031091005075722933,-0.03305098041892052,0,-36,-981,-1195,0,-32,5,13,69,1500.0,120.0
17:01:27.039,LAND,-35.3632612,149.1652391,54018,-0.02675325982272625,0.013883806765079498,0.2397117018699646,-1.1979411840438843,-0.00031091005075722933,-0.03305098041892052,0,-36,-981,-1195,0,-32,5,13,69,1500.0,120.0
17:01:27.241,LAND,-35.3632612,149.1652391,54018,-0.02675325982272625,0.013883806765079498,0.2397117018699646,-1.1979411840438843,-0.00031091005075722933,-0.03305098041892052,0,-36,-981,-1195,0,-32,5,13,69,1500.0,120.0
17:01:27.444,LAND,-35.3632612,149.1652391,54018,-0.02675325982272625,0.013883806765079498,0.2397117018699646,-1.1979411840438843,-0.00031091005075722933,-0.03305098041892052,0,-36,-981,-1195,0,-32,5,13,69,1500.0,120.0
17:01:27.646,LAND,-35.3632612,149.1652391,54018,-0.02675325982272625,0.013883806765079498,0.2397117018699646,-1.1979411840438843,-0.00031091005075722933,-0.03305098041892052,0,-36,-981,-1195,0,-32,5,13,69,1500.0,120.0
17:01:27.849,LAND,-35.3632612,149.1652402,52885,-0.02911527082324028,0.0033631636761128902,0.20666494965553284,-1.2006657123565674,-0.006597079336643219,-0.022864622995257378,1,-41,-984,-1272,-13,-8,-1,-4,81,1500.0,120.0
17:01:28.050,LAND,-35.3632614,149.16524,52449,-0.019453005865216255,-0.001075367908924818,0.19532546401023865,-1.1565550565719604,-0.005645534954965115,-0.01647518388926983,0,-28,-1018,-1153,-4,-15,-1,-7,75,1500.0,120.0
17:01:28.252,LAND,-35.3632615,149.1652399,52243,-0.020904790610074997,-0.002241942100226879,0.19008247554302216,-0.8371616005897522,-2.590968506410718e-05,-0.024130230769515038,1,-11,-1012,-832,1,-23,-1,-7,76,1500.0,120.0
17:01:28.454,LAND,-35.3632615,149.1652399,52243,-0.020904790610074997,-0.002241942100226879,0.19008247554302216,-0.8371616005897522,-2.590968506410718e-05,-0.024130230769515038,1,-11,-1012,-832,1,-23,-1,-7,76,1500.0,120.0
17:01:28.690,LAND,-35.3632615,149.1652399,52243,-0.020904790610074997,-0.002241942100226879,0.19008247554302216,-0.8371616005897522,-2.590968506410718e-05,-0.024130230769515038,1,-11,-1012,-832,1,-23,-1,-7,76,1500.0,120.0
17:01:28.940,LAND,-35.3632615,149.1652399,52243,-0.020904790610074997,-0.002241942100226879,0.19008247554302216,-0.8371616005897522,-2.590968506410718e-05,-0.024130230769515038,1,-11,-1012,-832,1,-23,-1,-7,76,1500.0,120.0
17:01:29.142,LAND,-35.3632615,149.1652399,52243,-0.020904790610074997,-0.002241942100226879,0.19008247554302216,-0.8371616005897522,-2.590968506410718e-05,-0.024130230769515038,1,-11,-1012,-832,1,-23,-1,-7,76,1500.0,120.0
17:01:29.346,LAND,-35.3632615,149.1652399,52243,-0.020904790610074997,-0.002241942100226879,0.19008247554302216,-0.8371616005897522,-2.590968506410718e-05,-0.024130230769515038,1,-11,-1012,-832,1,-23,-1,-7,76,1500.0,120.0
17:01:29.550,LAND,-35.3632615,149.1652399,52243,-0.020904790610074997,-0.002241942100226879,0.19008247554302216,-0.8371616005897522,-2.590968506410718e-05,-0.024130230769515038,1,-11,-1012,-832,1,-23,-1,-7,76,1500.0,120.0
17:01:29.752,LAND,-35.3632618,149.1652392,51432,-0.01838769018650055,-0.004849924705922604,0.17104917764663696,-0.4096894860267639,-0.002866853028535843,-0.01479497179389,-1,19,-926,-401,-1,-14,0,-7,81,1500.0,120.0
17:01:29.954,LAND,-35.363262,149.1652386,50808,-0.017112571746110916,-0.004374237265437841,0.1608538180589676,-1.3021690845489502,-0.005691508762538433,-0.015032172203063965,0,-32,-1010,-1299,-4,-14,1,-5,74,1500.0,200.0
17:01:30.156,LAND,-35.363262,149.1652385,50581,-0.019283384084701538,-0.003567313076928258,0.1568530946969986,-1.5534889698028564,0.0005554245435632765,-0.014498220756649971,1,-44,-851,-1550,1,-14,2,-4,101,1500.0,200.0
17:01:30.357,LAND,-35.363262,149.1652385,50581,-0.019283384084701538,-0.003567313076928258,0.1568530946969986,-1.5534889698028564,0.0005554245435632765,-0.014498220756649971,1,-44,-851,-1550,1,-14,2,-4,101,1500.0,200.0
17:01:30.564,LAND,-35.363262,149.1652385,50581,-0.019283384084701538,-0.003567313076928258,0.1568530946969986,-1.5534889698028564,0.0005554245435632765,-0.014498220756649971,1,-44,-851,-1550,1,-14,2,-4,101,1500.0,200.0
17:01:30.767,LAND,-35.363262,149.1652385,50581,-0.019283384084701538,-0.003567313076928258,0.1568530946969986,-1.5534889698028564,0.0005554245435632765,-0.014498220756649971,1,-44,-851,-1550,1,-14,2,-4,101,1500.0,200.0
17:01:30.969,LAND,-35.363262,149.1652385,50581,-0.019283384084701538,-0.003567313076928258,0.1568530946969986,-1.5534889698028564,0.0005554245435632765,-0.014498220756649971,1,-44,-851,-1550,1,-14,2,-4,101,1500.0,200.0
17:01:31.170,LAND,-35.363262,149.1652385,50581,-0.019283384084701538,-0.003567313076928258,0.1568530946969986,-1.5534889698028564,0.0005554245435632765,-0.014498220756649971,1,-44,-851,-1550,1,-14,2,-4,101,1500.0,200.0
17:01:31.375,LAND,-35.363262,149.1652385,50581,-0.019283384084701538,-0.003567313076928258,0.1568530946969986,-1.5534889698028564,0.0005554245435632765,-0.014498220756649971,1,-44,-851,-1550,1,-14,2,-4,101,1500.0,200.0
17:01:31.579,LAND,-35.363262,149.1652385,50581,-0.019283384084701538,-0.003567313076928258,0.1568530946969986,-1.5534889698028564,0.0005554245435632765,-0.014498220756649971,1,-44,-851,-1550,1,-14,2,-4,101,1500.0,200.0
17:01:31.781,LAND,-35.3632621,149.1652386,49505,-0.006519401911646128,-0.0028890876565128565,0.144887775182724,-0.7205568552017212,-0.004934703465551138,-0.017564760521054268,0,-81,-1022,-729,-4,-17,2,-4,149,1500.0,200.0
17:01:31.983,LAND,-35.3632622,149.1652382,48041,0.02387937158346176,-0.0027423936408013105,0.1321454495191574,1.8818011283874512,-0.003227096749469638,-0.011562219820916653,-1,82,-973,1885,-2,-10,2,-3,132,1500.0,200.0
17:01:32.185,LAND,-35.3632622,149.165238,47697,0.022814249619841576,-0.003278591902926564,0.13036669790744781,1.6754071712493896,-0.003467684844508767,-0.00349750486202538,0,85,-1037,1681,-2,-2,2,-2,124,1500.0,200.0
17:01:32.391,LAND,-35.3632622,149.165238,47697,0.022814249619841576,-0.003278591902926564,0.13036669790744781,1.6754071712493896,-0.003467684844508767,-0.00349750486202538,0,85,-1037,1681,-2,-2,2,-2,124,1500.0,200.0
17:01:32.608,LAND,-35.3632622,149.165238,47697,0.022814249619841576,-0.003278591902926564,0.13036669790744781,1.6754071712493896,-0.003467684844508767,-0.00349750486202538,0,85,-1037,1681,-2,-2,2,-2,124,1500.0,200.0
17:01:32.830,LAND,-35.3632622,149.165238,47697,0.022814249619841576,-0.003278591902926564,0.13036669790744781,1.6754071712493896,-0.003467684844508767,-0.00349750486202538,0,85,-1037,1681,-2,-2,2,-2,124,1500.0,200.0
17:01:33.032,LAND,-35.3632622,149.165238,47697,0.022814249619841576,-0.003278591902926564,0.13036669790744781,1.6754071712493896,-0.003467684844508767,-0.00349750486202538,0,85,-1037,1681,-2,-2,2,-2,124,1500.0,200.0
17:01:33.241,LAND,-35.3632622,149.165238,47697,0.022814249619841576,-0.003278591902926564,0.13036669790744781,1.6754071712493896,-0.003467684844508767,-0.00349750486202538,0,85,-1037,1681,-2,-2,2,-2,124,1500.0,200.0
17:01:33.443,LAND,-35.3632622,149.165238,47697,0.022814249619841576,-0.003278591902926564,0.13036669790744781,1.6754071712493896,-0.003467684844508767,-0.00349750486202538,0,85,-1037,1681,-2,-2,2,-2,124,1500.0,200.0
17:01:33.645,LAND,-35.3632622,149.165238,47697,0.022814249619841576,-0.003278591902926564,0.13036669790744781,1.6754071712493896,-0.003467684844508767,-0.00349750486202538,0,85,-1037,1681,-2,-2,2,-2,124,1500.0,200.0
17:01:33.848,LAND,-35.3632623,149.1652373,46133,0.028210213407874107,-0.0025048742536455393,0.11945699900388718,0.8281835317611694,0.006443851161748171,0.010814791545271873,0,-14,-997,821,7,11,3,0,132,1500.0,200.0
17:01:34.050,LAND,-35.3632623,149.1652373,45129,0.008261924609541893,-0.0005546312895603478,0.11282875388860703,1.4031487703323364,0.010295017622411251,-0.008072182536125183,1,81,-999,1411,11,-7,3,2,129,1500.0,130.0
17:01:34.252,LAND,-35.3632623,149.1652373,45129,0.008261924609541893,-0.0005546312895603478,0.11282875388860703,1.4031487703323364,0.010295017622411251,-0.008072182536125183,1,81,-999,1411,11,-7,3,2,129,1500.0,130.0
17:01:34.455,LAND,-35.3632623,149.1652373,45129,0.008261924609541893,-0.0005546312895603478,0.11282875388860703,1.4031487703323364,0.010295017622411251,-0.008072182536125183,1,81,-999,1411,11,-7,3,2,129,1500.0,130.0
17:01:34.657,LAND,-35.3632623,149.1652373,45129,0.008261924609541893,-0.0005546312895603478,0.11282875388860703,1.4031487703323364,0.010295017622411251,-0.008072182536125183,1,81,-999,1411,11,-7,3,2,129,1500.0,130.0
17:01:34.860,LAND,-35.3632623,149.1652373,45129,0.008261924609541893,-0.0005546312895603478,0.11282875388860703,1.4031487703323364,0.010295017622411251,-0.008072182536125183,1,81,-999,1411,11,-7,3,2,129,1500.0,130.0
17:01:35.062,LAND,-35.3632623,149.1652373,45129,0.008261924609541893,-0.0005546312895603478,0.11282875388860703,1.4031487703323364,0.010295017622411251,-0.008072182536125183,1,81,-999,1411,11,-7,3,2,129,1500.0,130.0
17:01:35.265,LAND,-35.3632623,149.1652373,45129,0.008261924609541893,-0.0005546312895603478,0.11282875388860703,1.4031487703323364,0.010295017622411251,-0.008072182536125183,1,81,-999,1411,11,-7,3,2,129,1500.0,130.0
17:01:35.467,LAND,-35.3632623,149.1652373,45129,0.008261924609541893,-0.0005546312895603478,0.11282875388860703,1.4031487703323364,0.010295017622411251,-0.008072182536125183,1,81,-999,1411,11,-7,3,2,129,1500.0,130.0
