time_stamp,MODE,alt,lat,lon,relative_alt,vx,vy,vz,xacc,yacc,zacc,xgyro,ygyro,zgyro,roll,pitch,yaw,rollspeed,pitchspeed,yawspeed
18:24:14,STABILIZE,583920.0,-35.3632621,149.1652374,0.0,-2.0,1.0,0.0,0.0,2.0,-1000.0,1.0,0.0,0.0,-0.00024573394330218434,0.0015721680829301476,0.028375891968607903,0.0003737339284271002,0.00024472345830872655,0.002318148734048009
18:24:16,STABILIZE,583910.0,-35.3632622,149.1652375,0.0,-1.0,1.0,0.0,0.0,1.0,-1000.0,0.0,0.0,0.5,-0.0007042566721793264,0.0011638153227977455,0.02719785552471876,0.000273529818514362,0.0002053882199106738,0.002224655356258154
18:24:17,STABILIZE,583910.0,-35.3632622,149.1652375,0.0,-1.0,1.0,0.0,0.0,1.0,-1000.0,0.0,0.0,0.5,-0.0008935591904446483,0.0010574049083516002,0.026810351759195328,0.0001715865801088512,0.0002567179617471993,0.0021331850439310074
18:24:23,STABILIZE,583916.6666666666,-35.3632621,149.1652375,0.0,-1.0,0.0,-1.0,0.0,1.0,-1000.0,0.0,0.0,0.0,-0.0008606149058323354,0.000939456163905561,0.02474913839250803,0.00023202478769235313,0.000209675170481205,0.0018033686792477965
18:24:25,STABILIZE,583920.0,-35.36326215,149.1652375,0.0,-1.0,1.0,0.0,0.0,1.0,-1000.0,0.5,0.0,0.5,-0.0007299131248146296,0.000953904032940045,0.024145061150193214,0.000297832943033427,0.00019706774037331343,0.0018107343348674476
18:24:27,AUTO,583910.0,-35.3632622,149.1652375,4.0,-1.0,1.0,0.0,0.0,1.5,-1000.0,0.5,0.25,0.0,-0.0009221420768881217,0.0009673424792708829,0.02352516446262598,0.00027363306435290724,0.00027906635659746826,0.0016784249455668032
18:24:28,AUTO,583910.0,-35.3632621,149.1652375,8.0,0.0,0.0,0.0,0.0,1.5,-1000.0,0.5,0.5,0.5,-0.0009974153363145888,0.0010379364248365164,0.02321117091923952,0.00013876173761673272,0.0003164502850268036,0.0015527248615399003
18:24:29,AUTO,583902.5,-35.3632621,149.1652375,1.25,0.0,1.0,2.5,0.0,1.5,-1000.25,0.5,0.25,0.0,-0.0005751855060225353,0.0011859297228511423,0.02301285183057189,0.0003058759175473824,0.00027439383848104626,0.001605468656634912
18:24:30,AUTO,583900.0,-35.3632621,149.16523745,0.0,0.0,0.0,1.0,0.0,1.0,-1000.0,0.5,0.0,0.0,-0.00031919838511385024,0.0015368885942734778,0.022647525183856487,0.0002872277400456369,0.0002981967991217971,0.0015487645869143307
18:24:31,AUTO,583912.5,-35.3632621,149.1652374,10.0,0.0,0.0,-7.75,0.0,0.5,-1045.5,9.75,-2.5,1.25,0.0016050243903009687,0.0010738166747614741,0.022472395561635494,0.009244128406862728,-0.0030346010462380946,0.0021945800981484354
18:24:32,AUTO,584715.0,-35.3632621,149.1652375,810.5,0.0,1.0,-128.0,0.0,-0.5,-1068.5,21.0,-2.0,0.5,0.005255151365417987,0.0015480361762456596,0.02224524412304163,0.020091554382815957,-0.0025845032068900764,0.001222409657202661
18:24:33,AUTO,585817.5,-35.363261924999996,149.165238075,1912.0,2.25,15.0,-146.25,0.0,-2.0,-1007.75,43.75,-7.75,2.5,0.037048861384391785,-0.003693387516250368,0.022446572314947844,0.043511888943612576,-0.008918903418816626,0.003139000094961375
18:24:34,AUTO,587730.0,-35.3632611,149.1652431,3821.5,4.5,50.0,-145.0,5.0,-12.0,-1003.5,-125.5,4.0,-72.5,-0.011417114292271435,0.02415923960506916,-0.05791081488132477,-0.12675318866968155,0.00340432021766901,-0.07239515706896782
18:24:35,AUTO,588880.0,-35.363261025,149.165245875,4974.25,-4.5,16.0,-149.0,3.75,-4.5,-1002.5,-37.75,-34.25,-16.75,-0.053302837535738945,0.00721989810699597,-0.0873330682516098,-0.03906257729977369,-0.03519972518552095,-0.016118536237627268
18:24:36,AUTO,590805.0,-35.3632613,149.16524325,6897.5,0.0,-53.0,-149.5,-6.0,10.0,-1001.5,62.0,8.5,2.0,-0.034367955289781094,-0.01158268516883254,-0.08724449947476387,0.06164509244263172,0.008833428146317601,0.002755525871179998
18:24:37,AUTO,591967.5,-35.363261324999996,149.165238525,8061.25,-0.25,-53.0,-151.5,-7.0,10.25,-1003.0,65.0,14.75,3.0,0.013642242178320885,-0.00133891923178453,-0.08600147441029549,0.06471383571624756,0.014670829055830836,0.004062973312102258
18:24:38,AUTO,593935.0,-35.36326165,149.1652342,10026.0,-7.5,6.0,-151.0,0.5,1.0,-995.0,-60.0,-12.0,-3.0,0.05114862136542797,0.017376318108290434,-0.09233582019805908,-0.06130673550069332,-0.01253625936806202,-0.0025873526465147734
18:24:39,AUTO,595092.5,-35.363262225,149.16523525,11187.5,-7.0,18.0,-150.5,3.5,-1.5,-1001.5,-43.75,-16.25,-2.5,0.003806385910138488,-0.0005401891976362094,-0.09108276665210724,-0.044891941361129284,-0.017454657470807433,-0.0019856211147271097
18:24:40,AUTO,597030.0,-35.3632626,149.1652366,13124.5,1.5,0.5,-153.0,0.0,0.0,-1000.5,13.5,5.5,-22.5,-0.009540638886392117,-0.005330033600330353,-0.11127645894885063,0.01354511734098196,0.005242946557700634,-0.022604485973715782
18:24:41,AUTO,598205.0,-35.36326235,149.16523635,14297.25,3.75,-4.25,-153.0,-1.5,0.0,-1000.0,13.5,7.75,-21.5,0.0008639293955639005,-0.0006066573187126778,-0.12929323874413967,0.013368681306019425,0.007626661565154791,-0.02172056818380952
18:24:42,AUTO,600155.0,-35.3632618,149.1652356,16250.5,1.5,-0.5,-153.0,-1.0,0.0,-999.5,2.0,2.5,-16.0,0.009394115768373013,0.006595704471692443,-0.15459329634904861,0.00166775900288485,0.0025389704387634993,-0.01582566322758794
18:24:43,AUTO,601325.0,-35.363261625,149.1652355,17422.25,-0.5,3.25,-153.0,0.0,0.0,-1000.0,-1.25,0.0,-14.25,0.00811408064328134,0.006654100492596626,-0.16547460854053497,-0.0023081498802639544,-0.00011729443940566853,-0.014210310066118836
18:24:44,AUTO,603275.0,-35.3632616,149.16523585,19373.5,-2.5,6.0,-153.0,0.0,0.0,-1000.0,-0.5,0.0,-16.0,0.0042553425300866365,0.0045603609178215265,-0.18357110768556595,-0.0013366932689677924,-0.0003858051204588264,-0.01606806367635727
18:24:45,AUTO,604452.5,-35.363261625,149.16523615,20550.0,-3.0,5.5,-153.25,0.0,0.0,-1000.0,0.25,0.0,-18.0,0.002366038766922429,0.0036582209868356586,-0.19662102311849594,-0.0008033945341594517,-0.0005880592507310212,-0.018050906248390675
18:24:46,AUTO,606410.0,-35.3632617,149.16523654999997,22504.5,-3.0,3.5,-154.0,0.0,0.0,-1000.0,3.0,1.5,-21.0,0.0020044982666149735,0.0034952632850036025,-0.2210182473063469,0.0031095645390450954,0.0012111257237847894,-0.02108476124703884
18:24:47,AUTO,607582.5,-35.363261775,149.16523665,23674.75,-2.5,3.0,-154.0,0.0,0.0,-1000.0,1.0,0.5,-18.5,0.002314763725735247,0.002996861992869526,-0.23547790572047234,0.0005371038860175759,-0.00022373940737452358,-0.01870171632617712
18:24:48,AUTO,609525.0,-35.36326185,149.1652368,25623.0,-3.5,0.0,-152.5,0.0,0.0,-1001.5,-0.5,6.0,5.0,-0.009427244309335947,0.0048594416584819555,-0.2537193149328232,-0.0012352056801319122,0.00562630535569042,0.0057217522989958525
18:24:49,AUTO,610695.0,-35.363262125000006,149.16523662499998,26791.25,-4.75,0.0,-153.75,0.0,0.25,-999.75,15.75,-2.25,23.0,0.007975117972819135,0.0033872094354592264,-0.24003227055072784,0.015353515569586307,-0.003971092053689063,0.023892167024314404
18:24:50,AUTO,612645.0,-35.3632624,149.1652369,28736.0,-1.5,8.0,-153.0,0.5,-0.5,-1000.0,-4.0,2.5,22.0,0.006699804216623306,0.0009411621722392738,-0.21017006784677505,-0.005372085375711322,0.0018969459924846888,0.02260157186537981
18:24:51,AUTO,613805.0,-35.3632624,149.16523745,29903.0,0.0,7.5,-153.0,0.0,-1.0,-1000.0,-3.5,1.75,20.0,0.0019144273501296993,0.0016883106145542115,-0.19491345435380936,-0.004584329901263118,0.001345983357168734,0.020707578863948584
18:24:52,LOITER,615745.0,-35.36326235,149.165238,31842.5,0.0,3.5,-153.0,0.0,0.0,-1000.0,0.5,1.5,16.0,-0.0008057793311309069,0.0012603793293237686,-0.17273689806461334,0.0001137134968303144,0.0007340746815316379,0.016864934004843235
18:24:53,LOITER,616905.0,-35.3632623,149.165238075,33000.25,-2.0,0.0,-145.5,-0.25,-0.5,-956.0,-84.0,85.0,250.0,-0.01469052053289488,0.019781028880970553,-0.11989407992223278,-0.08502290246542543,0.08465739779057913,0.2505199934821576
18:24:54,LOITER,617890.0,-35.36326425,149.16523554999998,33982.5,-27.5,-33.5,36.0,3.0,-33.0,-750.0,-442.5,-113.0,-7.0,0.003699282882735133,-0.03032548539340496,0.20615213364362717,-0.44119735062122345,-0.11467117816209793,-0.006974624469876289
18:24:55,LOITER,617032.5,-35.363265225,149.165233925,33126.5,-1.5,-4.75,156.5,0.25,-2.0,-900.0,924.0,13.25,-27.75,0.07179298810660839,-0.049440701492130756,0.1794995442032814,0.926254615187645,0.012388878036290407,-0.02853016508743167
18:24:56,LOITER,614620.0,-35.3632639,149.16523625000002,30715.0,22.5,36.5,195.5,-1.0,-6.5,-1007.5,-1083.0,22.5,-11.5,-0.010999560006894171,-0.003693869657581672,0.15368865430355072,-1.0880147516727448,0.0220370851457119,-0.012003189418464899
18:24:57,AUTO,613152.5,-35.363262625000004,149.16523937499997,29247.5,19.75,25.0,179.75,2.75,-86.0,-1034.0,-703.0,5.75,-42.25,-0.008790371066424996,0.011645975057035685,0.14632438495755196,-0.6999766193330288,0.004921887535601854,-0.0426982119679451
18:24:58,AUTO,611560.0,-35.363261550000004,149.16524405,27655.0,12.5,-6.0,51.5,4.5,-14.5,-1074.5,444.5,-15.0,-15.5,-0.023733862675726414,0.009445063769817352,0.12532829120755196,0.4461437463760376,-0.016532447189092636,-0.01613767957314849
18:24:59,AUTO,611345.0,-35.3632615,149.165245975,27437.75,10.25,-23.0,8.0,1.5,-14.25,-1050.5,-272.0,-8.0,3.25,-0.04618832655251026,0.0041224968153983355,0.11270236037671566,-0.2728509306907654,-0.009393549873493612,0.0036172567633911967
18:25:00,AUTO,611565.0,-35.3632615,149.165247,27659.5,10.0,-41.0,-51.0,-0.5,7.0,-1049.0,-22.5,-1.5,7.0,-0.029099187813699245,5.541429709410295e-05,0.10340340808033943,-0.023437537252902985,-0.002523569157347083,0.007443761453032494
18:25:01,AUTO,612082.5,-35.3632614,149.16524644999998,28177.5,9.5,-40.5,-87.0,-1.5,0.75,-1048.25,13.75,0.75,0.75,-0.015969753032550216,0.0005625433204841102,0.09986651688814163,0.01420353353023529,4.3424181058071554e-05,0.001180679362732917
18:25:02,AUTO,613520.0,-35.36326115,149.16524525,29610.5,7.5,-31.5,-141.5,-1.0,2.0,-1028.0,35.5,0.5,-1.0,0.0010638139210641384,0.002287345938384533,0.09269363433122635,0.03667858336120844,0.00021804714924655855,-0.0017608785128686577
18:25:03,AUTO,614640.0,-35.363260925,149.1652451,30730.75,4.75,-7.0,-148.75,-1.0,0.25,-1002.75,48.25,-2.5,1.25,0.04174403613433242,0.0014682339333376149,0.0919432770460844,0.049402374774217606,-0.0031635597842978314,0.0016195991265703924
18:25:04,AUTO,616515.0,-35.36326065,149.16524935,32612.0,1.0,34.0,-144.5,1.5,-10.5,-1005.0,-170.0,-13.0,-43.5,-0.03228595247492194,0.011408710852265358,0.057769618928432465,-0.16971462965011597,-0.014047079719603062,-0.043771250173449516
18:25:05,LOITER,617650.0,-35.363260525,149.16525022500002,33742.5,2.75,-17.5,-147.5,-1.5,1.75,-1004.75,12.5,-0.75,-22.75,-0.07179658859968185,0.004594398953486234,0.03257693210616708,0.013552137650549412,-0.001745064597344026,-0.023486993741244078
18:25:06,LOITER,619540.0,-35.36326,149.1652429,35636.5,-2.5,-75.5,-145.0,-7.5,16.5,-967.0,-56.5,2.0,52.5,-0.028919946402311325,0.011080903001129627,0.030405418947339058,-0.05591944232583046,0.001415809616446495,0.05224698509846348
18:25:07,LOITER,620257.5,-35.363260049999994,149.1652356,36354.75,-5.75,-73.0,-35.25,-8.0,15.75,-810.0,184.75,-21.75,16.0,0.04577665217220783,-0.005611577944364399,0.06763043906539679,0.18626282177865505,-0.023216899076942354,0.015839477069675922
18:25:08,LOITER,619220.0,-35.36325995,149.16523015,35313.5,0.0,31.5,192.5,3.5,-110.5,-918.0,-1276.0,25.0,-10.0,0.12302271276712418,0.0007769747171550989,0.062209732830524445,-1.270704746246338,0.024759826250374317,-0.010728646186180413
18:25:09,LOITER,617675.0,-35.363259825,149.16523412499998,33766.25,0.5,78.0,203.0,8.25,41.5,-1016.5,1350.75,21.75,17.75,0.07906807400286198,0.0149436816573143,0.059967064298689365,1.351322278380394,0.021570833399891853,0.01740874780807644
18:25:10,AUTO,615215.0,-35.3632597,149.16524275,31307.5,-2.5,57.0,180.0,4.0,-95.5,-1011.5,-1961.5,-19.5,1.5,-0.043047428131103516,0.01680444600060582,0.05620024912059307,-1.9604405164718628,-0.02068150881677866,0.0010832081898115575
18:25:11,AUTO,614177.5,-35.363259750000005,149.16524485,30275.5,-2.75,29.75,88.5,2.75,-59.5,-1116.75,-644.0,-8.25,-10.75,-0.001588940154761076,0.008058579755015671,0.05289679393172264,-0.6413272693753242,-0.009103967633564025,-0.011442342074587941
18:25:12,AUTO,613655.0,-35.3632599,149.16524644999998,29749.5,-1.0,17.0,0.0,2.0,22.0,-1058.0,414.5,0.5,-2.0,0.005421129695605487,0.0076952180825173855,0.04775679484009743,0.4144809693098068,-0.00025465330691076815,-0.0023221165320137516
18:25:13,AUTO,613792.5,-35.36326,149.165247525,29886.75,0.0,10.5,-35.5,1.5,-7.0,-1044.5,-40.25,-0.25,-2.5,-0.00022901715055922978,0.006783437915146351,0.045809161849319935,-0.03986174636520445,-0.0009313726623076946,-0.003414967330172658
18:25:14,AUTO,614570.0,-35.36326015,149.16524900000002,30664.5,0.5,0.5,-94.0,0.5,1.5,-1047.5,80.0,-1.5,-2.0,-0.002976885181851685,0.004942996194586158,0.04122566618025303,0.08119623269885778,-0.0023835469037294388,-0.0027826325967907906
18:25:15,AUTO,615425.0,-35.3632602,149.165249225,31520.25,1.0,-2.0,-127.5,0.0,-0.75,-1041.0,5.75,-1.0,-0.5,0.0025218705413863063,0.004091469512786716,0.03913271799683571,0.006311475764960051,-0.001356296575977467,-0.0012874968524556607
18:25:16,AUTO,617240.0,-35.36326015,149.16524995,33336.5,4.0,20.0,-148.0,0.0,-2.0,-1000.5,44.0,-6.0,2.5,0.052611665800213814,-0.001608638238394633,0.03747245855629444,0.04475908912718296,-0.006911331554874778,0.0024082285817712545
18:25:17,AUTO,618375.0,-35.3632596,149.1652529,34470.75,6.25,47.75,-145.5,1.5,-8.75,-997.5,-103.0,22.75,-55.0,0.0290545835159719,0.013776431791484356,0.01091636101318727,-0.1029272535815835,0.022167913615703583,-0.05605561849370133
18:25:18,AUTO,620265.0,-35.363259150000005,149.16525610000002,36361.0,-1.5,-14.0,-149.0,-1.0,1.5,-1002.5,42.0,-2.5,-16.0,-0.060460321605205536,0.007642672397196293,-0.04110647551715374,0.04249771125614643,-0.003264369472162798,-0.01741720177233219
18:25:19,AUTO,621420.0,-35.363259150000005,149.16525285,37515.25,-6.25,-43.5,-149.25,-5.5,9.5,-1001.5,62.75,10.0,-3.75,-0.01799885171931237,0.010669435374438763,-0.04792390577495098,0.06332918629050255,0.009648938314057887,-0.005168392730411142
18:25:20,AUTO,623365.0,-35.36326005,149.1652461,39457.0,-19.0,-18.5,-151.5,-1.0,8.5,-1000.0,31.5,-26.5,33.0,0.057488612830638885,0.016743937972933054,-0.041771404445171356,0.032173207961022854,-0.026901871780864894,0.03325682180002332
18:25:21,LOITER,624530.0,-35.3632607,149.165245225,40622.75,-5.25,11.5,-149.25,0.5,1.0,-997.5,-67.75,-6.5,27.25,0.03409244434442371,-0.02018880588002503,-0.0015693876193836331,-0.0686966422945261,-0.007423503324389458,0.026453890604898334
18:25:22,LOITER,626460.0,-35.36325945,149.16524505,42551.0,9.0,-5.5,-146.5,-5.0,-2.0,-975.0,-224.5,33.5,-12.0,-0.042353283148258924,0.015256509650498629,-0.04671807028353214,-0.22545943595468998,0.033287208527326584,-0.012936917133629322
18:25:23,LOITER,627205.0,-35.363259175,149.16524135,43301.0,-8.5,-54.75,-39.25,-5.25,11.5,-809.5,230.0,-38.25,71.25,-0.032082915771752596,0.03154799866024405,0.02190834144130349,0.2304809633642435,-0.03922124486416578,0.07064044289290905
18:25:24,LOITER,626220.0,-35.3632601,149.16523545,42316.0,-8.5,14.5,190.5,6.0,-106.0,-913.0,-1563.0,12.0,-14.0,0.12298046052455902,-0.0013203118578530848,0.023565158247947693,-1.5595659017562866,0.011452025966718793,-0.015274854376912117
18:25:25,LOITER,625195.0,-35.3632603,149.165237,41290.0,-2.5,56.5,208.0,9.5,-39.5,-991.5,531.0,22.5,-9.5,0.10762566328048706,0.0058208765694871545,0.023546683602035046,0.5359571203589439,0.021907738409936428,-0.010386110283434391
18:25:26,LOITER,624145.0,-35.3632604,149.16524034999998,40241.5,0.0,75.0,198.0,10.5,69.0,-1047.5,2001.0,8.0,0.5,0.0633338950574398,0.012349241878837347,0.02338434010744095,2.0001856684684753,0.007723068236373365,-0.0006862115114927292
18:25:27,AUTO,622000.0,-35.363260333333336,149.16524863333333,38090.666666666664,0.3333333333333333,45.333333333333336,154.66666666666666,8.0,-38.333333333333336,-1138.6666666666667,-1268.6666666666667,-11.666666666666666,2.0,-0.05504284550746282,0.015566574720044931,0.01925889713068803,-1.2714751958847046,-0.013204758210728565,0.0007163293194025755
18:25:28,AUTO,621120.0,-35.3632604,149.1652521,37216.333333333336,0.0,15.0,66.33333333333333,5.666666666666667,-6.666666666666667,-1076.3333333333333,-540.0,2.6666666666666665,0.6666666666666666,-0.041495464742183685,0.01140736136585474,0.018162173529465992,-0.5428862397869428,0.0016812049434520304,-0.0004482632502913475
18:25:29,AUTO,620760.0,-35.3632604,149.16525520000002,36857.666666666664,0.0,-13.666666666666666,-7.666666666666667,2.6666666666666665,-16.333333333333332,-1051.3333333333333,-87.0,-2.0,-3.0,-0.022768960023919742,0.0082570545685788,0.015017918621500334,-0.08583995203177135,-0.003431864626084765,-0.00406976828041176
18:25:30,AUTO,620940.0,-35.36326046666667,149.1652559,37034.0,0.0,-22.333333333333332,-43.333333333333336,0.3333333333333333,6.0,-1049.0,106.66666666666667,-3.3333333333333335,0.0,-0.01782965411742528,0.005698179515699546,0.012956159189343452,0.10666895114506285,-0.004588034314413865,-0.0007316909225968024
18:25:31,AUTO,621843.3333333334,-35.36326063333333,149.1652556,37936.666666666664,1.6666666666666667,-24.333333333333332,-103.0,-1.0,1.6666666666666667,-1047.0,1.0,0.0,1.0,-0.003094143195388218,0.002915784095724424,0.010547020162145296,0.0016338589290777843,-0.0011321079800836742,0.00044288144757350284
18:25:32,AUTO,622750.0,-35.3632607,149.1652548666667,38844.333333333336,2.0,-19.333333333333332,-135.66666666666666,-1.6666666666666667,2.6666666666666665,-1036.6666666666667,42.0,1.3333333333333333,0.6666666666666666,0.010106015096729001,0.003233688184991479,0.009133485145866871,0.04279636715849241,0.0012436113902367651,-0.00027162651531398296
18:25:33,AUTO,624610.0,-35.363260366666665,149.16525523333334,40703.666666666664,5.333333333333333,24.666666666666668,-148.0,0.0,-3.0,-997.6666666666666,28.666666666666668,5.0,-10.666666666666666,0.06927821785211563,0.0010281800544665505,0.008320290284852186,0.029722752204785746,0.00406676825756828,-0.011520335295548042
18:25:34,AUTO,625733.3333333334,-35.363259899999996,149.16525853333334,41829.333333333336,5.666666666666667,49.666666666666664,-143.66666666666666,3.6666666666666665,-10.333333333333334,-999.6666666666666,-176.66666666666666,8.0,-51.0,0.0044967487920075655,0.0164884344364206,-0.022022777547438938,-0.1765993038813273,0.00682613222549359,-0.05238707487781843
18:25:35,AUTO,627620.0,-35.3632593,149.1652597,43716.333333333336,-0.6666666666666666,-28.0,-148.0,-4.0,4.333333333333333,-1000.6666666666666,53.666666666666664,5.666666666666667,-15.333333333333334,-0.04888137678305308,0.009497580118477345,-0.0665259522696336,0.05410631497701009,0.005232848401647061,-0.01678881763170163
18:25:36,AUTO,628776.6666666666,-35.36325933333333,149.16525549999997,44869.333333333336,-8.333333333333334,-49.666666666666664,-149.33333333333334,-6.666666666666667,12.333333333333334,-1003.0,67.0,14.0,-2.6666666666666665,-0.0027587749840070805,0.01681905674437682,-0.07364438722531001,0.06794093549251556,0.013795906056960424,-0.004248196026310325
18:25:37,AUTO,630720.0,-35.36326086666667,149.16524893333334,46812.0,-24.0,-8.0,-151.0,-0.3333333333333333,8.0,-998.3333333333334,-2.3333333333333335,-66.66666666666667,73.0,0.06294312203923862,0.009417536668479443,-0.05562333141764005,-0.001987779668221871,-0.06785526452586055,0.07218887532750766
18:25:38,AUTO,631866.6666666666,-35.363261533333336,149.16524816666666,47964.333333333336,0.3333333333333333,8.0,-145.33333333333334,0.0,-0.6666666666666666,-989.6666666666666,-191.0,21.0,19.333333333333332,-0.014662890695035458,-0.03779840345184008,-0.0029948511316130557,-0.19111395875612894,0.020035268117984135,0.018207193973163765
18:25:39,AUTO,633396.6666666666,-35.36325993333333,149.16524356666667,49493.666666666664,8.0,-23.0,-79.66666666666667,-6.666666666666667,6.666666666666667,-940.6666666666666,136.0,3.3333333333333335,5.333333333333333,0.07245614255468051,0.015558676794171333,0.010957794884840647,0.13641119996706644,0.002822094907363256,0.004219672332207362
18:25:40,AUTO,633873.3333333334,-35.36325943333333,149.16524266666667,49965.333333333336,1.3333333333333333,30.333333333333332,-41.666666666666664,0.3333333333333333,-3.6666666666666665,-961.3333333333334,-45.666666666666664,4.0,0.0,0.09386489043633144,0.017375579103827477,0.008764689167340597,-0.046045503268639244,0.0034669358283281326,-0.0013321063403661053
18:25:41,AUTO,634170.0,-35.3632593,149.16524836666667,50264.0,-2.6666666666666665,64.33333333333333,-3.0,6.333333333333333,6.333333333333333,-963.6666666666666,166.33333333333334,3.0,1.6666666666666667,0.017794235919912655,0.019538423667351406,0.007238003890961409,0.16487211982409158,0.0023332046888147793,0.0003611708137517174
18:25:42,AUTO,634096.6666666666,-35.3632594,149.16525196666666,50192.666666666664,-5.333333333333333,42.0,19.333333333333332,5.333333333333333,-12.666666666666666,-983.3333333333334,172.0,-35.0,-4.666666666666667,-0.014710075842837492,0.016227587902297575,0.00689794821664691,0.17356597383817038,-0.03615466505289078,-0.006036093574948609
18:25:43,AUTO,633903.3333333334,-35.3632589,149.1652551,49998.666666666664,24.333333333333332,46.333333333333336,5.0,0.6666666666666666,7.666666666666667,-1010.0,420.6666666666667,-22.0,72.0,0.07058287411928177,-0.03936841587225596,0.007720446136469643,0.4198921596010526,-0.023660576591889065,0.07081507615900288
18:25:44,AUTO,633870.0,-35.3632559,149.16525946666667,49965.666666666664,65.0,85.66666666666667,1.0,-9.0,-43.0,-1004.6666666666666,-361.3333333333333,-38.333333333333336,819.6666666666666,0.07296702389915784,-0.08874536057313283,0.36162327229976654,-0.361861119667689,-0.03978561982512474,0.81873087088267
18:25:45,AUTO,633853.3333333334,-35.36324403333333,149.16527663333332,49946.333333333336,149.33333333333334,185.0,0.3333333333333333,-46.666666666666664,-33.0,-1003.0,-201.0,-51.0,-48.0,0.022435728460550308,-0.16680135329564413,0.943396250406901,-0.20211831852793694,-0.052827298641204834,-0.04966296876470248
18:25:46,LOITER,633836.6666666666,-35.363232,149.16529393333334,49930.666666666664,209.33333333333334,252.0,0.3333333333333333,-69.0,-38.0,-1015.3333333333334,66.66666666666667,225.33333333333334,-28.0,0.04796296978990237,-0.16651268303394318,0.8924403587977091,0.06657466913263003,0.22404933328895518,-0.030186837539076805
18:25:47,LOITER,633413.3333333334,-35.36321193333334,149.16532329999998,49506.0,94.33333333333333,130.66666666666666,116.66666666666667,-25.333333333333332,19.333333333333332,-870.6666666666666,-466.0,-167.33333333333334,-49.666666666666664,0.036082495003938675,0.2591809978087743,0.9246712128321329,-0.4712704122066498,-0.168705423672994,-0.0513182757422328
18:25:48,LOITER,632186.6666666666,-35.3632085,149.1653294,48279.666666666664,12.333333333333334,38.666666666666664,187.66666666666666,-3.6666666666666665,-106.33333333333333,-962.3333333333334,-1934.6666666666667,-145.33333333333334,-1.0,0.015395057387650013,0.10372051348288854,0.9185479084650675,-1.9333617289861043,-0.14674402276674905,-0.0027093064660827317
18:25:49,LOITER,629743.3333333334,-35.363209000000005,149.16533043333334,45835.0,-16.333333333333332,1.3333333333333333,183.0,1.6666666666666667,94.0,-1018.0,1243.3333333333333,-22.0,8.333333333333334,0.0036711042436460652,0.010251312050968409,0.914054294427236,1.2387472192446392,-0.023577500755588215,0.007282144855707884
18:25:50,LOITER,628353.3333333334,-35.363209866666665,149.1653302,44446.0,-9.0,-2.6666666666666665,174.0,1.3333333333333333,-55.333333333333336,-1000.6666666666666,-1582.6666666666667,0.6666666666666666,-8.666666666666666,-0.02170951260874669,0.0021424185251817107,0.9124642610549927,-1.5836905241012573,-0.0007291330257430673,-0.010109873566155633
18:25:51,AUTO,626116.6666666666,-35.3632104,149.1653297,42211.666666666664,-1.6666666666666667,-5.0,163.66666666666666,-0.6666666666666666,70.66666666666667,-1027.6666666666667,1751.0,-5.666666666666667,6.0,0.020761389285326004,0.0036412026189888516,0.9106504122416178,1.7502028942108154,-0.006486222535992662,0.004938948278625806
18:25:52,AUTO,625063.3333333334,-35.36321013333333,149.1653295,41156.333333333336,4.333333333333333,1.0,91.33333333333333,-4.666666666666667,62.666666666666664,-1145.3333333333333,824.0,-32.666666666666664,-4.0,0.009487275422240296,-0.021513209988673527,0.9101783235867819,0.8204303582509359,-0.03434117448826631,-0.005970756445700924
18:25:53,AUTO,624533.3333333334,-35.36320683333333,149.1653314,40627.333333333336,29.333333333333332,40.666666666666664,1.0,-15.0,-15.0,-1042.3333333333333,-325.6666666666667,-21.333333333333332,-29.666666666666668,0.02698572166264057,-0.053632946064074837,0.9004780848821005,-0.32705112049976987,-0.02291555640598138,-0.03133901519080003
18:25:54,AUTO,624596.6666666666,-35.36320276666667,149.16533553333332,40691.0,50.0,77.33333333333333,-21.666666666666668,-20.666666666666668,-6.333333333333333,-1027.3333333333333,170.66666666666666,-31.666666666666668,3.0,0.04484857122103373,-0.07454105466604233,0.8783424695332845,0.16976383328437805,-0.033264076337218285,0.001728345329562823
18:25:55,AUTO,625046.6666666666,-35.363191799999996,149.16535033333332,41141.0,105.33333333333333,158.33333333333334,-50.666666666666664,-37.333333333333336,-26.333333333333332,-1024.6666666666667,2.6666666666666665,-39.0,14.333333333333334,0.046661571909983955,-0.12164829671382904,0.878554105758667,0.0011572763323783875,-0.040693155179421105,0.013461077120155096
18:25:56,AUTO,625506.6666666666,-35.363181833333336,149.16536533333334,41601.0,152.66666666666666,215.33333333333334,-70.33333333333333,-51.0,-29.333333333333332,-1030.3333333333333,38.0,19.666666666666668,3.3333333333333335,0.04552887752652168,-0.13523044188817343,0.8769824107487997,0.03648496295015017,0.018403211298088234,0.0022568521865954003
18:25:57,AUTO,626633.3333333334,-35.36315963333333,149.1653995,42725.666666666664,210.66666666666666,274.0,-102.0,-74.33333333333333,-42.666666666666664,-1016.3333333333334,-3.3333333333333335,26.0,-7.0,0.04287449767192205,-0.10445976754029591,0.8760381738344828,-0.005635498867680629,0.02512038848362863,-0.00919847396047165
18:25:58,AUTO,627453.3333333334,-35.363144166666665,149.1654231,43550.333333333336,231.33333333333334,288.0,-110.66666666666667,-73.0,-46.666666666666664,-1004.0,11.666666666666666,22.0,-46.0,0.04129547253251076,-0.08464483171701431,0.8592324058214823,0.010507897629092136,0.020884339697659016,-0.04783200783034166
18:25:59,AUTO,628916.6666666666,-35.36311636666667,149.16546393333334,45010.333333333336,248.66666666666666,294.0,-114.0,-79.33333333333333,-47.333333333333336,-998.6666666666666,5.333333333333333,20.333333333333332,-82.66666666666667,0.04914142439762751,-0.07767309000094731,0.7812950015068054,0.0038043038609127202,0.01883086437980334,-0.08454880615075429
18:26:00,AUTO,629806.6666666666,-35.36309883333333,149.16548880000002,45898.333333333336,257.0,298.0,-113.66666666666667,-71.33333333333333,-56.666666666666664,-991.6666666666666,11.333333333333334,-15.333333333333334,-118.33333333333333,0.06244872013727824,-0.07595545550187428,0.7039806246757507,0.00983588925252358,-0.017077633490165074,-0.12059010316928227
18:26:01,AUTO,631390.0,-35.3630665,149.16553496666666,47486.666666666664,262.0,309.3333333333333,-112.66666666666667,-72.0,-75.0,-994.6666666666666,22.666666666666668,37.666666666666664,31.666666666666668,0.08071595927079518,-0.05594152336319288,0.565466562906901,0.021036763365070026,0.03586285933852196,0.030516089871525764
18:26:02,AUTO,632253.3333333334,-35.36304909999999,149.16556119999998,48347.666666666664,239.33333333333334,316.3333333333333,-107.33333333333333,-77.66666666666667,-56.0,-982.6666666666666,27.666666666666668,132.66666666666666,403.3333333333333,0.11060468604167302,-0.02683126957466205,0.7858740488688151,0.025587243338425953,0.13093560685714087,0.402133305867513
18:26:03,AUTO,633436.6666666666,-35.36302703333334,149.16560066666668,49533.0,141.0,213.33333333333334,-64.33333333333333,-51.666666666666664,-32.666666666666664,-958.0,-11.333333333333334,38.0,-30.666666666666668,0.01363844385681053,0.12670265138149261,0.9171651204427084,-0.01355005552371343,0.036812037229537964,-0.03295374847948551
18:26:04,LOITER,633796.6666666666,-35.36301906666667,149.1656141,49889.666666666664,86.0,106.66666666666667,-25.0,-30.333333333333332,-32.666666666666664,-955.6666666666666,-374.3333333333333,79.33333333333333,18.333333333333332,-0.004810240585356951,0.14984412491321564,0.9103105465571085,-0.37609251340230304,0.07707018808772166,0.017430805795205135
18:26:05,LOITER,633300.0,-35.36301473333334,149.16561836666668,49394.666666666664,-3.6666666666666665,-13.333333333333334,121.33333333333333,0.3333333333333333,53.333333333333336,-874.6666666666666,23.666666666666668,-129.0,-7.333333333333333,-0.0007454577377454067,0.044613221970697246,0.9057697653770447,0.017573684453964233,-0.13148295631011328,-0.008953673920283714
18:26:06,LOITER,632103.3333333334,-35.363015,149.16561683333336,48200.0,-7.0,-11.333333333333334,178.66666666666666,2.6666666666666665,-76.33333333333333,-953.3333333333334,-1763.6666666666667,-32.0,-7.666666666666667,-0.005854906203846137,-0.011346722720190883,0.9046592712402344,-1.7645930846532185,-0.03461954463273287,-0.009786994196474552
18:26:07,LOITER,629733.3333333334,-35.36301556666667,149.16561663333334,45829.333333333336,2.0,10.666666666666666,179.0,-1.3333333333333333,82.66666666666667,-1032.0,1758.0,15.333333333333334,-11.0,0.023164132377132773,-0.010075931747754415,0.9006248911221822,1.7547837098439534,0.013812046498060226,-0.012841764953918755
18:26:08,LOITER,628360.0,-35.363015499999996,149.1656179,44453.0,10.0,11.666666666666666,171.0,-3.0,-1.6666666666666667,-1005.0,-1028.0,18.0,0.3333333333333333,-0.02707756745318572,0.001386817661114037,0.9011517961819967,-1.0337242831786473,0.01639299839735031,-0.0010992020446186264
18:26:09,AUTO,626180.0,-35.36301516666666,149.1656207,42277.666666666664,13.0,3.3333333333333335,152.0,-0.3333333333333333,-23.666666666666668,-1067.3333333333333,602.6666666666666,14.333333333333334,-2.6666666666666665,0.008098496589809656,0.01753443417449792,0.8978024323781332,0.6046576052904129,0.012450265853355328,-0.003562868262330691
18:26:10,AUTO,625276.6666666666,-35.3630151,149.16562186666667,41371.0,13.333333333333334,-7.666666666666667,66.0,-1.3333333333333333,6.666666666666667,-1120.6666666666667,662.3333333333334,-2.6666666666666665,-1.6666666666666667,-0.0009546517042811805,0.016101902971665066,0.8963596622149149,0.6626962721347809,-0.004271286345707874,-0.0035610684814552465
18:26:11,AUTO,625120.0,-35.363015,149.16562253333333,41215.666666666664,13.0,-17.0,-36.666666666666664,-0.6666666666666666,8.333333333333334,-1057.6666666666667,169.0,-0.3333333333333333,-4.666666666666667,-0.012822869854668776,0.011139534103373686,0.8943573633829752,0.16825769220789275,-0.002167226979508996,-0.006112788648655017
18:26:12,AUTO,625520.0,-35.3630148,149.1656225,41615.333333333336,15.0,-19.333333333333332,-71.0,-1.0,2.0,-1041.3333333333333,-8.666666666666666,0.3333333333333333,-2.3333333333333335,-0.010905353197207054,0.008156805920104185,0.8922716577847799,-0.009853859742482504,-0.0018638976228733857,-0.003876431534687678
18:26:13,AUTO,626716.6666666666,-35.363014,149.16562166666665,42809.666666666664,13.666666666666666,-17.666666666666668,-117.66666666666667,-1.6666666666666667,3.3333333333333335,-1037.6666666666667,14.333333333333334,3.3333333333333335,-0.6666666666666666,-6.584753282368183e-05,0.005418027906368176,0.8894482254981995,0.013257583603262901,0.001690145581960678,-0.002449293155223131
18:26:14,AUTO,627713.3333333334,-35.3630133,149.16562100000002,43809.666666666664,9.666666666666666,-13.0,-141.66666666666666,-1.3333333333333333,3.3333333333333335,-1021.6666666666666,41.666666666666664,0.0,0.0,0.014006256436308226,0.0040465169586241245,0.8879772623380026,0.04112959218521913,-0.0024622667503232756,-0.0010641439196964104
18:26:15,AUTO,629606.6666666666,-35.36301343333333,149.16562156666666,45698.333333333336,-23.666666666666668,21.666666666666668,-146.33333333333334,1.0,-4.0,-994.0,-21.333333333333332,21.333333333333332,-24.0,0.06593000267942746,0.003000918834004551,0.8829049070676168,-0.022123765821258228,0.01887607543418805,-0.02517085336148739
18:26:16,AUTO,630730.0,-35.3630152,149.16562403333333,46823.0,-30.333333333333332,27.0,-144.0,2.6666666666666665,-8.333333333333334,-1004.3333333333334,-151.66666666666666,-4.333333333333333,-40.333333333333336,-0.028638207043210667,0.014689130087693533,0.8494777679443359,-0.15325448662042618,-0.006811234789590041,-0.04189664622147878
18:26:17,AUTO,632596.6666666666,-35.36301413333334,149.16562323333332,48689.666666666664,46.666666666666664,-46.0,-139.33333333333334,-6.0,11.333333333333334,-977.6666666666666,-2.3333333333333335,24.333333333333332,48.666666666666664,-0.11172342548767726,0.008427233745654425,0.8254641691843668,-0.0037760001917680106,0.0224250698229298,0.047268472922345005
18:26:18,LOITER,633553.3333333334,-35.3630094,149.16561716666664,49648.0,68.33333333333333,-79.33333333333333,-98.0,-8.0,21.666666666666668,-925.3333333333334,365.0,-82.66666666666667,55.0,0.0354821402579546,-0.0009960570047648314,0.8864579399426779,0.3645193676153819,-0.08555302272240321,0.05426750394205252
18:26:19,LOITER,633793.3333333334,-35.36300593333333,149.16561206666665,49888.666666666664,-17.333333333333332,18.666666666666668,90.33333333333333,1.3333333333333333,70.0,-846.0,1389.6666666666667,41.0,6.0,0.1066484401623408,-0.008917822812994322,0.8884114821751913,1.3872379064559937,0.03935781493782997,0.005525388871319592
18:26:20,LOITER,632753.3333333334,-35.3630072,149.1656141,48844.666666666664,-31.333333333333332,35.666666666666664,175.0,5.333333333333333,18.0,-925.0,-560.0,25.0,7.0,0.006053200612465541,0.015361022825042406,0.8889054656028748,-0.5655989050865173,0.023154372659822304,0.005933568036804597
18:26:21,LOITER,630306.6666666666,-35.36300993333334,149.16561786666668,46401.0,-15.0,10.666666666666666,191.33333333333334,4.333333333333333,-30.666666666666668,-999.6666666666666,550.3333333333334,-2.6666666666666665,-3.0,-0.009560493441919485,0.01738759906341632,0.8867716590563456,0.5534743169943491,-0.005138373856122295,-0.004228054895065725
18:26:22,LOITER,628873.3333333334,-35.36301056666667,149.16561826666668,44970.666666666664,0.0,-6.333333333333333,178.33333333333334,1.3333333333333333,86.0,-1009.3333333333334,993.0,0.0,-2.0,-0.03249192206809918,0.010219482549776634,0.8862246672312418,0.9876560767491659,-0.002305226322884361,-0.0033474350348114967
18:26:23,AUTO,626646.6666666666,-35.3630099,149.16561653333335,42740.333333333336,17.666666666666668,-21.0,163.33333333333334,-2.0,-93.0,-1000.0,-1215.6666666666667,-1.6666666666666667,4.333333333333333,-0.0024214472311238446,-0.000675582637389501,0.8837968905766805,-1.21299014488856,-0.003500063515578707,0.0027217684934536615
18:26:24,AUTO,625606.6666666666,-35.3630092,149.1656155,41697.0,14.333333333333334,-14.0,91.33333333333333,-1.0,-44.666666666666664,-1116.0,-288.6666666666667,9.0,3.0,0.018846880334119003,0.0013837432488799095,0.8849838177363077,-0.28703369076053303,0.007016882533207536,0.0014323010109364986
18:26:25,AUTO,625253.3333333334,-35.36300883333333,149.16561536666669,41345.0,5.0,-3.6666666666666665,-24.333333333333332,0.0,11.0,-1060.3333333333333,145.0,6.666666666666667,2.3333333333333335,0.0040358964664240675,0.006555905255178611,0.8839467366536459,0.1433675835529963,0.004690448831145962,0.0012408824016650517
18:26:26,AUTO,625586.6666666666,-35.36300893333333,149.16561579999998,41679.333333333336,3.3333333333333335,-3.3333333333333335,-61.0,0.0,-5.0,-1040.0,-56.666666666666664,3.6666666666666665,-0.3333333333333333,-0.0010465909872436896,0.00940453571577867,0.8828629652659098,-0.057668025294939675,0.00195454154163599,-0.0015386508118050795
18:26:27,AUTO,626670.0,-35.36300936666667,149.16561656666667,42762.333333333336,2.0,-5.0,-106.33333333333333,0.0,0.0,-1035.3333333333333,18.333333333333332,0.6666666666666666,1.0,0.0005294741131365299,0.007687869016081095,0.8815463582674662,0.017568516234556835,-0.0013543966148669522,0.0002947114019965132
18:26:28,AUTO,627600.0,-35.36300956666667,149.16561683333336,43692.666666666664,1.0,-3.6666666666666665,-132.33333333333334,0.0,0.0,-1031.3333333333333,17.0,0.6666666666666666,0.6666666666666666,0.005902922634656231,0.005647118203341961,0.8807945450146993,0.016716741335888703,-0.0016998824818680684,-0.00026282097678631544
18:26:29,AUTO,629456.6666666666,-35.363010233333334,149.16561786666668,45549.0,-15.666666666666666,16.333333333333332,-146.66666666666666,0.0,-3.3333333333333335,-999.3333333333334,24.333333333333332,11.666666666666666,-17.0,0.05006954694787661,0.0012510087180999108,0.8760412335395813,0.02388795864923547,0.009563697502017021,-0.01852840348146856
18:26:30,AUTO,630596.6666666666,-35.36301183333333,149.16562013333333,46690.333333333336,-34.666666666666664,33.666666666666664,-145.0,3.0,-8.333333333333334,-997.0,-69.66666666666667,4.333333333333333,-36.666666666666664,0.03465864807367325,0.013332497949401537,0.847862720489502,-0.07093646004796028,0.001604052260518074,-0.03874274591604868
18:26:31,AUTO,632486.6666666666,-35.3630137,149.16562296666666,48578.333333333336,17.0,-14.333333333333334,-141.33333333333334,-2.0,1.6666666666666667,-988.0,-86.0,39.333333333333336,44.666666666666664,-0.12761709342400232,0.009753698172668615,0.8070666193962097,-0.08719669282436371,0.036989197911073766,0.043138161301612854
18:26:32,LOITER,633466.6666666666,-35.36301053333333,149.16561893333332,49562.333333333336,58.0,-70.33333333333333,-101.66666666666667,-8.333333333333334,22.0,-927.0,428.6666666666667,-86.66666666666667,84.33333333333333,-0.011099869385361671,0.013148758560419083,0.8786353667577108,0.428621510664622,-0.08960540344317754,0.08322589534024398
18:26:33,LOITER,633826.6666666666,-35.36300693333333,149.16561303333333,49920.333333333336,-9.0,8.0,78.33333333333333,0.0,70.66666666666667,-823.0,701.0,40.666666666666664,4.333333333333333,0.08899808799227078,-0.015000763038794199,0.8816707730293274,0.696400115887324,0.0385611467063427,0.00278729060664773
18:26:34,LOITER,632856.6666666666,-35.3630075,149.1656141666667,48950.333333333336,-24.333333333333332,29.333333333333332,169.66666666666666,2.0,-66.33333333333333,-919.6666666666666,-1627.0,19.666666666666668,5.666666666666667,0.018335950871308643,0.00811769145851334,0.8831246296564738,-1.6290031274159749,0.017543016622463863,0.004392144658292334
18:26:35,LOITER,630440.0,-35.36300956666667,149.16561746666665,46536.0,-22.0,19.0,193.0,1.3333333333333333,78.0,-1022.3333333333334,1872.0,1.6666666666666667,7.333333333333333,0.008944690227508545,0.016784150153398514,0.8828911185264587,1.8707763353983562,-0.0005841474048793316,0.006410052495387693
18:26:36,LOITER,628983.3333333334,-35.36301003333333,149.16561803333332,45078.0,-8.0,0.6666666666666666,184.33333333333334,-3.0,63.666666666666664,-1001.0,104.33333333333333,0.3333333333333333,-14.333333333333334,-0.03719938235978285,0.0102844323652486,0.8804701566696167,0.09832136829694112,-0.002124408803259333,-0.016661041416227818
18:26:37,AUTO,626713.3333333334,-35.36300883333334,149.16561613333332,42810.666666666664,2.6666666666666665,-9.666666666666666,167.0,-1.3333333333333333,-20.0,-1018.6666666666666,585.6666666666666,-0.3333333333333333,2.0,0.03986415701607863,0.0007860331485668818,0.8810916145642599,0.5885977645715078,-0.002978773321956396,0.0002555671768883864
18:26:38,AUTO,625603.3333333334,-35.3630079,149.16561493333333,41696.333333333336,-3.6666666666666665,-1.0,103.66666666666667,-2.6666666666666665,51.0,-1136.0,1224.6666666666667,8.666666666666666,5.333333333333333,0.04460247481862704,0.0015124648343771696,0.8800466060638428,1.2239120801289876,0.006642787018790841,0.0036644736925760904
18:26:39,AUTO,625133.3333333334,-35.3630072,149.16561443333333,41227.666666666664,-12.333333333333334,8.0,-19.0,0.0,-3.6666666666666665,-1067.0,-181.33333333333334,6.333333333333333,1.6666666666666667,0.01899396814405918,0.007150035041073958,0.8799100120862325,-0.18383618692557016,0.004193711948270599,-5.7070283219218254e-05
18:26:40,AUTO,625426.6666666666,-35.363007366666665,149.1656148,41519.666666666664,-15.0,10.0,-57.0,1.0,-6.666666666666667,-1042.6666666666667,-30.0,4.0,0.3333333333333333,0.01541900976250569,0.009205749568839868,0.8793083826700846,-0.03187839935223261,0.0019707917235791683,-0.001745266296590368
18:26:41,AUTO,626460.0,-35.3630082,149.16561579999998,42552.333333333336,-12.666666666666666,6.666666666666667,-104.0,1.0,-2.6666666666666665,-1036.3333333333333,-2.6666666666666665,0.6666666666666666,3.0,0.008574065131445726,0.00835120522727569,0.8784079551696777,-0.004770917507509391,-0.00152197297817717,0.0014405032464613516
18:26:42,AUTO,627363.3333333334,-35.36300873333333,149.16561629999998,43457.666666666664,-11.333333333333334,6.0,-130.66666666666666,1.0,-2.0,-1034.0,2.3333333333333335,0.3333333333333333,0.0,0.008133016061037779,0.00690441516538461,0.8778815070788065,0.0004849017908175786,-0.0024492994028454027,-0.0015912174324815471
18:26:43,AUTO,629206.6666666666,-35.363009966666674,149.16561776666666,45300.333333333336,-20.333333333333332,21.333333333333332,-147.0,1.0,-4.333333333333333,-999.6666666666666,31.0,-0.6666666666666666,-6.333333333333333,0.04676234225432078,-0.002895018299265454,0.8747975826263428,0.029866403279205162,-0.0035116405536731086,-0.008134222744653622
18:26:44,LOITER,630346.6666666666,-35.363011633333336,149.16562050000002,46441.333333333336,-34.666666666666664,39.0,-144.0,3.0,-11.666666666666666,-995.3333333333334,-148.66666666666666,45.333333333333336,-83.33333333333333,0.02181592459479968,0.017073276297499735,0.8391380508740743,-0.15106034837663174,0.043282587081193924,-0.08605640629927318
18:26:45,LOITER,631936.6666666666,-35.363012133333335,149.16562056666666,48031.333333333336,41.666666666666664,-60.666666666666664,-58.333333333333336,-3.3333333333333335,13.333333333333334,-839.0,281.3333333333333,-70.66666666666667,87.0,-0.11454836154977481,0.02449789612243573,0.8702117602030436,0.27982185781002045,-0.07386152880887191,0.08538141970833142
18:26:46,LOITER,631930.0,-35.363009,149.165615,48026.333333333336,41.333333333333336,-58.333333333333336,72.0,-5.333333333333333,9.666666666666666,-810.3333333333334,511.3333333333333,-32.333333333333336,-8.0,0.08350986118117969,-0.02701376937329769,0.8830497662226359,0.5115590989589691,-0.03551788286616405,-0.010630428713435927
18:26:47,LOITER,629923.3333333334,-35.36300753333334,149.16561266666668,46018.666666666664,-20.0,30.0,204.33333333333334,1.6666666666666667,59.333333333333336,-991.3333333333334,373.0,38.333333333333336,3.6666666666666665,0.07747668772935867,-0.005973039660602808,0.8809327880541483,0.3662658582131068,0.036234172681967415,0.001819758986433347
18:26:48,LOITER,628396.6666666666,-35.363009266666666,149.16561596666668,44489.333333333336,-32.333333333333336,45.333333333333336,192.0,3.6666666666666665,-96.66666666666667,-1028.6666666666667,-1781.6666666666667,13.666666666666666,-6.0,0.003225603242754005,0.013040702479581038,0.8795578877131144,-1.7821497917175293,0.011338861659169197,-0.008737648216386637
18:26:49,AUTO,626076.6666666666,-35.3630115,149.16562036666667,42169.333333333336,-21.333333333333332,22.333333333333332,167.0,1.3333333333333333,74.66666666666667,-1059.6666666666667,1807.3333333333333,-9.666666666666666,3.6666666666666665,0.016076423072566588,0.01588259047518174,0.8818694154421488,1.8046211401621501,-0.012961211614310741,0.0012271776795387268
18:26:50,AUTO,624986.6666666666,-35.363012,149.16562126666668,41081.0,-14.0,10.666666666666666,97.66666666666667,1.0,46.0,-1129.3333333333333,299.0,-2.3333333333333335,11.0,-0.006451022423182924,0.010246957652270794,0.8802614410718282,0.29394152263800305,-0.005294527315224211,0.009110524707163373
18:26:51,AUTO,624583.3333333334,-35.36301266666667,149.16562203333334,40675.333333333336,-5.0,1.0,-21.333333333333332,1.0,-17.0,-1061.3333333333333,-252.66666666666666,2.6666666666666665,0.0,-0.003869523682321111,0.00868657665948073,0.8798874616622925,-0.2547856817642848,0.00029528300122668344,-0.0013697566852594416
18:26:52,AUTO,624890.0,-35.36301316666667,149.16562256666668,40985.0,-0.3333333333333333,-2.3333333333333335,-59.666666666666664,1.6666666666666667,-3.0,-1043.0,54.666666666666664,1.0,0.6666666666666666,-0.006893283687531948,0.008932943145434061,0.8793428937594095,0.0529525193075339,-0.0010892919187123578,-0.0014707761971900861
18:26:53,AUTO,625960.0,-35.3630138,149.1656232,42054.666666666664,9.0,-11.666666666666666,-107.0,0.0,-2.0,-1037.0,-11.333333333333334,1.3333333333333333,2.3333333333333335,-0.013732378681500753,0.008012438969065746,0.8781522909800211,-0.01329144835472107,-0.0011276643878469865,0.0005989027364800373
18:26:54,AUTO,626893.3333333334,-35.36301386666667,149.16562306666665,42988.0,13.0,-15.666666666666666,-134.0,0.0,0.0,-1031.6666666666667,12.333333333333334,-0.6666666666666666,1.6666666666666667,-0.009489159565418959,0.006305813944588105,0.8774109482765198,0.011008941180383166,-0.003660184176017841,-0.0003411351547886928
18:26:55,AUTO,628750.0,-35.36301396666667,149.16562293333334,44843.333333333336,-2.6666666666666665,2.6666666666666665,-148.0,0.0,-1.3333333333333333,-1000.3333333333334,47.333333333333336,-5.333333333333333,4.666666666666667,0.04701505477229754,-0.002037404590131094,0.8773616949717203,0.046277965108553566,-0.008977939995626608,0.003024748914564649
18:26:56,AUTO,629896.6666666666,-35.3630153,149.16562476666667,45990.666666666664,-22.333333333333332,23.0,-144.66666666666666,2.3333333333333335,-7.0,-995.6666666666666,-143.66666666666666,33.333333333333336,-58.666666666666664,0.014637049287557602,0.012983975854391852,0.8512006203333536,-0.14565403511126837,0.03072035623093446,-0.06143948311607043
18:26:57,AUTO,631780.0,-35.363015999999995,149.16562566666667,47877.666666666664,27.666666666666668,-28.333333333333332,-145.66666666666666,-2.6666666666666665,4.333333333333333,-997.6666666666666,-5.0,-1.3333333333333333,-7.666666666666667,-0.07720370093981425,0.0039986421664555865,0.8107915918032328,-0.006541663159926732,-0.004152746172621846,-0.010222453313569227
18:26:58,AUTO,632886.6666666666,-35.3630128,149.16562173333332,48981.0,67.0,-72.0,-132.0,-10.0,16.666666666666668,-961.0,80.33333333333333,16.666666666666668,106.66666666666667,-0.08784731850028038,0.009792021941393614,0.8327268560727438,0.07912677029768626,0.013790269770349065,0.10488881108661492
18:26:59,AUTO,634116.6666666666,-35.3630056,149.16561143333334,50213.0,29.333333333333332,-36.333333333333336,-48.666666666666664,-5.666666666666667,11.333333333333334,-935.0,40.0,8.0,-8.666666666666666,0.12378971527020137,-0.027573203667998314,0.8853220343589783,0.038881540298461914,0.005588285314540069,-0.011255140571544567
18:27:00,AUTO,634330.0,-35.3630048,149.16561056666666,50426.666666666664,-17.0,22.333333333333332,-4.0,0.3333333333333333,-2.6666666666666665,-952.3333333333334,32.666666666666664,34.666666666666664,0.3333333333333333,0.09722504764795303,-0.008618859748821706,0.881952166557312,0.03151751744250456,0.032281190156936646,-0.0022463783777008453
18:27:01,AUTO,634120.0,-35.363007700000004,149.16561566666667,50214.666666666664,-39.333333333333336,43.666666666666664,24.333333333333332,4.333333333333333,0.0,-1006.0,-211.0,12.666666666666666,2.6666666666666665,0.0021542737182850638,0.019072573632001877,0.8825022975603739,-0.21447221438090006,0.010374007746577263,0.0008111459901556373
18:27:02,AUTO,633973.3333333334,-35.36300966666666,149.1656184666667,50069.333333333336,-30.666666666666668,28.0,12.0,4.0,2.6666666666666665,-1013.6666666666666,437.0,-3.6666666666666665,1.3333333333333333,-7.956735013673703e-05,0.018083980306982994,0.8822619716326395,0.4366071547071139,-0.007109786616638303,-0.0005229987824956576
18:27:03,AUTO,633890.0,-35.36301186666667,149.16562080000003,49985.0,-17.333333333333332,14.0,1.6666666666666667,2.3333333333333335,15.333333333333334,-999.3333333333334,234.33333333333334,-3.0,2.0,0.011108794482424855,0.0037708690700431666,0.8815004626909891,0.23111884792645773,-0.006089688433955113,-9.330400886634986e-05
18:27:04,AUTO,633863.3333333334,-35.363012966666666,149.16562216666668,49959.0,-13.0,14.333333333333334,1.6666666666666667,2.3333333333333335,-24.333333333333332,-996.6666666666666,-144.33333333333334,13.666666666666666,-1.0,0.002606991988917192,0.007601544726639986,0.8805672923723856,-0.14457127948602042,0.011125178076326847,-0.0036927793019761643
18:27:05,LOITER,633823.3333333334,-35.363014,149.1656237,49920.333333333336,-0.3333333333333333,-0.3333333333333333,8.0,0.3333333333333333,20.0,-956.0,524.3333333333334,5.666666666666667,5.0,-0.004796637532611688,0.011003128563364347,0.8801268935203552,0.5227091709772745,0.0031921719200909138,0.003196900555243095
18:27:06,LOITER,633466.6666666666,-35.3630142,149.165624,49559.333333333336,3.0,-5.333333333333333,101.0,1.0,-0.6666666666666666,-839.3333333333334,849.6666666666666,-1.3333333333333333,-3.3333333333333335,0.021668564217785995,0.009086909083028635,0.8796529968579611,0.8512416929006577,-0.0050306799821555614,-0.005801991792395711
18:27:07,LOITER,631436.6666666666,-35.3630144,149.165624,47530.666666666664,0.3333333333333333,-3.3333333333333335,183.66666666666666,-1.0,1.6666666666666667,-988.6666666666666,-1133.6666666666667,0.3333333333333333,4.666666666666667,-0.021898878117402393,0.004482880001887679,0.8784910241762797,-1.1387604027986526,-0.002694750049461921,0.001771158693979184
18:27:08,LOITER,630020.0,-35.36301433333333,149.16562389999999,46114.666666666664,3.3333333333333335,-5.666666666666667,181.0,-2.6666666666666665,-77.0,-1003.0,-740.3333333333334,7.333333333333333,18.333333333333332,0.007502282969653606,0.003854556707665324,0.8789820472399393,-0.7379899223645529,0.005028691220407684,0.01650749488423268
18:27:09,LOITER,627743.3333333334,-35.36301376666666,149.1656234,43840.0,-2.0,0.3333333333333333,174.33333333333334,-1.0,55.333333333333336,-992.6666666666666,38.0,11.333333333333334,0.0,0.00024515308905392885,0.0064059098561604815,0.8777727484703064,0.03152793335417906,0.008645624543229738,-0.002658054232597351
