time_stamp,MODE,lat,lon,relative_alt,roll,pitch,yaw,rollspeed,pitchspeed,yawspeed,xacc,yacc,zacc,xgyro,ygyro,zgyro,vx,vy,vz,RTL_ALT
13:19:01.225,STABILIZE,-35.3632621,149.1652374,0,-0.0006220476352609694,0.001426156610250473,0.02835194207727909,0.00029330828692764044,0.00027332629542797804,0.002481426578015089,0,1,-1000,0,1,0,0,0,2,293302.0
13:19:01.426,STABILIZE,-35.3632621,149.1652374,0,-0.0006220476352609694,0.001426156610250473,0.02835194207727909,0.00029330828692764044,0.00027332629542797804,0.002481426578015089,0,1,-1000,0,1,0,0,0,2,293302.0
13:19:01.626,STABILIZE,-35.3632621,149.1652374,0,-0.0006220476352609694,0.001426156610250473,0.02835194207727909,0.00029330828692764044,0.00027332629542797804,0.002481426578015089,0,1,-1000,0,1,0,0,0,2,293302.0
13:19:01.827,STABILIZE,-35.3632621,149.1652374,0,-0.0006220476352609694,0.001426156610250473,0.02835194207727909,0.00029330828692764044,0.00027332629542797804,0.002481426578015089,0,1,-1000,0,1,0,0,0,2,293302.0
13:19:02.028,STABILIZE,-35.3632621,149.1652374,0,-0.00033395070931874216,0.0015958368312567472,0.02720986120402813,0.00017451361054554582,0.000258829677477479,0.002311910269781947,0,1,-1000,0,1,0,-2,1,0,293302.0
13:19:02.229,STABILIZE,-35.3632621,149.1652374,0,-0.00033395070931874216,0.0015958368312567472,0.02720986120402813,0.00017451361054554582,0.000258829677477479,0.002311910269781947,0,1,-1000,0,1,0,-2,1,0,293302.0
13:19:02.430,STABILIZE,-35.3632621,149.1652374,0,-0.00039094474050216377,0.0015398829709738493,0.02707058936357498,0.00015989248640835285,0.0002161971351597458,0.002144760452210903,0,1,-1000,0,0,0,-2,1,0,293302.0
13:19:02.632,STABILIZE,-35.3632622,149.1652374,0,-0.000434254965512082,0.0015053448732942343,0.026928678154945374,0.00023081828840076923,0.00037960687768645585,0.0023540102411061525,0,1,-1000,1,0,0,-2,1,0,293302.0
13:19:02.833,STABILIZE,-35.3632622,149.1652374,0,-0.000434254965512082,0.0015053448732942343,0.026928678154945374,0.00023081828840076923,0.00037960687768645585,0.0023540102411061525,0,1,-1000,1,0,0,-2,1,0,293302.0
13:19:03.034,STABILIZE,-35.3632622,149.1652374,0,-0.000434254965512082,0.0015053448732942343,0.026928678154945374,0.00023081828840076923,0.00037960687768645585,0.0023540102411061525,0,1,-1000,0,0,0,-2,1,0,293302.0
13:19:03.236,STABILIZE,-35.3632622,149.1652374,0,-0.000434254965512082,0.0015053448732942343,0.026928678154945374,0.00023081828840076923,0.00037960687768645585,0.0023540102411061525,0,1,-1000,0,0,0,-2,1,0,293302.0
13:19:03.437,STABILIZE,-35.3632622,149.1652374,0,-0.000434254965512082,0.0015053448732942343,0.026928678154945374,0.00023081828840076923,0.00037960687768645585,0.0023540102411061525,0,1,-1000,0,0,0,-2,1,0,293302.0
13:19:03.638,STABILIZE,-35.3632622,149.1652374,0,-0.000434254965512082,0.0015053448732942343,0.026928678154945374,0.00023081828840076923,0.00037960687768645585,0.0023540102411061525,0,1,-1000,0,0,0,-2,1,0,293302.0
13:19:03.840,STABILIZE,-35.3632622,149.1652374,0,-0.0007115558255463839,0.0012402374995872378,0.026281246915459633,0.00011744879884645343,0.00017933480557985604,0.0021677876356989145,0,1,-1000,0,0,0,-1,1,0,293302.0
13:19:04.041,STABILIZE,-35.3632622,149.1652374,0,-0.0007115558255463839,0.0012402374995872378,0.026281246915459633,0.00011744879884645343,0.00017933480557985604,0.0021677876356989145,0,1,-1000,0,0,0,-1,1,0,293302.0
13:19:04.244,STABILIZE,-35.3632622,149.1652374,0,-0.0007634449284523726,0.0011902720434591174,0.026185883209109306,0.00020782725187018514,0.00018006746540777385,0.0021695359610021114,0,1,-1000,0,0,0,-1,1,0,293302.0
13:19:04.445,STABILIZE,-35.3632622,149.1652374,0,-0.0007634449284523726,0.0011902720434591174,0.026185883209109306,0.00020782725187018514,0.00018006746540777385,0.0021695359610021114,0,2,-999,0,0,0,-1,1,0,293302.0
13:19:04.646,STABILIZE,-35.3632622,149.1652374,0,-0.0007634449284523726,0.0011902720434591174,0.026185883209109306,0.00020782725187018514,0.00018006746540777385,0.0021695359610021114,0,2,-999,0,0,0,-1,1,0,293302.0
13:19:04.848,STABILIZE,-35.3632622,149.1652374,0,-0.000700052420143038,0.0010778724681586027,0.02585032768547535,0.00014536513481289148,0.00033072024234570563,0.0019640557002276182,0,2,-999,0,0,0,-1,0,-2,293302.0
13:19:05.049,STABILIZE,-35.3632622,149.1652374,0,-0.0006947976071387529,0.0010530948638916016,0.025750119239091873,0.00023957446683198214,0.00019585707923397422,0.002108410932123661,0,2,-999,0,0,0,-1,0,-2,293302.0
13:19:05.251,STABILIZE,-35.3632622,149.1652374,0,-0.0006947976071387529,0.0010530948638916016,0.025750119239091873,0.00023957446683198214,0.00019585707923397422,0.002108410932123661,0,2,-999,0,0,0,-1,0,-2,293302.0
13:19:05.452,STABILIZE,-35.3632622,149.1652374,0,-0.0006947976071387529,0.0010530948638916016,0.025750119239091873,0.00023957446683198214,0.00019585707923397422,0.002108410932123661,0,2,-999,0,0,0,-1,0,-2,293302.0
13:19:05.654,STABILIZE,-35.3632622,149.1652374,0,-0.0006947976071387529,0.0010530948638916016,0.025750119239091873,0.00023957446683198214,0.00019585707923397422,0.002108410932123661,0,2,-999,0,0,0,-1,0,-2,293302.0
13:19:05.855,STABILIZE,-35.3632621,149.1652374,0,-0.0006992370472289622,0.0009861377766355872,0.0254424586892128,0.00017842481611296535,0.00034989771666005254,0.001945538679137826,0,1,-1000,0,0,0,-1,0,-2,293302.0
13:19:06.056,STABILIZE,-35.3632621,149.1652374,0,-0.0006992370472289622,0.0009861377766355872,0.0254424586892128,0.00017842481611296535,0.00034989771666005254,0.001945538679137826,0,1,-1000,0,1,0,-1,0,-2,293302.0
13:19:06.257,STABILIZE,-35.3632621,149.1652374,0,-0.0006992370472289622,0.0009861377766355872,0.0254424586892128,0.00017842481611296535,0.00034989771666005254,0.001945538679137826,0,1,-1000,0,1,0,-1,0,-2,293302.0
13:19:06.459,STABILIZE,-35.3632621,149.1652374,0,-0.0006992370472289622,0.0009861377766355872,0.0254424586892128,0.00017842481611296535,0.00034989771666005254,0.001945538679137826,0,1,-1000,0,1,0,-1,0,-2,293302.0
13:19:06.660,STABILIZE,-35.3632621,149.1652374,0,-0.0006992370472289622,0.0009861377766355872,0.0254424586892128,0.00017842481611296535,0.00034989771666005254,0.001945538679137826,0,1,-1000,0,0,0,-1,1,-1,293302.0
13:19:06.861,STABILIZE,-35.3632621,149.1652374,0,-0.0007541986997239292,0.0009660017094574869,0.02503701113164425,0.00022353557869791985,0.0003129856486339122,0.001970160286873579,0,1,-1000,0,0,0,-1,1,-1,293302.0
13:19:07.062,STABILIZE,-35.3632621,149.1652374,0,-0.0007765647605992854,0.000970562337897718,0.024933181703090668,0.00018872926011681557,0.00019198859808966517,0.0019694920629262924,0,1,-1000,0,0,0,-1,1,-1,293302.0
13:19:07.264,STABILIZE,-35.3632621,149.1652374,0,-0.0007765647605992854,0.000970562337897718,0.024933181703090668,0.00018872926011681557,0.00019198859808966517,0.0019694920629262924,0,1,-1000,0,0,0,-1,1,-1,293302.0
13:19:07.465,STABILIZE,-35.3632621,149.1652374,0,-0.0007765647605992854,0.000970562337897718,0.024933181703090668,0.00018872926011681557,0.00019198859808966517,0.0019694920629262924,0,1,-1000,0,0,0,-1,1,-1,293302.0
13:19:07.666,STABILIZE,-35.3632621,149.1652374,0,-0.0007765647605992854,0.000970562337897718,0.024933181703090668,0.00018872926011681557,0.00019198859808966517,0.0019694920629262924,0,1,-1000,0,0,0,-1,1,-1,293302.0
13:19:07.867,STABILIZE,-35.3632621,149.1652374,0,-0.0006807843456044793,0.000942853803280741,0.02465599961578846,0.0001411006087437272,0.0001309470972046256,0.0018236718606203794,0,1,-1000,0,0,0,-1,1,-1,293302.0
13:19:08.069,STABILIZE,-35.3632621,149.1652374,0,-0.0007052906439639628,0.000947656633798033,0.024565795436501503,0.00016858818707987666,0.0003492124960757792,0.001826284802518785,0,1,-1000,0,0,0,-1,1,-1,293302.0
13:19:08.270,STABILIZE,-35.3632621,149.1652374,0,-0.0007052906439639628,0.000947656633798033,0.024565795436501503,0.00016858818707987666,0.0003492124960757792,0.001826284802518785,0,1,-1000,0,0,0,-1,1,-1,293302.0
13:19:08.471,STABILIZE,-35.3632621,149.1652374,0,-0.0007052906439639628,0.000947656633798033,0.024565795436501503,0.00016858818707987666,0.0003492124960757792,0.001826284802518785,0,1,-1000,0,0,0,-1,1,-1,293302.0
13:19:08.673,STABILIZE,-35.3632621,149.1652374,0,-0.0007428515236824751,0.0009345753351226449,0.024369828402996063,0.00024542701430618763,0.00021316332276910543,0.001836865209043026,0,1,-1000,1,0,0,-1,1,-1,293302.0
13:19:08.874,STABILIZE,-35.3632621,149.1652374,0,-0.0007428515236824751,0.0009345753351226449,0.024369828402996063,0.00024542701430618763,0.00021316332276910543,0.001836865209043026,0,1,-1000,1,0,0,-1,1,-1,293302.0
13:19:09.075,STABILIZE,-35.3632621,149.1652375,0,-0.000757428992073983,0.0009492772514931858,0.024201488122344017,0.0002230716636404395,0.00033123954199254513,0.0016712485812604427,0,1,-1000,0,0,0,-1,1,-1,293302.0
13:19:09.277,STABILIZE,-35.3632621,149.1652375,0,-0.000757428992073983,0.0009492772514931858,0.024201488122344017,0.0002230716636404395,0.00033123954199254513,0.0016712485812604427,0,1,-1000,0,0,0,-1,1,-1,293302.0
13:19:09.478,STABILIZE,-35.3632621,149.1652375,0,-0.000757428992073983,0.0009492772514931858,0.024201488122344017,0.0002230716636404395,0.00033123954199254513,0.0016712485812604427,0,1,-1000,0,0,0,-1,1,-1,293302.0
13:19:09.680,STABILIZE,-35.3632621,149.1652375,0,-0.000757428992073983,0.0009492772514931858,0.024201488122344017,0.0002230716636404395,0.00033123954199254513,0.0016712485812604427,0,1,-1000,0,0,0,-1,1,-1,293302.0
13:19:09.881,STABILIZE,-35.3632621,149.1652375,0,-0.0008361621876247227,0.0009558516903780401,0.023919379338622093,8.566188625991344e-05,0.00019945879466831684,0.0017379163764417171,0,2,-1000,0,0,0,-1,1,-1,293302.0
13:19:10.083,STABILIZE,-35.3632621,149.1652375,0,-0.0008361621876247227,0.0009558516903780401,0.023919379338622093,8.566188625991344e-05,0.00019945879466831684,0.0017379163764417171,0,2,-1000,0,0,0,-1,1,-1,293302.0
13:19:10.284,STABILIZE,-35.3632621,149.1652375,0,-0.0008361621876247227,0.0009558516903780401,0.023919379338622093,8.566188625991344e-05,0.00019945879466831684,0.0017379163764417171,0,2,-1000,0,0,0,-1,1,-1,293302.0
13:19:10.486,STABILIZE,-35.3632621,149.1652375,0,-0.0008765903767198324,0.0009629399864934385,0.023749837651848793,0.00014077225932851434,0.0003070555394515395,0.0017716061556711793,0,1,-1000,0,0,0,-1,1,-1,293302.0
13:19:10.687,STABILIZE,-35.3632621,149.1652375,0,-0.0008765903767198324,0.0009629399864934385,0.023749837651848793,0.00014077225932851434,0.0003070555394515395,0.0017716061556711793,0,1,-1000,0,0,0,-1,1,-1,293302.0
13:19:10.888,STABILIZE,-35.3632622,149.1652375,0,-0.0009241579100489616,0.0009635661845095456,0.023595180362462997,0.0003008091007359326,0.00026843807427212596,0.0015847072936594486,0,1,-1000,0,0,0,-1,1,0,293302.0
13:19:11.090,STABILIZE,-35.3632622,149.1652375,0,-0.0009423241135664284,0.0009641334763728082,0.023505546152591705,0.00017630646470934153,0.00020737340673804283,0.001612191554158926,0,1,-1000,0,0,0,-1,1,0,293302.0
13:19:11.292,STABILIZE,-35.3632622,149.1652375,0,-0.0009423241135664284,0.0009641334763728082,0.023505546152591705,0.00017630646470934153,0.00020737340673804283,0.001612191554158926,0,1,-1000,0,0,0,-1,1,0,293302.0
13:19:11.493,STABILIZE,-35.3632622,149.1652375,0,-0.0009423241135664284,0.0009641334763728082,0.023505546152591705,0.00017630646470934153,0.00020737340673804283,0.001612191554158926,0,1,-1000,0,0,0,-1,1,0,293302.0
13:19:11.695,STABILIZE,-35.3632622,149.1652375,0,-0.0009423241135664284,0.0009641334763728082,0.023505546152591705,0.00017630646470934153,0.00020737340673804283,0.001612191554158926,0,1,-1000,0,0,0,-1,1,0,293302.0
13:19:11.896,STABILIZE,-35.3632622,149.1652377,0,-0.0005172696546651423,0.0009673553286120296,0.023219797760248184,0.00013652187772095203,0.0003536659060046077,0.0017815660685300827,0,1,-1000,1,0,0,-1,5,5,293302.0
13:19:12.097,STABILIZE,-35.3632622,149.1652377,0,-0.0006662699161097407,0.0009673464228399098,0.023124128580093384,0.00025722815189510584,0.0002194834523834288,0.001722658984363079,0,1,-1000,1,0,0,-1,5,5,293302.0
13:19:12.299,STABILIZE,-35.3632622,149.1652377,0,-0.0008217255817726254,0.0009674554457888007,0.023034587502479553,0.0002021335531026125,0.00012302282266318798,0.0016753762029111385,0,1,-1000,1,0,0,-1,4,4,293302.0
13:19:12.500,STABILIZE,-35.3632622,149.1652377,0,-0.0008217255817726254,0.0009674554457888007,0.023034587502479553,0.0002021335531026125,0.00012302282266318798,0.0016753762029111385,0,1,-1000,1,0,0,-1,4,4,293302.0
13:19:12.701,STABILIZE,-35.3632622,149.1652377,0,-0.0008217255817726254,0.0009674554457888007,0.023034587502479553,0.0002021335531026125,0.00012302282266318798,0.0016753762029111385,0,1,-1000,1,0,0,-1,4,4,293302.0
13:19:12.902,STABILIZE,-35.3632622,149.1652377,0,-0.0008217255817726254,0.0009674554457888007,0.023034587502479553,0.0002021335531026125,0.00012302282266318798,0.0016753762029111385,0,1,-1000,1,0,0,-1,4,4,293302.0
13:19:13.104,STABILIZE,-35.3632622,149.1652377,0,-0.0008217255817726254,0.0009674554457888007,0.023034587502479553,0.0002021335531026125,0.00012302282266318798,0.0016753762029111385,0,1,-1000,1,0,0,-1,4,4,293302.0
13:19:13.309,STABILIZE,-35.3632622,149.1652377,0,-0.0008217255817726254,0.0009674554457888007,0.023034587502479553,0.0002021335531026125,0.00012302282266318798,0.0016753762029111385,0,1,-1000,1,0,0,-1,4,4,293302.0
13:19:13.510,STABILIZE,-35.3632622,149.1652377,0,-0.0008217255817726254,0.0009674554457888007,0.023034587502479553,0.0002021335531026125,0.00012302282266318798,0.0016753762029111385,0,1,-1000,1,0,0,-1,4,4,293302.0
13:19:13.712,STABILIZE,-35.3632622,149.1652377,0,-0.0008217255817726254,0.0009674554457888007,0.023034587502479553,0.0002021335531026125,0.00012302282266318798,0.0016753762029111385,0,1,-1000,1,0,0,-1,4,4,293302.0
13:19:13.913,STABILIZE,-35.3632622,149.1652377,0,-0.0008217255817726254,0.0009674554457888007,0.023034587502479553,0.0002021335531026125,0.00012302282266318798,0.0016753762029111385,0,1,-1000,1,0,0,-1,4,4,293302.0
13:19:14.114,STABILIZE,-35.3632622,149.1652377,0,-0.0008217255817726254,0.0009674554457888007,0.023034587502479553,0.0002021335531026125,0.00012302282266318798,0.0016753762029111385,0,1,-1000,0,0,0,-1,4,4,293302.0
13:19:14.315,STABILIZE,-35.3632622,149.1652377,0,-0.0008217255817726254,0.0009674554457888007,0.023034587502479553,0.0002021335531026125,0.00012302282266318798,0.0016753762029111385,0,1,-1000,0,0,0,-1,4,4,293302.0
13:19:14.516,STABILIZE,-35.3632622,149.1652377,0,-0.0008217255817726254,0.0009674554457888007,0.023034587502479553,0.0002021335531026125,0.00012302282266318798,0.0016753762029111385,0,1,-1000,0,0,0,-1,4,4,293302.0
13:19:14.717,STABILIZE,-35.3632622,149.1652376,0,-0.0016596297500655055,0.0009732105536386371,0.022537361830472946,0.00017569289775565267,0.00027796794893220067,0.0017197198467329144,0,1,-1000,1,0,0,-1,1,1,293302.0
13:19:14.918,STABILIZE,-35.3632622,149.1652376,0,-0.0016596297500655055,0.0009732105536386371,0.022537361830472946,0.00017569289775565267,0.00027796794893220067,0.0017197198467329144,0,1,-1000,0,0,0,-1,1,1,293302.0
13:19:15.120,STABILIZE,-35.3632622,149.1652376,0,-0.0016596297500655055,0.0009732105536386371,0.022537361830472946,0.00017569289775565267,0.00027796794893220067,0.0017197198467329144,0,1,-1000,0,0,0,-1,1,1,293302.0
13:19:15.321,STABILIZE,-35.3632622,149.1652376,0,-0.0016596297500655055,0.0009732105536386371,0.022537361830472946,0.00017569289775565267,0.00027796794893220067,0.0017197198467329144,0,1,-1000,0,0,0,-1,1,1,293302.0
13:19:15.522,STABILIZE,-35.3632622,149.1652376,0,-0.0016596297500655055,0.0009732105536386371,0.022537361830472946,0.00017569289775565267,0.00027796794893220067,0.0017197198467329144,0,1,-1000,0,0,0,-1,1,1,293302.0
13:19:15.723,STABILIZE,-35.3632622,149.1652376,0,-0.0016596297500655055,0.0009732105536386371,0.022537361830472946,0.00017569289775565267,0.00027796794893220067,0.0017197198467329144,0,1,-1000,0,0,0,-1,1,1,293302.0
13:19:15.924,STABILIZE,-35.3632622,149.1652375,0,-0.0016450010007247329,0.0009776975493878126,0.022425465285778046,0.00012748641893267632,0.00021562690380960703,0.0015664200764149427,0,1,-1000,0,0,0,-1,0,0,293302.0
13:19:16.126,STABILIZE,-35.3632622,149.1652375,0,-0.0016450010007247329,0.0009776975493878126,0.022425465285778046,0.00012748641893267632,0.00021562690380960703,0.0015664200764149427,0,1,-1000,0,0,0,-1,0,0,293302.0
13:19:16.327,STABILIZE,-35.3632622,149.1652375,0,-0.0016450010007247329,0.0009776975493878126,0.022425465285778046,0.00012748641893267632,0.00021562690380960703,0.0015664200764149427,0,2,-1000,0,1,1,-1,0,0,293302.0
13:19:16.528,STABILIZE,-35.3632622,149.1652375,0,-0.0016450010007247329,0.0009776975493878126,0.022425465285778046,0.00012748641893267632,0.00021562690380960703,0.0015664200764149427,0,2,-1000,0,1,1,-1,0,0,293302.0
13:19:16.729,STABILIZE,-35.3632622,149.1652375,0,-0.0015556601574644446,0.0009932812536135316,0.022350523620843887,0.00030196545412763953,0.00019565632101148367,0.0015622929204255342,0,2,-1000,0,1,1,-1,0,0,293302.0
13:19:16.930,STABILIZE,-35.3632622,149.1652375,0,-0.0015556601574644446,0.0009932812536135316,0.022350523620843887,0.00030196545412763953,0.00019565632101148367,0.0015622929204255342,0,2,-1000,0,1,1,-1,0,0,293302.0
13:19:17.131,STABILIZE,-35.3632622,149.1652375,0,-0.0015556601574644446,0.0009932812536135316,0.022350523620843887,0.00030196545412763953,0.00019565632101148367,0.0015622929204255342,0,2,-1000,0,1,1,-1,0,0,293302.0
13:19:17.333,AUTO,-35.3632622,149.1652375,0,-0.0015556601574644446,0.0009932812536135316,0.022350523620843887,0.00030196545412763953,0.00019565632101148367,0.0015622929204255342,0,2,-1000,0,1,1,-1,0,0,293302.0
13:19:17.535,AUTO,-35.3632622,149.1652375,0,-0.0015556601574644446,0.0009932812536135316,0.022350523620843887,0.00030196545412763953,0.00019565632101148367,0.0015622929204255342,0,2,-1000,0,1,1,-1,0,0,293302.0
13:19:17.736,AUTO,-35.3632622,149.1652375,0,-0.0015556601574644446,0.0009932812536135316,0.022350523620843887,0.00030196545412763953,0.00019565632101148367,0.0015622929204255342,0,2,-1000,0,1,1,-1,0,0,293302.0
13:19:17.937,AUTO,-35.3632622,149.1652375,5,-0.001412063604220748,0.000996786868199706,0.022185470908880234,0.00034404080361127853,0.0001621121191419661,0.0015021165600046515,0,2,-1000,1,1,0,-1,0,-1,293302.0
13:19:18.139,AUTO,-35.3632622,149.1652375,6,-0.0013015760341659188,0.0010103801032528281,0.02215735800564289,0.0014554790686815977,0.00032646144973114133,0.0014254346024245024,0,4,-996,2,1,0,-1,1,0,293302.0
13:19:18.340,AUTO,-35.3632621,149.1652375,4,-0.0011912527261301875,0.0010307059856131673,0.022108225151896477,0.00014334183651953936,0.000328071357216686,0.0015012759249657393,0,1,-1000,1,1,0,-1,1,0,293302.0
13:19:18.542,AUTO,-35.3632621,149.1652375,4,-0.0011912527261301875,0.0010307059856131673,0.022108225151896477,0.00014334183651953936,0.000328071357216686,0.0015012759249657393,0,1,-1000,1,1,0,-1,1,0,200.0
13:19:18.743,AUTO,-35.3632621,149.1652375,3,-0.0011734903091564775,0.0010604339186102152,0.022054051980376244,0.00022106838878244162,0.00026544748106971383,0.001521337078884244,0,1,-1000,0,0,0,0,0,0,200.0
13:19:18.945,AUTO,-35.3632621,149.1652375,3,-0.0011517454404383898,0.001109517179429531,0.022013498470187187,0.00017218198627233505,0.00027430569753050804,0.001374503131955862,0,1,-1000,1,0,0,0,0,0,200.0
13:19:19.147,AUTO,-35.3632621,149.1652375,3,-0.0011215120321139693,0.0011579265119507909,0.021968670189380646,0.00016042718198150396,0.00024046935141086578,0.0014840099029242992,0,1,-1000,0,0,1,0,0,0,200.0
13:19:19.348,AUTO,-35.3632621,149.1652375,3,-0.0011215120321139693,0.0011579265119507909,0.021968670189380646,0.00016042718198150396,0.00024046935141086578,0.0014840099029242992,0,1,-1000,0,0,1,0,0,0,200.0
13:19:19.551,AUTO,-35.3632621,149.1652375,3,-0.0011215120321139693,0.0011579265119507909,0.021968670189380646,0.00016042718198150396,0.00024046935141086578,0.0014840099029242992,0,1,-1000,0,0,1,0,0,0,200.0
13:19:19.754,AUTO,-35.3632621,149.1652375,3,-0.0011215120321139693,0.0011579265119507909,0.021968670189380646,0.00016042718198150396,0.00024046935141086578,0.0014840099029242992,0,1,-1000,0,0,1,0,0,0,200.0
13:19:19.956,AUTO,-35.3632621,149.1652375,4,-0.0009872446535155177,0.0013566127745434642,0.021820684894919395,0.0002764938399195671,0.0002839277731254697,0.0015102219767868519,0,1,-1000,1,1,0,0,0,0,200.0
13:19:20.158,AUTO,-35.3632621,149.1652375,5,-0.0009374155197292566,0.0014285835204645991,0.021759290248155594,0.00033990078372880816,0.0003250631270930171,0.0014758178731426597,0,1,-1000,0,0,0,0,0,0,200.0
13:19:20.359,AUTO,-35.3632621,149.1652374,5,-0.0008848405559547246,0.001504116109572351,0.021699383854866028,0.0002681146143004298,0.00024651666171848774,0.001420442247763276,0,1,-1000,1,1,0,0,0,0,200.0
13:19:20.561,AUTO,-35.3632621,149.1652374,6,-0.0008316139574162662,0.0015747240977361798,0.021649977192282677,0.00031736434902995825,0.00024593761190772057,0.0014412463642656803,0,2,-1000,1,0,0,0,0,0,200.0
13:19:20.763,AUTO,-35.3632621,149.1652374,6,-0.0008316139574162662,0.0015747240977361798,0.021649977192282677,0.00031736434902995825,0.00024593761190772057,0.0014412463642656803,0,2,-1000,1,0,0,0,0,0,200.0
13:19:20.964,AUTO,-35.3632621,149.1652374,7,-0.0007690110942348838,0.0016529344720765948,0.021594274789094925,0.0003862991579808295,0.0003851708606816828,0.0014126715250313282,0,1,-1000,1,1,0,0,0,0,200.0
13:19:21.167,AUTO,-35.3632621,149.1652374,7,-0.0007086049299687147,0.0017308543901890516,0.021526144817471504,0.000298377126455307,0.000327971822116524,0.0014195684343576431,0,2,-1000,0,1,1,0,0,0,200.0
13:19:21.370,AUTO,-35.3632621,149.1652374,7,-0.0007086049299687147,0.0017308543901890516,0.021526144817471504,0.000298377126455307,0.000327971822116524,0.0014195684343576431,0,2,-1000,0,1,1,0,0,0,200.0
13:19:21.575,AUTO,-35.3632621,149.1652374,7,-0.0007086049299687147,0.0017308543901890516,0.021526144817471504,0.000298377126455307,0.000327971822116524,0.0014195684343576431,0,2,-1000,0,1,1,0,0,0,200.0
13:19:21.776,AUTO,-35.3632621,149.1652374,7,-0.0007086049299687147,0.0017308543901890516,0.021526144817471504,0.000298377126455307,0.000327971822116524,0.0014195684343576431,0,2,-1000,0,1,1,0,0,0,200.0
13:19:21.978,AUTO,-35.3632621,149.1652375,197,0.002935616998001933,0.00010944048699457198,0.021360019221901894,0.004547978285700083,0.004519149195402861,0.00026196561520919204,0,0,-1131,5,5,0,0,0,-72,200.0
13:19:22.179,AUTO,-35.3632621,149.1652375,413,0.001654861611314118,0.001138454070314765,0.02115732617676258,-0.008294284343719482,0.003239748300984502,0.0021159197203814983,0,0,-1110,-7,4,1,0,1,-100,200.0
13:19:22.381,AUTO,-35.3632621,149.1652375,693,0.0010311882942914963,0.0016335813561454415,0.020981838926672935,-0.0010157866636291146,0.00031830836087465286,0.0006451798835769296,0,0,-1088,0,0,0,0,1,-124,200.0
13:19:22.582,AUTO,-35.3632621,149.1652375,1028,0.009928778745234013,0.0008051618933677673,0.0205236729234457,0.047099001705646515,-0.00595477968454361,0.0007395114516839385,0,0,-1042,47,-5,0,0,1,-139,127439.0
13:19:22.784,AUTO,-35.3632621,149.1652375,1028,0.009928778745234013,0.0008051618933677673,0.0205236729234457,0.047099001705646515,-0.00595477968454361,0.0007395114516839385,0,0,-1042,47,-5,0,0,1,-139,127439.0
13:19:22.985,AUTO,-35.363262,149.1652375,1393,0.02176009491086006,-0.0009353081113658845,0.02040291391313076,0.046859532594680786,-0.007022417150437832,0.0018145865760743618,0,0,-1017,47,-6,1,1,5,-145,127439.0
13:19:23.187,AUTO,-35.363262,149.1652377,1772,0.03315270319581032,-0.002871556207537651,0.02048361487686634,0.04475174471735954,-0.00825399998575449,0.0024959538131952286,0,-1,-1007,45,-7,2,1,11,-148,127439.0
13:19:23.390,AUTO,-35.363262,149.1652377,1772,0.03315270319581032,-0.002871556207537651,0.02048361487686634,0.04475174471735954,-0.00825399998575449,0.0024959538131952286,0,-1,-1007,45,-7,2,1,11,-148,127439.0
13:19:23.592,AUTO,-35.363262,149.1652377,1772,0.03315270319581032,-0.002871556207537651,0.02048361487686634,0.04475174471735954,-0.00825399998575449,0.0024959538131952286,0,-1,-1007,45,-7,2,1,11,-148,127439.0
13:19:23.794,AUTO,-35.363262,149.1652377,1772,0.03315270319581032,-0.002871556207537651,0.02048361487686634,0.04475174471735954,-0.00825399998575449,0.0024959538131952286,0,-1,-1007,45,-7,2,1,11,-148,127439.0
13:19:23.996,AUTO,-35.3632616,149.1652397,2928,0.0612046904861927,-0.009059849195182323,-0.007785975933074951,-0.009261044673621655,0.02072061598300934,-0.03248923644423485,1,-7,-993,-8,21,-32,8,42,-149,127439.0
13:19:24.197,AUTO,-35.3632614,149.165241,3309,0.04179523512721062,0.012134496122598648,-0.029801145195961,-0.13648167252540588,0.10056160390377045,-0.10400350391864777,2,-11,-990,-135,101,-104,9,52,-146,127439.0
13:19:24.399,AUTO,-35.3632611,149.1652425,3685,-0.002180292271077633,0.02404836006462574,-0.05048571527004242,-0.16621927917003632,0.009892539121210575,-0.09046677500009537,5,-15,-1002,-165,10,-91,6,54,-145,127439.0
13:19:24.601,AUTO,-35.363261,149.1652438,4064,-0.027224214747548103,0.028928523883223534,-0.07313911616802216,-0.05643836408853531,0.0269307978451252,-0.09846071153879166,5,-11,-1011,-55,27,-98,1,46,-148,127439.0
13:19:24.803,AUTO,-35.3632609,149.165245,4447,-0.03835808485746384,0.02980886772274971,-0.09158402681350708,-0.04813123121857643,-0.02006702497601509,-0.05580233410000801,8,-6,-1004,-47,-19,-56,-3,36,-150,127439.0
13:19:25.005,AUTO,-35.3632609,149.165245,4447,-0.03835808485746384,0.02980886772274971,-0.09158402681350708,-0.04813123121857643,-0.02006702497601509,-0.05580233410000801,8,-6,-1004,-47,-19,-56,-3,36,-150,127439.0
13:19:25.207,AUTO,-35.363261,149.1652458,4832,-0.05425960198044777,0.014583979733288288,-0.09388937801122665,-0.0699642077088356,-0.09141303598880768,0.019780760630965233,5,-7,-1001,-69,-90,19,-8,23,-150,127439.0
13:19:25.416,AUTO,-35.363261,149.1652458,4832,-0.05425960198044777,0.014583979733288288,-0.09388937801122665,-0.0699642077088356,-0.09141303598880768,0.019780760630965233,5,-7,-1001,-69,-90,19,-8,23,-150,127439.0
13:19:25.618,AUTO,-35.363261,149.1652458,4832,-0.05425960198044777,0.014583979733288288,-0.09388937801122665,-0.0699642077088356,-0.09141303598880768,0.019780760630965233,5,-7,-1001,-69,-90,19,-8,23,-150,127439.0
13:19:25.820,AUTO,-35.3632614,149.1652457,5986,-0.06682395935058594,-0.015976427122950554,-0.08166119456291199,0.04608646035194397,0.004942824132740498,-0.0011440359521657228,-1,3,-1001,46,5,-1,-2,-29,-150,127439.0
13:19:26.021,AUTO,-35.3632614,149.1652457,5986,-0.06682395935058594,-0.015976427122950554,-0.08166119456291199,0.04608646035194397,0.004942824132740498,-0.0011440359521657228,-1,3,-1001,46,5,-1,-2,-29,-150,127439.0
13:19:26.223,AUTO,-35.3632614,149.1652447,6372,-0.053394731134176254,-0.01511111669242382,-0.08325480669736862,0.056506358087062836,0.003166766604408622,0.0012740816455334425,-4,8,-1000,57,4,0,0,-43,-150,127439.0
13:19:26.426,AUTO,-35.3632614,149.1652434,6756,-0.03863386809825897,-0.013540888205170631,-0.08376222848892212,0.061625272035598755,0.008385686203837395,0.0022756652906537056,-5,5,-1001,62,8,1,1,-53,-150,127439.0
13:19:26.631,AUTO,-35.3632614,149.1652418,7148,-0.02258855476975441,-0.010585884563624859,-0.08397979289293289,0.06340958178043365,0.013384643010795116,0.002961823483929038,-7,12,-1002,64,13,2,2,-58,-151,300000.0
13:19:26.833,AUTO,-35.3632614,149.1652402,7535,-0.006638434715569019,-0.006799648515880108,-0.08384959399700165,0.06535551697015762,0.016096588224172592,0.003588068298995495,-8,11,-1003,66,16,3,2,-59,-151,300000.0
13:19:27.035,AUTO,-35.3632614,149.1652402,7535,-0.006638434715569019,-0.006799648515880108,-0.08384959399700165,0.06535551697015762,0.016096588224172592,0.003588068298995495,-8,11,-1003,66,16,3,2,-59,-151,300000.0
13:19:27.237,AUTO,-35.3632614,149.1652385,7924,0.009785483591258526,-0.0025899086613208055,-0.0833229124546051,0.06528960168361664,0.01719074882566929,0.003993486054241657,-8,15,-1004,66,17,3,2,-57,-152,300000.0
13:19:27.439,AUTO,-35.3632614,149.1652385,7924,0.009785483591258526,-0.0025899086613208055,-0.0833229124546051,0.06528960168361664,0.01719074882566929,0.003993486054241657,-8,15,-1004,66,17,3,2,-57,-152,300000.0
13:19:27.640,AUTO,-35.3632614,149.1652385,7924,0.009785483591258526,-0.0025899086613208055,-0.0833229124546051,0.06528960168361664,0.01719074882566929,0.003993486054241657,-8,15,-1004,66,17,3,2,-57,-152,300000.0
13:19:27.842,AUTO,-35.3632614,149.1652346,9102,0.05645781382918358,0.007879923097789288,-0.08100150525569916,0.050517693161964417,0.014500429853796959,-0.00654107891023159,-5,8,-1001,51,15,-7,-1,-27,-154,300000.0
13:19:28.044,AUTO,-35.3632614,149.1652346,9102,0.05645781382918358,0.007879923097789288,-0.08100150525569916,0.050517693161964417,0.014500429853796959,-0.00654107891023159,-5,8,-1001,51,15,-7,-1,-27,-154,300000.0
13:19:28.246,AUTO,-35.3632614,149.165234,9495,0.0626911148428917,0.01696215383708477,-0.0873153954744339,0.01205030083656311,0.04810979217290878,-0.03979292884469032,-2,4,-998,12,48,-40,-3,-11,-153,300000.0
13:19:28.447,AUTO,-35.3632615,149.1652339,9885,0.056737497448921204,0.023631159216165543,-0.09332294017076492,-0.05679547041654587,-0.004607737995684147,-0.010388431139290333,0,1,-993,-56,-3,-10,-7,3,-152,300000.0
13:19:28.649,AUTO,-35.3632617,149.1652341,10271,0.038641005754470825,0.016897238790988922,-0.09322019666433334,-0.07765297591686249,-0.03776165470480919,0.00917587149888277,2,0,-997,-76,-36,8,-10,15,-150,300000.0
13:19:28.851,AUTO,-35.3632619,149.1652344,10655,0.019633326679468155,0.007517862133681774,-0.09125966578722,-0.07093295454978943,-0.03222613409161568,0.008588692173361778,3,-1,-999,-70,-31,8,-11,21,-150,300000.0
13:19:29.054,AUTO,-35.3632622,149.1652349,11038,0.004431573208421469,0.000520329806022346,-0.0898587629199028,-0.049904964864254,-0.022899167612195015,0.0035381652414798737,4,-2,-1002,-49,-22,3,-10,22,-150,300000.0
13:19:29.256,AUTO,-35.3632622,149.1652349,11038,0.004431573208421469,0.000520329806022346,-0.0898587629199028,-0.049904964864254,-0.022899167612195015,0.0035381652414798737,4,-2,-1002,-49,-22,3,-10,22,-150,300000.0
13:19:29.458,AUTO,-35.3632622,149.1652349,11038,0.004431573208421469,0.000520329806022346,-0.0898587629199028,-0.049904964864254,-0.022899167612195015,0.0035381652414798737,4,-2,-1002,-49,-22,3,-10,22,-150,300000.0
13:19:29.661,AUTO,-35.3632622,149.1652349,11038,0.004431573208421469,0.000520329806022346,-0.0898587629199028,-0.049904964864254,-0.022899167612195015,0.0035381652414798737,4,-2,-1002,-49,-22,3,-10,22,-150,300000.0
13:19:29.863,AUTO,-35.3632626,149.1652363,12198,-0.014940254390239716,-0.007924750447273254,-0.09604404121637344,-0.005627804901450872,-0.0006124790525063872,-0.01639115996658802,2,-2,-1001,-4,0,-16,-3,11,-152,300000.0
13:19:30.064,AUTO,-35.3632626,149.1652365,12587,-0.014725109562277794,-0.007833834737539291,-0.10137630254030228,0.006481151096522808,0.0022559664212167263,-0.02272086963057518,1,-1,-1001,7,2,-22,0,6,-153,300000.0
13:19:30.266,AUTO,-35.3632626,149.1652365,12587,-0.014725109562277794,-0.007833834737539291,-0.10137630254030228,0.006481151096522808,0.0022559664212167263,-0.02272086963057518,1,-1,-1001,7,2,-22,0,6,-153,300000.0
13:19:30.467,AUTO,-35.3632626,149.1652366,12976,-0.01241698581725359,-0.006947697140276432,-0.10756049305200577,0.0109489681199193,0.005319532006978989,-0.02482455223798752,0,-1,-1000,11,6,-25,1,2,-153,231015.0
13:19:30.669,AUTO,-35.3632626,149.1652366,13366,-0.009100228548049927,-0.005744399502873421,-0.1138305589556694,0.01557143870741129,0.006250320002436638,-0.02447127178311348,0,0,-1001,16,6,-24,3,-1,-153,231015.0
13:19:30.871,AUTO,-35.3632626,149.1652365,13756,-0.005173602607101202,-0.004179348237812519,-0.12013467401266098,0.017243849113583565,0.008491395972669125,-0.02511397749185562,-1,0,-1000,17,9,-25,4,-3,-153,231015.0
13:19:31.072,AUTO,-35.3632625,149.1652364,14146,-0.0014955055667087436,-0.0020577148534357548,-0.12660861015319824,0.014652435667812824,0.009339526295661926,-0.02652028016746044,-2,0,-1000,15,9,-26,4,-5,-153,231015.0
13:19:31.274,AUTO,-35.3632625,149.1652364,14146,-0.0014955055667087436,-0.0020577148534357548,-0.12660861015319824,0.014652435667812824,0.009339526295661926,-0.02652028016746044,-2,0,-1000,15,9,-26,4,-5,-153,231015.0
13:19:31.476,AUTO,-35.3632625,149.1652364,14146,-0.0014955055667087436,-0.0020577148534357548,-0.12660861015319824,0.014652435667812824,0.009339526295661926,-0.02652028016746044,-2,0,-1000,15,9,-26,4,-5,-153,231015.0
13:19:31.677,AUTO,-35.3632625,149.1652364,14146,-0.0014955055667087436,-0.0020577148534357548,-0.12660861015319824,0.014652435667812824,0.009339526295661926,-0.02652028016746044,-2,0,-1000,15,9,-26,4,-5,-153,231015.0
13:19:31.879,AUTO,-35.3632621,149.1652359,15315,0.006341982167214155,0.004050770774483681,-0.1443800926208496,0.007521380204707384,0.006770258769392967,-0.020151250064373016,-2,0,-1000,8,7,-20,4,-4,-153,231015.0
13:19:32.081,AUTO,-35.3632619,149.1652357,15706,0.007783336564898491,0.005316357593983412,-0.1492224782705307,0.003659624606370926,0.005456536076962948,-0.0184917151927948,-2,0,-999,4,5,-18,3,-3,-153,231015.0
13:19:32.283,AUTO,-35.3632619,149.1652357,15706,0.007783336564898491,0.005316357593983412,-0.1492224782705307,0.003659624606370926,0.005456536076962948,-0.0184917151927948,-2,0,-999,4,5,-18,3,-3,-153,231015.0
13:19:32.485,AUTO,-35.3632618,149.1652356,16095,0.008394334465265274,0.006394724827259779,-0.15373769402503967,0.004814504645764828,0.0038954163901507854,-0.016036491841077805,-1,0,-1000,5,4,-16,2,-1,-153,231015.0
13:19:32.688,AUTO,-35.3632617,149.1652355,16489,0.008593923412263393,0.007099528331309557,-0.15803676843643188,-0.0007385602802969515,0.0017889328300952911,-0.016260316595435143,-1,0,-1000,0,2,-16,1,0,-153,231015.0
13:19:32.890,AUTO,-35.3632617,149.1652355,16879,0.008385525085031986,0.007378396578133106,-0.16196556389331818,0.0008346125250682235,0.0014804843813180923,-0.01580401323735714,-1,0,-1000,1,1,-16,0,1,-153,231015.0
13:19:33.092,AUTO,-35.3632616,149.1652355,17269,0.007847350090742111,0.00711648678407073,-0.16530460119247437,-0.002653382485732436,-0.001944507472217083,-0.010817453265190125,0,0,-999,-2,-1,-11,0,2,-153,231015.0
13:19:33.295,AUTO,-35.3632616,149.1652355,17269,0.007847350090742111,0.00711648678407073,-0.16530460119247437,-0.002653382485732436,-0.001944507472217083,-0.010817453265190125,0,0,-999,-2,-1,-11,0,2,-153,231015.0
13:19:33.496,AUTO,-35.3632616,149.1652355,17269,0.007847350090742111,0.00711648678407073,-0.16530460119247437,-0.002653382485732436,-0.001944507472217083,-0.010817453265190125,0,0,-999,-2,-1,-11,0,2,-153,231015.0
13:19:33.698,AUTO,-35.3632616,149.1652355,17269,0.007847350090742111,0.00711648678407073,-0.16530460119247437,-0.002653382485732436,-0.001944507472217083,-0.010817453265190125,0,0,-999,-2,-1,-11,0,2,-153,231015.0
13:19:33.900,AUTO,-35.3632616,149.1652355,18426,-0.03877856954932213,0.005417899694293737,-0.17573164403438568,-0.09724196791648865,0.0008170236833393574,-0.014133273623883724,0,0,-998,-96,1,-14,-4,-5,-151,231015.0
13:19:34.101,AUTO,-35.3632616,149.1652351,18805,-0.050490833818912506,0.019306449219584465,-0.1504882425069809,-0.011710980907082558,0.08919504284858704,0.21107470989227295,0,2,-982,-11,89,210,-8,-16,-147,231015.0
13:19:34.303,AUTO,-35.3632616,149.1652351,18805,-0.050490833818912506,0.019306449219584465,-0.1504882425069809,-0.011710980907082558,0.08919504284858704,0.21107470989227295,0,2,-982,-11,89,210,-8,-16,-147,231015.0
13:19:34.508,AUTO,-35.3632619,149.1652345,19173,-0.049183234572410583,0.047512784600257874,-0.06317486613988876,-0.012712361291050911,0.08373340219259262,0.4625670611858368,-1,5,-982,-11,84,462,-17,-26,-142,54634.0
13:19:34.709,AUTO,-35.3632623,149.1652336,19523,-0.027600035071372986,0.0412723571062088,0.0296818558126688,0.12313518673181534,-0.13298192620277405,0.2674756646156311,0,8,-955,124,-132,267,-27,-35,-132,54634.0
13:19:34.911,AUTO,-35.3632629,149.1652325,19844,0.008514330722391605,0.0021142896730452776,0.07151154428720474,0.1431746631860733,-0.1511724591255188,0.08176255226135254,1,11,-955,143,-150,81,-31,-35,-121,54634.0
13:19:35.113,AUTO,-35.3632635,149.1652316,20138,0.03803775832056999,-0.02620990388095379,0.0770333930850029,0.09627420455217361,-0.07707688957452774,-0.017035644501447678,1,9,-958,96,-76,-17,-27,-27,-110,54634.0
13:19:35.316,AUTO,-35.3632635,149.1652316,20138,0.03803775832056999,-0.02620990388095379,0.0770333930850029,0.09627420455217361,-0.07707688957452774,-0.017035644501447678,1,9,-958,96,-76,-17,-27,-27,-110,54634.0
13:19:35.519,AUTO,-35.3632635,149.1652316,20138,0.03803775832056999,-0.02620990388095379,0.0770333930850029,0.09627420455217361,-0.07707688957452774,-0.017035644501447678,1,9,-958,96,-76,-17,-27,-27,-110,54634.0
13:19:35.720,AUTO,-35.3632635,149.1652316,20138,0.03803775832056999,-0.02620990388095379,0.0770333930850029,0.09627420455217361,-0.07707688957452774,-0.017035644501447678,1,9,-958,96,-76,-17,-27,-27,-110,54634.0
13:19:35.922,AUTO,-35.3632644,149.1652308,20866,0.059141647070646286,-0.033446718007326126,0.05131319537758827,-0.02987338975071907,0.02336554229259491,-0.021485762670636177,1,-1,-969,-29,24,-22,-2,14,-81,54634.0
13:19:36.124,AUTO,-35.3632644,149.1652312,21063,0.05021367222070694,-0.02615818753838539,0.048184048384428024,-0.041458431631326675,0.03237307816743851,-0.00558503856882453,0,-4,-972,-40,33,-5,5,26,-74,54634.0
13:19:36.326,AUTO,-35.3632643,149.1652319,21241,0.03845394775271416,-0.017578039318323135,0.047123540192842484,-0.04524729773402214,0.036950722336769104,0.001285760197788477,1,-7,-975,-44,37,1,10,35,-67,54634.0
13:19:36.527,AUTO,-35.3632643,149.1652319,21241,0.03845394775271416,-0.017578039318323135,0.047123540192842484,-0.04524729773402214,0.036950722336769104,0.001285760197788477,1,-7,-975,-44,37,1,10,35,-67,54634.0
13:19:36.729,AUTO,-35.363264,149.1652329,21402,0.026911336928606033,-0.009089437313377857,0.046838365495204926,-0.04718123748898506,0.033803947269916534,0.00247586565092206,0,-10,-975,-46,34,2,14,40,-61,54634.0
13:19:36.931,AUTO,-35.3632636,149.1652339,21548,0.016406500712037086,-0.001126226969063282,0.046584032475948334,-0.03987190127372742,0.029246356338262558,0.002237483160570264,1,-10,-977,-39,30,1,16,42,-55,54634.0
13:19:37.133,AUTO,-35.3632632,149.165235,21679,0.006503578741103411,0.004931729286909103,0.04612128809094429,-0.029706377536058426,0.02283039689064026,0.0027018398977816105,0,-10,-978,-28,23,2,16,41,-50,54634.0
13:19:37.335,AUTO,-35.3632632,149.165235,21679,0.006503578741103411,0.004931729286909103,0.04612128809094429,-0.029706377536058426,0.02283039689064026,0.0027018398977816105,0,-10,-978,-28,23,2,16,41,-50,54634.0
13:19:37.537,AUTO,-35.3632632,149.165235,21679,0.006503578741103411,0.004931729286909103,0.04612128809094429,-0.029706377536058426,0.02283039689064026,0.0027018398977816105,0,-10,-978,-28,23,2,16,41,-50,54634.0
13:19:37.739,AUTO,-35.3632632,149.165235,21679,0.006503578741103411,0.004931729286909103,0.04612128809094429,-0.029706377536058426,0.02283039689064026,0.0027018398977816105,0,-10,-978,-28,23,2,16,41,-50,54634.0
13:19:37.941,AUTO,-35.363262,149.1652379,21984,-0.010381902568042278,0.013969522900879383,0.043862055987119675,-0.003006933256983757,0.005754820536822081,-0.0007464900845661759,0,-7,-976,-2,6,0,11,30,-32,54634.0
13:19:38.142,AUTO,-35.3632618,149.1652386,22056,-0.012846611440181732,0.014517903327941895,0.04318684712052345,-0.027184180915355682,0.0026470215525478125,-0.0009308971930295229,0,-7,-975,-26,3,-1,9,24,-26,54634.0
13:19:38.344,AUTO,-35.3632615,149.1652392,22112,-0.013900856487452984,0.014230012893676758,0.042516738176345825,0.0126314926892519,-0.0013506361283361912,-0.0029739479068666697,1,-4,-973,13,0,-3,6,19,-20,54634.0
13:19:38.545,AUTO,-35.3632615,149.1652392,22112,-0.013900856487452984,0.014230012893676758,0.042516738176345825,0.0126314926892519,-0.0013506361283361912,-0.0029739479068666697,1,-4,-973,13,0,-3,6,19,-20,108169.0
13:19:38.747,AUTO,-35.3632614,149.1652397,22150,-0.013099954463541508,0.013220555149018764,0.04190145805478096,0.03503062203526497,-0.006261490751057863,-0.0028721285052597523,0,-4,-970,35,-5,-3,4,14,-12,108169.0
13:19:38.949,AUTO,-35.3632612,149.16524,22167,-0.014082394540309906,0.011877265758812428,0.041236527264118195,-0.133231520652771,-0.004538118839263916,-0.003879142925143242,0,-8,-964,-132,-3,-4,2,10,-4,108169.0
13:19:39.151,AUTO,-35.3632612,149.1652402,22155,-0.04749215394258499,0.02600512094795704,0.03981270641088486,-0.03692625090479851,0.02653581090271473,-0.0038509259466081858,0,10,-946,-35,27,-3,-1,2,10,108169.0
13:19:39.354,AUTO,-35.3632612,149.1652402,22155,-0.04749215394258499,0.02600512094795704,0.03981270641088486,-0.03692625090479851,0.02653581090271473,-0.0038509259466081858,0,10,-946,-35,27,-3,-1,2,10,108169.0
13:19:39.556,AUTO,-35.3632612,149.1652402,22155,-0.04749215394258499,0.02600512094795704,0.03981270641088486,-0.03692625090479851,0.02653581090271473,-0.0038509259466081858,0,10,-946,-35,27,-3,-1,2,10,108169.0
13:19:39.758,AUTO,-35.3632612,149.1652402,22155,-0.04749215394258499,0.02600512094795704,0.03981270641088486,-0.03692625090479851,0.02653581090271473,-0.0038509259466081858,0,10,-946,-35,27,-3,-1,2,10,108169.0
13:19:39.960,AUTO,-35.3632616,149.1652394,22004,0.001816827105358243,0.03593270853161812,0.03832387179136276,-0.12056241184473038,0.024408426135778427,-0.008570149540901184,1,-18,-1014,-121,25,-8,-20,-15,15,108169.0
13:19:40.161,AUTO,-35.3632621,149.1652389,21966,0.0011925108265131712,0.04156970605254173,0.03822470083832741,-0.6707640290260315,0.02214420773088932,-0.007364651653915644,2,-26,-1015,-670,23,-7,-29,-14,10,108169.0
13:19:40.364,AUTO,-35.3632629,149.1652385,21938,0.009455129504203796,0.047347694635391235,0.03867258504033089,-0.09969715029001236,0.02653893642127514,-0.0004052222066093236,5,21,-1016,-97,27,0,-38,-9,6,108169.0
13:19:40.566,AUTO,-35.3632638,149.165238,21920,0.02481633424758911,0.05459761619567871,0.039099596440792084,0.632203221321106,0.031887609511613846,-0.00515702972188592,9,43,-1018,634,32,-5,-49,-4,3,108169.0
13:19:40.768,AUTO,-35.3632638,149.165238,21920,0.02481633424758911,0.05459761619567871,0.039099596440792084,0.632203221321106,0.031887609511613846,-0.00515702972188592,9,43,-1018,634,32,-5,-49,-4,3,108169.0
13:19:40.970,AUTO,-35.363265,149.1652377,21908,0.03505273163318634,0.06288576126098633,0.04210380092263222,0.35417643189430237,0.027906270697712898,0.03186510130763054,11,17,-1011,354,28,31,-61,0,1,108169.0
13:19:41.172,AUTO,-35.3632665,149.1652375,21901,0.031071040779352188,0.0686851367354393,0.11949561536312103,-0.4289889335632324,0.00624419841915369,0.5201059579849243,16,-25,-994,-429,6,519,-75,7,0,108169.0
13:19:41.374,AUTO,-35.3632665,149.1652375,21901,0.031071040779352188,0.0686851367354393,0.11949561536312103,-0.4289889335632324,0.00624419841915369,0.5201059579849243,16,-25,-994,-429,6,519,-75,7,0,108169.0
13:19:41.575,AUTO,-35.3632665,149.1652375,21901,0.031071040779352188,0.0686851367354393,0.11949561536312103,-0.4289889335632324,0.00624419841915369,0.5201059579849243,16,-25,-994,-429,6,519,-75,7,0,108169.0
13:19:41.777,AUTO,-35.3632665,149.1652375,21901,0.031071040779352188,0.0686851367354393,0.11949561536312103,-0.4289889335632324,0.00624419841915369,0.5201059579849243,16,-25,-994,-429,6,519,-75,7,0,108169.0
13:19:41.979,AUTO,-35.3632732,149.1652377,21894,0.08892694860696793,0.06658177822828293,0.6803256869316101,0.4039246439933777,0.04372309520840645,0.6908336281776428,25,3,-1007,404,44,690,-124,27,-1,108169.0
13:19:42.181,AUTO,-35.3632762,149.1652381,21893,0.09810538589954376,0.05916745215654373,0.8507107496261597,-0.45370224118232727,0.018748780712485313,0.6363670825958252,34,-36,-1003,-453,19,635,-144,33,-1,90928.0
13:19:42.383,AUTO,-35.3632796,149.1652387,21889,0.11611955612897873,0.04775986820459366,1.0400985479354858,-0.17496013641357422,0.03149210661649704,0.9175109267234802,33,-11,-997,-172,32,917,-166,40,0,90928.0
13:19:42.585,AUTO,-35.3632836,149.1652394,21882,0.14149002730846405,0.025673294439911842,1.2928886413574219,0.4852960705757141,0.05915840342640877,1.0800048112869263,29,-7,-1007,487,60,1079,-190,46,0,90928.0
13:19:42.787,AUTO,-35.3632836,149.1652394,21882,0.14149002730846405,0.025673294439911842,1.2928886413574219,0.4852960705757141,0.05915840342640877,1.0800048112869263,29,-7,-1007,487,60,1079,-190,46,0,90928.0
13:19:42.990,AUTO,-35.3632881,149.1652404,21872,0.16126762330532074,-0.008507823571562767,1.5594427585601807,0.14618603885173798,0.015029361471533775,1.0732033252716064,19,-55,-999,146,16,1072,-214,51,1,90928.0
13:19:43.192,AUTO,-35.3632932,149.1652414,21860,0.16127997636795044,-0.05117597430944443,1.8235042095184326,-0.31569185853004456,-0.015499369241297245,1.0559272766113281,8,-69,-1001,-314,-14,1055,-243,56,2,90928.0
13:19:43.394,AUTO,-35.3632932,149.1652414,21860,0.16127997636795044,-0.05117597430944443,1.8235042095184326,-0.31569185853004456,-0.015499369241297245,1.0559272766113281,8,-69,-1001,-314,-14,1055,-243,56,2,90928.0
13:19:43.596,AUTO,-35.3632932,149.1652414,21860,0.16127997636795044,-0.05117597430944443,1.8235042095184326,-0.31569185853004456,-0.015499369241297245,1.0559272766113281,8,-69,-1001,-314,-14,1055,-243,56,2,90928.0
13:19:43.798,AUTO,-35.3632932,149.1652414,21860,0.16127997636795044,-0.05117597430944443,1.8235042095184326,-0.31569185853004456,-0.015499369241297245,1.0559272766113281,8,-69,-1001,-314,-14,1055,-243,56,2,90928.0
13:19:44.000,AUTO,-35.3633123,149.1652456,21827,0.09969943761825562,-0.14964836835861206,2.583022117614746,-0.26720887422561646,-0.029985662549734116,1.0323461294174194,-34,-66,-999,-266,-28,1032,-327,67,2,90928.0
13:19:44.201,AUTO,-35.3633199,149.1652473,21817,0.06438792496919632,-0.17672237753868103,2.8383893966674805,0.08261888474225998,-0.01569513790309429,1.0101639032363892,-65,-46,-1001,84,-14,1010,-353,70,2,90928.0
13:19:44.403,AUTO,-35.3633281,149.1652492,21806,0.03783230856060982,-0.18928609788417816,3.046769857406616,0.1627439558506012,-0.010942624881863594,0.6018164157867432,-82,-39,-1001,163,-9,601,-379,73,3,90928.0
13:19:44.605,AUTO,-35.3633369,149.1652511,21794,0.026985950767993927,-0.19882646203041077,3.126715898513794,-0.08289549499750137,-0.041525330394506454,0.13054804503917694,-95,-51,-998,-81,-40,130,-404,76,3,90928.0
13:19:44.807,AUTO,-35.3633369,149.1652511,21794,0.026985950767993927,-0.19882646203041077,3.126715898513794,-0.08289549499750137,-0.041525330394506454,0.13054804503917694,-95,-51,-998,-81,-40,130,-404,76,3,90928.0
13:19:45.009,AUTO,-35.3633462,149.1652531,21780,0.03340598940849304,-0.21047717332839966,3.119884967803955,0.04258807376027107,-0.04842536523938179,-0.10209858417510986,-92,-46,-995,44,-47,-101,-431,77,4,90928.0
13:19:45.211,AUTO,-35.3633561,149.1652552,21761,0.04122661054134369,-0.22004665434360504,3.083228349685669,0.004112119320780039,-0.041200555860996246,-0.14353036880493164,-94,-44,-996,5,-40,-143,-459,78,6,90928.0
13:19:45.423,AUTO,-35.3633561,149.1652552,21761,0.04122661054134369,-0.22004665434360504,3.083228349685669,0.004112119320780039,-0.041200555860996246,-0.14353036880493164,-94,-44,-996,5,-40,-143,-459,78,6,90928.0
13:19:45.625,AUTO,-35.3633561,149.1652552,21761,0.04122661054134369,-0.22004665434360504,3.083228349685669,0.004112119320780039,-0.041200555860996246,-0.14353036880493164,-94,-44,-996,5,-40,-143,-459,78,6,90928.0
13:19:45.827,AUTO,-35.3633901,149.1652621,21701,0.06312765926122665,-0.20918883383274078,3.0268843173980713,0.0003556152805685997,0.03322500362992287,-0.002657624427229166,-113,-73,-1013,2,34,-2,-545,85,3,90928.0
13:19:46.029,AUTO,-35.3633901,149.1652621,21701,0.06312765926122665,-0.20918883383274078,3.0268843173980713,0.0003556152805685997,0.03322500362992287,-0.002657624427229166,-113,-73,-1013,2,34,-2,-545,85,3,90928.0
13:19:46.230,AUTO,-35.3634027,149.1652646,21690,0.06579916179180145,-0.20080727338790894,3.0271828174591064,0.028922919183969498,0.031601157039403915,0.005218188744038343,-111,-59,-1005,30,32,5,-567,87,1,228492.0
13:19:46.432,AUTO,-35.3634158,149.1652671,21685,0.06901299208402634,-0.18874771893024445,3.0293326377868652,0.01867617666721344,0.05045507475733757,0.005917244125157595,-127,-65,-1010,20,51,5,-587,88,-1,228492.0
13:19:46.634,AUTO,-35.3634293,149.1652696,21687,0.06970658153295517,-0.179971382021904,3.0309624671936035,-0.001543537713587284,0.02899557165801525,0.010479901917278767,-108,-80,-989,0,30,10,-603,89,-2,228492.0
13:19:46.836,AUTO,-35.3634431,149.1652721,21691,0.0732581838965416,-0.17590367794036865,3.0311625003814697,0.035318560898303986,0.007884809747338295,-0.008584007620811462,-131,-68,-990,37,8,-8,-616,90,-3,228492.0
13:19:47.038,AUTO,-35.3634431,149.1652721,21691,0.0732581838965416,-0.17590367794036865,3.0311625003814697,0.035318560898303986,0.007884809747338295,-0.008584007620811462,-131,-68,-990,37,8,-8,-616,90,-3,228492.0
13:19:47.240,AUTO,-35.3634572,149.1652746,21694,0.07382352650165558,-0.17379072308540344,3.0311789512634277,0.033728376030921936,0.012004389427602291,-0.0012745034182444215,-140,-96,-1000,35,12,-1,-627,90,-2,228492.0
13:19:47.442,AUTO,-35.3634572,149.1652746,21694,0.07382352650165558,-0.17379072308540344,3.0311789512634277,0.033728376030921936,0.012004389427602291,-0.0012745034182444215,-140,-96,-1000,35,12,-1,-627,90,-2,228492.0
13:19:47.644,AUTO,-35.3634572,149.1652746,21694,0.07382352650165558,-0.17379072308540344,3.0311789512634277,0.033728376030921936,0.012004389427602291,-0.0012745034182444215,-140,-96,-1000,35,12,-1,-627,90,-2,228492.0
13:19:47.846,AUTO,-35.3635008,149.1652822,21695,0.06950611621141434,-0.16150087118148804,3.0304129123687744,0.04128912463784218,-0.010198256932199001,-0.00777451554313302,-133,-80,-979,42,-9,-7,-653,91,0,228492.0
13:19:48.049,AUTO,-35.3635008,149.1652822,21695,0.06950611621141434,-0.16150087118148804,3.0304129123687744,0.04128912463784218,-0.010198256932199001,-0.00777451554313302,-133,-80,-979,42,-9,-7,-653,91,0,228492.0
13:19:48.250,AUTO,-35.3635157,149.1652847,21689,0.0724467784166336,-0.15428946912288666,3.0290138721466064,-0.01887822151184082,0.015447508543729782,-0.004670855589210987,-128,-82,-991,-17,16,-4,-660,92,0,228492.0
13:19:48.452,AUTO,-35.3635308,149.1652873,21684,0.07226312905550003,-0.142681285738945,3.028026819229126,-0.021458372473716736,0.05601735785603523,0.0007647774182260036,-134,-77,-998,-19,57,0,-666,93,0,228492.0
13:19:48.654,AUTO,-35.363546,149.1652899,21683,0.07321099191904068,-0.1356520801782608,3.0278666019439697,0.053911276161670685,0.00521028321236372,-0.0030885827727615833,-129,-73,-979,55,6,-3,-667,94,-1,228492.0
13:19:48.856,AUTO,-35.3635611,149.1652926,21682,0.08049231767654419,-0.13409894704818726,3.026975631713867,0.006886268965899944,0.013193601742386818,-0.002013042801991105,-136,-84,-984,8,14,-1,-666,95,0,228492.0
13:19:49.058,AUTO,-35.3635611,149.1652926,21682,0.08049231767654419,-0.13409894704818726,3.026975631713867,0.006886268965899944,0.013193601742386818,-0.002013042801991105,-136,-84,-984,8,14,-1,-666,95,0,228492.0
13:19:49.261,AUTO,-35.3635763,149.1652952,21678,0.07664480060338974,-0.12951892614364624,3.027028799057007,-0.039004288613796234,-0.002067658817395568,0.0017838201019912958,-120,-84,-973,-37,-1,1,-666,94,1,228492.0
13:19:49.463,AUTO,-35.3635763,149.1652952,21678,0.07664480060338974,-0.12951892614364624,3.027028799057007,-0.039004288613796234,-0.002067658817395568,0.0017838201019912958,-120,-84,-973,-37,-1,1,-666,94,1,228492.0
13:19:49.670,AUTO,-35.3635763,149.1652952,21678,0.07664480060338974,-0.12951892614364624,3.027028799057007,-0.039004288613796234,-0.002067658817395568,0.0017838201019912958,-120,-84,-973,-37,-1,1,-666,94,1,228492.0
13:19:49.872,AUTO,-35.3636215,149.165303,21635,0.07355660945177078,-0.13320566713809967,3.0253028869628906,-0.025667956098914146,-0.016259362921118736,0.007050870452076197,-146,-91,-990,-24,-15,7,-665,93,7,228492.0
13:19:50.073,AUTO,-35.3636366,149.1653055,21612,0.0732727125287056,-0.13986052572727203,3.0250132083892822,-0.02266404777765274,-0.011889327317476273,-0.0005760901840403676,-130,-74,-983,-21,-10,0,-666,94,10,228492.0
13:19:50.276,AUTO,-35.3636366,149.1653055,21612,0.0732727125287056,-0.13986052572727203,3.0250132083892822,-0.02266404777765274,-0.011889327317476273,-0.0005760901840403676,-130,-74,-983,-21,-10,0,-666,94,10,200.0
13:19:50.479,AUTO,-35.3636517,149.1653081,21584,0.07011222094297409,-0.13967841863632202,3.02518630027771,0.022437511011958122,-0.0073767369613051414,-0.004433432128280401,-130,-76,-989,23,-5,-4,-668,94,9,200.0
13:19:50.681,AUTO,-35.3636671,149.1653108,21559,0.07121849805116653,-0.13849401473999023,3.024223566055298,0.02076866663992405,0.010340963490307331,-0.005531437695026398,-136,-80,-993,22,11,-5,-670,95,8,200.0
13:19:50.885,AUTO,-35.3636823,149.1653135,21537,0.07133174687623978,-0.141053706407547,3.02309513092041,-0.051316600292921066,-0.01746043562889099,0.002711822744458914,-132,-80,-986,-49,-16,2,-671,96,8,200.0
13:19:51.087,AUTO,-35.3636975,149.1653162,21516,0.07488054037094116,-0.13882218301296234,3.0217108726501465,0.010798030532896519,0.02919515036046505,-0.00986254122108221,-127,-69,-992,12,30,-9,-673,96,7,200.0
13:19:51.289,AUTO,-35.3636975,149.1653162,21516,0.07488054037094116,-0.13882218301296234,3.0217108726501465,0.010798030532896519,0.02919515036046505,-0.00986254122108221,-127,-69,-992,12,30,-9,-673,96,7,200.0
13:19:51.492,AUTO,-35.3636975,149.1653162,21516,0.07488054037094116,-0.13882218301296234,3.0217108726501465,0.010798030532896519,0.02919515036046505,-0.00986254122108221,-127,-69,-992,12,30,-9,-673,96,7,200.0
13:19:51.695,AUTO,-35.3636975,149.1653162,21516,0.07488054037094116,-0.13882218301296234,3.0217108726501465,0.010798030532896519,0.02919515036046505,-0.00986254122108221,-127,-69,-992,12,30,-9,-673,96,7,200.0
13:19:51.896,AUTO,-35.3637427,149.1653244,21489,0.08158943057060242,-0.09528037905693054,3.0212767124176025,-0.049108635634183884,0.0519544743001461,-0.007143934722989798,-133,-83,-1000,-47,53,-7,-665,97,-1,200.0
13:19:52.098,AUTO,-35.3637576,149.165327,21495,0.08021700382232666,-0.08423644304275513,3.0214853286743164,-0.037947047501802444,0.048215318471193314,0.007289860397577286,-138,-78,-993,-36,49,7,-655,94,-2,200.0
13:19:52.300,AUTO,-35.3637576,149.165327,21495,0.08021700382232666,-0.08423644304275513,3.0214853286743164,-0.037947047501802444,0.048215318471193314,0.007289860397577286,-138,-78,-993,-36,49,7,-655,94,-2,200.0
13:19:52.502,AUTO,-35.3637722,149.1653296,21502,0.0796356052160263,-0.07489772140979767,3.0215814113616943,0.03301163390278816,0.06352211534976959,-0.0058480193838477135,-134,-87,-991,34,64,-5,-642,92,-2,200.0
13:19:52.704,AUTO,-35.3637865,149.1653322,21508,0.08143304288387299,-0.06375624984502792,3.021136999130249,0.009449073113501072,0.03359760716557503,-0.0013472172431647778,-123,-77,-982,10,34,-1,-627,90,-1,200.0
13:19:52.906,AUTO,-35.3638005,149.1653346,21511,0.07922790199518204,-0.04954104125499725,3.0214343070983887,-0.0662274956703186,0.05613720417022705,0.0004538284265436232,-125,-86,-992,-64,57,0,-611,87,0,200.0
13:19:53.108,AUTO,-35.3638141,149.1653369,21511,0.07758382707834244,-0.03914623707532883,3.020968437194824,0.023946205154061317,0.032128091901540756,-0.0034128024708479643,-120,-63,-983,25,33,-3,-592,83,0,200.0
13:19:53.310,AUTO,-35.3638141,149.1653369,21511,0.07758382707834244,-0.03914623707532883,3.020968437194824,0.023946205154061317,0.032128091901540756,-0.0034128024708479643,-120,-63,-983,25,33,-3,-592,83,0,200.0
13:19:53.514,AUTO,-35.3638141,149.1653369,21511,0.07758382707834244,-0.03914623707532883,3.020968437194824,0.023946205154061317,0.032128091901540756,-0.0034128024708479643,-120,-63,-983,25,33,-3,-592,83,0,200.0
13:19:53.722,AUTO,-35.3638141,149.1653369,21511,0.07758382707834244,-0.03914623707532883,3.020968437194824,0.023946205154061317,0.032128091901540756,-0.0034128024708479643,-120,-63,-983,25,33,-3,-592,83,0,200.0
13:19:53.924,AUTO,-35.3638521,149.1653432,21487,0.06649597734212875,-0.001219351775944233,3.0200400352478027,0.31683745980262756,0.02780858799815178,-0.04614465311169624,-113,-49,-994,319,28,-46,-525,73,4,200.0
13:19:54.126,AUTO,-35.3638637,149.1653451,21469,0.07153311371803284,0.01136515848338604,3.020879030227661,0.5876346826553345,0.06847977638244629,-0.007965273223817348,-94,-50,-995,588,69,-8,-500,70,8,91549.0
13:19:54.328,AUTO,-35.3638747,149.1653469,21447,0.06142669916152954,0.023657314479351044,3.0218119621276855,-0.3621428608894348,0.03907794877886772,0.056510079652071,-100,-121,-992,-362,40,56,-470,68,8,91549.0
13:19:54.530,AUTO,-35.3638747,149.1653469,21447,0.06142669916152954,0.023657314479351044,3.0218119621276855,-0.3621428608894348,0.03907794877886772,0.056510079652071,-100,-121,-992,-362,40,56,-470,68,8,91549.0
13:19:54.731,AUTO,-35.363885,149.1653486,21422,0.05425320565700531,0.03364694491028786,3.0213992595672607,-0.773356020450592,0.02706442028284073,0.03509794548153877,-92,-92,-1016,-771,28,35,-441,64,9,91549.0
13:19:54.933,AUTO,-35.3638947,149.1653502,21399,0.05058005452156067,0.04546826332807541,3.0202250480651855,0.010193961672484875,0.05432857573032379,-0.03789789229631424,-79,-31,-996,13,55,-37,-411,58,8,91549.0
13:19:55.135,AUTO,-35.3639037,149.1653517,21375,0.05054182931780815,0.05260211229324341,3.020097017288208,0.6808438301086426,0.0036394987255334854,-0.05157925561070442,-72,-15,-1010,684,4,-51,-380,53,8,91549.0
13:19:55.337,AUTO,-35.3639037,149.1653517,21375,0.05054182931780815,0.05260211229324341,3.020097017288208,0.6808438301086426,0.0036394987255334854,-0.05157925561070442,-72,-15,-1010,684,4,-51,-380,53,8,91549.0
13:19:55.539,AUTO,-35.3639037,149.1653517,21375,0.05054182931780815,0.05260211229324341,3.020097017288208,0.6808438301086426,0.0036394987255334854,-0.05157925561070442,-72,-15,-1010,684,4,-51,-380,53,8,91549.0
13:19:55.740,AUTO,-35.3639037,149.1653517,21375,0.05054182931780815,0.05260211229324341,3.020097017288208,0.6808438301086426,0.0036394987255334854,-0.05157925561070442,-72,-15,-1010,684,4,-51,-380,53,8,91549.0
13:19:55.942,AUTO,-35.3639267,149.1653552,21306,0.03192753344774246,0.05244583636522293,3.0198192596435547,-0.6307587623596191,0.024706628173589706,0.02527095191180706,-59,-83,-1014,-630,26,25,-295,42,6,91549.0
13:19:56.144,AUTO,-35.363933,149.1653561,21290,0.023897193372249603,0.05586855858564377,3.0190632343292236,-0.6335376501083374,0.0053319176658988,0.00965677946805954,-55,-60,-1007,-631,6,9,-267,39,4,91549.0
13:19:56.346,AUTO,-35.3639388,149.165357,21277,0.026804877445101738,0.0602569580078125,3.018549919128418,0.281046986579895,0.022027768194675446,-0.013854331336915493,-51,0,-1007,284,23,-13,-241,34,3,91549.0
13:19:56.547,AUTO,-35.3639388,149.165357,21277,0.026804877445101738,0.0602569580078125,3.018549919128418,0.281046986579895,0.022027768194675446,-0.013854331336915493,-51,0,-1007,284,23,-13,-241,34,3,91549.0
13:19:56.749,AUTO,-35.363944,149.1653577,21266,0.030710112303495407,0.06744120270013809,3.0187933444976807,0.5325179696083069,0.026346363127231598,0.003376969136297703,-44,-24,-1016,533,27,3,-213,32,2,91549.0
13:19:56.951,AUTO,-35.3639486,149.1653584,21258,0.01698356494307518,0.07498174160718918,3.018674373626709,-0.3760826587677002,0.03352244198322296,0.017925474792718887,-41,-60,-1007,-376,34,18,-186,29,1,91549.0
13:19:57.153,AUTO,-35.3639525,149.1653589,21254,0.004663353785872459,0.08058003336191177,3.01796293258667,-0.6282462477684021,0.0046547893434762955,-0.0003521771577652544,-32,-40,-1011,-626,6,0,-158,26,0,91549.0
13:19:57.355,AUTO,-35.3639525,149.1653589,21254,0.004663353785872459,0.08058003336191177,3.01796293258667,-0.6282462477684021,0.0046547893434762955,-0.0003521771577652544,-32,-40,-1011,-626,6,0,-158,26,0,91549.0
13:19:57.557,AUTO,-35.3639525,149.1653589,21254,0.004663353785872459,0.08058003336191177,3.01796293258667,-0.6282462477684021,0.0046547893434762955,-0.0003521771577652544,-32,-40,-1011,-626,6,0,-158,26,0,91549.0
13:19:57.759,AUTO,-35.3639525,149.1653589,21254,0.004663353785872459,0.08058003336191177,3.01796293258667,-0.6282462477684021,0.0046547893434762955,-0.0003521771577652544,-32,-40,-1011,-626,6,0,-158,26,0,91549.0
13:19:57.960,AUTO,-35.3639609,149.1653602,21243,0.00955888256430626,0.061694685369729996,3.017258405685425,0.022584345191717148,-0.023942893370985985,0.00877369288355112,-18,-26,-998,22,-22,8,-87,18,1,91549.0
