time_stamp,MODE,lat,lon,relative_alt,roll,pitch,yaw,rollspeed,pitchspeed,yawspeed,xacc,yacc,zacc,xgyro,ygyro,zgyro,vx,vy,vz,RTL_ALT
15:55:00.647,STABILIZE,-35.3632621,149.1652374,0,-1.3508270967577118e-05,0.001493874122388661,0.027692409232258797,0.0004123416729271412,0.00039166081114672124,0.0024089179933071136,0,1,-1000,0,0,0,0,0,-1,1500.0
15:55:00.848,STABILIZE,-35.3632621,149.1652374,0,-1.3508270967577118e-05,0.001493874122388661,0.027692409232258797,0.0004123416729271412,0.00039166081114672124,0.0024089179933071136,0,1,-1000,0,0,0,0,0,-1,1500.0
15:55:01.049,STABILIZE,-35.3632621,149.1652374,0,-1.3508270967577118e-05,0.001493874122388661,0.027692409232258797,0.0004123416729271412,0.00039166081114672124,0.0024089179933071136,0,1,-1000,0,0,0,0,0,-1,1500.0
15:55:01.250,STABILIZE,-35.3632621,149.1652374,0,-1.3508270967577118e-05,0.001493874122388661,0.027692409232258797,0.0004123416729271412,0.00039166081114672124,0.0024089179933071136,0,1,-1000,0,0,0,0,0,-1,1500.0
15:55:01.451,STABILIZE,-35.3632621,149.1652374,0,4.622177584678866e-05,0.0016066679963842034,0.027151651680469513,0.00021858885884284973,0.0001928950659930706,0.002337736077606678,0,1,-1000,0,0,0,-1,1,-1,1500.0
15:55:01.652,STABILIZE,-35.3632621,149.1652374,0,4.622177584678866e-05,0.0016066679963842034,0.027151651680469513,0.00021858885884284973,0.0001928950659930706,0.002337736077606678,0,1,-1000,0,0,0,-1,1,-1,1500.0
15:55:01.853,STABILIZE,-35.3632621,149.1652374,0,4.622177584678866e-05,0.0016066679963842034,0.027151651680469513,0.00021858885884284973,0.0001928950659930706,0.002337736077606678,0,1,-1000,0,0,0,-1,1,-1,1500.0
15:55:02.054,STABILIZE,-35.3632621,149.1652374,0,4.622177584678866e-05,0.0016066679963842034,0.027151651680469513,0.00021858885884284973,0.0001928950659930706,0.002337736077606678,0,1,-1000,0,0,0,-1,1,-1,1500.0
15:55:02.256,STABILIZE,-35.3632621,149.1652374,0,4.622177584678866e-05,0.0016066679963842034,0.027151651680469513,0.00021858885884284973,0.0001928950659930706,0.002337736077606678,0,1,-1000,0,0,0,-1,1,-1,1500.0
15:55:02.457,STABILIZE,-35.3632621,149.1652374,0,4.622177584678866e-05,0.0016066679963842034,0.027151651680469513,0.00021858885884284973,0.0001928950659930706,0.002337736077606678,0,1,-1000,1,0,0,-1,1,-1,1500.0
15:55:02.658,STABILIZE,-35.3632621,149.1652374,0,4.622177584678866e-05,0.0016066679963842034,0.027151651680469513,0.00021858885884284973,0.0001928950659930706,0.002337736077606678,0,1,-1000,1,0,0,-1,1,-1,1500.0
15:55:02.859,STABILIZE,-35.3632622,149.1652375,0,-0.0001714839891064912,0.001508970046415925,0.026174701750278473,0.00029144890140742064,0.000267849478404969,0.0022245871368795633,0,1,-1000,0,0,0,-2,1,0,1500.0
15:55:03.060,STABILIZE,-35.3632622,149.1652375,0,-0.0001714839891064912,0.001508970046415925,0.026174701750278473,0.00029144890140742064,0.000267849478404969,0.0022245871368795633,0,1,-1000,0,0,0,-2,1,0,1500.0
15:55:03.262,STABILIZE,-35.3632622,149.1652375,0,-0.0001714839891064912,0.001508970046415925,0.026174701750278473,0.00029144890140742064,0.000267849478404969,0.0022245871368795633,0,1,-1000,0,0,0,-2,1,0,1500.0
15:55:03.463,STABILIZE,-35.3632622,149.1652375,0,-0.0001714839891064912,0.001508970046415925,0.026174701750278473,0.00029144890140742064,0.000267849478404969,0.0022245871368795633,0,1,-1000,0,0,0,-2,1,0,1500.0
15:55:03.664,STABILIZE,-35.3632622,149.1652375,0,-0.0001714839891064912,0.001508970046415925,0.026174701750278473,0.00029144890140742064,0.000267849478404969,0.0022245871368795633,0,1,-1000,0,0,0,-2,1,0,1500.0
15:55:03.865,STABILIZE,-35.3632622,149.1652375,0,-0.0001714839891064912,0.001508970046415925,0.026174701750278473,0.00029144890140742064,0.000267849478404969,0.0022245871368795633,0,1,-1000,0,0,0,-2,1,0,1500.0
15:55:04.066,STABILIZE,-35.3632622,149.1652375,0,-0.0001714839891064912,0.001508970046415925,0.026174701750278473,0.00029144890140742064,0.000267849478404969,0.0022245871368795633,0,1,-1000,0,0,0,-1,1,0,1500.0
15:55:04.267,STABILIZE,-35.3632622,149.1652375,0,-0.0001714839891064912,0.001508970046415925,0.026174701750278473,0.00029144890140742064,0.000267849478404969,0.0022245871368795633,0,1,-1000,0,0,0,-1,1,0,1500.0
15:55:04.468,STABILIZE,-35.3632622,149.1652375,0,-0.0001714839891064912,0.001508970046415925,0.026174701750278473,0.00029144890140742064,0.000267849478404969,0.0022245871368795633,0,1,-1000,0,0,0,-1,1,0,1500.0
15:55:04.670,STABILIZE,-35.3632622,149.1652375,0,-0.0001714839891064912,0.001508970046415925,0.026174701750278473,0.00029144890140742064,0.000267849478404969,0.0022245871368795633,0,1,-1000,0,0,0,-1,1,0,1500.0
15:55:04.871,STABILIZE,-35.3632622,149.1652375,0,-0.000646773143671453,0.0011232368415221572,0.025134611874818802,0.000271744531346485,0.0002894920180551708,0.001818521530367434,0,1,-1000,0,0,0,-1,1,0,1500.0
15:55:05.072,STABILIZE,-35.3632622,149.1652375,0,-0.0006940337480045855,0.0010893449652940035,0.02501826174557209,0.00026924029225483537,0.0001962055393960327,0.0021189383696764708,0,1,-1000,0,0,0,-1,1,0,1500.0
15:55:05.273,STABILIZE,-35.3632622,149.1652375,0,-0.0006940337480045855,0.0010893449652940035,0.02501826174557209,0.00026924029225483537,0.0001962055393960327,0.0021189383696764708,0,1,-1000,0,0,0,-1,1,0,1500.0
15:55:05.475,STABILIZE,-35.3632622,149.1652375,0,-0.0006940337480045855,0.0010893449652940035,0.02501826174557209,0.00026924029225483537,0.0001962055393960327,0.0021189383696764708,0,1,-1000,0,0,0,-1,1,0,1500.0
15:55:05.676,STABILIZE,-35.3632622,149.1652375,0,-0.0006940337480045855,0.0010893449652940035,0.02501826174557209,0.00026924029225483537,0.0001962055393960327,0.0021189383696764708,0,1,-1000,0,0,0,-1,1,0,1500.0
15:55:05.877,STABILIZE,-35.3632622,149.1652375,0,-0.0006940337480045855,0.0010893449652940035,0.02501826174557209,0.00026924029225483537,0.0001962055393960327,0.0021189383696764708,0,1,-1000,0,0,0,-1,1,0,1500.0
15:55:06.079,STABILIZE,-35.3632622,149.1652375,0,-0.0006940337480045855,0.0010893449652940035,0.02501826174557209,0.00026924029225483537,0.0001962055393960327,0.0021189383696764708,0,1,-1000,0,0,0,-1,1,0,1500.0
15:55:06.280,STABILIZE,-35.3632622,149.1652375,0,-0.0006940337480045855,0.0010893449652940035,0.02501826174557209,0.00026924029225483537,0.0001962055393960327,0.0021189383696764708,0,1,-1000,0,0,0,-1,2,2,1500.0
15:55:06.484,STABILIZE,-35.3632622,149.1652375,0,-0.0006940337480045855,0.0010893449652940035,0.02501826174557209,0.00026924029225483537,0.0001962055393960327,0.0021189383696764708,0,1,-1000,0,0,0,-1,2,2,1500.0
15:55:06.685,STABILIZE,-35.3632622,149.1652375,0,-0.0006940337480045855,0.0010893449652940035,0.02501826174557209,0.00026924029225483537,0.0001962055393960327,0.0021189383696764708,0,1,-1000,0,0,0,-1,2,2,1500.0
15:55:06.886,STABILIZE,-35.3632621,149.1652375,0,-0.0006954032578505576,0.0009746379218995571,0.024267511442303658,0.00018999824533239007,0.00024450718774460256,0.0017858172068372369,0,1,-1000,0,0,0,-1,1,1,1500.0
15:55:07.087,STABILIZE,-35.3632621,149.1652375,0,-0.0006954032578505576,0.0009746379218995571,0.024267511442303658,0.00018999824533239007,0.00024450718774460256,0.0017858172068372369,0,1,-1000,0,0,0,-1,1,1,1500.0
15:55:07.288,STABILIZE,-35.3632621,149.1652375,0,-0.0006954032578505576,0.0009746379218995571,0.024267511442303658,0.00018999824533239007,0.00024450718774460256,0.0017858172068372369,0,1,-1000,0,0,0,-1,1,1,1500.0
15:55:07.490,STABILIZE,-35.3632621,149.1652375,0,-0.0006954032578505576,0.0009746379218995571,0.024267511442303658,0.00018999824533239007,0.00024450718774460256,0.0017858172068372369,0,1,-1000,0,0,0,-1,1,1,1500.0
15:55:07.691,STABILIZE,-35.3632621,149.1652375,0,-0.0006954032578505576,0.0009746379218995571,0.024267511442303658,0.00018999824533239007,0.00024450718774460256,0.0017858172068372369,0,1,-1000,0,0,0,-1,1,1,1500.0
15:55:07.892,STABILIZE,-35.3632621,149.1652375,0,-0.0006954032578505576,0.0009746379218995571,0.024267511442303658,0.00018999824533239007,0.00024450718774460256,0.0017858172068372369,0,1,-1000,0,0,0,-1,1,1,1500.0
15:55:08.093,STABILIZE,-35.3632621,149.1652375,0,-0.0008998065022751689,0.0009400498820468783,0.023822471499443054,0.0002637647558003664,0.00027592439437285066,0.0019067421089857817,0,1,-1000,0,0,0,-1,1,1,1500.0
15:55:08.295,STABILIZE,-35.3632621,149.1652375,0,-0.0008998065022751689,0.0009400498820468783,0.023822471499443054,0.0002637647558003664,0.00027592439437285066,0.0019067421089857817,0,1,-1000,0,0,0,-1,1,1,1500.0
15:55:08.496,STABILIZE,-35.3632621,149.1652375,0,-0.0008998065022751689,0.0009400498820468783,0.023822471499443054,0.0002637647558003664,0.00027592439437285066,0.0019067421089857817,0,1,-1000,0,0,0,-1,1,1,1500.0
15:55:08.697,STABILIZE,-35.3632621,149.1652375,0,-0.0008998065022751689,0.0009400498820468783,0.023822471499443054,0.0002637647558003664,0.00027592439437285066,0.0019067421089857817,0,1,-1000,0,0,0,-1,1,1,1500.0
15:55:08.898,STABILIZE,-35.3632621,149.1652375,0,-0.0009712297469377518,0.0009368524188175797,0.02356051839888096,0.00017667555948719382,0.00022676674416288733,0.0017946348525583744,0,1,-1000,0,0,1,-1,1,1,1500.0
15:55:09.100,STABILIZE,-35.3632621,149.1652375,0,-0.0009836985263973475,0.0009385611629113555,0.023494286462664604,0.0003073532716371119,0.00023720110766589642,0.001843115664087236,0,1,-1000,0,0,0,-1,1,1,1500.0
15:55:09.301,STABILIZE,-35.3632621,149.1652375,0,-0.0009912739042192698,0.0009459239663556218,0.023407476022839546,0.0001989576267078519,0.0002877255901694298,0.001873777131550014,0,1,-1000,0,0,0,-1,0,-1,1500.0
15:55:09.503,STABILIZE,-35.3632621,149.1652375,0,-0.0009912739042192698,0.0009459239663556218,0.023407476022839546,0.0001989576267078519,0.0002877255901694298,0.001873777131550014,0,1,-1000,0,0,0,-1,0,-1,1500.0
15:55:09.704,STABILIZE,-35.3632621,149.1652375,0,-0.0009912739042192698,0.0009459239663556218,0.023407476022839546,0.0001989576267078519,0.0002877255901694298,0.001873777131550014,0,1,-1000,0,0,0,-1,0,-1,1500.0
15:55:09.905,STABILIZE,-35.3632621,149.1652375,0,-0.0009912739042192698,0.0009459239663556218,0.023407476022839546,0.0001989576267078519,0.0002877255901694298,0.001873777131550014,0,1,-1000,0,0,0,-1,0,-1,1500.0
15:55:10.107,STABILIZE,-35.3632621,149.1652375,0,-0.0008481116965413094,0.0009387560421600938,0.02318030595779419,0.0002094111987389624,0.0002110017230734229,0.0016897500026971102,0,1,-1000,0,0,1,-1,0,-1,1500.0
15:55:10.308,STABILIZE,-35.3632621,149.1652375,0,-0.0008481116965413094,0.0009387560421600938,0.02318030595779419,0.0002094111987389624,0.0002110017230734229,0.0016897500026971102,0,1,-1000,0,0,1,-1,0,-1,1500.0
15:55:10.509,STABILIZE,-35.3632621,149.1652375,0,-0.0008481116965413094,0.0009387560421600938,0.02318030595779419,0.0002094111987389624,0.0002110017230734229,0.0016897500026971102,0,1,-1000,0,0,1,-1,0,-1,1500.0
15:55:10.710,STABILIZE,-35.3632621,149.1652375,0,-0.0008481116965413094,0.0009387560421600938,0.02318030595779419,0.0002094111987389624,0.0002110017230734229,0.0016897500026971102,0,1,-1000,0,0,1,-1,0,-1,1500.0
15:55:10.911,STABILIZE,-35.3632621,149.1652375,0,-0.0008481116965413094,0.0009387560421600938,0.02318030595779419,0.0002094111987389624,0.0002110017230734229,0.0016897500026971102,0,1,-1000,0,0,1,-1,0,-1,1500.0
15:55:11.113,STABILIZE,-35.3632621,149.1652375,0,-0.0008481116965413094,0.0009387560421600938,0.02318030595779419,0.0002094111987389624,0.0002110017230734229,0.0016897500026971102,0,1,-1000,0,0,1,-1,0,-1,1500.0
15:55:11.314,STABILIZE,-35.3632621,149.1652375,0,-0.0006694089970551431,0.0009561652550473809,0.022776618599891663,0.0002090740599669516,0.0002835678169503808,0.001567283645272255,0,2,-1000,0,0,0,-1,0,0,1500.0
15:55:11.515,STABILIZE,-35.3632621,149.1652375,0,-0.0006694089970551431,0.0009561652550473809,0.022776618599891663,0.0002090740599669516,0.0002835678169503808,0.001567283645272255,0,2,-1000,0,0,0,-1,0,0,1500.0
15:55:11.716,STABILIZE,-35.3632621,149.1652375,0,-0.0006694089970551431,0.0009561652550473809,0.022776618599891663,0.0002090740599669516,0.0002835678169503808,0.001567283645272255,0,2,-1000,0,0,0,-1,0,0,1500.0
15:55:11.917,STABILIZE,-35.3632621,149.1652375,0,-0.0006694089970551431,0.0009561652550473809,0.022776618599891663,0.0002090740599669516,0.0002835678169503808,0.001567283645272255,0,2,-1000,0,0,0,-1,0,0,1500.0
15:55:12.118,STABILIZE,-35.3632621,149.1652375,0,-0.0006694089970551431,0.0009561652550473809,0.022776618599891663,0.0002090740599669516,0.0002835678169503808,0.001567283645272255,0,2,-1000,0,0,0,-1,0,0,1500.0
15:55:12.320,STABILIZE,-35.3632622,149.1652375,0,-0.0006484420737251639,0.0009660185314714909,0.022456645965576172,0.00018447486218065023,0.00020427186973392963,0.0015949480002745986,0,1,-1000,1,0,1,-1,1,0,1500.0
15:55:12.521,STABILIZE,-35.3632622,149.1652375,0,-0.0006415091920644045,0.0009667602716945112,0.02236047200858593,0.00024707376724109054,0.00015600933693349361,0.0016026378143578768,0,1,-1000,1,0,0,-1,1,0,1500.0
15:55:12.722,STABILIZE,-35.3632622,149.1652375,0,-0.0006415091920644045,0.0009667602716945112,0.02236047200858593,0.00024707376724109054,0.00015600933693349361,0.0016026378143578768,0,1,-1000,1,0,0,-1,1,0,1500.0
15:55:12.923,STABILIZE,-35.3632622,149.1652375,0,-0.0006415091920644045,0.0009667602716945112,0.02236047200858593,0.00024707376724109054,0.00015600933693349361,0.0016026378143578768,0,1,-1000,0,0,0,-1,1,0,1500.0
15:55:13.125,STABILIZE,-35.3632622,149.1652378,0,-0.0006415091920644045,0.0009667602716945112,0.02236047200858593,0.00024707376724109054,0.00015600933693349361,0.0016026378143578768,0,2,-1000,0,1,1,-1,10,13,1500.0
15:55:13.326,STABILIZE,-35.3632622,149.1652379,0,0.00030114868422970176,0.000967052299529314,0.02197202481329441,0.0003205638495273888,0.0002512888750061393,0.0015284245600923896,0,2,-1000,0,1,0,-1,9,12,1500.0
15:55:13.528,STABILIZE,-35.3632622,149.1652379,0,0.00030114868422970176,0.000967052299529314,0.02197202481329441,0.0003205638495273888,0.0002512888750061393,0.0015284245600923896,0,2,-1000,0,1,0,-1,9,12,1500.0
15:55:13.739,STABILIZE,-35.3632622,149.1652379,0,0.00030114868422970176,0.000967052299529314,0.02197202481329441,0.0003205638495273888,0.0002512888750061393,0.0015284245600923896,0,2,-1000,0,1,0,-1,9,12,1500.0
15:55:13.941,STABILIZE,-35.3632622,149.1652379,0,0.00030114868422970176,0.000967052299529314,0.02197202481329441,0.0003205638495273888,0.0002512888750061393,0.0015284245600923896,0,2,-1000,0,1,0,-1,9,12,1500.0
15:55:14.142,STABILIZE,-35.3632622,149.1652379,0,-0.0005879593663848937,0.0009717635693959892,0.021632254123687744,6.869493518024683e-05,0.000324294320307672,0.0015485535841435194,0,1,-1000,1,0,0,-1,6,10,1500.0
15:55:14.344,STABILIZE,-35.3632622,149.1652379,0,-0.0008440209785476327,0.0009652752196416259,0.021542778238654137,0.000166949350386858,0.00023002579109743237,0.0016188150038942695,0,1,-1000,1,0,0,-1,5,9,1500.0
15:55:14.545,AUTO,-35.3632622,149.1652378,0,-0.0010601107496768236,0.0009666847181506455,0.021462280303239822,0.0003434000536799431,0.000129948602989316,0.0014568502083420753,0,1,-1000,0,0,0,-1,5,8,1500.0
15:55:14.748,AUTO,-35.3632622,149.1652378,0,-0.0010601107496768236,0.0009666847181506455,0.021462280303239822,0.0003434000536799431,0.000129948602989316,0.0014568502083420753,0,1,-1000,0,0,0,-1,5,8,1500.0
15:55:14.949,AUTO,-35.3632622,149.1652378,1,-0.0012755481293424964,0.0009667828562669456,0.021426763385534286,8.651049574837089e-05,0.00031759851844981313,0.001552071189507842,0,1,-1000,0,1,1,-1,4,7,1500.0
15:55:15.151,AUTO,-35.3632622,149.1652378,0,-0.0014525357400998473,0.0009655140456743538,0.02137342467904091,0.00019462668569758534,0.0002817720524035394,0.0015346158761531115,0,1,-1000,0,0,1,-1,3,7,1500.0
15:55:15.352,AUTO,-35.3632622,149.1652377,0,-0.0015730614541098475,0.0009813160868361592,0.021323299035429955,0.00030050252098590136,0.00019385956693440676,0.0014829766005277634,0,2,-1000,1,1,1,-1,2,6,1500.0
15:55:15.553,AUTO,-35.3632622,149.1652377,0,-0.0015730614541098475,0.0009813160868361592,0.021323299035429955,0.00030050252098590136,0.00019385956693440676,0.0014829766005277634,0,2,-1000,1,1,1,-1,2,6,1500.0
15:55:15.755,AUTO,-35.3632622,149.1652377,0,-0.0015730614541098475,0.0009813160868361592,0.021323299035429955,0.00030050252098590136,0.00019385956693440676,0.0014829766005277634,0,2,-1000,1,1,1,-1,2,6,1500.0
15:55:15.956,AUTO,-35.3632622,149.1652377,0,-0.0015730614541098475,0.0009813160868361592,0.021323299035429955,0.00030050252098590136,0.00019385956693440676,0.0014829766005277634,0,2,-1000,1,1,1,-1,2,6,1500.0
15:55:16.157,AUTO,-35.3632621,149.1652376,0,-0.001383222988806665,0.0011011457536369562,0.0212349072098732,0.004298008978366852,0.00031566311372444034,0.0015389157924801111,0,25,-964,5,1,1,0,0,6,193808.0
15:55:16.359,AUTO,-35.3632621,149.1652375,0,-0.0013843406923115253,0.0011646122438833117,0.021206948906183243,0.00030663737561553717,0.0002077376702800393,0.0015628952533006668,0,1,-1000,1,0,0,0,0,5,193808.0
15:55:16.560,AUTO,-35.3632621,149.1652375,0,-0.0013787765055894852,0.0012258130591362715,0.021168220788240433,0.00019669439643621445,0.00023608905030414462,0.001405071932822466,0,1,-1000,0,0,0,0,-1,5,193808.0
15:55:16.762,AUTO,-35.3632621,149.1652375,0,-0.0013787765055894852,0.0012258130591362715,0.021168220788240433,0.00019669439643621445,0.00023608905030414462,0.001405071932822466,0,1,-1000,0,0,0,0,-1,5,193808.0
15:55:16.963,AUTO,-35.3632621,149.1652375,0,-0.0013562397798523307,0.0012909875949844718,0.021132512018084526,0.0002912658965215087,0.00025778712006285787,0.0014817863702774048,0,1,-1000,1,0,0,0,-1,4,193808.0
15:55:17.165,AUTO,-35.3632621,149.1652374,0,-0.0013320865109562874,0.0013555941404774785,0.021095063537359238,0.00011201825691387057,0.0002019256353378296,0.00143947615288198,0,2,-1000,0,1,0,0,-2,4,193808.0
15:55:17.366,AUTO,-35.3632621,149.1652374,0,-0.001304185832850635,0.0014250550884753466,0.02106892503798008,0.0001535197370685637,0.0003580793854780495,0.0014437648933380842,0,1,-1000,1,0,0,0,-2,3,193808.0
15:55:17.567,AUTO,-35.3632621,149.1652374,0,-0.001304185832850635,0.0014250550884753466,0.02106892503798008,0.0001535197370685637,0.0003580793854780495,0.0014437648933380842,0,1,-1000,1,0,0,0,-2,3,193808.0
15:55:17.769,AUTO,-35.3632621,149.1652374,0,-0.001304185832850635,0.0014250550884753466,0.02106892503798008,0.0001535197370685637,0.0003580793854780495,0.0014437648933380842,0,1,-1000,1,0,0,0,-2,3,193808.0
15:55:17.970,AUTO,-35.3632621,149.1652374,0,-0.001304185832850635,0.0014250550884753466,0.02106892503798008,0.0001535197370685637,0.0003580793854780495,0.0014437648933380842,0,1,-1000,1,0,0,0,-2,3,193808.0
15:55:18.171,AUTO,-35.3632621,149.1652374,0,-0.0011926817242056131,0.0016581087838858366,0.02096429280936718,0.0002061609411612153,0.00033537112176418304,0.0014382716035470366,0,1,-1000,1,0,0,0,-2,2,193808.0
15:55:18.373,AUTO,-35.3632621,149.1652374,0,-0.0011480251559987664,0.0017339675687253475,0.020911794155836105,0.0003154848818667233,0.000327837944496423,0.001401650020852685,0,2,-1000,0,0,0,0,-1,1,193808.0
15:55:18.574,AUTO,-35.3632621,149.1652374,0,0.00014839996583759785,0.0016909021651372313,0.020911410450935364,0.040623653680086136,-0.00471931928768754,0.0031103771179914474,0,2,-1039,41,-4,2,0,-1,0,193808.0
15:55:18.775,AUTO,-35.3632621,149.1652374,39,0.005638346541672945,-0.0005437479121610522,0.02105068415403366,0.0035862550139427185,-0.004312776494771242,0.0011316359741613269,0,-1,-1137,4,-3,0,0,0,-31,193808.0
15:55:18.977,AUTO,-35.3632621,149.1652374,39,0.005638346541672945,-0.0005437479121610522,0.02105068415403366,0.0035862550139427185,-0.004312776494771242,0.0011316359741613269,0,-1,-1137,4,-3,0,0,0,-31,193808.0
15:55:19.179,AUTO,-35.3632621,149.1652374,167,0.003993597347289324,-2.1899393232160946e-06,0.020991304889321327,-0.025424297899007797,0.004967001732438803,0.0011294296709820628,0,0,-1130,-24,5,0,0,0,-65,193808.0
15:55:19.381,AUTO,-35.3632621,149.1652375,373,0.001851751352660358,0.001187281683087349,0.0207389947026968,0.0027075419202446938,0.00472250347957015,0.0013134169857949018,0,0,-1109,3,5,0,0,0,-94,193808.0
15:55:19.583,AUTO,-35.3632621,149.1652375,373,0.001851751352660358,0.001187281683087349,0.0207389947026968,0.0027075419202446938,0.00472250347957015,0.0013134169857949018,0,0,-1109,3,5,0,0,0,-94,193808.0
15:55:19.785,AUTO,-35.3632621,149.1652375,373,0.001851751352660358,0.001187281683087349,0.0207389947026968,0.0027075419202446938,0.00472250347957015,0.0013134169857949018,0,0,-1109,3,5,0,0,0,-94,193808.0
15:55:19.986,AUTO,-35.3632621,149.1652375,373,0.001851751352660358,0.001187281683087349,0.0207389947026968,0.0027075419202446938,0.00472250347957015,0.0013134169857949018,0,0,-1109,3,5,0,0,0,-94,193808.0
15:55:20.188,AUTO,-35.363262,149.1652375,1341,0.016788918524980545,-1.272871668334119e-05,0.020336881279945374,0.046891991049051285,-0.007237534038722515,0.0019379414152354002,0,0,-1022,47,-6,1,0,3,-144,142172.0
15:55:20.389,AUTO,-35.363262,149.1652377,1725,0.028237134218215942,-0.0019812986720353365,0.020452192053198814,0.04503098502755165,-0.008132951334118843,0.002690716180950403,0,-1,-1009,45,-7,2,1,8,-147,142172.0
15:55:20.590,AUTO,-35.3632619,149.165238,2114,0.03927703574299812,-0.0041620139963924885,0.020711783319711685,0.04346153512597084,-0.00898329634219408,0.0031856163404881954,0,-3,-1003,44,-8,2,2,16,-149,142172.0
15:55:20.792,AUTO,-35.3632618,149.1652386,2505,0.04969889298081398,-0.006712801288813353,0.021022198721766472,0.04034041240811348,-0.010697836987674236,0.00379232969135046,1,-4,-1000,40,-10,3,4,25,-150,142172.0
15:55:20.993,AUTO,-35.3632618,149.1652386,2505,0.04969889298081398,-0.006712801288813353,0.021022198721766472,0.04034041240811348,-0.010697836987674236,0.00379232969135046,1,-4,-1000,40,-10,3,4,25,-150,142172.0
15:55:21.195,AUTO,-35.3632617,149.1652395,2897,0.05916381627321243,-0.009611446410417557,-0.0038727764040231705,0.036460958421230316,-0.0125039704144001,0.0032970437314361334,1,-7,-998,37,-11,2,7,37,-150,142172.0
15:55:21.397,AUTO,-35.3632614,149.1652407,3283,0.04940713196992874,0.003919400740414858,-0.020175114274024963,-0.09569999575614929,0.10952716320753098,-0.11707615852355957,1,-9,-991,-95,110,-117,10,49,-148,142172.0
15:55:21.599,AUTO,-35.3632614,149.1652407,3283,0.04940713196992874,0.003919400740414858,-0.020175114274024963,-0.09569999575614929,0.10952716320753098,-0.11707615852355957,1,-9,-991,-95,110,-117,10,49,-148,142172.0
15:55:21.801,AUTO,-35.3632614,149.1652407,3283,0.04940713196992874,0.003919400740414858,-0.020175114274024963,-0.09569999575614929,0.10952716320753098,-0.11707615852355957,1,-9,-991,-95,110,-117,10,49,-148,142172.0
15:55:22.003,AUTO,-35.3632614,149.1652407,3283,0.04940713196992874,0.003919400740414858,-0.020175114274024963,-0.09569999575614929,0.10952716320753098,-0.11707615852355957,1,-9,-991,-95,110,-117,10,49,-148,142172.0
15:55:22.205,AUTO,-35.3632609,149.1652447,4429,-0.038161929696798325,0.01452716626226902,-0.06876201182603836,-0.027334699407219887,-0.02346131205558777,-0.04424996301531792,4,-8,-1008,-26,-22,-44,1,36,-150,142172.0
15:55:22.407,AUTO,-35.3632609,149.1652456,4818,-0.04169848561286926,0.009113544598221779,-0.07753247022628784,-0.004420965909957886,-0.017336610704660416,-0.03185655549168587,4,-5,-1004,-3,-16,-32,0,25,-152,142172.0
15:55:22.608,AUTO,-35.3632609,149.1652461,5209,-0.049092214554548264,0.004199289716780186,-0.08394322544336319,-0.057003479450941086,-0.02002222090959549,-0.019398169592022896,2,-4,-997,-56,-19,-19,-1,12,-152,142172.0
15:55:22.810,AUTO,-35.3632609,149.1652463,5597,-0.0664198249578476,-0.0014574617380276322,-0.08737625926733017,-0.07453308254480362,-0.02267342433333397,-0.00769178569316864,1,-1,-998,-73,-22,-8,-2,-2,-151,142172.0
15:55:23.012,AUTO,-35.3632609,149.1652463,5597,-0.0664198249578476,-0.0014574617380276322,-0.08737625926733017,-0.07453308254480362,-0.02267342433333397,-0.00769178569316864,1,-1,-998,-73,-22,-8,-2,-2,-151,142172.0
15:55:23.214,AUTO,-35.3632609,149.1652461,5983,-0.07347500324249268,-0.005257382057607174,-0.09068209677934647,0.020975418388843536,-0.0046341004781425,-0.01261756382882595,0,2,-1004,21,-4,-13,-2,-19,-151,142172.0
15:55:23.416,AUTO,-35.363261,149.1652454,6370,-0.06215478852391243,-0.005888193380087614,-0.0939917340874672,0.05405307933688164,-0.000586651440244168,-0.007619683630764484,-2,5,-1002,54,0,-8,-2,-35,-151,142172.0
15:55:23.618,AUTO,-35.363261,149.1652454,6370,-0.06215478852391243,-0.005888193380087614,-0.0939917340874672,0.05405307933688164,-0.000586651440244168,-0.007619683630764484,-2,5,-1002,54,0,-8,-2,-35,-151,142172.0
15:55:23.820,AUTO,-35.363261,149.1652454,6370,-0.06215478852391243,-0.005888193380087614,-0.0939917340874672,0.05405307933688164,-0.000586651440244168,-0.007619683630764484,-2,5,-1002,54,0,-8,-2,-35,-151,142172.0
15:55:24.022,AUTO,-35.363261,149.1652454,6370,-0.06215478852391243,-0.005888193380087614,-0.0939917340874672,0.05405307933688164,-0.000586651440244168,-0.007619683630764484,-2,5,-1002,54,0,-8,-2,-35,-151,142172.0
15:55:24.224,AUTO,-35.3632612,149.1652413,7530,-0.016555126756429672,-0.0010230039479210973,-0.09780183434486389,0.06531890481710434,0.011762323789298534,0.00019170143059454858,-5,8,-1003,66,12,0,-4,-58,-153,148893.0
15:55:24.426,AUTO,-35.3632613,149.1652397,7920,-4.78672118333634e-05,0.002113963244482875,-0.09774663299322128,0.06495077162981033,0.012471918947994709,0.0013698353432118893,-7,12,-1003,65,13,0,-6,-58,-153,148893.0
15:55:24.629,AUTO,-35.3632615,149.1652381,8316,0.016624854877591133,0.005247411783784628,-0.09726012498140335,0.06670065224170685,0.012147410772740841,0.0025645464193075895,-6,12,-1004,67,12,2,-7,-53,-154,148893.0
15:55:24.831,AUTO,-35.3632617,149.1652366,8709,0.03300248831510544,0.007913856767117977,-0.09643985331058502,0.06479887664318085,0.009373296052217484,0.003128621494397521,-6,12,-1004,65,10,2,-9,-45,-155,148893.0
15:55:25.032,AUTO,-35.3632619,149.1652355,9104,0.04876645654439926,0.009599234908819199,-0.09538965672254562,0.06276420503854752,0.005104854237288237,0.004107822198420763,-3,8,-1002,63,5,3,-11,-32,-156,148893.0
15:55:25.234,AUTO,-35.3632619,149.1652355,9104,0.04876645654439926,0.009599234908819199,-0.09538965672254562,0.06276420503854752,0.005104854237288237,0.004107822198420763,-3,8,-1002,63,5,3,-11,-32,-156,148893.0
15:55:25.436,AUTO,-35.3632622,149.1652347,9500,0.06346683204174042,0.00979809369891882,-0.09358272701501846,0.0455547459423542,-0.008180119097232819,0.019521525129675865,-1,7,-999,46,-7,19,-12,-17,-156,148893.0
15:55:25.639,AUTO,-35.3632622,149.1652347,9500,0.06346683204174042,0.00979809369891882,-0.09358272701501846,0.0455547459423542,-0.008180119097232819,0.019521525129675865,-1,7,-999,46,-7,19,-12,-17,-156,148893.0
15:55:25.842,AUTO,-35.3632622,149.1652347,9500,0.06346683204174042,0.00979809369891882,-0.09358272701501846,0.0455547459423542,-0.008180119097232819,0.019521525129675865,-1,7,-999,46,-7,19,-12,-17,-156,148893.0
15:55:26.044,AUTO,-35.3632627,149.1652348,10664,0.020990772172808647,-0.015988294035196304,-0.06945548951625824,-0.08333627134561539,0.01635998673737049,-0.007109259720891714,2,-1,-999,-82,16,-7,0,17,-152,148893.0
15:55:26.246,AUTO,-35.3632627,149.1652348,10664,0.020990772172808647,-0.015988294035196304,-0.06945548951625824,-0.08333627134561539,0.01635998673737049,-0.007109259720891714,2,-1,-999,-82,16,-7,0,17,-152,148893.0
15:55:26.448,AUTO,-35.3632627,149.1652352,11048,0.003322187578305602,-0.011235596612095833,-0.07397572696208954,-0.05532334744930267,0.019589385017752647,-0.026097485795617104,2,-3,-1003,-54,20,-26,3,18,-152,148893.0
15:55:26.649,AUTO,-35.3632627,149.1652356,11433,-0.007919885218143463,-0.006874872837215662,-0.08182213455438614,-0.03833381086587906,0.015150513499975204,-0.033117156475782394,0,-3,-1002,-37,15,-33,6,16,-153,148893.0
15:55:26.851,AUTO,-35.3632625,149.165236,11820,-0.013829611241817474,-0.0036514352541416883,-0.09120815992355347,-0.013553839176893234,0.013211863115429878,-0.03550029546022415,0,-3,-1003,-12,14,-36,7,11,-153,148893.0
15:55:27.052,AUTO,-35.3632624,149.1652362,12209,-0.015590994618833065,-0.0013780542649328709,-0.10049523413181305,0.001430749660357833,0.009100953117012978,-0.03370364010334015,0,-3,-1002,1,9,-34,8,6,-154,148893.0
15:55:27.254,AUTO,-35.3632624,149.1652362,12209,-0.015590994618833065,-0.0013780542649328709,-0.10049523413181305,0.001430749660357833,0.009100953117012978,-0.03370364010334015,0,-3,-1002,1,9,-34,8,6,-154,148893.0
15:55:27.456,AUTO,-35.3632622,149.1652363,12599,-0.014224903658032417,0.0008070582407526672,-0.10955509543418884,0.009487606585025787,0.009452283382415771,-0.0342615470290184,-1,-1,-1001,10,10,-34,8,1,-154,148893.0
15:55:27.657,AUTO,-35.3632622,149.1652363,12599,-0.014224903658032417,0.0008070582407526672,-0.10955509543418884,0.009487606585025787,0.009452283382415771,-0.0342615470290184,-1,-1,-1001,10,10,-34,8,1,-154,148893.0
15:55:27.859,AUTO,-35.3632622,149.1652363,12599,-0.014224903658032417,0.0008070582407526672,-0.10955509543418884,0.009487606585025787,0.009452283382415771,-0.0342615470290184,-1,-1,-1001,10,10,-34,8,1,-154,148893.0
15:55:28.061,AUTO,-35.3632617,149.165236,13775,-0.0021480422001332045,0.006094361189752817,-0.1317504346370697,0.017961883917450905,0.006429321598261595,-0.023306913673877716,-2,0,-1000,18,6,-23,4,-6,-155,148893.0
15:55:28.262,AUTO,-35.3632617,149.165236,13775,-0.0021480422001332045,0.006094361189752817,-0.1317504346370697,0.017961883917450905,0.006429321598261595,-0.023306913673877716,-2,0,-1000,18,6,-23,4,-6,-155,300000.0
15:55:28.464,AUTO,-35.3632616,149.1652358,14166,0.0021400973200798035,0.007566614076495171,-0.13745877146720886,0.016197852790355682,0.006130750756710768,-0.020324021577835083,-2,0,-1000,16,6,-20,3,-6,-155,300000.0
15:55:28.665,AUTO,-35.3632615,149.1652357,14558,0.005182275082916021,0.008121845312416553,-0.1417386829853058,0.01068427599966526,-9.63908969424665e-05,-0.013262174092233181,-2,0,-999,11,0,-13,1,-5,-155,300000.0
15:55:28.867,AUTO,-35.3632614,149.1652355,14947,0.007434376049786806,0.008300965651869774,-0.14544080197811127,0.007132094819098711,0.0017011231975629926,-0.01241183839738369,-1,0,-999,7,2,-12,0,-3,-155,300000.0
15:55:29.068,AUTO,-35.3632614,149.1652354,15345,0.00883493572473526,0.008061910048127174,-0.14844763278961182,0.0053026070818305016,-0.00205135066062212,-0.010936091654002666,-1,0,-1000,6,-1,-11,-1,-2,-155,300000.0
15:55:29.270,AUTO,-35.3632614,149.1652354,15345,0.00883493572473526,0.008061910048127174,-0.14844763278961182,0.0053026070818305016,-0.00205135066062212,-0.010936091654002666,-1,0,-1000,6,-1,-11,-1,-2,-155,300000.0
15:55:29.472,AUTO,-35.3632614,149.1652353,15735,0.009137635119259357,0.00759151391685009,-0.1511680781841278,0.00011645752238109708,-0.0017579477280378342,-0.009253831580281258,0,0,-999,0,-1,-9,-2,0,-155,300000.0
15:55:29.674,AUTO,-35.3632614,149.1652353,15735,0.009137635119259357,0.00759151391685009,-0.1511680781841278,0.00011645752238109708,-0.0017579477280378342,-0.009253831580281258,0,0,-999,0,-1,-9,-2,0,-155,300000.0
15:55:29.875,AUTO,-35.3632614,149.1652353,15735,0.009137635119259357,0.00759151391685009,-0.1511680781841278,0.00011645752238109708,-0.0017579477280378342,-0.009253831580281258,0,0,-999,0,-1,-9,-2,0,-155,300000.0
15:55:30.077,AUTO,-35.3632614,149.1652353,16897,0.006632145959883928,0.005642579402774572,-0.15954163670539856,-0.0066339410841465,-0.00404634652659297,-0.013749719597399235,0,0,-1000,-5,-3,-14,-4,4,-155,300000.0
15:55:30.278,AUTO,-35.3632615,149.1652353,17287,0.005421577952802181,0.004905788693577051,-0.16285735368728638,-0.0021429553162306547,-0.0015878381673246622,-0.014564299024641514,0,0,-1000,-1,0,-15,-4,5,-155,300000.0
15:55:30.480,AUTO,-35.3632615,149.1652353,17287,0.005421577952802181,0.004905788693577051,-0.16285735368728638,-0.0021429553162306547,-0.0015878381673246622,-0.014564299024641514,0,0,-1000,-1,0,-15,-4,5,-155,300000.0
15:55:30.681,AUTO,-35.3632615,149.1652354,17677,0.004290468990802765,0.004405559040606022,-0.16657628118991852,-0.004577320069074631,-0.0006426347536034882,-0.015324206091463566,1,0,-1000,-3,0,-15,-4,6,-155,300000.0
15:55:30.883,AUTO,-35.3632616,149.1652355,18066,0.0034198013599961996,0.003945831209421158,-0.17055633664131165,-0.001382600050419569,-0.003107584547251463,-0.015673784539103508,0,0,-1000,0,-2,-16,-4,6,-155,300000.0
15:55:31.085,AUTO,-35.3632616,149.1652356,18456,0.002870512893423438,0.003604532452300191,-0.17506206035614014,-0.0011837902711704373,-0.0007361860480159521,-0.01998572051525116,0,0,-1000,0,0,-20,-4,6,-155,300000.0
15:55:31.286,AUTO,-35.3632617,149.1652357,18845,0.0021758293733000755,0.003318092320114374,-0.1797068566083908,-0.0005882799159735441,-0.0004086113185621798,-0.019397776573896408,0,0,-1000,0,0,-19,-4,6,-155,300000.0
15:55:31.488,AUTO,-35.3632617,149.1652357,18845,0.0021758293733000755,0.003318092320114374,-0.1797068566083908,-0.0005882799159735441,-0.0004086113185621798,-0.019397776573896408,0,0,-1000,0,0,-19,-4,6,-155,300000.0
15:55:31.690,AUTO,-35.3632617,149.1652357,18845,0.0021758293733000755,0.003318092320114374,-0.1797068566083908,-0.0005882799159735441,-0.0004086113185621798,-0.019397776573896408,0,0,-1000,0,0,-19,-4,6,-155,300000.0
15:55:31.891,AUTO,-35.3632617,149.1652357,18845,0.0021758293733000755,0.003318092320114374,-0.1797068566083908,-0.0005882799159735441,-0.0004086113185621798,-0.019397776573896408,0,0,-1000,0,0,-19,-4,6,-155,300000.0
15:55:32.094,AUTO,-35.3632617,149.1652357,18845,0.0021758293733000755,0.003318092320114374,-0.1797068566083908,-0.0005882799159735441,-0.0004086113185621798,-0.019397776573896408,0,0,-1000,0,0,-19,-4,6,-155,300000.0
15:55:32.295,AUTO,-35.3632618,149.165236,20170,0.0010446207597851753,0.002630565781146288,-0.19648303091526031,-0.0013989300932735205,9.87417297437787e-06,-0.020410718396306038,0,0,-1000,0,0,-20,-3,5,-155,84004.0
15:55:32.497,AUTO,-35.3632618,149.1652361,20560,0.0008700660546310246,0.0025523556396365166,-0.20165887475013733,-0.0015937876887619495,-7.616827497258782e-05,-0.020575908944010735,0,0,-1000,0,0,-20,-3,4,-155,84004.0
15:55:32.698,AUTO,-35.3632618,149.1652362,20950,0.0006917003775015473,0.002605052199214697,-0.20700065791606903,-0.0013937102630734444,0.0015757351648062468,-0.02346242219209671,0,0,-1000,0,2,-23,-2,4,-155,84004.0
15:55:32.900,AUTO,-35.3632618,149.1652362,21339,0.0008580659050494432,0.0029322889167815447,-0.21249164640903473,0.0006350601906888187,0.001466236775740981,-0.021648205816745758,0,0,-1000,1,2,-21,-2,3,-155,84004.0
15:55:33.101,AUTO,-35.3632618,149.1652362,21339,0.0008580659050494432,0.0029322889167815447,-0.21249164640903473,0.0006350601906888187,0.001466236775740981,-0.021648205816745758,0,0,-1000,1,2,-21,-2,3,-155,84004.0
15:55:33.303,AUTO,-35.3632618,149.1652363,21729,0.0012468829518184066,0.002865414833649993,-0.21768854558467865,0.0023157282266765833,-0.00014234916307032108,-0.02089574933052063,0,0,-1000,3,0,-21,-2,3,-155,84004.0
15:55:33.504,AUTO,-35.3632618,149.1652363,22118,0.0012278130743652582,0.002905180212110281,-0.22286760807037354,0.0019378720317035913,-0.0012561832554638386,-0.019315969198942184,0,0,-1000,2,0,-19,-2,3,-155,84004.0
15:55:33.706,AUTO,-35.3632618,149.1652363,22118,0.0012278130743652582,0.002905180212110281,-0.22286760807037354,0.0019378720317035913,-0.0012561832554638386,-0.019315969198942184,0,0,-1000,2,0,-19,-2,3,-155,84004.0
15:55:33.908,AUTO,-35.3632618,149.1652363,22118,0.0012278130743652582,0.002905180212110281,-0.22286760807037354,0.0019378720317035913,-0.0012561832554638386,-0.019315969198942184,0,0,-1000,2,0,-19,-2,3,-155,84004.0
15:55:34.109,AUTO,-35.3632618,149.1652363,22118,0.0012278130743652582,0.002905180212110281,-0.22286760807037354,0.0019378720317035913,-0.0012561832554638386,-0.019315969198942184,0,0,-1000,2,0,-19,-2,3,-155,84004.0
15:55:34.311,AUTO,-35.3632619,149.1652365,23285,0.0012083938345313072,0.0030440152622759342,-0.23829254508018494,-0.00028433138504624367,0.0008855999913066626,-0.02075674571096897,0,0,-1000,0,1,-21,-2,2,-155,84004.0
15:55:34.513,AUTO,-35.3632619,149.1652365,23675,0.0014741640770807862,0.002873516408726573,-0.2431652694940567,0.0020110690966248512,-0.0002917431411333382,-0.019041115418076515,0,0,-1000,2,0,-19,-2,2,-155,84004.0
15:55:34.714,AUTO,-35.3632619,149.1652366,24064,0.0017832211451604962,0.002633822849020362,-0.24788375198841095,0.001428823685273528,-0.0010545928962528706,-0.019193531945347786,0,0,-1000,2,0,-19,-2,2,-155,84004.0
15:55:34.916,AUTO,-35.3632619,149.1652366,24457,0.001737434882670641,0.0021479399874806404,-0.252362996339798,-0.0002170967636629939,-1.5383760910481215e-05,-0.01828082837164402,0,0,-1000,0,0,-18,-2,2,-155,84004.0
15:55:35.117,AUTO,-35.3632619,149.1652366,24457,0.001737434882670641,0.0021479399874806404,-0.252362996339798,-0.0002170967636629939,-1.5383760910481215e-05,-0.01828082837164402,0,0,-1000,0,0,-18,-2,2,-155,84004.0
15:55:35.319,AUTO,-35.3632619,149.1652366,24848,0.0015428742626681924,0.0017841981025412679,-0.25672367215156555,-0.0003309511230327189,0.0007539243088103831,-0.019213158637285233,0,0,-1000,0,1,-19,-2,2,-155,84004.0
15:55:35.520,AUTO,-35.363262,149.1652366,25236,-0.0031473299022763968,0.0023433903697878122,-0.26017600297927856,-0.10052507370710373,0.01345150638371706,0.002003500936552882,0,-1,-983,-99,14,1,-2,2,-154,84004.0
15:55:35.722,AUTO,-35.363262,149.1652366,25236,-0.0031473299022763968,0.0023433903697878122,-0.26017600297927856,-0.10052507370710373,0.01345150638371706,0.002003500936552882,0,-1,-983,-99,14,1,-2,2,-154,84004.0
15:55:35.924,AUTO,-35.363262,149.1652366,25236,-0.0031473299022763968,0.0023433903697878122,-0.26017600297927856,-0.10052507370710373,0.01345150638371706,0.002003500936552882,0,-1,-983,-99,14,1,-2,2,-154,84004.0
15:55:36.125,AUTO,-35.363262,149.1652366,25236,-0.0031473299022763968,0.0023433903697878122,-0.26017600297927856,-0.10052507370710373,0.01345150638371706,0.002003500936552882,0,-1,-983,-99,14,1,-2,2,-154,84004.0
15:55:36.327,AUTO,-35.3632621,149.1652366,26399,0.0038046978879719973,0.005010891705751419,-0.24720582365989685,0.028039341792464256,-0.0043949466198682785,0.027189576998353004,0,1,-1001,29,-3,26,-5,-1,-155,194705.0
15:55:36.528,AUTO,-35.3632622,149.1652365,26795,0.008447544649243355,0.0034965616650879383,-0.24027559161186218,0.013889412395656109,-0.0066444543190300465,0.027294857427477837,0,0,-1000,14,-5,26,-5,0,-155,194705.0
15:55:36.730,AUTO,-35.3632623,149.1652365,27184,0.009931928478181362,0.002229114528745413,-0.23364929854869843,0.0013414553832262754,-0.004003518261015415,0.024729682132601738,0,0,-1000,2,-3,24,-4,1,-155,194705.0
15:55:36.931,AUTO,-35.3632623,149.1652365,27573,0.009856735356152058,0.0012730294838547707,-0.22712409496307373,-0.0007369597442448139,-0.0008528158068656921,0.02615579217672348,0,0,-999,0,0,25,-4,4,-154,194705.0
15:55:37.133,AUTO,-35.3632624,149.1652366,27961,0.008940398693084717,0.0011653555557131767,-0.22079196572303772,-0.003474182914942503,0.0014351028949022293,0.02469417080283165,0,0,-999,-2,2,24,-3,5,-154,194705.0
15:55:37.335,AUTO,-35.3632624,149.1652366,27961,0.008940398693084717,0.0011653555557131767,-0.22079196572303772,-0.003474182914942503,0.0014351028949022293,0.02469417080283165,0,0,-999,-2,2,24,-3,5,-154,194705.0
15:55:37.549,AUTO,-35.3632624,149.1652367,28348,0.007126623764634132,0.0010878865141421556,-0.21504950523376465,-0.008708762936294079,-0.0011178510030731559,0.02259623445570469,0,0,-1000,-7,0,22,-2,7,-154,194705.0
15:55:37.750,AUTO,-35.3632624,149.1652367,28348,0.007126623764634132,0.0010878865141421556,-0.21504950523376465,-0.008708762936294079,-0.0011178510030731559,0.02259623445570469,0,0,-1000,-7,0,22,-2,7,-154,194705.0
15:55:37.952,AUTO,-35.3632624,149.1652367,28348,0.007126623764634132,0.0010878865141421556,-0.21504950523376465,-0.008708762936294079,-0.0011178510030731559,0.02259623445570469,0,0,-1000,-7,0,22,-2,7,-154,194705.0
15:55:38.153,AUTO,-35.3632624,149.1652371,29352,0.0026903825346380472,0.0015133911510929465,-0.2016410231590271,-0.00470381136983633,0.000667515501845628,0.020791498944163322,1,-1,-1000,-3,1,20,0,8,-154,194705.0
15:55:38.355,AUTO,-35.3632624,149.1652372,29739,0.0012402121210470796,0.0017569951014593244,-0.19654610753059387,-0.0065863244235515594,0.0020009945146739483,0.020914515480399132,1,-1,-1000,-5,2,20,0,7,-154,194705.0
15:55:38.556,AUTO,-35.3632624,149.1652374,30127,-7.91327329352498e-05,0.0018321635434404016,-0.1917961984872818,-0.004358970560133457,-8.169404463842511e-05,0.017951123416423798,0,-1,-1001,-3,0,17,0,7,-154,194705.0
15:55:38.758,AUTO,-35.3632624,149.1652374,30127,-7.91327329352498e-05,0.0018321635434404016,-0.1917961984872818,-0.004358970560133457,-8.169404463842511e-05,0.017951123416423798,0,-1,-1001,-3,0,17,0,7,-154,194705.0
15:55:38.959,AUTO,-35.3632624,149.1652375,30513,-0.0009607194806449115,0.0018153464188799262,-0.18743380904197693,-0.005124302580952644,-0.00097796437330544,0.01737229898571968,0,-1,-1000,-4,0,17,0,6,-154,194705.0
15:55:39.161,AUTO,-35.3632624,149.1652377,30900,-0.0014854733599349856,0.0015568544622510672,-0.18315477669239044,0.00011904584243893623,-0.0005717148305848241,0.018142567947506905,0,0,-1000,1,0,17,0,5,-154,194705.0
15:55:39.363,AUTO,-35.3632624,149.1652378,31288,-0.0015488574281334877,0.0013872534036636353,-0.17876923084259033,0.00029535184148699045,0.0007598181255161762,0.019234921783208847,0,0,-1000,1,1,19,0,4,-154,194705.0
15:55:39.564,AUTO,-35.3632624,149.1652378,31288,-0.0015488574281334877,0.0013872534036636353,-0.17876923084259033,0.00029535184148699045,0.0007598181255161762,0.019234921783208847,0,0,-1000,1,1,19,0,4,-154,194705.0
15:55:39.766,AUTO,-35.3632624,149.1652378,31288,-0.0015488574281334877,0.0013872534036636353,-0.17876923084259033,0.00029535184148699045,0.0007598181255161762,0.019234921783208847,0,0,-1000,1,1,19,0,4,-154,194705.0
15:55:39.967,AUTO,-35.3632624,149.1652378,31288,-0.0015488574281334877,0.0013872534036636353,-0.17876923084259033,0.00029535184148699045,0.0007598181255161762,0.019234921783208847,0,0,-1000,1,1,19,0,4,-154,194705.0
15:55:40.169,AUTO,-35.3632623,149.1652379,32605,-0.000638871337287128,0.00114503875374794,-0.1653454452753067,0.004634317941963673,-0.0004154288035351783,0.013851515017449856,0,0,-1001,5,0,13,0,1,-154,194705.0
15:55:40.370,AUTO,-35.3632623,149.1652379,32605,-0.000638871337287128,0.00114503875374794,-0.1653454452753067,0.004634317941963673,-0.0004154288035351783,0.013851515017449856,0,0,-1001,5,0,13,0,1,-154,13046.0
15:55:40.572,AUTO,-35.3632623,149.1652379,32993,-0.0002622194297146052,0.001060393755324185,-0.16161032021045685,0.0005077369278296828,-0.0017982039134949446,0.014545771293342113,0,0,-1000,1,0,14,0,1,-154,13046.0
15:55:40.773,AUTO,-35.3632623,149.1652379,33381,0.00015873309166636318,0.0011080551194027066,-0.1581043303012848,0.000953667564317584,0.002301054075360298,0.014151221141219139,0,0,-999,1,3,13,0,0,-154,13046.0
15:55:40.975,AUTO,-35.3632623,149.1652379,33769,0.00048199514276348054,0.001195918070152402,-0.15477456152439117,0.003711861092597246,5.3733179811388254e-05,0.012234154157340527,0,0,-1001,4,1,12,0,0,-154,13046.0
15:55:41.176,AUTO,-35.3632623,149.1652379,34158,0.0004692913207691163,0.0012553370324894786,-0.15151125192642212,-0.0011368815321475267,0.00013678171671926975,0.013445536606013775,0,0,-1000,0,0,13,0,0,-154,13046.0
15:55:41.378,AUTO,-35.3632623,149.1652379,34158,0.0004692913207691163,0.0012553370324894786,-0.15151125192642212,-0.0011368815321475267,0.00013678171671926975,0.013445536606013775,0,0,-1000,0,0,13,0,0,-154,13046.0
15:55:41.580,AUTO,-35.3632623,149.1652379,34544,0.0006881484296172857,0.0012729838490486145,-0.14829882979393005,0.0005342474905773997,7.65290460549295e-05,0.012013619765639305,0,0,-1000,1,0,12,0,0,-154,13046.0
15:55:41.782,AUTO,-35.3632623,149.1652379,34544,0.0006881484296172857,0.0012729838490486145,-0.14829882979393005,0.0005342474905773997,7.65290460549295e-05,0.012013619765639305,0,0,-1000,1,0,12,0,0,-154,13046.0
15:55:41.983,AUTO,-35.3632623,149.1652379,34544,0.0006881484296172857,0.0012729838490486145,-0.14829882979393005,0.0005342474905773997,7.65290460549295e-05,0.012013619765639305,0,0,-1000,1,0,12,0,0,-154,13046.0
15:55:42.185,AUTO,-35.3632622,149.1652378,35709,0.0009117426234297454,0.0012548142112791538,-0.1396087408065796,-6.792694330215454e-05,-0.0007561274105682969,0.01019734051078558,0,0,-1000,1,0,10,0,0,-154,13046.0
15:55:42.387,AUTO,-35.3632622,149.1652377,36105,0.0011467959266155958,0.0010829047532752156,-0.13687431812286377,0.0026612645015120506,0.0005834539188072085,0.010829001665115356,0,0,-1000,3,1,10,0,0,-154,13046.0
15:55:42.588,AUTO,-35.3632622,149.1652377,36105,0.0011467959266155958,0.0010829047532752156,-0.13687431812286377,0.0026612645015120506,0.0005834539188072085,0.010829001665115356,0,0,-1000,3,1,10,0,0,-154,13046.0
15:55:42.790,AUTO,-35.3632622,149.1652377,36492,0.001512677874416113,0.0013310998911038041,-0.13417159020900726,0.002015402540564537,0.002935737371444702,0.011652600951492786,0,0,-999,3,3,11,0,0,-154,13046.0
15:55:42.991,AUTO,-35.3632622,149.1652376,36880,0.0017373057780787349,0.0014069811441004276,-0.13165299594402313,0.002609620802104473,-0.0007328998763114214,0.010874210856854916,0,0,-1001,3,0,10,0,0,-154,13046.0
15:55:43.194,AUTO,-35.3632622,149.1652376,37268,0.001848228625021875,0.0014458463992923498,-0.1293361335992813,0.0005145979812368751,0.0006548452074639499,0.010349332354962826,0,0,-1000,1,1,10,0,0,-154,13046.0
15:55:43.396,AUTO,-35.3632622,149.1652375,37657,0.001742156920954585,0.0013873729621991515,-0.12697552144527435,-0.001606122707016766,0.0009216599864885211,0.010227784514427185,0,0,-999,0,2,10,0,0,-154,13046.0
15:55:43.597,AUTO,-35.3632622,149.1652375,37657,0.001742156920954585,0.0013873729621991515,-0.12697552144527435,-0.001606122707016766,0.0009216599864885211,0.010227784514427185,0,0,-999,0,2,10,0,0,-154,13046.0
15:55:43.799,AUTO,-35.3632622,149.1652375,37657,0.001742156920954585,0.0013873729621991515,-0.12697552144527435,-0.001606122707016766,0.0009216599864885211,0.010227784514427185,0,0,-999,0,2,10,0,0,-154,13046.0
15:55:44.001,AUTO,-35.3632622,149.1652375,37657,0.001742156920954585,0.0013873729621991515,-0.12697552144527435,-0.001606122707016766,0.0009216599864885211,0.010227784514427185,0,0,-999,0,2,10,0,0,-154,13046.0
15:55:44.216,AUTO,-35.3632622,149.1652373,38786,-0.044237904250621796,0.05205688625574112,0.012157488614320755,-0.14820235967636108,0.12472140043973923,0.5196148157119751,0,0,-975,-146,125,519,-10,-8,-141,13046.0
15:55:44.418,AUTO,-35.3632625,149.1652368,39130,-0.061457931995391846,0.0687699094414711,0.1416982114315033,-0.012421435676515102,-0.09281618148088455,0.4058736264705658,3,4,-943,-11,-91,406,-24,-22,-130,218193.0
15:55:44.619,AUTO,-35.3632625,149.1652368,39130,-0.061457931995391846,0.0687699094414711,0.1416982114315033,-0.012421435676515102,-0.09281618148088455,0.4058736264705658,3,4,-943,-11,-91,406,-24,-22,-130,218193.0
15:55:44.820,AUTO,-35.3632631,149.165236,39437,-0.03939954563975334,0.02668752335011959,0.21336667239665985,0.12288524955511093,-0.21296797692775726,0.18786218762397766,3,9,-943,123,-211,187,-32,-34,-115,218193.0
15:55:45.022,AUTO,-35.3632638,149.165235,39711,-0.010543213225901127,-0.018268920481204987,0.24327515065670013,0.101201131939888,-0.14380913972854614,0.07021912932395935,3,10,-950,102,-142,70,-31,-37,-102,218193.0
15:55:45.224,AUTO,-35.3632644,149.165234,39954,0.0139387845993042,-0.04352082312107086,0.2506594955921173,0.08825201541185379,-0.06476183980703354,0.01011984795331955,3,9,-956,89,-63,10,-23,-33,-91,218193.0
15:55:45.426,AUTO,-35.3632648,149.1652332,40172,0.031077880412340164,-0.052323635667562485,0.2471674233675003,0.06895778328180313,-0.014045089483261108,-0.021090541034936905,0,8,-962,70,-13,-20,-12,-22,-80,218193.0
15:55:45.627,AUTO,-35.3632648,149.1652332,40172,0.031077880412340164,-0.052323635667562485,0.2471674233675003,0.06895778328180313,-0.014045089483261108,-0.021090541034936905,0,8,-962,70,-13,-20,-12,-22,-80,218193.0
15:55:45.829,AUTO,-35.3632648,149.1652332,40172,0.031077880412340164,-0.052323635667562485,0.2471674233675003,0.06895778328180313,-0.014045089483261108,-0.021090541034936905,0,8,-962,70,-13,-20,-12,-22,-80,218193.0
15:55:46.031,AUTO,-35.3632648,149.1652332,40172,0.031077880412340164,-0.052323635667562485,0.2471674233675003,0.06895778328180313,-0.014045089483261108,-0.021090541034936905,0,8,-962,70,-13,-20,-12,-22,-80,218193.0
15:55:46.233,AUTO,-35.3632646,149.1652326,40677,0.04111937806010246,-0.03503766655921936,0.22205524146556854,0.16063402593135834,0.04244434833526611,-0.03136073052883148,-2,5,-976,161,43,-31,12,11,-56,218193.0
15:55:46.434,AUTO,-35.3632644,149.1652329,40809,0.03217482939362526,-0.0241877231746912,0.21406681835651398,-0.3169270157814026,0.044932764023542404,-0.029279017820954323,-3,-24,-972,-316,46,-29,17,19,-50,218193.0
15:55:46.636,AUTO,-35.3632644,149.1652329,40809,0.03217482939362526,-0.0241877231746912,0.21406681835651398,-0.3169270157814026,0.044932764023542404,-0.029279017820954323,-3,-24,-972,-316,46,-29,17,19,-50,218193.0
15:55:46.839,AUTO,-35.3632639,149.1652334,40923,0.022487811744213104,-0.013853955082595348,0.2067769169807434,-0.19399133324623108,0.04115401953458786,-0.020105551928281784,-1,-2,-973,-192,42,-20,20,25,-43,218193.0
15:55:47.041,AUTO,-35.3632634,149.1652341,41022,0.02264321967959404,-0.003995345905423164,0.20009297132492065,0.40989649295806885,0.03662821277976036,-0.01655985601246357,-2,23,-983,411,37,-16,21,29,-38,218193.0
15:55:47.243,AUTO,-35.3632629,149.1652349,41107,0.019109783694148064,0.004246510099619627,0.19404743611812592,0.1922430694103241,0.026240231469273567,-0.02520838752388954,-1,-14,-980,192,27,-25,21,29,-33,218193.0
15:55:47.445,AUTO,-35.3632624,149.1652357,41179,0.0040124934166669846,0.010284903459250927,0.18901337683200836,-0.47903791069984436,0.021431369706988335,-0.02019159123301506,0,-40,-976,-478,22,-19,19,28,-27,218193.0
15:55:47.646,AUTO,-35.3632624,149.1652357,41179,0.0040124934166669846,0.010284903459250927,0.18901337683200836,-0.47903791069984436,0.021431369706988335,-0.02019159123301506,0,-40,-976,-478,22,-19,19,28,-27,218193.0
15:55:47.848,AUTO,-35.3632624,149.1652357,41179,0.0040124934166669846,0.010284903459250927,0.18901337683200836,-0.47903791069984436,0.021431369706988335,-0.02019159123301506,0,-40,-976,-478,22,-19,19,28,-27,218193.0
15:55:48.050,AUTO,-35.3632624,149.1652357,41179,0.0040124934166669846,0.010284903459250927,0.18901337683200836,-0.47903791069984436,0.021431369706988335,-0.02019159123301506,0,-40,-976,-478,22,-19,19,28,-27,218193.0
15:55:48.251,AUTO,-35.3632613,149.1652379,41309,-0.009541099891066551,0.017061544582247734,0.17539170384407043,0.3981165289878845,-0.0023598833940923214,-0.013462659902870655,0,34,-978,399,-1,-13,10,21,-9,165961.0
15:55:48.454,AUTO,-35.3632611,149.1652385,41320,-0.009624441154301167,0.02142059989273548,0.16984929144382477,0.29954954981803894,0.17726509273052216,-0.10717504471540451,-4,-9,-940,299,178,-107,7,14,0,165961.0
15:55:48.655,AUTO,-35.363261,149.165239,41296,-0.03876161947846413,0.042470935732126236,0.16291432082653046,-0.26131486892700195,-0.022458521649241447,0.007685077842324972,3,-35,-969,-261,-21,7,1,4,13,165961.0
15:55:48.857,AUTO,-35.363261,149.165239,41296,-0.03876161947846413,0.042470935732126236,0.16291432082653046,-0.26131486892700195,-0.022458521649241447,0.007685077842324972,3,-35,-969,-261,-21,7,1,4,13,165961.0
15:55:49.058,AUTO,-35.3632611,149.1652392,41256,-0.046620797365903854,0.018828941509127617,0.16075341403484344,-0.713819146156311,-0.12410549819469452,-0.003783758031204343,2,-39,-994,-713,-123,-3,-4,-5,14,165961.0
15:55:49.260,AUTO,-35.3632612,149.1652392,41217,-0.04925597831606865,-0.006135750096291304,0.15765251219272614,-0.6540583372116089,-0.07630694657564163,-0.008907170034945011,1,-18,-1011,-652,-75,-8,-3,-13,11,165961.0
15:55:49.463,AUTO,-35.3632612,149.1652392,41186,-0.04453803971409798,-0.018800241872668266,0.15326933562755585,-0.1271299421787262,-0.03237701952457428,-0.013850104063749313,1,13,-1011,-125,-31,-13,1,-19,7,165961.0
15:55:49.664,AUTO,-35.3632612,149.1652392,41186,-0.04453803971409798,-0.018800241872668266,0.15326933562755585,-0.1271299421787262,-0.03237701952457428,-0.013850104063749313,1,13,-1011,-125,-31,-13,1,-19,7,165961.0
15:55:49.866,AUTO,-35.3632612,149.1652392,41186,-0.04453803971409798,-0.018800241872668266,0.15326933562755585,-0.1271299421787262,-0.03237701952457428,-0.013850104063749313,1,13,-1011,-125,-31,-13,1,-19,7,165961.0
15:55:50.068,AUTO,-35.3632612,149.1652392,41186,-0.04453803971409798,-0.018800241872668266,0.15326933562755585,-0.1271299421787262,-0.03237701952457428,-0.013850104063749313,1,13,-1011,-125,-31,-13,1,-19,7,165961.0
15:55:50.269,AUTO,-35.3632608,149.1652386,41151,-0.032787591218948364,-0.04419966787099838,0.14293314516544342,0.25225797295570374,-0.042448606342077255,-0.00014575821114704013,-3,-3,-1002,252,-41,0,25,-34,-1,165961.0
15:55:50.471,AUTO,-35.3632602,149.1652382,41153,-0.05060318857431412,-0.055486876517534256,0.14182011783123016,-0.4025271236896515,-0.05364566668868065,0.0016514830058440566,-7,-29,-1007,-402,-52,1,37,-41,-3,165961.0
15:55:50.672,AUTO,-35.3632594,149.1652378,41162,-0.06724939495325089,-0.07080359011888504,0.12249276787042618,-0.6411918997764587,-0.038374412804841995,-0.2502785325050354,-11,-21,-1007,-640,-37,-250,51,-48,-6,165961.0
15:55:50.874,AUTO,-35.3632594,149.1652378,41162,-0.06724939495325089,-0.07080359011888504,0.12249276787042618,-0.6411918997764587,-0.038374412804841995,-0.2502785325050354,-11,-21,-1007,-640,-37,-250,51,-48,-6,165961.0
15:55:51.076,AUTO,-35.3632582,149.1652372,41177,-0.059330347925424576,-0.0902877002954483,-0.006643945351243019,-0.04799894243478775,-0.03398004546761513,-0.742371678352356,-14,12,-1014,-46,-33,-742,68,-56,-8,165961.0
15:55:51.278,AUTO,-35.3632567,149.1652363,41198,-0.030748190358281136,-0.10730624943971634,-0.2026117444038391,0.6076186895370483,-0.04736582562327385,-0.7670507431030273,-16,19,-1012,608,-46,-767,86,-66,-10,165961.0
15:55:51.481,AUTO,-35.3632547,149.1652352,41222,-0.0166010744869709,-0.12060569226741791,-0.33338943123817444,0.24542686343193054,-0.029351718723773956,-0.34561625123023987,-22,-11,-1024,245,-28,-345,105,-77,-12,165961.0
15:55:51.684,AUTO,-35.3632547,149.1652352,41222,-0.0166010744869709,-0.12060569226741791,-0.33338943123817444,0.24542686343193054,-0.029351718723773956,-0.34561625123023987,-22,-11,-1024,245,-28,-345,105,-77,-12,165961.0
15:55:51.886,AUTO,-35.3632547,149.1652352,41222,-0.0166010744869709,-0.12060569226741791,-0.33338943123817444,0.24542686343193054,-0.029351718723773956,-0.34561625123023987,-22,-11,-1024,245,-28,-345,105,-77,-12,165961.0
15:55:52.088,AUTO,-35.3632547,149.1652352,41222,-0.0166010744869709,-0.12060569226741791,-0.33338943123817444,0.24542686343193054,-0.029351718723773956,-0.34561625123023987,-22,-11,-1024,245,-28,-345,105,-77,-12,165961.0
15:55:52.291,AUTO,-35.3632462,149.1652301,41328,-0.026157287880778313,-0.153597891330719,-0.3471040725708008,-0.1409316509962082,-0.0490298718214035,0.02366137132048607,-38,-12,-1021,-140,-48,23,168,-113,-18,243728.0
15:55:52.496,AUTO,-35.3632424,149.1652277,41377,-0.016764575615525246,-0.1631162166595459,-0.3368050456047058,0.27048689126968384,-0.04182589054107666,-0.014831996522843838,-52,-2,-1004,271,-40,-15,191,-127,-19,243728.0
15:55:52.699,AUTO,-35.3632381,149.1652248,41431,-0.001239055534824729,-0.1767365038394928,-0.3334650695323944,0.4042486548423767,-0.041844531893730164,-0.015794960781931877,-49,-13,-1008,404,-40,-15,215,-140,-21,243728.0
15:55:52.901,AUTO,-35.3632332,149.1652217,41491,0.0003113064740318805,-0.18816880881786346,-0.3347383439540863,-0.03077387437224388,-0.04231745004653931,-0.011716648004949093,-56,-34,-1015,-31,-41,-11,241,-152,-24,243728.0
15:55:53.103,AUTO,-35.3632332,149.1652217,41491,0.0003113064740318805,-0.18816880881786346,-0.3347383439540863,-0.03077387437224388,-0.04231745004653931,-0.011716648004949093,-56,-34,-1015,-31,-41,-11,241,-152,-24,243728.0
15:55:53.305,AUTO,-35.3632277,149.1652181,41559,-0.004930244293063879,-0.1897379457950592,-0.33773255348205566,-0.24072220921516418,0.0074129048734903336,-0.03472098335623741,-67,-43,-1025,-241,8,-34,269,-165,-28,243728.0
15:55:53.506,AUTO,-35.3632216,149.1652142,41636,0.006091002374887466,-0.18796710669994354,-0.343120276927948,0.13206994533538818,-0.001093350350856781,-0.04795936122536659,-70,-24,-1019,132,0,-48,294,-177,-31,243728.0
15:55:53.708,AUTO,-35.3632216,149.1652142,41636,0.006091002374887466,-0.18796710669994354,-0.343120276927948,0.13206994533538818,-0.001093350350856781,-0.04795936122536659,-70,-24,-1019,132,0,-48,294,-177,-31,243728.0
15:55:53.910,AUTO,-35.3632216,149.1652142,41636,0.006091002374887466,-0.18796710669994354,-0.343120276927948,0.13206994533538818,-0.001093350350856781,-0.04795936122536659,-70,-24,-1019,132,0,-48,294,-177,-31,243728.0
15:55:54.112,AUTO,-35.3632216,149.1652142,41636,0.006091002374887466,-0.18796710669994354,-0.343120276927948,0.13206994533538818,-0.001093350350856781,-0.04795936122536659,-70,-24,-1019,132,0,-48,294,-177,-31,243728.0
15:55:54.314,AUTO,-35.3632004,149.1652004,41931,0.03445497155189514,-0.10656990855932236,-0.3563254773616791,0.15434947609901428,0.21864472329616547,-0.035088904201984406,-78,-35,-1026,154,219,-35,346,-201,-48,243728.0
15:55:54.515,AUTO,-35.3631927,149.1651953,42063,0.05030018091201782,-0.049452077597379684,-0.35976383090019226,0.03959199786186218,0.19678936898708344,-0.024255530908703804,-77,-53,-1015,39,197,-24,344,-200,-54,243728.0
15:55:54.717,AUTO,-35.3631852,149.1651904,42204,0.054567646235227585,-0.029833734035491943,-0.3622015714645386,-0.12183471024036407,0.023984413594007492,-0.010063694790005684,-70,-40,-983,-121,24,-10,334,-191,-55,243728.0
15:55:54.919,AUTO,-35.363178,149.1651857,42339,0.06314174830913544,-0.025509756058454514,-0.3643764853477478,0.3549680709838867,0.024621250107884407,-0.021542521193623543,-73,-27,-973,354,25,-21,322,-181,-51,243728.0
15:55:55.120,AUTO,-35.363178,149.1651857,42339,0.06314174830913544,-0.025509756058454514,-0.3643764853477478,0.3549680709838867,0.024621250107884407,-0.021542521193623543,-73,-27,-973,354,25,-21,322,-181,-51,243728.0
15:55:55.322,AUTO,-35.3631709,149.1651813,42461,0.06074664741754532,-0.017214376479387283,-0.36635398864746094,-0.003140278859063983,0.04315892979502678,0.010077046230435371,-68,-55,-977,-4,43,10,310,-172,-45,243728.0
15:55:55.526,AUTO,-35.3631641,149.1651772,42570,0.049218419939279556,-0.008966458030045033,-0.3682822585105896,-0.4407542645931244,0.031242333352565765,0.014009459875524044,-79,-71,-984,-441,31,13,296,-162,-41,243728.0
15:55:55.728,AUTO,-35.3631641,149.1651772,42570,0.049218419939279556,-0.008966458030045033,-0.3682822585105896,-0.4407542645931244,0.031242333352565765,0.014009459875524044,-79,-71,-984,-441,31,13,296,-162,-41,243728.0
15:55:55.930,AUTO,-35.3631641,149.1651772,42570,0.049218419939279556,-0.008966458030045033,-0.3682822585105896,-0.4407542645931244,0.031242333352565765,0.014009459875524044,-79,-71,-984,-441,31,13,296,-162,-41,243728.0
15:55:56.132,AUTO,-35.3631641,149.1651772,42570,0.049218419939279556,-0.008966458030045033,-0.3682822585105896,-0.4407542645931244,0.031242333352565765,0.014009459875524044,-79,-71,-984,-441,31,13,296,-162,-41,243728.0
15:55:56.333,AUTO,-35.3631454,149.1651665,42833,0.04478679224848747,0.00877139251679182,-0.37673458456993103,0.3663322627544403,0.01765424944460392,0.011982864700257778,-49,-32,-987,365,18,12,254,-133,-30,130875.0
15:55:56.535,AUTO,-35.3631398,149.1651635,42903,0.03677035868167877,0.01571495644748211,-0.37774455547332764,0.017877250909805298,0.03248026967048645,0.02672348916530609,-55,-53,-964,15,33,27,237,-125,-26,130875.0
15:55:56.737,AUTO,-35.3631345,149.1651607,42963,0.018552813678979874,0.023329036310315132,-0.3782549202442169,-0.549310564994812,0.03333628550171852,0.027528878301382065,-49,-66,-1015,-550,34,28,221,-116,-26,130875.0
15:55:56.939,AUTO,-35.3631296,149.165158,43022,0.01147859450429678,0.029551003128290176,-0.37977856397628784,-0.3754367232322693,0.022980833426117897,0.009587342850863934,-46,-30,-984,-375,23,9,203,-108,-23,130875.0
15:55:57.141,AUTO,-35.3631251,149.1651555,43074,0.02365000545978546,0.034682828933000565,-0.38107603788375854,0.38152503967285156,0.01287808921188116,0.003866996616125107,-42,6,-992,381,13,4,183,-100,-21,130875.0
