time_stamp,roll,pitch,yaw,rollspeed,pitchspeed,yawspeed,lat,lon,relative_alt,vx,vy,vz,MODE,RTL_ALT,xacc,yacc,zacc,xgyro,ygyro,zgyro
20:35:43,-0.0002848290653976922,0.001252511846056829,0.02656181591252486,0.000275372289858448,0.00023887535401930413,0.002153804797368745,-35.3632622,149.16523745,17.5,-1.0,1.0,-2.0,STABILIZE,1500.0,0.0,1.3333333333333333,-1000.0,0.0,0.0,0.0
20:35:49,-0.0008013554324861616,0.0009735378553159535,0.02352263405919075,0.00020007160492241383,0.00023451895685866475,0.0018161461921408772,-35.3632621,149.1652375,30.0,-1.0,1.0,0.0,STABILIZE,1500.0,0.0,1.5,-1000.0,0.0,0.0,0.0
20:35:57,-0.000895289257944872,0.0009710793965496123,0.02157506098349889,0.00028379703871905804,0.0001780407619662583,0.0014711195835843682,-35.3632622,149.1652375,0.0,-1.0,1.0,0.0,AUTO,1500.0,0.0,1.6666666666666667,-1000.0,0.0,0.0,0.3333333333333333
20:35:59,-0.0007003981445450336,0.0012247237900737673,0.021187528036534786,0.00025216565700247884,0.000273325145826675,0.001395087194396183,-35.3632621,149.1652375,0.0,0.0,0.0,0.0,AUTO,1500.0,0.0,1.75,-1000.0,0.5,0.25,0.5
20:36:01,0.019637911735723417,-0.002335992641746998,0.02069366288681825,0.047341037541627884,-0.006919332779943943,0.002108104449386398,-35.3632621,149.16523753333334,468.6666666666667,0.6666666666666666,4.666666666666667,-117.66666666666667,AUTO,1500.0,0.0,-0.25,-1152.5,38.25,-6.0,1.0
20:36:06,-0.012987272813916206,0.019360849633812904,-0.10626556724309921,-0.07215894013643265,-0.14372605085372925,0.046383775770664215,-35.3632613,149.1652473,3787.0,-15.0,60.0,-147.0,AUTO,1500.0,11.0,-10.0,-1005.0,-71.0,-142.0,46.0
20:36:08,-0.0655965581536293,-0.0019515057792887092,-0.13097308576107025,0.06852169334888458,0.02452237717807293,-0.012939860112965107,-35.3632613,149.1652457,6844.0,1.0,-89.0,-145.0,AUTO,1500.0,-11.0,15.0,-1001.0,68.0,25.0,-13.0
20:36:10,0.08174169808626175,0.03823947533965111,-0.13130538165569305,0.0737994983792305,-0.005277340766042471,0.007584990467876196,-35.3632649,149.1652273,9788.0,-49.0,-36.0,-154.0,AUTO,1500.0,1.0,16.0,-1003.0,74.0,-4.0,7.0
20:36:12,-0.004051356576383114,-0.08362719416618347,-0.029706859961152077,-0.13300657272338867,0.1526912897825241,-0.1276591271162033,-35.3632683,149.1652386,12819.0,71.0,95.0,-142.0,AUTO,1500.0,1.0,-27.0,-1009.0,-132.0,153.0,-127.0
20:36:14,-0.07878109812736511,0.054869189858436584,-0.28510943055152893,0.05405428633093834,0.035983048379421234,-0.0485563799738884,-35.3632558,149.1652419,15907.0,12.0,-70.0,-151.0,AUTO,1500.0,-14.0,5.0,-999.0,54.0,36.0,-48.0
20:36:16,0.07477181404829025,0.06731859594583511,-0.30600568652153015,0.08643629401922226,-0.03988621383905411,0.008736509829759598,-35.3632668,149.165227,18973.0,-120.0,-6.0,-150.0,AUTO,1500.0,12.0,24.0,-1005.0,87.0,-39.0,8.0
20:36:18,-0.01500320341438055,-0.17675355076789856,-0.15020570158958435,-0.23387515544891357,0.18704931437969208,-0.12766556441783905,-35.3632771,149.1652437,21994.0,87.0,106.0,-138.0,BRAKE,1500.0,3.0,-31.0,-1003.0,-232.0,187.0,-127.0
20:36:20,0.021077733486890793,0.4366660714149475,-0.05747922882437706,-0.08645203709602356,0.04670974612236023,0.2121165692806244,-35.3632496,149.1652488,24794.0,17.0,0.0,-119.0,BRAKE,1500.0,-10.0,-5.0,-975.0,-85.0,47.0,211.0
20:36:22,-0.004060979932546616,-0.0970679223537445,-0.10723444819450378,-0.3823801279067993,0.04554515331983566,-0.017876995727419853,-35.3632681,149.1652564,25854.0,-43.0,43.0,-12.0,ALT_HOLD,1500.0,16.0,-34.0,-972.0,-385.0,46.0,-17.0
20:36:24,0.02020416595041752,-0.01338935922831297,-0.11825824528932571,1.0870462656021118,-0.09736672043800354,-0.014117293059825897,-35.3632735,149.1652621,24123.0,-29.0,19.0,178.0,AUTO,1500.0,5.0,-5.0,-1003.0,1081.0,-96.0,-14.0
20:36:26,0.026872459799051285,-0.011889910325407982,-0.12823860347270966,0.05177830159664154,-0.00600028783082962,0.0002661414328031242,-35.363276,149.1652626,23883.0,5.0,11.0,-139.0,AUTO,1500.0,0.0,1.0,-1041.0,53.0,-5.0,0.0
20:36:28,-0.03152044955641031,0.02284659445285797,-0.19871298223733902,-0.11481865495443344,-0.03503446280956268,-0.03954060189425945,-35.36327405,149.16526755,26650.5,13.5,53.0,-146.0,AUTO,1500.0,3.5,-11.0,-1007.0,-113.0,-34.0,-38.5
20:36:30,0.0037170755676925182,0.0012718617217615247,-0.2252953201532364,0.04691309854388237,-0.006812911480665207,0.010242199525237083,-35.3632747,149.1652653,29917.0,-11.0,-30.0,-151.0,AUTO,1500.0,-4.0,7.0,-1001.0,48.0,-6.0,10.0
20:36:32,0.006889570038765669,0.0010888311080634594,-0.2226286679506302,-0.011688511818647385,0.0033524376340210438,-0.01267425436526537,-35.3632757,149.1652613,32860.0,-1.0,-1.0,-150.0,AUTO,1500.0,0.0,0.0,-1000.0,-9.0,4.0,-12.0
20:36:34,-0.0030481871217489243,0.004957093857228756,-0.26013779640197754,-0.002442810917273164,0.0025711492635309696,-0.021750962361693382,-35.3632753,149.1652616,35972.0,0.0,2.0,-151.0,AUTO,1500.0,0.0,-1.0,-1000.0,0.0,3.0,-21.0
20:36:36,-0.003972372505813837,0.005005784332752228,-0.30152860283851624,-0.0006730002351105213,7.221451960504055e-05,-0.020884497091174126,-35.3632749,149.1652623,39089.0,-3.0,1.0,-152.0,AUTO,1500.0,0.0,0.0,-999.0,1.0,1.0,-20.0
20:36:40,-0.004301479551941156,0.0042118350975215435,-0.34452342987060547,0.00039371021557599306,-0.00032749975798651576,-0.020280174911022186,-35.3632749,149.165263,42227.0,-5.0,0.0,-152.0,AUTO,1500.0,0.0,0.0,-1000.0,1.0,0.0,-19.0
20:36:42,-0.0009171863785013556,0.0001269899948965758,-0.3831561207771301,-0.001292036846280098,-0.007078487426042557,-0.013591881841421127,-35.3632752,149.1652634,45347.0,-3.0,0.0,-153.0,BRAKE,1500.0,0.0,0.0,-999.0,0.0,-5.0,-12.0
20:36:44,0.028627892956137657,-0.04598727822303772,-0.046138133853673935,0.09524311125278473,-0.029872706159949303,-0.04566734656691551,-35.3632785,149.1652608,47804.0,-27.0,-19.0,-62.0,BRAKE,1500.0,2.0,8.0,-946.0,96.0,-28.0,-44.0
20:36:46,-0.01710028387606144,0.018564196303486824,-0.08139645308256149,-0.24072378873825073,0.028063546866178513,-0.008975175209343433,-35.3632765,149.165263,48387.0,21.0,19.0,-9.0,ALT_HOLD,1500.0,-2.0,-31.0,-936.0,-243.0,29.0,-7.0
20:36:48,0.02838301658630371,0.006458913441747427,-0.09513351321220398,1.879185676574707,0.014413920231163502,0.012362407520413399,-35.3632742,149.165266,46087.0,5.0,10.0,183.0,AUTO,1500.0,3.0,76.0,-1013.0,1880.0,15.0,13.0
20:36:50,-0.014352245256304741,-0.001371118240058422,-0.10705223679542542,0.047080278396606445,-0.013133250176906586,1.05935032479465e-05,-35.3632737,149.1652703,45575.0,0.0,-19.0,-138.0,AUTO,1500.0,1.0,-1.0,-1052.0,47.0,-12.0,0.0
20:36:52,-0.09357637912034988,0.0089378971606493,-0.16841177642345428,-0.21067595481872559,-0.02709977515041828,-0.03053579106926918,-35.3632724,149.1652761,48529.0,4.0,0.0,-146.0,AUTO,1500.0,2.0,-7.0,-996.0,-210.0,-26.0,-29.0
20:36:54,0.10426368564367294,-0.024979952722787857,-0.12363579869270325,-0.03087335266172886,0.004251294303685427,-0.007014757953584194,-35.3632756,149.1652601,50483.0,-13.0,-62.0,-24.0,AUTO,1500.0,-8.0,12.0,-940.0,-30.0,5.0,-6.0
20:36:56,0.03569205477833748,-0.005337463691830635,-0.1319132298231125,-0.7696078419685364,0.032320454716682434,-0.0030365223065018654,-35.363273,149.1652669,50045.0,45.0,105.0,16.0,AUTO,1500.0,5.0,-46.0,-1031.0,-768.0,33.0,-1.0
20:36:58,0.03442246466875076,0.005175377242267132,1.089558720588684,0.709888756275177,0.35508641600608826,0.0885651558637619,-35.3632638,149.165286,49965.0,56.0,95.0,-2.0,BRAKE,1500.0,-23.0,23.0,-1020.0,711.0,355.0,89.0
20:37:00,0.009957496076822281,-0.004656726494431496,0.9907729029655457,0.03202046826481819,0.005186761263757944,-0.007260627578943968,-35.3632596,149.1652948,49971.0,12.0,40.0,-2.0,BRAKE,1500.0,-5.0,-20.0,-991.0,28.0,5.0,-6.0
20:37:02,-0.010281438007950783,0.003594523062929511,0.9823565483093262,0.05223565548658371,-0.015566430054605007,-0.0029518986120820045,-35.3632584,149.1653,49978.0,9.0,13.0,-1.0,ALT_HOLD,1500.0,-4.0,15.0,-972.0,57.0,-14.0,-1.0
20:37:04,-0.020208990667015314,-0.0002823442141561827,0.9785220474004745,-1.369610520079732,-0.002178522539907135,0.0024412546772509813,-35.3632577,149.165303125,48358.25,6.0,12.0,177.0,AUTO,1500.0,-1.75,-42.0,-964.25,-1366.25,-1.25,3.25
20:37:06,-0.007184633985161781,-0.03511644899845123,1.026633381843567,0.6746742129325867,-0.006122940219938755,-0.02378387376666069,-35.3632538,149.1653153,45888.0,54.0,58.0,12.0,AUTO,1500.0,-17.0,19.0,-1041.0,677.0,-5.0,-22.0
20:37:08,-0.00892545934766531,-0.06537564098834991,1.0165035724639893,-0.45401015877723694,-0.011654403060674667,-0.004296086262911558,-35.3632425,149.1653372,45881.0,101.0,104.0,-3.0,AUTO,1500.0,-30.0,-28.0,-1002.0,-452.0,-10.0,-3.0
20:37:10,0.007035447750240564,-0.08332483470439911,1.011621356010437,-0.41318511962890625,-0.013544445857405663,0.009066962637007236,-35.3632233,149.165372,45988.0,145.0,169.0,-4.0,AUTO,1500.0,-46.0,-63.0,-1000.0,-416.0,-12.0,9.0
20:37:14,0.02802903950214386,-0.10046707093715668,1.0069990158081055,-0.2592398524284363,-0.002133750356733799,0.022887619212269783,-35.3631959,149.1654208,46110.0,183.0,240.0,-5.0,AUTO,1500.0,-65.0,-63.0,-1003.0,-262.0,0.0,23.0
20:37:16,0.05638523027300835,-0.1149451732635498,1.0005159974098206,0.14349183067679405,-0.007329157728236169,0.0026859398931264877,-35.3631623,149.16547924999998,46250.0,213.0,310.5,-7.0,AUTO,1500.0,-73.66666666666667,-40.333333333333336,-996.6666666666666,82.33333333333333,-6.333333333333333,-3.6666666666666665
20:37:18,0.07107755169272423,-0.13427381217479706,0.9973905086517334,-0.10518379602581263,-0.003087974851951003,0.009713875711895525,-35.36311875,149.16555585,46436.5,244.5,385.5,-9.5,AUTO,1500.0,-91.0,-66.0,-996.0,-106.5,-0.5,10.0
20:37:20,0.08640576899051666,0.05366002395749092,1.0076025128364563,0.14364967495203018,0.6536407172679901,-0.008340740634594113,-35.36306835,149.16564755000002,46693.5,261.0,430.0,-31.5,BRAKE,1500.0,-96.5,-70.5,-1075.5,141.5,655.0,-7.0
20:37:22,0.005178343970328569,0.040526729077100754,1.0202734470367432,-0.2480873167514801,-0.07025306671857834,-0.012858244590461254,-35.3630436,149.1656989,46827.0,29.0,97.0,6.0,BRAKE,1500.0,-18.0,-8.0,-1030.0,-244.0,-68.0,-12.0
20:37:24,0.013917500153183937,-0.0061900126747787,1.017761468887329,0.6331605315208435,-0.0024855423253029585,0.002618554513901472,-35.3630374,149.1657125,46771.0,24.0,45.0,22.0,ALT_HOLD,1500.0,-12.0,3.0,-883.0,630.0,0.0,3.0
20:37:26,-0.0001404752256348729,-0.046045880764722824,1.013004183769226,-0.3266194760799408,-0.18013593554496765,0.018340803682804108,-35.3630303,149.1657191,43873.0,25.0,32.0,162.0,AUTO,1500.0,-14.0,34.0,-1136.0,-317.0,-177.0,19.0
20:37:28,-0.004378749057650566,-0.039282187819480896,0.99845951795578,-0.5453428030014038,-0.01608060486614704,0.002365737222135067,-35.3630227,149.1657332,42840.0,49.0,79.0,-3.0,AUTO,1500.0,-18.0,-35.0,-1022.0,-543.0,-14.0,3.0
20:37:30,0.009644838981330395,-0.0705019012093544,0.9976418614387512,-0.13002251088619232,-0.013773642480373383,0.011663184501230717,-35.3630108,149.165758,42994.0,100.0,128.0,-13.0,AUTO,1500.0,-30.0,-22.5,-998.0,195.0,-7.0,3.5
20:37:32,0.03370999917387962,-0.08823849260807037,0.9937022924423218,0.46195241808891296,0.00042053055949509144,-0.011272506788372993,-35.3629898,149.1657954,43247.0,143.0,197.0,-14.0,AUTO,1500.0,-51.0,-13.0,-1001.0,198.0,-2.5,-16.5
20:37:34,0.041627558320760726,-0.09994260370731353,0.9918801546096802,0.08905291184782982,-0.004907759418711066,-0.007643062353599817,-35.362968540000004,149.16583308000003,43480.8,169.8,250.0,-16.6,AUTO,1500.0,-59.6,-33.4,-1001.2,89.8,-2.4,-7.2
20:37:36,0.06693550571799278,-0.11801166087388992,0.9887760281562805,0.05010964721441269,-0.0015570318792015314,-0.013418702874332666,-35.36292565,149.16590865,43934.0,209.0,337.5,-20.0,AUTO,1500.0,-76.0,-49.0,-1000.0,51.5,0.5,-12.5
20:37:38,0.07654763758182526,-0.13351526856422424,0.98744136095047,0.05110764130949974,-0.0316503569483757,0.006026410032063723,-35.3628804,149.1659906,44413.0,244.0,410.0,-23.0,AUTO,1500.0,-95.0,-71.0,-994.0,51.0,-29.0,6.0
20:37:40,0.08508235961198807,0.14516927301883698,1.0049091577529907,-0.09762106090784073,0.45057952404022217,0.007309995125979185,-35.3628297,149.1660851,45023.0,249.0,423.0,-58.0,BRAKE,1500.0,-95.0,-66.0,-1052.0,-95.0,453.0,8.0
20:37:50,-0.010441446473123506,-0.02715710923075676,0.999789297580719,0.2668426111340523,0.00012526847422122955,-0.026303542792447843,-35.362792825,149.166159825,41273.75,46.75,59.5,22.0,AUTO,1500.0,-9.25,-8.0,-1062.5,267.5,2.5,-24.75
20:37:53,0.004393932581297122,-0.08269424587488175,0.9953679442405701,0.10576436221599579,-0.007956561073660851,-0.008437245117966086,-35.36277328,149.16620118,41609.6,140.6,132.4,-19.6,AUTO,1500.0,-38.0,-20.8,-999.8,105.8,-5.0,-7.6
20:37:55,0.03848758265376091,-0.08906398713588715,0.9912221312522889,-0.0716769278049469,-0.0007230970077216625,0.002549723535776138,-35.3627509,149.16623692000002,42052.4,163.0,205.2,-26.0,AUTO,1500.0,-52.8,-39.8,-1002.0,-72.0,1.4,2.8
20:37:57,0.05190574377775192,-0.1007903702557087,0.9894505639870962,-0.04090386272097627,-0.008661617718947431,0.0025902083919694028,-35.36271906666666,149.1662926833333,42695.166666666664,185.66666666666666,281.1666666666667,-33.5,AUTO,1500.0,-63.833333333333336,-47.5,-1000.6666666666666,-41.5,-5.666666666666667,3.3333333333333335
20:37:59,0.0661636342604955,-0.09085848244527976,0.9897708296775818,-0.002357647754251957,0.13191020203521475,0.0013725606452984114,-35.36268081666666,149.16636215000003,43485.333333333336,217.66666666666666,350.5,-42.333333333333336,BRAKE,1500.0,-80.5,-55.833333333333336,-1012.5,-2.0,134.66666666666666,2.3333333333333335
20:38:01,0.006006313720718026,0.09284140635281801,1.0090024173259735,-0.4042857214808464,-0.1375792920589447,0.01066900440491736,-35.362649700000006,149.166423775,44265.0,46.0,112.25,0.0,BRAKE,1500.0,-18.0,-38.5,-991.0,-403.75,-134.5,11.75
20:38:03,0.00044588797027245164,-0.0027093633616459556,1.0107910931110382,0.1541084311902523,-0.0070724631659686565,0.0005093754589324817,-35.362644325,149.16643765,44309.25,27.75,36.0,-2.75,ALT_HOLD,1500.0,-10.0,4.0,-991.0,154.5,-4.5,1.5
20:38:05,0.016650413473447163,-0.002942234626971185,1.0095157424608867,0.5945108979940414,0.0032517715784100196,0.005475554460038741,-35.36263875,149.16644123333333,43032.333333333336,25.5,19.333333333333332,160.33333333333334,AUTO,1500.0,-8.166666666666666,-5.833333333333333,-916.5,590.0,5.666666666666667,6.833333333333333
20:38:07,0.004316823246578376,-0.03804996237158775,1.007761538028717,0.25205956647793454,-0.02932352712377906,-0.008888569039603075,-35.36263388333334,149.16644586666666,40485.166666666664,24.166666666666668,37.333333333333336,34.166666666666664,AUTO,1500.0,-9.5,8.0,-1073.8333333333333,253.83333333333334,-26.666666666666668,-7.166666666666667
20:38:09,0.010218662723976498,-0.05538495257496834,1.0025601585706074,0.14271852560341358,-0.015990980124721926,0.0002356043163066109,-35.362625666666666,149.1664625,40543.166666666664,64.83333333333333,89.5,-21.666666666666668,AUTO,1500.0,-21.333333333333332,-14.333333333333334,-1007.6666666666666,142.33333333333334,-12.833333333333334,1.5
20:38:11,0.03760831952095032,-0.07786033451557159,0.9998244643211365,0.11116466224193573,-0.006828378513455391,0.001362314377911389,-35.36261088,149.16648746,41108.6,100.2,154.0,-35.0,AUTO,1500.0,-36.0,-15.0,-1006.6,112.0,-3.6,2.8
20:38:13,0.055894424517949425,-0.09012835969527562,0.9981329242388407,0.015312202274799347,-0.0004123537801206112,0.0017417438405876358,-35.36258695,149.16652893333332,41992.5,126.5,233.0,-47.5,AUTO,1500.0,-50.5,-34.833333333333336,-1005.5,16.166666666666668,2.3333333333333335,3.5
20:38:15,0.060251036658883095,-0.10323552663127582,0.9978759487469991,0.019435607983420294,-0.005826622558136781,0.0010459701103779178,-35.36255675,149.1665858333333,43143.0,162.66666666666666,303.5,-60.5,AUTO,1500.0,-64.66666666666667,-46.333333333333336,-1003.3333333333334,20.666666666666668,-2.6666666666666665,2.6666666666666665
20:38:17,0.05953309995432695,-0.11617083847522736,0.9981257220109304,0.00727042385066549,-0.007204549387097359,2.6040982144574325e-05,-35.362520133333334,149.16665784999998,44561.166666666664,209.83333333333334,366.8333333333333,-73.83333333333333,AUTO,1500.0,-75.66666666666667,-56.833333333333336,-1002.6666666666666,8.833333333333334,-4.0,1.6666666666666667
20:38:19,0.05630418906609217,-0.005919786364150544,1.0007096529006958,-0.008267869707196951,0.024989609917004902,0.0019627304282039404,-35.36248091666667,149.1667355666667,46202.833333333336,209.0,351.8333333333333,-82.83333333333333,AUTO,1500.0,-70.5,-59.666666666666664,-980.0,-6.0,28.0,3.6666666666666665
20:38:58,0.05605257675051689,-0.10856663063168526,-1.4423285126686096,-0.044389545917510986,-0.012840945506468415,0.017700190655887127,-35.36236565,149.1667435,47176.5,53.0,-329.0,-14.0,AUTO,1500.0,-68.0,-45.5,-998.0,-45.5,-10.0,20.5
20:39:04,0.0728436317294836,-0.08613479626365006,-1.438779354095459,0.032955505419522524,0.14031762536615133,-0.008611061202827841,-35.362333400000004,149.16646254999998,48369.25,90.25,-541.75,-32.5,AUTO,1500.0,-111.25,-67.75,-1014.75,34.0,142.75,-4.5
20:39:06,0.06869775056838989,0.10192648507654667,-1.429246723651886,0.6130381077528,0.423069566488266,-0.009484520647674799,-35.3623188,149.1663441,48945.0,69.0,-389.0,-20.5,BRAKE,1500.0,-79.5,-22.5,-1037.0,616.0,425.0,-5.5
20:39:08,-0.0003332193591631949,0.014858635142445564,-1.4221073389053345,0.051100291311740875,-0.04400999844074249,-0.008597965352237225,-35.3623113,149.1663009,49037.0,24.0,-85.0,-1.0,BRAKE,1500.0,-15.0,4.0,-1008.0,56.0,-41.0,-4.0
20:39:10,0.006983880419284105,-0.001844103098846972,-1.4236658811569214,-0.03603721410036087,-0.017368968576192856,0.009691700339317322,-35.3623093,149.1662873,49095.0,2.0,-52.0,-1.0,ALT_HOLD,1500.0,-8.0,-27.0,-956.0,-38.0,-14.0,13.0
20:39:12,0.0348605252802372,0.0033593219704926014,-1.421365737915039,1.8182063102722168,-0.015528570860624313,-0.0012419309932738543,-35.3623099,149.1662787,46789.0,2.0,-31.0,155.0,AUTO,1500.0,-10.0,67.0,-1170.0,1819.0,-12.0,2.0
20:39:14,0.04415057227015495,-0.05066308006644249,-1.4361293315887451,0.14909787476062775,0.0009555739816278219,0.013198687694966793,-35.3623115,149.1662686,45943.0,30.0,-78.0,-13.0,AUTO,1500.0,-16.0,-14.0,-1026.0,148.0,3.0,17.0
20:39:16,0.03549207653850317,-0.0657602846622467,-1.4332959055900574,-0.025227800011634827,-0.0048832392785698175,0.009792490396648645,-35.36230965,149.16624995,46373.75,47.75,-130.75,-33.0,AUTO,1500.0,-24.4,-17.8,-1011.8,87.0,-3.8,12.0
20:39:18,0.03135770931839943,-0.08105689138174058,-1.4322691679000854,0.006819030269980431,-0.006006784038618207,0.003211474232375622,-35.3623045,149.16621556,47199.4,50.0,-201.0,-48.2,AUTO,1500.0,-40.6,-27.6,-1006.4,9.0,-3.4,7.4
20:39:20,0.038595862686634064,0.037856479485829674,-1.4293551445007324,-0.028368905186653137,0.042813646917541824,-0.006515266994635264,-35.36229713333333,149.16615736666665,48584.666666666664,44.333333333333336,-217.66666666666666,-62.333333333333336,AUTO,1500.0,-42.666666666666664,-30.0,-981.6666666666666,-25.333333333333332,45.333333333333336,-1.6666666666666667
20:39:22,0.018082703463733196,0.001832545269280672,-1.428704857826233,-0.20675501227378845,0.011254447279497981,-0.007771572796627879,-35.36229185,149.1661183,49518.5,31.5,-125.5,-27.5,AUTO,1500.0,-31.0,-21.0,-992.5,-202.0,13.5,-3.5
20:39:24,0.013551079668104649,0.036440866999328136,-1.4285897612571716,-0.33704550564289093,0.04787253960967064,-0.008495873771607876,-35.362289000000004,149.1660965,49950.5,19.0,-61.0,-12.5,BRAKE,1500.0,-12.0,-37.0,-996.0,-336.5,50.0,-4.0
20:39:26,-0.005166685150470585,-0.0004430619301274419,-1.4291173815727234,0.1233271062374115,-0.0034681090619415045,0.0012528563383966684,-35.36228705,149.1660905,50113.0,9.5,-13.0,-4.5,BRAKE,1500.0,-1.0,14.5,-1004.0,130.0,-1.0,5.0
20:39:28,0.0035468549467623234,-0.00041556774522177875,-1.4286108016967773,0.18221105635166168,-0.0019628731533885,-0.0036784245166927576,-35.3622857,149.166088,50176.0,-3.0,-9.0,-1.0,ALT_HOLD,1500.0,-2.0,-7.0,-998.0,182.0,0.0,0.0
20:39:32,0.0373811237514019,-0.00014045181524124928,-1.4301976561546326,0.6883688792586327,-0.00445297232363373,-0.005406689713709056,-35.3622864,149.16608655,48215.0,0.0,-3.0,185.0,AUTO,1500.0,0.0,-27.5,-960.5,682.5,-2.0,-1.5
20:39:34,0.004418473050463945,0.0036146287845137217,-1.4283676942189534,0.40102914720773697,0.015354089671745896,0.0008141058497130871,-35.3622865,149.16608626666664,46440.333333333336,2.8333333333333335,0.8333333333333334,39.166666666666664,AUTO,1500.0,0.3333333333333333,16.5,-1097.3333333333333,404.6666666666667,17.5,4.833333333333333
20:39:36,0.019750086663407274,0.022853271570056677,-1.4461519718170166,0.0005871870865424474,-0.012225407486160597,-0.09541122522205114,-35.36228645,149.16609026666666,47602.0,7.833333333333333,41.0,-136.66666666666666,AUTO,1500.0,9.166666666666666,1.0,-1022.8333333333334,4.333333333333333,-9.333333333333334,-91.16666666666667
20:39:38,-0.016278919919083517,-0.09616360999643803,-0.5709412097930908,-0.13430446572601795,0.06659944355487823,-1.078613668680191,-35.3622844,149.16609638333335,50213.833333333336,-29.0,-11.166666666666666,-74.5,AUTO,1500.0,-1.0,-5.0,-896.0,-130.5,69.16666666666667,-1073.8333333333333
20:39:40,0.00799571357977887,0.004173235346873601,2.642713030179342,-0.18022665967388699,0.0714313592761755,0.06387687319268782,-35.362292733333334,149.16609476666665,50314.166666666664,-49.5,4.666666666666667,4.833333333333333,AUTO,1500.0,-6.166666666666667,-18.666666666666668,-1036.5,-176.33333333333334,73.66666666666667,67.5
20:39:42,-0.021970475868632395,0.007249587215483189,2.677252252896627,0.08597525333364804,-0.07075715065002441,0.003046118033428987,-35.362295499999995,149.16609196666664,50326.166666666664,33.833333333333336,-9.5,4.833333333333333,AUTO,1500.0,5.0,3.3333333333333335,-1002.1666666666666,89.5,-67.83333333333333,6.666666666666667
20:39:44,-0.011834210075903684,0.004186967310185234,2.6824438174565635,0.04387503738204638,0.014936940977349877,-0.0024606592875594893,-35.362294483333336,149.16609115000003,50283.833333333336,10.333333333333334,11.666666666666666,0.16666666666666666,AUTO,1500.0,-1.8333333333333333,3.3333333333333335,-1001.5,47.166666666666664,17.333333333333332,1.0
20:39:46,-0.007750170072540641,0.011482123595972856,2.6855916182200112,0.002338662122686704,-0.0004959227129196128,0.0009536900324746966,-35.36229500000001,149.16609273333333,50288.666666666664,15.833333333333334,5.833333333333333,0.0,BRAKE,1500.0,-0.8333333333333334,2.1666666666666665,-1000.6666666666666,5.666666666666667,2.5,4.5
20:39:48,-0.013435583018387357,0.010661309895416101,2.6893975734710693,0.03460898498694102,-0.0023614470458899937,0.0009784978271151583,-35.36229495,149.1660929,50287.166666666664,18.5,3.6666666666666665,0.0,BRAKE,1500.0,0.16666666666666666,4.333333333333333,-997.3333333333334,38.333333333333336,1.0,4.5
20:39:50,-0.0026880861648047962,0.0036217654900004468,2.6919118960698447,0.0779602328936259,-0.0035631935267398753,0.0012910745960349839,-35.362294199999994,149.16609326666668,50268.333333333336,16.333333333333332,3.0,7.333333333333333,ALT_HOLD,1500.0,0.0,3.3333333333333335,-969.3333333333334,80.5,0.0,4.5
