time_stamp,MODE,lat,lon,relative_alt,roll,pitch,yaw,rollspeed,pitchspeed,yawspeed,xacc,yacc,zacc,xgyro,ygyro,zgyro,vx,vy,vz,RTL_ALT
08:02:23.742,STABILIZE,-35.3632621,149.1652374,0,0.00018460568389855325,0.0015632767463102937,0.028590098023414612,0.00016283392324112356,0.00024314792244695127,0.002499575726687908,0,1,-1000,0,0,0,-1,1,0,200.0
08:02:23.943,STABILIZE,-35.3632621,149.1652374,0,0.00018460568389855325,0.0015632767463102937,0.028590098023414612,0.00016283392324112356,0.00024314792244695127,0.002499575726687908,0,1,-1000,0,0,0,-1,1,0,200.0
08:02:24.144,STABILIZE,-35.3632621,149.1652374,0,0.00018460568389855325,0.0015632767463102937,0.028590098023414612,0.00016283392324112356,0.00024314792244695127,0.002499575726687908,0,1,-1000,0,0,0,-1,1,0,200.0
08:02:24.344,STABILIZE,-35.3632621,149.1652374,0,0.00018460568389855325,0.0015632767463102937,0.028590098023414612,0.00016283392324112356,0.00024314792244695127,0.002499575726687908,0,1,-1000,0,0,0,-1,1,0,200.0
08:02:24.545,STABILIZE,-35.3632621,149.1652374,0,0.00018460568389855325,0.0015632767463102937,0.028590098023414612,0.00016283392324112356,0.00024314792244695127,0.002499575726687908,0,1,-1000,0,0,0,-1,1,0,200.0
08:02:24.746,STABILIZE,-35.3632621,149.1652374,0,2.2899937903275713e-05,0.0015400408301502466,0.027881911024451256,0.00020294619025662541,0.0002957775432150811,0.0021945559419691563,0,1,-1000,0,0,0,-1,1,0,200.0
08:02:24.947,STABILIZE,-35.3632621,149.1652374,0,2.2899937903275713e-05,0.0015400408301502466,0.027881911024451256,0.00020294619025662541,0.0002957775432150811,0.0021945559419691563,0,1,-1000,0,0,0,-1,1,0,200.0
08:02:25.148,STABILIZE,-35.3632621,149.1652374,0,2.2899937903275713e-05,0.0015400408301502466,0.027881911024451256,0.00020294619025662541,0.0002957775432150811,0.0021945559419691563,0,1,-1000,0,0,0,-1,1,0,200.0
08:02:25.348,STABILIZE,-35.3632621,149.1652374,0,2.2899937903275713e-05,0.0015400408301502466,0.027881911024451256,0.00020294619025662541,0.0002957775432150811,0.0021945559419691563,0,1,-1000,0,0,0,-1,1,0,200.0
08:02:25.549,STABILIZE,-35.3632621,149.1652374,0,2.2899937903275713e-05,0.0015400408301502466,0.027881911024451256,0.00020294619025662541,0.0002957775432150811,0.0021945559419691563,0,1,-1000,0,0,0,-1,1,0,200.0
08:02:25.750,STABILIZE,-35.3632621,149.1652374,0,2.2899937903275713e-05,0.0015400408301502466,0.027881911024451256,0.00020294619025662541,0.0002957775432150811,0.0021945559419691563,0,1,-1000,0,0,0,-1,1,0,200.0
08:02:25.951,STABILIZE,-35.3632621,149.1652374,0,2.2899937903275713e-05,0.0015400408301502466,0.027881911024451256,0.00020294619025662541,0.0002957775432150811,0.0021945559419691563,0,1,-1000,0,0,0,-1,1,0,200.0
08:02:26.151,STABILIZE,-35.3632621,149.1652374,0,2.2899937903275713e-05,0.0015400408301502466,0.027881911024451256,0.00020294619025662541,0.0002957775432150811,0.0021945559419691563,0,1,-1000,0,0,0,-1,1,0,200.0
08:02:26.352,STABILIZE,-35.3632621,149.1652374,0,2.2899937903275713e-05,0.0015400408301502466,0.027881911024451256,0.00020294619025662541,0.0002957775432150811,0.0021945559419691563,0,1,-1000,0,0,0,-1,1,0,200.0
08:02:26.553,STABILIZE,-35.3632621,149.1652374,0,2.2899937903275713e-05,0.0015400408301502466,0.027881911024451256,0.00020294619025662541,0.0002957775432150811,0.0021945559419691563,0,1,-1000,0,0,0,-1,1,0,200.0
08:02:26.754,STABILIZE,-35.3632621,149.1652374,0,2.2899937903275713e-05,0.0015400408301502466,0.027881911024451256,0.00020294619025662541,0.0002957775432150811,0.0021945559419691563,0,1,-1000,0,0,0,-1,1,0,200.0
08:02:26.954,STABILIZE,-35.3632621,149.1652374,0,2.2899937903275713e-05,0.0015400408301502466,0.027881911024451256,0.00020294619025662541,0.0002957775432150811,0.0021945559419691563,0,1,-1000,0,0,0,-1,1,0,200.0
08:02:27.155,STABILIZE,-35.3632621,149.1652374,0,2.2899937903275713e-05,0.0015400408301502466,0.027881911024451256,0.00020294619025662541,0.0002957775432150811,0.0021945559419691563,0,1,-1000,0,0,0,-1,1,0,200.0
08:02:27.356,STABILIZE,-35.3632621,149.1652374,0,2.2899937903275713e-05,0.0015400408301502466,0.027881911024451256,0.00020294619025662541,0.0002957775432150811,0.0021945559419691563,0,1,-1000,0,0,0,-1,1,0,200.0
08:02:27.557,STABILIZE,-35.3632622,149.1652375,0,-0.0009138603345490992,0.0010483070509508252,0.02641330659389496,0.00027270661666989326,0.0002705307852011174,0.002145226113498211,0,1,-1000,0,0,0,-1,1,0,200.0
08:02:27.759,STABILIZE,-35.3632622,149.1652375,0,-0.0009138603345490992,0.0010483070509508252,0.02641330659389496,0.00027270661666989326,0.0002705307852011174,0.002145226113498211,0,1,-1000,0,0,0,-1,1,0,200.0
08:02:27.960,STABILIZE,-35.3632622,149.1652375,0,-0.0009138603345490992,0.0010483070509508252,0.02641330659389496,0.00027270661666989326,0.0002705307852011174,0.002145226113498211,0,1,-1000,0,0,0,-1,1,0,200.0
08:02:28.161,STABILIZE,-35.3632622,149.1652375,0,-0.0009138603345490992,0.0010483070509508252,0.02641330659389496,0.00027270661666989326,0.0002705307852011174,0.002145226113498211,0,1,-1000,0,0,0,-1,1,0,200.0
08:02:28.362,STABILIZE,-35.3632622,149.1652375,0,-0.0009138603345490992,0.0010483070509508252,0.02641330659389496,0.00027270661666989326,0.0002705307852011174,0.002145226113498211,0,1,-1000,0,0,0,-1,1,0,200.0
08:02:28.563,STABILIZE,-35.3632621,149.1652375,0,-0.0009437238331884146,0.000955464958678931,0.026049785315990448,-5.201407475396991e-05,0.0002457474183756858,0.002010473283007741,0,1,-1000,0,0,0,-1,0,-1,200.0
08:02:28.764,STABILIZE,-35.3632621,149.1652375,0,-0.0009437238331884146,0.000955464958678931,0.026049785315990448,-5.201407475396991e-05,0.0002457474183756858,0.002010473283007741,0,1,-1000,0,0,0,-1,0,-1,200.0
08:02:28.966,STABILIZE,-35.3632621,149.1652375,0,-0.0009437238331884146,0.000955464958678931,0.026049785315990448,-5.201407475396991e-05,0.0002457474183756858,0.002010473283007741,0,1,-1000,0,0,0,-1,0,-1,200.0
08:02:29.168,STABILIZE,-35.3632621,149.1652375,0,-0.0009437238331884146,0.000955464958678931,0.026049785315990448,-5.201407475396991e-05,0.0002457474183756858,0.002010473283007741,0,1,-1000,0,0,0,-1,0,-1,200.0
08:02:29.369,STABILIZE,-35.3632621,149.1652375,0,-0.0009437238331884146,0.000955464958678931,0.026049785315990448,-5.201407475396991e-05,0.0002457474183756858,0.002010473283007741,0,1,-1000,0,0,0,-1,0,-1,200.0
08:02:29.570,STABILIZE,-35.3632621,149.1652375,0,-0.0009437238331884146,0.000955464958678931,0.026049785315990448,-5.201407475396991e-05,0.0002457474183756858,0.002010473283007741,0,1,-1000,0,0,0,-1,0,-1,200.0
08:02:29.772,STABILIZE,-35.3632621,149.1652375,0,-0.0009179888293147087,0.0009307876462116838,0.025619231164455414,0.00010117888450622559,0.00016373471589758992,0.0020218524150550365,0,1,-1000,0,0,0,-1,0,-1,200.0
08:02:29.973,STABILIZE,-35.3632621,149.1652375,0,-0.0009179888293147087,0.0009307876462116838,0.025619231164455414,0.00010117888450622559,0.00016373471589758992,0.0020218524150550365,0,1,-1000,0,0,0,-1,0,-1,200.0
08:02:30.174,STABILIZE,-35.3632621,149.1652375,0,-0.0009179888293147087,0.0009307876462116838,0.025619231164455414,0.00010117888450622559,0.00016373471589758992,0.0020218524150550365,0,1,-1000,0,0,0,-1,0,-1,200.0
08:02:30.375,STABILIZE,-35.3632621,149.1652375,0,-0.0009179888293147087,0.0009307876462116838,0.025619231164455414,0.00010117888450622559,0.00016373471589758992,0.0020218524150550365,0,1,-1000,0,0,0,-1,0,-1,200.0
08:02:30.577,STABILIZE,-35.3632621,149.1652375,0,-0.00092357984976843,0.0009194966987706721,0.025370147079229355,0.00011347635881975293,0.00021247047698125243,0.002066227374598384,0,1,-1000,0,0,0,-1,0,0,200.0
08:02:30.778,STABILIZE,-35.3632621,149.1652375,0,-0.0009317434160038829,0.0009210047428496182,0.025265352800488472,9.483518078923225e-05,0.00022317050024867058,0.0018522741738706827,0,1,-1000,0,0,0,-1,0,0,200.0
08:02:30.980,STABILIZE,-35.3632621,149.1652375,0,-0.0009378357790410519,0.0009201393113471568,0.025192702189087868,0.0002720372285693884,0.00019299559062346816,0.0018784014973789454,0,1,-1000,0,0,0,-1,0,0,200.0
08:02:31.181,STABILIZE,-35.3632621,149.1652375,0,-0.0009436520049348474,0.0009245758410543203,0.025114284828305244,0.00013343908358365297,0.0002063485444523394,0.0018673714948818088,0,1,-1000,0,1,0,-1,0,0,200.0
08:02:31.383,STABILIZE,-35.3632621,149.1652375,0,-0.0009436520049348474,0.0009245758410543203,0.025114284828305244,0.00013343908358365297,0.0002063485444523394,0.0018673714948818088,0,1,-1000,0,1,0,-1,0,0,200.0
08:02:31.584,STABILIZE,-35.3632621,149.1652375,0,-0.0009436520049348474,0.0009245758410543203,0.025114284828305244,0.00013343908358365297,0.0002063485444523394,0.0018673714948818088,0,1,-1000,0,1,0,-1,0,0,200.0
08:02:31.785,STABILIZE,-35.3632621,149.1652375,0,-0.0009436520049348474,0.0009245758410543203,0.025114284828305244,0.00013343908358365297,0.0002063485444523394,0.0018673714948818088,0,1,-1000,0,1,0,-1,0,0,200.0
08:02:31.987,STABILIZE,-35.3632621,149.1652375,0,-0.0009436520049348474,0.0009245758410543203,0.025114284828305244,0.00013343908358365297,0.0002063485444523394,0.0018673714948818088,0,1,-1000,0,1,0,-1,0,0,200.0
08:02:32.188,STABILIZE,-35.3632621,149.1652375,0,-0.0009436520049348474,0.0009245758410543203,0.025114284828305244,0.00013343908358365297,0.0002063485444523394,0.0018673714948818088,0,1,-1000,0,1,0,-1,0,0,200.0
08:02:32.390,STABILIZE,-35.3632621,149.1652375,0,-0.0009436520049348474,0.0009245758410543203,0.025114284828305244,0.00013343908358365297,0.0002063485444523394,0.0018673714948818088,0,1,-1000,0,1,0,-1,0,0,200.0
08:02:32.591,STABILIZE,-35.3632621,149.1652375,0,-0.0009436520049348474,0.0009245758410543203,0.025114284828305244,0.00013343908358365297,0.0002063485444523394,0.0018673714948818088,0,1,-1000,0,1,0,-1,0,0,200.0
08:02:32.793,STABILIZE,-35.3632621,149.1652375,0,-0.000823801092337817,0.0009580237092450261,0.024590997025370598,0.0001514822361059487,0.0002420854871161282,0.0016964536625891924,0,1,-1000,0,0,0,-1,0,0,200.0
08:02:32.994,STABILIZE,-35.3632621,149.1652375,0,-0.0008399407379329205,0.0009704598924145103,0.02451012097299099,0.0003352651256136596,0.00016667286399751902,0.0018333956832066178,0,1,-1000,0,0,0,-1,1,0,200.0
08:02:33.195,STABILIZE,-35.3632621,149.1652375,0,-0.0008454069611616433,0.0009691155864857137,0.024415500462055206,0.0002518802648410201,0.0003187177353538573,0.001857314258813858,0,1,-1000,0,0,0,-1,1,0,200.0
08:02:33.397,STABILIZE,-35.3632621,149.1652375,0,-0.0008454069611616433,0.0009691155864857137,0.024415500462055206,0.0002518802648410201,0.0003187177353538573,0.001857314258813858,0,1,-1000,0,0,0,-1,1,0,200.0
08:02:33.598,STABILIZE,-35.3632622,149.1652375,0,-0.0008606447954662144,0.0009688510908745229,0.024346860125660896,0.0003085720236413181,0.00022363226162269711,0.001928606303408742,0,1,-1000,1,0,0,-1,1,0,200.0
08:02:33.800,STABILIZE,-35.3632622,149.1652375,0,-0.0008606447954662144,0.0009688510908745229,0.024346860125660896,0.0003085720236413181,0.00022363226162269711,0.001928606303408742,0,1,-1000,0,0,0,-1,1,0,200.0
08:02:34.001,STABILIZE,-35.3632622,149.1652375,0,-0.0008606447954662144,0.0009688510908745229,0.024346860125660896,0.0003085720236413181,0.00022363226162269711,0.001928606303408742,0,1,-1000,0,0,0,-1,1,0,200.0
08:02:34.203,STABILIZE,-35.3632622,149.1652375,0,-0.0008606447954662144,0.0009688510908745229,0.024346860125660896,0.0003085720236413181,0.00022363226162269711,0.001928606303408742,0,1,-1000,0,0,0,-1,1,0,200.0
08:02:34.404,STABILIZE,-35.3632622,149.1652375,0,-0.0008606447954662144,0.0009688510908745229,0.024346860125660896,0.0003085720236413181,0.00022363226162269711,0.001928606303408742,0,1,-1000,0,0,0,-1,1,0,200.0
08:02:34.607,STABILIZE,-35.3632622,149.1652375,0,-0.0009382670978084207,0.0009742322145029902,0.02402796968817711,0.0003006841288879514,0.0003348574973642826,0.0017995337257161736,0,1,-1000,1,0,0,-1,1,0,200.0
08:02:34.809,STABILIZE,-35.3632622,149.1652375,0,-0.0009382670978084207,0.0009742322145029902,0.02402796968817711,0.0003006841288879514,0.0003348574973642826,0.0017995337257161736,0,1,-1000,0,1,0,-1,1,0,200.0
08:02:35.010,STABILIZE,-35.3632622,149.1652375,0,-0.0009382670978084207,0.0009742322145029902,0.02402796968817711,0.0003006841288879514,0.0003348574973642826,0.0017995337257161736,0,1,-1000,0,1,0,-1,1,0,200.0
08:02:35.212,STABILIZE,-35.3632622,149.1652375,0,-0.0008448345470242202,0.0009705100092105567,0.023801280185580254,-0.00016407828661613166,0.0002534142113290727,0.001694139325991273,0,1,-1000,0,1,0,-1,1,0,200.0
08:02:35.413,STABILIZE,-35.3632622,149.1652375,0,-0.0008448345470242202,0.0009705100092105567,0.023801280185580254,-0.00016407828661613166,0.0002534142113290727,0.001694139325991273,0,1,-1000,0,1,0,-1,1,0,200.0
08:02:35.615,STABILIZE,-35.3632622,149.1652375,0,-0.0008448345470242202,0.0009705100092105567,0.023801280185580254,-0.00016407828661613166,0.0002534142113290727,0.001694139325991273,0,1,-1000,0,1,0,-1,1,0,200.0
08:02:35.816,STABILIZE,-35.3632622,149.1652375,2,-0.000822810863610357,0.000963897502515465,0.02363664098083973,0.00020036601927131414,0.0002493916545063257,0.0016372958198189735,0,2,-1000,0,0,1,-1,0,-1,200.0
08:02:36.018,STABILIZE,-35.3632622,149.1652375,2,-0.000822810863610357,0.000963897502515465,0.02363664098083973,0.00020036601927131414,0.0002493916545063257,0.0016372958198189735,0,2,-1000,0,0,1,-1,0,-1,200.0
08:02:36.240,STABILIZE,-35.3632622,149.1652375,2,-0.000822810863610357,0.000963897502515465,0.02363664098083973,0.00020036601927131414,0.0002493916545063257,0.0016372958198189735,0,2,-1000,0,0,1,-1,0,-1,200.0
08:02:36.444,STABILIZE,-35.3632622,149.1652375,4,-0.0007715933606959879,0.0009667722624726593,0.023413127288222313,0.0003340636030770838,0.00027621706249192357,0.0017552253557369113,0,1,-1000,0,0,0,-1,0,-1,200.0
08:02:36.646,STABILIZE,-35.3632622,149.1652375,4,-0.0007715933606959879,0.0009667722624726593,0.023413127288222313,0.0003340636030770838,0.00027621706249192357,0.0017552253557369113,0,1,-1000,0,0,0,-1,0,-1,200.0
08:02:36.848,STABILIZE,-35.3632622,149.1652375,4,-0.0007715933606959879,0.0009667722624726593,0.023413127288222313,0.0003340636030770838,0.00027621706249192357,0.0017552253557369113,0,1,-1000,0,0,0,-1,0,-1,200.0
08:02:37.049,STABILIZE,-35.3632622,149.1652375,4,-0.0007715933606959879,0.0009667722624726593,0.023413127288222313,0.0003340636030770838,0.00027621706249192357,0.0017552253557369113,0,1,-1000,1,0,0,-1,0,-1,200.0
08:02:37.251,STABILIZE,-35.3632622,149.1652375,4,-0.0007715933606959879,0.0009667722624726593,0.023413127288222313,0.0003340636030770838,0.00027621706249192357,0.0017552253557369113,0,1,-1000,1,0,0,-1,0,-1,200.0
08:02:37.454,STABILIZE,-35.3632622,149.1652375,4,-0.0007715933606959879,0.0009667722624726593,0.023413127288222313,0.0003340636030770838,0.00027621706249192357,0.0017552253557369113,0,2,-1000,0,0,1,-1,0,-1,200.0
08:02:37.655,STABILIZE,-35.3632622,149.1652375,4,-0.0007715933606959879,0.0009667722624726593,0.023413127288222313,0.0003340636030770838,0.00027621706249192357,0.0017552253557369113,0,2,-1000,0,0,1,-1,0,-1,200.0
08:02:37.857,STABILIZE,-35.3632622,149.1652375,4,-0.0007715933606959879,0.0009667722624726593,0.023413127288222313,0.0003340636030770838,0.00027621706249192357,0.0017552253557369113,0,2,-1000,0,0,1,-1,0,-1,200.0
08:02:38.058,STABILIZE,-35.3632622,149.1652375,4,-0.0007715933606959879,0.0009667722624726593,0.023413127288222313,0.0003340636030770838,0.00027621706249192357,0.0017552253557369113,0,2,-1000,0,0,1,-1,0,-1,200.0
08:02:38.260,STABILIZE,-35.3632622,149.1652375,4,-0.0007715933606959879,0.0009667722624726593,0.023413127288222313,0.0003340636030770838,0.00027621706249192357,0.0017552253557369113,0,2,-1000,0,0,1,-1,0,-1,200.0
08:02:38.462,STABILIZE,-35.3632622,149.1652375,3,-0.0007980743539519608,0.0009611804271116853,0.02284925989806652,0.00036873697536066175,0.00035097228828817606,0.001708034542389214,0,2,-1000,0,0,0,-1,1,0,200.0
08:02:38.664,STABILIZE,-35.3632622,149.1652375,3,-0.0007980743539519608,0.0009611804271116853,0.02284925989806652,0.00036873697536066175,0.00035097228828817606,0.001708034542389214,0,2,-1000,0,0,0,-1,1,0,200.0
08:02:38.865,STABILIZE,-35.3632622,149.1652375,3,-0.0007980743539519608,0.0009611804271116853,0.02284925989806652,0.00036873697536066175,0.00035097228828817606,0.001708034542389214,0,2,-1000,0,0,0,-1,1,0,200.0
08:02:39.067,STABILIZE,-35.3632622,149.1652375,12,-0.0007980743539519608,0.0009611804271116853,0.02284925989806652,0.00036873697536066175,0.00035097228828817606,0.001708034542389214,0,1,-1000,0,0,1,-1,0,-3,200.0
08:02:39.268,STABILIZE,-35.3632622,149.1652375,15,-0.0007975274929776788,0.0009646021062508225,0.02264791540801525,0.00017768115503713489,0.00023329479154199362,0.001610531471669674,0,1,-1000,0,0,1,-1,0,-3,200.0
08:02:39.470,STABILIZE,-35.3632622,149.1652375,17,-0.0007485630339942873,0.0009667766862548888,0.02259540557861328,0.00039087305776774883,0.00020912993932142854,0.0015711048617959023,0,1,-1000,0,1,0,-1,0,-3,200.0
08:02:39.674,STABILIZE,-35.3632622,149.1652375,19,-0.0007485630339942873,0.0009667766862548888,0.02259540557861328,0.00039087305776774883,0.00020912993932142854,0.0015711048617959023,0,1,-1000,0,0,1,-1,0,-2,200.0
08:02:39.876,STABILIZE,-35.3632622,149.1652375,19,-0.0007485630339942873,0.0009667766862548888,0.02259540557861328,0.00039087305776774883,0.00020912993932142854,0.0015711048617959023,0,1,-1000,0,0,1,-1,0,-2,200.0
08:02:40.077,STABILIZE,-35.3632622,149.1652375,19,-0.0007485630339942873,0.0009667766862548888,0.02259540557861328,0.00039087305776774883,0.00020912993932142854,0.0015711048617959023,0,1,-1000,0,0,1,-1,0,-2,200.0
08:02:40.279,STABILIZE,-35.3632622,149.1652375,19,-0.0007485630339942873,0.0009667766862548888,0.02259540557861328,0.00039087305776774883,0.00020912993932142854,0.0015711048617959023,0,1,-1000,0,0,1,-1,0,-2,200.0
08:02:40.481,STABILIZE,-35.3632622,149.1652375,19,-0.0007485630339942873,0.0009667766862548888,0.02259540557861328,0.00039087305776774883,0.00020912993932142854,0.0015711048617959023,0,1,-1000,0,0,1,-1,0,-2,200.0
08:02:40.683,STABILIZE,-35.3632622,149.1652375,19,-0.0007485630339942873,0.0009667766862548888,0.02259540557861328,0.00039087305776774883,0.00020912993932142854,0.0015711048617959023,0,2,-1000,0,1,0,-1,1,-1,200.0
08:02:40.884,STABILIZE,-35.3632622,149.1652375,19,-0.0007485630339942873,0.0009667766862548888,0.02259540557861328,0.00039087305776774883,0.00020912993932142854,0.0015711048617959023,0,2,-1000,0,1,0,-1,1,-1,200.0
08:02:41.086,STABILIZE,-35.3632622,149.1652375,19,-0.0007485630339942873,0.0009667766862548888,0.02259540557861328,0.00039087305776774883,0.00020912993932142854,0.0015711048617959023,0,2,-1000,0,1,0,-1,1,-1,200.0
08:02:41.288,STABILIZE,-35.3632622,149.1652375,19,-0.0007485630339942873,0.0009667766862548888,0.02259540557861328,0.00039087305776774883,0.00020912993932142854,0.0015711048617959023,0,2,-1000,0,1,0,-1,1,-1,200.0
08:02:41.489,STABILIZE,-35.3632622,149.1652375,19,-0.0007485630339942873,0.0009667766862548888,0.02259540557861328,0.00039087305776774883,0.00020912993932142854,0.0015711048617959023,0,2,-1000,0,1,0,-1,1,-1,200.0
08:02:41.691,STABILIZE,-35.3632622,149.1652375,16,-0.0005703485221602023,0.0009842189028859138,0.022002646699547768,0.00034163595410063863,0.00025507743703201413,0.0013534685131162405,0,1,-1000,1,1,0,-1,1,-1,200.0
08:02:41.892,STABILIZE,-35.3632622,149.1652375,16,-0.0005703485221602023,0.0009842189028859138,0.022002646699547768,0.00034163595410063863,0.00025507743703201413,0.0013534685131162405,0,1,-1000,1,1,0,-1,1,-1,200.0
08:02:42.095,AUTO,-35.3632622,149.1652375,16,-0.0005703485221602023,0.0009842189028859138,0.022002646699547768,0.00034163595410063863,0.00025507743703201413,0.0013534685131162405,0,1,-1000,1,1,0,-1,1,-1,200.0
08:02:42.297,AUTO,-35.3632622,149.1652375,16,-0.0005703485221602023,0.0009842189028859138,0.022002646699547768,0.00034163595410063863,0.00025507743703201413,0.0013534685131162405,0,1,-1000,1,1,0,-1,1,-1,300000.0
08:02:42.498,AUTO,-35.3632622,149.1652375,14,-0.0005696720909327269,0.0009637956973165274,0.021809933707118034,0.0003897733986377716,0.0002455372014082968,0.0013530111173167825,0,1,-1000,0,0,1,-1,0,-3,300000.0
08:02:42.700,AUTO,-35.3632622,149.1652375,18,-0.0005236152792349458,0.000975354399997741,0.021741246804594994,0.00031174684409052134,0.0002485591685399413,0.001386876916512847,0,1,-1000,1,0,0,-1,0,-3,300000.0
08:02:42.902,AUTO,-35.3632622,149.1652375,18,-0.0005236152792349458,0.000975354399997741,0.021741246804594994,0.00031174684409052134,0.0002485591685399413,0.001386876916512847,0,1,-1000,1,0,0,-1,0,-3,300000.0
08:02:43.103,AUTO,-35.3632621,149.1652375,19,-0.0004795710265170783,0.0009928415529429913,0.021680301055312157,0.0003597381291911006,0.0002540334826335311,0.0014105425216257572,0,1,-1000,1,1,1,0,0,-3,300000.0
08:02:43.305,AUTO,-35.3632621,149.1652375,20,-0.00043430618825368583,0.0010243806755170226,0.021607158705592155,0.00020207924535498023,0.00019267515745013952,0.0014194529503583908,0,1,-1000,0,0,0,0,0,-2,300000.0
08:02:43.507,AUTO,-35.3632621,149.1652375,21,-0.00038280856097117066,0.0010700493585318327,0.021551886573433876,0.0004826801596209407,0.0003112020203843713,0.0014245541533455253,0,1,-1000,1,0,0,0,0,-2,300000.0
08:02:43.709,AUTO,-35.3632621,149.1652375,22,-0.0003308677114546299,0.0011268056696280837,0.021501129493117332,0.00034535262966528535,0.0002930228947661817,0.0015712229069322348,0,2,-1000,0,0,0,0,0,-2,300000.0
08:02:43.911,AUTO,-35.3632621,149.1652375,22,-0.0003308677114546299,0.0011268056696280837,0.021501129493117332,0.00034535262966528535,0.0002930228947661817,0.0015712229069322348,0,2,-1000,0,0,0,0,0,-2,300000.0
08:02:44.113,AUTO,-35.3632621,149.1652375,22,-0.0003308677114546299,0.0011268056696280837,0.021501129493117332,0.00034535262966528535,0.0002930228947661817,0.0015712229069322348,0,2,-1000,0,0,0,0,0,-2,300000.0
08:02:44.315,AUTO,-35.3632621,149.1652375,22,-0.0003308677114546299,0.0011268056696280837,0.021501129493117332,0.00034535262966528535,0.0002930228947661817,0.0015712229069322348,0,2,-1000,0,0,0,0,0,-2,300000.0
08:02:44.517,AUTO,-35.3632621,149.1652375,21,-0.00013853912241756916,0.0013365242630243301,0.021287089213728905,0.0003835672396235168,0.00026152178179472685,0.0013962258817628026,0,1,-1000,0,0,0,0,0,-1,300000.0
08:02:44.718,AUTO,-35.3632621,149.1652375,20,-7.53571221139282e-05,0.00141384347807616,0.021209537982940674,0.0003483602777123451,0.0003065242199227214,0.001384381903335452,0,1,-1000,1,0,1,0,0,-1,300000.0
08:02:44.921,AUTO,-35.3632621,149.1652375,20,-7.53571221139282e-05,0.00141384347807616,0.021209537982940674,0.0003483602777123451,0.0003065242199227214,0.001384381903335452,0,1,-1000,1,0,1,0,0,-1,300000.0
08:02:45.124,AUTO,-35.3632621,149.1652375,19,-1.1696258297888562e-05,0.0014824047684669495,0.02113456092774868,0.00029115594225004315,0.00033240357879549265,0.001331979176029563,0,1,-1000,1,1,1,0,0,-1,300000.0
08:02:45.326,AUTO,-35.3632621,149.1652375,18,5.6542077800258994e-05,0.001556943985633552,0.021064795553684235,0.0002628415822982788,0.0002980230492539704,0.001486878376454115,0,2,-1000,1,0,0,0,0,0,300000.0
08:02:45.528,AUTO,-35.3632621,149.1652375,17,0.00012860802235081792,0.0016301673604175448,0.020983407273888588,0.0002766770776361227,0.00024977081920951605,0.0014357644831761718,0,1,-1000,0,0,0,0,0,0,300000.0
08:02:45.732,AUTO,-35.3632621,149.1652375,16,0.00020640659204218537,0.0017042169347405434,0.020889529958367348,0.00041207746835425496,0.0002842735266312957,0.0013709544437006116,0,2,-1000,1,1,0,0,1,0,300000.0
08:02:45.937,AUTO,-35.3632621,149.1652375,16,0.00020640659204218537,0.0017042169347405434,0.020889529958367348,0.00041207746835425496,0.0002842735266312957,0.0013709544437006116,0,2,-1000,1,1,0,0,1,0,300000.0
08:02:46.139,AUTO,-35.3632621,149.1652375,16,0.00020640659204218537,0.0017042169347405434,0.020889529958367348,0.00041207746835425496,0.0002842735266312957,0.0013709544437006116,0,2,-1000,1,1,0,0,1,0,300000.0
08:02:46.341,AUTO,-35.3632621,149.1652375,16,0.00020640659204218537,0.0017042169347405434,0.020889529958367348,0.00041207746835425496,0.0002842735266312957,0.0013709544437006116,0,2,-1000,1,1,0,0,1,0,300000.0
08:02:46.544,AUTO,-35.3632621,149.1652375,214,0.002511328784748912,0.0002144112513633445,0.02094193920493126,-0.004567671101540327,0.0042189485393464565,0.000454397639259696,0,0,-1130,-4,4,0,0,1,-72,300000.0
08:02:46.746,AUTO,-35.3632621,149.1652375,430,0.0020589730702340603,0.001075523323379457,0.020838534459471703,-0.0035438528284430504,0.00266491761431098,0.0009267065324820578,0,0,-1109,-2,3,0,0,1,-101,300000.0
08:02:46.947,AUTO,-35.3632621,149.1652375,712,0.002295716432854533,0.0015287251444533467,0.020670849829912186,0.01204506866633892,0.0003421824658289552,-0.00042086155735887587,0,0,-1087,12,1,0,0,1,-125,300000.0
08:02:47.149,AUTO,-35.3632621,149.1652375,712,0.002295716432854533,0.0015287251444533467,0.020670849829912186,0.01204506866633892,0.0003421824658289552,-0.00042086155735887587,0,0,-1087,12,1,0,0,1,-125,300000.0
08:02:47.351,AUTO,-35.3632621,149.1652375,1055,0.012702235952019691,0.0005284553626552224,0.02038833126425743,0.04827047139406204,-0.006209506653249264,0.001296707079745829,0,0,-1038,48,-5,0,0,2,-139,300000.0
08:02:47.554,AUTO,-35.363262,149.1652375,1419,0.024564599618315697,-0.0011515141231939197,0.020355863496661186,0.0469173900783062,-0.006942044943571091,0.002127864398062229,0,0,-1016,47,-6,1,1,6,-144,300000.0
08:02:47.756,AUTO,-35.363262,149.1652377,1794,0.036001767963171005,-0.0030584100168198347,0.02048412710428238,0.04498453438282013,-0.007958629168570042,0.002822108333930373,0,-1,-1007,45,-7,2,1,12,-147,300000.0
08:02:47.958,AUTO,-35.363262,149.1652377,1794,0.036001767963171005,-0.0030584100168198347,0.02048412710428238,0.04498453438282013,-0.007958629168570042,0.002822108333930373,0,-1,-1007,45,-7,2,1,12,-147,300000.0
08:02:48.161,AUTO,-35.363262,149.1652377,1794,0.036001767963171005,-0.0030584100168198347,0.02048412710428238,0.04498453438282013,-0.007958629168570042,0.002822108333930373,0,-1,-1007,45,-7,2,1,12,-147,300000.0
08:02:48.362,AUTO,-35.363262,149.1652377,1794,0.036001767963171005,-0.0030584100168198347,0.02048412710428238,0.04498453438282013,-0.007958629168570042,0.002822108333930373,0,-1,-1007,45,-7,2,1,12,-147,300000.0
08:02:48.564,AUTO,-35.3632616,149.1652398,2931,0.06272689998149872,-0.008466968312859535,-0.010251554660499096,-0.021089846268296242,0.03058318793773651,-0.052884701639413834,0,-9,-992,-20,31,-53,8,44,-146,300000.0
08:02:48.766,AUTO,-35.3632614,149.1652411,3307,0.03983677923679352,0.014528479427099228,-0.03302512317895889,-0.14696672558784485,0.09199051558971405,-0.09814762324094772,2,-12,-991,-145,92,-98,9,54,-144,300000.0
08:02:48.968,AUTO,-35.3632611,149.1652425,3680,-0.0028721338603645563,0.02343142218887806,-0.05248197540640831,-0.13621975481510162,-0.005298397969454527,-0.06251288950443268,5,-12,-1008,-135,-4,-62,6,55,-143,300000.0
08:02:49.170,AUTO,-35.3632611,149.1652425,3680,-0.0028721338603645563,0.02343142218887806,-0.05248197540640831,-0.13621975481510162,-0.005298397969454527,-0.06251288950443268,5,-12,-1008,-135,-4,-62,6,55,-143,300000.0
08:02:49.375,AUTO,-35.363261,149.1652439,4056,-0.02244812622666359,0.01579875871539116,-0.062149882316589355,-0.04478008300065994,-0.03463126718997955,-0.03825761377811432,4,-10,-1010,-43,-34,-38,3,47,-146,300000.0
08:02:49.577,AUTO,-35.3632609,149.165245,4437,-0.0304503683000803,0.007648511324077845,-0.06861775368452072,-0.036863744258880615,-0.024208907037973404,-0.03166932612657547,4,-8,-1004,-36,-23,-31,2,38,-148,300000.0
08:02:49.780,AUTO,-35.3632608,149.1652459,4819,-0.045241374522447586,0.0035262310411781073,-0.07591868191957474,-0.0766669288277626,-0.007993740029633045,-0.03388006240129471,3,-6,-999,-76,-7,-33,1,26,-148,300000.0
08:02:49.982,AUTO,-35.3632608,149.1652459,4819,-0.045241374522447586,0.0035262310411781073,-0.07591868191957474,-0.0766669288277626,-0.007993740029633045,-0.03388006240129471,3,-6,-999,-76,-7,-33,1,26,-148,300000.0
08:02:50.184,AUTO,-35.3632608,149.1652459,4819,-0.045241374522447586,0.0035262310411781073,-0.07591868191957474,-0.0766669288277626,-0.007993740029633045,-0.03388006240129471,3,-6,-999,-76,-7,-33,1,26,-148,300000.0
08:02:50.405,AUTO,-35.3632608,149.1652459,4819,-0.045241374522447586,0.0035262310411781073,-0.07591868191957474,-0.0766669288277626,-0.007993740029633045,-0.03388006240129471,3,-6,-999,-76,-7,-33,1,26,-148,267169.0
08:02:50.608,AUTO,-35.3632608,149.1652458,5972,-0.07087206095457077,-0.00040337679092772305,-0.09828601777553558,0.05145712196826935,-0.0032006027176976204,-0.018517008051276207,-1,3,-1002,52,-2,-18,-2,-28,-147,267169.0
08:02:50.810,AUTO,-35.3632609,149.1652449,6354,-0.05731256306171417,-0.0006378499092534184,-0.10215970873832703,0.05744820460677147,0.0029436093755066395,-0.012716084718704224,-4,8,-1000,58,3,-12,-4,-43,-147,267169.0
08:02:51.011,AUTO,-35.3632609,149.1652436,6736,-0.042393844574689865,0.0005206185160204768,-0.10453889518976212,0.06217919662594795,0.007460097316652536,-0.007875760085880756,-5,10,-1001,62,8,-7,-6,-54,-147,267169.0
08:02:51.213,AUTO,-35.3632611,149.165242,7118,-0.026494765654206276,0.0028045768849551678,-0.10583251714706421,0.06505199521780014,0.010447198525071144,-0.004239013884216547,-6,10,-1002,65,11,-4,-8,-60,-148,267169.0
08:02:51.415,AUTO,-35.3632611,149.165242,7118,-0.026494765654206276,0.0028045768849551678,-0.10583251714706421,0.06505199521780014,0.010447198525071144,-0.004239013884216547,-6,10,-1002,65,11,-4,-8,-60,-148,267169.0
08:02:51.618,AUTO,-35.3632613,149.1652403,7501,-0.009999834932386875,0.005706535652279854,-0.10635630786418915,0.06658593565225601,0.011698556132614613,-0.0020346471574157476,-8,12,-1003,67,12,-2,-10,-61,-148,267169.0
08:02:51.820,AUTO,-35.3632615,149.1652386,7888,0.00697108032181859,0.008680015802383423,-0.10607738047838211,0.0681726336479187,0.011666029691696167,-0.00012197927571833134,-7,13,-1004,68,12,0,-13,-59,-149,267169.0
08:02:52.022,AUTO,-35.3632615,149.1652386,7888,0.00697108032181859,0.008680015802383423,-0.10607738047838211,0.0681726336479187,0.011666029691696167,-0.00012197927571833134,-7,13,-1004,68,12,0,-13,-59,-149,267169.0
08:02:52.232,AUTO,-35.3632615,149.1652386,7888,0.00697108032181859,0.008680015802383423,-0.10607738047838211,0.0681726336479187,0.011666029691696167,-0.00012197927571833134,-7,13,-1004,68,12,0,-13,-59,-149,267169.0
08:02:52.443,AUTO,-35.3632615,149.1652386,7888,0.00697108032181859,0.008680015802383423,-0.10607738047838211,0.0681726336479187,0.011666029691696167,-0.00012197927571833134,-7,13,-1004,68,12,0,-13,-59,-149,267169.0
08:02:52.644,AUTO,-35.3632626,149.1652345,9058,0.05684088543057442,0.013572053983807564,-0.10274638235569,0.06369991600513458,-0.0003389543853700161,0.004159188363701105,-2,9,-1002,64,0,3,-20,-28,-151,267169.0
08:02:52.846,AUTO,-35.3632631,149.1652339,9451,0.07214842736721039,0.012588639743626118,-0.10139400511980057,0.05962909385561943,-0.006631549447774887,0.0050135040655732155,0,8,-1001,60,-6,4,-21,-11,-151,267169.0
08:02:53.048,AUTO,-35.3632635,149.1652337,9841,0.07756823301315308,0.0025707518216222525,-0.09286066889762878,-0.02452981099486351,-0.08053888380527496,0.07406266033649445,4,4,-993,-23,-79,73,-20,7,-150,267169.0
08:02:53.252,AUTO,-35.3632639,149.1652341,10231,0.06490837037563324,-0.028175324201583862,-0.06915588676929474,-0.06570202112197876,-0.13710658252239227,0.13051915168762207,5,0,-996,-64,-136,130,-14,24,-148,267169.0
08:02:53.458,AUTO,-35.3632641,149.1652347,10613,0.039396580308675766,-0.05830664560198784,-0.043946895748376846,-0.12864282727241516,-0.05037035420536995,0.06138547509908676,4,-6,-995,-127,-49,61,0,34,-146,267169.0
08:02:53.660,AUTO,-35.3632641,149.1652347,10613,0.039396580308675766,-0.05830664560198784,-0.043946895748376846,-0.12864282727241516,-0.05037035420536995,0.06138547509908676,4,-6,-995,-127,-49,61,0,34,-146,267169.0
08:02:53.862,AUTO,-35.3632641,149.1652357,10991,0.004845139570534229,-0.05105311796069145,-0.04405112564563751,-0.1287819743156433,0.07570794969797134,-0.03587047755718231,3,-7,-1001,-128,76,-36,14,36,-145,267169.0
08:02:54.064,AUTO,-35.3632641,149.1652357,10991,0.004845139570534229,-0.05105311796069145,-0.04405112564563751,-0.1287819743156433,0.07570794969797134,-0.03587047755718231,3,-7,-1001,-128,76,-36,14,36,-145,267169.0
08:02:54.267,AUTO,-35.3632641,149.1652357,10991,0.004845139570534229,-0.05105311796069145,-0.04405112564563751,-0.1287819743156433,0.07570794969797134,-0.03587047755718231,3,-7,-1001,-128,76,-36,14,36,-145,293573.0
08:02:54.475,AUTO,-35.3632623,149.1652376,12131,-0.03498249128460884,-0.0014961098786443472,-0.10234513878822327,-0.002686921274289489,0.04293811693787575,-0.08278467506170273,-4,-7,-1005,-2,43,-83,29,10,-149,293573.0
08:02:54.677,AUTO,-35.3632623,149.1652376,12131,-0.03498249128460884,-0.0014961098786443472,-0.10234513878822327,-0.002686921274289489,0.04293811693787575,-0.08278467506170273,-4,-7,-1005,-2,43,-83,29,10,-149,293573.0
08:02:54.881,AUTO,-35.3632617,149.1652378,12518,-0.032626673579216,0.006971484981477261,-0.1225622296333313,0.01640051230788231,0.03283069655299187,-0.0723688155412674,-5,-4,-1003,17,33,-72,27,0,-150,293573.0
08:02:55.084,AUTO,-35.3632611,149.1652377,12907,-0.026621144264936447,0.013318884186446667,-0.1395566165447235,0.03142818063497543,0.022011777386069298,-0.056805096566677094,-6,-2,-1002,32,22,-57,22,-8,-151,293573.0
08:02:55.286,AUTO,-35.3632606,149.1652374,13297,-0.017785344272851944,0.017686929553747177,-0.15277010202407837,0.040434613823890686,0.01641119085252285,-0.044700101017951965,-5,0,-1001,40,17,-44,17,-14,-151,293573.0
08:02:55.487,AUTO,-35.3632603,149.1652369,13687,-0.007258944679051638,0.02096230536699295,-0.16272668540477753,0.04437517374753952,0.01296570897102356,-0.034952569752931595,-5,0,-1001,44,13,-35,11,-17,-151,293573.0
08:02:55.689,AUTO,-35.3632601,149.1652364,14079,0.0034408308565616608,0.023854948580265045,-0.17029044032096863,0.04115641117095947,0.009787440299987793,-0.024685779586434364,-4,1,-1000,41,10,-24,4,-17,-151,293573.0
08:02:55.891,AUTO,-35.3632601,149.1652364,14079,0.0034408308565616608,0.023854948580265045,-0.17029044032096863,0.04115641117095947,0.009787440299987793,-0.024685779586434364,-4,1,-1000,41,10,-24,4,-17,-151,293573.0
08:02:56.093,AUTO,-35.3632601,149.1652364,14079,0.0034408308565616608,0.023854948580265045,-0.17029044032096863,0.04115641117095947,0.009787440299987793,-0.024685779586434364,-4,1,-1000,41,10,-24,4,-17,-151,293573.0
08:02:56.295,AUTO,-35.3632601,149.1652364,14079,0.0034408308565616608,0.023854948580265045,-0.17029044032096863,0.04115641117095947,0.009787440299987793,-0.024685779586434364,-4,1,-1000,41,10,-24,4,-17,-151,293573.0
08:02:56.497,AUTO,-35.3632601,149.1652353,15252,0.018004201352596283,0.01883780211210251,-0.17387543618679047,0.0026307059451937675,-0.013242736458778381,0.0034099132753908634,0,3,-999,3,-12,3,-9,-5,-151,293573.0
08:02:56.699,AUTO,-35.3632602,149.1652352,15641,0.017490606755018234,0.01532235648483038,-0.1722787469625473,-0.002859188709408045,-0.011905744671821594,0.00591409532353282,0,2,-999,-2,-11,5,-12,0,-150,293573.0
08:02:56.901,AUTO,-35.3632602,149.1652352,15641,0.017490606755018234,0.01532235648483038,-0.1722787469625473,-0.002859188709408045,-0.011905744671821594,0.00591409532353282,0,2,-999,-2,-11,5,-12,0,-150,293573.0
08:02:57.102,AUTO,-35.3632604,149.1652352,16029,0.015437456779181957,0.011579224839806557,-0.17054229974746704,-0.010917308740317822,-0.013835291378200054,0.005019828211516142,1,1,-999,-10,-13,4,-13,3,-150,293573.0
08:02:57.304,AUTO,-35.3632607,149.1652352,16417,0.01237696036696434,0.007834657095372677,-0.16924239695072174,-0.013240644708275795,-0.013600839301943779,0.0024039437994360924,2,1,-999,-12,-12,2,-14,6,-150,293573.0
08:02:57.506,AUTO,-35.363261,149.1652353,16805,0.009099713526666164,0.0047228517942130566,-0.16908782720565796,-0.011645031161606312,-0.010458217933773994,-0.003224157029762864,2,1,-1000,-11,-9,-3,-13,8,-150,293573.0
08:02:57.709,AUTO,-35.3632612,149.1652355,17193,0.00625288812443614,0.002483380725607276,-0.17032577097415924,-0.010433393530547619,-0.007788422517478466,-0.00776910362765193,2,0,-1000,-9,-7,-7,-12,9,-150,293573.0
08:02:57.911,AUTO,-35.3632612,149.1652355,17193,0.00625288812443614,0.002483380725607276,-0.17032577097415924,-0.010433393530547619,-0.007788422517478466,-0.00776910362765193,2,0,-1000,-9,-7,-7,-12,9,-150,293573.0
08:02:58.113,AUTO,-35.3632612,149.1652355,17193,0.00625288812443614,0.002483380725607276,-0.17032577097415924,-0.010433393530547619,-0.007788422517478466,-0.00776910362765193,2,0,-1000,-9,-7,-7,-12,9,-150,293573.0
08:02:58.317,AUTO,-35.3632612,149.1652355,17193,0.00625288812443614,0.002483380725607276,-0.17032577097415924,-0.010433393530547619,-0.007788422517478466,-0.00776910362765193,2,0,-1000,-9,-7,-7,-12,9,-150,262751.0
08:02:58.519,AUTO,-35.3632618,149.165236,18360,0.0007523322128690779,-0.0020529599860310555,-0.1800820231437683,-0.0023152080830186605,-0.002374186646193266,-0.018440088257193565,1,0,-1001,-1,-1,-18,-8,8,-151,262751.0
08:02:58.720,AUTO,-35.3632619,149.1652362,18749,4.627459929906763e-05,-0.0024516768753528595,-0.1852135807275772,-0.0021958183497190475,0.0007523855892941356,-0.02322106994688511,1,0,-1000,-1,1,-23,-7,7,-151,262751.0
08:02:58.922,AUTO,-35.3632619,149.1652362,18749,4.627459929906763e-05,-0.0024516768753528595,-0.1852135807275772,-0.0021958183497190475,0.0007523855892941356,-0.02322106994688511,1,0,-1000,-1,1,-23,-7,7,-151,262751.0
08:02:59.124,AUTO,-35.363262,149.1652363,19142,-0.00035067074350081384,-0.002493462525308132,-0.19090791046619415,-0.0014530881308019161,0.001619346672669053,-0.02252979762852192,1,0,-1000,0,2,-22,-5,5,-151,262751.0
08:02:59.325,AUTO,-35.3632621,149.1652364,19531,-0.00035656942054629326,-0.0019576677586883307,-0.19723747670650482,0.0013738122070208192,0.002111551584675908,-0.023696493357419968,0,0,-1000,2,2,-23,-4,4,-151,262751.0
08:02:59.528,AUTO,-35.3632621,149.1652364,19921,0.0003711359458975494,-0.0013116452610120177,-0.2038615345954895,0.004505726508796215,0.0032318495213985443,-0.028860080987215042,0,0,-1000,5,4,-28,-3,3,-151,262751.0
08:02:59.731,AUTO,-35.3632621,149.1652365,20310,0.0010810120729729533,-0.0005620669689960778,-0.2104358822107315,0.003981264308094978,0.0023980457335710526,-0.025462152436375618,0,0,-1000,4,3,-25,-2,2,-151,262751.0
08:02:59.949,AUTO,-35.3632621,149.1652365,20310,0.0010810120729729533,-0.0005620669689960778,-0.2104358822107315,0.003981264308094978,0.0023980457335710526,-0.025462152436375618,0,0,-1000,4,3,-25,-2,2,-151,262751.0
08:03:00.154,AUTO,-35.3632621,149.1652365,20310,0.0010810120729729533,-0.0005620669689960778,-0.2104358822107315,0.003981264308094978,0.0023980457335710526,-0.025462152436375618,0,0,-1000,4,3,-25,-2,2,-151,262751.0
08:03:00.358,AUTO,-35.3632621,149.1652365,20310,0.0010810120729729533,-0.0005620669689960778,-0.2104358822107315,0.003981264308094978,0.0023980457335710526,-0.025462152436375618,0,0,-1000,4,3,-25,-2,2,-151,262751.0
08:03:00.561,AUTO,-35.3632621,149.1652364,21472,-0.01913411356508732,0.001900743693113327,-0.2300107628107071,-0.11650942265987396,0.004109654575586319,-0.028059136122465134,0,0,-993,-115,4,-28,-1,0,-150,262751.0
08:03:00.763,AUTO,-35.3632621,149.1652364,21854,-0.04182840511202812,0.014046759344637394,-0.2126861959695816,-0.05733184888958931,0.09368368238210678,0.17940784990787506,-1,0,-979,-56,94,179,-4,-8,-145,262751.0
08:03:00.964,AUTO,-35.3632623,149.1652359,22222,-0.04982035607099533,0.04478029906749725,-0.13086946308612823,-0.04360853508114815,0.10220836848020554,0.46460092067718506,0,2,-980,-42,102,464,-12,-18,-140,262751.0
08:03:01.166,AUTO,-35.3632623,149.1652359,22222,-0.04982035607099533,0.04478029906749725,-0.13086946308612823,-0.04360853508114815,0.10220836848020554,0.46460092067718506,0,2,-980,-42,102,464,-12,-18,-140,262751.0
08:03:01.368,AUTO,-35.3632627,149.1652352,22573,-0.04634254053235054,0.058318495750427246,-0.005401433911174536,0.05510326474905014,-0.08554616570472717,0.4239477813243866,1,6,-952,56,-84,423,-26,-29,-131,262751.0
08:03:01.570,AUTO,-35.3632633,149.1652343,22897,-0.016322411596775055,0.018940316513180733,0.06698097288608551,0.13135690987110138,-0.19367696344852448,0.17031587660312653,2,10,-951,132,-193,170,-34,-35,-119,262751.0
08:03:01.773,AUTO,-35.363264,149.1652333,23192,0.01571393944323063,-0.021147560328245163,0.08655353635549545,0.11679930984973907,-0.12219507992267609,0.01394207775592804,1,11,-955,117,-121,13,-32,-33,-108,262751.0
08:03:01.975,AUTO,-35.363264,149.1652333,23192,0.01571393944323063,-0.021147560328245163,0.08655353635549545,0.11679930984973907,-0.12219507992267609,0.01394207775592804,1,11,-955,117,-121,13,-32,-33,-108,262751.0
08:03:02.177,AUTO,-35.363264,149.1652333,23192,0.01571393944323063,-0.021147560328245163,0.08655353635549545,0.11679930984973907,-0.12219507992267609,0.01394207775592804,1,11,-955,117,-121,13,-32,-33,-108,262751.0
08:03:02.379,AUTO,-35.363264,149.1652333,23192,0.01571393944323063,-0.021147560328245163,0.08655353635549545,0.11679930984973907,-0.12219507992267609,0.01394207775592804,1,11,-955,117,-121,13,-32,-33,-108,225455.0
08:03:02.581,AUTO,-35.3632652,149.1652317,23910,0.05702010169625282,-0.0430215559899807,0.058183882385492325,-0.0033900863490998745,0.018782958388328552,-0.03014797531068325,0,1,-968,-2,19,-30,-3,2,-78,225455.0
08:03:02.783,AUTO,-35.3632652,149.1652319,24103,0.05280325189232826,-0.03612566739320755,0.053141266107559204,-0.03011045791208744,0.03235122933983803,-0.013178366236388683,0,-2,-971,-29,33,-13,5,15,-70,225455.0
08:03:02.985,AUTO,-35.3632651,149.1652323,24276,0.0448380708694458,-0.02706030197441578,0.051091600209474564,-0.030469676479697227,0.037964608520269394,-0.0019424330675974488,0,-5,-974,-29,38,-2,12,25,-63,225455.0
08:03:03.187,AUTO,-35.3632648,149.165233,24432,0.0348496250808239,-0.0172708909958601,0.050359245389699936,-0.04308606684207916,0.040089432150125504,0.0026611783541738987,0,-8,-975,-42,41,2,17,32,-57,225455.0
08:03:03.389,AUTO,-35.3632648,149.165233,24432,0.0348496250808239,-0.0172708909958601,0.050359245389699936,-0.04308606684207916,0.040089432150125504,0.0026611783541738987,0,-8,-975,-42,41,2,17,32,-57,225455.0
08:03:03.591,AUTO,-35.3632643,149.1652338,24572,0.023989593610167503,-0.007802166044712067,0.04996101185679436,-0.0477074570953846,0.034240685403347015,0.0025068381801247597,-1,-9,-978,-46,35,2,20,36,-51,225455.0
08:03:03.793,AUTO,-35.3632638,149.1652348,24698,0.014508478343486786,-0.00015574757708236575,0.04931902140378952,-0.024509675800800323,0.029560182243585587,0.0012335139326751232,-1,-9,-979,-23,30,1,21,37,-46,225455.0
08:03:03.995,AUTO,-35.3632638,149.1652348,24698,0.014508478343486786,-0.00015574757708236575,0.04931902140378952,-0.024509675800800323,0.029560182243585587,0.0012335139326751232,-1,-9,-979,-23,30,1,21,37,-46,225455.0
08:03:04.198,AUTO,-35.3632638,149.1652348,24698,0.014508478343486786,-0.00015574757708236575,0.04931902140378952,-0.024509675800800323,0.029560182243585587,0.0012335139326751232,-1,-9,-979,-23,30,1,21,37,-46,225455.0
08:03:04.400,AUTO,-35.3632638,149.1652348,24698,0.014508478343486786,-0.00015574757708236575,0.04931902140378952,-0.024509675800800323,0.029560182243585587,0.0012335139326751232,-1,-9,-979,-23,30,1,21,37,-46,225455.0
08:03:04.603,AUTO,-35.3632623,149.1652375,24990,-0.004844143986701965,0.014225910417735577,0.04643436521291733,-0.011825263500213623,0.00890775490552187,-0.0011776407482102513,0,-7,-1058,-10,9,-1,17,30,-34,225455.0
08:03:04.804,AUTO,-35.363262,149.1652382,25075,-0.007332079112529755,0.015103439800441265,0.045272789895534515,0.020786209031939507,0.0040925005450844765,-0.0020698849111795425,0,-7,-970,21,5,-1,14,26,-30,225455.0
08:03:05.006,AUTO,-35.3632616,149.1652388,25142,-0.012016605585813522,0.015569833107292652,0.0442655012011528,-0.15292459726333618,0.0012821820564568043,-0.004274657927453518,0,-10,-962,-152,2,-4,10,21,-21,225455.0
08:03:05.208,AUTO,-35.3632614,149.1652393,25183,-0.006500406190752983,0.015077709220349789,0.043200548738241196,0.4468792676925659,-0.006398714147508144,-0.003948060795664787,0,16,-960,448,-5,-3,7,17,-11,225455.0
08:03:05.410,AUTO,-35.3632614,149.1652393,25183,-0.006500406190752983,0.015077709220349789,0.043200548738241196,0.4468792676925659,-0.006398714147508144,-0.003948060795664787,0,16,-960,448,-5,-3,7,17,-11,225455.0
08:03:05.612,AUTO,-35.3632612,149.1652397,25191,0.0008016100618988276,0.013611619360744953,0.04153971001505852,0.6260367631912231,-0.005298577714711428,-0.022087370976805687,0,12,-922,626,-4,-22,5,13,6,225455.0
08:03:05.814,AUTO,-35.3632611,149.1652399,25166,-0.03418417647480965,0.032570093870162964,0.04144470766186714,0.06560611724853516,0.02525188773870468,-0.009217034094035625,0,-20,-921,65,26,-9,0,3,14,225455.0
08:03:06.017,AUTO,-35.3632611,149.1652399,25166,-0.03418417647480965,0.032570093870162964,0.04144470766186714,0.06560611724853516,0.02525188773870468,-0.009217034094035625,0,-20,-921,65,26,-9,0,3,14,225455.0
08:03:06.219,AUTO,-35.3632611,149.1652399,25166,-0.03418417647480965,0.032570093870162964,0.04144470766186714,0.06560611724853516,0.02525188773870468,-0.009217034094035625,0,-20,-921,65,26,-9,0,3,14,225455.0
08:03:06.422,AUTO,-35.3632611,149.1652399,25166,-0.03418417647480965,0.032570093870162964,0.04144470766186714,0.06560611724853516,0.02525188773870468,-0.009217034094035625,0,-20,-921,65,26,-9,0,3,14,102967.0
08:03:06.624,AUTO,-35.3632617,149.1652392,25027,-0.004727296996861696,0.0359804593026638,0.038848672062158585,-0.39114925265312195,0.01338864304125309,0.0019380003213882446,3,9,-997,-389,14,2,-22,-11,14,102967.0
08:03:06.827,AUTO,-35.3632622,149.1652387,24989,0.014027472585439682,0.04136136919260025,0.03956378996372223,0.3469586968421936,0.021420039236545563,0.0013940802309662104,2,31,-1035,349,22,1,-31,-7,11,102967.0
08:03:07.028,AUTO,-35.363263,149.1652383,24962,0.03393852338194847,0.04676214978098869,0.04017098248004913,0.6972586512565613,0.025271082296967506,-0.0077819423750042915,6,38,-1026,698,26,-7,-41,-2,7,102967.0
08:03:07.230,AUTO,-35.363264,149.1652379,24940,0.04671047255396843,0.05335903540253639,0.04097316786646843,0.4172493517398834,0.029554693028330803,-0.022884011268615723,8,10,-1007,417,30,-22,-51,3,7,102967.0
08:03:07.432,AUTO,-35.363264,149.1652379,24940,0.04671047255396843,0.05335903540253639,0.04097316786646843,0.4172493517398834,0.029554693028330803,-0.022884011268615723,8,10,-1007,417,30,-22,-51,3,7,102967.0
08:03:07.634,AUTO,-35.3632653,149.1652378,24919,0.038515545427799225,0.05964931473135948,0.04969094321131706,-0.33601438999176025,0.013466293923556805,0.10499943792819977,11,-23,-1006,-335,14,105,-63,10,5,102967.0
08:03:07.836,AUTO,-35.3632669,149.1652378,24903,0.040695685893297195,0.06325416266918182,0.16181376576423645,-0.6236506104469299,-0.0024113510735332966,0.6980448365211487,18,-14,-1012,-622,-1,698,-76,19,5,102967.0
08:03:08.044,AUTO,-35.3632669,149.1652378,24903,0.040695685893297195,0.06325416266918182,0.16181376576423645,-0.6236506104469299,-0.0024113510735332966,0.6980448365211487,18,-14,-1012,-622,-1,698,-76,19,5,102967.0
08:03:08.250,AUTO,-35.3632669,149.1652378,24903,0.040695685893297195,0.06325416266918182,0.16181376576423645,-0.6236506104469299,-0.0024113510735332966,0.6980448365211487,18,-14,-1012,-622,-1,698,-76,19,5,102967.0
08:03:08.453,AUTO,-35.3632736,149.1652389,24860,0.11509653180837631,0.026143280789256096,0.9694381356239319,0.5688806176185608,0.045831311494112015,1.027416706085205,22,-2,-996,569,46,1027,-124,46,5,102967.0
08:03:08.655,AUTO,-35.3632736,149.1652389,24860,0.11509653180837631,0.026143280789256096,0.9694381356239319,0.5688806176185608,0.045831311494112015,1.027416706085205,22,-2,-996,569,46,1027,-124,46,5,102967.0
08:03:08.858,AUTO,-35.3632766,149.1652399,24845,0.1238512173295021,0.00713144289329648,1.216558814048767,-0.1610078662633896,0.02315431274473667,0.9443603754043579,23,-51,-996,-160,24,944,-142,55,5,102967.0
08:03:09.059,AUTO,-35.36328,149.1652411,24828,0.12786036729812622,-0.016946304589509964,1.4513249397277832,-0.4725653827190399,-0.008924946188926697,0.9394819140434265,22,-64,-998,-471,-7,939,-164,64,7,102967.0
08:03:09.261,AUTO,-35.3632839,149.1652425,24807,0.13877950608730316,-0.044981155544519424,1.6819581985473633,0.035595037043094635,-0.0012477494310587645,0.9432411789894104,12,-34,-989,37,0,943,-187,72,8,102967.0
08:03:09.463,AUTO,-35.3632885,149.1652443,24780,0.14893269538879395,-0.08082859218120575,1.9174634218215942,0.5658528208732605,0.009221997112035751,0.9548318386077881,-3,-18,-1009,567,10,955,-215,79,10,102967.0
08:03:09.665,AUTO,-35.3632885,149.1652443,24780,0.14893269538879395,-0.08082859218120575,1.9174634218215942,0.5658528208732605,0.009221997112035751,0.9548318386077881,-3,-18,-1009,567,10,955,-215,79,10,102967.0
08:03:09.867,AUTO,-35.3632937,149.1652462,24752,0.13885276019573212,-0.11383962631225586,2.1527695655822754,0.36855414509773254,0.004664987791329622,0.96148282289505,-17,-51,-1011,369,5,961,-242,87,11,102967.0
08:03:10.069,AUTO,-35.3632937,149.1652462,24752,0.13885276019573212,-0.11383962631225586,2.1527695655822754,0.36855414509773254,0.004664987791329622,0.96148282289505,-17,-51,-1011,369,5,961,-242,87,11,102967.0
08:03:10.271,AUTO,-35.3632937,149.1652462,24752,0.13885276019573212,-0.11383962631225586,2.1527695655822754,0.36855414509773254,0.004664987791329622,0.96148282289505,-17,-51,-1011,369,5,961,-242,87,11,102967.0
08:03:10.474,AUTO,-35.3633125,149.1652534,24656,0.04036436229944229,-0.1827547401189804,2.857537269592285,0.01831144466996193,-0.03149742633104324,0.819820761680603,-64,-34,-996,20,-30,819,-322,106,13,200.0
08:03:10.675,AUTO,-35.3633125,149.1652534,24656,0.04036436229944229,-0.1827547401189804,2.857537269592285,0.01831144466996193,-0.03149742633104324,0.819820761680603,-64,-34,-996,20,-30,819,-322,106,13,200.0
08:03:10.877,AUTO,-35.36332,149.1652564,24619,0.03387542814016342,-0.192112535238266,2.996567487716675,0.4310492277145386,-0.035029444843530655,0.29997915029525757,-83,-25,-1009,432,-34,299,-348,112,14,200.0
08:03:11.079,AUTO,-35.3633281,149.1652595,24579,0.035275887697935104,-0.20078586041927338,3.0226285457611084,0.06180519610643387,-0.04064181447029114,0.03257177770137787,-88,-43,-992,62,-39,32,-373,116,16,200.0
08:03:11.281,AUTO,-35.3633367,149.1652628,24535,0.03761240839958191,-0.21043069660663605,2.9962968826293945,-0.3208771049976349,-0.01073850691318512,-0.13402138650417328,-100,-53,-998,-319,-9,-133,-401,121,18,200.0
08:03:11.483,AUTO,-35.3633459,149.1652663,24486,0.05189712718129158,-0.21715755760669708,2.9601058959960938,0.0946938619017601,-0.012620313093066216,-0.15643428266048431,-95,-36,-997,96,-11,-156,-429,125,20,200.0
08:03:11.685,AUTO,-35.3633559,149.1652699,24433,0.0641520768404007,-0.2189554125070572,2.935453414916992,0.211833193898201,-0.001989139011129737,-0.049228180199861526,-98,-46,-998,212,0,-49,-459,130,21,200.0
08:03:11.887,AUTO,-35.3633559,149.1652699,24433,0.0641520768404007,-0.2189554125070572,2.935453414916992,0.211833193898201,-0.001989139011129737,-0.049228180199861526,-98,-46,-998,212,0,-49,-459,130,21,200.0
08:03:12.089,AUTO,-35.3633559,149.1652699,24433,0.0641520768404007,-0.2189554125070572,2.935453414916992,0.211833193898201,-0.001989139011129737,-0.049228180199861526,-98,-46,-998,212,0,-49,-459,130,21,200.0
08:03:12.291,AUTO,-35.3633559,149.1652699,24433,0.0641520768404007,-0.2189554125070572,2.935453414916992,0.211833193898201,-0.001989139011129737,-0.049228180199861526,-98,-46,-998,212,0,-49,-459,130,21,200.0
08:03:12.494,AUTO,-35.3633899,149.1652816,24263,0.07217489928007126,-0.20688173174858093,2.9241514205932617,0.07711290568113327,0.05147869884967804,0.016355307772755623,-114,-72,-1003,78,52,16,-539,144,20,200.0
08:03:12.695,AUTO,-35.3634023,149.1652857,24212,0.07080519944429398,-0.19765879213809967,2.925555944442749,-0.18065038323402405,0.06922867149114609,0.009241750463843346,-117,-67,-1001,-178,70,9,-561,147,19,200.0
08:03:12.897,AUTO,-35.3634023,149.1652857,24212,0.07080519944429398,-0.19765879213809967,2.925555944442749,-0.18065038323402405,0.06922867149114609,0.009241750463843346,-117,-67,-1001,-178,70,9,-561,147,19,200.0
08:03:13.099,AUTO,-35.3634152,149.1652899,24163,0.06956490129232407,-0.18559563159942627,2.926807403564453,0.09167462587356567,0.042315784841775894,0.0004306899500079453,-157,-57,-1010,93,43,0,-578,149,16,200.0
08:03:13.301,AUTO,-35.3634285,149.1652941,24117,0.0714251697063446,-0.18138487637043,2.927072286605835,0.0417296476662159,0.02467464469373226,0.0018925208132714033,-127,-85,-996,43,25,2,-593,153,17,200.0
08:03:13.503,AUTO,-35.363442,149.1652984,24069,0.06889452040195465,-0.17825768887996674,2.9265801906585693,-0.17036134004592896,0.004318357910960913,0.005263015162199736,-126,-84,-984,-168,5,5,-605,155,18,200.0
08:03:13.705,AUTO,-35.3634558,149.1653027,24019,0.07334708422422409,-0.17364297807216644,2.9254729747772217,0.12703295052051544,0.03513208031654358,-0.016884401440620422,-125,-62,-986,128,36,-16,-617,159,19,200.0
08:03:13.907,AUTO,-35.3634558,149.1653027,24019,0.07334708422422409,-0.17364297807216644,2.9254729747772217,0.12703295052051544,0.03513208031654358,-0.016884401440620422,-125,-62,-986,128,36,-16,-617,159,19,200.0
08:03:14.110,AUTO,-35.3634558,149.1653027,24019,0.07334708422422409,-0.17364297807216644,2.9254729747772217,0.12703295052051544,0.03513208031654358,-0.016884401440620422,-125,-62,-986,128,36,-16,-617,159,19,200.0
08:03:14.313,AUTO,-35.3634558,149.1653027,24019,0.07334708422422409,-0.17364297807216644,2.9254729747772217,0.12703295052051544,0.03513208031654358,-0.016884401440620422,-125,-62,-986,128,36,-16,-617,159,19,200.0
08:03:14.516,AUTO,-35.3634988,149.1653159,23851,0.0717272162437439,-0.15419606864452362,2.9237239360809326,0.17744939029216766,0.056033842265605927,-0.013212442398071289,-138,-69,-996,179,57,-12,-642,167,21,121448.0
08:03:14.718,AUTO,-35.3635135,149.1653204,23792,0.07160849124193192,-0.14961287379264832,2.923292875289917,0.1272684633731842,0.024858327582478523,0.01335577666759491,-140,-74,-983,128,25,13,-646,168,22,121448.0
08:03:14.920,AUTO,-35.3635135,149.1653204,23792,0.07160849124193192,-0.14961287379264832,2.923292875289917,0.1272684633731842,0.024858327582478523,0.01335577666759491,-140,-74,-983,128,25,13,-646,168,22,121448.0
08:03:15.122,AUTO,-35.3635282,149.1653249,23730,0.0604548342525959,-0.14534254372119904,2.9233944416046143,-0.33461862802505493,0.038360122591257095,0.014939420856535435,-135,-89,-988,-333,39,15,-649,169,23,121448.0
08:03:15.326,AUTO,-35.363543,149.1653293,23667,0.06064105033874512,-0.13619063794612885,2.9231114387512207,0.16233788430690765,0.02802698314189911,-0.0331168994307518,-124,-50,-983,164,28,-32,-651,171,22,121448.0
08:03:15.528,AUTO,-35.3635579,149.1653339,23606,0.068427674472332,-0.1335153579711914,2.922192096710205,0.17074976861476898,0.0025234553031623363,0.023620547726750374,-146,-82,-987,171,3,24,-650,174,22,121448.0
08:03:15.730,AUTO,-35.3635727,149.1653385,23542,0.0630800873041153,-0.12621842324733734,2.9196577072143555,-0.36968958377838135,0.06912200152873993,0.014325661584734917,-142,-96,-996,-368,70,14,-649,175,23,121448.0
08:03:15.933,AUTO,-35.3635727,149.1653385,23542,0.0630800873041153,-0.12621842324733734,2.9196577072143555,-0.36968958377838135,0.06912200152873993,0.014325661584734917,-142,-96,-996,-368,70,14,-649,175,23,121448.0
08:03:16.148,AUTO,-35.3635727,149.1653385,23542,0.0630800873041153,-0.12621842324733734,2.9196577072143555,-0.36968958377838135,0.06912200152873993,0.014325661584734917,-142,-96,-996,-368,70,14,-649,175,23,121448.0
08:03:16.350,AUTO,-35.3635727,149.1653385,23542,0.0630800873041153,-0.12621842324733734,2.9196577072143555,-0.36968958377838135,0.06912200152873993,0.014325661584734917,-142,-96,-996,-368,70,14,-649,175,23,121448.0
08:03:16.552,AUTO,-35.3636167,149.1653522,23338,0.06361554563045502,-0.14398986101150513,2.918466091156006,-0.09118872135877609,0.0336555652320385,0.037310123443603516,-144,-104,-998,-90,34,37,-646,177,29,121448.0
08:03:16.754,AUTO,-35.3636314,149.1653569,23262,0.060102760791778564,-0.14155098795890808,2.917365550994873,-0.29246819019317627,0.0002902004634961486,0.009726093150675297,-134,-82,-994,-290,1,10,-649,179,27,121448.0
08:03:16.956,AUTO,-35.3636463,149.1653616,23190,0.06514889746904373,-0.1391175091266632,2.9156014919281006,0.16729609668254852,0.0216370802372694,-0.03337951749563217,-131,-53,-988,169,22,-32,-651,180,26,121448.0
08:03:17.157,AUTO,-35.3636463,149.1653616,23190,0.06514889746904373,-0.1391175091266632,2.9156014919281006,0.16729609668254852,0.0216370802372694,-0.03337951749563217,-131,-53,-988,169,22,-32,-651,180,26,121448.0
08:03:17.359,AUTO,-35.3636612,149.1653664,23120,0.07478410005569458,-0.13804411888122559,2.914217710494995,0.3100981116294861,0.013437870889902115,0.014625419862568378,-144,-69,-990,311,14,15,-652,182,25,121448.0
08:03:17.561,AUTO,-35.363676,149.1653711,23050,0.06439094990491867,-0.14085139334201813,2.914654016494751,-0.34325894713401794,-0.009327922016382217,0.040344323962926865,-131,-85,-988,-342,-8,40,-654,182,26,121448.0
08:03:17.763,AUTO,-35.3636908,149.1653758,22980,0.06048831716179848,-0.13977542519569397,2.9155402183532715,-0.08705079555511475,0.01160258986055851,-0.03187205642461777,-140,-70,-996,-85,12,-31,-656,182,25,121448.0
08:03:17.965,AUTO,-35.3636908,149.1653758,22980,0.06048831716179848,-0.13977542519569397,2.9155402183532715,-0.08705079555511475,0.01160258986055851,-0.03187205642461777,-140,-70,-996,-85,12,-31,-656,182,25,121448.0
08:03:18.167,AUTO,-35.3636908,149.1653758,22980,0.06048831716179848,-0.13977542519569397,2.9155402183532715,-0.08705079555511475,0.01160258986055851,-0.03187205642461777,-140,-70,-996,-85,12,-31,-656,182,25,121448.0
08:03:18.369,AUTO,-35.3636908,149.1653758,22980,0.06048831716179848,-0.13977542519569397,2.9155402183532715,-0.08705079555511475,0.01160258986055851,-0.03187205642461777,-140,-70,-996,-85,12,-31,-656,182,25,121448.0
08:03:18.572,AUTO,-35.3637356,149.1653903,22786,0.0642663836479187,-0.1379694640636444,2.9135427474975586,-0.15517966449260712,-0.0028410523664206266,-0.014067492447793484,-133,-75,-985,-153,-1,-13,-658,184,23,144913.0
08:03:18.773,AUTO,-35.3637505,149.1653953,22725,0.07186377793550491,-0.13685902953147888,2.911379098892212,0.33374038338661194,0.015594587661325932,-0.03140747547149658,-134,-75,-991,335,16,-30,-658,185,23,144913.0
08:03:18.975,AUTO,-35.3637654,149.1654003,22665,0.0755361020565033,-0.12525540590286255,2.9104862213134766,-0.08389521390199661,0.07199014723300934,0.011999341659247875,-144,-86,-1001,-83,73,12,-657,184,21,144913.0
08:03:19.177,AUTO,-35.3637654,149.1654003,22665,0.0755361020565033,-0.12525540590286255,2.9104862213134766,-0.08389521390199661,0.07199014723300934,0.011999341659247875,-144,-86,-1001,-83,73,12,-657,184,21,144913.0
08:03:19.379,AUTO,-35.3637803,149.1654052,22614,0.07126117497682571,-0.10744976997375488,2.9110641479492188,-0.2545633018016815,0.053531523793935776,-0.0035180209670215845,-153,-81,-1005,-253,54,-3,-651,182,18,144913.0
08:03:19.581,AUTO,-35.3637949,149.1654101,22567,0.07968172430992126,-0.09443826228380203,2.9122233390808105,0.42430582642555237,0.06246747449040413,-0.041809044778347015,-142,-66,-1001,426,63,-41,-643,180,17,144913.0
08:03:19.783,AUTO,-35.3638094,149.165415,22520,0.08487755805253983,-0.07934538275003433,2.9131152629852295,0.1904851347208023,0.07124675065279007,0.04530056193470955,-139,-79,-986,191,72,46,-633,175,19,144913.0
08:03:19.986,AUTO,-35.3638094,149.165415,22520,0.08487755805253983,-0.07934538275003433,2.9131152629852295,0.1904851347208023,0.07124675065279007,0.04530056193470955,-139,-79,-986,191,72,46,-633,175,19,144913.0
08:03:20.188,AUTO,-35.3638094,149.165415,22520,0.08487755805253983,-0.07934538275003433,2.9131152629852295,0.1904851347208023,0.07124675065279007,0.04530056193470955,-139,-79,-986,191,72,46,-633,175,19,144913.0
08:03:20.390,AUTO,-35.3638094,149.165415,22520,0.08487755805253983,-0.07934538275003433,2.9131152629852295,0.1904851347208023,0.07124675065279007,0.04530056193470955,-139,-79,-986,191,72,46,-633,175,19,144913.0
08:03:20.592,AUTO,-35.3638509,149.1654288,22365,0.07624897360801697,-0.04253305122256279,2.9132888317108154,0.29567253589630127,0.054929666221141815,-0.05893689766526222,-127,-47,-991,298,56,-58,-588,159,20,144913.0
