time_stamp,roll,pitch,yaw,rollspeed,pitchspeed,yawspeed,xacc,yacc,zacc,xgyro,ygyro,zgyro,lat,lon,relative_alt,vx,vy,vz,RTL_ALT,MODE
19:54:44,-0.0005706815694187147,0.0014517294863859813,0.02822394606967767,0.0002239442643864701,0.00023715228356498605,0.0024620828917250037,0.0,1.0,-1000.0,0.0,0.0,0.0,-35.3632621,149.1652374,0.0,0.0,0.0,0.0,1500.0,STABILIZE
19:54:52,-0.000748438974066327,0.0011456018934647243,0.026007817437251408,0.0002394585171714425,0.00029255600141671795,0.0021293064734588065,0.0,1.5,-1000.0,0.0,0.0,0.0,-35.3632622,149.1652375,0.0,-1.0,1.0,0.0,1500.0,STABILIZE
19:55:02,-0.0005389732774347067,0.0009764968766830861,0.023695673048496246,0.00024693125160411,0.00032617287943139674,0.0017925915075466038,0.0,1.8,-999.0,0.2,0.0,0.4,-35.3632622,149.16523754,0.0,-1.0,2.6,1.0,1500.0,STABILIZE
19:55:03,0.004332931479439139,0.0008250123821198941,0.021971920877695082,0.005408829404041171,0.0002496855333447456,0.0017178435111418367,0.0,-0.4,-1109.0,6.2,0.8,0.6,-35.36326212,149.16523748,378.2,0.0,0.6,-82.0,1500.0,AUTO
19:55:05,0.0323546405415982,0.007218145648948848,-0.020179324550554156,-0.0762135349214077,0.024205262074247003,-0.05374402354937047,2.75,-9.75,-998.25,-75.25,24.5,-54.0,-35.3632614,149.1652411,3256.75,7.25,46.0,-146.25,1500.0,AUTO
19:55:07,-0.05891320916513602,0.0033195691260819635,-0.0955861359834671,0.0026810873920718827,0.0048961623494202895,-0.02756028777609269,-1.0,1.5,-1001.0,3.5,5.333333333333333,-27.666666666666668,-35.36326068333333,149.16524571666665,5948.5,-1.3333333333333333,-19.333333333333332,-149.16666666666666,1500.0,AUTO
19:55:09,0.03971883454748119,0.011476920859422535,-0.11109438290198644,0.04965077588955561,-0.014365362313886484,0.01756066510764261,-2.1666666666666665,10.666666666666666,-1002.0,49.833333333333336,-13.666666666666666,16.833333333333332,-35.36326261666667,149.16523613333334,8892.0,-22.333333333333332,-35.333333333333336,-152.66666666666666,1500.0,AUTO
19:55:11,-0.016202419879846275,-0.02160367990533511,-0.0782057624310255,-0.049596836033742875,0.06425973773002625,-0.07194362829128902,-2.8333333333333335,-7.5,-1003.3333333333334,-48.833333333333336,64.33333333333333,-72.16666666666667,-35.363263,149.16523691666666,11997.5,31.833333333333332,17.666666666666668,-150.33333333333334,1500.0,AUTO
19:55:13,0.012995962907249728,0.02540287934243679,-0.1788169046243032,0.01807790350479384,-0.01042092241308031,-0.000735618562127153,-1.6666666666666667,2.1666666666666665,-999.3333333333334,18.666666666666668,-9.5,-1.3333333333333333,-35.36325946666667,149.16523558333333,15133.5,-6.833333333333333,-8.833333333333334,-154.0,1500.0,AUTO
19:55:15,0.0012220920276983331,-0.0025754085703132055,-0.17569183061520258,-0.006215027814808612,-0.0048947129301571595,-0.015509516757447273,2.8333333333333335,0.16666666666666666,-1000.3333333333334,-5.166666666666667,-4.0,-15.5,-35.36326163333333,149.16523594999998,18261.333333333332,-11.666666666666666,8.833333333333334,-153.5,1500.0,AUTO
19:55:17,0.0023335077700418574,0.0006277761713135988,-0.22625754525264105,0.003106481434466938,0.003950311957548062,-0.025971056893467903,0.0,0.0,-999.8333333333334,3.3333333333333335,4.166666666666667,-25.666666666666668,-35.363262250000005,149.1652365333333,21390.166666666668,-0.5,0.6666666666666666,-154.0,1500.0,AUTO
19:55:19,0.001084867127550145,0.003843380603939295,-0.2685017188390096,-0.01956314408259156,0.0018849743355531245,-0.011194423539564013,0.0,-0.5,-997.0,-18.5,2.6666666666666665,-11.333333333333334,-35.3632622,149.16523654999997,24521.166666666668,-0.6666666666666666,2.5,-153.66666666666666,1500.0,AUTO
19:55:21,0.0094823461646835,0.0029128536116331816,-0.2461801071961721,-0.0009273786660439024,-0.0020505463083585105,0.023939694898823898,0.16666666666666666,0.0,-999.6666666666666,0.0,-1.1666666666666667,23.333333333333332,-35.36326233333333,149.1652366333333,27639.833333333332,-3.0,4.833333333333333,-153.83333333333334,1500.0,AUTO
19:55:28,0.0004322334236348979,0.0010324658476747572,-0.18067980110645293,0.0014449379174038767,0.0006313586374744773,0.013980958424508572,0.0,0.0,-999.8,1.8,1.2,13.2,-35.36326236000001,149.16523813999999,33052.0,0.0,0.8,-154.0,1500.0,AUTO
19:55:30,0.0016636460204608738,0.0012264106189832091,-0.155141681432724,0.0002010481257457286,-0.0006255139887798578,0.011325596831738949,0.0,0.0,-1000.0,0.5,0.0,10.5,-35.3632622,149.165238,36283.5,0.0,0.0,-154.0,1500.0,AUTO
19:55:32,0.002914787153713405,0.0015152781852521002,-0.1371021643280983,0.000534134334884584,0.00037050351966172457,0.009982977993786335,0.0,0.0,-999.5,2.0,0.5,9.5,-35.3632621,149.16523765,39326.5,0.0,0.0,-154.0,1500.0,AUTO
19:55:34,0.002288365464967986,0.00156790737916405,-0.12597910687327385,-0.0003196893958374858,0.00017249161222328743,0.007842277797559897,0.0,0.0,-1000.0,0.6666666666666666,0.8333333333333334,7.166666666666667,-35.36326209999999,149.16523751666668,41663.166666666664,-0.16666666666666666,0.3333333333333333,-153.0,1500.0,AUTO
19:55:36,0.0021979164254541197,0.0013705789460800588,-0.1133002092440923,0.0010604657970058422,0.00031377569151421386,0.007130582816898823,0.0,0.0,-1000.0,1.8333333333333333,1.1666666666666667,6.833333333333333,-35.363262,149.16523743333335,44780.0,-1.0,1.0,-153.0,1500.0,AUTO
19:55:38,-0.033677917905151844,0.03201547593344003,0.09151690118014813,-0.022733500599861144,-0.027723103016614913,0.30574606359004974,1.8,3.6,-957.4,-21.6,-27.0,305.4,-35.36326246,149.16523676,47771.6,-17.2,-17.0,-130.8,1500.0,AUTO
19:55:40,0.031223807483911514,-0.012959462745736042,0.24627958238124847,0.1795802116394043,0.03971646850307783,-0.034878600388765335,-2.75,-2.0,-979.5,99.25,41.0,-34.25,-35.36326373333333,149.16523363333334,49751.666666666664,19.666666666666668,26.333333333333332,-42.333333333333336,1500.0,AUTO
19:55:42,-0.007173127805193265,0.019226045347750187,0.19864636907974878,-0.07327820857365926,-0.016868032825489838,-0.017687964253127575,-0.5,-1.6666666666666667,-968.5,-71.33333333333333,-15.666666666666666,-16.833333333333332,-35.36326123333333,149.1652374833333,50137.833333333336,5.666666666666667,18.666666666666668,-3.5,1500.0,AUTO
19:55:44,-0.019216175377368926,-0.043591608107089994,0.15849400460720062,-0.15280374512076378,-0.0361216202378273,-0.053758779913187026,-7.6,6.4,-1008.6,-150.8,-34.6,-53.0,-35.36326058,149.16523496,49971.0,17.4,-18.4,0.6,1500.0,AUTO
19:55:46,0.016234360945721466,-0.13037902116775513,-0.5655880371729533,-0.05152775843938192,-0.009834455947081247,0.06377256351212661,-37.25,-24.0,-1003.0,-138.75,-23.5,66.25,-35.363244099999996,149.1652166,49947.0,151.66666666666666,-108.33333333333333,-1.6666666666666667,1500.0,AUTO
19:55:48,0.011525638440313438,-0.16206139077742895,-0.5584733386834463,-0.026543766881028812,-0.02116866906483968,-0.011985536276673278,-67.33333333333333,-33.166666666666664,-1001.5,-23.833333333333332,-20.333333333333332,-11.0,-35.36321346666667,149.16518801666666,49942.5,255.33333333333334,-202.0,0.3333333333333333,1500.0,AUTO
19:55:50,0.03503234529246887,-0.19422607744733492,-0.5794531007607778,-0.03072788566350937,-0.11950332547227542,-0.014105005034555992,-94.83333333333333,-45.666666666666664,-984.1666666666666,-28.166666666666668,-118.16666666666667,-13.333333333333334,-35.363157816666664,149.16513329999998,49956.5,356.8333333333333,-295.3333333333333,5.333333333333333,1500.0,AUTO
19:55:52,0.07482425620158513,-0.005889873951673508,-0.5916930635770162,0.27772712785129744,0.08213887425760429,-0.013439342030324042,-102.66666666666667,-45.166666666666664,-977.3333333333334,278.6666666666667,82.83333333333333,-12.333333333333334,-35.36308493333333,149.16506065000002,50072.166666666664,395.0,-323.1666666666667,-15.666666666666666,1500.0,AUTO
19:55:54,0.026408810013284285,-0.10725696012377739,-0.6034836967786154,-0.22488664587338766,-0.1234091257986923,0.005254837684333324,-70.66666666666667,-53.0,-1005.8333333333334,-224.66666666666666,-122.16666666666667,6.0,-35.36302776666667,149.1650056,49984.666666666664,269.6666666666667,-213.33333333333334,10.666666666666666,1500.0,AUTO
19:55:56,0.02308027834321062,-0.13499900419265032,-0.6133527457714081,0.07867744565010071,-0.20578578859567642,-0.02498561702668667,-78.83333333333333,-30.0,-987.1666666666666,82.0,-204.5,-23.833333333333332,-35.36297665,149.1649565333333,49955.666666666664,277.5,-237.5,2.3333333333333335,1500.0,AUTO
19:56:02,0.041209470480680466,-0.2671392560005188,-0.6269299387931824,0.021796535700559616,0.35881325602531433,0.0050484249368309975,-121.0,-54.0,-1075.0,23.0,359.0,6.0,-35.3628983,149.1648768,49874.0,407.0,-343.0,18.0,1500.0,AUTO
19:56:06,0.10012674331665039,0.07831046544015408,-0.6334675550460815,0.8005489408969879,0.1282301601022482,-0.012094523757696152,-102.0,-42.5,-981.5,798.0,129.0,-10.5,-35.36274935,149.16472655,50183.5,392.5,-302.5,-4.5,1500.0,AUTO
19:56:08,0.037609342485666275,-0.20435906201601028,-0.6422295570373535,0.07665859907865524,-0.08883627597242594,-0.0005340841598808765,-77.5,-47.0,-1007.5,76.0,-88.0,1.0,-35.3626938,149.16467325,49932.5,289.0,-218.5,13.5,1500.0,AUTO
19:56:10,0.047829944640398026,-0.23653006553649902,-0.6518438458442688,0.22750045359134674,0.013899160549044609,-0.013989013619720936,-80.0,-30.0,-1012.0,230.0,14.0,-13.0,-35.3626402,149.1646193,49935.0,313.0,-244.0,13.0,1500.0,AUTO
19:56:12,0.058828894048929214,-0.06416794657707214,-0.6551710367202759,-0.43896374106407166,0.1753942221403122,0.00037370319478213787,-84.0,-66.0,-1016.0,-439.0,176.0,1.0,-35.3625836,149.1645616,49993.0,329.0,-248.0,-3.0,1500.0,AUTO
19:56:14,0.04584395761291186,0.11131960650285085,-0.6496928731600443,-0.6070653597513834,-0.09561542918284734,0.024551518571873505,-36.666666666666664,-68.0,-994.0,-609.0,-94.66666666666667,24.666666666666668,-35.3625442,149.16452283333334,50053.333333333336,162.66666666666666,-104.0,3.3333333333333335,1500.0,AUTO
19:56:16,0.01381450123153627,0.026661954674636945,-0.6557661990324656,0.16899549774825573,0.03729692993996044,-0.00048129163527240354,-19.0,-5.833333333333333,-1003.5,171.83333333333334,37.833333333333336,0.5,-35.36252835,149.16450956666668,49985.833333333336,84.33333333333333,-49.666666666666664,0.5,1500.0,AUTO
19:56:18,-0.0042198795708827674,0.01457096403464675,-0.6595696061849594,-0.35351237282156944,-0.029962245374917984,-0.0005465861322591081,0.0,-11.6,-998.8,-148.0,-27.8,0.0,-35.36252155,149.16450402499999,49999.75,2.75,-1.0,0.0,1500.0,AUTO
19:56:22,0.00037915585562586784,0.02720990777015686,-0.6646191477775574,-0.41248074794809025,0.02410357336824139,-0.0028295081768495343,-0.3333333333333333,-19.333333333333332,-1002.6666666666666,-412.0,24.0,-1.6666666666666667,-35.36251933333333,149.16450313333334,50014.333333333336,-5.666666666666667,0.0,0.3333333333333333,1500.0,RTL
19:56:24,-0.0009684909891802818,0.07081790268421173,-0.6657196283340454,-0.4558035880327225,0.034323448315262794,0.008210307685658336,17.0,1.5,-999.5,-451.0,34.5,9.0,-35.3625265,149.16450815,50008.0,-63.0,63.5,0.0,1500.0,RTL
19:56:26,-0.02491653524339199,0.1556946337223053,-0.6677097082138062,0.3860904574394226,0.014487465610727668,0.0005704779177904129,53.5,48.0,-1007.5,389.0,15.0,1.5,-35.3625488,149.1645314,49982.5,-185.0,170.0,2.0,1500.0,RTL
19:56:28,-0.0639207735657692,0.13824864476919174,-0.6683934032917023,0.13774413987994194,-0.07006311416625977,0.01584433624520898,89.0,56.5,-1013.5,141.5,-69.5,16.5,-35.36259695,149.1645819,49951.0,-342.5,281.0,-3.5,1500.0,RTL
19:56:30,-0.0734524354338646,0.2122514545917511,-0.6689115762710571,-0.2790445387363434,0.3131791353225708,-0.00364970276132226,105.0,41.0,-924.0,-277.0,313.0,-2.0,-35.3626726,149.1646576,50039.0,-430.0,331.0,12.0,1500.0,RTL
19:56:32,-0.08989515304565429,-0.011527700576698408,-0.6554148316383361,0.036793294548988345,-0.1283976599574089,0.012548887357115745,118.6,76.6,-980.0,41.0,-127.6,13.8,-35.36274272,149.16472664,50092.4,-458.4,355.6,-24.4,1500.0,RTL
19:56:37,-0.04668573662638664,0.0014671441167593002,-0.6552708983421326,0.2770556926727295,0.12674620372708886,0.020716947317123414,67.6,70.2,-1002.8,282.0,127.0,21.4,-35.36280172,149.16478238,50074.8,-282.8,211.0,12.6,1500.0,RTL
19:56:39,-0.035580167546868324,0.05093019804917276,-0.6597350935141245,0.17034834995865822,-0.047481562942266464,0.04638086156531548,74.66666666666667,62.0,-1012.8333333333334,174.33333333333334,-46.833333333333336,47.333333333333336,-35.36284826666667,149.16482598333334,49943.5,-289.5,241.66666666666666,-7.0,1500.0,RTL
19:56:44,-0.08226899305979411,0.08663256963094075,-0.6588867704073588,0.0364251093318065,0.0274958989272515,0.0013720233691856265,106.0,56.666666666666664,-949.0,38.666666666666664,28.333333333333332,2.6666666666666665,-35.362999433333336,149.16497983333332,50065.333333333336,-427.6666666666667,337.0,-8.666666666666666,1500.0,RTL
19:56:46,-0.04452485857265336,-0.025560997958694185,-0.6490644897733416,0.4501325232642038,0.15441088458257063,-0.024215163396937505,66.42857142857143,50.0,-998.1428571428571,449.42857142857144,154.42857142857142,-22.857142857142858,-35.363057514285714,149.1650360857143,50088.71428571428,-266.2857142857143,196.0,9.142857142857142,1500.0,RTL
19:56:48,-0.06450449985762437,0.08099616101632516,-0.6554278830687205,-0.1803413750603795,-0.05379026631514231,-0.006550273858010769,79.0,35.0,-1000.1666666666666,-178.83333333333334,-52.833333333333336,-4.833333333333333,-35.36310863333333,149.1650874,49957.166666666664,-298.6666666666667,229.33333333333334,-6.0,1500.0,RTL
19:56:50,-0.06973415426909924,0.09222397347912192,-0.6568551510572433,0.14187477249652147,-0.08638958632946014,0.020136708160862327,87.75,63.25,-1011.75,144.0,-85.75,21.5,-35.363157275000006,149.165137375,49959.5,-365.75,270.5,-8.0,1500.0,RTL
19:56:51,-0.06802259162068366,-0.06054641641676426,-0.647062611579895,-0.18555082585662602,-0.18030890673398972,0.0010424049571156502,78.6,46.4,-999.4,-183.8,-179.0,2.6,-35.36321106,149.16518960000002,50069.0,-315.6,228.8,-6.0,1500.0,RTL
19:56:53,-0.014952402717123428,-0.022335097659379244,-0.643473893404007,-0.2795603275299072,0.11824086975927155,-0.0029550823383033276,25.833333333333332,15.833333333333334,-1007.8333333333334,-276.8333333333333,118.83333333333333,-1.3333333333333333,-35.36324435,149.16521871666666,50022.5,-120.33333333333333,78.33333333333333,7.0,1500.0,RTL
19:56:55,-0.007585538745236893,-0.05731296989445885,-0.6446357866128286,-0.11447788681834936,-0.04675049070889751,0.005848858292059352,17.666666666666668,6.833333333333333,-1000.8333333333334,-112.66666666666667,-45.833333333333336,7.0,-35.3632625,149.16523463333334,49981.166666666664,-60.666666666666664,60.833333333333336,-2.1666666666666665,1500.0,RTL
19:56:58,0.0008754124282859266,0.016391326673328876,-0.644984096288681,0.32015296816825867,0.0030601145699620247,0.003314005967695266,0.6666666666666666,6.666666666666667,-1013.3333333333334,466.6666666666667,15.333333333333334,4.333333333333333,-35.3632648,149.1652394333333,49988.333333333336,6.0,-0.6666666666666666,-0.6666666666666666,1500.0,RTL
19:57:00,-0.006003642512951046,-0.008057923832287392,-0.6451680858929952,-0.0055732329686482745,-0.0017766599485184997,0.0011749926197808236,-0.5714285714285714,-0.2857142857142857,-1003.5714285714286,80.42857142857143,-3.142857142857143,3.2857142857142856,-35.36326391666667,149.16524031666665,49989.166666666664,-2.0,-7.833333333333333,-0.5,1500.0,RTL
19:57:02,0.0005019851572190722,-0.002722445196316888,-0.6448947985967001,0.05031954497098923,0.0025658707212035856,0.00040641200030222535,-1.3333333333333333,2.8333333333333335,-1005.3333333333334,51.666666666666664,3.1666666666666665,1.8333333333333333,-35.363263249999996,149.16523913333336,49993.833333333336,0.8333333333333334,-9.833333333333334,-0.3333333333333333,1500.0,RTL
19:57:04,-0.003006305906455964,0.0001507046021288261,-0.6452613592147827,-0.3743065595626831,0.00146725345402956,-0.002368890796788037,0.0,-27.2,-930.2,-376.6,1.6,-0.6,-35.363262660000004,149.16523823999998,49870.4,0.2,-4.4,32.2,1500.0,RTL
19:57:05,-0.017844033194705844,-4.9587306421017274e-06,-0.6453631371259689,0.2244134470820427,-0.0005062389827799052,0.010235810652375221,0.25,50.25,-956.0,235.75,0.0,12.0,-35.363262074999994,149.16523832500002,48499.25,-1.0,-2.5,113.75,1500.0,RTL
19:57:07,-0.019037532154470682,-0.00228944433426174,-0.6448629101117452,0.25632372746864956,0.00010288142948411405,0.004251529967101912,0.0,47.333333333333336,-999.3333333333334,266.8333333333333,0.8333333333333334,6.0,-35.36326173333334,149.16523878333334,46496.333333333336,-4.0,-6.166666666666667,99.66666666666667,1500.0,RTL
19:57:13,-0.00034216628409922123,-0.004267513286322355,-0.6461665630340576,-1.423973798751831,0.015827197581529617,-0.011410827748477459,0.0,-68.0,-1012.0,-1427.0,16.0,-9.0,-35.3632628,149.1652371,43808.0,2.0,0.0,99.0,1500.0,RTL
19:57:15,0.02092234029745062,-0.004320910084061325,-0.6448063850402832,-0.04124111930529276,0.002061038617587959,-0.0002174723194912076,0.5,-36.166666666666664,-992.8333333333334,-48.333333333333336,2.6666666666666665,1.6666666666666667,-35.36326316666667,149.1652366,42405.666666666664,6.833333333333333,4.166666666666667,99.5,1500.0,RTL
19:57:18,-0.02085456467466429,-0.0008294448732613091,-0.6456772461533546,0.08881056867539883,0.005088500649435446,-0.0011670885724015534,0.75,29.75,-994.25,97.125,5.375,0.625,-35.3632620875,149.16523825,39863.375,2.875,-1.125,99.375,1500.0,RTL
19:57:20,-0.024774431064724923,0.0015568714065011592,-0.6445676326751709,-0.19214167594909667,-0.0015375891700387001,-0.003304416430182755,2.2,-49.2,-977.0,-201.0,-0.6,-1.2,-35.36326046,149.1652406,37556.4,-11.8,-19.4,101.8,1500.0,RTL
19:57:22,-0.03586734724896295,-0.004146489015381251,-0.6448509182248797,-1.0419306457042694,-0.002422583555536611,0.003127983172557184,-2.2857142857142856,-18.571428571428573,-1010.4285714285714,-1038.0,-1.8571428571428572,5.0,-35.3632603,149.16524090000001,35351.57142857143,-21.428571428571427,-28.142857142857142,101.0,1500.0,RTL
19:57:24,-0.016715818860878546,-0.003538839208583037,-0.6443727612495422,-0.6687837882588307,0.002641260012751445,-0.004128515565147002,-1.5,2.5,-1004.5,-663.8333333333334,3.0,-2.0,-35.36326151666666,149.16523891666668,33215.0,-10.833333333333334,-16.166666666666668,98.83333333333333,1500.0,RTL
19:57:26,-0.026124486699700356,-0.0012033438579237554,-0.6447586417198181,-1.281500443816185,-0.00017344055231660604,0.00352536523132585,-0.5,-32.75,-1021.25,-1280.25,0.5,5.25,-35.363261625,149.165238325,31323.75,-6.0,-8.25,95.75,1500.0,RTL
19:57:27,0.0017305496148765087,-0.002898598148021847,-0.6451220214366913,-1.157724142074585,0.002211660786997527,-0.006391946226358414,-1.75,-72.25,-985.75,-1164.25,2.75,-3.5,-35.363262175,149.165237425,29678.25,-4.0,-3.75,97.0,1500.0,RTL
19:57:29,0.030379368364810942,-0.0035367033910006286,-0.6451676607131958,0.35636352077126504,-0.0024458421394228935,-0.0010207998333498836,-1.8,-26.6,-985.4,346.8,-1.2,1.2,-35.36326292,149.16523622,28002.2,2.0,5.0,96.4,1500.0,RTL
19:57:31,-0.005832311076422532,0.0010564462209003977,-0.6440578997135162,-1.0159119963645935,0.002828293746764151,-0.0022793307240741947,1.0,-19.0,-993.5,-1010.8333333333334,3.3333333333333335,0.0,-35.36326331666667,149.16523546666667,26040.833333333332,11.833333333333334,16.166666666666668,95.33333333333333,1500.0,RTL
19:57:33,-0.003830819041468203,-0.00023854622365130732,-0.6449066996574402,-0.8312996874252955,-0.00011861691018566489,-0.00676075085842361,1.0,-69.5,-991.3333333333334,-839.3333333333334,0.5,-4.0,-35.36326245,149.1652369666667,24008.166666666668,4.166666666666667,7.833333333333333,97.66666666666667,1500.0,RTL
19:57:37,0.019853302704480786,-0.0003902902002058302,-0.6445542573928833,1.2538862725098927,0.008518856251612306,0.004244766741370161,0.5,70.5,-1019.8333333333334,1259.8333333333333,8.833333333333334,6.0,-35.36326304999999,149.16523628333331,19946.5,8.5,10.333333333333334,97.66666666666667,1500.0,RTL
19:57:39,-0.02880970264474551,0.0007002306714033087,-0.6436249911785126,-0.8991102805982033,-0.005275574541883543,0.0048723647293324275,0.3333333333333333,-10.0,-991.3333333333334,-893.0,-4.333333333333333,7.166666666666667,-35.36326188333334,149.16523786666667,17904.333333333332,1.1666666666666667,2.8333333333333335,97.66666666666667,1500.0,RTL
19:57:41,-0.007437795680016279,-0.002599762286990881,-0.6448622584342957,-0.2611802667379379,0.0027601036941632628,0.0027210695203393697,-1.6,29.8,-988.8,-251.8,3.0,4.4,-35.36326224,149.16523740000002,15905.2,-0.6,1.4,98.8,1500.0,RTL
19:57:43,0.03341721401860317,-0.0015784466910796862,-0.6443415383497874,1.0919016301631927,-0.0007023273889596263,0.00047090511846666533,-0.3333333333333333,28.833333333333332,-995.0,1089.1666666666667,-0.16666666666666666,2.6666666666666665,-35.36326283333333,149.16523628333334,13939.333333333334,4.333333333333333,8.333333333333334,101.33333333333333,1500.0,RTL
19:57:49,0.014482915867120028,-0.0038752573309466243,-0.6456199169158936,0.3839280469343066,-0.0028515583253465593,-0.0014535509981215,-3.0,54.2,-1029.4,393.2,-1.8,1.2,-35.3632634,149.16523539999997,11558.4,10.6,17.8,92.4,1500.0,RTL
19:57:57,0.008243111755291466,0.0015337390650529414,-0.6437512338161469,0.643787931650877,0.00029538682429119945,0.0007173525227699429,1.5,32.5,-1012.75,648.75,1.0,2.75,-35.363262425,149.16523665,8557.5,7.0,14.0,34.25,1500.0,RTL
19:57:59,0.00635373848490417,0.0005195855046622455,-0.6432998180389404,0.5655229389667511,0.0012477897689677775,0.0015957957366481423,0.5,27.5,-1003.0,570.5,2.0,3.5,-35.36326205,149.1652374,8258.0,0.5,5.0,-6.5,1500.0,RTL
19:58:03,-0.011353708745446056,0.004143767291679978,-0.6437002718448639,-0.1111784428358078,-0.0018874014882991712,-0.00023364487181728086,1.3333333333333333,-11.0,-998.5,-108.5,-0.5,2.1666666666666665,-35.36326139999999,149.16523803333334,8184.0,-3.6666666666666665,0.0,0.5,1500.0,RTL
19:58:05,-0.0015601442428305745,-0.0002178392169298604,-0.6441031694412231,0.7037468552589417,0.0003603850491344929,-0.0017269403906539083,0.0,16.0,-1015.0,706.0,1.0,0.0,-35.3632609,149.1652392,8205.0,-13.0,-10.0,1.0,1500.0,RTL
19:58:09,0.01699828726123087,-0.0013073440253113706,-0.644118458032608,0.23111996427178383,-0.00011795774723092715,-0.00251887459307909,-0.5,-1.1666666666666667,-973.6666666666666,231.33333333333334,1.1666666666666667,-0.16666666666666666,-35.36326221666666,149.16523718333335,8069.166666666667,-3.6666666666666665,-1.5,25.5,1500.0,RTL
19:58:11,-0.0061626827421908574,0.0018549554030566167,-0.6440934042135874,-0.1911146230995655,0.0027923762487868467,0.0037753758563970528,1.3333333333333333,3.0,-1008.6666666666666,-184.5,3.8333333333333335,5.833333333333333,-35.363262399999996,149.16523681666663,7325.333333333333,2.6666666666666665,6.166666666666667,35.833333333333336,1500.0,RTL
19:58:13,-0.021405486656086787,0.00028384249890223145,-0.6441005212920052,-0.6718536530222211,-0.005324906852495458,0.0007306730674047555,0.14285714285714285,-27.428571428571427,-1002.1428571428571,-670.4285714285714,-3.5714285714285716,3.0,-35.36326125714286,149.16523862857144,6544.0,-7.142857142857143,-5.285714285714286,32.714285714285715,1500.0,RTL
19:58:15,-0.019207773730158806,-0.002656945725902915,-0.644190102815628,-0.7506009675562382,-0.0008087712922133505,7.16935028322041e-05,-0.5,-21.25,-993.75,-746.0,0.5,2.5,-35.363261525,149.16523875000001,5887.75,-7.0,-8.0,32.0,1500.0,RTL
19:58:19,0.018611328303813936,-0.003571496158838272,-0.6448151469230652,0.7642549693584442,0.002604244719259441,0.0007283311104401946,-1.6666666666666667,41.833333333333336,-1015.5,619.3333333333334,3.0,3.0,-35.36326282,149.16523674,4550.8,3.0,3.6,30.4,1500.0,RTL
19:58:25,0.027281925082206726,-0.0005278247990645468,-0.6436205506324768,0.9044517874717712,0.004039558116346598,-0.00450472254306078,1.0,47.0,-989.0,911.0,5.0,-1.0,-35.3632638,149.165235,3618.0,16.0,19.0,30.0,1500.0,RTL
19:58:27,-0.007222283151349984,0.0018902361625805497,-0.6438706964254379,-0.7966445982456207,0.0015486705815419555,-0.0007484435045626014,0.75,-24.25,-1006.0,-791.75,2.5,1.5,-35.363263225,149.165235725,3254.25,14.25,18.0,30.5,1500.0,RTL
19:58:28,0.013768400787375868,-0.0006501609925180674,-0.6437480688095093,0.8618983387947082,0.0002576754428446293,0.0027168264146894216,0.2,36.0,-996.2,865.8,1.6,5.2,-35.363262639999995,149.16523666,2709.8,6.2,10.6,32.6,1500.0,RTL
19:58:36,0.018270849871138733,-0.000940617896655264,-0.6436711947123209,0.3243411241952951,0.0012592968414537609,-0.00036874735572685796,0.0,8.714285714285714,-1001.7142857142857,419.57142857142856,2.5714285714285716,2.4285714285714284,-35.3632629,149.16523631666666,164.16666666666666,8.0,12.666666666666666,17.0,1500.0,RTL
19:58:38,0.004318137900554575,0.00268705804774072,-0.6436978653073311,-0.0009566852240823209,0.002082197490381077,0.0006606705137528479,0.0,0.125,-1000.0,3.0,3.0,3.0,-35.36326295,149.165236225,100.625,3.625,11.5,0.0,1500.0,RTL
19:58:40,-0.0015892452327534556,0.0047904856503009794,-0.6425588130950928,-0.0011826875153928996,0.0019234133651480079,0.0006244115997105837,0.0,0.0,-1000.0,3.0,3.0,3.2,-35.36326342,149.16523592,58.4,-5.0,6.0,0.0,1500.0,RTL
19:58:43,-0.004778918519150466,0.0050678999396041036,-0.6401518061757088,-0.001100512221455574,0.0018406267772661522,0.000752898573409766,0.0,0.0,-1000.0,3.125,3.125,3.0,-35.3632639125,149.165235425,19.625,-10.75,0.5,0.0,1500.0,RTL
