time_stamp,MODE,lat,lon,relative_alt,roll,pitch,yaw,rollspeed,pitchspeed,yawspeed,xacc,yacc,zacc,xgyro,ygyro,zgyro,vx,vy,vz,LAND_SPEED_HIGH,WPNAV_SPEED_DN,RTL_ALT
13:50:07.954,GUIDED,-35.3632621,149.1652374,0,-0.00021477669361047447,0.0014069294556975365,0.027213767170906067,0.02501326985657215,0.00022976001491770148,0.0023316123988479376,0,70,-896,25,1,0,0,2,4,0.0,150.0,1500.0
13:50:08.161,GUIDED,-35.3632621,149.1652375,0,-0.0002845012058969587,0.0015733743784949183,0.02653394639492035,0.00013818393927067518,0.0003531328693497926,0.002075060736387968,0,1,-1000,0,0,0,-1,2,3,0.0,150.0,1500.0
13:50:08.364,GUIDED,-35.3632621,149.1652375,0,-0.0004855510196648538,0.001588850631378591,0.02607722207903862,0.00023580962442792952,0.0002858250227291137,0.002320796251296997,0,1,-1000,0,0,0,-1,2,2,0.0,150.0,1500.0
13:50:08.568,GUIDED,-35.3632621,149.1652375,0,-0.000656950636766851,0.001523936865851283,0.025806915014982224,0.0003144399670418352,0.00032391134300269186,0.0021292571909725666,0,1,-1000,0,0,0,-2,1,1,0.0,150.0,1500.0
13:50:08.774,GUIDED,-35.3632621,149.1652375,0,-0.000656950636766851,0.001523936865851283,0.025806915014982224,0.0003144399670418352,0.00032391134300269186,0.0021292571909725666,0,1,-1000,0,0,0,-2,1,1,0.0,150.0,1500.0
13:50:08.980,GUIDED,-35.3632621,149.1652375,0,-0.000656950636766851,0.001523936865851283,0.025806915014982224,0.0003144399670418352,0.00032391134300269186,0.0021292571909725666,0,1,-1000,0,0,0,-2,1,1,0.0,150.0,1500.0
13:50:09.183,GUIDED,-35.3632621,149.1652375,0,-0.000656950636766851,0.001523936865851283,0.025806915014982224,0.0003144399670418352,0.00032391134300269186,0.0021292571909725666,0,1,-1000,0,0,0,-2,1,1,0.0,150.0,1500.0
13:50:09.390,GUIDED,-35.3632621,149.1652375,0,-0.000656950636766851,0.001523936865851283,0.025806915014982224,0.0003144399670418352,0.00032391134300269186,0.0021292571909725666,0,1,-1000,0,0,0,-2,1,1,0.0,150.0,1500.0
13:50:09.592,GUIDED,-35.3632621,149.1652375,0,-0.000656950636766851,0.001523936865851283,0.025806915014982224,0.0003144399670418352,0.00032391134300269186,0.0021292571909725666,0,1,-1000,0,0,0,-2,1,1,0.0,150.0,1500.0
13:50:09.796,GUIDED,-35.3632621,149.1652375,0,-0.000656950636766851,0.001523936865851283,0.025806915014982224,0.0003144399670418352,0.00032391134300269186,0.0021292571909725666,0,1,-1000,0,0,0,-2,1,1,0.0,150.0,1500.0
13:50:10.002,GUIDED,-35.3632621,149.1652375,0,-0.000656950636766851,0.001523936865851283,0.025806915014982224,0.0003144399670418352,0.00032391134300269186,0.0021292571909725666,0,1,-1000,0,0,0,-2,1,1,0.0,150.0,1500.0
13:50:10.205,GUIDED,-35.3632621,149.1652375,0,-0.000656950636766851,0.001523936865851283,0.025806915014982224,0.0003144399670418352,0.00032391134300269186,0.0021292571909725666,0,1,-1000,0,0,0,-2,1,1,0.0,150.0,1500.0
13:50:10.408,GUIDED,-35.3632621,149.1652375,0,-0.000656950636766851,0.001523936865851283,0.025806915014982224,0.0003144399670418352,0.00032391134300269186,0.0021292571909725666,0,1,-1000,0,0,0,-2,1,1,0.0,150.0,1500.0
13:50:10.614,GUIDED,-35.3632621,149.1652375,0,-0.000656950636766851,0.001523936865851283,0.025806915014982224,0.0003144399670418352,0.00032391134300269186,0.0021292571909725666,0,1,-1000,0,0,0,-2,1,1,0.0,150.0,1500.0
13:50:10.817,GUIDED,-35.3632621,149.1652375,0,-0.000656950636766851,0.001523936865851283,0.025806915014982224,0.0003144399670418352,0.00032391134300269186,0.0021292571909725666,0,1,-1000,0,0,0,-2,1,1,0.0,150.0,1500.0
13:50:11.021,GUIDED,-35.3632622,149.1652375,6,-0.0009171814890578389,0.001368461991660297,0.02541990391910076,0.00019373555551283062,0.0001876344031188637,0.0021115117706358433,0,2,-1000,0,0,0,-1,1,1,0.0,150.0,1500.0
13:50:11.223,GUIDED,-35.3632622,149.1652375,2,-0.0009008685010485351,0.0013128049904480577,0.0249785203486681,0.00031300861155614257,0.00025370679213665426,0.0020411540754139423,0,1,-1000,0,0,0,0,1,2,0.0,150.0,1500.0
13:50:11.427,GUIDED,-35.3632622,149.1652375,0,-0.0009008685010485351,0.0013128049904480577,0.0249785203486681,0.00031300861155614257,0.00025370679213665426,0.0020411540754139423,0,1,-1000,0,0,1,0,0,2,0.0,150.0,1500.0
13:50:11.631,GUIDED,-35.3632622,149.1652375,0,-0.0009008685010485351,0.0013128049904480577,0.0249785203486681,0.00031300861155614257,0.00025370679213665426,0.0020411540754139423,0,1,-1000,0,0,1,0,0,2,0.0,150.0,1500.0
13:50:11.835,GUIDED,-35.3632622,149.1652375,0,-0.0009008685010485351,0.0013128049904480577,0.0249785203486681,0.00031300861155614257,0.00025370679213665426,0.0020411540754139423,0,1,-1000,0,0,1,0,0,2,0.0,150.0,1500.0
13:50:12.037,GUIDED,-35.3632622,149.1652375,0,-0.0009008685010485351,0.0013128049904480577,0.0249785203486681,0.00031300861155614257,0.00025370679213665426,0.0020411540754139423,0,1,-1000,0,0,1,0,0,2,0.0,150.0,1500.0
13:50:12.245,GUIDED,-35.3632622,149.1652375,0,-0.0009008685010485351,0.0013128049904480577,0.0249785203486681,0.00031300861155614257,0.00025370679213665426,0.0020411540754139423,0,1,-1000,0,0,1,0,0,2,0.0,150.0,1500.0
13:50:12.447,GUIDED,-35.3632622,149.1652375,0,-0.0009008685010485351,0.0013128049904480577,0.0249785203486681,0.00031300861155614257,0.00025370679213665426,0.0020411540754139423,0,1,-1000,0,0,1,0,0,2,0.0,150.0,1500.0
13:50:12.650,GUIDED,-35.3632622,149.1652375,0,-0.0009008685010485351,0.0013128049904480577,0.0249785203486681,0.00031300861155614257,0.00025370679213665426,0.0020411540754139423,0,1,-1000,0,0,1,0,0,2,0.0,150.0,1500.0
13:50:12.852,GUIDED,-35.3632622,149.1652375,0,-0.0009008685010485351,0.0013128049904480577,0.0249785203486681,0.00031300861155614257,0.00025370679213665426,0.0020411540754139423,0,1,-1000,0,0,1,0,0,2,0.0,150.0,1500.0
13:50:13.055,GUIDED,-35.3632622,149.1652375,0,-0.0009008685010485351,0.0013128049904480577,0.0249785203486681,0.00031300861155614257,0.00025370679213665426,0.0020411540754139423,0,1,-1000,0,0,1,0,0,2,0.0,150.0,1500.0
13:50:13.257,GUIDED,-35.3632622,149.1652375,0,-0.0009008685010485351,0.0013128049904480577,0.0249785203486681,0.00031300861155614257,0.00025370679213665426,0.0020411540754139423,0,1,-1000,0,0,1,0,0,2,0.0,150.0,1500.0
13:50:13.461,GUIDED,-35.3632622,149.1652375,0,-0.0009008685010485351,0.0013128049904480577,0.0249785203486681,0.00031300861155614257,0.00025370679213665426,0.0020411540754139423,0,1,-1000,0,0,1,0,0,2,0.0,150.0,1500.0
13:50:13.663,GUIDED,-35.3632622,149.1652375,0,-0.0009008685010485351,0.0013128049904480577,0.0249785203486681,0.00031300861155614257,0.00025370679213665426,0.0020411540754139423,0,1,-1000,0,0,1,0,0,2,0.0,150.0,1500.0
13:50:13.865,GUIDED,-35.3632622,149.1652375,0,-0.0009008685010485351,0.0013128049904480577,0.0249785203486681,0.00031300861155614257,0.00025370679213665426,0.0020411540754139423,0,1,-1000,0,0,1,0,0,2,0.0,150.0,1500.0
13:50:14.069,GUIDED,-35.3632622,149.1652374,0,-0.0007535199401900172,0.00155534443911165,0.024495620280504227,0.00036159635055810213,0.0002727248938754201,0.0018554963171482086,0,1,-1000,1,0,0,0,0,1,0.0,150.0,1500.0
13:50:14.274,GUIDED,-35.3632622,149.1652374,2,-0.0005639806622639298,0.0018438701517879963,0.024026907980442047,0.00025568640558049083,0.0003263771941419691,0.001957183238118887,0,1,-1000,1,0,0,0,0,0,0.0,150.0,1500.0
13:50:14.478,GUIDED,-35.3632622,149.1652374,4,-0.00039460809784941375,0.002073633950203657,0.02366086281836033,0.0002665598876774311,0.0002951119386125356,0.001752272481098771,0,1,-1000,0,0,0,0,0,0,0.0,150.0,1500.0
13:50:14.681,GUIDED,-35.3632622,149.1652374,4,-0.00039460809784941375,0.002073633950203657,0.02366086281836033,0.0002665598876774311,0.0002951119386125356,0.001752272481098771,0,1,-1000,0,0,0,0,0,0,0.0,150.0,1500.0
13:50:14.884,GUIDED,-35.3632622,149.1652374,4,-0.00039460809784941375,0.002073633950203657,0.02366086281836033,0.0002665598876774311,0.0002951119386125356,0.001752272481098771,0,1,-1000,0,0,0,0,0,0,0.0,150.0,1500.0
13:50:15.089,GUIDED,-35.3632622,149.1652374,4,-0.00039460809784941375,0.002073633950203657,0.02366086281836033,0.0002665598876774311,0.0002951119386125356,0.001752272481098771,0,1,-1000,0,0,0,0,0,0,0.0,150.0,1500.0
13:50:15.294,GUIDED,-35.3632622,149.1652374,4,-0.00039460809784941375,0.002073633950203657,0.02366086281836033,0.0002665598876774311,0.0002951119386125356,0.001752272481098771,0,1,-1000,0,0,0,0,0,0,0.0,150.0,1500.0
13:50:15.497,GUIDED,-35.3632622,149.1652374,4,-0.00039460809784941375,0.002073633950203657,0.02366086281836033,0.0002665598876774311,0.0002951119386125356,0.001752272481098771,0,1,-1000,0,0,0,0,0,0,0.0,150.0,1500.0
13:50:15.702,GUIDED,-35.3632622,149.1652374,4,-0.00039460809784941375,0.002073633950203657,0.02366086281836033,0.0002665598876774311,0.0002951119386125356,0.001752272481098771,0,1,-1000,0,0,0,0,0,0,0.0,150.0,1500.0
13:50:15.912,GUIDED,-35.3632622,149.1652374,4,-0.00039460809784941375,0.002073633950203657,0.02366086281836033,0.0002665598876774311,0.0002951119386125356,0.001752272481098771,0,1,-1000,0,0,0,0,0,0,0.0,150.0,1500.0
13:50:16.115,GUIDED,-35.3632622,149.1652374,4,-0.00039460809784941375,0.002073633950203657,0.02366086281836033,0.0002665598876774311,0.0002951119386125356,0.001752272481098771,0,1,-1000,0,0,0,0,0,0,0.0,150.0,1500.0
13:50:16.324,GUIDED,-35.3632622,149.1652374,4,-0.00039460809784941375,0.002073633950203657,0.02366086281836033,0.0002665598876774311,0.0002951119386125356,0.001752272481098771,0,1,-1000,0,0,0,0,0,0,0.0,150.0,1500.0
13:50:16.528,GUIDED,-35.3632622,149.1652374,4,-0.00039460809784941375,0.002073633950203657,0.02366086281836033,0.0002665598876774311,0.0002951119386125356,0.001752272481098771,0,1,-1000,0,0,0,0,0,0,0.0,150.0,1500.0
13:50:16.731,GUIDED,-35.3632622,149.1652374,4,-0.00039460809784941375,0.002073633950203657,0.02366086281836033,0.0002665598876774311,0.0002951119386125356,0.001752272481098771,0,1,-1000,0,0,0,0,0,0,0.0,150.0,1500.0
13:50:16.934,GUIDED,-35.3632622,149.1652374,4,-0.00039460809784941375,0.002073633950203657,0.02366086281836033,0.0002665598876774311,0.0002951119386125356,0.001752272481098771,0,1,-1000,0,0,0,0,0,0,0.0,150.0,1500.0
13:50:17.136,GUIDED,-35.3632622,149.1652374,4,-0.00039460809784941375,0.002073633950203657,0.02366086281836033,0.0002665598876774311,0.0002951119386125356,0.001752272481098771,0,1,-1000,0,0,0,0,0,0,0.0,150.0,1500.0
13:50:17.347,GUIDED,-35.3632622,149.1652374,19,-9.87691746558994e-05,0.002394897397607565,0.02310604602098465,0.0003222688101232052,0.0003204014210496098,0.0018057107226923108,0,2,-1000,0,0,0,0,-1,-2,0.0,150.0,1500.0
13:50:17.550,GUIDED,-35.3632622,149.1652374,22,0.00014281028416007757,0.002615200122818351,0.022739814594388008,0.00039548470522277057,0.00039003684651106596,0.0017964905127882957,0,2,-1000,0,0,1,0,0,-2,0.0,150.0,1500.0
13:50:17.757,GUIDED,-35.3632622,149.1652374,22,0.00014281028416007757,0.002615200122818351,0.022739814594388008,0.00039548470522277057,0.00039003684651106596,0.0017964905127882957,0,2,-1000,0,0,1,0,0,-2,0.0,150.0,1500.0
13:50:17.960,GUIDED,-35.3632622,149.1652374,22,0.00014281028416007757,0.002615200122818351,0.022739814594388008,0.00039548470522277057,0.00039003684651106596,0.0017964905127882957,0,2,-1000,0,0,1,0,0,-2,0.0,150.0,1500.0
13:50:18.163,GUIDED,-35.3632622,149.1652374,22,0.00014281028416007757,0.002615200122818351,0.022739814594388008,0.00039548470522277057,0.00039003684651106596,0.0017964905127882957,0,2,-1000,0,0,1,0,0,-2,0.0,150.0,1500.0
13:50:18.369,GUIDED,-35.3632622,149.1652374,22,0.00014281028416007757,0.002615200122818351,0.022739814594388008,0.00039548470522277057,0.00039003684651106596,0.0017964905127882957,0,2,-1000,0,0,1,0,0,-2,0.0,150.0,1500.0
13:50:18.573,GUIDED,-35.3632622,149.1652374,22,0.00014281028416007757,0.002615200122818351,0.022739814594388008,0.00039548470522277057,0.00039003684651106596,0.0017964905127882957,0,2,-1000,0,0,1,0,0,-2,0.0,150.0,1500.0
13:50:18.776,GUIDED,-35.3632622,149.1652374,22,0.00014281028416007757,0.002615200122818351,0.022739814594388008,0.00039548470522277057,0.00039003684651106596,0.0017964905127882957,0,2,-1000,0,0,1,0,0,-2,0.0,150.0,1500.0
13:50:18.978,GUIDED,-35.3632622,149.1652374,22,0.00014281028416007757,0.002615200122818351,0.022739814594388008,0.00039548470522277057,0.00039003684651106596,0.0017964905127882957,0,2,-1000,0,0,1,0,0,-2,0.0,150.0,1500.0
13:50:19.184,GUIDED,-35.3632622,149.1652374,22,0.00014281028416007757,0.002615200122818351,0.022739814594388008,0.00039548470522277057,0.00039003684651106596,0.0017964905127882957,0,2,-1000,0,0,1,0,0,-2,0.0,150.0,1500.0
13:50:19.387,GUIDED,-35.3632622,149.1652374,22,0.00014281028416007757,0.002615200122818351,0.022739814594388008,0.00039548470522277057,0.00039003684651106596,0.0017964905127882957,0,2,-1000,0,0,1,0,0,-2,0.0,150.0,1500.0
13:50:19.590,GUIDED,-35.3632622,149.1652374,22,0.00014281028416007757,0.002615200122818351,0.022739814594388008,0.00039548470522277057,0.00039003684651106596,0.0017964905127882957,0,2,-1000,0,0,1,0,0,-2,0.0,150.0,1500.0
13:50:19.793,GUIDED,-35.3632622,149.1652374,22,0.00014281028416007757,0.002615200122818351,0.022739814594388008,0.00039548470522277057,0.00039003684651106596,0.0017964905127882957,0,2,-1000,0,0,1,0,0,-2,0.0,150.0,1500.0
13:50:19.997,GUIDED,-35.3632622,149.1652374,22,0.00014281028416007757,0.002615200122818351,0.022739814594388008,0.00039548470522277057,0.00039003684651106596,0.0017964905127882957,0,2,-1000,0,0,1,0,0,-2,0.0,150.0,1500.0
13:50:20.200,GUIDED,-35.3632622,149.1652374,22,0.00014281028416007757,0.002615200122818351,0.022739814594388008,0.00039548470522277057,0.00039003684651106596,0.0017964905127882957,0,2,-1000,0,0,1,0,0,-2,0.0,150.0,1500.0
13:50:20.403,GUIDED,-35.3632622,149.1652374,88,0.0009643829544074833,-0.0025337182451039553,0.02262626774609089,0.0004479396156966686,0.0022643147967755795,0.0022516166791319847,0,0,-1141,0,2,1,0,0,-43,0.0,150.0,1500.0
13:50:20.604,GUIDED,-35.3632621,149.1652374,739,0.0018169272225350142,0.0028120893985033035,0.022206148132681847,0.016736820340156555,0.0023507920559495687,0.0005744230002164841,0,0,-1085,17,2,0,1,0,-127,0.0,150.0,1500.0
13:50:20.810,GUIDED,-35.3632621,149.1652374,739,0.0018169272225350142,0.0028120893985033035,0.022206148132681847,0.016736820340156555,0.0023507920559495687,0.0005744230002164841,0,0,-1085,17,2,0,1,0,-127,0.0,150.0,1500.0
13:50:21.018,GUIDED,-35.3632621,149.1652374,739,0.0018169272225350142,0.0028120893985033035,0.022206148132681847,0.016736820340156555,0.0023507920559495687,0.0005744230002164841,0,0,-1085,17,2,0,1,0,-127,0.0,150.0,1500.0
13:50:21.222,GUIDED,-35.3632621,149.1652374,739,0.0018169272225350142,0.0028120893985033035,0.022206148132681847,0.016736820340156555,0.0023507920559495687,0.0005744230002164841,0,0,-1085,17,2,0,1,0,-127,0.0,150.0,1500.0
13:50:21.424,GUIDED,-35.3632621,149.1652374,739,0.0018169272225350142,0.0028120893985033035,0.022206148132681847,0.016736820340156555,0.0023507920559495687,0.0005744230002164841,0,0,-1085,17,2,0,1,0,-127,0.0,150.0,1500.0
13:50:21.629,GUIDED,-35.3632621,149.1652374,739,0.0018169272225350142,0.0028120893985033035,0.022206148132681847,0.016736820340156555,0.0023507920559495687,0.0005744230002164841,0,0,-1085,17,2,0,1,0,-127,0.0,150.0,1500.0
13:50:21.837,GUIDED,-35.3632621,149.1652374,739,0.0018169272225350142,0.0028120893985033035,0.022206148132681847,0.016736820340156555,0.0023507920559495687,0.0005744230002164841,0,0,-1085,17,2,0,1,0,-127,0.0,150.0,1500.0
13:50:22.040,GUIDED,-35.3632621,149.1652374,739,0.0018169272225350142,0.0028120893985033035,0.022206148132681847,0.016736820340156555,0.0023507920559495687,0.0005744230002164841,0,0,-1085,17,2,0,1,0,-127,0.0,150.0,1500.0
13:50:22.246,GUIDED,-35.3632621,149.1652374,739,0.0018169272225350142,0.0028120893985033035,0.022206148132681847,0.016736820340156555,0.0023507920559495687,0.0005744230002164841,0,0,-1085,17,2,0,1,0,-127,0.0,150.0,1500.0
13:50:22.452,GUIDED,-35.3632621,149.1652374,739,0.0018169272225350142,0.0028120893985033035,0.022206148132681847,0.016736820340156555,0.0023507920559495687,0.0005744230002164841,0,0,-1085,17,2,0,1,0,-127,0.0,150.0,1500.0
13:50:22.656,GUIDED,-35.3632621,149.1652374,739,0.0018169272225350142,0.0028120893985033035,0.022206148132681847,0.016736820340156555,0.0023507920559495687,0.0005744230002164841,0,0,-1085,17,2,0,1,0,-127,0.0,150.0,1500.0
13:50:22.859,GUIDED,-35.3632621,149.1652374,739,0.0018169272225350142,0.0028120893985033035,0.022206148132681847,0.016736820340156555,0.0023507920559495687,0.0005744230002164841,0,0,-1085,17,2,0,1,0,-127,0.0,150.0,1500.0
13:50:23.063,GUIDED,-35.3632616,149.1652387,2682,0.058359045535326004,-0.006229866296052933,0.02238394320011139,0.0387299619615078,-0.011268346570432186,0.003955091815441847,1,-5,-999,39,-10,3,4,34,-150,0.0,150.0,1500.0
13:50:23.267,GUIDED,-35.363261,149.1652426,3828,0.00993670430034399,0.021036038175225258,-0.04557037726044655,-0.05569494515657425,-0.04107820987701416,-0.02684013545513153,5,-11,-1008,-55,-40,-27,5,58,-147,0.0,150.0,1500.0
13:50:23.471,GUIDED,-35.363261,149.1652426,3828,0.00993670430034399,0.021036038175225258,-0.04557037726044655,-0.05569494515657425,-0.04107820987701416,-0.02684013545513153,5,-11,-1008,-55,-40,-27,5,58,-147,0.0,150.0,1500.0
13:50:23.672,GUIDED,-35.363261,149.1652426,3828,0.00993670430034399,0.021036038175225258,-0.04557037726044655,-0.05569494515657425,-0.04107820987701416,-0.02684013545513153,5,-11,-1008,-55,-40,-27,5,58,-147,0.0,150.0,1500.0
13:50:23.875,GUIDED,-35.363261,149.1652426,3828,0.00993670430034399,0.021036038175225258,-0.04557037726044655,-0.05569494515657425,-0.04107820987701416,-0.02684013545513153,5,-11,-1008,-55,-40,-27,5,58,-147,0.0,150.0,1500.0
13:50:24.080,GUIDED,-35.363261,149.1652426,3828,0.00993670430034399,0.021036038175225258,-0.04557037726044655,-0.05569494515657425,-0.04107820987701416,-0.02684013545513153,5,-11,-1008,-55,-40,-27,5,58,-147,0.0,150.0,1500.0
13:50:24.283,GUIDED,-35.363261,149.1652426,3828,0.00993670430034399,0.021036038175225258,-0.04557037726044655,-0.05569494515657425,-0.04107820987701416,-0.02684013545513153,5,-11,-1008,-55,-40,-27,5,58,-147,0.0,150.0,1500.0
13:50:24.488,GUIDED,-35.363261,149.1652426,3828,0.00993670430034399,0.021036038175225258,-0.04557037726044655,-0.05569494515657425,-0.04107820987701416,-0.02684013545513153,5,-11,-1008,-55,-40,-27,5,58,-147,0.0,150.0,1500.0
13:50:24.692,GUIDED,-35.363261,149.1652426,3828,0.00993670430034399,0.021036038175225258,-0.04557037726044655,-0.05569494515657425,-0.04107820987701416,-0.02684013545513153,5,-11,-1008,-55,-40,-27,5,58,-147,0.0,150.0,1500.0
13:50:24.898,GUIDED,-35.363261,149.1652426,3828,0.00993670430034399,0.021036038175225258,-0.04557037726044655,-0.05569494515657425,-0.04107820987701416,-0.02684013545513153,5,-11,-1008,-55,-40,-27,5,58,-147,0.0,150.0,1500.0
13:50:25.101,GUIDED,-35.363261,149.1652426,3828,0.00993670430034399,0.021036038175225258,-0.04557037726044655,-0.05569494515657425,-0.04107820987701416,-0.02684013545513153,5,-11,-1008,-55,-40,-27,5,58,-147,0.0,150.0,1500.0
13:50:25.303,GUIDED,-35.363261,149.1652426,3828,0.00993670430034399,0.021036038175225258,-0.04557037726044655,-0.05569494515657425,-0.04107820987701416,-0.02684013545513153,5,-11,-1008,-55,-40,-27,5,58,-147,0.0,150.0,1500.0
13:50:25.505,GUIDED,-35.363261,149.1652426,3828,0.00993670430034399,0.021036038175225258,-0.04557037726044655,-0.05569494515657425,-0.04107820987701416,-0.02684013545513153,5,-11,-1008,-55,-40,-27,5,58,-147,0.0,150.0,1500.0
13:50:25.708,GUIDED,-35.363261,149.1652426,3828,0.00993670430034399,0.021036038175225258,-0.04557037726044655,-0.05569494515657425,-0.04107820987701416,-0.02684013545513153,5,-11,-1008,-55,-40,-27,5,58,-147,0.0,150.0,1500.0
13:50:25.912,GUIDED,-35.3632606,149.1652458,4670,0.0004832813865505159,-0.01405844185501337,-0.03913964331150055,-0.024296781048178673,-0.04181229695677757,0.006154410541057587,5,-12,-998,-23,-41,5,9,52,-150,0.0,150.0,1500.0
13:50:26.115,GUIDED,-35.3632592,149.1652492,6209,-0.0951428934931755,0.015921548008918762,-0.10413459688425064,-0.09231986850500107,0.045838721096515656,-0.09353476762771606,-1,-4,-1001,-92,46,-94,12,-3,-149,0.0,150.0,1500.0
13:50:26.318,GUIDED,-35.363259,149.1652488,6591,-0.11228771507740021,0.023766901344060898,-0.1272263526916504,0.0015261830994859338,0.027606194838881493,-0.0722859799861908,-3,1,-1007,2,28,-73,4,-29,-148,0.0,150.0,1500.0
13:50:26.521,GUIDED,-35.363259,149.1652488,6591,-0.11228771507740021,0.023766901344060898,-0.1272263526916504,0.0015261830994859338,0.027606194838881493,-0.0722859799861908,-3,1,-1007,2,28,-73,4,-29,-148,0.0,150.0,1500.0
13:50:26.725,GUIDED,-35.363259,149.1652488,6591,-0.11228771507740021,0.023766901344060898,-0.1272263526916504,0.0015261830994859338,0.027606194838881493,-0.0722859799861908,-3,1,-1007,2,28,-73,4,-29,-148,0.0,150.0,1500.0
13:50:26.928,GUIDED,-35.363259,149.1652488,6591,-0.11228771507740021,0.023766901344060898,-0.1272263526916504,0.0015261830994859338,0.027606194838881493,-0.0722859799861908,-3,1,-1007,2,28,-73,4,-29,-148,0.0,150.0,1500.0
13:50:27.130,GUIDED,-35.363259,149.1652488,6591,-0.11228771507740021,0.023766901344060898,-0.1272263526916504,0.0015261830994859338,0.027606194838881493,-0.0722859799861908,-3,1,-1007,2,28,-73,4,-29,-148,0.0,150.0,1500.0
13:50:27.332,GUIDED,-35.363259,149.1652488,6591,-0.11228771507740021,0.023766901344060898,-0.1272263526916504,0.0015261830994859338,0.027606194838881493,-0.0722859799861908,-3,1,-1007,2,28,-73,4,-29,-148,0.0,150.0,1500.0
13:50:27.536,GUIDED,-35.363259,149.1652488,6591,-0.11228771507740021,0.023766901344060898,-0.1272263526916504,0.0015261830994859338,0.027606194838881493,-0.0722859799861908,-3,1,-1007,2,28,-73,4,-29,-148,0.0,150.0,1500.0
13:50:27.743,GUIDED,-35.363259,149.1652488,6591,-0.11228771507740021,0.023766901344060898,-0.1272263526916504,0.0015261830994859338,0.027606194838881493,-0.0722859799861908,-3,1,-1007,2,28,-73,4,-29,-148,0.0,150.0,1500.0
13:50:27.949,GUIDED,-35.363259,149.1652488,6591,-0.11228771507740021,0.023766901344060898,-0.1272263526916504,0.0015261830994859338,0.027606194838881493,-0.0722859799861908,-3,1,-1007,2,28,-73,4,-29,-148,0.0,150.0,1500.0
13:50:28.155,GUIDED,-35.363259,149.1652488,6591,-0.11228771507740021,0.023766901344060898,-0.1272263526916504,0.0015261830994859338,0.027606194838881493,-0.0722859799861908,-3,1,-1007,2,28,-73,4,-29,-148,0.0,150.0,1500.0
13:50:28.366,GUIDED,-35.363259,149.1652488,6591,-0.11228771507740021,0.023766901344060898,-0.1272263526916504,0.0015261830994859338,0.027606194838881493,-0.0722859799861908,-3,1,-1007,2,28,-73,4,-29,-148,0.0,150.0,1500.0
13:50:28.572,GUIDED,-35.363259,149.1652488,6591,-0.11228771507740021,0.023766901344060898,-0.1272263526916504,0.0015261830994859338,0.027606194838881493,-0.0722859799861908,-3,1,-1007,2,28,-73,4,-29,-148,0.0,150.0,1500.0
13:50:28.775,GUIDED,-35.3632609,149.1652397,8326,-0.03848322108387947,0.03505858778953552,-0.16748030483722687,0.08288751542568207,0.014788513071835041,-0.011915300972759724,-7,22,-1004,83,15,-12,-43,-98,-147,0.0,150.0,1500.0
13:50:28.980,GUIDED,-35.3632665,149.1652296,9867,0.048997554928064346,0.039954692125320435,-0.16501964628696442,0.0882144495844841,-0.009731879457831383,0.0062635065987706184,1,24,-1007,88,-9,5,-79,-65,-152,0.0,150.0,1500.0
13:50:29.182,GUIDED,-35.3632665,149.1652296,9867,0.048997554928064346,0.039954692125320435,-0.16501964628696442,0.0882144495844841,-0.009731879457831383,0.0062635065987706184,1,24,-1007,88,-9,5,-79,-65,-152,0.0,150.0,1500.0
13:50:29.386,GUIDED,-35.3632665,149.1652296,9867,0.048997554928064346,0.039954692125320435,-0.16501964628696442,0.0882144495844841,-0.009731879457831383,0.0062635065987706184,1,24,-1007,88,-9,5,-79,-65,-152,0.0,150.0,1500.0
13:50:29.588,GUIDED,-35.3632665,149.1652296,9867,0.048997554928064346,0.039954692125320435,-0.16501964628696442,0.0882144495844841,-0.009731879457831383,0.0062635065987706184,1,24,-1007,88,-9,5,-79,-65,-152,0.0,150.0,1500.0
13:50:29.791,GUIDED,-35.3632665,149.1652296,9867,0.048997554928064346,0.039954692125320435,-0.16501964628696442,0.0882144495844841,-0.009731879457831383,0.0062635065987706184,1,24,-1007,88,-9,5,-79,-65,-152,0.0,150.0,1500.0
13:50:29.995,GUIDED,-35.3632665,149.1652296,9867,0.048997554928064346,0.039954692125320435,-0.16501964628696442,0.0882144495844841,-0.009731879457831383,0.0062635065987706184,1,24,-1007,88,-9,5,-79,-65,-152,0.0,150.0,1500.0
13:50:30.199,GUIDED,-35.3632665,149.1652296,9867,0.048997554928064346,0.039954692125320435,-0.16501964628696442,0.0882144495844841,-0.009731879457831383,0.0062635065987706184,1,24,-1007,88,-9,5,-79,-65,-152,0.0,150.0,1500.0
13:50:30.402,GUIDED,-35.3632665,149.1652296,9867,0.048997554928064346,0.039954692125320435,-0.16501964628696442,0.0882144495844841,-0.009731879457831383,0.0062635065987706184,1,24,-1007,88,-9,5,-79,-65,-152,0.0,150.0,1500.0
13:50:30.605,GUIDED,-35.3632665,149.1652296,9867,0.048997554928064346,0.039954692125320435,-0.16501964628696442,0.0882144495844841,-0.009731879457831383,0.0062635065987706184,1,24,-1007,88,-9,5,-79,-65,-152,0.0,150.0,1500.0
13:50:30.811,GUIDED,-35.3632665,149.1652296,9867,0.048997554928064346,0.039954692125320435,-0.16501964628696442,0.0882144495844841,-0.009731879457831383,0.0062635065987706184,1,24,-1007,88,-9,5,-79,-65,-152,0.0,150.0,1500.0
13:50:31.015,GUIDED,-35.3632665,149.1652296,9867,0.048997554928064346,0.039954692125320435,-0.16501964628696442,0.0882144495844841,-0.009731879457831383,0.0062635065987706184,1,24,-1007,88,-9,5,-79,-65,-152,0.0,150.0,1500.0
13:50:31.218,GUIDED,-35.3632665,149.1652296,9867,0.048997554928064346,0.039954692125320435,-0.16501964628696442,0.0882144495844841,-0.009731879457831383,0.0062635065987706184,1,24,-1007,88,-9,5,-79,-65,-152,0.0,150.0,1500.0
13:50:31.419,GUIDED,-35.3632722,149.1652263,11116,0.058923497796058655,-0.039574433118104935,-0.10023289173841476,0.010427184402942657,-0.1103743314743042,0.11602937430143356,13,13,-1008,11,-109,115,-68,-6,-153,0.0,150.0,1500.0
13:50:31.623,GUIDED,-35.3632735,149.1652298,13063,0.06633593142032623,-0.13265705108642578,0.01585797220468521,0.0244172140955925,-0.005006826017051935,0.061995334923267365,-2,-15,-992,25,-4,61,62,61,-145,0.0,150.0,1500.0
13:50:31.831,GUIDED,-35.3632735,149.1652298,13063,0.06633593142032623,-0.13265705108642578,0.01585797220468521,0.0244172140955925,-0.005006826017051935,0.061995334923267365,-2,-15,-992,25,-4,61,62,61,-145,0.0,150.0,1500.0
13:50:32.034,GUIDED,-35.3632735,149.1652298,13063,0.06633593142032623,-0.13265705108642578,0.01585797220468521,0.0244172140955925,-0.005006826017051935,0.061995334923267365,-2,-15,-992,25,-4,61,62,61,-145,0.0,150.0,1500.0
13:50:32.239,GUIDED,-35.3632735,149.1652298,13063,0.06633593142032623,-0.13265705108642578,0.01585797220468521,0.0244172140955925,-0.005006826017051935,0.061995334923267365,-2,-15,-992,25,-4,61,62,61,-145,0.0,150.0,1500.0
13:50:32.445,GUIDED,-35.3632735,149.1652298,13063,0.06633593142032623,-0.13265705108642578,0.01585797220468521,0.0244172140955925,-0.005006826017051935,0.061995334923267365,-2,-15,-992,25,-4,61,62,61,-145,0.0,150.0,1500.0
13:50:32.647,GUIDED,-35.3632735,149.1652298,13063,0.06633593142032623,-0.13265705108642578,0.01585797220468521,0.0244172140955925,-0.005006826017051935,0.061995334923267365,-2,-15,-992,25,-4,61,62,61,-145,0.0,150.0,1500.0
13:50:32.857,GUIDED,-35.3632735,149.1652298,13063,0.06633593142032623,-0.13265705108642578,0.01585797220468521,0.0244172140955925,-0.005006826017051935,0.061995334923267365,-2,-15,-992,25,-4,61,62,61,-145,0.0,150.0,1500.0
13:50:33.059,GUIDED,-35.3632735,149.1652298,13063,0.06633593142032623,-0.13265705108642578,0.01585797220468521,0.0244172140955925,-0.005006826017051935,0.061995334923267365,-2,-15,-992,25,-4,61,62,61,-145,0.0,150.0,1500.0
13:50:33.262,GUIDED,-35.3632735,149.1652298,13063,0.06633593142032623,-0.13265705108642578,0.01585797220468521,0.0244172140955925,-0.005006826017051935,0.061995334923267365,-2,-15,-992,25,-4,61,62,61,-145,0.0,150.0,1500.0
13:50:33.469,GUIDED,-35.3632735,149.1652298,13063,0.06633593142032623,-0.13265705108642578,0.01585797220468521,0.0244172140955925,-0.005006826017051935,0.061995334923267365,-2,-15,-992,25,-4,61,62,61,-145,0.0,150.0,1500.0
13:50:33.673,GUIDED,-35.3632735,149.1652298,13063,0.06633593142032623,-0.13265705108642578,0.01585797220468521,0.0244172140955925,-0.005006826017051935,0.061995334923267365,-2,-15,-992,25,-4,61,62,61,-145,0.0,150.0,1500.0
13:50:33.876,GUIDED,-35.3632735,149.1652298,13063,0.06633593142032623,-0.13265705108642578,0.01585797220468521,0.0244172140955925,-0.005006826017051935,0.061995334923267365,-2,-15,-992,25,-4,61,62,61,-145,0.0,150.0,1500.0
13:50:34.084,GUIDED,-35.3632735,149.1652298,13063,0.06633593142032623,-0.13265705108642578,0.01585797220468521,0.0244172140955925,-0.005006826017051935,0.061995334923267365,-2,-15,-992,25,-4,61,62,61,-145,0.0,150.0,1500.0
13:50:34.288,GUIDED,-35.3632648,149.1652367,14354,0.0009587005479261279,-0.028168810531497,-0.06257687509059906,-0.06559733301401138,0.12148358672857285,-0.14222031831741333,-16,-32,-1020,-64,121,-143,133,69,-143,0.0,150.0,1500.0
13:50:34.491,GUIDED,-35.363256,149.1652411,15511,-0.03186226263642311,0.03713827207684517,-0.15742121636867523,-0.013592246919870377,0.06702937185764313,-0.09886986017227173,-19,-24,-1013,-12,67,-99,112,34,-156,0.0,150.0,1500.0
13:50:34.696,GUIDED,-35.363256,149.1652411,15511,-0.03186226263642311,0.03713827207684517,-0.15742121636867523,-0.013592246919870377,0.06702937185764313,-0.09886986017227173,-19,-24,-1013,-12,67,-99,112,34,-156,0.0,150.0,1500.0
13:50:34.899,GUIDED,-35.363256,149.1652411,15511,-0.03186226263642311,0.03713827207684517,-0.15742121636867523,-0.013592246919870377,0.06702937185764313,-0.09886986017227173,-19,-24,-1013,-12,67,-99,112,34,-156,0.0,150.0,1500.0
13:50:35.101,GUIDED,-35.363256,149.1652411,15511,-0.03186226263642311,0.03713827207684517,-0.15742121636867523,-0.013592246919870377,0.06702937185764313,-0.09886986017227173,-19,-24,-1013,-12,67,-99,112,34,-156,0.0,150.0,1500.0
13:50:35.306,GUIDED,-35.363256,149.1652411,15511,-0.03186226263642311,0.03713827207684517,-0.15742121636867523,-0.013592246919870377,0.06702937185764313,-0.09886986017227173,-19,-24,-1013,-12,67,-99,112,34,-156,0.0,150.0,1500.0
13:50:37.311,GUIDED,-35.363256,149.1652411,15511,-0.03186226263642311,0.03713827207684517,-0.15742121636867523,-0.013592246919870377,0.06702937185764313,-0.09886986017227173,-19,-24,-1013,-12,67,-99,112,34,-156,0.0,150.0,1500.0
13:50:37.517,GUIDED,-35.363256,149.1652411,15511,-0.03186226263642311,0.03713827207684517,-0.15742121636867523,-0.013592246919870377,0.06702937185764313,-0.09886986017227173,-19,-24,-1013,-12,67,-99,112,34,-156,0.0,150.0,1500.0
13:50:37.721,GUIDED,-35.363256,149.1652411,15511,-0.03186226263642311,0.03713827207684517,-0.15742121636867523,-0.013592246919870377,0.06702937185764313,-0.09886986017227173,-19,-24,-1013,-12,67,-99,112,34,-156,0.0,150.0,1500.0
13:50:37.924,GUIDED,-35.363256,149.1652411,15511,-0.03186226263642311,0.03713827207684517,-0.15742121636867523,-0.013592246919870377,0.06702937185764313,-0.09886986017227173,-19,-24,-1013,-12,67,-99,112,34,-156,0.0,150.0,1500.0
13:50:38.126,GUIDED,-35.363256,149.1652411,15511,-0.03186226263642311,0.03713827207684517,-0.15742121636867523,-0.013592246919870377,0.06702937185764313,-0.09886986017227173,-19,-24,-1013,-12,67,-99,112,34,-156,0.0,150.0,1500.0
13:50:38.331,GUIDED,-35.363256,149.1652411,15511,-0.03186226263642311,0.03713827207684517,-0.15742121636867523,-0.013592246919870377,0.06702937185764313,-0.09886986017227173,-19,-24,-1013,-12,67,-99,112,34,-156,0.0,150.0,1500.0
13:50:38.533,GUIDED,-35.363256,149.1652411,15511,-0.03186226263642311,0.03713827207684517,-0.15742121636867523,-0.013592246919870377,0.06702937185764313,-0.09886986017227173,-19,-24,-1013,-12,67,-99,112,34,-156,0.0,150.0,1500.0
13:50:38.742,GUIDED,-35.363256,149.1652411,15511,-0.03186226263642311,0.03713827207684517,-0.15742121636867523,-0.013592246919870377,0.06702937185764313,-0.09886986017227173,-19,-24,-1013,-12,67,-99,112,34,-156,0.0,150.0,1500.0
13:50:38.977,GUIDED,-35.363256,149.1652411,15511,-0.03186226263642311,0.03713827207684517,-0.15742121636867523,-0.013592246919870377,0.06702937185764313,-0.09886986017227173,-19,-24,-1013,-12,67,-99,112,34,-156,0.0,150.0,1500.0
13:50:39.180,GUIDED,-35.3632495,149.1652425,16873,-0.03968503698706627,0.075888991355896,-0.2201259881258011,-0.0036217723973095417,0.0377095527946949,-0.053681258112192154,-10,-10,-1001,-3,38,-54,47,0,-158,0.0,150.0,1500.0
13:50:39.383,GUIDED,-35.3632491,149.165241,18446,-0.05868542194366455,0.09729288518428802,-0.2655409276485443,0.0409708172082901,0.002577926032245159,-0.03552507609128952,-2,3,-994,-21,20,-46,-48,-28,-149,0.0,150.0,1500.0
13:50:39.585,GUIDED,-35.3632522,149.1652392,19201,-0.02659733220934868,0.08896913379430771,-0.2758743166923523,0.07503698766231537,-0.02548438124358654,-0.013703751377761364,6,24,-1000,75,-24,-14,-93,-31,-146,0.0,150.0,1500.0
13:50:39.789,GUIDED,-35.3632522,149.1652392,19201,-0.02659733220934868,0.08896913379430771,-0.2758743166923523,0.07503698766231537,-0.02548438124358654,-0.013703751377761364,6,24,-1000,75,-24,-14,-93,-31,-146,0.0,150.0,1500.0
13:50:39.991,GUIDED,-35.3632522,149.1652392,19201,-0.02659733220934868,0.08896913379430771,-0.2758743166923523,0.07503698766231537,-0.02548438124358654,-0.013703751377761364,6,24,-1000,75,-24,-14,-93,-31,-146,0.0,150.0,1500.0
13:50:40.193,GUIDED,-35.3632522,149.1652392,19201,-0.02659733220934868,0.08896913379430771,-0.2758743166923523,0.07503698766231537,-0.02548438124358654,-0.013703751377761364,6,24,-1000,75,-24,-14,-93,-31,-146,0.0,150.0,1500.0
13:50:40.396,GUIDED,-35.3632522,149.1652392,19201,-0.02659733220934868,0.08896913379430771,-0.2758743166923523,0.07503698766231537,-0.02548438124358654,-0.013703751377761364,6,24,-1000,75,-24,-14,-93,-31,-146,0.0,150.0,1500.0
13:50:40.603,GUIDED,-35.3632522,149.1652392,19201,-0.02659733220934868,0.08896913379430771,-0.2758743166923523,0.07503698766231537,-0.02548438124358654,-0.013703751377761364,6,24,-1000,75,-24,-14,-93,-31,-146,0.0,150.0,1500.0
13:50:40.807,GUIDED,-35.3632522,149.1652392,19201,-0.02659733220934868,0.08896913379430771,-0.2758743166923523,0.07503698766231537,-0.02548438124358654,-0.013703751377761364,6,24,-1000,75,-24,-14,-93,-31,-146,0.0,150.0,1500.0
13:50:41.013,GUIDED,-35.3632522,149.1652392,19201,-0.02659733220934868,0.08896913379430771,-0.2758743166923523,0.07503698766231537,-0.02548438124358654,-0.013703751377761364,6,24,-1000,75,-24,-14,-93,-31,-146,0.0,150.0,1500.0
13:50:41.219,GUIDED,-35.3632522,149.1652392,19201,-0.02659733220934868,0.08896913379430771,-0.2758743166923523,0.07503698766231537,-0.02548438124358654,-0.013703751377761364,6,24,-1000,75,-24,-14,-93,-31,-146,0.0,150.0,1500.0
13:50:41.422,GUIDED,-35.3632522,149.1652392,19201,-0.02659733220934868,0.08896913379430771,-0.2758743166923523,0.07503698766231537,-0.02548438124358654,-0.013703751377761364,6,24,-1000,75,-24,-14,-93,-31,-146,0.0,150.0,1500.0
13:50:41.626,GUIDED,-35.3632522,149.1652392,19201,-0.02659733220934868,0.08896913379430771,-0.2758743166923523,0.07503698766231537,-0.02548438124358654,-0.013703751377761364,6,24,-1000,75,-24,-14,-93,-31,-146,0.0,150.0,1500.0
13:50:41.830,GUIDED,-35.3632522,149.1652392,19201,-0.02659733220934868,0.08896913379430771,-0.2758743166923523,0.07503698766231537,-0.02548438124358654,-0.013703751377761364,6,24,-1000,75,-24,-14,-93,-31,-146,0.0,150.0,1500.0
13:50:42.033,GUIDED,-35.3632522,149.1652392,19201,-0.02659733220934868,0.08896913379430771,-0.2758743166923523,0.07503698766231537,-0.02548438124358654,-0.013703751377761364,6,24,-1000,75,-24,-14,-93,-31,-146,0.0,150.0,1500.0
13:50:42.236,GUIDED,-35.3632655,149.1652376,21091,0.026292553171515465,-0.0647902861237526,-0.18632926046848297,0.0030719188507646322,-0.14991813898086548,0.13436082005500793,28,14,-1015,1,-155,123,-118,15,-152,0.0,150.0,1500.0
13:50:42.439,GUIDED,-35.3632699,149.1652386,21883,0.023473035544157028,-0.1017744168639183,-0.1518808752298355,-3.8745522033423185e-05,-0.13933564722537994,0.14154331386089325,19,8,-1013,0,-138,140,-72,25,-158,0.0,150.0,1500.0
13:50:42.642,GUIDED,-35.3632699,149.1652386,21883,0.023473035544157028,-0.1017744168639183,-0.1518808752298355,-3.8745522033423185e-05,-0.13933564722537994,0.14154331386089325,19,8,-1013,0,-138,140,-72,25,-158,0.0,150.0,1500.0
13:50:42.846,GUIDED,-35.3632699,149.1652386,21883,0.023473035544157028,-0.1017744168639183,-0.1518808752298355,-3.8745522033423185e-05,-0.13933564722537994,0.14154331386089325,19,8,-1013,0,-138,140,-72,25,-158,0.0,150.0,1500.0
13:50:43.049,GUIDED,-35.3632699,149.1652386,21883,0.023473035544157028,-0.1017744168639183,-0.1518808752298355,-3.8745522033423185e-05,-0.13933564722537994,0.14154331386089325,19,8,-1013,0,-138,140,-72,25,-158,0.0,150.0,1500.0
13:50:43.253,GUIDED,-35.3632699,149.1652386,21883,0.023473035544157028,-0.1017744168639183,-0.1518808752298355,-3.8745522033423185e-05,-0.13933564722537994,0.14154331386089325,19,8,-1013,0,-138,140,-72,25,-158,0.0,150.0,1500.0
13:50:43.455,GUIDED,-35.3632699,149.1652386,21883,0.023473035544157028,-0.1017744168639183,-0.1518808752298355,-3.8745522033423185e-05,-0.13933564722537994,0.14154331386089325,19,8,-1013,0,-138,140,-72,25,-158,0.0,150.0,1500.0
13:50:43.657,GUIDED,-35.3632699,149.1652386,21883,0.023473035544157028,-0.1017744168639183,-0.1518808752298355,-3.8745522033423185e-05,-0.13933564722537994,0.14154331386089325,19,8,-1013,0,-138,140,-72,25,-158,0.0,150.0,1500.0
13:50:43.862,GUIDED,-35.3632699,149.1652386,21883,0.023473035544157028,-0.1017744168639183,-0.1518808752298355,-3.8745522033423185e-05,-0.13933564722537994,0.14154331386089325,19,8,-1013,0,-138,140,-72,25,-158,0.0,150.0,1500.0
13:50:44.063,GUIDED,-35.3632699,149.1652386,21883,0.023473035544157028,-0.1017744168639183,-0.1518808752298355,-3.8745522033423185e-05,-0.13933564722537994,0.14154331386089325,19,8,-1013,0,-138,140,-72,25,-158,0.0,150.0,1500.0
13:50:44.265,GUIDED,-35.3632699,149.1652386,21883,0.023473035544157028,-0.1017744168639183,-0.1518808752298355,-3.8745522033423185e-05,-0.13933564722537994,0.14154331386089325,19,8,-1013,0,-138,140,-72,25,-158,0.0,150.0,1500.0
13:50:44.468,GUIDED,-35.3632699,149.1652386,21883,0.023473035544157028,-0.1017744168639183,-0.1518808752298355,-3.8745522033423185e-05,-0.13933564722537994,0.14154331386089325,19,8,-1013,0,-138,140,-72,25,-158,0.0,150.0,1500.0
13:50:44.674,GUIDED,-35.3632699,149.1652386,21883,0.023473035544157028,-0.1017744168639183,-0.1518808752298355,-3.8745522033423185e-05,-0.13933564722537994,0.14154331386089325,19,8,-1013,0,-138,140,-72,25,-158,0.0,150.0,1500.0
13:50:44.876,GUIDED,-35.3632707,149.1652406,23222,-0.030662406235933304,-0.161974236369133,-0.061565760523080826,-0.13441774249076843,0.16518719494342804,-0.07283675670623779,-5,-8,-986,-133,166,-73,61,14,-146,0.0,150.0,1500.0
13:50:45.078,GUIDED,-35.3632667,149.1652401,23947,-0.08361676335334778,-0.08390695601701736,-0.14481858909130096,-0.03431765362620354,0.1324324756860733,-0.14318549633026123,-19,-12,-1012,-33,133,-143,109,-27,-140,0.0,150.0,1500.0
13:50:45.280,GUIDED,-35.3632667,149.1652401,23947,-0.08361676335334778,-0.08390695601701736,-0.14481858909130096,-0.03431765362620354,0.1324324756860733,-0.14318549633026123,-19,-12,-1012,-33,133,-143,109,-27,-140,0.0,150.0,1500.0
13:50:45.483,GUIDED,-35.3632667,149.1652401,23947,-0.08361676335334778,-0.08390695601701736,-0.14481858909130096,-0.03431765362620354,0.1324324756860733,-0.14318549633026123,-19,-12,-1012,-33,133,-143,109,-27,-140,0.0,150.0,1500.0
13:50:45.685,GUIDED,-35.3632667,149.1652401,23947,-0.08361676335334778,-0.08390695601701736,-0.14481858909130096,-0.03431765362620354,0.1324324756860733,-0.14318549633026123,-19,-12,-1012,-33,133,-143,109,-27,-140,0.0,150.0,1500.0
13:50:45.886,GUIDED,-35.3632667,149.1652401,23947,-0.08361676335334778,-0.08390695601701736,-0.14481858909130096,-0.03431765362620354,0.1324324756860733,-0.14318549633026123,-19,-12,-1012,-33,133,-143,109,-27,-140,0.0,150.0,1500.0
13:50:46.090,GUIDED,-35.3632667,149.1652401,23947,-0.08361676335334778,-0.08390695601701736,-0.14481858909130096,-0.03431765362620354,0.1324324756860733,-0.14318549633026123,-19,-12,-1012,-33,133,-143,109,-27,-140,0.0,150.0,1500.0
13:50:46.294,GUIDED,-35.3632667,149.1652401,23947,-0.08361676335334778,-0.08390695601701736,-0.14481858909130096,-0.03431765362620354,0.1324324756860733,-0.14318549633026123,-19,-12,-1012,-33,133,-143,109,-27,-140,0.0,150.0,1500.0
13:50:46.496,GUIDED,-35.3632667,149.1652401,23947,-0.08361676335334778,-0.08390695601701736,-0.14481858909130096,-0.03431765362620354,0.1324324756860733,-0.14318549633026123,-19,-12,-1012,-33,133,-143,109,-27,-140,0.0,150.0,1500.0
13:50:46.699,GUIDED,-35.3632667,149.1652401,23947,-0.08361676335334778,-0.08390695601701736,-0.14481858909130096,-0.03431765362620354,0.1324324756860733,-0.14318549633026123,-19,-12,-1012,-33,133,-143,109,-27,-140,0.0,150.0,1500.0
13:50:46.902,GUIDED,-35.3632667,149.1652401,23947,-0.08361676335334778,-0.08390695601701736,-0.14481858909130096,-0.03431765362620354,0.1324324756860733,-0.14318549633026123,-19,-12,-1012,-33,133,-143,109,-27,-140,0.0,150.0,1500.0
13:50:47.107,GUIDED,-35.3632667,149.1652401,23947,-0.08361676335334778,-0.08390695601701736,-0.14481858909130096,-0.03431765362620354,0.1324324756860733,-0.14318549633026123,-19,-12,-1012,-33,133,-143,109,-27,-140,0.0,150.0,1500.0
13:50:47.310,GUIDED,-35.3632667,149.1652401,23947,-0.08361676335334778,-0.08390695601701736,-0.14481858909130096,-0.03431765362620354,0.1324324756860733,-0.14318549633026123,-19,-12,-1012,-33,133,-143,109,-27,-140,0.0,150.0,1500.0
13:50:47.512,GUIDED,-35.3632667,149.1652401,23947,-0.08361676335334778,-0.08390695601701736,-0.14481858909130096,-0.03431765362620354,0.1324324756860733,-0.14318549633026123,-19,-12,-1012,-33,133,-143,109,-27,-140,0.0,150.0,1500.0
13:50:47.715,GUIDED,-35.3632561,149.1652321,25410,-0.049498870968818665,-0.00380537798628211,-0.22931058704853058,0.045350581407547,0.09750033169984818,-0.04339199140667915,-34,-2,-1009,38,91,-55,111,-105,-147,0.0,150.0,1500.0
13:50:47.919,GUIDED,-35.3632516,149.1652258,26173,-0.012258533388376236,0.06734747439622879,-0.25332537293434143,0.05771070718765259,0.08805681765079498,-0.017933368682861328,-39,6,-1016,52,97,-24,81,-118,-153,0.0,150.0,1500.0
13:50:48.123,GUIDED,-35.3632482,149.1652139,27777,0.03534610942006111,0.11894717067480087,-0.26154613494873047,0.07033354043960571,0.04347313567996025,-0.005697031505405903,-16,14,-1004,70,44,-6,-20,-79,-158,0.0,150.0,1500.0
13:50:48.326,GUIDED,-35.3632488,149.1652119,28176,0.052902065217494965,0.12700864672660828,-0.26230713725090027,0.07158536463975906,0.02294585481286049,-0.003182938788086176,-7,16,-1001,72,23,-3,-47,-57,-156,0.0,150.0,1500.0
13:50:48.529,GUIDED,-35.3632488,149.1652119,28176,0.052902065217494965,0.12700864672660828,-0.26230713725090027,0.07158536463975906,0.02294585481286049,-0.003182938788086176,-7,16,-1001,72,23,-3,-47,-57,-156,0.0,150.0,1500.0
13:50:48.732,GUIDED,-35.3632488,149.1652119,28176,0.052902065217494965,0.12700864672660828,-0.26230713725090027,0.07158536463975906,0.02294585481286049,-0.003182938788086176,-7,16,-1001,72,23,-3,-47,-57,-156,0.0,150.0,1500.0
13:50:48.940,GUIDED,-35.3632488,149.1652119,28176,0.052902065217494965,0.12700864672660828,-0.26230713725090027,0.07158536463975906,0.02294585481286049,-0.003182938788086176,-7,16,-1001,72,23,-3,-47,-57,-156,0.0,150.0,1500.0
13:50:49.143,GUIDED,-35.3632488,149.1652119,28176,0.052902065217494965,0.12700864672660828,-0.26230713725090027,0.07158536463975906,0.02294585481286049,-0.003182938788086176,-7,16,-1001,72,23,-3,-47,-57,-156,0.0,150.0,1500.0
13:50:49.347,GUIDED,-35.3632488,149.1652119,28176,0.052902065217494965,0.12700864672660828,-0.26230713725090027,0.07158536463975906,0.02294585481286049,-0.003182938788086176,-7,16,-1001,72,23,-3,-47,-57,-156,0.0,150.0,1500.0
13:50:49.549,GUIDED,-35.3632488,149.1652119,28176,0.052902065217494965,0.12700864672660828,-0.26230713725090027,0.07158536463975906,0.02294585481286049,-0.003182938788086176,-7,16,-1001,72,23,-3,-47,-57,-156,0.0,150.0,1500.0
13:50:49.752,GUIDED,-35.3632488,149.1652119,28176,0.052902065217494965,0.12700864672660828,-0.26230713725090027,0.07158536463975906,0.02294585481286049,-0.003182938788086176,-7,16,-1001,72,23,-3,-47,-57,-156,0.0,150.0,1500.0
13:50:49.957,GUIDED,-35.3632488,149.1652119,28176,0.052902065217494965,0.12700864672660828,-0.26230713725090027,0.07158536463975906,0.02294585481286049,-0.003182938788086176,-7,16,-1001,72,23,-3,-47,-57,-156,0.0,150.0,1500.0
13:50:50.159,GUIDED,-35.3632488,149.1652119,28176,0.052902065217494965,0.12700864672660828,-0.26230713725090027,0.07158536463975906,0.02294585481286049,-0.003182938788086176,-7,16,-1001,72,23,-3,-47,-57,-156,0.0,150.0,1500.0
13:50:50.363,GUIDED,-35.3632488,149.1652119,28176,0.052902065217494965,0.12700864672660828,-0.26230713725090027,0.07158536463975906,0.02294585481286049,-0.003182938788086176,-7,16,-1001,72,23,-3,-47,-57,-156,0.0,150.0,1500.0
13:50:50.565,GUIDED,-35.3632488,149.1652119,28176,0.052902065217494965,0.12700864672660828,-0.26230713725090027,0.07158536463975906,0.02294585481286049,-0.003182938788086176,-7,16,-1001,72,23,-3,-47,-57,-156,0.0,150.0,1500.0
13:50:50.770,GUIDED,-35.3632575,149.1652126,29835,0.12955047190189362,0.09155061095952988,-0.2633613049983978,0.06262484937906265,-0.0821605697274208,0.011618699878454208,28,9,-995,63,-81,11,-123,81,-139,0.0,150.0,1500.0
13:50:50.974,GUIDED,-35.3632575,149.1652126,29835,0.12955047190189362,0.09155061095952988,-0.2633613049983978,0.06262484937906265,-0.0821605697274208,0.011618699878454208,28,9,-995,63,-81,11,-123,81,-139,0.0,150.0,1500.0
13:50:51.181,GUIDED,-35.3632575,149.1652126,29835,0.12955047190189362,0.09155061095952988,-0.2633613049983978,0.06262484937906265,-0.0821605697274208,0.011618699878454208,28,9,-995,63,-81,11,-123,81,-139,0.0,150.0,1500.0
13:50:51.387,GUIDED,-35.3632575,149.1652126,29835,0.12955047190189362,0.09155061095952988,-0.2633613049983978,0.06262484937906265,-0.0821605697274208,0.011618699878454208,28,9,-995,63,-81,11,-123,81,-139,0.0,150.0,1500.0
13:50:51.590,GUIDED,-35.3632575,149.1652126,29835,0.12955047190189362,0.09155061095952988,-0.2633613049983978,0.06262484937906265,-0.0821605697274208,0.011618699878454208,28,9,-995,63,-81,11,-123,81,-139,0.0,150.0,1500.0
13:50:51.794,GUIDED,-35.3632575,149.1652126,29835,0.12955047190189362,0.09155061095952988,-0.2633613049983978,0.06262484937906265,-0.0821605697274208,0.011618699878454208,28,9,-995,63,-81,11,-123,81,-139,0.0,150.0,1500.0
13:50:52.002,GUIDED,-35.3632575,149.1652126,29835,0.12955047190189362,0.09155061095952988,-0.2633613049983978,0.06262484937906265,-0.0821605697274208,0.011618699878454208,28,9,-995,63,-81,11,-123,81,-139,0.0,150.0,1500.0
13:50:52.203,GUIDED,-35.3632575,149.1652126,29835,0.12955047190189362,0.09155061095952988,-0.2633613049983978,0.06262484937906265,-0.0821605697274208,0.011618699878454208,28,9,-995,63,-81,11,-123,81,-139,0.0,150.0,1500.0
13:50:52.407,GUIDED,-35.3632575,149.1652126,29835,0.12955047190189362,0.09155061095952988,-0.2633613049983978,0.06262484937906265,-0.0821605697274208,0.011618699878454208,28,9,-995,63,-81,11,-123,81,-139,0.0,150.0,1500.0
13:50:52.609,GUIDED,-35.3632575,149.1652126,29835,0.12955047190189362,0.09155061095952988,-0.2633613049983978,0.06262484937906265,-0.0821605697274208,0.011618699878454208,28,9,-995,63,-81,11,-123,81,-139,0.0,150.0,1500.0
13:50:52.813,GUIDED,-35.3632575,149.1652126,29835,0.12955047190189362,0.09155061095952988,-0.2633613049983978,0.06262484937906265,-0.0821605697274208,0.011618699878454208,28,9,-995,63,-81,11,-123,81,-139,0.0,150.0,1500.0
13:50:53.016,GUIDED,-35.3632575,149.1652126,29835,0.12955047190189362,0.09155061095952988,-0.2633613049983978,0.06262484937906265,-0.0821605697274208,0.011618699878454208,28,9,-995,63,-81,11,-123,81,-139,0.0,150.0,1500.0
13:50:53.220,GUIDED,-35.3632575,149.1652126,29835,0.12955047190189362,0.09155061095952988,-0.2633613049983978,0.06262484937906265,-0.0821605697274208,0.011618699878454208,28,9,-995,63,-81,11,-123,81,-139,0.0,150.0,1500.0
13:50:53.424,GUIDED,-35.3632657,149.1652246,30935,0.11676573008298874,-0.04226556420326233,-0.2213568389415741,-0.1330142319202423,-0.2599243223667145,0.21206817030906677,45,-13,-1019,-132,-259,211,-92,185,-133,0.0,150.0,1500.0
13:50:53.628,GUIDED,-35.363268,149.1652407,32014,-0.025386054068803787,-0.12960325181484222,-0.16386055946350098,-0.21065428853034973,0.06863374263048172,-0.10148189961910248,28,-36,-1031,-209,69,-101,27,181,-147,0.0,150.0,1500.0
13:50:53.831,GUIDED,-35.3632672,149.1652454,32393,-0.07102549821138382,-0.11224978417158127,-0.19901016354560852,-0.19114254415035248,0.07805335521697998,-0.16098158061504364,22,-39,-1033,-190,78,-161,58,153,-151,0.0,150.0,1500.0
13:50:54.039,GUIDED,-35.3632672,149.1652454,32393,-0.07102549821138382,-0.11224978417158127,-0.19901016354560852,-0.19114254415035248,0.07805335521697998,-0.16098158061504364,22,-39,-1033,-190,78,-161,58,153,-151,0.0,150.0,1500.0
13:50:54.242,GUIDED,-35.3632672,149.1652454,32393,-0.07102549821138382,-0.11224978417158127,-0.19901016354560852,-0.19114254415035248,0.07805335521697998,-0.16098158061504364,22,-39,-1033,-190,78,-161,58,153,-151,0.0,150.0,1500.0
13:50:54.449,GUIDED,-35.3632672,149.1652454,32393,-0.07102549821138382,-0.11224978417158127,-0.19901016354560852,-0.19114254415035248,0.07805335521697998,-0.16098158061504364,22,-39,-1033,-190,78,-161,58,153,-151,0.0,150.0,1500.0
13:50:54.652,GUIDED,-35.3632672,149.1652454,32393,-0.07102549821138382,-0.11224978417158127,-0.19901016354560852,-0.19114254415035248,0.07805335521697998,-0.16098158061504364,22,-39,-1033,-190,78,-161,58,153,-151,0.0,150.0,1500.0
13:50:54.854,GUIDED,-35.3632672,149.1652454,32393,-0.07102549821138382,-0.11224978417158127,-0.19901016354560852,-0.19114254415035248,0.07805335521697998,-0.16098158061504364,22,-39,-1033,-190,78,-161,58,153,-151,0.0,150.0,1500.0
13:50:55.066,GUIDED,-35.3632672,149.1652454,32393,-0.07102549821138382,-0.11224978417158127,-0.19901016354560852,-0.19114254415035248,0.07805335521697998,-0.16098158061504364,22,-39,-1033,-190,78,-161,58,153,-151,0.0,150.0,1500.0
13:50:55.268,GUIDED,-35.3632672,149.1652454,32393,-0.07102549821138382,-0.11224978417158127,-0.19901016354560852,-0.19114254415035248,0.07805335521697998,-0.16098158061504364,22,-39,-1033,-190,78,-161,58,153,-151,0.0,150.0,1500.0
13:50:55.472,GUIDED,-35.3632672,149.1652454,32393,-0.07102549821138382,-0.11224978417158127,-0.19901016354560852,-0.19114254415035248,0.07805335521697998,-0.16098158061504364,22,-39,-1033,-190,78,-161,58,153,-151,0.0,150.0,1500.0
13:50:55.677,GUIDED,-35.3632672,149.1652454,32393,-0.07102549821138382,-0.11224978417158127,-0.19901016354560852,-0.19114254415035248,0.07805335521697998,-0.16098158061504364,22,-39,-1033,-190,78,-161,58,153,-151,0.0,150.0,1500.0
13:50:55.882,GUIDED,-35.3632672,149.1652454,32393,-0.07102549821138382,-0.11224978417158127,-0.19901016354560852,-0.19114254415035248,0.07805335521697998,-0.16098158061504364,22,-39,-1033,-190,78,-161,58,153,-151,0.0,150.0,1500.0
13:50:56.089,GUIDED,-35.3632672,149.1652454,32393,-0.07102549821138382,-0.11224978417158127,-0.19901016354560852,-0.19114254415035248,0.07805335521697998,-0.16098158061504364,22,-39,-1033,-190,78,-161,58,153,-151,0.0,150.0,1500.0
13:50:56.298,GUIDED,-35.3632672,149.1652454,32393,-0.07102549821138382,-0.11224978417158127,-0.19901016354560852,-0.19114254415035248,0.07805335521697998,-0.16098158061504364,22,-39,-1033,-190,78,-161,58,153,-151,0.0,150.0,1500.0
13:50:56.503,GUIDED,-35.3632672,149.1652454,32393,-0.07102549821138382,-0.11224978417158127,-0.19901016354560852,-0.19114254415035248,0.07805335521697998,-0.16098158061504364,22,-39,-1033,-190,78,-161,58,153,-151,0.0,150.0,1500.0
13:50:56.704,GUIDED,-35.3632612,149.1652531,33647,-0.17542654275894165,-0.05429284647107124,-0.34799832105636597,-0.033575497567653656,0.17796246707439423,-0.11281467974185944,-7,-23,-1004,-32,179,-113,94,10,-153,0.0,150.0,1500.0
13:50:56.909,GUIDED,-35.3632569,149.1652493,34784,-0.11658543348312378,0.08231113851070404,-0.3748612105846405,0.07498374581336975,0.1067151427268982,0.03421598672866821,-19,1,-1016,75,107,33,25,-92,-147,0.0,150.0,1500.0
13:50:57.114,GUIDED,-35.3632567,149.1652465,35159,-0.10046155750751495,0.100708968937397,-0.3705664873123169,0.06460469961166382,0.056041620671749115,0.022868752479553223,-20,14,-1006,65,56,22,-9,-105,-147,0.0,150.0,1500.0
13:50:57.321,GUIDED,-35.3632567,149.1652465,35159,-0.10046155750751495,0.100708968937397,-0.3705664873123169,0.06460469961166382,0.056041620671749115,0.022868752479553223,-20,14,-1006,65,56,22,-9,-105,-147,0.0,150.0,1500.0
13:50:57.528,GUIDED,-35.3632567,149.1652465,35159,-0.10046155750751495,0.100708968937397,-0.3705664873123169,0.06460469961166382,0.056041620671749115,0.022868752479553223,-20,14,-1006,65,56,22,-9,-105,-147,0.0,150.0,1500.0
13:50:57.731,GUIDED,-35.3632567,149.1652465,35159,-0.10046155750751495,0.100708968937397,-0.3705664873123169,0.06460469961166382,0.056041620671749115,0.022868752479553223,-20,14,-1006,65,56,22,-9,-105,-147,0.0,150.0,1500.0
13:50:57.936,GUIDED,-35.3632567,149.1652465,35159,-0.10046155750751495,0.100708968937397,-0.3705664873123169,0.06460469961166382,0.056041620671749115,0.022868752479553223,-20,14,-1006,65,56,22,-9,-105,-147,0.0,150.0,1500.0
13:50:58.141,GUIDED,-35.3632567,149.1652465,35159,-0.10046155750751495,0.100708968937397,-0.3705664873123169,0.06460469961166382,0.056041620671749115,0.022868752479553223,-20,14,-1006,65,56,22,-9,-105,-147,0.0,150.0,1500.0
13:50:58.345,GUIDED,-35.3632567,149.1652465,35159,-0.10046155750751495,0.100708968937397,-0.3705664873123169,0.06460469961166382,0.056041620671749115,0.022868752479553223,-20,14,-1006,65,56,22,-9,-105,-147,0.0,150.0,1500.0
13:50:58.547,GUIDED,-35.3632567,149.1652465,35159,-0.10046155750751495,0.100708968937397,-0.3705664873123169,0.06460469961166382,0.056041620671749115,0.022868752479553223,-20,14,-1006,65,56,22,-9,-105,-147,0.0,150.0,1500.0
13:50:58.751,GUIDED,-35.3632567,149.1652465,35159,-0.10046155750751495,0.100708968937397,-0.3705664873123169,0.06460469961166382,0.056041620671749115,0.022868752479553223,-20,14,-1006,65,56,22,-9,-105,-147,0.0,150.0,1500.0
13:50:58.954,GUIDED,-35.3632567,149.1652465,35159,-0.10046155750751495,0.100708968937397,-0.3705664873123169,0.06460469961166382,0.056041620671749115,0.022868752479553223,-20,14,-1006,65,56,22,-9,-105,-147,0.0,150.0,1500.0
13:50:59.162,GUIDED,-35.3632567,149.1652465,35159,-0.10046155750751495,0.100708968937397,-0.3705664873123169,0.06460469961166382,0.056041620671749115,0.022868752479553223,-20,14,-1006,65,56,22,-9,-105,-147,0.0,150.0,1500.0
13:50:59.367,GUIDED,-35.3632567,149.1652465,35159,-0.10046155750751495,0.100708968937397,-0.3705664873123169,0.06460469961166382,0.056041620671749115,0.022868752479553223,-20,14,-1006,65,56,22,-9,-105,-147,0.0,150.0,1500.0
13:50:59.570,GUIDED,-35.3632567,149.1652465,35159,-0.10046155750751495,0.100708968937397,-0.3705664873123169,0.06460469961166382,0.056041620671749115,0.022868752479553223,-20,14,-1006,65,56,22,-9,-105,-147,0.0,150.0,1500.0
13:50:59.776,GUIDED,-35.3632613,149.1652369,36334,-0.032090045511722565,0.12967084348201752,-0.3593791425228119,0.09926695376634598,0.013138112612068653,0.015126924030482769,-5,33,-1003,99,13,14,-117,-102,-141,0.0,150.0,1500.0
13:50:59.981,GUIDED,-35.3632762,149.1652296,37758,0.05536755546927452,0.07721158117055893,-0.31907516717910767,0.054959289729595184,-0.131748229265213,0.0863979384303093,20,41,-1007,56,-100,71,-197,-15,-141,0.0,150.0,1500.0
13:51:00.185,GUIDED,-35.3632892,149.1652311,38886,0.11528225243091583,-0.02114655077457428,-0.267759770154953,0.0841599628329277,-0.11521119624376297,0.06314094364643097,37,22,-1021,84,-114,63,-168,64,-153,0.0,150.0,1500.0
13:51:00.390,GUIDED,-35.3632892,149.1652311,38886,0.11528225243091583,-0.02114655077457428,-0.267759770154953,0.0841599628329277,-0.11521119624376297,0.06314094364643097,37,22,-1021,84,-114,63,-168,64,-153,0.0,150.0,1500.0
13:51:00.593,GUIDED,-35.3632892,149.1652311,38886,0.11528225243091583,-0.02114655077457428,-0.267759770154953,0.0841599628329277,-0.11521119624376297,0.06314094364643097,37,22,-1021,84,-114,63,-168,64,-153,0.0,150.0,1500.0
13:51:00.798,GUIDED,-35.3632892,149.1652311,38886,0.11528225243091583,-0.02114655077457428,-0.267759770154953,0.0841599628329277,-0.11521119624376297,0.06314094364643097,37,22,-1021,84,-114,63,-168,64,-153,0.0,150.0,1500.0
13:51:01.001,GUIDED,-35.3632892,149.1652311,38886,0.11528225243091583,-0.02114655077457428,-0.267759770154953,0.0841599628329277,-0.11521119624376297,0.06314094364643097,37,22,-1021,84,-114,63,-168,64,-153,0.0,150.0,1500.0
13:51:01.204,GUIDED,-35.3632892,149.1652311,38886,0.11528225243091583,-0.02114655077457428,-0.267759770154953,0.0841599628329277,-0.11521119624376297,0.06314094364643097,37,22,-1021,84,-114,63,-168,64,-153,0.0,150.0,1500.0
13:51:01.407,GUIDED,-35.3632892,149.1652311,38886,0.11528225243091583,-0.02114655077457428,-0.267759770154953,0.0841599628329277,-0.11521119624376297,0.06314094364643097,37,22,-1021,84,-114,63,-168,64,-153,0.0,150.0,1500.0
13:51:01.618,GUIDED,-35.3632892,149.1652311,38886,0.11528225243091583,-0.02114655077457428,-0.267759770154953,0.0841599628329277,-0.11521119624376297,0.06314094364643097,37,22,-1021,84,-114,63,-168,64,-153,0.0,90.0,1500.0
13:51:01.823,GUIDED,-35.3632892,149.1652311,38886,0.11528225243091583,-0.02114655077457428,-0.267759770154953,0.0841599628329277,-0.11521119624376297,0.06314094364643097,37,22,-1021,84,-114,63,-168,64,-153,0.0,90.0,1500.0
13:51:02.027,GUIDED,-35.3632892,149.1652311,38886,0.11528225243091583,-0.02114655077457428,-0.267759770154953,0.0841599628329277,-0.11521119624376297,0.06314094364643097,37,22,-1021,84,-114,63,-168,64,-153,0.0,90.0,1500.0
13:51:02.231,GUIDED,-35.3632892,149.1652311,38886,0.11528225243091583,-0.02114655077457428,-0.267759770154953,0.0841599628329277,-0.11521119624376297,0.06314094364643097,37,22,-1021,84,-114,63,-168,64,-153,0.0,90.0,1500.0
13:51:02.435,GUIDED,-35.3632892,149.1652311,38886,0.11528225243091583,-0.02114655077457428,-0.267759770154953,0.0841599628329277,-0.11521119624376297,0.06314094364643097,37,22,-1021,84,-114,63,-168,64,-153,0.0,90.0,1500.0
13:51:02.640,GUIDED,-35.3632892,149.1652311,38886,0.11528225243091583,-0.02114655077457428,-0.267759770154953,0.0841599628329277,-0.11521119624376297,0.06314094364643097,37,22,-1021,84,-114,63,-168,64,-153,0.0,90.0,1500.0
13:51:02.848,GUIDED,-35.3632969,149.165238,39899,0.12472768872976303,-0.13338603079319,-0.21671897172927856,-0.01217603962868452,-0.1790306121110916,0.12333962321281433,36,-2,-1014,-11,-178,123,-78,129,-153,0.0,90.0,1500.0
13:51:03.054,GUIDED,-35.3632941,149.1652544,41330,0.030301444232463837,-0.2579282224178314,-0.11653701961040497,-0.1928931474685669,0.0822187215089798,-0.016145018860697746,9,-34,-979,-122,-119,126,156,156,-118,0.0,90.0,1500.0
13:51:03.258,GUIDED,-35.3632901,149.1652583,41621,-0.01724826544523239,-0.22365261614322662,-0.13690412044525146,-0.2221122831106186,0.15798133611679077,-0.1195404902100563,-17,-58,-1007,-221,158,-119,210,137,-111,0.0,90.0,1500.0
13:51:03.462,GUIDED,-35.3632901,149.1652583,41621,-0.01724826544523239,-0.22365261614322662,-0.13690412044525146,-0.2221122831106186,0.15798133611679077,-0.1195404902100563,-17,-58,-1007,-221,158,-119,210,137,-111,0.0,90.0,1500.0
13:51:03.670,GUIDED,-35.3632901,149.1652583,41621,-0.01724826544523239,-0.22365261614322662,-0.13690412044525146,-0.2221122831106186,0.15798133611679077,-0.1195404902100563,-17,-58,-1007,-221,158,-119,210,137,-111,0.0,90.0,1500.0
13:51:03.873,GUIDED,-35.3632901,149.1652583,41621,-0.01724826544523239,-0.22365261614322662,-0.13690412044525146,-0.2221122831106186,0.15798133611679077,-0.1195404902100563,-17,-58,-1007,-221,158,-119,210,137,-111,0.0,90.0,1500.0
13:51:04.074,GUIDED,-35.3632901,149.1652583,41621,-0.01724826544523239,-0.22365261614322662,-0.13690412044525146,-0.2221122831106186,0.15798133611679077,-0.1195404902100563,-17,-58,-1007,-221,158,-119,210,137,-111,0.0,90.0,1500.0
13:51:04.278,GUIDED,-35.3632901,149.1652583,41621,-0.01724826544523239,-0.22365261614322662,-0.13690412044525146,-0.2221122831106186,0.15798133611679077,-0.1195404902100563,-17,-58,-1007,-221,158,-119,210,137,-111,0.0,90.0,1500.0
