time_stamp,MODE,roll,pitch,yaw,rollspeed,pitchspeed,yawspeed,lat,lon,relative_alt,vx,vy,vz,xacc,yacc,zacc,xgyro,ygyro,zgyro,RTL_ALT
01:36:47,STABILIZE,0.00012259534560143948,0.0015762329567223787,0.029017306864261627,0.00020324441720731556,0.0002584956819191575,0.0024699203204363585,-35.3632621,149.1652374,43.0,-1.0,1.0,0.0,0.0,1.0,-1000.0,0.0,0.0,0.0,1500.0
01:37:01,AUTO,-0.0011669234954752028,0.0009678404312580824,0.023075413890182972,0.0002760938950814307,0.0002860281674657017,0.001519261917565018,-35.3632622,149.1652375,31.666666666666668,-1.0,0.0,0.0,0.0,1.0,-1000.0,0.0,0.0,0.3333333333333333,1500.0
01:37:02,AUTO,-0.0010647419840097427,0.0009948579439272482,0.022778219853838284,0.00024868906863654655,0.00026242729897300404,0.0016004587523639202,-35.36326213333333,149.1652375,5.666666666666667,-0.6666666666666666,0.0,-0.6666666666666666,0.0,1.3333333333333333,-1000.0,0.0,0.6666666666666666,0.3333333333333333,132958.0
01:37:03,AUTO,-0.0009091170698714753,0.0010959669404352705,0.022598446036378544,0.0002710711172161003,0.0002717394575787087,0.0015197947698955734,-35.3632621,149.1652375,11.0,0.0,0.0,-1.0,0.0,1.3333333333333333,-1000.0,0.3333333333333333,0.3333333333333333,0.3333333333333333,132958.0
01:37:05,AUTO,-0.00047682625396798056,0.001651746453717351,0.022045449043313663,0.00031423299030090374,0.0002909338800236583,0.0014888564667974908,-35.3632621,149.1652375,14.333333333333334,0.0,0.0,-0.6666666666666666,0.0,1.3333333333333333,-1000.0,0.0,0.6666666666666666,0.6666666666666666,64103.0
01:37:07,AUTO,0.027397269383072853,-0.0014872423683603604,0.020672326286633808,0.04588013639052709,-0.007433146859208743,0.0016953770730954905,-35.363262033333335,149.16523763333333,1647.3333333333333,1.0,8.666666666666666,-146.66666666666666,0.0,-0.6666666666666666,-1011.3333333333334,45.666666666666664,-6.333333333333333,1.0,64103.0
01:37:08,AUTO,0.019375329837203026,0.011980336081857482,-0.03689654295643171,-0.1411735713481903,0.03505990840494633,-0.07805281629165013,-35.363261333333334,149.16524163333335,3557.6666666666665,7.333333333333333,51.333333333333336,-145.66666666666666,2.6666666666666665,-11.333333333333334,-996.0,-140.0,35.333333333333336,-77.66666666666667,80809.0
01:37:09,AUTO,-0.07597584277391434,0.008711292253186306,-0.07701335350672404,-0.04878515936434269,-0.013642207408944765,-0.04208057373762131,-35.36326093333333,149.16524483333333,4693.0,0.3333333333333333,16.0,-148.0,2.3333333333333335,-4.666666666666667,-1008.6666666666666,-47.666666666666664,-12.333333333333334,-41.666666666666664,80809.0
01:37:11,AUTO,0.020257674080009263,0.009377659764140844,-0.10617472479740779,0.06781442960103352,0.006631514057517052,0.001806203625164926,-35.3632623,149.16523643333332,7769.666666666667,-16.666666666666668,-51.333333333333336,-151.66666666666666,-4.0,12.333333333333334,-1004.0,68.33333333333333,7.0,1.0,15754.0
01:37:13,AUTO,-0.008431440529723963,-0.028834948937098186,-0.052119908233483635,-0.06189519787828127,0.0792416234811147,-0.07074176892638206,-35.3632637,149.16523486666668,10872.333333333334,27.333333333333332,22.0,-148.33333333333334,-1.3333333333333333,-6.666666666666667,-1003.3333333333334,-61.0,79.33333333333333,-70.33333333333333,15754.0
01:37:14,AUTO,-0.010678448791926106,0.021516579513748486,-0.14218992988268533,0.032101997484763466,0.01388157019391656,-0.04159986351927122,-35.36326063333333,149.16523556666667,12807.0,16.666666666666668,-8.666666666666666,-152.33333333333334,-5.0,-1.0,-1001.0,32.333333333333336,14.333333333333334,-41.0,273749.0
01:37:15,AUTO,0.00973098911345005,0.02357128697137038,-0.16026344895362854,0.018633467766145866,-0.006306842376943678,-0.006877536031727989,-35.36325996666667,149.16523473333334,13979.666666666666,-1.0,-7.0,-152.33333333333334,-2.0,0.6666666666666666,-999.0,18.666666666666668,-5.333333333333333,-7.0,273749.0
01:37:17,AUTO,0.0022865584663425884,0.0006797712606688341,-0.16442473232746124,-0.00772993949552377,-0.006934066768735647,-0.01248728297650814,-35.363261433333335,149.16523523333333,17097.333333333332,-11.0,10.666666666666666,-152.0,2.0,0.0,-1000.0,-6.666666666666667,-5.666666666666667,-12.333333333333334,112539.0
01:37:19,AUTO,0.0017757644527591765,0.000515149236889556,-0.21151772638161978,0.0037299987549583116,0.0037454181971649327,-0.02691711795826753,-35.36326213333333,149.16523623333333,20205.0,-1.3333333333333333,2.6666666666666665,-152.33333333333334,0.0,0.0,-1000.0,4.0,4.0,-26.666666666666668,112539.0
01:37:20,AUTO,0.003852033677200476,0.0035193851217627525,-0.24237960577011108,0.0007914495654404163,0.0008781233724827567,-0.020873174692193668,-35.3632621,149.16523633333335,22159.666666666668,-0.3333333333333333,3.0,-153.0,0.0,0.0,-999.6666666666666,1.3333333333333333,1.3333333333333333,-20.666666666666668,192773.0
01:37:21,AUTO,0.0029150735742102065,0.003252679326881965,-0.25748494267463684,-0.0008692235569469631,-0.0008809655555523932,-0.018731119732062023,-35.3632621,149.16523646666667,23327.333333333332,-1.0,3.6666666666666665,-152.66666666666666,0.0,0.0,-999.6666666666666,0.3333333333333333,0.0,-18.666666666666668,192773.0
01:37:23,AUTO,0.0035245458905895552,0.004723299915591876,-0.2547943890094757,0.01936463499441743,-0.005902291586001714,0.03298344276845455,-35.3632622,149.1652367,26436.666666666668,-5.0,0.3333333333333333,-152.66666666666666,0.0,0.3333333333333333,-1000.6666666666666,19.666666666666668,-4.666666666666667,32.333333333333336,163907.0
01:37:25,AUTO,0.0014578111040464137,0.0014673126085350912,-0.20566328863302866,-0.005256788494686286,0.0006113408599048853,0.019518444935480755,-35.3632624,149.16523746666667,29538.0,0.0,7.333333333333333,-152.0,0.0,-0.6666666666666666,-999.6666666666666,-4.0,1.0,18.666666666666668,163907.0
01:37:26,AUTO,-0.000998987234197557,0.0012190873579432566,-0.18374782800674438,0.002717499271966517,0.00027959304861724377,0.018191900104284286,-35.3632624,149.16523803333334,31478.0,0.0,3.0,-152.0,0.0,0.0,-1000.0,3.0,1.0,17.666666666666668,93128.0
01:37:27,AUTO,0.0001752982740678514,0.001105796080082655,-0.17239536345005035,0.0036902298840383687,0.0008228194007339577,0.015549705984691778,-35.36326236666667,149.16523806666666,32644.0,0.0,1.3333333333333333,-152.0,0.0,0.0,-999.6666666666666,4.333333333333333,1.3333333333333333,14.666666666666666,93128.0
01:37:29,AUTO,0.0010954296449199319,0.0013547946388522785,-0.14738605916500092,0.0009040533720205227,-0.0002608373567151527,0.011255025553206602,-35.36326223333334,149.16523793333332,35753.666666666664,0.0,0.0,-152.0,0.0,0.0,-1000.3333333333334,2.0,0.3333333333333333,11.0,135845.0
01:37:31,AUTO,0.0023170302932461104,0.0016946453057850401,-0.12848296761512756,0.0013942997126529615,0.0012365334938901167,0.009887843703230223,-35.3632621,149.16523763333333,38857.0,0.0,0.0,-152.0,0.0,0.0,-999.6666666666666,2.3333333333333335,2.0,9.333333333333334,135845.0
01:37:32,AUTO,0.0016901499669378002,0.0014403618406504393,-0.11911626905202866,-0.000318325978393356,-0.00017823084878424803,0.007363844042023023,-35.3632621,149.1652375,40798.0,-0.6666666666666666,0.0,-152.0,0.0,0.0,-1000.0,0.6666666666666666,0.6666666666666666,7.0,91067.0
01:37:33,AUTO,-0.044666750356554985,0.05124615877866745,0.04635731503367424,-0.09720990682641666,0.051699926455815635,0.4448934594790141,-35.36326223333333,149.1652372,41910.0,-13.333333333333334,-11.333333333333334,-131.33333333333334,1.0,1.6666666666666667,-946.0,-96.0,52.666666666666664,444.3333333333333,91067.0
01:37:35,AUTO,0.03625029698014259,-0.03339480236172676,0.23631570239861807,0.03122542581210534,0.03985686972737312,-0.030192038665215176,-35.363264566666665,149.1652328,43496.666666666664,13.0,13.0,-51.333333333333336,-2.0,2.0,-1001.3333333333334,32.333333333333336,40.333333333333336,-29.333333333333332,133497.0
01:37:37,AUTO,-0.02620410919189453,0.045445734014113746,0.17741718888282776,-0.6423187355200449,0.022633411611119907,0.0003437031991779804,-35.36326136666667,149.16523750000002,44029.333333333336,0.3333333333333333,12.666666666666666,12.0,0.6666666666666666,-34.666666666666664,-969.3333333333334,-641.0,24.0,0.6666666666666666,133497.0
01:37:38,AUTO,-0.020120445018013317,0.04404894014199575,0.1615288257598877,0.08876125017801921,0.011603318154811859,-0.024651126315196354,-35.36326356666667,149.1652365,43879.0,-41.333333333333336,-19.0,2.6666666666666665,6.666666666666667,2.3333333333333335,-1008.6666666666666,89.0,12.333333333333334,-24.0,63592.0
01:37:39,AUTO,-0.04682429631551107,0.04839994882543882,-0.0674533061683178,0.27834315101305646,0.008782335945094625,-0.6751885910828909,-35.3632674,149.16523376666666,43831.666666666664,-70.66666666666667,-37.666666666666664,4.333333333333333,8.0,36.333333333333336,-998.6666666666666,279.6666666666667,9.666666666666666,-674.6666666666666,63592.0
01:37:41,AUTO,-0.10878912607828777,-0.11783675352732341,-1.6019141276677449,-0.2480458120505015,-0.021388635970652103,-0.7041954199473063,-35.36329153333333,149.16521576666665,43423.666666666664,-208.33333333333334,-127.66666666666667,31.0,-56.0,8.0,-989.0,-246.66666666666666,-20.0,-703.0,41293.0
01:37:43,AUTO,0.047111903627713524,-0.20960383117198944,-2.4976858297983804,0.2781083857019742,-0.017890312088032562,0.051624197512865067,-35.36334513333333,149.1651736,42395.0,-387.3333333333333,-249.33333333333334,62.0,-95.66666666666667,-40.333333333333336,-990.0,279.6666666666667,-16.666666666666668,51.666666666666664,41293.0
01:37:44,AUTO,0.051884944240252175,-0.18752365310986838,-2.479105790456136,0.08581548432509105,0.013036898414914807,-0.007304078588883082,-35.36339376666667,149.16513403333332,41526.0,-483.0,-311.3333333333333,66.66666666666667,-118.0,-57.333333333333336,-986.6666666666666,86.66666666666667,13.333333333333334,-7.0,201539.0
01:37:45,AUTO,0.05886575082937876,-0.17480328679084778,-2.484300374984741,0.16071061293284097,0.0272354098657767,-0.018182184547185898,-35.363427300000005,149.16510689999998,40954.333333333336,-519.0,-333.0,79.33333333333333,-123.33333333333333,-67.66666666666667,-974.6666666666666,161.66666666666666,27.666666666666668,-17.666666666666668,201539.0
01:37:47,AUTO,0.07371316353480022,-0.1343973179658254,-2.49534805615743,-0.28324242184559506,0.00411430187523365,0.023453470940391224,-35.363523666666666,149.16503006666667,39162.0,-548.3333333333334,-353.6666666666667,86.0,-137.33333333333334,-92.66666666666667,-988.0,-282.3333333333333,4.666666666666667,24.0,257359.0
01:37:49,AUTO,0.07547229031721751,-0.05703819046417872,-2.5024043718973794,0.20799646774927774,0.04669826850295067,-0.0482102632522583,-35.3636194,149.1649535,37402.333333333336,-496.0,-324.3333333333333,83.0,-124.0,-35.666666666666664,-987.0,210.66666666666666,47.333333333333336,-47.333333333333336,257359.0
01:37:50,AUTO,0.09419796119133632,0.008645625008891026,-2.5026129881540933,0.4666863176971674,0.06750515351692836,0.0075453488777081175,-35.363671000000004,149.16491253333334,36397.333333333336,-401.3333333333333,-268.0,75.33333333333333,-101.0,-71.33333333333333,-984.6666666666666,466.3333333333333,68.0,7.666666666666667,179704.0
01:37:51,AUTO,0.06924916431307793,0.04588464771707853,-2.5035228729248047,-0.6918217738469442,0.03477493797739347,0.03529626068969568,-35.3636962,149.16489226666667,35874.0,-325.0,-222.0,58.666666666666664,-80.66666666666667,-110.0,-1012.6666666666666,-691.6666666666666,35.666666666666664,35.333333333333336,179704.0
01:37:53,AUTO,0.041767917573451996,0.07678912828365962,-2.511040290196737,0.5056135902802149,-0.005344411513457696,-0.006127582862973213,-35.3637382,149.16485806666665,35062.333333333336,-127.66666666666667,-100.66666666666667,20.333333333333332,-33.666666666666664,-7.333333333333333,-1029.3333333333333,506.6666666666667,-4.0,-6.0,272688.0
01:37:55,AUTO,0.019479771455128986,0.03560721750060717,-2.5193156401316323,-0.40862414489189786,-0.016764872707426548,-0.001864999071888936,-35.36375126666666,149.16484896666665,34812.333333333336,-6.333333333333333,-25.333333333333332,5.666666666666667,-5.333333333333333,-22.666666666666668,-1012.0,-406.6666666666667,-14.666666666666666,-1.3333333333333333,272688.0
01:37:56,AUTO,0.01088617080434536,0.00888159677075843,-2.524770895640055,-0.270122691988945,-0.026079212004939716,0.004416244613821618,-35.36375206666667,149.1648488,34794.0,18.666666666666668,-12.333333333333334,0.6666666666666666,0.6666666666666666,-15.666666666666666,-996.3333333333334,-268.0,-24.333333333333332,4.0,198658.0
01:37:57,AUTO,0.011377665835122267,-0.005638637424757083,-2.5276122093200684,0.2797856628894806,-0.014147018858542046,0.005910204568256934,-35.36375183333333,149.1648489,34796.666666666664,16.0,-12.0,0.3333333333333333,0.6666666666666666,8.666666666666666,-996.3333333333334,281.6666666666667,-12.666666666666666,5.333333333333333,198658.0
01:37:59,RTL,0.004534049114833276,0.008532233846684298,-2.532088120778402,0.09416023393472035,0.001275222166441381,0.006352204674233993,-35.3637522,149.16484770000002,34905.666666666664,10.0,-12.666666666666666,-25.0,0.0,4.666666666666667,-1038.0,96.66666666666667,2.3333333333333335,6.333333333333333,75737.0
01:38:01,RTL,-0.005971331459780534,0.0031141478878756366,-2.534045616785685,0.02524387836456299,-0.0029083179154743752,-0.0009079076310930153,-35.3637516,149.16484653333333,36265.0,9.0,-0.6666666666666666,-105.33333333333333,1.3333333333333333,0.0,-1038.0,28.0,-1.0,-0.3333333333333333,75737.0
01:38:02,RTL,0.011684144691874584,-0.0032710065764452643,-2.535647710164388,0.04403820137182871,-0.011276308757563433,0.001152670515390734,-35.363751,149.16484623333335,37905.333333333336,6.666666666666667,-0.6666666666666666,-145.33333333333334,1.0,-0.3333333333333333,-1014.0,46.333333333333336,-9.333333333333334,1.0,73653.0
01:38:03,RTL,0.04289659112691879,-0.013105008440713087,-2.5348183314005532,0.026362582420309384,-0.006596974718074004,-0.00940570809567968,-35.363750466666666,149.16484513333333,39046.666666666664,12.333333333333334,-22.0,-148.0,1.6666666666666667,-4.666666666666667,-997.6666666666666,28.666666666666668,-4.666666666666667,-9.0,73653.0
01:38:05,RTL,-0.06679647540052731,-0.002825434125649432,-2.627619663874308,0.02938760514371097,-0.001319355641802152,-0.02127869427204132,-35.36374803333334,149.16483946666668,42101.333333333336,-8.666666666666666,22.0,-149.0,-0.6666666666666666,2.3333333333333335,-1001.3333333333334,31.666666666666668,0.6666666666666666,-20.333333333333332,160929.0
01:38:07,RTL,0.015768100197116535,-0.013042140752077103,-2.619211435317993,-0.0013979282230138779,0.0004469690223534902,0.01427159869732956,-35.3637505,149.16484723333335,45207.666666666664,-12.333333333333334,29.0,-150.66666666666666,-2.3333333333333335,6.333333333333333,-998.6666666666666,1.3333333333333333,2.0,14.333333333333334,160929.0
01:38:08,RTL,-0.02263749499494831,-0.00423083136168619,-2.6266257762908936,-0.07286999436716239,0.0048437754934032755,-0.015187036866943041,-35.363751400000005,149.16484896666665,47145.0,-9.0,11.666666666666666,-149.0,-1.0,0.3333333333333333,-997.3333333333334,-69.66666666666667,6.333333333333333,-13.666666666666666,250459.0
01:38:09,RTL,-0.031299260134498276,-0.0019867460941895843,-2.6371264457702637,0.04258418455719948,0.0024340167098368206,-0.006358779966831207,-35.363752266666665,149.1648503,48300.666666666664,-18.666666666666668,29.333333333333332,-150.33333333333334,-3.6666666666666665,4.333333333333333,-1003.0,44.666666666666664,3.6666666666666665,-5.333333333333333,250459.0
01:38:11,RTL,0.04016400873661041,-0.01638277806341648,-2.517524242401123,-0.0270979351674517,0.0036840878116587796,-0.014484915882349014,-35.363753,149.16485383333335,51357.0,13.666666666666666,-13.666666666666666,-143.33333333333334,2.0,-2.6666666666666665,-995.3333333333334,-24.0,5.333333333333333,-13.333333333333334,82389.0
01:38:13,RTL,-0.018313045303026836,0.0071382249395052595,-2.527235746383667,-0.00986802609016498,0.003051384895419081,-0.0014792619040235877,-35.3637505,149.16484643333334,54327.333333333336,7.666666666666667,-23.0,-147.66666666666666,1.0,-7.333333333333333,-1002.3333333333334,-6.666666666666667,4.0,-0.3333333333333333,82389.0
01:38:14,RTL,-0.004451237463702758,0.0016113157422902684,-2.5297752221425376,0.04135172814130783,-0.009706149498621622,0.0008104655814046661,-35.363749866666666,149.1648443,56233.666666666664,1.6666666666666667,-3.0,-151.66666666666666,0.0,-1.0,-1005.6666666666666,43.0,-7.333333333333333,1.0,107924.0
01:38:15,RTL,0.01365291140973568,0.0003936398619165023,-2.5366384188334146,-0.01299674374361833,0.004233193350955844,-0.01929683859149615,-35.363749500000004,149.16484356666666,57406.333333333336,6.333333333333333,-9.333333333333334,-152.0,0.6666666666666666,-2.0,-997.6666666666666,-10.333333333333334,6.0,-17.666666666666668,107924.0
01:38:17,RTL,-0.0368511900305748,-0.002632940032829841,-2.5804876486460366,-0.01625737485786279,0.0004991687989483277,-0.01551209855824709,-35.36374876666667,149.16484223333333,60506.666666666664,-11.333333333333334,16.333333333333332,-151.33333333333334,-1.3333333333333333,2.0,-998.6666666666666,-14.0,1.6666666666666667,-14.333333333333334,9069.0
01:38:19,RTL,0.01812854316085577,-3.109063254669309e-05,-2.558814605077108,0.03259091451764107,0.003281767169634501,0.0632476769387722,-35.363752,149.16484926666666,63617.666666666664,-13.0,30.666666666666668,-151.66666666666666,-3.3333333333333335,8.0,-997.3333333333334,34.333333333333336,4.666666666666667,63.666666666666664,9069.0
01:38:20,RTL,0.02642013691365719,-0.008827321386585632,-2.5374935468037925,-0.02299092834194501,0.006417342345230281,-0.008385993540287018,-35.363752266666665,149.16485096666665,65529.333333333336,6.333333333333333,-6.666666666666667,-149.0,0.6666666666666666,-1.0,-1002.3333333333334,-20.0,7.666666666666667,-6.666666666666667,46676.0
01:38:21,RTL,0.0070568117856358486,-0.0017096743977162987,-2.540550947189331,-0.026361153771479923,0.009626651493211588,-6.355667331566413e-05,-35.363751799999996,149.16484976666666,66673.66666666667,9.0,-18.333333333333332,-149.66666666666666,1.0,-4.333333333333333,-1002.0,-23.666666666666668,11.0,0.3333333333333333,46676.0
01:38:23,RTL,-0.004063073700914781,0.002119050652254373,-2.544055700302124,0.027620702361067135,-0.006150455796159804,-0.0001383242585385839,-35.363750733333326,149.1648463,69759.33333333333,4.0,-5.333333333333333,-152.0,0.0,-1.3333333333333333,-1002.3333333333334,29.666666666666668,-4.0,0.6666666666666666,152737.0
01:38:25,RTL,-0.010495728502670923,0.008151201143239936,-2.5877107779184976,-0.12295742332935333,-0.01155889950071772,-0.04003327712416649,-35.3637487,149.16484143333332,72874.0,21.666666666666668,-36.0,-149.33333333333334,5.0,-10.0,-999.6666666666666,-120.33333333333333,-9.666666666666666,-38.333333333333336,152737.0
01:38:26,RTL,-0.09030269831418991,-0.003265784354880452,-2.627847671508789,-0.0049748967091242475,0.001661449670791626,-0.0205487422645092,-35.363748166666674,149.16484036666668,74791.33333333333,-19.333333333333332,34.0,-149.33333333333334,-2.6666666666666665,4.666666666666667,-998.0,-2.3333333333333335,3.0,-18.333333333333332,54563.0
01:38:27,RTL,-0.05553277830282847,0.0030080558887372413,-2.638207117716471,0.07039176175991695,0.01710465146849553,-0.005912527441978455,-35.36375013333333,149.16484499999999,75929.66666666667,-37.666666666666664,77.33333333333333,-148.33333333333334,-8.666666666666666,17.0,-1002.6666666666666,72.0,18.333333333333332,-4.333333333333333,54563.0
01:38:29,RTL,0.12064680457115173,-0.05176863384743532,-2.705688158671061,0.002592734294012189,-0.08056623737017314,0.015696754058202107,-35.3637529,149.1648596,79036.66666666667,15.333333333333334,-11.666666666666666,-151.66666666666666,2.0,1.3333333333333333,-999.3333333333334,4.666666666666667,-78.0,16.666666666666668,140023.0
01:38:31,RTL,-0.11764895419279735,0.04806215688586235,-2.9183497428894043,-0.07081388620038827,0.06298357248306274,-0.07801182568073273,-35.3637537,149.16483943333333,82003.0,-9.333333333333334,-64.33333333333333,-152.66666666666666,3.3333333333333335,-18.333333333333332,-1018.6666666666666,-68.33333333333333,64.33333333333333,-76.0,140023.0
01:38:32,RTL,-0.06903366868694623,0.07476095606883366,-2.8711867332458496,0.07060220216711362,-0.01767574716359377,0.045382392903169,-35.36375263333333,149.16484096666667,83913.33333333333,42.333333333333336,77.0,-146.0,2.6666666666666665,16.333333333333332,-999.0,72.33333333333333,-15.333333333333334,46.666666666666664,21544.0
01:38:33,RTL,-0.021549622373034556,0.009997825448711714,-2.825416405995687,0.0628519058227539,-0.19772703697284064,0.06609143999715646,-35.36374863333333,149.1648485,85023.33333333333,72.66666666666667,100.0,-143.66666666666666,11.0,24.333333333333332,-1004.3333333333334,64.33333333333333,-195.33333333333334,67.0,21544.0
01:38:35,RTL,0.10941187292337418,-0.10772932134568691,-2.7885292768478394,0.028075925540179014,0.1450517347548157,0.011563798179849982,-35.3637484,149.164853925,88044.5,-78.5,-88.0,-138.0,-14.25,-17.25,-985.75,30.25,146.25,13.0,221023.0
01:38:38,RTL,-0.05838346481323242,0.006324706599116325,-2.6784892082214355,0.015986951533704996,-0.12784072756767273,0.12839192152023315,-35.36375005,149.16484355,92857.5,75.0,98.0,-145.5,15.5,23.5,-1009.0,18.0,-125.0,129.5,215806.0
01:38:40,RTL,0.10141946002840996,-0.11197725310921669,-2.4912631511688232,0.09714827686548233,0.08575797826051712,0.13912919163703918,-35.3637481,149.16485875,95949.0,-51.0,-28.0,-148.0,-11.5,0.5,-998.5,99.0,87.5,140.5,210589.0
01:38:41,RTL,0.10108773037791252,-0.03593164589256048,-2.452073097229004,-0.06359276454895735,0.14468993991613388,-0.06536117568612099,-35.36375165,149.164852675,97050.0,-40.25,-110.75,-141.25,-15.75,-21.25,-1003.5,-61.25,146.5,-63.5,99022.0
01:38:42,RTL,-0.10011893883347511,0.07979448512196541,-2.607999563217163,-0.10064871609210968,0.02192213572561741,-0.044951817486435175,-35.363754,149.1648374,98916.5,4.5,-61.0,-153.5,-1.0,-18.5,-1016.0,-98.0,23.5,-43.0,99022.0
01:38:44,RTL,-0.02608240582048893,0.02657433971762657,-2.5046491622924805,0.02147409087046981,-0.10920286551117897,0.10209452733397484,-35.3637504,149.1648481,101945.0,49.0,116.5,-145.5,13.0,24.0,-1005.5,23.5,-106.5,103.5,132142.5
01:38:46,RTL,0.09428029507398605,-0.15316442400217056,-2.449458599090576,0.02595293428748846,0.028217817656695843,0.0072300247848033905,-35.363749150000004,149.1648563,105022.5,-53.0,-99.5,-139.0,-13.5,-14.5,-987.0,28.0,30.0,8.5,165263.0
01:38:47,RTL,0.0346437836997211,0.04635966708883643,-2.5089101791381836,-0.15067500993609428,0.2821078887209296,-0.13842676673084497,-35.36375345,149.16484515,106057.0,-48.75,-141.25,-137.5,-19.25,-30.75,-1028.0,-147.75,283.75,-135.75,262840.0
01:38:48,RTL,-0.08289609476923943,0.1155906431376934,-2.5467543601989746,0.02434089733287692,-0.040466463193297386,0.03444898221641779,-35.363754799999995,149.16483449999998,107966.5,32.0,13.0,-152.5,4.0,-3.0,-997.0,26.0,-37.5,35.5,262840.0
01:38:50,RTL,-0.038490863516926765,-0.07774598337709904,-2.3506211042404175,-0.0019700112752616405,-0.1430111825466156,0.15979527682065964,-35.36374585,149.1648525,110984.0,30.0,91.5,-153.5,17.0,20.0,-1012.5,0.5,-140.0,161.5,200821.0
01:38:52,RTL,0.08862992376089096,-0.05803556181490421,-2.1402342319488525,0.12849820032715797,0.15353276580572128,0.18297549337148666,-35.36375435,149.1648551,114067.0,-78.5,-82.5,-144.5,-25.0,-3.0,-1008.5,130.5,155.5,184.5,138802.0
01:38:53,RTL,0.13066262006759644,0.035454795928671956,-2.033825099468231,-0.0019974808674305677,0.12351815216243267,0.0517651317641139,-35.363757275,149.164846875,115193.0,-2.25,-107.0,-148.25,-18.75,-17.5,-1008.25,0.75,125.5,53.25,27178.0
01:38:54,RTL,-0.04391688946634531,0.1253957487642765,-2.115293025970459,-0.2142055705189705,-0.15328243002295494,0.0312998266890645,-35.3637505,149.1648357,117053.5,112.0,-19.5,-143.5,17.5,-21.5,-1012.0,-211.5,-150.5,33.5,27178.0
01:38:56,RTL,-0.07464553788304329,-0.04652840830385685,-1.961378276348114,-0.0017252657562494278,-0.07290993258357048,0.08451717719435692,-35.3637439,149.1648463,120117.0,-49.0,67.0,-149.5,4.5,16.5,-997.0,1.0,-70.0,86.0,135414.0
01:38:58,RTL,0.09641412645578384,-0.023444329388439655,-1.87882000207901,0.16113556921482086,0.04596751555800438,0.03197590075433254,-35.363758849999996,149.16485375000002,123198.0,-60.5,-8.0,-154.0,-14.0,12.0,-1007.0,163.0,48.0,33.5,243650.0
01:38:59,RTL,0.12711253389716148,0.023982041006092913,-1.9125066697597504,-0.00033798255026340485,0.035661378235090524,-0.07720160577446222,-35.363759925,149.1648523,124358.5,29.0,-26.75,-149.25,-2.25,-5.25,-999.25,2.0,37.5,-74.5,205166.0
01:39:00,RTL,-0.009465010836720467,0.00023438563221134245,-1.961542546749115,-0.283278688788414,-0.008361485495697707,-0.038474489003419876,-35.3637503,149.16484730000002,126182.0,125.0,-47.5,-140.0,12.5,-28.0,-1022.0,-280.5,-5.5,-35.5,205166.0
01:39:02,RTL,-0.0751480907201767,-0.010560245718806982,-2.0499268770217896,0.06296025961637497,0.016957039013504982,-0.013788368552923203,-35.36374565,149.1648437,129275.5,-68.5,20.0,-149.0,-8.5,9.0,-999.0,65.5,19.0,-11.0,191366.0
01:39:04,RTL,0.07186511904001236,0.02950348984450102,-2.0531105995178223,0.07098889723420143,-0.0016586438287049532,0.005895969225093722,-35.3637583,149.16485319999998,132374.0,-21.0,48.5,-155.0,-1.0,14.5,-1003.0,73.0,0.5,7.5,177566.0
01:39:05,RTL,0.10282906331121922,-0.0012611261918209493,-2.0369696617126465,-0.011088787578046322,-0.09977947408333421,0.07644434552639723,-35.363757225,149.164856475,133546.0,50.75,23.5,-149.75,11.25,0.75,-996.25,-8.25,-96.75,78.0,68467.0
01:39:06,RTL,0.005441098473966122,-0.10469480231404305,-1.9376264214515686,-0.15964368730783463,0.14839649200439453,-0.1261424459517002,-35.36374885,149.1648525,135405.5,70.0,-102.5,-140.5,-0.5,-28.0,-1002.5,-156.5,150.0,-123.5,68467.0
01:39:08,RTL,-0.09634003415703773,0.0552873145788908,-2.319827914237976,0.05473047494888306,0.03185715712606907,-0.07286775298416615,-35.36374995,149.16483685,138467.5,-65.0,27.0,-150.0,-13.0,5.0,-998.0,57.0,34.0,-70.0,154243.0
01:39:10,RTL,0.06616950407624245,0.06592330150306225,-2.364695429801941,0.09301845356822014,-0.03912013955414295,0.00652153801638633,-35.36375635,149.1648588,141481.0,41.0,128.5,-149.0,12.0,27.0,-1007.5,95.0,-36.5,8.0,240019.0
01:39:11,RTL,0.08169242553412914,-0.03215625206939876,-2.3102341890335083,-0.010543025331571698,-0.16152215749025345,0.12822697684168816,-35.363751475,149.164867525,142624.0,94.25,74.25,-150.75,26.5,12.0,-1011.5,-7.5,-158.5,129.75,70428.0
01:39:12,RTL,0.006090839393436909,-0.147305466234684,-2.2224074602127075,-0.13840319961309433,-0.0028747719479724765,-0.0024423408322036266,-35.36374215,149.1648673,144546.5,48.5,-92.5,-143.5,6.0,-21.5,-999.0,-135.0,-0.5,0.0,70428.0
01:39:14,RTL,-0.09848137572407722,0.02827775478363037,-2.498240351676941,0.0359903322532773,0.08990742266178131,-0.06667652167379856,-35.363754099999994,149.16484630000002,147483.5,-140.5,-13.5,-148.5,-34.0,-3.5,-1008.5,38.5,92.0,-64.0,181297.0
01:39:16,RTL,0.04705687426030636,0.1406867727637291,-2.5510923862457275,0.0974031612277031,-0.010952810058370233,0.0036006399895995855,-35.36376935,149.1648644,150523.5,34.0,146.5,-144.5,1.0,32.0,-1002.0,100.0,-8.5,5.5,292166.0
01:39:17,RTL,0.1146456878632307,0.09356839209794998,-2.5425294637680054,0.06269780197180808,-0.11099276784807444,0.03665683069266379,-35.3637631,149.1648756,151600.0,144.25,115.25,-137.5,29.5,27.0,-1005.0,65.25,-108.0,38.25,187406.0
01:39:18,RTL,0.10663526877760887,-0.1443575620651245,-2.4393346309661865,-0.10032520070672035,-0.1445312611758709,0.10939563624560833,-35.3637418,149.16488135,153362.5,195.5,-68.0,-141.5,45.5,-16.0,-1026.5,-97.0,-141.5,111.0,187406.0
01:39:20,RTL,-0.1564803048968315,-0.09403038211166859,-2.5730632543563843,-0.1305927000939846,0.33122898638248444,-0.1784905269742012,-35.363734199999996,149.16484309999998,156159.0,-140.5,-188.0,-127.5,-29.5,-44.0,-1046.5,-127.5,333.5,-176.0,112247.0
01:39:22,RTL,-0.08685044944286346,0.1809239611029625,-2.7118512392044067,0.09325877204537392,0.08028754964470863,-0.009695095475763083,-35.3637637,149.16484155,159126.0,-82.5,163.5,-141.5,-25.5,30.0,-1003.0,95.5,82.5,-7.0,37088.0
01:39:23,RTL,-0.0043694982305169106,0.20549539849162102,-2.7071268558502197,0.09317676402861252,-0.030598386889323592,0.03760706668253988,-35.3637645,149.164858325,160144.0,58.25,225.0,-125.0,2.25,51.75,-1000.0,95.5,-28.0,39.25,117440.0
01:39:24,RTL,0.11831037700176239,0.03923790669068694,-2.613947868347168,0.045919422060251236,-0.23415598273277283,0.1515882983803749,-35.3637462,149.1648883,161697.0,255.0,164.0,-130.5,54.0,40.0,-1047.0,49.0,-231.0,153.5,117440.0
01:39:26,RTL,-0.027972213923931122,-0.23988979309797287,-2.472970724105835,-0.1285356692969799,0.03503737784922123,-0.08189493045210838,-35.36371415,149.1648807,164693.5,2.0,-216.0,-128.5,0.5,-44.5,-999.0,-125.0,37.0,-79.0,149456.0
01:39:28,RTL,-0.15794406831264496,0.08307193405926228,-2.6740798950195312,0.020020856522023678,0.18427904695272446,-0.039762698113918304,-35.363747950000004,149.1648419,167193.0,-271.0,-21.0,-149.5,-58.0,-14.5,-1044.5,22.5,186.5,-37.0,181472.0
01:39:29,RTL,-0.12388443574309349,0.20329537242650986,-2.7111717462539673,0.07530369143933058,0.1446747723966837,-0.014797139505390078,-35.363763575,149.16484757499998,168342.25,-175.5,138.5,-148.0,-47.0,21.5,-1017.75,78.0,147.0,-12.25,178170.0
01:39:30,RTL,0.021004955749958754,0.25186824798583984,-2.692800521850586,0.08749140426516533,-0.21388974785804749,0.18250847235321999,-35.363768750000006,149.16487935,169957.0,123.0,293.0,-96.0,12.5,72.5,-983.5,91.0,-210.5,184.5,178170.0
01:39:32,RTL,0.12825380638241768,-0.2312343567609787,-2.4177595376968384,-0.04570341669023037,-0.17410308495163918,0.10843261331319809,-35.36372715,149.16492195,172658.0,219.5,-14.5,-164.0,47.0,-1.5,-1025.5,-42.5,-171.0,110.5,208582.0
01:39:34,RTL,-0.09882635623216629,-0.18556608259677887,-2.5480066537857056,-0.08706490322947502,0.23797736316919327,-0.09205473586916924,-35.3637242,149.16487975,175271.0,-210.0,-255.0,-99.0,-49.5,-59.0,-1009.5,-83.5,240.0,-89.0,238994.0
01:39:35,RTL,-0.11381805688142776,-0.009254877688363194,-2.609540343284607,-0.015187747776508331,0.2021700255572796,-0.03972881194204092,-35.363742275,149.1648625,176146.0,-288.5,-160.25,-132.0,-68.5,-44.0,-1070.0,-11.5,204.5,-36.5,91274.0
01:39:36,RTL,-0.1003401130437851,0.21855879575014114,-2.6689019203186035,0.06565775536000729,0.15505433082580566,-0.006285555195063353,-35.36377235,149.1648557,178110.5,-185.5,85.0,-163.5,-56.0,11.0,-1022.0,68.5,157.0,-4.0,91274.0
01:39:38,RTL,0.14537829905748367,0.057200933806598186,-2.5556774139404297,0.071719691157341,-0.21443001925945282,0.13190702348947525,-35.363761499999995,149.16489705,180631.0,284.0,165.0,-115.0,58.5,31.0,-1064.5,74.5,-211.0,134.0,79319.5
01:39:40,RTL,0.02184795797802508,-0.24211125075817108,-2.5305815935134888,-0.17913135886192322,-0.003944648429751396,-0.12281757965683937,-35.3637168,149.16488255000002,183339.5,100.0,-281.5,-122.0,22.0,-66.0,-1024.5,-175.5,-0.5,-120.0,67365.0
01:39:41,RTL,-0.07382739474996924,-0.23183545470237732,-2.607210099697113,-0.20228689722716808,0.07319017470581457,-0.10045328829437494,-35.363717375,149.164857375,184246.25,-91.25,-312.5,-111.25,-16.75,-72.25,-1011.25,-198.25,75.5,-97.25,50979.0
01:39:42,RTL,-0.1622147262096405,0.038131347857415676,-2.748439073562622,-0.009693911299109459,0.18449029326438904,-0.022770400159060955,-35.363741250000004,149.16482385,185783.0,-276.0,-121.0,-151.0,-67.5,-46.5,-1069.0,-6.0,187.0,-19.5,50979.0
01:39:44,RTL,0.16882382333278656,0.2342548817396164,-2.6457064151763916,0.1014297865331173,-0.4323657900094986,0.02808128297328949,-35.363766,149.16484105,188811.5,134.0,175.0,-111.5,20.0,32.5,-1011.5,104.5,-429.0,30.5,146822.0
01:39:46,RTL,-0.14871027320623398,-0.16259347647428513,-2.5132862329483032,-0.19762354344129562,0.16381088644266129,-0.2700272798538208,-35.36373645,149.16484825,191649.5,21.0,-67.5,-152.0,10.0,-13.5,-1008.5,-194.0,166.5,-267.0,242665.0
01:39:47,RTL,-0.17428632453083992,0.024971232749521732,-2.761528253555298,0.10393465310335159,0.4411369636654854,-0.12649756111204624,-35.363739925,149.16484699999998,192738.25,-82.75,31.5,-132.25,-20.75,2.0,-1001.5,107.25,443.75,-123.5,115254.0
01:39:48,RTL,0.05933631770312786,0.21013318747282028,-2.7701592445373535,0.007600102573633194,-0.1675816848874092,-0.005960732931271195,-35.3637411,149.16486279999998,194087.0,135.5,147.0,-63.5,13.0,37.5,-960.0,11.0,-164.0,-3.5,115254.0
01:39:50,RTL,-0.08952134847640991,0.14468050748109818,-2.805550694465637,-0.0879847090691328,0.040334222838282585,-0.010903631802648306,-35.3636963,149.16489405,194669.0,329.5,159.5,-8.0,64.5,48.5,-986.0,-84.0,42.5,-8.0,188291.0
01:39:52,RTL,-0.12098509445786476,0.1577548012137413,-2.8237310647964478,-0.020952661288902164,-0.015600677113980055,-0.007376575842499733,-35.3636252,149.16494475,194698.0,466.0,293.0,-4.5,102.5,98.0,-1003.5,-17.0,-12.0,-4.0,261328.0
01:39:53,RTL,-0.12027854844927788,0.14318113029003143,-2.82866507768631,0.023673651507124305,-0.019005931448191404,-0.0076909123454242945,-35.363592225,149.1649708,194716.5,502.25,324.5,-3.25,90.5,104.25,-992.0,27.5,-15.25,-4.5,96792.0
01:39:54,RTL,-0.11635186150670052,0.1196783147752285,-2.835734486579895,0.01619082596153021,-0.025905363727360964,-0.00546703883446753,-35.36353355,149.16501820000002,194728.0,538.0,354.5,-3.0,101.5,97.0,-991.0,19.5,-22.0,-2.0,96792.0
01:39:56,RTL,-0.10040522366762161,0.0685328021645546,-2.843540072441101,0.04434811603277922,-0.04889281466603279,-0.0033546171616762877,-35.3634361,149.16509725,194739.0,536.0,353.0,-5.0,97.5,112.5,-998.0,47.5,-45.5,-0.5,149588.5
01:39:58,RTL,-0.0676662027835846,-0.012391290860250592,-2.8508142232894897,-0.10189229249954224,-0.05195007286965847,-0.034644718281924725,-35.363348349999995,149.16516835,194740.5,426.5,281.5,-0.5,73.5,76.5,-998.0,-99.0,-48.0,-31.0,202385.0
01:39:59,RTL,-0.047949996311217546,-0.04784145671874285,-2.852921187877655,0.3111579641699791,-0.04168741311877966,0.0028126880642957985,-35.3633222,149.165189725,194736.75,358.5,238.0,-1.0,69.0,97.5,-996.75,315.25,-37.75,5.5,14889.0
01:40:00,RTL,-0.033138359896838665,-0.0631354097276926,-2.8589401245117188,-0.5102253183722496,-0.009530483279377222,-0.001576113048940897,-35.3632892,149.16521695,194716.0,237.5,159.5,-1.5,43.0,46.5,-1015.0,-505.5,-6.0,1.5,14889.0
01:40:02,RTL,0.012586990371346474,-0.048167867586016655,-2.8678224086761475,0.5476901978254318,0.021455629728734493,-0.0028944588266313076,-35.3632639,149.1652381,194711.0,71.0,49.0,-2.0,10.5,33.0,-1012.5,550.5,24.5,0.0,143218.0
01:40:04,RTL,-0.007083418546244502,-0.006545615382492542,-2.875444531440735,-0.46205754578113556,0.027415978722274303,0.0027924837777391076,-35.3632597,149.16524095,194725.0,7.0,4.5,-0.5,0.0,-13.0,-993.0,-458.0,30.5,5.5,271547.0
01:40:05,RTL,-0.004401557467645034,0.0083948306273669,-2.8778176307678223,0.02897905558347702,0.005219268845394254,-0.00031366210896521807,-35.3632598,149.1652406,194728.0,6.25,3.5,0.0,0.0,-2.75,-997.0,32.5,9.0,2.25,129560.0
01:40:06,RTL,-0.0017075644573196769,-0.006090247305110097,-2.881488800048828,-0.4002899155020714,-0.0009578991448506713,-0.006759582785889506,-35.3632597,149.16524005000002,194730.5,2.5,2.5,0.0,1.0,-27.5,-1003.5,-397.0,2.5,-3.0,129560.0
01:40:08,RTL,-0.003218170371837914,0.0017300883773714304,-2.887411117553711,0.1190844401717186,0.0030273543670773506,-0.001356004737317562,-35.3632607,149.16523884999998,194730.0,-3.5,-0.5,0.0,-1.5,19.0,-1003.5,123.0,6.5,1.0,96238.0
01:40:10,RTL,-0.01181347155943513,0.005096346139907837,-2.8917462825775146,-0.5887327045202255,0.0016490459674969316,-0.0015681673539802432,-35.36326175,149.1652376,194725.0,0.0,2.5,8.5,0.0,-38.0,-952.5,-585.5,5.5,1.5,62916.0
01:40:11,RTL,-0.006304805167019367,0.005253245937637985,-2.8937228322029114,0.8092308935010806,-0.0007188887102529407,0.0028814433608204126,-35.363261875,149.165236975,194473.25,0.0,3.75,53.5,0.25,43.25,-953.25,813.0,3.25,5.5,276893.0
01:40:12,RTL,0.004656298377085477,0.0030572089599445462,-2.895490884780884,1.425992488861084,-0.008397388504818082,-0.00911329546943307,-35.363262,149.1652361,193439.0,1.0,10.0,107.5,0.0,54.0,-983.0,1428.5,-4.5,-5.5,276893.0
01:40:14,RTL,0.013925170991569757,-0.0021185321384109557,-2.899752616882324,-0.5738406926393509,-0.0006384298903867602,-0.002145394217222929,-35.3632624,149.16523775000002,191376.5,2.0,7.0,100.0,-2.5,-59.5,-926.5,-572.0,3.0,1.0,163083.0
01:40:16,RTL,0.004040124011225998,0.0027328674914315343,-2.9029804468154907,-1.2079355716705322,-0.004374888725578785,-0.002356564858928323,-35.3632629,149.1652393,189256.5,5.0,-9.0,99.5,1.0,-73.0,-987.0,-1205.5,0.0,1.0,49273.0
01:40:17,RTL,-0.010878026252612472,0.004705437691882253,-2.9041117429733276,-1.3399714231491089,-0.0008722753264009953,-0.0014664438203908503,-35.363263,149.165238875,188497.5,5.5,-10.25,98.25,1.75,-61.5,-977.0,-1336.25,3.0,1.5,128745.0
01:40:18,RTL,-0.029282293282449245,0.005395496962592006,-2.9053374528884888,-1.5058956146240234,-0.0035766316577792168,0.00118058652151376,-35.3632628,149.16523745,187117.5,6.0,-5.5,105.0,1.0,-52.5,-1016.0,-1502.0,1.0,4.0,128745.0
01:40:20,RTL,-0.029321525245904922,0.0009173981088679284,-2.908003568649292,-0.9425039887428284,0.0069714682176709175,-0.006808833451941609,-35.36326235,149.16523625000002,185039.5,2.5,8.5,96.0,-0.5,-18.0,-1024.5,-938.0,10.5,-3.5,177682.5
01:40:22,RTL,0.0028450392419472337,6.962734914850444e-05,-2.9096566438674927,1.156850516796112,0.004373103380203247,-0.00404762988910079,-35.3632623,149.1652366,183069.5,1.0,6.5,98.0,0.5,68.0,-1031.0,1160.5,8.0,-1.0,226620.0
01:40:23,RTL,0.007520589046180248,0.0003799277401412837,-2.910590648651123,1.327791690826416,4.6537723392248154e-05,0.0010342705063521862,-35.3632623,149.1652366,182305.5,1.0,6.25,96.0,-0.25,57.75,-1049.75,1330.75,4.25,4.25,146259.0
01:40:24,RTL,0.011510645970702171,0.001113946025725454,-2.912225365638733,0.02536192163825035,-0.00369132193736732,-0.006097414647229016,-35.3632623,149.16523675000002,181226.0,0.5,8.5,87.5,1.0,-42.0,-971.5,26.5,1.0,-2.5,146259.0
01:40:26,RTL,-0.020191164687275887,0.0032460528891533613,-2.912788152694702,-1.2697760462760925,-0.0021048234775662422,-0.004740349017083645,-35.3632624,149.16523660000001,179208.5,1.0,7.0,99.0,0.5,-72.0,-988.0,-1268.0,2.0,-1.5,93761.5
01:40:28,RTL,-0.03229575790464878,0.0008598384447395802,-2.9147928953170776,-0.8000838756561279,0.0008735524024814367,0.006591243902221322,-35.3632623,149.16523595,177170.5,1.0,10.5,102.0,-1.0,-12.0,-1007.0,-795.5,5.0,10.0,41264.0
01:40:29,RTL,-0.029092584270983934,0.0009875882387859747,-2.914832353591919,-0.6284674555063248,0.0028716499218717217,0.0055695680202916265,-35.3632623,149.165235975,176399.0,0.5,12.25,102.25,-1.0,11.5,-966.5,-624.0,7.25,8.5,284382.0
01:40:30,RTL,-0.021121466998010874,0.00038067594141466543,-2.9155020713806152,-0.10107842087745667,0.0014289962127804756,0.0023544369032606483,-35.3632623,149.16523635,175091.0,1.0,10.0,103.0,-0.5,41.0,-990.0,-96.5,5.5,5.0,284382.0
01:40:32,RTL,-0.008705890504643321,0.001220318372361362,-2.9161489009857178,0.42305316124111414,0.005308284657076001,0.0027589957462623715,-35.36326245,149.16523705,173049.5,2.5,3.5,101.0,-0.5,55.5,-998.5,426.5,10.0,6.0,202529.0
01:40:34,RTL,0.024209333583712578,-0.004461432807147503,-2.9170247316360474,1.1011552214622498,0.000593006145209074,-0.006635344936512411,-35.3632626,149.16523899999999,170934.0,4.0,-5.0,95.5,-3.0,75.0,-1022.5,1105.0,5.0,-3.0,120676.0
01:40:35,RTL,0.038862970657646656,-0.004031047807075083,-2.917630136013031,1.315844476222992,0.0024853836512193084,-0.0038222663570195436,-35.3632628,149.165240275,170172.25,5.5,-13.75,100.25,-2.75,73.5,-1014.75,1319.25,7.0,0.0,285288.0
01:40:36,RTL,0.0441031027585268,-0.00017660376033745706,-2.9192205667495728,0.5071230232715607,8.875690400600433e-05,-0.004959702957421541,-35.3632631,149.16524145,169007.0,7.0,-27.0,94.0,1.5,-16.0,-941.0,508.0,4.5,-1.0,285288.0
01:40:38,RTL,0.014142695348709822,0.004065520828589797,-2.919437050819397,-0.5529148429632187,0.0041413987055420876,-0.00783436419442296,-35.3632631,149.1652401,166971.0,7.5,-26.0,99.5,3.0,-68.0,-924.5,-551.5,8.5,-4.0,205827.0
01:40:40,RTL,-0.014454453252255917,0.001671518199145794,-2.9198309183120728,-0.8166111707687378,-0.010066181886941195,-0.001015648478642106,-35.36326235,149.16523684999999,164811.5,3.5,-4.5,100.0,1.0,-66.5,-1017.5,-814.5,-4.5,2.5,126366.0
01:40:41,RTL,-0.014857007889077067,-0.002634158736327663,-2.9188624024391174,-1.125192552804947,-0.004392299277242273,-0.0024510211078450084,-35.36326220000001,149.16523669999998,164046.5,2.25,2.5,99.75,-1.0,-64.25,-1006.75,-1122.5,0.5,0.75,227842.0
01:40:42,RTL,0.0028628756990656257,-0.004885826027020812,-2.919328212738037,-1.4005191326141357,0.0022686661686748266,-0.0006895719561725855,-35.36326215,149.1652382,162800.5,0.5,0.5,99.5,-2.0,-64.5,-998.5,-1397.0,7.0,3.0,227842.0
01:40:44,RTL,-0.01140126958489418,0.002186112687923014,-2.9203752279281616,0.05877630366012454,0.0027502356097102165,0.00436347397044301,-35.3632625,149.16523834999998,160767.5,2.5,-10.0,101.0,-0.5,42.5,-980.0,64.5,7.5,7.5,139691.5
01:40:46,RTL,0.016593575477600098,0.0018417341634631157,-2.920689821243286,1.3694312572479248,-2.0143110305070877e-05,-0.0038984144339337945,-35.3632625,149.1652377,158777.5,3.0,-4.5,100.0,1.0,52.5,-1004.5,1373.0,4.5,-0.5,51541.0
01:40:47,RTL,0.011467323172837496,0.0003405369734537089,-2.920690417289734,0.6482036225497723,-0.005898960051126778,-0.0066795742604881525,-35.363262425,149.16523725000002,158015.5,2.25,-1.0,101.5,1.0,-9.25,-981.25,649.75,-1.0,-3.0,148987.0
01:40:48,RTL,0.01966262236237526,-0.001116310158977285,-2.920406460762024,1.1979845762252808,-2.844003029167652e-05,-0.0007337307324633002,-35.3632624,149.16523725000002,156630.0,2.0,1.0,105.0,0.0,49.5,-1081.5,1201.0,4.5,2.0,148987.0
01:40:50,RTL,0.011315088719129562,-0.0003632586740422994,-2.9214805364608765,0.22640344873070717,-0.004368824418634176,-0.012223304947838187,-35.3632624,149.16523745,154561.0,1.0,1.5,98.5,0.5,-32.5,-991.0,227.5,0.5,-8.5,140776.0
01:40:52,RTL,-0.018455413170158863,0.001076781569281593,-2.9210435152053833,-1.393768846988678,0.000860623549669981,0.001435837708413601,-35.3632624,149.1652375,152638.5,1.0,0.5,98.5,-1.5,-49.5,-1023.5,-1389.5,5.5,5.0,132565.0
01:40:53,RTL,-0.017999019008129835,9.069034240383189e-05,-2.921316146850586,-0.6923130266368389,-0.0023602107539772987,0.0022474167053587735,-35.3632624,149.165237525,151865.0,2.5,-0.25,97.75,-1.0,3.0,-997.25,-686.5,2.75,5.5,16719.0
01:40:54,RTL,0.006283002905547619,-0.0021454679081216455,-2.9213156700134277,0.574354350566864,0.0022943620570003986,-0.0007198391249403358,-35.3632625,149.16523825000002,150628.5,3.5,-3.5,96.5,-1.5,66.0,-954.0,579.5,7.0,2.5,16719.0
01:40:56,RTL,0.03375869616866112,-0.002708499087020755,-2.9219014644622803,1.1062175035476685,0.001875325571745634,0.006176624447107315,-35.36326285,149.16524049999998,148600.0,5.5,-19.0,98.5,-2.0,75.0,-984.0,1111.0,6.5,9.5,34424.5
01:40:58,RTL,0.03605281002819538,0.0019311195937916636,-2.922178268432617,1.4119171500205994,0.0017291076947003603,0.006050529074855149,-35.3632632,149.16524075,146514.5,8.0,-29.0,101.5,0.5,49.0,-1013.5,1416.0,6.5,9.5,52130.0
01:40:59,RTL,0.031528196297585964,0.0014410788789973594,-2.922573983669281,1.4354858100414276,0.0016029105754569173,0.0009221847867593169,-35.363263149999995,149.1652406,145743.75,8.75,-27.75,100.0,-0.25,57.5,-1036.5,1440.25,6.75,4.5,100183.0
01:41:00,RTL,0.03569088317453861,0.0017099580727517605,-2.922238349914551,0.9138293862342834,0.002162068383768201,0.000664969440549612,-35.3632631,149.16524045,144525.0,8.0,-25.5,102.0,0.5,9.0,-952.0,917.0,7.5,4.5,100183.0
01:41:02,RTL,0.009774732403457165,0.002393882838077843,-2.9231773614883423,0.03546266257762909,-0.0033662026980891824,-0.007308674859814346,-35.363262750000004,149.1652387,142475.0,6.0,-15.5,98.5,2.5,-38.0,-1005.0,39.0,1.5,-4.0,193578.5
01:41:04,RTL,-0.0048600416630506516,-0.0002940489357570186,-2.9224148988723755,-1.1158066391944885,-0.00621088279876858,-0.006580933928489685,-35.36326235,149.16523765,140262.5,2.0,-3.5,97.0,2.0,-71.0,-987.5,-1111.5,-0.5,-2.0,286974.0
01:41:05,RTL,-0.0126877601724118,-0.0011818493367172778,-2.922844409942627,-1.2367582023143768,-0.002979250275529921,-0.00173788279062137,-35.36326222500001,149.165237375,139498.5,0.75,-0.5,99.5,1.25,-79.0,-990.25,-1232.25,2.25,1.5,92036.0
01:41:06,RTL,-0.02752713579684496,0.0005952016945229843,-2.922499895095825,-0.8455141484737396,0.0038688303902745247,0.004333408200182021,-35.3632621,149.1652368,138355.0,0.0,0.5,90.5,1.0,-17.0,-955.5,-838.5,8.5,7.5,92036.0
01:41:08,RTL,-0.03131401911377907,-0.0006084934284444898,-2.9221277236938477,-0.012936778366565704,-0.0003425485920161009,0.0012084643822163343,-35.36326185,149.16523525000002,136333.5,-1.5,12.5,102.5,1.0,43.0,-994.5,-5.5,5.0,5.5,131399.0
01:41:10,RTL,-0.009470458375290036,-0.004000040236860514,-2.921649217605591,0.6291892826557159,0.0014184201136231422,0.010197826195508242,-35.36326185,149.16523585,134237.0,-2.0,17.0,100.5,-2.5,69.0,-972.0,636.0,6.5,13.5,170762.0
01:41:11,RTL,0.006835187901742756,-0.0036760123330168426,-2.922458529472351,0.9834235310554504,0.004208215395919979,0.001989126205444336,-35.36326199999999,149.165236825,133471.75,-1.25,11.75,99.5,-2.75,72.5,-994.0,989.5,9.0,5.25,176442.0
01:41:12,RTL,0.022071548737585545,-0.0008416604687226936,-2.923207640647888,1.5417808890342712,0.007184292422607541,0.005989926168695092,-35.3632623,149.16523795,132072.5,0.0,0.5,114.5,-0.5,63.5,-1039.5,1546.5,12.0,9.5,176442.0
01:41:14,RTL,-0.004184525227174163,0.003087960067205131,-2.9220937490463257,-0.018522612750530243,-0.0007763365283608437,0.006474778754636645,-35.3632624,149.16523675,129970.5,1.0,1.5,105.5,0.5,-41.5,-966.5,-16.0,4.0,10.5,140216.5
01:41:16,RTL,-0.016900647431612015,-0.004191762767732143,-2.9221630096435547,-1.3141989707946777,0.00536187132820487,-0.008020022767595947,-35.3632621,149.165237,128211.0,0.0,7.5,105.0,-1.5,-39.0,-1001.0,-1308.0,10.5,-4.0,103991.0
01:41:17,RTL,-0.015968081541359425,-0.0037052040570415556,-2.923046052455902,-0.9864776432514191,0.005290045402944088,0.002556264982558787,-35.3632621,149.165237425,127441.0,0.0,2.75,101.75,-1.0,-12.25,-1011.25,-979.75,10.25,6.0,176508.0
01:41:18,RTL,-0.017416583374142647,-0.0015460968133993447,-2.92250919342041,-0.24815042316913605,0.0034913872368633747,0.005855161929503083,-35.3632621,149.16523755,126102.5,0.0,-0.5,104.5,0.5,26.5,-1033.0,-241.0,8.5,9.0,176508.0
01:41:20,RTL,-0.0040509488608222455,0.0009744761628098786,-2.921888828277588,1.1681996583938599,-0.00104915676638484,0.00021681212820112705,-35.3632621,149.1652369,124047.0,0.0,0.5,100.5,0.0,74.0,-998.5,1174.0,4.5,3.5,142288.0
01:41:22,RTL,0.005763956462033093,-0.0016274601221084595,-2.9224947690963745,1.4824435114860535,-0.006002810783684254,-0.005992658901959658,-35.363262,149.165236,121992.5,-1.0,10.5,101.5,0.5,57.0,-1021.5,1487.0,-0.5,-2.0,108068.0
01:41:23,RTL,0.009474631282500923,-0.002848438045475632,-2.9226290583610535,1.3185359835624695,-0.002173116256017238,0.0005727725219912827,-35.3632619,149.16523612499998,121231.25,-1.5,10.25,99.25,-0.75,45.5,-1035.5,1322.5,3.0,4.0,148847.0
01:41:24,RTL,0.01833577547222376,-0.006136031821370125,-2.9220614433288574,0.7135880887508392,-0.0029592402279376984,-0.0016599723603576422,-35.363261949999995,149.16523725,119923.5,-1.0,8.0,105.0,-3.0,3.0,-1009.0,716.0,2.0,1.5,148847.0
01:41:26,RTL,-0.0063591767102479935,-0.0003804748971560912,-2.922950863838196,-1.4194576740264893,0.0025945515371859074,-0.002426965977065265,-35.3632624,149.16523940000002,117864.0,0.0,-12.5,99.5,0.0,-56.5,-994.5,-1415.0,7.5,1.0,200659.0
01:41:28,RTL,-0.012485252227634192,-0.0015991669497452676,-2.9221866130828857,-0.37295928597450256,-0.0031305274460464716,-0.002914662938565016,-35.3632624,149.1652383,115947.5,2.0,-8.0,101.0,-1.0,24.0,-985.5,-366.0,2.5,0.5,252471.0
01:41:29,RTL,-0.0019103070226265118,-0.002572684607002884,-2.9228870272636414,0.22090132161974907,0.0037726005539298058,0.0005216656136326492,-35.3632624,149.16523845,115175.0,1.5,-7.75,99.75,-0.5,45.75,-1025.0,227.5,9.0,3.75,210527.0
01:41:30,RTL,-0.0066995155066251755,-0.001882996060885489,-2.923373222351074,0.06774553563445807,0.0001768695656210184,0.002332610310986638,-35.36326235,149.1652385,113808.5,1.0,-9.5,108.0,0.0,39.5,-1008.0,74.5,5.0,6.0,210527.0
01:41:32,RTL,0.005826655309647322,-0.0017074781353585422,-2.9220749139785767,1.2479352355003357,-0.008966461988165975,-0.005031716078519821,-35.3632623,149.1652379,111746.0,1.0,-6.5,95.5,0.0,69.5,-1017.0,1253.5,-3.0,-1.0,242630.0
01:41:34,RTL,0.024000735953450203,-0.005755108315497637,-2.9224343299865723,-0.8010313212871552,-0.005275034229271114,-0.00543525698594749,-35.36326245,149.16523995,109809.5,2.0,-11.0,102.0,-1.5,-62.5,-992.0,-797.0,0.0,-1.5,274733.0
01:41:35,RTL,0.015492470702156425,-0.0047415479202754796,-2.9233261346817017,-1.3755327463150024,0.0026491573080420494,0.0029295863350853324,-35.36326265,149.16524090000001,109045.25,2.75,-19.75,100.25,-1.0,-64.75,-992.25,-1370.25,7.5,6.75,62562.0
01:41:36,RTL,0.009837367571890354,-0.0023129794280976057,-2.9225531816482544,-1.3486244678497314,0.003858516924083233,-0.003826153581030667,-35.3632628,149.16524175,107789.5,5.0,-32.0,98.0,-0.5,-43.0,-984.0,-1342.0,9.0,0.0,62562.0
01:41:38,RTL,0.015684815123677254,-0.0037031061947345734,-2.9228562116622925,0.21101393643766642,0.0033004875294864178,0.005193726625293493,-35.3632629,149.16524185,105753.0,6.0,-35.5,103.0,-2.0,52.0,-962.0,220.0,8.5,8.5,162772.5
01:41:40,RTL,0.026373003609478474,-0.0012140660837758332,-2.9230271577835083,1.052084058523178,0.0035526403225958347,0.0011358957272022963,-35.3632628,149.1652419,103712.0,5.5,-41.0,97.0,0.0,63.0,-1026.5,1060.5,8.5,5.0,262983.0
01:41:41,RTL,0.026111206505447626,0.0007479181440430693,-2.9228362441062927,1.432619035243988,0.004079389967955649,0.011343864724040031,-35.36326270000001,149.16524092499998,102935.5,4.5,-36.75,99.5,2.25,55.75,-1014.5,1440.0,8.75,15.0,232121.0
01:41:42,RTL,0.0050063858507201076,0.003398642293177545,-2.9226577281951904,1.4772241115570068,-0.0003602642100304365,0.005774775054305792,-35.36326245,149.16523855,101633.5,2.5,-22.0,99.5,3.0,69.0,-1004.5,1485.0,4.5,9.0,232121.0
01:41:44,RTL,-0.0031496278243139386,0.0005638279690174386,-2.9226770401000977,1.263686716556549,-0.015680973418056965,-0.005685380194336176,-35.36326185,149.16523525000002,99595.0,-1.0,7.5,99.5,1.5,33.0,-1020.5,1270.0,-10.0,-1.0,245924.5
01:41:46,RTL,-0.022647881880402565,-0.003100582165643573,-2.9234914779663086,-1.140401005744934,-0.0030372291803359985,-0.005391429178416729,-35.3632616,149.165235,97481.0,-4.0,20.0,98.0,0.0,-71.0,-999.0,-1135.0,2.0,-1.0,259728.0
01:41:47,RTL,-0.027427096385508776,-0.003892242268193513,-2.9223868250846863,-1.432610958814621,-4.7054432798177004e-05,-0.0019223556155338883,-35.3632616,149.16523525,96843.5,-4.25,20.0,97.5,-1.75,-62.0,-986.5,-1426.0,5.0,2.0,36189.0
01:41:48,RTL,-0.0236046239733696,-0.004038339713588357,-2.922222852706909,-0.7717796564102173,0.0013352655805647373,0.00028379098512232304,-35.36326165,149.16523585,95854.0,-4.0,16.0,94.0,-1.0,-9.5,-1029.0,-763.5,6.0,4.5,36189.0
01:41:50,RTL,-0.002392281749052927,-0.002209221071098,-2.9224897623062134,0.7953347861766815,0.0024374881759285927,0.005587292602285743,-35.36326205,149.16523705,93865.5,-2.0,4.5,97.0,1.0,69.5,-984.0,803.5,7.0,9.0,21290.5
01:41:52,RTL,0.006480044685304165,-0.0024178665480576456,-2.922269105911255,1.3591055274009705,-0.0028326695319265127,-0.003644531359896064,-35.363262,149.16523705,91678.0,-1.0,2.0,103.0,0.0,73.0,-1002.5,1366.5,1.5,0.5,6392.0
01:41:53,RTL,0.013073458801954985,-0.004493832471780479,-2.9223767518997192,0.8182460069656372,-0.0030446642776951194,-0.0040088066016323864,-35.363261949999995,149.1652371,90636.25,-2.0,4.25,100.0,0.25,8.5,-1003.5,823.0,1.5,-0.25,61193.0
01:41:54,RTL,0.008447983185760677,-0.003320331801660359,-2.922705054283142,0.02754873037338257,-0.006097070407122374,-0.0038556058425456285,-35.3632619,149.1652372,89648.0,-3.5,3.5,97.5,0.5,-37.0,-971.5,32.0,-1.0,0.0,61193.0
01:41:56,RTL,-0.02462277002632618,-0.0020821760408580303,-2.9221155643463135,-1.2073928713798523,-0.006451877066865563,-0.001981257926672697,-35.3632618,149.1652363,87657.0,-4.0,9.0,98.0,0.0,-58.5,-1044.5,-1200.5,-1.0,2.0,31152.0
01:41:58,RTL,-0.010616301093250513,-0.005192619981244206,-2.9223471879959106,0.011060163378715515,0.006126345135271549,0.00026250281371176243,-35.3632618,149.16523715,85748.5,-3.0,5.5,100.0,-2.0,43.5,-964.5,19.5,10.5,4.0,1111.0
01:42:00,RTL,0.009298862190917134,-0.002983110025525093,-2.9221317768096924,1.243751347064972,0.0014885012060403824,0.002632386051118374,-35.36326205,149.16523805,83668.5,-1.5,-4.0,101.5,-0.5,79.0,-993.5,1251.5,6.0,6.0,177456.0
01:42:04,RTL,-0.01832797145470977,0.0015245133836288005,-2.92281973361969,-0.7567895352840424,-0.004289813572540879,-0.0018061504233628511,-35.36326205,149.16523635,79469.0,-2.0,3.0,98.0,4.0,-66.5,-1023.5,-752.0,0.5,2.0,57244.0
01:42:06,RTL,-0.04059574566781521,-0.0038753360277041793,-2.9217008352279663,-1.44013512134552,-0.004126366227865219,-0.0013467019889503717,-35.3632613,149.1652338,77420.5,-6.5,28.0,96.5,-0.5,-73.0,-973.5,-1435.5,0.5,3.0,286758.0
01:42:09,RTL,-0.034035162068903446,-0.00043818326957989484,-2.9224676489830017,-1.5083646178245544,0.003915347275324166,0.0012080983724445105,-35.3632615,149.16523525,74322.25,-8.0,18.75,105.5,1.75,-62.0,-980.25,-1502.5,8.25,4.75,144348.0
01:42:10,RTL,-0.05141706205904484,0.002679054159671068,-2.9220194816589355,-1.0839751064777374,0.0004590805619955063,0.0030313069000840187,-35.363261449999996,149.1652338,73248.5,-8.0,24.0,101.5,3.0,-36.0,-1094.0,-1078.0,5.0,6.5,144348.0
01:42:14,RTL,0.019654725212603807,-0.007953367428854108,-2.9212578535079956,1.3422415852546692,-0.0011815056204795837,-0.005001884885132313,-35.363261449999996,149.16523575,69197.0,-7.5,26.0,99.0,-5.0,48.0,-1037.0,1345.0,4.0,-1.5,121117.0
01:42:15,RTL,0.019304738845676184,-0.006329505820758641,-2.9215155243873596,-0.006827108561992645,-0.0024900211137719452,-0.00731094361981377,-35.363261875,149.16523762499997,68211.75,-5.25,12.5,89.0,-3.25,-22.25,-1017.75,-4.75,1.75,-3.0,153520.0
01:42:16,RTL,0.014270261861383915,-0.004289689124561846,-2.921605706214905,-0.9253433346748352,-0.0003903446486219764,-0.002701731864362955,-35.363262250000005,149.16523905000003,67272.0,-2.0,0.0,95.0,-1.5,-68.0,-1006.5,-922.5,4.0,1.5,153520.0
01:42:18,RTL,-0.00861971196718514,0.0006530190294142812,-2.9217151403427124,-1.2562170028686523,0.002010252559557557,-0.0016124951653182507,-35.3632626,149.1652393,65252.0,1.0,-13.5,96.0,0.5,-57.5,-1030.0,-1252.0,6.5,2.5,173461.0
01:42:20,RTL,-0.021484214812517166,-5.8982346672564745e-05,-2.9214056730270386,0.2567177340388298,-0.008205778431147337,0.001971703954041004,-35.3632623,149.16523705,63238.5,1.0,-4.0,100.5,0.0,45.0,-1019.0,263.0,-3.0,5.5,173461.0
01:42:21,RTL,0.007553897448815405,-0.0050104340189136565,-2.9204190969467163,1.114544004201889,-0.004022967244964093,-0.003766194044146687,-35.3632621,149.16523715,62234.0,0.0,1.5,94.75,-2.75,61.25,-1029.0,1119.0,0.25,0.0,185817.0
01:42:22,RTL,0.03846200928092003,-0.009130176156759262,-2.9212405681610107,0.98197802901268,-0.006596095627173781,-0.012682562810368836,-35.363262250000005,149.1652391,61245.5,0.5,-3.5,99.5,-4.0,26.0,-971.5,984.0,-2.0,-9.0,185817.0
01:42:24,RTL,0.040729472413659096,-0.004347387468442321,-2.921366333961487,-0.9185223281383514,0.0016509545966982841,-0.0031504599610343575,-35.363263,149.1652433,59161.5,5.0,-37.5,108.0,-0.5,-62.0,-1038.0,-914.5,6.0,0.5,234850.0
01:42:26,RTL,0.0014269748935475945,0.003723341040313244,-2.9211970567703247,-1.3922560811042786,0.0008507296442985535,-0.00584824476391077,-35.363263149999995,149.1652417,57021.0,7.0,-41.5,102.0,1.5,-70.5,-1011.0,-1387.0,5.0,-2.5,234850.0
01:42:27,RTL,-0.014604042284190655,0.0020779314800165594,-2.9205521941184998,-0.9450864270329475,0.0013194408966228366,0.0038744935300201178,-35.363262850000005,149.16524007499999,56022.75,6.25,-31.5,93.25,4.0,-25.0,-995.25,-938.0,5.5,6.75,178042.0
01:42:28,RTL,-0.013921760488301516,0.0014116622623987496,-2.9216115474700928,0.34995026886463165,0.001711326651275158,-0.0003535796422511339,-35.36326245,149.16523835,55053.0,3.5,-19.5,96.5,3.0,46.0,-977.0,357.5,5.5,3.0,178042.0
01:42:30,RTL,-0.006872979924082756,-0.0012719761580228806,-2.920262575149536,1.3987112641334534,-0.0018297710921615362,0.002640369115397334,-35.36326165,149.16523535,52970.0,-2.0,7.5,103.5,1.5,70.0,-1021.0,1405.0,2.5,5.5,126329.0
01:42:32,RTL,-0.0006663425592705607,-0.0023106918088160455,-2.920781970024109,1.141224980354309,-6.931950338184834e-05,0.003849993459880352,-35.3632614,149.16523469999998,50813.5,-5.5,19.0,100.5,0.5,20.0,-974.5,1145.0,4.0,7.0,126329.0
01:42:33,RTL,-0.013717330759391189,-0.0014200218138284981,-2.9205222129821777,-0.07087213546037674,-0.0018783265841193497,-0.0033770340378396213,-35.3632614,149.165234375,49825.25,-7.0,24.75,88.75,0.0,-32.25,-1003.25,-67.25,2.0,0.0,49308.0
01:42:34,RTL,-0.03405239060521126,-0.0020771085983142257,-2.9206833839416504,-1.2765942215919495,0.0009208857081830502,-0.005441282643005252,-35.3632614,149.1652343,48888.0,-7.0,26.5,94.5,-0.5,-58.0,-1001.5,-1272.0,5.0,-1.5,49308.0
01:42:36,RTL,-0.02936297468841076,-0.00482394709251821,-2.9212520122528076,-0.8653538227081299,-0.0020436348859220743,-0.008159435354173183,-35.3632615,149.16523515,46877.5,-6.0,22.0,96.0,-2.5,-8.0,-1021.0,-859.0,2.0,-4.0,70826.0
01:42:38,RTL,0.025127234868705273,-0.00633465196006,-2.9209516048431396,1.2770013809204102,0.003250264562666416,-0.00254369608592242,-35.363261949999995,149.16523815,44877.5,-3.0,4.0,99.5,-2.5,59.5,-1032.5,1281.5,7.5,0.5,70826.0
01:42:39,RTL,0.0368151543661952,-0.005260326899588108,-2.9200251698493958,0.8158489093184471,-0.0018384534632787108,-0.0019110372522845864,-35.36326225,149.16523945,43857.0,-1.0,-5.75,98.75,-2.0,4.5,-983.25,819.0,2.5,1.5,253096.0
01:42:40,RTL,0.030018972232937813,-0.0035413827281445265,-2.9201691150665283,-0.19459585845470428,0.0013869558461010456,-0.004905702080577612,-35.363262500000005,149.16524035,42847.0,0.5,-15.0,99.5,-1.5,-43.5,-1003.5,-192.0,5.5,-2.0,253096.0
01:42:42,RTL,0.0014258742448873818,-0.002218359790276736,-2.9211984872817993,-1.5047979354858398,0.004153608111664653,0.0013791365781798959,-35.363262750000004,149.16524095,40792.5,3.5,-24.5,106.0,-0.5,-47.5,-953.0,-1498.5,7.5,4.0,215460.0
01:42:44,RTL,0.007156258914619684,-0.0011527982132975012,-2.9203048944473267,0.14091205224394798,-0.0011286614462733269,-0.006694209296256304,-35.3632628,149.16524075,38696.5,5.0,-29.5,103.5,0.5,45.0,-988.0,149.0,3.0,-3.0,215460.0
01:42:45,RTL,0.008989269465928373,-0.0005240118771325797,-2.919603168964386,0.7710369750857353,0.00010808079969137907,0.005452757584862411,-35.363262649999996,149.1652401,37650.25,4.5,-27.5,107.5,1.5,64.75,-1004.25,778.75,3.75,8.25,185807.0
01:42:46,RTL,-0.017466633580625057,0.0003863666206598282,-2.9208052158355713,-0.29914426407776773,0.00018648267723619938,0.003782590152695775,-35.36326235,149.16523884999998,36538.0,2.0,-19.5,111.0,3.0,22.0,-974.5,-291.0,4.0,7.0,185807.0
01:42:48,RTL,-0.024928603321313858,-0.0009132944796874654,-2.920229911804199,0.6241920851171017,-0.005361608928069472,-0.0030231951968744397,-35.363261550000004,149.1652354,34517.5,-3.0,5.0,91.5,1.0,47.5,-1015.5,631.5,-1.0,0.5,199010.0
01:42:50,RTL,0.009714022278785706,-0.004818554036319256,-2.920155167579651,1.0082938373088837,0.0016613851767033339,0.0037349811755120754,-35.36326135,149.16523515,32590.5,-7.0,20.0,100.5,-0.5,14.5,-1003.5,1012.0,6.0,7.0,199010.0
01:42:51,RTL,0.011392623535357416,-0.0037900725146755576,-2.9203999042510986,0.6990301311016083,-0.0014514406211674213,-0.005074960354249924,-35.363261449999996,149.1652357,31546.5,-7.0,18.0,105.0,0.25,-11.0,-987.25,702.25,2.5,-1.5,65051.0
01:42:52,RTL,-0.0002298668259754777,-0.0024102338356897235,-2.921023368835449,0.01815143972635269,-0.0028481457848101854,-0.00602904096012935,-35.363261550000004,149.1652357,30495.0,-6.5,15.5,97.5,0.0,-33.5,-1000.0,21.5,1.0,-3.0,65051.0
