time_stamp,MODE,lat,lon,relative_alt,roll,pitch,yaw,rollspeed,pitchspeed,yawspeed,xacc,yacc,zacc,xgyro,ygyro,zgyro,vx,vy,vz,RTL_ALT
14:21:13.581,STABILIZE,-35.3632621,149.1652374,0,-0.0003321263357065618,0.0016124699031934142,0.027137037366628647,0.00014972174540162086,0.00022727827308699489,0.002298142295330763,0,1,-1000,0,0,0,-2,1,0,1500.0
14:21:13.781,STABILIZE,-35.3632621,149.1652374,0,-0.0003321263357065618,0.0016124699031934142,0.027137037366628647,0.00014972174540162086,0.00022727827308699489,0.002298142295330763,0,1,-1000,0,0,1,-2,1,0,1500.0
14:21:13.982,STABILIZE,-35.3632621,149.1652374,0,-0.0003321263357065618,0.0016124699031934142,0.027137037366628647,0.00014972174540162086,0.00022727827308699489,0.002298142295330763,0,1,-1000,0,0,1,-2,1,0,1500.0
14:21:14.183,STABILIZE,-35.3632621,149.1652374,0,-0.00024678316549398005,0.0015434122178703547,0.02686314657330513,0.00024292897433042526,0.0003829497436527163,0.002257350832223892,0,2,-999,0,0,0,-2,0,-1,1500.0
14:21:14.384,STABILIZE,-35.3632622,149.1652374,0,-0.0002698959142435342,0.0014879499794915318,0.026752160862088203,0.00035852580913342535,0.00029781897319480777,0.0024098504800349474,0,1,-1000,0,0,0,-2,0,-1,1500.0
14:21:14.585,STABILIZE,-35.3632622,149.1652374,0,-0.0002698959142435342,0.0014879499794915318,0.026752160862088203,0.00035852580913342535,0.00029781897319480777,0.0024098504800349474,0,1,-1000,0,0,0,-2,0,-1,1500.0
14:21:14.786,STABILIZE,-35.3632622,149.1652374,0,-0.00026684103067964315,0.0013914431910961866,0.02651328779757023,0.00027776596834883094,0.00024346832651644945,0.0022046605590730906,0,1,-1000,0,0,0,-2,0,-1,1500.0
14:21:14.988,STABILIZE,-35.3632622,149.1652374,0,-0.00026684103067964315,0.0013914431910961866,0.02651328779757023,0.00027776596834883094,0.00024346832651644945,0.0022046605590730906,0,1,-1000,0,0,0,-2,0,-1,1500.0
14:21:15.189,STABILIZE,-35.3632622,149.1652374,0,-0.00026684103067964315,0.0013914431910961866,0.02651328779757023,0.00027776596834883094,0.00024346832651644945,0.0022046605590730906,0,1,-1000,0,0,0,-2,0,-1,1500.0
14:21:15.392,STABILIZE,-35.3632622,149.1652374,0,-0.00026684103067964315,0.0013914431910961866,0.02651328779757023,0.00027776596834883094,0.00024346832651644945,0.0022046605590730906,0,1,-1000,0,0,0,-2,0,-1,1500.0
14:21:15.594,STABILIZE,-35.3632622,149.1652374,0,-0.00031332834623754025,0.0012279131915420294,0.026149839162826538,0.00028465798823162913,0.0003453557437751442,0.001964798429980874,0,1,-1000,0,0,0,-1,1,-1,1500.0
14:21:15.795,STABILIZE,-35.3632622,149.1652374,0,-0.00031332834623754025,0.0012279131915420294,0.026149839162826538,0.00028465798823162913,0.0003453557437751442,0.001964798429980874,0,1,-1000,0,0,0,-1,1,-1,1500.0
14:21:15.997,STABILIZE,-35.3632622,149.1652374,0,-0.00031332834623754025,0.0012279131915420294,0.026149839162826538,0.00028465798823162913,0.0003453557437751442,0.001964798429980874,0,1,-1000,0,0,0,-1,1,-1,1500.0
14:21:16.198,STABILIZE,-35.3632622,149.1652374,0,-0.00031332834623754025,0.0012279131915420294,0.026149839162826538,0.00028465798823162913,0.0003453557437751442,0.001964798429980874,0,1,-1000,0,0,0,-1,1,-1,1500.0
14:21:16.399,STABILIZE,-35.3632622,149.1652374,0,-0.00031332834623754025,0.0012279131915420294,0.026149839162826538,0.00028465798823162913,0.0003453557437751442,0.001964798429980874,0,1,-1000,0,0,0,-1,1,-1,1500.0
14:21:16.601,STABILIZE,-35.3632622,149.1652374,0,-0.00031332834623754025,0.0012279131915420294,0.026149839162826538,0.00028465798823162913,0.0003453557437751442,0.001964798429980874,0,1,-1000,0,0,0,-1,1,-1,1500.0
14:21:16.802,STABILIZE,-35.3632622,149.1652374,0,-0.0004926585243083537,0.0010395054705440998,0.02554873377084732,0.00019940437050536275,0.00023343416978605092,0.0021202771458774805,0,1,-1000,0,0,0,-1,1,-1,1500.0
14:21:17.003,STABILIZE,-35.3632622,149.1652374,0,-0.0004926585243083537,0.0010395054705440998,0.02554873377084732,0.00019940437050536275,0.00023343416978605092,0.0021202771458774805,0,1,-1000,0,0,0,-1,1,-1,1500.0
14:21:17.204,STABILIZE,-35.3632622,149.1652374,0,-0.0004926585243083537,0.0010395054705440998,0.02554873377084732,0.00019940437050536275,0.00023343416978605092,0.0021202771458774805,0,1,-1000,0,0,0,-1,1,-1,1500.0
14:21:17.405,STABILIZE,-35.3632622,149.1652374,0,-0.0004926585243083537,0.0010395054705440998,0.02554873377084732,0.00019940437050536275,0.00023343416978605092,0.0021202771458774805,0,1,-1000,0,0,0,-1,1,-1,1500.0
14:21:17.607,STABILIZE,-35.3632621,149.1652375,0,-0.0002778336638584733,0.0009979559108614922,0.025224747136235237,0.00021068553905934095,0.0002988377236761153,0.0020903158001601696,0,1,-1000,0,0,0,-1,2,0,1500.0
14:21:17.808,STABILIZE,-35.3632621,149.1652375,0,-0.0003472532844170928,0.00098045589402318,0.02510956861078739,0.00031843106262385845,0.0002734063018579036,0.001948223332874477,0,1,-1000,0,0,0,-1,2,0,1500.0
14:21:18.009,STABILIZE,-35.3632621,149.1652375,0,-0.0003472532844170928,0.00098045589402318,0.02510956861078739,0.00031843106262385845,0.0002734063018579036,0.001948223332874477,0,1,-1000,0,0,0,-1,2,0,1500.0
14:21:18.210,STABILIZE,-35.3632621,149.1652375,0,-0.00040859836735762656,0.0009735007188282907,0.024997251108288765,0.0003608389524742961,0.0002642147883307189,0.0019353216048330069,0,1,-1000,0,0,0,-1,2,0,1500.0
14:21:18.412,STABILIZE,-35.3632621,149.1652375,0,-0.0004776489222422242,0.0009747324511408806,0.024878254160284996,0.0003146614762954414,0.00030331365996971726,0.0018963668262585998,0,1,-1000,0,0,0,-1,2,0,1500.0
14:21:18.614,STABILIZE,-35.3632621,149.1652375,0,-0.0004776489222422242,0.0009747324511408806,0.024878254160284996,0.0003146614762954414,0.00030331365996971726,0.0018963668262585998,0,1,-1000,0,0,0,-1,2,0,1500.0
14:21:18.815,STABILIZE,-35.3632621,149.1652375,0,-0.0004776489222422242,0.0009747324511408806,0.024878254160284996,0.0003146614762954414,0.00030331365996971726,0.0018963668262585998,0,1,-1000,1,0,0,-1,2,0,1500.0
14:21:19.017,STABILIZE,-35.3632621,149.1652375,0,-0.0004776489222422242,0.0009747324511408806,0.024878254160284996,0.0003146614762954414,0.00030331365996971726,0.0018963668262585998,0,1,-1000,1,0,0,-1,2,0,1500.0
14:21:19.219,STABILIZE,-35.3632621,149.1652375,0,-0.0004776489222422242,0.0009747324511408806,0.024878254160284996,0.0003146614762954414,0.00030331365996971726,0.0018963668262585998,0,1,-1000,1,0,0,-1,2,0,1500.0
14:21:19.428,STABILIZE,-35.3632621,149.1652375,0,-0.0004776489222422242,0.0009747324511408806,0.024878254160284996,0.0003146614762954414,0.00030331365996971726,0.0018963668262585998,0,1,-1000,1,0,0,-1,2,0,1500.0
14:21:19.630,STABILIZE,-35.3632621,149.1652375,0,-0.0004776489222422242,0.0009747324511408806,0.024878254160284996,0.0003146614762954414,0.00030331365996971726,0.0018963668262585998,0,1,-1000,1,0,0,-1,2,0,1500.0
14:21:19.831,STABILIZE,-35.3632621,149.1652375,0,-0.0008024013368412852,0.0009338791132904589,0.024296581745147705,0.00016818009316921234,0.00022264797007665038,0.0017577934777364135,0,1,-1000,1,0,0,-1,1,0,1500.0
14:21:20.033,STABILIZE,-35.3632621,149.1652375,0,-0.0008471998735330999,0.0009333686903119087,0.024219607934355736,0.0001380625762976706,0.00031095545273274183,0.00188450759742409,0,1,-1000,1,0,0,-1,1,0,1500.0
14:21:20.234,STABILIZE,-35.3632621,149.1652375,0,-0.0008471998735330999,0.0009333686903119087,0.024219607934355736,0.0001380625762976706,0.00031095545273274183,0.00188450759742409,0,1,-1000,1,0,0,-1,1,0,1500.0
14:21:20.436,STABILIZE,-35.3632621,149.1652375,0,-0.0008694568532519042,0.0009344554855488241,0.02414313331246376,0.0002598926075734198,0.0002735171583481133,0.0019036061130464077,0,1,-1000,1,0,0,-1,1,0,1500.0
14:21:20.637,STABILIZE,-35.3632621,149.1652375,0,-0.0008930635522119701,0.0009340138640254736,0.024058928713202477,0.00019295787205919623,0.0003057039575651288,0.0018674643943086267,0,1,-1000,0,0,0,-1,1,0,1500.0
14:21:20.838,STABILIZE,-35.3632621,149.1652375,0,-0.0008930635522119701,0.0009340138640254736,0.024058928713202477,0.00019295787205919623,0.0003057039575651288,0.0018674643943086267,0,1,-1000,0,0,0,-1,1,0,1500.0
14:21:21.040,STABILIZE,-35.3632621,149.1652375,0,-0.0008930635522119701,0.0009340138640254736,0.024058928713202477,0.00019295787205919623,0.0003057039575651288,0.0018674643943086267,0,1,-1000,0,0,0,-1,1,0,1500.0
14:21:21.241,STABILIZE,-35.3632621,149.1652375,0,-0.0008930635522119701,0.0009340138640254736,0.024058928713202477,0.00019295787205919623,0.0003057039575651288,0.0018674643943086267,0,1,-1000,0,0,0,-1,1,0,1500.0
14:21:21.442,STABILIZE,-35.3632621,149.1652375,0,-0.0008930635522119701,0.0009340138640254736,0.024058928713202477,0.00019295787205919623,0.0003057039575651288,0.0018674643943086267,0,1,-1000,0,0,0,-1,1,0,1500.0
14:21:21.644,STABILIZE,-35.3632621,149.1652375,0,-0.0008930635522119701,0.0009340138640254736,0.024058928713202477,0.00019295787205919623,0.0003057039575651288,0.0018674643943086267,0,1,-1000,0,0,0,-1,1,0,1500.0
14:21:21.845,STABILIZE,-35.3632621,149.1652375,0,-0.0009976878063753247,0.0009533336851745844,0.023666340857744217,0.00025049742544069886,0.00033822556724771857,0.0018594039138406515,0,1,-1000,0,0,0,-1,1,0,1500.0
14:21:22.047,STABILIZE,-35.3632621,149.1652375,0,-0.0010207658633589745,0.000951733672991395,0.02361215464770794,0.000249529373832047,0.000301547406706959,0.0017280546016991138,0,1,-1000,0,1,0,-1,1,0,1500.0
14:21:22.248,STABILIZE,-35.3632621,149.1652375,0,-0.0010207658633589745,0.000951733672991395,0.02361215464770794,0.000249529373832047,0.000301547406706959,0.0017280546016991138,0,1,-1000,0,1,0,-1,1,0,1500.0
14:21:22.449,STABILIZE,-35.3632621,149.1652375,0,-0.0010207658633589745,0.000951733672991395,0.02361215464770794,0.000249529373832047,0.000301547406706959,0.0017280546016991138,0,1,-1000,0,1,0,-1,1,0,1500.0
14:21:22.650,STABILIZE,-35.3632621,149.1652375,0,-0.0010404088534414768,0.0009600474149920046,0.023471424356102943,0.00017754168948158622,0.0003175166202709079,0.0017535056686028838,0,1,-1000,0,0,0,-1,1,0,1500.0
14:21:22.851,STABILIZE,-35.3632622,149.1652375,0,-0.0010564287658780813,0.0009647682891227305,0.023408276960253716,0.00022236775839701295,0.00026230356888845563,0.00179755047429353,0,1,-1000,0,0,0,-1,1,0,1500.0
14:21:23.052,STABILIZE,-35.3632622,149.1652375,0,-0.0010564287658780813,0.0009647682891227305,0.023408276960253716,0.00022236775839701295,0.00026230356888845563,0.00179755047429353,0,1,-1000,0,0,0,-1,1,0,1500.0
14:21:23.254,STABILIZE,-35.3632622,149.1652375,0,-0.0010564287658780813,0.0009647682891227305,0.023408276960253716,0.00022236775839701295,0.00026230356888845563,0.00179755047429353,0,1,-1000,0,0,0,-1,1,0,1500.0
14:21:23.455,STABILIZE,-35.3632622,149.1652375,0,-0.0010564287658780813,0.0009647682891227305,0.023408276960253716,0.00022236775839701295,0.00026230356888845563,0.00179755047429353,0,1,-1000,0,0,0,-1,1,0,1500.0
14:21:23.656,STABILIZE,-35.3632622,149.1652375,0,-0.0010927405674010515,0.0009691054001450539,0.02321353368461132,0.00014729012036696076,0.0003034797846339643,0.001603925134986639,0,1,-1000,0,1,1,-1,1,0,1500.0
14:21:23.857,STABILIZE,-35.3632622,149.1652375,0,-0.0010927405674010515,0.0009691054001450539,0.02321353368461132,0.00014729012036696076,0.0003034797846339643,0.001603925134986639,0,2,-1000,0,0,0,-1,1,0,1500.0
14:21:24.059,STABILIZE,-35.3632622,149.1652375,0,-0.0010927405674010515,0.0009691054001450539,0.02321353368461132,0.00014729012036696076,0.0003034797846339643,0.001603925134986639,0,2,-1000,0,0,0,-1,1,0,1500.0
14:21:24.260,STABILIZE,-35.3632622,149.1652375,0,-0.0010927405674010515,0.0009691054001450539,0.02321353368461132,0.00014729012036696076,0.0003034797846339643,0.001603925134986639,0,2,-1000,0,0,0,-1,1,0,1500.0
14:21:24.461,STABILIZE,-35.3632622,149.1652375,0,-0.0011136316461488605,0.0009680887451395392,0.02302325889468193,0.000271809461992234,0.0002906793961301446,0.0016376712592318654,0,2,-1000,0,0,0,-1,1,0,1500.0
14:21:24.662,STABILIZE,-35.3632622,149.1652375,0,-0.0011136316461488605,0.0009680887451395392,0.02302325889468193,0.000271809461992234,0.0002906793961301446,0.0016376712592318654,0,2,-1000,0,0,0,-1,1,0,1500.0
14:21:24.863,STABILIZE,-35.3632622,149.1652375,0,-0.0009748200536705554,0.0009736031643114984,0.02290191873908043,0.00024094496620818973,0.0002301092608831823,0.0017502668779343367,0,1,-1000,0,0,0,-1,2,1,1500.0
14:21:25.065,STABILIZE,-35.3632622,149.1652375,0,-0.0009748200536705554,0.0009736031643114984,0.02290191873908043,0.00024094496620818973,0.0002301092608831823,0.0017502668779343367,0,1,-1000,0,0,0,-1,2,1,1500.0
14:21:25.266,STABILIZE,-35.3632622,149.1652375,0,-0.0009748200536705554,0.0009736031643114984,0.02290191873908043,0.00024094496620818973,0.0002301092608831823,0.0017502668779343367,0,1,-1000,0,0,0,-1,2,1,1500.0
14:21:25.467,STABILIZE,-35.3632622,149.1652375,0,-0.0009748200536705554,0.0009736031643114984,0.02290191873908043,0.00024094496620818973,0.0002301092608831823,0.0017502668779343367,0,1,-1000,0,0,0,-1,2,1,1500.0
14:21:25.668,STABILIZE,-35.3632622,149.1652375,0,-0.0010620279936119914,0.0009727887227199972,0.022726261988282204,0.00031524529913440347,0.0002914112410508096,0.0017536331433802843,0,2,-1000,0,1,0,-1,1,1,1500.0
14:21:25.869,STABILIZE,-35.3632622,149.1652375,0,-0.0010620279936119914,0.0009727887227199972,0.022726261988282204,0.00031524529913440347,0.0002914112410508096,0.0017536331433802843,0,1,-1000,0,0,0,-1,1,0,1500.0
14:21:26.071,STABILIZE,-35.3632622,149.1652375,0,-0.0011205312330275774,0.0009688528953120112,0.02261877804994583,0.00023311126278713346,0.00020321225747466087,0.0015806297305971384,0,2,-1000,0,1,0,-1,1,0,1500.0
14:21:26.272,STABILIZE,-35.3632622,149.1652375,0,-0.0011205312330275774,0.0009688528953120112,0.02261877804994583,0.00023311126278713346,0.00020321225747466087,0.0015806297305971384,0,2,-1000,0,1,0,-1,1,0,1500.0
14:21:26.473,STABILIZE,-35.3632622,149.1652375,0,-0.0011205312330275774,0.0009688528953120112,0.02261877804994583,0.00023311126278713346,0.00020321225747466087,0.0015806297305971384,0,2,-1000,0,1,0,-1,1,0,1500.0
14:21:26.674,STABILIZE,-35.3632622,149.1652375,0,-0.0011205312330275774,0.0009688528953120112,0.02261877804994583,0.00023311126278713346,0.00020321225747466087,0.0015806297305971384,0,2,-1000,0,1,0,-1,1,0,1500.0
14:21:26.876,STABILIZE,-35.3632622,149.1652375,0,-0.0011696536093950272,0.0009806911693885922,0.022456331178545952,0.00021037232363596559,0.000336809316650033,0.0016001486219465733,0,1,-1000,1,0,0,-1,1,0,1500.0
14:21:27.077,STABILIZE,-35.3632622,149.1652375,0,-0.0011696536093950272,0.0009806911693885922,0.022456331178545952,0.00021037232363596559,0.000336809316650033,0.0016001486219465733,0,1,-1000,1,0,0,-1,1,0,1500.0
14:21:27.278,STABILIZE,-35.3632622,149.1652375,0,-0.0011696536093950272,0.0009806911693885922,0.022456331178545952,0.00021037232363596559,0.000336809316650033,0.0016001486219465733,0,1,-1000,1,0,0,-1,1,0,1500.0
14:21:27.480,STABILIZE,-35.3632622,149.1652375,0,-0.0011696536093950272,0.0009806911693885922,0.022456331178545952,0.00021037232363596559,0.000336809316650033,0.0016001486219465733,0,1,-1000,1,0,0,-1,1,0,1500.0
14:21:27.681,STABILIZE,-35.3632622,149.1652375,0,-0.0011970881605520844,0.0009861979633569717,0.022310014814138412,0.0003362034331075847,0.00024475285317748785,0.0017597984988242388,0,1,-1000,1,0,0,-1,1,0,1500.0
14:21:27.882,STABILIZE,-35.3632622,149.1652375,0,-0.0011970881605520844,0.0009861979633569717,0.022310014814138412,0.0003362034331075847,0.00024475285317748785,0.0017597984988242388,0,2,-1000,0,1,1,-1,1,0,1500.0
14:21:28.084,AUTO,-35.3632622,149.1652375,0,-0.0008952090865932405,0.0009926463244482875,0.02222181111574173,0.0003369480837136507,0.00029043114045634866,0.0015430080238729715,0,2,-1000,0,1,1,-1,1,0,1500.0
14:21:28.286,AUTO,-35.3632622,149.1652375,0,-0.0008962993742898107,0.0009904520120471716,0.022172681987285614,0.0003348409663885832,0.00017655774718150496,0.0014593037776648998,0,1,-1000,0,1,0,-1,1,0,1500.0
14:21:28.487,AUTO,-35.3632622,149.1652375,0,-0.0008962993742898107,0.0009904520120471716,0.022172681987285614,0.0003348409663885832,0.00017655774718150496,0.0014593037776648998,0,1,-1000,0,1,0,-1,1,0,1500.0
14:21:28.688,AUTO,-35.3632622,149.1652375,0,-0.0008947903988882899,0.0009939324809238315,0.022121384739875793,0.00027893937658518553,0.00030392082408070564,0.0014862287789583206,0,1,-1000,1,1,1,-1,1,0,1500.0
14:21:28.890,AUTO,-35.3632622,149.1652375,1,-0.0008962731808423996,0.0009996977169066668,0.02206808142364025,0.00017527450108900666,0.00024591764668002725,0.0014619054272770882,0,1,-1000,0,1,1,-1,1,0,1500.0
14:21:29.091,AUTO,-35.3632622,149.1652375,1,-0.0008962731808423996,0.0009996977169066668,0.02206808142364025,0.00017527450108900666,0.00024591764668002725,0.0014619054272770882,0,1,-1000,0,1,1,-1,1,0,1500.0
14:21:29.293,AUTO,-35.3632622,149.1652375,1,-0.0008962731808423996,0.0009996977169066668,0.02206808142364025,0.00017527450108900666,0.00024591764668002725,0.0014619054272770882,0,1,-1000,0,1,1,-1,1,0,1500.0
14:21:29.495,AUTO,-35.3632622,149.1652375,1,-0.0008962731808423996,0.0009996977169066668,0.02206808142364025,0.00017527450108900666,0.00024591764668002725,0.0014619054272770882,0,1,-1000,0,1,1,-1,1,0,1500.0
14:21:29.696,AUTO,-35.3632621,149.1652375,1,-0.00080881267786026,0.0011145130265504122,0.021912189200520515,0.0002982879523187876,0.0003226115950383246,0.0014763183426111937,0,1,-1000,0,0,0,0,0,0,1500.0
14:21:29.898,AUTO,-35.3632621,149.1652375,1,-0.0007620553369633853,0.001165228197351098,0.021853093057870865,0.00028481229674071074,0.00029872613959014416,0.001556347357109189,0,1,-1000,0,1,1,0,0,0,1500.0
14:21:30.105,AUTO,-35.3632621,149.1652375,1,-0.0007166070281527936,0.0012199286138638854,0.021784821525216103,0.00034247664734721184,0.00028613401809707284,0.0014565507881343365,0,2,-1000,0,0,0,0,0,0,1500.0
14:21:30.307,AUTO,-35.3632621,149.1652375,2,-0.0006599698681384325,0.0012833804357796907,0.021721279248595238,0.0003392784856259823,0.00025250751059502363,0.001645050011575222,0,1,-1000,1,1,0,0,0,0,279075.0
14:21:30.509,AUTO,-35.3632621,149.1652375,2,-0.0006599698681384325,0.0012833804357796907,0.021721279248595238,0.0003392784856259823,0.00025250751059502363,0.001645050011575222,0,1,-1000,1,1,0,0,0,0,279075.0
14:21:30.711,AUTO,-35.3632621,149.1652375,2,-0.0006059138104319572,0.0013511403230950236,0.021642860025167465,0.0003471106174401939,0.00030292972223833203,0.001395820640027523,0,2,-1000,0,1,1,0,0,0,279075.0
14:21:30.913,AUTO,-35.3632621,149.1652375,2,-0.0005504366126842797,0.0014184253523126245,0.021575668826699257,0.00023581006098538637,0.0003053603577427566,0.0014607843477278948,0,2,-1000,0,0,1,0,0,0,279075.0
14:21:31.115,AUTO,-35.3632621,149.1652375,2,-0.0005504366126842797,0.0014184253523126245,0.021575668826699257,0.00023581006098538637,0.0003053603577427566,0.0014607843477278948,0,2,-1000,0,0,1,0,0,0,279075.0
14:21:31.325,AUTO,-35.3632621,149.1652375,2,-0.0005504366126842797,0.0014184253523126245,0.021575668826699257,0.00023581006098538637,0.0003053603577427566,0.0014607843477278948,0,2,-1000,0,0,1,0,0,0,279075.0
14:21:31.527,AUTO,-35.3632621,149.1652375,3,-0.00026109302416443825,0.00163630535826087,0.02137848734855652,0.0002877265214920044,0.00028057891177013516,0.0013742742594331503,0,1,-1000,0,0,0,0,0,0,279075.0
14:21:31.728,AUTO,-35.3632621,149.1652375,3,-0.00026109302416443825,0.00163630535826087,0.02137848734855652,0.0002877265214920044,0.00028057891177013516,0.0013742742594331503,0,1,-1000,0,0,0,0,0,0,279075.0
14:21:31.930,AUTO,-35.3632621,149.1652375,3,-0.00019153788161929697,0.0017107933526858687,0.021303270012140274,0.00036717928014695644,0.0003437735722400248,0.0014108129544183612,0,1,-1000,0,0,1,0,0,0,279075.0
14:21:32.131,AUTO,-35.3632621,149.1652375,5,0.0008330876589752734,0.0010363340843468904,0.021297873929142952,0.008660862222313881,-0.009615165181457996,0.0017370169516652822,0,0,-1092,9,-9,1,0,0,-5,279075.0
14:21:32.333,AUTO,-35.3632621,149.1652375,64,0.003584594000130892,-0.0005146419862285256,0.021197687834501266,0.01306980662047863,-0.00042889901669695973,0.002469827886670828,0,0,-1140,13,0,1,0,0,-39,279075.0
14:21:32.534,AUTO,-35.3632621,149.1652375,207,0.002731256652623415,0.00027861149283125997,0.021166805177927017,-0.008452429436147213,0.0052263736724853516,0.002048786263912916,0,0,-1128,-7,5,1,0,0,-72,279075.0
14:21:32.736,AUTO,-35.3632621,149.1652375,207,0.002731256652623415,0.00027861149283125997,0.021166805177927017,-0.008452429436147213,0.0052263736724853516,0.002048786263912916,0,0,-1128,-7,5,1,0,0,-72,279075.0
14:21:32.938,AUTO,-35.3632621,149.1652375,425,0.0017386620165780187,0.0011682204203680158,0.021087126806378365,-0.00440658675506711,0.0032526347786188126,0.002661912702023983,0,0,-1108,-3,3,2,0,1,-101,279075.0
14:21:33.140,AUTO,-35.3632621,149.1652375,425,0.0017386620165780187,0.0011682204203680158,0.021087126806378365,-0.00440658675506711,0.0032526347786188126,0.002661912702023983,0,0,-1108,-3,3,2,0,1,-101,279075.0
14:21:33.342,AUTO,-35.3632621,149.1652375,425,0.0017386620165780187,0.0011682204203680158,0.021087126806378365,-0.00440658675506711,0.0032526347786188126,0.002661912702023983,0,0,-1108,-3,3,2,0,1,-101,279075.0
14:21:33.544,AUTO,-35.3632621,149.1652375,1410,0.02244623564183712,-0.0008649458759464324,0.020758777856826782,0.0467582531273365,-0.006671343930065632,0.002245429903268814,0,0,-1017,47,-5,1,0,5,-145,279075.0
14:21:33.745,AUTO,-35.3632621,149.1652375,1410,0.02244623564183712,-0.0008649458759464324,0.020758777856826782,0.0467582531273365,-0.006671343930065632,0.002245429903268814,0,0,-1017,47,-5,1,0,5,-145,279075.0
14:21:33.947,AUTO,-35.363262,149.1652377,1788,0.03390255197882652,-0.002795168897137046,0.02088388055562973,0.044871486723423004,-0.007408080622553825,0.002758009359240532,0,-1,-1007,45,-6,2,1,11,-148,279075.0
14:21:34.154,AUTO,-35.3632619,149.1652381,2171,0.04478726163506508,-0.0049789054319262505,0.02108949050307274,0.04239395633339882,-0.009486954659223557,0.0031825632322579622,0,-3,-1002,43,-8,2,3,20,-149,279075.0
14:21:34.362,AUTO,-35.3632618,149.1652387,2556,0.0549466609954834,-0.007653055712580681,0.021324774250388145,0.03936515375971794,-0.011087093502283096,0.0036564706824719906,1,-5,-1000,39,-10,3,5,30,-149,150308.0
14:21:34.564,AUTO,-35.3632616,149.1652397,2941,0.06231021136045456,-0.009213486686348915,-0.0072807203978300095,-0.007633420173078775,0.0186784528195858,-0.039306435734033585,2,-8,-992,-7,19,-39,8,43,-148,150308.0
14:21:34.765,AUTO,-35.3632616,149.1652397,2941,0.06231021136045456,-0.009213486686348915,-0.0072807203978300095,-0.007633420173078775,0.0186784528195858,-0.039306435734033585,2,-8,-992,-7,19,-39,8,43,-148,150308.0
14:21:34.967,AUTO,-35.3632614,149.165241,3323,0.0419020876288414,0.01260051317512989,-0.029783133417367935,-0.13865959644317627,0.09780960530042648,-0.10178808122873306,2,-10,-990,-138,98,-102,9,53,-146,150308.0
14:21:35.169,AUTO,-35.3632614,149.165241,3323,0.0419020876288414,0.01260051317512989,-0.029783133417367935,-0.13865959644317627,0.09780960530042648,-0.10178808122873306,2,-10,-990,-138,98,-102,9,53,-146,150308.0
14:21:35.371,AUTO,-35.3632614,149.165241,3323,0.0419020876288414,0.01260051317512989,-0.029783133417367935,-0.13865959644317627,0.09780960530042648,-0.10178808122873306,2,-10,-990,-138,98,-102,9,53,-146,150308.0
14:21:35.573,AUTO,-35.3632608,149.165245,4456,-0.023011811077594757,-0.01322090532630682,-0.041059717535972595,0.0033781463280320168,-0.05540231242775917,0.024153945967555046,4,-9,-1006,3,-54,23,8,39,-150,150308.0
14:21:35.775,AUTO,-35.3632605,149.1652459,4843,-0.024645475670695305,-0.027740083634853363,-0.030360601842403412,-0.013953027315437794,-0.061472825706005096,0.052187032997608185,3,-9,-1001,-13,-60,51,14,30,-150,150308.0
14:21:35.977,AUTO,-35.3632605,149.1652459,4843,-0.024645475670695305,-0.027740083634853363,-0.030360601842403412,-0.013953027315437794,-0.061472825706005096,0.052187032997608185,3,-9,-1001,-13,-60,51,14,30,-150,150308.0
14:21:36.179,AUTO,-35.3632601,149.1652466,5229,-0.03160901740193367,-0.04380812868475914,-0.015418348833918571,-0.08301038295030594,-0.053869422525167465,-0.016141200438141823,-2,-9,-988,-82,-53,-16,23,21,-149,150308.0
14:21:36.382,AUTO,-35.3632595,149.165247,5608,-0.07734273374080658,-0.01226541306823492,-0.04986101761460304,-0.16576066613197327,0.1805976778268814,-0.18010905385017395,-3,-6,-999,-164,181,-180,30,4,-146,150308.0
14:21:36.583,AUTO,-35.3632589,149.1652468,5985,-0.1091892346739769,0.025624103844165802,-0.10178040713071823,-0.08052359521389008,0.15841428935527802,-0.17359723150730133,-8,-3,-1008,-80,159,-173,25,-20,-146,150308.0
14:21:36.785,AUTO,-35.3632584,149.1652459,6363,-0.10595668107271194,0.03945642709732056,-0.13625824451446533,0.04643596336245537,0.02992764674127102,-0.10789848119020462,-8,2,-1006,47,30,-108,11,-46,-147,150308.0
14:21:36.988,AUTO,-35.3632584,149.1652459,6363,-0.10595668107271194,0.03945642709732056,-0.13625824451446533,0.04643596336245537,0.02992764674127102,-0.10789848119020462,-8,2,-1006,47,30,-108,11,-46,-147,150308.0
14:21:37.190,AUTO,-35.3632584,149.1652459,6363,-0.10595668107271194,0.03945642709732056,-0.13625824451446533,0.04643596336245537,0.02992764674127102,-0.10789848119020462,-8,2,-1006,47,30,-108,11,-46,-147,150308.0
14:21:37.393,AUTO,-35.3632584,149.1652459,6363,-0.10595668107271194,0.03945642709732056,-0.13625824451446533,0.04643596336245537,0.02992764674127102,-0.10789848119020462,-8,2,-1006,47,30,-108,11,-46,-147,150308.0
14:21:37.595,AUTO,-35.363259,149.1652399,7489,-0.06023041903972626,0.049879178404808044,-0.18581101298332214,0.07743780314922333,0.019712451845407486,-0.03984301909804344,-9,20,-1002,78,20,-40,-33,-94,-145,150308.0
14:21:37.796,AUTO,-35.3632599,149.1652372,7866,-0.04061802849173546,0.05399793013930321,-0.19365966320037842,0.08364872634410858,0.016988441348075867,-0.02657475136220455,-8,25,-1004,84,17,-26,-49,-99,-145,150308.0
14:21:37.998,AUTO,-35.3632599,149.1652372,7866,-0.04061802849173546,0.05399793013930321,-0.19365966320037842,0.08364872634410858,0.016988441348075867,-0.02657475136220455,-8,25,-1004,84,17,-26,-49,-99,-145,150308.0
14:21:38.200,AUTO,-35.3632611,149.1652345,8239,-0.01934976689517498,0.057344354689121246,-0.1982952058315277,0.0860823541879654,0.010805074125528336,-0.015882425010204315,-8,31,-1006,86,11,-16,-63,-97,-146,29845.0
14:21:38.402,AUTO,-35.3632627,149.1652318,8616,0.0025524930097162724,0.05901460349559784,-0.2002735733985901,0.09075599163770676,0.00387879041954875,-0.008236938156187534,-1,25,-1007,91,4,-8,-77,-91,-147,29845.0
14:21:38.604,AUTO,-35.3632645,149.1652294,8996,0.025159209966659546,0.05864206328988075,-0.20040158927440643,0.09295208752155304,-0.004675616975873709,-0.0018832784844562411,2,25,-1007,93,-3,-2,-88,-80,-149,29845.0
14:21:38.806,AUTO,-35.3632666,149.1652274,9380,0.0478210486471653,0.05553947389125824,-0.1997683346271515,0.09049884229898453,-0.017402684316039085,0.0033338507637381554,9,22,-1007,91,-16,3,-98,-62,-150,29845.0
14:21:39.008,AUTO,-35.3632666,149.1652274,9380,0.0478210486471653,0.05553947389125824,-0.1997683346271515,0.09049884229898453,-0.017402684316039085,0.0033338507637381554,9,22,-1007,91,-16,3,-98,-62,-150,29845.0
14:21:39.210,AUTO,-35.3632666,149.1652274,9380,0.0478210486471653,0.05553947389125824,-0.1997683346271515,0.09049884229898453,-0.017402684316039085,0.0033338507637381554,9,22,-1007,91,-16,3,-98,-62,-150,29845.0
14:21:39.412,AUTO,-35.3632666,149.1652274,9380,0.0478210486471653,0.05553947389125824,-0.1997683346271515,0.09049884229898453,-0.017402684316039085,0.0033338507637381554,9,22,-1007,91,-16,3,-98,-62,-150,29845.0
14:21:39.615,AUTO,-35.3632736,149.1652251,10536,0.0899338498711586,0.009152879007160664,-0.17682969570159912,-0.08352171629667282,-0.19677607715129852,0.1524517834186554,20,11,-996,-82,-196,152,-105,12,-149,29845.0
14:21:39.818,AUTO,-35.3632758,149.1652255,10919,0.08076228201389313,-0.036594208329916,-0.14967218041419983,-0.012559404596686363,-0.15748251974582672,0.13061916828155518,16,10,-1012,-12,-156,130,-92,33,-150,29845.0
14:21:40.020,AUTO,-35.3632758,149.1652255,10919,0.08076228201389313,-0.036594208329916,-0.14967218041419983,-0.012559404596686363,-0.15748251974582672,0.13061916828155518,16,10,-1012,-12,-156,130,-92,33,-150,29845.0
14:21:40.221,AUTO,-35.3632777,149.1652266,11306,0.07488313317298889,-0.07821004092693329,-0.11839983612298965,-0.024745317175984383,-0.15679633617401123,0.15283751487731934,27,6,-1011,-24,-156,152,-68,51,-151,29845.0
14:21:40.423,AUTO,-35.3632789,149.1652282,11695,0.06340573728084564,-0.11976141482591629,-0.08152160048484802,-0.03249239921569824,-0.15192876756191254,0.16271430253982544,21,-3,-1008,-31,-151,162,-37,64,-151,29845.0
14:21:40.625,AUTO,-35.3632793,149.1652299,12080,0.044745516031980515,-0.146686851978302,-0.052094973623752594,-0.07497066259384155,-0.053844768553972244,0.0895310491323471,11,-7,-999,-74,-53,88,0,72,-149,29845.0
14:21:40.827,AUTO,-35.363279,149.1652319,12461,0.021186282858252525,-0.15085886418819427,-0.038240864872932434,-0.09124380350112915,0.010100482031702995,0.03276484087109566,8,-17,-996,-90,10,32,39,74,-145,29845.0
14:21:41.036,AUTO,-35.363279,149.1652319,12461,0.021186282858252525,-0.15085886418819427,-0.038240864872932434,-0.09124380350112915,0.010100482031702995,0.03276484087109566,8,-17,-996,-90,10,32,39,74,-145,29845.0
14:21:41.243,AUTO,-35.363279,149.1652319,12461,0.021186282858252525,-0.15085886418819427,-0.038240864872932434,-0.09124380350112915,0.010100482031702995,0.03276484087109566,8,-17,-996,-90,10,32,39,74,-145,29845.0
14:21:41.445,AUTO,-35.363279,149.1652319,12461,0.021186282858252525,-0.15085886418819427,-0.038240864872932434,-0.09124380350112915,0.010100482031702995,0.03276484087109566,8,-17,-996,-90,10,32,39,74,-145,29845.0
14:21:41.647,AUTO,-35.3632731,149.165237,13543,-0.056700583547353745,-0.07795009016990662,-0.10721957683563232,-0.14999966323375702,0.16701911389827728,-0.20854593813419342,-20,-24,-1014,-149,167,-208,127,42,-139,29845.0
14:21:41.849,AUTO,-35.3632701,149.1652378,13904,-0.08268330246210098,-0.04097183048725128,-0.16376107931137085,-0.08658350259065628,0.1587856262922287,-0.20127852261066437,-18,-27,-1023,-85,159,-201,134,16,-143,29845.0
14:21:42.051,AUTO,-35.3632671,149.1652378,14276,-0.0934419110417366,-0.012546779587864876,-0.21208855509757996,-0.012400589883327484,0.0995788425207138,-0.14973266422748566,-21,-22,-1023,-11,100,-150,130,-12,-147,29845.0
14:21:42.253,AUTO,-35.3632671,149.1652378,14276,-0.0934419110417366,-0.012546779587864876,-0.21208855509757996,-0.012400589883327484,0.0995788425207138,-0.14973266422748566,-21,-22,-1023,-11,100,-150,130,-12,-147,146874.0
14:21:42.454,AUTO,-35.3632643,149.1652372,14656,-0.09072158485651016,0.003632163628935814,-0.2453889101743698,0.017888562753796577,0.06988972425460815,-0.10984554141759872,-32,-15,-1014,18,70,-109,119,-38,-150,146874.0
14:21:42.656,AUTO,-35.3632617,149.1652359,15041,-0.08520390838384628,0.018577322363853455,-0.2697625458240509,0.027119873091578484,0.0726560652256012,-0.08307448774576187,-21,-11,-1008,27,73,-83,105,-60,-151,146874.0
14:21:42.858,AUTO,-35.3632595,149.165234,15428,-0.07773226499557495,0.034882862120866776,-0.2883067727088928,0.03683621808886528,0.07084948569536209,-0.06310464441776276,-26,-5,-1007,37,71,-63,86,-78,-152,146874.0
14:21:43.061,AUTO,-35.3632595,149.165234,15428,-0.07773226499557495,0.034882862120866776,-0.2883067727088928,0.03683621808886528,0.07084948569536209,-0.06310464441776276,-26,-5,-1007,37,71,-63,86,-78,-152,146874.0
14:21:43.264,AUTO,-35.3632595,149.165234,15428,-0.07773226499557495,0.034882862120866776,-0.2883067727088928,0.03683621808886528,0.07084948569536209,-0.06310464441776276,-26,-5,-1007,37,71,-63,86,-78,-152,146874.0
14:21:43.466,AUTO,-35.3632595,149.165234,15428,-0.07773226499557495,0.034882862120866776,-0.2883067727088928,0.03683621808886528,0.07084948569536209,-0.06310464441776276,-26,-5,-1007,37,71,-63,86,-78,-152,146874.0
14:21:43.668,AUTO,-35.3632557,149.1652262,16594,-0.04274680092930794,0.08496179431676865,-0.32091161608695984,0.06431121379137039,0.061736274510622025,-0.027139365673065186,-23,10,-1006,64,62,-27,14,-103,-153,146874.0
14:21:43.869,AUTO,-35.3632555,149.1652233,16987,-0.027004972100257874,0.09919753670692444,-0.3261345624923706,0.06768076866865158,0.053194206207990646,-0.019102640450000763,-19,13,-1005,68,54,-19,-13,-100,-152,146874.0
14:21:44.071,AUTO,-35.363256,149.1652206,17376,-0.00911569595336914,0.11033549904823303,-0.3297571539878845,0.07713896781206131,0.03920261561870575,-0.012772412970662117,-13,24,-1004,77,40,-12,-40,-91,-152,146874.0
14:21:44.273,AUTO,-35.363256,149.1652206,17376,-0.00911569595336914,0.11033549904823303,-0.3297571539878845,0.07713896781206131,0.03920261561870575,-0.012772412970662117,-13,24,-1004,77,40,-12,-40,-91,-152,146874.0
14:21:44.475,AUTO,-35.3632571,149.1652182,17763,0.00998610444366932,0.11775238811969757,-0.33181607723236084,0.08170793950557709,0.023030048236250877,-0.007342569064348936,-8,21,-1002,82,23,-7,-67,-78,-151,146874.0
14:21:44.677,AUTO,-35.3632588,149.1652163,18147,0.03057163394987583,0.12070706486701965,-0.33250153064727783,0.08223586529493332,0.002857805695384741,-0.002875578822568059,-2,25,-1002,82,3,-3,-91,-58,-149,146874.0
14:21:44.879,AUTO,-35.363261,149.1652149,18526,0.05180975794792175,0.11867237836122513,-0.33223456144332886,0.08630861341953278,-0.016366174444556236,0.0017131646163761616,5,25,-1000,86,-15,1,-112,-35,-147,146874.0
14:21:45.081,AUTO,-35.363261,149.1652149,18526,0.05180975794792175,0.11867237836122513,-0.33223456144332886,0.08630861341953278,-0.016366174444556236,0.0017131646163761616,5,25,-1000,86,-15,1,-112,-35,-147,146874.0
14:21:45.283,AUTO,-35.363261,149.1652149,18526,0.05180975794792175,0.11867237836122513,-0.33223456144332886,0.08630861341953278,-0.016366174444556236,0.0017131646163761616,5,25,-1000,86,-15,1,-112,-35,-147,146874.0
14:21:45.485,AUTO,-35.363261,149.1652149,18526,0.05180975794792175,0.11867237836122513,-0.33223456144332886,0.08630861341953278,-0.016366174444556236,0.0017131646163761616,5,25,-1000,86,-15,1,-112,-35,-147,146874.0
14:21:45.688,AUTO,-35.3632694,149.1652154,19597,0.15213820338249207,-0.07701229304075241,-0.245081827044487,0.2595256567001343,-0.6045324802398682,0.4492586851119995,25,17,-984,260,-603,448,-118,51,-128,146874.0
14:21:45.889,AUTO,-35.3632714,149.1652171,19914,0.16946938633918762,-0.22726522386074066,-0.13539068400859833,-0.04211176186800003,-0.245036780834198,0.4666414260864258,25,0,-967,-41,-244,466,-64,84,-116,146874.0
14:21:46.091,AUTO,-35.3632721,149.1652198,20186,0.10686954110860825,-0.22621190547943115,-0.05596809461712837,-0.231145441532135,0.22862020134925842,0.1891063004732132,16,-15,-946,-230,229,188,-1,108,-95,146874.0
14:21:46.293,AUTO,-35.3632716,149.1652229,20407,0.04662253335118294,-0.15469121932983398,-0.02973976358771324,-0.19057582318782806,0.31565919518470764,0.012673514895141125,8,-24,-948,-189,316,12,45,118,-77,154556.0
14:21:46.496,AUTO,-35.3632716,149.1652229,20407,0.04662253335118294,-0.15469121932983398,-0.02973976358771324,-0.19057582318782806,0.31565919518470764,0.012673514895141125,8,-24,-948,-189,316,12,45,118,-77,154556.0
14:21:46.698,AUTO,-35.3632703,149.1652261,20589,0.0022041909396648407,-0.08040100336074829,-0.034734535962343216,-0.15826022624969482,0.2691684663295746,-0.04829027131199837,1,-31,-959,-157,270,-48,73,114,-64,154556.0
14:21:46.900,AUTO,-35.3632686,149.165229,20745,-0.025139985606074333,-0.02323460578918457,-0.04817219823598862,-0.08526720851659775,0.19046446681022644,-0.044872134923934937,-2,-30,-965,-84,191,-45,84,102,-55,154556.0
14:21:47.102,AUTO,-35.3632686,149.165229,20745,-0.025139985606074333,-0.02323460578918457,-0.04817219823598862,-0.08526720851659775,0.19046446681022644,-0.044872134923934937,-2,-30,-965,-84,191,-45,84,102,-55,154556.0
14:21:47.303,AUTO,-35.3632686,149.165229,20745,-0.025139985606074333,-0.02323460578918457,-0.04817219823598862,-0.08526720851659775,0.19046446681022644,-0.044872134923934937,-2,-30,-965,-84,191,-45,84,102,-55,154556.0
14:21:47.506,AUTO,-35.3632686,149.165229,20745,-0.025139985606074333,-0.02323460578918457,-0.04817219823598862,-0.08526720851659775,0.19046446681022644,-0.044872134923934937,-2,-30,-965,-84,191,-45,84,102,-55,154556.0
14:21:47.708,AUTO,-35.3632633,149.1652354,21071,-0.04832429438829422,0.05026991665363312,-0.06591159850358963,-0.0516546368598938,0.03306178003549576,-0.0035425061360001564,-4,-21,-973,-50,33,-3,63,52,-31,154556.0
14:21:47.909,AUTO,-35.363262,149.1652367,21139,-0.04386303946375847,0.053339313715696335,-0.06648339331150055,0.11988144367933273,0.001588007202371955,-0.0019575045444071293,-3,-10,-976,120,2,-2,49,38,-23,154556.0
14:21:48.111,AUTO,-35.363261,149.1652377,21189,-0.0362803153693676,0.05133076384663582,-0.06686627864837646,0.1318953037261963,-0.019515028223395348,-0.002330405404791236,-2,-12,-975,132,-18,-2,35,25,-17,154556.0
14:21:48.313,AUTO,-35.3632603,149.1652383,21222,-0.04135452210903168,0.04501769319176674,-0.06721653044223785,-0.45321205258369446,-0.027955271303653717,-0.001187412068247795,-1,-24,-972,-452,-27,-1,23,15,-10,154556.0
14:21:48.515,AUTO,-35.3632603,149.1652383,21222,-0.04135452210903168,0.04501769319176674,-0.06721653044223785,-0.45321205258369446,-0.027955271303653717,-0.001187412068247795,-1,-24,-972,-452,-27,-1,23,15,-10,154556.0
14:21:48.718,AUTO,-35.3632599,149.1652387,21235,-0.025860536843538284,0.037992920726537704,-0.06773623824119568,0.35370132327079773,-0.02916938066482544,-0.007907776162028313,0,27,-969,355,-28,-8,12,8,-2,154556.0
14:21:48.920,AUTO,-35.3632597,149.1652389,21228,-0.012493740767240524,0.03003470040857792,-0.0687483698129654,0.7758501768112183,-0.0339411124587059,-0.002922506770119071,0,20,-975,776,-33,-3,4,2,5,154556.0
14:21:49.122,AUTO,-35.3632597,149.1652389,21228,-0.012493740767240524,0.03003470040857792,-0.0687483698129654,0.7758501768112183,-0.0339411124587059,-0.002922506770119071,0,20,-975,776,-33,-3,4,2,5,154556.0
14:21:49.324,AUTO,-35.3632597,149.1652389,21228,-0.012493740767240524,0.03003470040857792,-0.0687483698129654,0.7758501768112183,-0.0339411124587059,-0.002922506770119071,0,20,-975,776,-33,-3,4,2,5,154556.0
14:21:49.526,AUTO,-35.3632597,149.1652389,21228,-0.012493740767240524,0.03003470040857792,-0.0687483698129654,0.7758501768112183,-0.0339411124587059,-0.002922506770119071,0,20,-975,776,-33,-3,4,2,5,154556.0
14:21:49.729,AUTO,-35.3632603,149.1652384,21094,-0.030503379181027412,0.03377890586853027,-0.07403299957513809,-0.7389046549797058,-0.028811892494559288,0.0025002264883369207,3,-26,-1019,-738,-27,2,-26,-15,16,154556.0
14:21:49.930,AUTO,-35.363261,149.165238,21052,-0.02909504994750023,0.030864372849464417,-0.07369361072778702,-0.2947028875350952,-0.0035005814861506224,0.00277184066362679,3,7,-1020,-292,-2,2,-33,-17,12,154556.0
14:21:50.132,AUTO,-35.3632619,149.1652375,21020,-0.01838667504489422,0.03075997717678547,-0.07399134337902069,0.4628519117832184,0.0036108153872191906,0.0031358739361166954,5,49,-1011,464,4,3,-40,-19,8,154556.0
14:21:50.334,AUTO,-35.3632629,149.1652368,20996,-0.013259335421025753,0.03277572989463806,-0.07487285882234573,0.7039352059364319,0.01111354399472475,-0.0037274532951414585,5,38,-1018,704,12,-4,-47,-22,5,103029.0
14:21:50.536,AUTO,-35.3632641,149.1652361,20980,-0.01965809427201748,0.036142151802778244,-0.07644772529602051,0.021614182740449905,0.01568673551082611,-0.01170570868998766,7,-4,-1013,21,16,-11,-54,-25,2,103029.0
14:21:50.738,AUTO,-35.3632641,149.1652361,20980,-0.01965809427201748,0.036142151802778244,-0.07644772529602051,0.021614182740449905,0.01568673551082611,-0.01170570868998766,7,-4,-1013,21,16,-11,-54,-25,2,103029.0
14:21:50.940,AUTO,-35.3632655,149.1652353,20971,-0.03158055245876312,0.041437968611717224,-0.07937075942754745,-0.5856848955154419,0.02542927674949169,-0.04799085855484009,7,-10,-1018,-585,26,-48,-63,-28,0,103029.0
14:21:51.142,AUTO,-35.3632655,149.1652353,20971,-0.03158055245876312,0.041437968611717224,-0.07937075942754745,-0.5856848955154419,0.02542927674949169,-0.04799085855484009,7,-10,-1018,-585,26,-48,-63,-28,0,103029.0
14:21:51.344,AUTO,-35.3632655,149.1652353,20971,-0.03158055245876312,0.041437968611717224,-0.07937075942754745,-0.5856848955154419,0.02542927674949169,-0.04799085855484009,7,-10,-1018,-585,26,-48,-63,-28,0,103029.0
14:21:51.547,AUTO,-35.363271,149.1652321,20976,-0.06024657189846039,0.038368042558431625,-0.5531989932060242,0.27446579933166504,0.014562063850462437,-0.8717929124832153,0,28,-1004,274,15,-871,-96,-38,-4,103029.0
14:21:51.748,AUTO,-35.363271,149.1652321,20976,-0.06024657189846039,0.038368042558431625,-0.5531989932060242,0.27446579933166504,0.014562063850462437,-0.8717929124832153,0,28,-1004,274,15,-871,-96,-38,-4,103029.0
14:21:51.950,AUTO,-35.3632734,149.1652309,20983,-0.09267967194318771,0.026615679264068604,-0.7633598446846008,-0.5034232139587402,0.021452942863106728,-0.8117979168891907,-6,0,-1007,-503,22,-811,-111,-44,-5,103029.0
14:21:52.152,AUTO,-35.3632762,149.1652294,20993,-0.11088365316390991,0.009240970015525818,-0.957761824131012,-0.289028525352478,0.0038724858313798904,-0.7541865110397339,-10,36,-1004,-287,4,-754,-128,-51,-6,103029.0
14:21:52.355,AUTO,-35.3632794,149.1652278,21003,-0.11657411605119705,-0.012680278159677982,-1.1405142545700073,0.3839643597602844,-0.02037159353494644,-0.7336359024047852,-19,58,-1005,385,-19,-733,-148,-58,-6,103029.0
14:21:52.557,AUTO,-35.363283,149.1652259,21014,-0.12106680124998093,-0.03838501498103142,-1.3174777030944824,0.2596787214279175,-0.0289071723818779,-0.7032578587532043,-32,34,-1012,260,-28,-703,-170,-67,-6,103029.0
14:21:52.759,AUTO,-35.363283,149.1652259,21014,-0.12106680124998093,-0.03838501498103142,-1.3174777030944824,0.2596787214279175,-0.0289071723818779,-0.7032578587532043,-32,34,-1012,260,-28,-703,-170,-67,-6,103029.0
14:21:52.961,AUTO,-35.3632872,149.1652238,21028,-0.1315821260213852,-0.06825096160173416,-1.492750644683838,-0.44067955017089844,-0.02843969501554966,-0.6977359652519226,-43,11,-1007,-439,-27,-698,-194,-76,-7,103029.0
14:21:53.163,AUTO,-35.3632872,149.1652238,21028,-0.1315821260213852,-0.06825096160173416,-1.492750644683838,-0.44067955017089844,-0.02843969501554966,-0.6977359652519226,-43,11,-1007,-439,-27,-698,-194,-76,-7,103029.0
14:21:53.365,AUTO,-35.3632872,149.1652238,21028,-0.1315821260213852,-0.06825096160173416,-1.492750644683838,-0.44067955017089844,-0.02843969501554966,-0.6977359652519226,-43,11,-1007,-439,-27,-698,-194,-76,-7,103029.0
14:21:53.567,AUTO,-35.363303,149.1652159,21083,-0.08202571421861649,-0.1563633531332016,-2.026970863342285,-0.0687725692987442,-0.02270207367837429,-0.7166391611099243,-64,1,-1010,-68,-21,-716,-271,-110,-10,103029.0
14:21:53.768,AUTO,-35.363303,149.1652159,21083,-0.08202571421861649,-0.1563633531332016,-2.026970863342285,-0.0687725692987442,-0.02270207367837429,-0.7166391611099243,-64,1,-1010,-68,-21,-716,-271,-110,-10,103029.0
14:21:53.970,AUTO,-35.3633094,149.1652127,21106,-0.05376472696661949,-0.17015840113162994,-2.2093851566314697,-0.22716252505779266,-0.0005712724523618817,-0.7168861031532288,-76,-9,-1010,-226,0,-717,-296,-122,-11,103029.0
14:21:54.172,AUTO,-35.3633165,149.1652091,21133,-0.010902589187026024,-0.18181724846363068,-2.3966619968414307,0.188139870762825,-0.027475979179143906,-0.7295533418655396,-78,-5,-1006,189,-26,-729,-321,-134,-12,103029.0
14:21:54.375,AUTO,-35.363324,149.1652052,21162,0.023717066273093224,-0.18789687752723694,-2.579740524291992,-0.04300830140709877,-0.031118623912334442,-0.7137590646743774,-81,-39,-1005,-42,-30,-713,-346,-146,-13,300000.0
14:21:54.577,AUTO,-35.3633321,149.165201,21193,0.05223909392952919,-0.1901870220899582,-2.7211337089538574,-0.03863329812884331,-0.027938829734921455,-0.36379674077033997,-76,-48,-1004,-37,-26,-364,-371,-158,-13,300000.0
14:21:54.779,AUTO,-35.3633408,149.1651965,21225,0.06482625007629395,-0.19128283858299255,-2.7641823291778564,0.062013112008571625,-0.014811620116233826,-0.035585783421993256,-83,-50,-1007,62,-14,-35,-397,-171,-14,300000.0
14:21:54.980,AUTO,-35.3633408,149.1651965,21225,0.06482625007629395,-0.19128283858299255,-2.7641823291778564,0.062013112008571625,-0.014811620116233826,-0.035585783421993256,-83,-50,-1007,62,-14,-35,-397,-171,-14,300000.0
14:21:55.182,AUTO,-35.3633408,149.1651965,21225,0.06482625007629395,-0.19128283858299255,-2.7641823291778564,0.062013112008571625,-0.014811620116233826,-0.035585783421993256,-83,-50,-1007,62,-14,-35,-397,-171,-14,300000.0
14:21:55.385,AUTO,-35.3633408,149.1651965,21225,0.06482625007629395,-0.19128283858299255,-2.7641823291778564,0.062013112008571625,-0.014811620116233826,-0.035585783421993256,-83,-50,-1007,62,-14,-35,-397,-171,-14,300000.0
14:21:55.588,AUTO,-35.3633701,149.1651809,21339,0.06454396992921829,-0.21455127000808716,-2.707496166229248,0.040532827377319336,0.027175601571798325,0.052280083298683167,-105,-57,-1008,41,28,52,-471,-209,-16,300000.0
14:21:55.790,AUTO,-35.363381,149.1651749,21385,0.06287816911935806,-0.2069312334060669,-2.6988515853881836,-0.011702998541295528,0.03349001705646515,0.02326469123363495,-84,-64,-1000,-10,34,23,-494,-221,-20,300000.0
14:21:55.992,AUTO,-35.363381,149.1651749,21385,0.06287816911935806,-0.2069312334060669,-2.6988515853881836,-0.011702998541295528,0.03349001705646515,0.02326469123363495,-84,-64,-1000,-10,34,23,-494,-221,-20,300000.0
14:21:56.194,AUTO,-35.3633924,149.1651687,21438,0.06528466939926147,-0.1941222846508026,-2.6970601081848145,0.010814156383275986,0.04259176179766655,-0.001535695744678378,-109,-60,-1009,12,43,-1,-515,-231,-24,300000.0
14:21:56.396,AUTO,-35.3634041,149.1651622,21499,0.06554174423217773,-0.18645542860031128,-2.6981348991394043,-0.008009631186723709,0.018263280391693115,-0.003804451785981655,-107,-70,-1000,-7,19,-3,-533,-240,-27,300000.0
14:21:56.598,AUTO,-35.3634163,149.1651555,21567,0.06728309392929077,-0.1821713149547577,-2.699465751647949,0.03808769956231117,0.025428518652915955,-0.004630606155842543,-117,-55,-996,39,26,-4,-549,-248,-28,300000.0
14:21:56.800,AUTO,-35.3634288,149.1651485,21638,0.06944502890110016,-0.1750391125679016,-2.7014689445495605,0.006343042012304068,0.025377977639436722,-0.00457118172198534,-122,-50,-995,7,25,-4,-563,-254,-30,300000.0
14:21:57.002,AUTO,-35.3634288,149.1651485,21638,0.06944502890110016,-0.1750391125679016,-2.7014689445495605,0.006343042012304068,0.025377977639436722,-0.00457118172198534,-122,-50,-995,7,25,-4,-563,-254,-30,300000.0
14:21:57.203,AUTO,-35.3634288,149.1651485,21638,0.06944502890110016,-0.1750391125679016,-2.7014689445495605,0.006343042012304068,0.025377977639436722,-0.00457118172198534,-122,-50,-995,7,25,-4,-563,-254,-30,300000.0
14:21:57.405,AUTO,-35.3634288,149.1651485,21638,0.06944502890110016,-0.1750391125679016,-2.7014689445495605,0.006343042012304068,0.025377977639436722,-0.00457118172198534,-122,-50,-995,7,25,-4,-563,-254,-30,300000.0
14:21:57.608,AUTO,-35.3634679,149.1651269,21864,0.06796259433031082,-0.16547709703445435,-2.7022995948791504,0.0016410804819315672,0.03257279843091965,-0.0009148189565166831,-123,-72,-986,2,33,-1,-595,-269,-29,300000.0
14:21:57.809,AUTO,-35.3634814,149.1651194,21938,0.07068989425897598,-0.15726898610591888,-2.702772378921509,0.01347020547837019,0.04723105952143669,-0.008483133278787136,-141,-71,-1004,14,48,-8,-604,-272,-30,300000.0
14:21:58.011,AUTO,-35.3634814,149.1651194,21938,0.07068989425897598,-0.15726898610591888,-2.702772378921509,0.01347020547837019,0.04723105952143669,-0.008483133278787136,-141,-71,-1004,14,48,-8,-604,-272,-30,300000.0
14:21:58.214,AUTO,-35.3634951,149.1651119,22015,0.07091730833053589,-0.14875057339668274,-2.7029685974121094,-0.005595283582806587,0.021081268787384033,-9.077259164769202e-05,-133,-90,-1001,-4,21,0,-611,-274,-31,300000.0
14:21:58.416,AUTO,-35.3635088,149.1651044,22095,0.07426822930574417,-0.1463560312986374,-2.70322847366333,0.004487281199544668,0.0017958051757887006,0.0025764352176338434,-132,-92,-988,5,2,2,-614,-276,-31,59253.0
14:21:58.618,AUTO,-35.3635225,149.1650968,22174,0.07441990822553635,-0.14670826494693756,-2.7034478187561035,-0.0033289240673184395,0.004691642709076405,-0.0007690266938880086,-143,-68,-987,-2,5,0,-617,-277,-29,59253.0
14:21:58.820,AUTO,-35.3635364,149.1650892,22249,0.07774800062179565,-0.1402052938938141,-2.7038841247558594,-0.005331005901098251,0.06074652448296547,-0.003930456470698118,-160,-71,-1007,-4,61,-4,-619,-278,-29,59253.0
14:21:59.022,AUTO,-35.3635364,149.1650892,22249,0.07774800062179565,-0.1402052938938141,-2.7038841247558594,-0.005331005901098251,0.06074652448296547,-0.003930456470698118,-160,-71,-1007,-4,61,-4,-619,-278,-29,59253.0
14:21:59.224,AUTO,-35.3635364,149.1650892,22249,0.07774800062179565,-0.1402052938938141,-2.7038841247558594,-0.005331005901098251,0.06074652448296547,-0.003930456470698118,-160,-71,-1007,-4,61,-4,-619,-278,-29,59253.0
14:21:59.437,AUTO,-35.3635364,149.1650892,22249,0.07774800062179565,-0.1402052938938141,-2.7038841247558594,-0.005331005901098251,0.06074652448296547,-0.003930456470698118,-160,-71,-1007,-4,61,-4,-619,-278,-29,59253.0
14:21:59.639,AUTO,-35.3635781,149.1650664,22477,0.07768408209085464,-0.1337570995092392,-2.7047994136810303,0.020715883001685143,-0.017476851120591164,-0.007884977385401726,-135,-78,-975,21,-16,-7,-618,-277,-25,59253.0
14:21:59.841,AUTO,-35.363592,149.1650588,22540,0.07762227952480316,-0.13617797195911407,-2.704840898513794,-0.03520899638533592,0.01670057699084282,0.0013452384155243635,-136,-83,-984,-34,17,1,-618,-278,-22,59253.0
14:22:00.043,AUTO,-35.3636062,149.165051,22601,0.07594932615756989,-0.1220344752073288,-2.704719305038452,-0.02315681241452694,0.07457888126373291,-0.0031028061639517546,-133,-82,-1005,-22,75,-3,-619,-278,-24,59253.0
14:22:00.245,AUTO,-35.3636062,149.165051,22601,0.07594932615756989,-0.1220344752073288,-2.704719305038452,-0.02315681241452694,0.07457888126373291,-0.0031028061639517546,-133,-82,-1005,-22,75,-3,-619,-278,-24,59253.0
14:22:00.447,AUTO,-35.3636201,149.1650434,22668,0.07770998775959015,-0.10570063441991806,-2.7048757076263428,0.019490955397486687,0.04006952792406082,-0.002580370055511594,-150,-71,-1003,20,40,-2,-614,-277,-27,59253.0
14:22:00.649,AUTO,-35.3636338,149.1650358,22741,0.07936639338731766,-0.09507393091917038,-2.705265998840332,0.014700262807309628,0.04697877913713455,-0.005697683431208134,-122,-83,-990,15,47,-5,-609,-273,-28,59253.0
14:22:00.851,AUTO,-35.3636473,149.1650285,22816,0.08337356150150299,-0.08086416125297546,-2.7056939601898193,0.052564531564712524,0.03827344998717308,-0.010675418190658092,-131,-67,-992,53,39,-10,-600,-269,-29,59253.0
14:22:01.053,AUTO,-35.3636473,149.1650285,22816,0.08337356150150299,-0.08086416125297546,-2.7056939601898193,0.052564531564712524,0.03827344998717308,-0.010675418190658092,-131,-67,-992,53,39,-10,-600,-269,-29,59253.0
14:22:01.255,AUTO,-35.3636473,149.1650285,22816,0.08337356150150299,-0.08086416125297546,-2.7056939601898193,0.052564531564712524,0.03827344998717308,-0.010675418190658092,-131,-67,-992,53,39,-10,-600,-269,-29,59253.0
14:22:01.457,AUTO,-35.3636473,149.1650285,22816,0.08337356150150299,-0.08086416125297546,-2.7056939601898193,0.052564531564712524,0.03827344998717308,-0.010675418190658092,-131,-67,-992,53,39,-10,-600,-269,-29,59253.0
14:22:01.659,AUTO,-35.3636864,149.165007,23037,0.08356515318155289,-0.04737532511353493,-2.7056829929351807,0.013993093743920326,0.07882987707853317,-0.003671690821647644,-122,-81,-986,14,79,-3,-560,-251,-25,59253.0
14:22:01.860,AUTO,-35.3636988,149.1650002,23103,0.08102654665708542,-0.03403133153915405,-2.7059309482574463,-0.014445931650698185,0.02790644019842148,-0.0013527609407901764,-118,-74,-985,-13,28,-1,-541,-244,-24,59253.0
14:22:02.062,AUTO,-35.3637108,149.1649935,23163,0.07631666958332062,-0.0193095114082098,-2.7058522701263428,-0.04294517636299133,0.0747092068195343,-0.004560921341180801,-108,-68,-988,-42,75,-5,-523,-236,-21,59253.0
14:22:02.264,AUTO,-35.3637108,149.1649935,23163,0.07631666958332062,-0.0193095114082098,-2.7058522701263428,-0.04294517636299133,0.0747092068195343,-0.004560921341180801,-108,-68,-988,-42,75,-5,-523,-236,-21,59253.0
14:22:02.466,AUTO,-35.3637224,149.164987,23220,0.07262921333312988,-0.003743147011846304,-2.705359935760498,-0.012322071939706802,0.03360341489315033,-0.0034621418453752995,-114,-66,-988,-11,34,-3,-500,-227,-20,286785.0
14:22:02.669,AUTO,-35.3637335,149.1649808,23272,0.07118776440620422,0.0071427891962230206,-2.704998016357422,0.012499523349106312,0.05440378189086914,0.0009495001868344843,-106,-71,-990,13,54,1,-477,-216,-18,286785.0
14:22:02.871,AUTO,-35.3637439,149.1649749,23318,0.06763000041246414,0.020208993926644325,-2.704773426055908,-0.04751148819923401,0.04945537820458412,0.0009871275397017598,-106,-74,-992,-46,50,1,-452,-204,-16,286785.0
14:22:03.073,AUTO,-35.3637439,149.1649749,23318,0.06763000041246414,0.020208993926644325,-2.704773426055908,-0.04751148819923401,0.04945537820458412,0.0009871275397017598,-106,-74,-992,-46,50,1,-452,-204,-16,286785.0
14:22:03.275,AUTO,-35.3637439,149.1649749,23318,0.06763000041246414,0.020208993926644325,-2.704773426055908,-0.04751148819923401,0.04945537820458412,0.0009871275397017598,-106,-74,-992,-46,50,1,-452,-204,-16,286785.0
14:22:03.477,AUTO,-35.3637439,149.1649749,23318,0.06763000041246414,0.020208993926644325,-2.704773426055908,-0.04751148819923401,0.04945537820458412,0.0009871275397017598,-106,-74,-992,-46,50,1,-452,-204,-16,286785.0
14:22:03.678,AUTO,-35.363772,149.1649591,23423,0.057745955884456635,0.05676492676138878,-2.704481601715088,-0.018946843221783638,0.013476383872330189,0.0021923473104834557,-72,-50,-990,-17,14,2,-368,-167,-9,286785.0
14:22:03.880,AUTO,-35.36378,149.1649546,23446,0.060188330709934235,0.05735691636800766,-2.705400228500366,0.333125501871109,-0.018076317384839058,-0.01087632030248642,-67,-55,-993,334,-17,-10,-339,-154,-6,286785.0
14:22:04.082,AUTO,-35.3637873,149.1649505,23461,0.048938293009996414,0.05576024949550629,-2.7059061527252197,-0.48301708698272705,-0.010418832302093506,0.028248142451047897,-66,-80,-973,-483,-9,28,-311,-141,-2,286785.0
14:22:04.284,AUTO,-35.3637941,149.1649466,23468,0.03574291616678238,0.05768054351210594,-2.7064831256866455,-0.5637829303741455,0.013182480819523335,-0.0016580336960032582,-66,-46,-997,-562,14,-1,-284,-131,0,286785.0
14:22:04.486,AUTO,-35.3637941,149.1649466,23468,0.03574291616678238,0.05768054351210594,-2.7064831256866455,-0.5637829303741455,0.013182480819523335,-0.0016580336960032582,-66,-46,-997,-562,14,-1,-284,-131,0,286785.0
14:22:04.688,AUTO,-35.3638003,149.1649431,23470,0.036379024386405945,0.06156396493315697,-2.707648277282715,0.16986675560474396,0.020218273624777794,-0.02181006781756878,-55,-15,-1017,171,20,-21,-259,-119,0,286785.0
14:22:04.891,AUTO,-35.3638059,149.1649399,23474,0.04721603915095329,0.06650424748659134,-2.7080090045928955,0.7464811205863953,0.018747277557849884,-0.014721071347594261,-49,0,-1003,747,19,-14,-234,-107,0,286785.0
14:22:05.093,AUTO,-35.3638059,149.1649399,23474,0.04721603915095329,0.06650424748659134,-2.7080090045928955,0.7464811205863953,0.018747277557849884,-0.014721071347594261,-49,0,-1003,747,19,-14,-234,-107,0,286785.0
14:22:05.295,AUTO,-35.3638059,149.1649399,23474,0.04721603915095329,0.06650424748659134,-2.7080090045928955,0.7464811205863953,0.018747277557849884,-0.014721071347594261,-49,0,-1003,747,19,-14,-234,-107,0,286785.0
14:22:05.497,AUTO,-35.3638059,149.1649399,23474,0.04721603915095329,0.06650424748659134,-2.7080090045928955,0.7464811205863953,0.018747277557849884,-0.014721071347594261,-49,0,-1003,747,19,-14,-234,-107,0,286785.0
14:22:05.699,AUTO,-35.3638194,149.1649324,23497,0.019458679482340813,0.08302459865808487,-2.7078113555908203,-0.5529531240463257,0.026782959699630737,-0.0007428432581946254,-34,-37,-991,-551,27,0,-157,-73,-2,286785.0
14:22:05.900,AUTO,-35.3638227,149.1649305,23507,0.024249562993645668,0.08507474511861801,-2.7083780765533447,0.31185105443000793,-0.01284186914563179,-0.01500612497329712,-27,6,-1001,313,-11,-14,-131,-62,-3,286785.0
14:22:06.102,AUTO,-35.3638255,149.164929,23515,0.0306143369525671,0.07790883630514145,-2.7085464000701904,0.614091694355011,-0.03776044771075249,-0.001170412520878017,-26,8,-1004,615,-36,-1,-108,-52,-1,286785.0
14:22:06.304,AUTO,-35.3638278,149.1649277,23521,0.02416815049946308,0.06820403784513474,-2.70855975151062,0.043595124036073685,-0.03481058031320572,0.002830276032909751,-21,-25,-996,43,-33,2,-88,-42,-1,286785.0
14:22:06.507,AUTO,-35.3638278,149.1649277,23521,0.02416815049946308,0.06820403784513474,-2.70855975151062,0.043595124036073685,-0.03481058031320572,0.002830276032909751,-21,-25,-996,43,-33,2,-88,-42,-1,135256.0
14:22:06.709,AUTO,-35.3638297,149.1649267,23525,0.007675448432564735,0.061187803745269775,-2.708878993988037,-0.619835376739502,-0.017411699518561363,0.00569944130256772,-19,-45,-1005,-619,-16,5,-70,-34,0,135256.0
14:22:06.911,AUTO,-35.3638312,149.1649259,23529,0.0024651209823787212,0.055308159440755844,-2.7090606689453125,-0.5764464139938354,-0.01578933745622635,0.0011120865819975734,-14,-23,-996,-575,-15,1,-55,-27,0,135256.0
14:22:07.113,AUTO,-35.3638312,149.1649259,23529,0.0024651209823787212,0.055308159440755844,-2.7090606689453125,-0.5764464139938354,-0.01578933745622635,0.0011120865819975734,-14,-23,-996,-575,-15,1,-55,-27,0,135256.0
14:22:07.315,AUTO,-35.3638312,149.1649259,23529,0.0024651209823787212,0.055308159440755844,-2.7090606689453125,-0.5764464139938354,-0.01578933745622635,0.0011120865819975734,-14,-23,-996,-575,-15,1,-55,-27,0,135256.0
14:22:07.517,AUTO,-35.3638312,149.1649259,23529,0.0024651209823787212,0.055308159440755844,-2.7090606689453125,-0.5764464139938354,-0.01578933745622635,0.0011120865819975734,-14,-23,-996,-575,-15,1,-55,-27,0,135256.0
14:22:07.719,AUTO,-35.3638341,149.1649247,23540,0.012120536528527737,0.04210226237773895,-2.7095043659210205,-0.12748825550079346,-0.014243008568882942,0.00494094705209136,-7,-23,-993,-127,-13,4,-18,-11,0,135256.0
14:22:07.921,AUTO,-35.3638345,149.1649246,23541,0.0015681299846619368,0.037171609699726105,-2.710073471069336,-0.7905236482620239,-0.015936540439724922,-0.00042865960858762264,-3,-24,-1008,-789,-14,0,-9,-7,0,135256.0
14:22:08.123,AUTO,-35.3638348,149.1649245,23542,-0.0005929512553848326,0.032444488257169724,-2.7108047008514404,-0.3477891981601715,-0.019574055448174477,-0.00599784916266799,-3,0,-993,-345,-18,-6,-1,-4,0,135256.0
14:22:08.325,AUTO,-35.363835,149.1649246,23542,0.008139131590723991,0.026910901069641113,-2.7114837169647217,0.2556164562702179,-0.02301643043756485,0.0005423284601420164,-1,30,-995,257,-21,0,4,-2,1,135256.0
14:22:08.527,AUTO,-35.3638351,149.1649248,23544,0.017681382596492767,0.020967042073607445,-2.7120349407196045,0.550460934638977,-0.02598651871085167,0.0036752293817698956,-1,30,-995,257,-21,0,8,0,0,135256.0
14:22:08.729,AUTO,-35.3638351,149.1649248,23544,0.017681382596492767,0.020967042073607445,-2.7120349407196045,0.550460934638977,-0.02598651871085167,0.0036752293817698956,0,16,-1000,551,-24,3,8,0,0,135256.0
14:22:08.931,AUTO,-35.3638351,149.164925,23545,0.011957408860325813,0.01343628391623497,-2.712214946746826,-0.22147224843502045,-0.029176464304327965,0.004778784234076738,0,-26,-994,-221,-28,4,11,0,0,135256.0
14:22:09.133,AUTO,-35.3638351,149.164925,23545,0.011957408860325813,0.01343628391623497,-2.712214946746826,-0.22147224843502045,-0.029176464304327965,0.004778784234076738,0,-26,-994,-221,-28,4,11,0,0,135256.0
14:22:09.345,AUTO,-35.3638351,149.164925,23545,0.011957408860325813,0.01343628391623497,-2.712214946746826,-0.22147224843502045,-0.029176464304327965,0.004778784234076738,0,-26,-994,-221,-28,4,11,0,0,135256.0
14:22:09.547,AUTO,-35.3638351,149.1649259,23544,0.022471170872449875,-0.0042484477162361145,-2.7140989303588867,0.6859650015830994,0.013607783243060112,0.007072163745760918,-1,30,-1000,687,14,7,11,-3,0,135256.0
14:22:09.749,AUTO,-35.3638351,149.1649259,23544,0.022471170872449875,-0.0042484477162361145,-2.7140989303588867,0.6859650015830994,0.013607783243060112,0.007072163745760918,-1,30,-1000,687,14,7,11,-3,0,135256.0
14:22:09.950,AUTO,-35.3638352,149.1649262,23543,0.023959115147590637,-0.0029999755788594484,-2.714812755584717,0.15925908088684082,-0.010575422085821629,0.01155365351587534,0,-7,-1005,159,-9,11,9,-4,0,135256.0
