time_stamp,MODE,lat,lon,relative_alt,roll,pitch,yaw,rollspeed,pitchspeed,yawspeed,xacc,yacc,zacc,xgyro,ygyro,zgyro,vx,vy,vz,RTL_ALT
03:06:53.779,STABILIZE,-35.3632621,149.1652374,0,0.00019969358982052654,0.0014616725966334343,0.028028473258018494,0.00027302614762447774,0.0002953217481262982,0.002466899808496237,0,1,-1000,0,0,0,-1,1,0,1500.0
03:06:53.980,STABILIZE,-35.3632621,149.1652374,0,0.00019969358982052654,0.0014616725966334343,0.028028473258018494,0.00027302614762447774,0.0002953217481262982,0.002466899808496237,0,1,-1000,0,0,0,-1,1,0,1500.0
03:06:54.181,STABILIZE,-35.3632621,149.1652374,0,0.00019969358982052654,0.0014616725966334343,0.028028473258018494,0.00027302614762447774,0.0002953217481262982,0.002466899808496237,0,1,-1000,0,0,0,-1,1,0,1500.0
03:06:54.382,STABILIZE,-35.3632621,149.1652374,0,0.00019969358982052654,0.0014616725966334343,0.028028473258018494,0.00027302614762447774,0.0002953217481262982,0.002466899808496237,0,1,-1000,0,0,0,-1,1,0,1500.0
03:06:54.583,STABILIZE,-35.3632621,149.1652374,0,-0.0006684614345431328,0.0011714212596416473,0.02565612830221653,0.00023622717708349228,0.00032046297565102577,0.002028408460319042,0,1,-1000,0,0,0,-1,1,0,1500.0
03:06:54.785,STABILIZE,-35.3632622,149.1652375,0,-0.0007568189175799489,0.0011293789139017463,0.02554764784872532,0.00018661207286641002,0.00014437790377996862,0.001913265441544354,0,1,-1000,0,0,0,-1,1,2,1500.0
03:06:54.986,STABILIZE,-35.3632622,149.1652375,0,-0.0007568189175799489,0.0011293789139017463,0.02554764784872532,0.00018661207286641002,0.00014437790377996862,0.001913265441544354,0,1,-1000,0,0,0,-1,1,1,1500.0
03:06:55.188,STABILIZE,-35.3632622,149.1652375,0,-0.0007568189175799489,0.0011293789139017463,0.02554764784872532,0.00018661207286641002,0.00014437790377996862,0.001913265441544354,0,1,-1000,0,0,0,-1,1,1,1500.0
03:06:55.390,STABILIZE,-35.3632622,149.1652375,0,-0.0009736271458677948,0.0010515725007280707,0.02526315301656723,0.0003484449698589742,0.00030890715424902737,0.0021873782388865948,0,2,-1000,0,0,0,-1,1,1,1500.0
03:06:55.592,STABILIZE,-35.3632622,149.1652375,0,-0.0009736271458677948,0.0010515725007280707,0.02526315301656723,0.0003484449698589742,0.00030890715424902737,0.0021873782388865948,0,2,-1000,0,0,0,-1,1,1,1500.0
03:06:55.793,STABILIZE,-35.3632622,149.1652375,0,-0.0009736271458677948,0.0010515725007280707,0.02526315301656723,0.0003484449698589742,0.00030890715424902737,0.0021873782388865948,0,2,-1000,0,0,0,-1,1,1,1500.0
03:06:55.994,STABILIZE,-35.3632622,149.1652375,0,-0.0009736271458677948,0.0010515725007280707,0.02526315301656723,0.0003484449698589742,0.00030890715424902737,0.0021873782388865948,0,2,-1000,0,0,0,-1,1,1,1500.0
03:06:56.196,STABILIZE,-35.3632622,149.1652375,0,-0.0009736271458677948,0.0010515725007280707,0.02526315301656723,0.0003484449698589742,0.00030890715424902737,0.0021873782388865948,0,2,-1000,0,0,0,-1,1,1,1500.0
03:06:56.397,STABILIZE,-35.3632621,149.1652375,0,-0.001010268577374518,0.0009852413786575198,0.024927549064159393,0.0001965169794857502,0.0003041650343220681,0.001926531083881855,0,1,-1000,0,0,0,-1,1,2,1500.0
03:06:56.598,STABILIZE,-35.3632621,149.1652375,0,-0.001010268577374518,0.0009852413786575198,0.024927549064159393,0.0001965169794857502,0.0003041650343220681,0.001926531083881855,0,1,-1000,0,0,0,-1,1,2,1500.0
03:06:56.799,STABILIZE,-35.3632621,149.1652375,0,-0.001010268577374518,0.0009852413786575198,0.024927549064159393,0.0001965169794857502,0.0003041650343220681,0.001926531083881855,0,1,-1000,0,0,0,-1,1,2,1500.0
03:06:57.000,STABILIZE,-35.3632621,149.1652375,0,-0.0011002154788002372,0.0009793589124456048,0.024776935577392578,0.00039545499021187425,0.0002838892978616059,0.0020044068805873394,0,1,-1000,0,0,1,-1,1,2,1500.0
03:06:57.202,STABILIZE,-35.3632621,149.1652375,0,-0.0011002154788002372,0.0009793589124456048,0.024776935577392578,0.00039545499021187425,0.0002838892978616059,0.0020044068805873394,0,1,-1000,0,0,1,-1,1,2,1500.0
03:06:57.403,STABILIZE,-35.3632621,149.1652375,0,-0.0011615812545642257,0.0009706034325063229,0.024639444425702095,0.00015194196021184325,0.00034916921867989004,0.0019210872706025839,0,1,-1000,0,0,0,-1,1,2,1500.0
03:06:57.604,STABILIZE,-35.3632621,149.1652375,0,-0.0011615812545642257,0.0009706034325063229,0.024639444425702095,0.00015194196021184325,0.00034916921867989004,0.0019210872706025839,0,1,-1000,0,0,0,-1,1,2,1500.0
03:06:57.805,STABILIZE,-35.3632621,149.1652375,0,-0.0011615812545642257,0.0009706034325063229,0.024639444425702095,0.00015194196021184325,0.00034916921867989004,0.0019210872706025839,0,1,-1000,0,0,0,-1,1,2,1500.0
03:06:58.006,STABILIZE,-35.3632621,149.1652375,0,-0.0011615812545642257,0.0009706034325063229,0.024639444425702095,0.00015194196021184325,0.00034916921867989004,0.0019210872706025839,0,1,-1000,0,0,0,-1,1,2,1500.0
03:06:58.207,STABILIZE,-35.3632621,149.1652375,0,-0.0011615812545642257,0.0009706034325063229,0.024639444425702095,0.00015194196021184325,0.00034916921867989004,0.0019210872706025839,0,1,-1000,0,0,0,-1,1,2,1500.0
03:06:58.409,STABILIZE,-35.3632621,149.1652375,0,-0.0011615812545642257,0.0009706034325063229,0.024639444425702095,0.00015194196021184325,0.00034916921867989004,0.0019210872706025839,0,1,-1000,0,0,0,-1,1,2,1500.0
03:06:58.610,STABILIZE,-35.3632621,149.1652375,0,-0.0011615812545642257,0.0009706034325063229,0.024639444425702095,0.00015194196021184325,0.00034916921867989004,0.0019210872706025839,0,1,-1000,0,0,0,-1,1,2,1500.0
03:06:58.811,STABILIZE,-35.3632621,149.1652375,0,-0.001230587367899716,0.0009404572192579508,0.024299172684550285,0.00031286373268812895,0.00025175634073093534,0.0018419786356389523,0,1,-1000,0,0,0,-1,0,1,1500.0
03:06:59.012,STABILIZE,-35.3632621,149.1652375,0,-0.001230587367899716,0.0009404572192579508,0.024299172684550285,0.00031286373268812895,0.00025175634073093534,0.0018419786356389523,0,1,-1000,0,0,0,-1,0,1,1500.0
03:06:59.214,STABILIZE,-35.3632621,149.1652375,0,-0.001230587367899716,0.0009404572192579508,0.024299172684550285,0.00031286373268812895,0.00025175634073093534,0.0018419786356389523,0,1,-1000,0,0,0,-1,0,1,1500.0
03:06:59.415,STABILIZE,-35.3632621,149.1652375,0,-0.0008787711849436164,0.000943357590585947,0.024112896993756294,0.0003392016515135765,0.00024464662419632077,0.0018180706538259983,0,0,-1001,0,0,1,-1,2,3,1500.0
03:06:59.616,STABILIZE,-35.3632621,149.1652375,0,-0.0008787711849436164,0.000943357590585947,0.024112896993756294,0.0003392016515135765,0.00024464662419632077,0.0018180706538259983,0,0,-1001,0,0,1,-1,2,3,1500.0
03:06:59.817,STABILIZE,-35.3632621,149.1652375,0,-0.0008787711849436164,0.000943357590585947,0.024112896993756294,0.0003392016515135765,0.00024464662419632077,0.0018180706538259983,0,0,-1001,0,0,1,-1,2,3,1500.0
03:07:00.018,STABILIZE,-35.3632621,149.1652375,0,-0.0008787711849436164,0.000943357590585947,0.024112896993756294,0.0003392016515135765,0.00024464662419632077,0.0018180706538259983,0,0,-1001,0,0,1,-1,2,3,1500.0
03:07:00.219,STABILIZE,-35.3632622,149.1652375,0,-0.0010064367670565844,0.0009539134334772825,0.023885086178779602,8.437654469162226e-05,0.00030370044987648726,0.0018025339813902974,0,1,-1000,0,1,0,-1,2,3,1500.0
03:07:00.421,STABILIZE,-35.3632622,149.1652375,0,-0.0010064367670565844,0.0009539134334772825,0.023885086178779602,8.437654469162226e-05,0.00030370044987648726,0.0018025339813902974,0,1,-1000,0,1,0,-1,2,3,1500.0
03:07:00.622,STABILIZE,-35.3632622,149.1652375,0,-0.0010064367670565844,0.0009539134334772825,0.023885086178779602,8.437654469162226e-05,0.00030370044987648726,0.0018025339813902974,0,1,-1000,0,1,0,-1,2,3,1500.0
03:07:00.823,STABILIZE,-35.3632622,149.1652375,0,-0.0010064367670565844,0.0009539134334772825,0.023885086178779602,8.437654469162226e-05,0.00030370044987648726,0.0018025339813902974,0,1,-1000,0,1,0,-1,2,3,1500.0
03:07:01.024,STABILIZE,-35.3632622,149.1652375,0,-0.0010064367670565844,0.0009539134334772825,0.023885086178779602,8.437654469162226e-05,0.00030370044987648726,0.0018025339813902974,0,1,-1000,0,1,0,-1,2,3,1500.0
03:07:01.225,STABILIZE,-35.3632622,149.1652375,0,-0.0012086792849004269,0.0009631977882236242,0.023606320843100548,0.0002871607430279255,0.0002844971604645252,0.0016651910264045,0,2,-1000,0,0,1,-1,1,2,1500.0
03:07:01.427,STABILIZE,-35.3632622,149.1652375,0,-0.0012086792849004269,0.0009631977882236242,0.023606320843100548,0.0002871607430279255,0.0002844971604645252,0.0016651910264045,0,2,-1000,0,0,1,-1,1,2,1500.0
03:07:01.628,STABILIZE,-35.3632622,149.1652375,0,-0.0012086792849004269,0.0009631977882236242,0.023606320843100548,0.0002871607430279255,0.0002844971604645252,0.0016651910264045,0,2,-1000,0,0,1,-1,1,2,1500.0
03:07:01.829,STABILIZE,-35.3632622,149.1652375,0,-0.0012086792849004269,0.0009631977882236242,0.023606320843100548,0.0002871607430279255,0.0002844971604645252,0.0016651910264045,0,2,-1000,0,0,1,-1,1,2,1500.0
03:07:02.031,STABILIZE,-35.3632622,149.1652375,0,-0.0012086792849004269,0.0009631977882236242,0.023606320843100548,0.0002871607430279255,0.0002844971604645252,0.0016651910264045,0,2,-1000,0,0,1,-1,1,2,1500.0
03:07:02.232,STABILIZE,-35.3632622,149.1652375,0,-0.0013149650767445564,0.0009624031954444945,0.023361068218946457,0.000185905781108886,0.0002342767547816038,0.0017391899600625038,0,2,-1000,0,0,1,-1,1,1,1500.0
03:07:02.433,STABILIZE,-35.3632622,149.1652375,0,-0.0013149650767445564,0.0009624031954444945,0.023361068218946457,0.000185905781108886,0.0002342767547816038,0.0017391899600625038,0,1,-1000,0,0,1,-1,1,1,1500.0
03:07:02.634,STABILIZE,-35.3632622,149.1652375,0,-0.0013149650767445564,0.0009624031954444945,0.023361068218946457,0.000185905781108886,0.0002342767547816038,0.0017391899600625038,0,1,-1000,0,0,1,-1,1,1,1500.0
03:07:02.835,STABILIZE,-35.3632622,149.1652375,0,-0.0013149650767445564,0.0009624031954444945,0.023361068218946457,0.000185905781108886,0.0002342767547816038,0.0017391899600625038,0,1,-1000,0,0,1,-1,1,1,1500.0
03:07:03.037,STABILIZE,-35.3632622,149.1652375,0,-0.001195856835693121,0.0009662322700023651,0.023195570334792137,0.0002288507530465722,0.00021472322987392545,0.0017732717096805573,0,1,-1000,0,0,1,-1,1,1,1500.0
03:07:03.238,STABILIZE,-35.3632622,149.1652375,0,-0.001195856835693121,0.0009662322700023651,0.023195570334792137,0.0002288507530465722,0.00021472322987392545,0.0017732717096805573,0,1,-1000,0,0,1,-1,1,1,1500.0
03:07:03.440,STABILIZE,-35.3632622,149.1652375,0,-0.0012437000405043364,0.0009594468283466995,0.02309977076947689,0.0002562996232882142,0.0002757494803518057,0.001602408941835165,0,1,-1000,0,0,0,-1,1,1,1500.0
03:07:03.650,STABILIZE,-35.3632622,149.1652375,0,-0.0012437000405043364,0.0009594468283466995,0.02309977076947689,0.0002562996232882142,0.0002757494803518057,0.001602408941835165,0,1,-1000,0,0,0,-1,1,1,1500.0
03:07:03.853,STABILIZE,-35.3632622,149.1652375,0,-0.0012437000405043364,0.0009594468283466995,0.02309977076947689,0.0002562996232882142,0.0002757494803518057,0.001602408941835165,0,1,-1000,0,0,0,-1,1,1,1500.0
03:07:04.054,STABILIZE,-35.3632622,149.1652375,0,-0.0012437000405043364,0.0009594468283466995,0.02309977076947689,0.0002562996232882142,0.0002757494803518057,0.001602408941835165,0,1,-1000,0,0,0,-1,1,1,1500.0
03:07:04.255,STABILIZE,-35.3632622,149.1652375,0,-0.0012437000405043364,0.0009594468283466995,0.02309977076947689,0.0002562996232882142,0.0002757494803518057,0.001602408941835165,0,1,-1000,0,0,0,-1,1,1,1500.0
03:07:04.456,STABILIZE,-35.3632622,149.1652375,0,-0.0012437000405043364,0.0009594468283466995,0.02309977076947689,0.0002562996232882142,0.0002757494803518057,0.001602408941835165,0,1,-1000,0,0,0,-1,1,1,1500.0
03:07:04.658,STABILIZE,-35.3632622,149.1652375,0,-0.0013371736276894808,0.0009630323038436472,0.022827621549367905,0.0002674779389053583,0.0002651202376000583,0.001596561400219798,0,1,-1000,0,0,0,-1,1,0,1500.0
03:07:04.859,STABILIZE,-35.3632622,149.1652375,0,-0.0013371736276894808,0.0009630323038436472,0.022827621549367905,0.0002674779389053583,0.0002651202376000583,0.001596561400219798,0,1,-1000,0,0,0,-1,1,0,1500.0
03:07:05.060,STABILIZE,-35.3632622,149.1652375,0,-0.0013371736276894808,0.0009630323038436472,0.022827621549367905,0.0002674779389053583,0.0002651202376000583,0.001596561400219798,0,1,-1000,0,0,0,-1,1,0,1500.0
03:07:05.261,STABILIZE,-35.3632622,149.1652375,0,-0.0013371736276894808,0.0009630323038436472,0.022827621549367905,0.0002674779389053583,0.0002651202376000583,0.001596561400219798,0,1,-1000,0,0,0,-1,0,0,1500.0
03:07:05.462,STABILIZE,-35.3632622,149.1652375,0,-0.0013500790810212493,0.0009702930110506713,0.0226926077157259,0.00014473387273028493,0.0002568155759945512,0.0015409800689667463,0,1,-1000,0,0,0,-1,0,0,1500.0
03:07:05.664,STABILIZE,-35.3632622,149.1652375,0,-0.0013500790810212493,0.0009702930110506713,0.0226926077157259,0.00014473387273028493,0.0002568155759945512,0.0015409800689667463,0,1,-1000,0,0,0,-1,0,0,1500.0
03:07:05.865,STABILIZE,-35.3632622,149.1652375,0,-0.0013500790810212493,0.0009702930110506713,0.0226926077157259,0.00014473387273028493,0.0002568155759945512,0.0015409800689667463,0,1,-1000,0,0,0,-1,0,0,1500.0
03:07:06.067,STABILIZE,-35.3632622,149.1652375,0,-0.0013500790810212493,0.0009702930110506713,0.0226926077157259,0.00014473387273028493,0.0002568155759945512,0.0015409800689667463,0,1,-1000,0,0,0,-1,0,0,1500.0
03:07:06.268,STABILIZE,-35.3632622,149.1652375,0,-0.0013500790810212493,0.0009702930110506713,0.0226926077157259,0.00014473387273028493,0.0002568155759945512,0.0015409800689667463,0,1,-1000,0,0,0,-1,0,0,1500.0
03:07:06.470,STABILIZE,-35.3632622,149.1652375,0,-0.0010249946499243379,0.0009844907326623797,0.022513069212436676,0.00012630363926291466,0.0002916755620390177,0.0015899604186415672,0,1,-1000,0,0,0,-1,0,0,1500.0
03:07:06.671,STABILIZE,-35.3632622,149.1652375,0,-0.0010702016297727823,0.0009787359740585089,0.022458279505372047,0.0003956487635150552,0.0002627265057526529,0.0015534061240032315,0,1,-1000,0,1,1,-1,2,2,1500.0
03:07:06.872,STABILIZE,-35.3632622,149.1652375,0,-0.0010702016297727823,0.0009787359740585089,0.022458279505372047,0.0003956487635150552,0.0002627265057526529,0.0015534061240032315,0,1,-1000,0,1,1,-1,2,2,1500.0
03:07:07.074,STABILIZE,-35.3632622,149.1652375,0,-0.0011235426645725965,0.0009815702214837074,0.022394461557269096,0.00032052077585831285,0.00028913130518049,0.0014672712422907352,0,1,-1000,0,0,0,-1,2,2,1500.0
03:07:07.275,STABILIZE,-35.3632622,149.1652375,0,-0.0011235426645725965,0.0009815702214837074,0.022394461557269096,0.00032052077585831285,0.00028913130518049,0.0014672712422907352,0,1,-1000,0,0,0,-1,2,1,1500.0
03:07:07.476,STABILIZE,-35.3632622,149.1652375,0,-0.0012163073988631368,0.0009918913710862398,0.022290533408522606,0.0002583996392786503,0.00029851775616407394,0.001586518483236432,0,2,-1000,1,1,0,-1,2,1,1500.0
03:07:07.678,STABILIZE,-35.3632622,149.1652375,0,-0.0012163073988631368,0.0009918913710862398,0.022290533408522606,0.0002583996392786503,0.00029851775616407394,0.001586518483236432,0,2,-1000,1,1,0,-1,2,1,1500.0
03:07:07.879,STABILIZE,-35.3632622,149.1652375,0,-0.0012163073988631368,0.0009918913710862398,0.022290533408522606,0.0002583996392786503,0.00029851775616407394,0.001586518483236432,0,2,-1000,1,1,0,-1,2,1,1500.0
03:07:08.080,STABILIZE,-35.3632622,149.1652375,0,-0.0012163073988631368,0.0009918913710862398,0.022290533408522606,0.0002583996392786503,0.00029851775616407394,0.001586518483236432,0,2,-1000,1,1,0,-1,2,1,1500.0
03:07:08.282,STABILIZE,-35.3632622,149.1652375,0,-0.0013182907132431865,0.0009998641908168793,0.0221550315618515,0.0002928260946646333,0.00027998880250379443,0.0014591221697628498,0,1,-1000,1,1,1,-1,1,0,1500.0
03:07:08.483,STABILIZE,-35.3632622,149.1652375,0,-0.0013350039953365922,0.0010056872852146626,0.022126924246549606,0.0003207293339073658,0.00035066017881035805,0.0014777895994484425,0,1,-1000,1,1,1,-1,1,0,1500.0
03:07:08.686,AUTO,-35.3632622,149.1652375,0,-0.001354994485154748,0.001003383076749742,0.0220740158110857,0.00031571713043376803,0.0002424679114483297,0.0016172656323760748,0,1,-1000,1,1,0,-1,1,0,1500.0
03:07:08.889,AUTO,-35.3632622,149.1652375,9,-0.0013655960792675614,0.0010086937109008431,0.022032978013157845,0.0002560190623626113,0.00023687095381319523,0.0015459989663213491,0,1,-1000,1,1,1,-1,1,0,189301.0
03:07:09.092,AUTO,-35.3632622,149.1652375,9,-0.0013655960792675614,0.0010086937109008431,0.022032978013157845,0.0002560190623626113,0.00023687095381319523,0.0015459989663213491,0,1,-1000,1,1,1,-1,1,0,189301.0
03:07:09.294,AUTO,-35.3632622,149.1652375,10,-0.0013780893059447408,0.0010153560433536768,0.022001400589942932,0.0001312915701419115,0.00028237776132300496,0.0014225563500076532,0,2,-1000,1,1,1,-1,0,0,189301.0
03:07:09.495,AUTO,-35.3632622,149.1652375,11,-0.001381638110615313,0.0010177260264754295,0.021951843053102493,0.000193081796169281,0.00026114005595445633,0.0016268694307655096,0,1,-1000,0,1,0,-1,0,0,189301.0
03:07:09.697,AUTO,-35.3632622,149.1652375,11,-0.001381638110615313,0.0010177260264754295,0.021951843053102493,0.000193081796169281,0.00026114005595445633,0.0016268694307655096,0,1,-1000,0,1,0,-1,0,0,189301.0
03:07:09.899,AUTO,-35.3632622,149.1652375,11,-0.001381638110615313,0.0010177260264754295,0.021951843053102493,0.000193081796169281,0.00026114005595445633,0.0016268694307655096,0,1,-1000,0,1,0,-1,0,0,189301.0
03:07:10.100,AUTO,-35.3632622,149.1652375,11,-0.001381638110615313,0.0010177260264754295,0.021951843053102493,0.000193081796169281,0.00026114005595445633,0.0016268694307655096,0,1,-1000,0,1,0,-1,0,0,189301.0
03:07:10.302,AUTO,-35.3632621,149.1652375,13,-0.0011494435602799058,0.001115606282837689,0.02183513529598713,0.0002218250883743167,0.00020232837414368987,0.0014521556440740824,0,2,-1000,0,0,0,0,0,0,189301.0
03:07:10.504,AUTO,-35.3632621,149.1652375,14,-0.0011128569021821022,0.0011719398899003863,0.02178710140287876,0.00022187561262398958,0.00026078434893861413,0.0015172180719673634,0,1,-1000,0,0,1,0,0,0,189301.0
03:07:10.705,AUTO,-35.3632621,149.1652375,15,-0.0010736886179074645,0.0012368632014840841,0.021746881306171417,0.0002768370322883129,0.0002805924159474671,0.001480401260778308,0,1,-1000,0,1,0,0,0,0,189301.0
03:07:10.906,AUTO,-35.3632621,149.1652375,16,-0.001027741003781557,0.0012996757868677378,0.02170986868441105,0.0003723289701156318,0.0002745208330452442,0.0015546947252005339,0,2,-1000,0,0,0,0,0,0,189301.0
03:07:11.108,AUTO,-35.3632621,149.1652375,16,-0.001027741003781557,0.0012996757868677378,0.02170986868441105,0.0003723289701156318,0.0002745208330452442,0.0015546947252005339,0,2,-1000,0,0,0,0,0,0,189301.0
03:07:11.310,AUTO,-35.3632621,149.1652375,17,-0.0009755922947078943,0.0013695567613467574,0.021651428192853928,0.00032105640275403857,0.00039354810724034905,0.0014046980068087578,0,1,-1000,0,0,1,0,0,0,189301.0
03:07:11.512,AUTO,-35.3632621,149.1652375,18,-0.0009198919287882745,0.001443273387849331,0.021612538024783134,0.00027573847910389304,0.0002802415983751416,0.0014290305553004146,0,1,-1000,0,1,0,0,0,-1,189301.0
03:07:11.713,AUTO,-35.3632621,149.1652375,18,-0.0009198919287882745,0.001443273387849331,0.021612538024783134,0.00027573847910389304,0.0002802415983751416,0.0014290305553004146,0,1,-1000,0,1,0,0,0,-1,189301.0
03:07:11.915,AUTO,-35.3632621,149.1652375,18,-0.0009198919287882745,0.001443273387849331,0.021612538024783134,0.00027573847910389304,0.0002802415983751416,0.0014290305553004146,0,1,-1000,0,1,0,0,0,-1,266088.0
03:07:12.117,AUTO,-35.3632621,149.1652375,18,-0.0009198919287882745,0.001443273387849331,0.021612538024783134,0.00027573847910389304,0.0002802415983751416,0.0014290305553004146,0,1,-1000,0,1,0,0,0,-1,266088.0
03:07:12.319,AUTO,-35.3632621,149.1652375,20,-0.0007272942457348108,0.0016581108793616295,0.021446729078888893,0.0002793372259475291,0.000334063486661762,0.001450330950319767,0,1,-1000,1,1,0,0,0,-1,266088.0
03:07:12.520,AUTO,-35.3632621,149.1652375,21,-0.0006661465158686042,0.0017407971899956465,0.021395517513155937,0.00022631289903074503,0.00033772410824894905,0.0013980318326503038,0,2,-1000,1,0,1,0,0,-1,266088.0
03:07:12.721,AUTO,-35.3632621,149.1652375,49,0.002718414878472686,-3.3660337066976354e-05,0.02134392224252224,0.010010719299316406,-0.006558872293680906,0.0014080621767789125,0,0,-1170,10,-5,1,0,0,-28,266088.0
03:07:12.923,AUTO,-35.3632621,149.1652375,172,0.0030503582675009966,-0.00015326707216445357,0.021274998784065247,-0.007705938071012497,0.0034443738404661417,0.002493036212399602,0,0,-1151,-7,4,1,0,0,-68,266088.0
03:07:13.125,AUTO,-35.3632621,149.1652375,172,0.0030503582675009966,-0.00015326707216445357,0.021274998784065247,-0.007705938071012497,0.0034443738404661417,0.002493036212399602,0,0,-1151,-7,4,1,0,0,-68,266088.0
03:07:13.327,AUTO,-35.3632621,149.1652375,384,0.0018681916408240795,0.0008024253183975816,0.021149706095457077,-0.0012471477966755629,0.003594899782910943,0.0012908992357552052,0,0,-1117,0,3,1,0,1,-100,266088.0
03:07:13.528,AUTO,-35.3632621,149.1652375,663,0.0009720892994664609,0.0015445661265403032,0.021108713001012802,-0.0055296397767961025,0.0023139542900025845,0.00129906483925879,0,0,-1083,-4,3,1,0,1,-124,266088.0
03:07:13.730,AUTO,-35.3632621,149.1652375,663,0.0009720892994664609,0.0015445661265403032,0.021108713001012802,-0.0055296397767961025,0.0023139542900025845,0.00129906483925879,0,0,-1083,-4,3,1,0,1,-124,266088.0
03:07:13.931,AUTO,-35.3632621,149.1652375,663,0.0009720892994664609,0.0015445661265403032,0.021108713001012802,-0.0055296397767961025,0.0023139542900025845,0.00129906483925879,0,0,-1083,-4,3,1,0,1,-124,266088.0
03:07:14.133,AUTO,-35.3632621,149.1652375,663,0.0009720892994664609,0.0015445661265403032,0.021108713001012802,-0.0055296397767961025,0.0023139542900025845,0.00129906483925879,0,0,-1083,-4,3,1,0,1,-124,266088.0
03:07:14.335,AUTO,-35.363262,149.1652375,1722,2.9554517823271453e-05,0.0030662878416478634,0.020995743572711945,0.0009367152233608067,0.004837938584387302,0.006123720668256283,0,0,-1002,1,5,5,0,0,-145,266088.0
03:07:14.536,AUTO,-35.363262,149.1652375,2097,0.0003227297274861485,0.0031271427869796753,0.021390464156866074,0.0005344015080481768,-0.0006742339464835823,0.001902060816064477,0,0,-1007,1,0,1,0,0,-147,266088.0
03:07:14.738,AUTO,-35.363262,149.1652375,2477,0.0064188819378614426,0.0024655063170939684,0.02121254801750183,0.04401295632123947,-0.0048546199686825275,0.0015929018845781684,0,0,-1008,44,-3,1,0,0,-149,275799.0
03:07:14.940,AUTO,-35.363262,149.1652375,2863,0.01803617924451828,0.0010250232880935073,-0.005780280102044344,0.04708055034279823,-0.00667008850723505,0.002457893220707774,0,0,-1003,47,-6,2,0,2,-151,275799.0
03:07:15.142,AUTO,-35.363262,149.1652375,3251,0.029604582116007805,-0.0009230180294252932,-0.005334986839443445,0.045666422694921494,-0.007665683981031179,0.0030803759582340717,0,0,-1001,46,-6,2,0,8,-151,275799.0
03:07:15.344,AUTO,-35.363262,149.1652375,3251,0.029604582116007805,-0.0009230180294252932,-0.005334986839443445,0.045666422694921494,-0.007665683981031179,0.0030803759582340717,0,0,-1001,46,-6,2,0,8,-151,275799.0
03:07:15.546,AUTO,-35.3632619,149.1652378,3640,0.0407581552863121,-0.003077129367738962,-0.004860491957515478,0.04372018203139305,-0.008581363596022129,0.003447328694164753,0,-2,-1000,44,-8,3,1,16,-151,275799.0
03:07:15.754,AUTO,-35.3632619,149.1652378,3640,0.0407581552863121,-0.003077129367738962,-0.004860491957515478,0.04372018203139305,-0.008581363596022129,0.003447328694164753,0,-2,-1000,44,-8,3,1,16,-151,275799.0
03:07:15.956,AUTO,-35.3632619,149.1652378,3640,0.0407581552863121,-0.003077129367738962,-0.004860491957515478,0.04372018203139305,-0.008581363596022129,0.003447328694164753,0,-2,-1000,44,-8,3,1,16,-151,275799.0
03:07:16.161,AUTO,-35.3632615,149.1652403,4803,0.05503665655851364,0.0010400336468592286,-0.018871773034334183,-0.08230385184288025,0.09590718895196915,-0.1055242195725441,1,-8,-991,-81,96,-105,9,50,-148,275799.0
03:07:16.362,AUTO,-35.3632615,149.1652403,4803,0.05503665655851364,0.0010400336468592286,-0.018871773034334183,-0.08230385184288025,0.09590718895196915,-0.1055242195725441,1,-8,-991,-81,96,-105,9,50,-148,275799.0
03:07:16.564,AUTO,-35.3632613,149.1652418,5182,0.018520409241318703,0.021161215379834175,-0.04281317815184593,-0.1493212729692459,0.04540862515568733,-0.09880363196134567,3,-9,-1001,-148,45,-99,7,55,-147,275799.0
03:07:16.766,AUTO,-35.3632612,149.1652432,5560,-0.003613740671426058,0.03113412670791149,-0.06859956681728363,-0.04823476821184158,0.031079893931746483,-0.09934256970882416,4,-12,-1009,-47,31,-99,3,53,-149,275799.0
03:07:16.968,AUTO,-35.3632611,149.1652446,5943,-0.012616151012480259,0.03541357442736626,-0.09261123836040497,-0.021448981016874313,0.014396725222468376,-0.09040199220180511,7,-8,-1006,-20,15,-90,-3,49,-150,275799.0
03:07:17.170,AUTO,-35.3632613,149.1652458,6328,-0.02142476662993431,0.03239447996020317,-0.10894790291786194,-0.0658150464296341,-0.046802785247564316,-0.034625548869371414,9,-7,-998,-65,-46,-34,-10,42,-151,275799.0
03:07:17.372,AUTO,-35.3632613,149.1652458,6328,-0.02142476662993431,0.03239447996020317,-0.10894790291786194,-0.0658150464296341,-0.046802785247564316,-0.034625548869371414,9,-7,-998,-65,-46,-34,-10,42,-151,275799.0
03:07:17.574,AUTO,-35.3632614,149.1652469,6713,-0.04284576699137688,0.014421138912439346,-0.10987403988838196,-0.0936972051858902,-0.0841740071773529,0.01285190973430872,7,-5,-1000,-92,-83,12,-14,33,-150,275799.0
03:07:17.776,AUTO,-35.3632614,149.1652469,6713,-0.04284576699137688,0.014421138912439346,-0.10987403988838196,-0.0936972051858902,-0.0841740071773529,0.01285190973430872,7,-5,-1000,-92,-83,12,-14,33,-150,960.0
03:07:17.979,AUTO,-35.3632614,149.1652469,6713,-0.04284576699137688,0.014421138912439346,-0.10987403988838196,-0.0936972051858902,-0.0841740071773529,0.01285190973430872,7,-5,-1000,-92,-83,12,-14,33,-150,960.0
03:07:18.181,AUTO,-35.3632621,149.1652476,7866,-0.08453497290611267,-0.03177338466048241,-0.07803535461425781,0.024004777893424034,-0.0011215424165129662,0.014798048883676529,0,2,-1003,24,0,14,-3,-22,-150,960.0
03:07:18.382,AUTO,-35.3632621,149.1652476,7866,-0.08453497290611267,-0.03177338466048241,-0.07803535461425781,0.024004777893424034,-0.0011215424165129662,0.014798048883676529,0,2,-1003,24,0,14,-3,-22,-150,960.0
03:07:18.584,AUTO,-35.363262,149.1652468,8250,-0.07403521984815598,-0.030538320541381836,-0.0736987441778183,0.05323611944913864,0.004463085904717445,0.013393443077802658,-3,5,-1001,53,5,12,2,-41,-150,960.0
03:07:18.787,AUTO,-35.363262,149.1652454,8633,-0.059756457805633545,-0.02859763614833355,-0.07058168947696686,0.06003744527697563,0.01038475800305605,0.011091489344835281,-7,8,-1000,60,10,10,8,-56,-150,960.0
03:07:18.988,AUTO,-35.3632618,149.1652437,9015,-0.04430312290787697,-0.02475697733461857,-0.0681682676076889,0.06370190531015396,0.01860843040049076,0.00903367530554533,-10,9,-1001,64,19,8,12,-68,-150,960.0
03:07:19.191,AUTO,-35.3632615,149.1652418,9397,-0.028097502887248993,-0.019081581383943558,-0.06595640629529953,0.06569846719503403,0.025472791865468025,0.00814095139503479,-12,13,-1003,66,26,7,15,-74,-150,960.0
03:07:19.394,AUTO,-35.3632611,149.1652396,9780,-0.011499551124870777,-0.012141183018684387,-0.06382176280021667,0.06760567426681519,0.02953421138226986,0.006615629885345697,-12,13,-1004,68,30,6,16,-77,-151,960.0
03:07:19.595,AUTO,-35.3632611,149.1652396,9780,-0.011499551124870777,-0.012141183018684387,-0.06382176280021667,0.06760567426681519,0.02953421138226986,0.006615629885345697,-12,13,-1004,68,30,6,16,-77,-151,960.0
03:07:19.797,AUTO,-35.3632611,149.1652396,9780,-0.011499551124870777,-0.012141183018684387,-0.06382176280021667,0.06760567426681519,0.02953421138226986,0.006615629885345697,-12,13,-1004,68,30,6,16,-77,-151,960.0
03:07:19.999,AUTO,-35.3632611,149.1652396,9780,-0.011499551124870777,-0.012141183018684387,-0.06382176280021667,0.06760567426681519,0.02953421138226986,0.006615629885345697,-12,13,-1004,68,30,6,16,-77,-151,960.0
03:07:20.201,AUTO,-35.3632601,149.1652336,10949,0.03864755854010582,0.01024154294282198,-0.05801285803318024,0.06548425555229187,0.026978084817528725,0.00473014498129487,-11,11,-1005,66,27,4,10,-59,-155,960.0
03:07:20.402,AUTO,-35.3632598,149.1652321,11344,0.05465026944875717,0.01622534543275833,-0.056314047425985336,0.06307660788297653,0.021636633202433586,0.004762190859764814,-9,10,-1004,63,22,4,6,-45,-156,960.0
03:07:20.604,AUTO,-35.3632598,149.1652321,11344,0.05465026944875717,0.01622534543275833,-0.056314047425985336,0.06307660788297653,0.021636633202433586,0.004762190859764814,-9,10,-1004,63,22,4,6,-45,-156,960.0
03:07:20.806,AUTO,-35.3632597,149.165231,11749,0.07013941556215286,0.020603645592927933,-0.05485745891928673,0.059272244572639465,0.014448599889874458,0.004570419434458017,-6,7,-1002,59,15,4,1,-28,-156,128539.0
03:07:21.008,AUTO,-35.3632597,149.1652304,12145,0.08423826098442078,0.022808577865362167,-0.053936708718538284,0.05474766716361046,0.0055089849047362804,0.004506997764110565,-3,4,-1000,55,6,3,-3,-8,-155,128539.0
03:07:21.210,AUTO,-35.3632598,149.1652304,12539,0.09588136523962021,0.02360648289322853,-0.054957468062639236,0.02435036562383175,0.014121009036898613,-0.020901236683130264,0,0,-995,25,14,-21,-7,13,-154,128539.0
03:07:21.412,AUTO,-35.3632598,149.1652309,12927,0.09135377407073975,0.03715898469090462,-0.06923428177833557,-0.03902601823210716,0.07300493121147156,-0.08449708670377731,3,-3,-992,-38,73,-84,-11,35,-151,128539.0
03:07:21.614,AUTO,-35.3632598,149.1652309,12927,0.09135377407073975,0.03715898469090462,-0.06923428177833557,-0.03902601823210716,0.07300493121147156,-0.08449708670377731,3,-3,-992,-38,73,-84,-11,35,-151,128539.0
03:07:21.816,AUTO,-35.3632598,149.1652309,12927,0.09135377407073975,0.03715898469090462,-0.06923428177833557,-0.03902601823210716,0.07300493121147156,-0.08449708670377731,3,-3,-992,-38,73,-84,-11,35,-151,128539.0
03:07:22.018,AUTO,-35.3632598,149.1652309,12927,0.09135377407073975,0.03715898469090462,-0.06923428177833557,-0.03902601823210716,0.07300493121147156,-0.08449708670377731,3,-3,-992,-38,73,-84,-11,35,-151,128539.0
03:07:22.219,AUTO,-35.3632613,149.1652356,14045,0.013832171447575092,0.030703138560056686,-0.11127753555774689,-0.16245056688785553,-0.12003487348556519,0.019166138023138046,13,-10,-1003,-161,-119,18,-35,75,-145,128539.0
03:07:22.421,AUTO,-35.363262,149.1652376,14418,-0.023783104494214058,0.0038146693259477615,-0.10644344240427017,-0.14005275070667267,-0.09151671826839447,0.02357739955186844,16,-8,-1012,-139,-90,23,-34,70,-148,128539.0
03:07:22.622,AUTO,-35.363262,149.1652376,14418,-0.023783104494214058,0.0038146693259477615,-0.10644344240427017,-0.14005275070667267,-0.09151671826839447,0.02357739955186844,16,-8,-1012,-139,-90,23,-34,70,-148,128539.0
03:07:22.824,AUTO,-35.3632627,149.1652393,14799,-0.04931921139359474,-0.014334235340356827,-0.10257371515035629,-0.07556051760911942,-0.05821448564529419,0.011275429278612137,14,-6,-1014,-74,-57,10,-29,57,-151,128539.0
03:07:23.026,AUTO,-35.3632632,149.1652406,15187,-0.06270784139633179,-0.02436395362019539,-0.10309606790542603,-0.031261544674634933,-0.025833414867520332,-0.01027613878250122,12,-6,-1010,-30,-25,-10,-22,40,-153,128539.0
03:07:23.228,AUTO,-35.3632636,149.1652415,15579,-0.06419923901557922,-0.02890879102051258,-0.10700008273124695,0.010515452362596989,-0.012913626618683338,-0.01797865331172943,7,-3,-1005,11,-12,-18,-14,22,-155,128539.0
03:07:23.430,AUTO,-35.3632638,149.1652419,15972,-0.05883979797363281,-0.030916599556803703,-0.11270153522491455,0.028864076361060143,-0.0036452212370932102,-0.022285472601652145,3,-1,-1001,29,-2,-22,-7,5,-155,128539.0
03:07:23.632,AUTO,-35.3632638,149.1652419,15972,-0.05883979797363281,-0.030916599556803703,-0.11270153522491455,0.028864076361060143,-0.0036452212370932102,-0.022285472601652145,3,-1,-1001,29,-2,-22,-7,5,-155,128539.0
03:07:23.834,AUTO,-35.3632638,149.1652419,15972,-0.05883979797363281,-0.030916599556803703,-0.11270153522491455,0.028864076361060143,-0.0036452212370932102,-0.022285472601652145,3,-1,-1001,29,-2,-22,-7,5,-155,191305.0
03:07:24.036,AUTO,-35.3632638,149.1652419,15972,-0.05883979797363281,-0.030916599556803703,-0.11270153522491455,0.028864076361060143,-0.0036452212370932102,-0.022285472601652145,3,-1,-1001,29,-2,-22,-7,5,-155,191305.0
03:07:24.238,AUTO,-35.3632636,149.1652407,17151,-0.02990245446562767,-0.027133837342262268,-0.12981751561164856,0.045842353254556656,0.014643357135355473,-0.01932021789252758,-7,3,-1000,46,15,-19,11,-30,-153,191305.0
03:07:24.440,AUTO,-35.3632633,149.1652397,17539,-0.018529674038290977,-0.02263847552239895,-0.13487683236598969,0.04266471415758133,0.024888649582862854,-0.021785922348499298,-7,4,-1000,43,25,-21,16,-36,-153,191305.0
03:07:24.642,AUTO,-35.3632633,149.1652397,17539,-0.018529674038290977,-0.02263847552239895,-0.13487683236598969,0.04266471415758133,0.024888649582862854,-0.021785922348499298,-7,4,-1000,43,25,-21,16,-36,-153,191305.0
03:07:24.844,AUTO,-35.3632629,149.1652386,17927,-0.007291076704859734,-0.016205700114369392,-0.13997042179107666,0.04664204642176628,0.02759070135653019,-0.02114737778902054,-7,4,-1001,47,28,-21,19,-40,-153,191305.0
03:07:25.045,AUTO,-35.3632624,149.1652375,18316,0.003338205860927701,-0.00801293458789587,-0.14579220116138458,0.04363163933157921,0.03469536453485489,-0.022663384675979614,-11,4,-1002,44,35,-22,20,-40,-154,191305.0
03:07:25.248,AUTO,-35.3632619,149.1652364,18707,0.0138385109603405,0.000742637028452009,-0.15198242664337158,0.03834211826324463,0.03974390774965286,-0.028299009427428246,-9,5,-1002,39,40,-28,20,-37,-154,191305.0
03:07:25.450,AUTO,-35.3632615,149.1652354,19099,0.023497426882386208,0.010386524721980095,-0.15892285108566284,0.04207219183444977,0.0347457118332386,-0.029431726783514023,-9,3,-1002,42,35,-29,18,-32,-155,191305.0
03:07:25.655,AUTO,-35.3632615,149.1652354,19099,0.023497426882386208,0.010386524721980095,-0.15892285108566284,0.04207219183444977,0.0347457118332386,-0.029431726783514023,-9,3,-1002,42,35,-29,18,-32,-155,191305.0
03:07:25.861,AUTO,-35.3632615,149.1652354,19099,0.023497426882386208,0.010386524721980095,-0.15892285108566284,0.04207219183444977,0.0347457118332386,-0.029431726783514023,-9,3,-1002,42,35,-29,18,-32,-155,191305.0
03:07:26.064,AUTO,-35.3632615,149.1652354,19099,0.023497426882386208,0.010386524721980095,-0.15892285108566284,0.04207219183444977,0.0347457118332386,-0.029431726783514023,-9,3,-1002,42,35,-29,18,-32,-155,191305.0
03:07:26.266,AUTO,-35.3632606,149.1652336,20277,0.045600589364767075,0.038870587944984436,-0.18753643333911896,0.025444304570555687,0.032771166414022446,-0.0458064042031765,-4,1,-1000,26,33,-45,1,-3,-155,191305.0
03:07:26.468,AUTO,-35.3632605,149.1652335,20669,0.050510093569755554,0.04680338874459267,-0.19990944862365723,0.018121387809515,0.026112228631973267,-0.04726467281579971,0,0,-998,18,26,-47,-5,9,-154,191305.0
03:07:26.669,AUTO,-35.3632606,149.1652339,21061,0.044662345200777054,0.043937798589468,-0.20491711795330048,-0.05195321515202522,-0.04552648589015007,0.002399043645709753,2,-1,-994,-51,-44,2,-13,22,-152,191305.0
03:07:26.871,AUTO,-35.3632606,149.1652339,21061,0.044662345200777054,0.043937798589468,-0.20491711795330048,-0.05195321515202522,-0.04552648589015007,0.002399043645709753,2,-1,-994,-51,-44,2,-13,22,-152,211476.0
03:07:27.073,AUTO,-35.3632609,149.1652346,21446,0.027547216042876244,0.0279021505266428,-0.2007962316274643,-0.07529491931200027,-0.07006462663412094,0.028895476832985878,6,-2,-997,-74,-69,28,-18,31,-151,211476.0
03:07:27.275,AUTO,-35.3632613,149.1652354,21828,0.008286666125059128,0.011845003813505173,-0.19394002854824066,-0.07050393521785736,-0.055733077228069305,0.02795657142996788,6,-4,-1001,-69,-55,27,-20,35,-151,211476.0
03:07:27.477,AUTO,-35.3632617,149.1652363,22212,-0.007247202564030886,6.211573236214463e-06,-0.18813006579875946,-0.05352356284856796,-0.03614770993590355,0.018933573737740517,7,-3,-1004,-52,-35,18,-18,33,-152,211476.0
03:07:27.679,AUTO,-35.3632617,149.1652363,22212,-0.007247202564030886,6.211573236214463e-06,-0.18813006579875946,-0.05352356284856796,-0.03614770993590355,0.018933573737740517,7,-3,-1004,-52,-35,18,-18,33,-152,211476.0
03:07:27.881,AUTO,-35.3632617,149.1652363,22212,-0.007247202564030886,6.211573236214463e-06,-0.18813006579875946,-0.05352356284856796,-0.03614770993590355,0.018933573737740517,7,-3,-1004,-52,-35,18,-18,33,-152,211476.0
03:07:28.083,AUTO,-35.3632617,149.1652363,22212,-0.007247202564030886,6.211573236214463e-06,-0.18813006579875946,-0.05352356284856796,-0.03614770993590355,0.018933573737740517,7,-3,-1004,-52,-35,18,-18,33,-152,211476.0
03:07:28.284,AUTO,-35.3632624,149.1652381,23371,-0.0237297173589468,-0.013275685720145702,-0.18858449161052704,0.005520430859178305,-0.002674918156117201,-0.017417289316654205,3,-1,-1002,6,-1,-17,-8,13,-154,211476.0
03:07:28.486,AUTO,-35.3632626,149.1652384,23761,-0.02161041460931301,-0.013365792110562325,-0.19367901980876923,0.011321591213345528,0.0031785392202436924,-0.02470390498638153,2,-1,-1001,12,4,-25,-5,6,-154,211476.0
03:07:28.687,AUTO,-35.3632626,149.1652384,24151,-0.01767982915043831,-0.01188695803284645,-0.20046906173229218,0.018550435081124306,0.00891964416950941,-0.029100758954882622,1,0,-1001,19,9,-29,-2,0,-154,211476.0
03:07:28.890,AUTO,-35.3632626,149.1652384,24151,-0.01767982915043831,-0.01188695803284645,-0.20046906173229218,0.018550435081124306,0.00891964416950941,-0.029100758954882622,1,0,-1001,19,9,-29,-2,0,-154,211476.0
03:07:29.091,AUTO,-35.3632626,149.1652384,24542,-0.013008670881390572,-0.009404255077242851,-0.20820726454257965,0.018178321421146393,0.011223428882658482,-0.03081243298947811,0,0,-1000,18,11,-30,0,-4,-154,211476.0
03:07:29.293,AUTO,-35.3632625,149.1652382,24932,-0.007863718084990978,-0.0068569728173315525,-0.21588636934757233,0.020922547206282616,0.010086331516504288,-0.029050467535853386,-1,0,-1000,21,10,-29,2,-7,-154,211476.0
03:07:29.495,AUTO,-35.3632625,149.165238,25321,-0.016192952170968056,-0.004464446566998959,-0.22321172058582306,-0.02407144568860531,0.010007305070757866,-0.03064674884080887,-2,1,-1001,-23,11,-30,2,-10,-153,211476.0
03:07:29.696,AUTO,-35.3632625,149.165238,25321,-0.016192952170968056,-0.004464446566998959,-0.22321172058582306,-0.02407144568860531,0.010007305070757866,-0.03064674884080887,-2,1,-1001,-23,11,-30,2,-10,-153,211476.0
03:07:29.898,AUTO,-35.3632625,149.165238,25321,-0.016192952170968056,-0.004464446566998959,-0.22321172058582306,-0.02407144568860531,0.010007305070757866,-0.03064674884080887,-2,1,-1001,-23,11,-30,2,-10,-153,119349.0
03:07:30.100,AUTO,-35.3632625,149.165238,25321,-0.016192952170968056,-0.004464446566998959,-0.22321172058582306,-0.02407144568860531,0.010007305070757866,-0.03064674884080887,-2,1,-1001,-23,11,-30,2,-10,-153,119349.0
03:07:30.302,AUTO,-35.3632623,149.1652366,26490,0.008128653280436993,0.0025162084493786097,-0.24137122929096222,0.03617230802774429,0.011866900138556957,-0.021368039771914482,-3,2,-1000,37,12,-21,2,-15,-154,119349.0
03:07:30.503,AUTO,-35.3632622,149.1652362,26881,0.014924848452210426,0.004762252327054739,-0.2458038032054901,0.021199923008680344,0.007470578886568546,-0.015321941114962101,-3,2,-999,22,8,-15,1,-11,-154,119349.0
03:07:30.704,AUTO,-35.3632622,149.1652359,27272,0.017952820286154747,0.005727147217839956,-0.2490842640399933,0.0067527517676353455,0.0020128930918872356,-0.010477184318006039,-2,1,-999,7,2,-10,1,-7,-154,119349.0
03:07:30.906,AUTO,-35.3632621,149.1652357,27662,0.0182768814265728,0.006042970344424248,-0.25178584456443787,-0.003133715596050024,0.0019603786058723927,-0.009855777956545353,-2,0,-999,-2,2,-10,1,-3,-154,119349.0
03:07:31.108,AUTO,-35.3632621,149.1652357,27662,0.0182768814265728,0.006042970344424248,-0.25178584456443787,-0.003133715596050024,0.0019603786058723927,-0.009855777956545353,-2,0,-999,-2,2,-10,1,-3,-154,119349.0
03:07:31.309,AUTO,-35.3632621,149.1652356,28051,0.017383510246872902,0.007122610695660114,-0.2524856925010681,-0.0032960630487650633,0.006164649501442909,0.00244894833303988,-1,0,-999,-2,7,2,1,0,-153,119349.0
03:07:31.511,AUTO,-35.363262,149.1652355,28439,0.015747493132948875,0.007940416224300861,-0.2503696084022522,-0.008419094607234001,0.0029008551500737667,0.011120636016130447,0,0,-999,-7,3,10,0,4,-153,119349.0
03:07:31.713,AUTO,-35.363262,149.1652355,28439,0.015747493132948875,0.007940416224300861,-0.2503696084022522,-0.008419094607234001,0.0029008551500737667,0.011120636016130447,0,0,-999,-7,3,10,0,4,-153,119349.0
03:07:31.914,AUTO,-35.363262,149.1652355,28439,0.015747493132948875,0.007940416224300861,-0.2503696084022522,-0.008419094607234001,0.0029008551500737667,0.011120636016130447,0,0,-999,-7,3,10,0,4,-153,119349.0
03:07:32.116,AUTO,-35.363262,149.1652355,28439,0.015747493132948875,0.007940416224300861,-0.2503696084022522,-0.008419094607234001,0.0029008551500737667,0.011120636016130447,0,0,-999,-7,3,10,0,4,-153,119349.0
03:07:32.317,AUTO,-35.3632619,149.165236,29600,0.007287450600415468,0.0076395985670387745,-0.23548699915409088,-0.014088267460465431,-0.00030411616899073124,0.024848822504281998,0,-1,-999,-12,0,24,-1,11,-153,119349.0
03:07:32.519,AUTO,-35.3632619,149.1652363,29987,0.004454891663044691,0.0068798307329416275,-0.22925494611263275,-0.006717560812830925,-0.002558819018304348,0.026355698704719543,1,-1,-1001,-5,-1,26,-1,12,-153,119349.0
03:07:32.720,AUTO,-35.3632619,149.1652365,30377,0.0021162356715649366,0.0058693187311291695,-0.22272656857967377,-0.011352341622114182,-0.004054478835314512,0.02748510241508484,1,-1,-1000,-10,-3,27,-2,12,-153,119349.0
03:07:32.922,AUTO,-35.3632619,149.1652368,30764,0.0003141420893371105,0.005140923894941807,-0.2165072113275528,-0.0037739798426628113,-0.0021616644226014614,0.02503914013504982,1,-1,-1000,-2,-1,25,-2,11,-153,64409.0
03:07:33.124,AUTO,-35.3632619,149.1652368,30764,0.0003141420893371105,0.005140923894941807,-0.2165072113275528,-0.0037739798426628113,-0.0021616644226014614,0.02503914013504982,1,-1,-1000,-2,-1,25,-2,11,-153,64409.0
03:07:33.326,AUTO,-35.3632619,149.165237,31152,-0.0010370040545240045,0.004491501022130251,-0.21058544516563416,-0.005731630604714155,-0.001253723748959601,0.02272483892738819,1,-1,-1000,-4,0,22,-2,10,-153,64409.0
03:07:33.528,AUTO,-35.3632619,149.1652373,31540,-0.002128956373780966,0.0035136821679770947,-0.2050492763519287,-0.005066010169684887,-0.002998616546392441,0.02076677419245243,1,-1,-1000,-4,-1,20,-3,9,-153,64409.0
03:07:33.730,AUTO,-35.3632619,149.1652373,31540,-0.002128956373780966,0.0035136821679770947,-0.2050492763519287,-0.005066010169684887,-0.002998616546392441,0.02076677419245243,1,-1,-1000,-4,-1,20,-3,9,-153,64409.0
03:07:33.931,AUTO,-35.3632619,149.1652373,31540,-0.002128956373780966,0.0035136821679770947,-0.2050492763519287,-0.005066010169684887,-0.002998616546392441,0.02076677419245243,1,-1,-1000,-4,-1,20,-3,9,-153,64409.0
03:07:34.133,AUTO,-35.3632619,149.1652373,31540,-0.002128956373780966,0.0035136821679770947,-0.2050492763519287,-0.005066010169684887,-0.002998616546392441,0.02076677419245243,1,-1,-1000,-4,-1,20,-3,9,-153,64409.0
03:07:34.335,AUTO,-35.3632619,149.1652377,32699,-0.0023875741753727198,0.002437580842524767,-0.1897180825471878,0.002330231945961714,-0.0015052580274641514,0.019704781472682953,0,0,-1000,3,0,19,-3,5,-153,64409.0
03:07:34.536,AUTO,-35.363262,149.1652378,33087,-0.002207173965871334,0.0016736813122406602,-0.18485569953918457,0.0012453686213120818,-0.0028081885538995266,0.020823733881115913,0,0,-1000,2,-1,20,-2,4,-153,64409.0
03:07:34.738,AUTO,-35.363262,149.1652379,33475,-0.0018893631640821695,0.0012576932786032557,-0.18066565692424774,0.0006257833447307348,-0.0010536395711824298,0.016392219811677933,0,0,-1000,1,0,16,-2,3,-153,64409.0
03:07:34.939,AUTO,-35.363262,149.1652379,33862,-0.001204448053613305,0.0010543697280809283,-0.1766674518585205,0.003806492080911994,-2.621754538267851e-05,0.016252916306257248,0,0,-1000,5,1,16,-2,2,-153,64409.0
03:07:35.141,AUTO,-35.363262,149.1652379,33862,-0.001204448053613305,0.0010543697280809283,-0.1766674518585205,0.003806492080911994,-2.621754538267851e-05,0.016252916306257248,0,0,-1000,5,1,16,-2,2,-153,64409.0
03:07:35.343,AUTO,-35.3632621,149.1652379,34250,-0.0005817011697217822,0.0007641096017323434,-0.17259666323661804,0.0008511244086548686,7.84709700383246e-05,0.016304505988955498,0,0,-999,1,0,16,-2,1,-153,64409.0
03:07:35.545,AUTO,-35.3632621,149.1652379,34639,5.814911855850369e-05,0.0006798774702474475,-0.1686026155948639,0.004599754698574543,0.000828209740575403,0.01639201119542122,0,0,-1000,5,2,16,-1,1,-153,64409.0
03:07:35.762,AUTO,-35.3632621,149.1652379,34639,5.814911855850369e-05,0.0006798774702474475,-0.1686026155948639,0.004599754698574543,0.000828209740575403,0.01639201119542122,0,0,-1000,5,2,16,-1,1,-153,64409.0
03:07:35.964,AUTO,-35.3632621,149.1652379,34639,5.814911855850369e-05,0.0006798774702474475,-0.1686026155948639,0.004599754698574543,0.000828209740575403,0.01639201119542122,0,0,-1000,5,2,16,-1,1,-153,177511.0
03:07:36.166,AUTO,-35.3632621,149.1652379,35803,0.0009861297439783812,0.000893047486897558,-0.1572449803352356,0.002584122121334076,0.003476617392152548,0.012562341056764126,0,0,-1000,3,4,12,-1,0,-153,177511.0
03:07:36.368,AUTO,-35.3632621,149.1652379,35803,0.0009861297439783812,0.000893047486897558,-0.1572449803352356,0.002584122121334076,0.003476617392152548,0.012562341056764126,0,0,-1000,3,4,12,-1,0,-153,177511.0
03:07:36.569,AUTO,-35.3632621,149.1652379,36192,0.0012143146013841033,0.001208969857543707,-0.15397094190120697,0.0015058480203151703,0.0007276835385710001,0.012316541746258736,0,0,-1000,2,1,12,0,0,-153,177511.0
03:07:36.771,AUTO,-35.3632621,149.1652378,36580,0.0012326189316809177,0.0013010648544877768,-0.1506526917219162,-0.004232599399983883,0.0008593200473114848,0.014047490432858467,0,0,-999,-3,2,14,0,0,-153,177511.0
03:07:36.972,AUTO,-35.3632621,149.1652378,36965,-0.006130659952759743,0.007670186925679445,-0.13310900330543518,-0.10378929227590561,0.09737730026245117,0.21693432331085205,-1,-1,-955,-102,98,217,-1,0,-149,177511.0
03:07:37.174,AUTO,-35.3632622,149.1652377,37325,-0.04677421227097511,0.05248424783349037,-0.02304292842745781,-0.2124646157026291,0.1922643780708313,0.6327745318412781,-2,-1,-949,-211,193,632,-7,-6,-136,177511.0
03:07:37.375,AUTO,-35.3632622,149.1652377,37325,-0.04677421227097511,0.05248424783349037,-0.02304292842745781,-0.2124646157026291,0.1922643780708313,0.6327745318412781,-2,-1,-949,-211,193,632,-7,-6,-136,177511.0
03:07:37.577,AUTO,-35.3632625,149.1652373,37650,-0.06634757667779922,0.0783279612660408,0.12134018540382385,-0.006925737485289574,-0.08791054785251617,0.4404825270175934,3,5,-913,-5,-86,440,-22,-21,-117,177511.0
03:07:37.779,AUTO,-35.3632625,149.1652373,37650,-0.06634757667779922,0.0783279612660408,0.12134018540382385,-0.006925737485289574,-0.08791054785251617,0.4404825270175934,3,5,-913,-5,-86,440,-22,-21,-117,177511.0
03:07:37.982,AUTO,-35.3632625,149.1652373,37650,-0.06634757667779922,0.0783279612660408,0.12134018540382385,-0.006925737485289574,-0.08791054785251617,0.4404825270175934,3,5,-913,-5,-86,440,-22,-21,-117,177511.0
03:07:38.184,AUTO,-35.3632644,149.1652344,38326,0.012182198464870453,-0.041754405945539474,0.22247125208377838,0.04378445819020271,-0.07260200381278992,-0.010721209459006786,1,7,-948,44,-71,-10,-24,-34,-65,177511.0
03:07:38.386,AUTO,-35.3632644,149.1652344,38326,0.012182198464870453,-0.041754405945539474,0.22247125208377838,0.04378445819020271,-0.07260200381278992,-0.010721209459006786,1,7,-948,44,-71,-10,-24,-34,-65,177511.0
03:07:38.587,AUTO,-35.3632649,149.1652336,38477,0.03054228611290455,-0.05191284418106079,0.21534493565559387,0.06834334880113602,-0.020145324990153313,-0.03508717566728592,1,10,-961,69,-18,-34,-14,-24,-53,177511.0
03:07:38.789,AUTO,-35.3632651,149.165233,38600,0.04246442764997482,-0.051535606384277344,0.20552612841129303,0.1427709311246872,0.013049894012510777,-0.039131779223680496,0,7,-972,143,14,-39,-4,-12,-45,177511.0
03:07:38.991,AUTO,-35.3632651,149.1652328,38705,0.036809828132390976,-0.045030638575553894,0.19625118374824524,-0.40233084559440613,0.03126675635576248,-0.03397445008158684,-2,-15,-976,-401,32,-33,5,0,-38,15451.0
03:07:39.193,AUTO,-35.3632649,149.1652328,38792,0.038998015224933624,-0.03680673614144325,0.18788151443004608,0.1929667592048645,0.03790203481912613,-0.023894445970654488,-2,20,-979,194,38,-23,12,10,-32,15451.0
03:07:39.395,AUTO,-35.3632649,149.1652328,38792,0.038998015224933624,-0.03680673614144325,0.18788151443004608,0.1929667592048645,0.03790203481912613,-0.023894445970654488,-2,20,-979,194,38,-23,12,10,-32,15451.0
03:07:39.599,AUTO,-35.3632646,149.1652331,38866,0.04172421991825104,-0.026114284992218018,0.1808357983827591,0.4951879382133484,0.044581253081560135,-0.024074457585811615,-3,13,-1001,496,45,-23,18,19,-29,15451.0
03:07:39.800,AUTO,-35.3632646,149.1652331,38866,0.04172421991825104,-0.026114284992218018,0.1808357983827591,0.4951879382133484,0.044581253081560135,-0.024074457585811615,-3,13,-1001,496,45,-23,18,19,-29,15451.0
03:07:40.002,AUTO,-35.3632646,149.1652331,38866,0.04172421991825104,-0.026114284992218018,0.1808357983827591,0.4951879382133484,0.044581253081560135,-0.024074457585811615,-3,13,-1001,496,45,-23,18,19,-29,15451.0
03:07:40.204,AUTO,-35.3632631,149.165235,39062,0.007039346732199192,0.0031329381745308638,0.16691459715366364,-0.018859414383769035,0.02408728003501892,-0.00880150031298399,-1,11,-966,-16,25,-8,22,30,-22,15451.0
03:07:40.406,AUTO,-35.3632626,149.1652358,39108,0.013237299397587776,0.00907280296087265,0.16256631910800934,0.6096101999282837,0.0163516066968441,-0.013506019487977028,-3,21,-981,611,17,-13,20,29,-17,15451.0
03:07:40.607,AUTO,-35.3632626,149.1652358,39108,0.013237299397587776,0.00907280296087265,0.16256631910800934,0.6096101999282837,0.0163516066968441,-0.013506019487977028,-3,21,-981,611,17,-13,20,29,-17,15451.0
03:07:40.809,AUTO,-35.3632621,149.1652365,39136,0.006862275302410126,0.026289742439985275,0.15330266952514648,0.2971128523349762,0.15463967621326447,0.008447064086794853,1,-5,-926,297,155,8,17,26,-5,15451.0
03:07:41.011,AUTO,-35.3632618,149.1652371,39127,-0.016654545441269875,0.03984839841723442,0.1527957022190094,-0.3960534930229187,-0.04391273856163025,0.00567207345739007,0,-36,-982,-395,-42,5,10,19,5,15451.0
03:07:41.212,AUTO,-35.3632616,149.1652375,39105,-0.020283155143260956,0.013109620660543442,0.15089380741119385,-0.7376086711883545,-0.12579363584518433,-0.004292032215744257,0,-36,-1023,-737,-124,-4,4,14,6,15451.0
03:07:41.414,AUTO,-35.3632615,149.1652378,39088,-0.012871833518147469,-0.015991490334272385,0.14860855042934418,-0.25173112750053406,-0.09476885944604874,-0.015835894271731377,0,4,-1020,-249,-93,-15,5,11,3,15451.0
03:07:41.616,AUTO,-35.3632615,149.1652378,39088,-0.012871833518147469,-0.015991490334272385,0.14860855042934418,-0.25173112750053406,-0.09476885944604874,-0.015835894271731377,0,4,-1020,-249,-93,-15,5,11,3,15451.0
03:07:41.817,AUTO,-35.3632615,149.1652378,39088,-0.012871833518147469,-0.015991490334272385,0.14860855042934418,-0.25173112750053406,-0.09476885944604874,-0.015835894271731377,0,4,-1020,-249,-93,-15,5,11,3,200050.0
03:07:42.019,AUTO,-35.3632615,149.1652378,39088,-0.012871833518147469,-0.015991490334272385,0.14860855042934418,-0.25173112750053406,-0.09476885944604874,-0.015835894271731377,0,4,-1020,-249,-93,-15,5,11,3,200050.0
03:07:42.221,AUTO,-35.3632602,149.1652386,39071,0.021399855613708496,-0.06894360482692719,0.1387358456850052,0.36630362272262573,-0.05727488920092583,-0.006628113798797131,-6,-10,-1003,366,-56,-6,37,14,-3,200050.0
03:07:42.422,AUTO,-35.3632592,149.165239,39076,0.014757650904357433,-0.08357962965965271,0.14395946264266968,-0.4980616569519043,-0.07243848592042923,0.1349097639322281,-9,-41,-1011,-497,-71,135,53,17,-6,200050.0
03:07:42.625,AUTO,-35.3632592,149.165239,39076,0.014757650904357433,-0.08357962965965271,0.14395946264266968,-0.4980616569519043,-0.07243848592042923,0.1349097639322281,-9,-41,-1011,-497,-71,135,53,17,-6,200050.0
03:07:42.827,AUTO,-35.3632579,149.1652394,39083,0.0027233948931097984,-0.09845491498708725,0.25086045265197754,-0.4209759533405304,-0.07600979506969452,0.6771901845932007,-13,-18,-1017,-419,-74,677,72,23,-5,200050.0
03:07:43.028,AUTO,-35.363256,149.1652401,39091,0.0030685104429721832,-0.11011351644992828,0.40880101919174194,0.5900061130523682,-0.05648189038038254,0.4482226073741913,-19,20,-1001,591,-55,448,92,28,-5,200050.0
03:07:43.230,AUTO,-35.3632538,149.1652408,39095,0.005920786410570145,-0.12219422310590744,0.4760112762451172,0.49716615676879883,-0.05933932587504387,0.14784225821495056,-25,2,-1010,498,-58,147,114,34,-4,200050.0
03:07:43.432,AUTO,-35.363251,149.1652417,39100,-0.0008197319693863392,-0.1346047818660736,0.48646312952041626,-0.306896448135376,-0.054616767913103104,-0.0003115153522230685,-31,-36,-1009,-306,-53,0,137,41,-4,200050.0
03:07:43.634,AUTO,-35.363251,149.1652417,39100,-0.0008197319693863392,-0.1346047818660736,0.48646312952041626,-0.306896448135376,-0.054616767913103104,-0.0003115153522230685,-31,-36,-1009,-306,-53,0,137,41,-4,200050.0
03:07:43.836,AUTO,-35.363251,149.1652417,39100,-0.0008197319693863392,-0.1346047818660736,0.48646312952041626,-0.306896448135376,-0.054616767913103104,-0.0003115153522230685,-31,-36,-1009,-306,-53,0,137,41,-4,200050.0
03:07:44.038,AUTO,-35.363251,149.1652417,39100,-0.0008197319693863392,-0.1346047818660736,0.48646312952041626,-0.306896448135376,-0.054616767913103104,-0.0003115153522230685,-31,-36,-1009,-306,-53,0,137,41,-4,200050.0
03:07:44.240,AUTO,-35.3632395,149.1652458,39113,0.01532308291643858,-0.1717173159122467,0.43676048517227173,0.4679330885410309,-0.06091781705617905,-0.046324532479047775,-44,-1,-1007,469,-60,-45,215,67,-4,200050.0
03:07:44.442,AUTO,-35.3632344,149.1652476,39119,0.016402393579483032,-0.18655925989151,0.42677733302116394,0.034493979066610336,-0.05545252561569214,-0.00357071403414011,-51,-35,-1002,34,-54,-3,245,76,-4,200050.0
03:07:44.644,AUTO,-35.3632344,149.1652476,39119,0.016402393579483032,-0.18655925989151,0.42677733302116394,0.034493979066610336,-0.05545252561569214,-0.00357071403414011,-51,-35,-1002,34,-54,-3,245,76,-4,200050.0
03:07:44.846,AUTO,-35.3632286,149.1652497,39126,0.014515806920826435,-0.19368596374988556,0.421679824590683,-0.35966137051582336,-0.006802841555327177,0.004219193942844868,-59,-43,-1013,-358,-5,4,276,86,-4,132611.0
03:07:45.047,AUTO,-35.3632221,149.1652521,39135,0.022849660366773605,-0.1906202882528305,0.417941689491272,0.11089648306369781,0.01941853202879429,-0.02578563056886196,-75,-23,-1015,112,20,-25,305,97,-6,132611.0
03:07:45.249,AUTO,-35.363215,149.1652547,39151,0.032895758748054504,-0.19019651412963867,0.41573366522789,0.24614432454109192,-0.003514030249789357,0.009626983664929867,-75,-26,-1008,247,-2,9,333,106,-8,132611.0
03:07:45.451,AUTO,-35.3632073,149.1652576,39169,0.0296695027500391,-0.19370150566101074,0.4151535928249359,-0.22241707146167755,-0.022540012374520302,0.022973353043198586,-75,-43,-998,-221,-21,23,359,116,-9,132611.0
03:07:45.667,AUTO,-35.3632073,149.1652576,39169,0.0296695027500391,-0.19370150566101074,0.4151535928249359,-0.22241707146167755,-0.022540012374520302,0.022973353043198586,-75,-43,-998,-221,-21,23,359,116,-9,132611.0
03:07:45.870,AUTO,-35.3632073,149.1652576,39169,0.0296695027500391,-0.19370150566101074,0.4151535928249359,-0.22241707146167755,-0.022540012374520302,0.022973353043198586,-75,-43,-998,-221,-21,23,359,116,-9,132611.0
03:07:46.072,AUTO,-35.3632073,149.1652576,39169,0.0296695027500391,-0.19370150566101074,0.4151535928249359,-0.22241707146167755,-0.022540012374520302,0.022973353043198586,-75,-43,-998,-221,-21,23,359,116,-9,132611.0
03:07:46.274,AUTO,-35.3631803,149.1652679,39230,0.038650911301374435,-0.20898456871509552,0.4105992317199707,-0.16411395370960236,-0.0287002045661211,0.009677192196249962,-91,-57,-998,-163,-27,10,436,143,-8,132611.0
03:07:46.476,AUTO,-35.3631702,149.1652718,39248,0.04041191563010216,-0.21665965020656586,0.4075593948364258,-0.0015521548921242356,-0.03823990002274513,-0.005817718338221312,-106,-31,-1001,0,-37,-5,461,153,-8,132611.0
03:07:46.678,AUTO,-35.3631596,149.165276,39265,0.039266422390937805,-0.22589999437332153,0.40672507882118225,0.0322708785533905,-0.02561146579682827,-0.0032086288556456566,-103,-50,-998,33,-24,-2,488,163,-7,132611.0
03:07:46.880,AUTO,-35.3631596,149.165276,39265,0.039266422390937805,-0.22589999437332153,0.40672507882118225,0.0322708785533905,-0.02561146579682827,-0.0032086288556456566,-103,-50,-998,33,-24,-2,488,163,-7,132611.0
03:07:47.081,AUTO,-35.3631484,149.1652805,39283,0.03976404666900635,-0.22430509328842163,0.4046730399131775,-0.035820554941892624,0.0291550625115633,0.002060416853055358,-116,-53,-1012,-34,30,2,514,172,-9,132611.0
03:07:47.283,AUTO,-35.3631366,149.1652851,39308,0.046987660229206085,-0.21151559054851532,0.40255269408226013,0.052562229335308075,0.05090058222413063,-0.010178989730775356,-120,-48,-1014,53,51,-9,539,180,-13,132611.0
03:07:47.486,AUTO,-35.3631242,149.16529,39344,0.05244223400950432,-0.2024971842765808,0.40049201250076294,0.01652323454618454,0.02736605703830719,-0.0033735628239810467,-139,-51,-1012,17,28,-3,559,186,-17,132611.0
03:07:47.688,AUTO,-35.3631242,149.16529,39344,0.05244223400950432,-0.2024971842765808,0.40049201250076294,0.01652323454618454,0.02736605703830719,-0.0033735628239810467,-139,-51,-1012,17,28,-3,559,186,-17,132611.0
03:07:47.889,AUTO,-35.3631242,149.16529,39344,0.05244223400950432,-0.2024971842765808,0.40049201250076294,0.01652323454618454,0.02736605703830719,-0.0033735628239810467,-139,-51,-1012,17,28,-3,559,186,-17,259200.0
03:07:48.091,AUTO,-35.3631242,149.16529,39344,0.05244223400950432,-0.2024971842765808,0.40049201250076294,0.01652323454618454,0.02736605703830719,-0.0033735628239810467,-139,-51,-1012,17,28,-3,559,186,-17,259200.0
03:07:48.293,AUTO,-35.3630847,149.1653057,39465,0.05994975194334984,-0.1848049759864807,0.39688703417778015,0.013805030845105648,0.00478234700858593,-0.010357523337006569,-141,-56,-987,14,5,-9,603,201,-16,259200.0
03:07:48.495,AUTO,-35.363071,149.1653112,39503,0.06171059608459473,-0.18153418600559235,0.39630380272865295,0.02889481745660305,0.016470061615109444,-0.007336854934692383,-138,-49,-991,30,17,-6,615,206,-15,259200.0
03:07:48.697,AUTO,-35.3630571,149.1653168,39539,0.06003274396061897,-0.17884007096290588,0.39584389328956604,-0.014287397265434265,0.01993812434375286,0.0033458357211202383,-136,-74,-990,-13,20,3,625,209,-14,259200.0
03:07:48.899,AUTO,-35.3630571,149.1653168,39539,0.06003274396061897,-0.17884007096290588,0.39584389328956604,-0.014287397265434265,0.01993812434375286,0.0033458357211202383,-136,-74,-990,-13,20,3,625,209,-14,259200.0
03:07:49.101,AUTO,-35.3630427,149.1653226,39575,0.06229422613978386,-0.17004342377185822,0.39458999037742615,0.015180021524429321,0.03816986456513405,-0.019155383110046387,-133,-67,-988,16,39,-18,635,212,-15,259200.0
03:07:49.302,AUTO,-35.3630284,149.1653284,39613,0.0644158348441124,-0.16561374068260193,0.3930220305919647,0.008633511140942574,0.029229920357465744,-0.011067483574151993,-144,-99,-994,9,30,-10,641,213,-16,259200.0
03:07:49.504,AUTO,-35.3630138,149.1653343,39651,0.06717837601900101,-0.15913532674312592,0.39097827672958374,-0.02142394334077835,0.049222905188798904,-0.00959320180118084,-137,-71,-992,-20,50,-9,647,215,-16,259200.0
03:07:49.706,AUTO,-35.3630138,149.1653343,39651,0.06717837601900101,-0.15913532674312592,0.39097827672958374,-0.02142394334077835,0.049222905188798904,-0.00959320180118084,-137,-71,-992,-20,50,-9,647,215,-16,259200.0
03:07:49.908,AUTO,-35.3630138,149.1653343,39651,0.06717837601900101,-0.15913532674312592,0.39097827672958374,-0.02142394334077835,0.049222905188798904,-0.00959320180118084,-137,-71,-992,-20,50,-9,647,215,-16,259200.0
03:07:50.110,AUTO,-35.3630138,149.1653343,39651,0.06717837601900101,-0.15913532674312592,0.39097827672958374,-0.02142394334077835,0.049222905188798904,-0.00959320180118084,-137,-71,-992,-20,50,-9,647,215,-16,259200.0
03:07:50.312,AUTO,-35.3629701,149.1653521,39763,0.06507564336061478,-0.1411142796278,0.38785603642463684,0.008266894146800041,0.04103167727589607,-0.01266328152269125,-142,-55,-985,9,42,-12,651,215,-16,259200.0
