time_stamp,MODE,lat,lon,relative_alt,roll,pitch,yaw,rollspeed,pitchspeed,yawspeed,xacc,yacc,zacc,xgyro,ygyro,zgyro,vx,vy,vz,RTL_ALT
06:06:34.198,STABILIZE,-35.3632622,149.1652376,0,-0.00024246430257335305,0.0014380994252860546,0.027834855020046234,0.0003295218921266496,0.000296715646982193,0.002173649612814188,0,1,-1000,0,1,0,-2,3,2,1500.0
06:06:34.400,STABILIZE,-35.3632622,149.1652376,0,-0.00024246430257335305,0.0014380994252860546,0.027834855020046234,0.0003295218921266496,0.000296715646982193,0.002173649612814188,0,1,-1000,0,1,0,-2,3,2,1500.0
06:06:34.601,STABILIZE,-35.3632622,149.1652376,0,-0.00024246430257335305,0.0014380994252860546,0.027834855020046234,0.0003295218921266496,0.000296715646982193,0.002173649612814188,0,1,-1000,0,1,0,-2,3,2,1500.0
06:06:34.802,STABILIZE,-35.3632622,149.1652376,0,-0.00024246430257335305,0.0014380994252860546,0.027834855020046234,0.0003295218921266496,0.000296715646982193,0.002173649612814188,0,1,-1000,0,1,0,-2,3,2,1500.0
06:06:35.003,STABILIZE,-35.3632622,149.1652376,0,-0.0008475146605633199,0.0011808669660240412,0.027098823338747025,0.00022666668519377708,0.0003055561683140695,0.0022180189844220877,0,1,-1000,0,1,0,-2,3,2,1500.0
06:06:35.204,STABILIZE,-35.3632622,149.1652375,0,-0.0009208470582962036,0.0011407820275053382,0.026992347091436386,0.00014266162179410458,0.00030911556677892804,0.0020538102835416794,0,1,-1000,0,0,0,-1,1,1,1500.0
06:06:35.405,STABILIZE,-35.3632622,149.1652375,0,-0.0009208470582962036,0.0011407820275053382,0.026992347091436386,0.00014266162179410458,0.00030911556677892804,0.0020538102835416794,0,1,-1000,0,0,0,-1,1,1,1500.0
06:06:35.607,STABILIZE,-35.3632622,149.1652375,0,-0.0009208470582962036,0.0011407820275053382,0.026992347091436386,0.00014266162179410458,0.00030911556677892804,0.0020538102835416794,0,1,-1000,0,0,0,-1,1,1,1500.0
06:06:35.808,STABILIZE,-35.3632622,149.1652375,0,-0.0009208470582962036,0.0011407820275053382,0.026992347091436386,0.00014266162179410458,0.00030911556677892804,0.0020538102835416794,0,1,-1000,0,0,0,-1,1,1,1500.0
06:06:36.010,STABILIZE,-35.3632622,149.1652375,0,-0.0009208470582962036,0.0011407820275053382,0.026992347091436386,0.00014266162179410458,0.00030911556677892804,0.0020538102835416794,0,1,-1000,0,0,0,-1,1,1,1500.0
06:06:36.211,STABILIZE,-35.3632622,149.1652375,0,-0.0009208470582962036,0.0011407820275053382,0.026992347091436386,0.00014266162179410458,0.00030911556677892804,0.0020538102835416794,0,1,-1000,0,0,0,-1,1,1,1500.0
06:06:36.413,STABILIZE,-35.3632622,149.1652375,0,-0.0009208470582962036,0.0011407820275053382,0.026992347091436386,0.00014266162179410458,0.00030911556677892804,0.0020538102835416794,0,1,-1000,0,0,0,-1,1,1,1500.0
06:06:36.614,STABILIZE,-35.3632622,149.1652375,0,-0.0009208470582962036,0.0011407820275053382,0.026992347091436386,0.00014266162179410458,0.00030911556677892804,0.0020538102835416794,0,1,-1000,0,0,0,-1,1,1,1500.0
06:06:36.815,STABILIZE,-35.3632621,149.1652375,3,-0.0010210225591436028,0.000992208137176931,0.02634853683412075,0.00036699953489005566,0.0003089175734203309,0.002062327228486538,0,1,-1000,0,0,0,-1,0,0,1500.0
06:06:37.017,STABILIZE,-35.3632621,149.1652375,3,-0.0010210225591436028,0.000992208137176931,0.02634853683412075,0.00036699953489005566,0.0003089175734203309,0.002062327228486538,0,1,-1000,0,0,0,-1,0,0,1500.0
06:06:37.218,STABILIZE,-35.3632621,149.1652375,6,-0.0010547455167397857,0.0009849983034655452,0.026162244379520416,0.0001964810653589666,0.0002565149625297636,0.0019408951047807932,0,1,-1000,0,0,0,-1,0,0,1500.0
06:06:37.420,STABILIZE,-35.3632621,149.1652375,6,-0.0010547455167397857,0.0009849983034655452,0.026162244379520416,0.0001964810653589666,0.0002565149625297636,0.0019408951047807932,0,1,-1000,0,0,0,-1,0,0,1500.0
06:06:37.621,STABILIZE,-35.3632621,149.1652375,6,-0.0010547455167397857,0.0009849983034655452,0.026162244379520416,0.0001964810653589666,0.0002565149625297636,0.0019408951047807932,0,1,-1000,0,0,0,-1,0,0,1500.0
06:06:37.822,STABILIZE,-35.3632621,149.1652375,6,-0.0010547455167397857,0.0009849983034655452,0.026162244379520416,0.0001964810653589666,0.0002565149625297636,0.0019408951047807932,0,1,-1000,0,0,0,-1,0,0,1500.0
06:06:38.024,STABILIZE,-35.3632621,149.1652375,6,-0.0010547455167397857,0.0009849983034655452,0.026162244379520416,0.0001964810653589666,0.0002565149625297636,0.0019408951047807932,0,1,-1000,0,0,0,-1,0,0,1500.0
06:06:38.225,STABILIZE,-35.3632621,149.1652375,6,-0.0010547455167397857,0.0009849983034655452,0.026162244379520416,0.0001964810653589666,0.0002565149625297636,0.0019408951047807932,0,1,-1000,0,0,0,-1,0,0,1500.0
06:06:38.428,STABILIZE,-35.3632621,149.1652375,6,-0.0010547455167397857,0.0009849983034655452,0.026162244379520416,0.0001964810653589666,0.0002565149625297636,0.0019408951047807932,0,1,-1000,0,0,0,-1,0,0,1500.0
06:06:38.629,STABILIZE,-35.3632621,149.1652375,6,-0.0010547455167397857,0.0009849983034655452,0.026162244379520416,0.0001964810653589666,0.0002565149625297636,0.0019408951047807932,0,1,-1000,0,0,0,-1,0,0,1500.0
06:06:38.832,STABILIZE,-35.3632621,149.1652375,13,-0.001059667905792594,0.000948617234826088,0.02561953477561474,0.00016920402413234115,0.0002860664972104132,0.0020012168679386377,0,1,-1000,0,0,0,-1,0,0,1500.0
06:06:39.033,STABILIZE,-35.3632621,149.1652375,13,-0.001059667905792594,0.000948617234826088,0.02561953477561474,0.00016920402413234115,0.0002860664972104132,0.0020012168679386377,0,1,-1000,0,0,0,-1,0,0,1500.0
06:06:39.235,STABILIZE,-35.3632621,149.1652375,16,-0.0010555697372183204,0.0009392923093400896,0.025428112596273422,0.0002486035227775574,0.0001732566743157804,0.0019642002880573273,0,1,-1000,1,0,0,-1,0,0,1500.0
06:06:39.436,STABILIZE,-35.3632621,149.1652375,16,-0.0010482651414349675,0.00093713408568874,0.02534838393330574,0.0002003735862672329,0.00019824638729915023,0.0019430906977504492,0,1,-1000,1,0,0,-1,0,0,1500.0
06:06:39.638,STABILIZE,-35.3632621,149.1652375,16,-0.0010482651414349675,0.00093713408568874,0.02534838393330574,0.0002003735862672329,0.00019824638729915023,0.0019430906977504492,0,1,-1000,1,0,0,-1,0,0,1500.0
06:06:39.839,STABILIZE,-35.3632621,149.1652375,18,-0.0010482651414349675,0.00093713408568874,0.02534838393330574,0.0002003735862672329,0.00019824638729915023,0.0019430906977504492,0,1,-1000,1,0,0,-1,0,0,1500.0
06:06:40.041,STABILIZE,-35.3632621,149.1652375,17,-0.000859954918269068,0.0009386648889631033,0.02515219897031784,0.0003629702841863036,0.00033165630884468555,0.0019647907465696335,0,1,-1001,0,1,0,-1,1,0,1500.0
06:06:40.243,STABILIZE,-35.3632621,149.1652375,17,-0.000859954918269068,0.0009386648889631033,0.02515219897031784,0.0003629702841863036,0.00033165630884468555,0.0019647907465696335,0,1,-1001,0,1,0,-1,1,0,1500.0
06:06:40.444,STABILIZE,-35.3632621,149.1652375,17,-0.000859954918269068,0.0009386648889631033,0.02515219897031784,0.0003629702841863036,0.00033165630884468555,0.0019647907465696335,0,1,-1001,0,1,0,-1,1,0,1500.0
06:06:40.658,STABILIZE,-35.3632621,149.1652375,16,-0.0009394626249559224,0.000948903732933104,0.024859894067049026,0.00024122954346239567,0.0002258909516967833,0.0018238567281514406,0,1,-1000,0,0,0,-1,1,0,1500.0
06:06:40.860,STABILIZE,-35.3632621,149.1652375,16,-0.0009394626249559224,0.000948903732933104,0.024859894067049026,0.00024122954346239567,0.0002258909516967833,0.0018238567281514406,0,1,-1000,0,0,0,-1,1,0,1500.0
06:06:41.061,STABILIZE,-35.3632621,149.1652375,16,-0.0009394626249559224,0.000948903732933104,0.024859894067049026,0.00024122954346239567,0.0002258909516967833,0.0018238567281514406,0,1,-1000,0,0,0,-1,1,0,1500.0
06:06:41.263,STABILIZE,-35.3632621,149.1652375,16,-0.0009394626249559224,0.000948903732933104,0.024859894067049026,0.00024122954346239567,0.0002258909516967833,0.0018238567281514406,0,1,-1000,0,0,0,-1,1,0,1500.0
06:06:41.464,STABILIZE,-35.3632621,149.1652375,16,-0.0009394626249559224,0.000948903732933104,0.024859894067049026,0.00024122954346239567,0.0002258909516967833,0.0018238567281514406,0,2,-1000,0,0,0,-1,1,0,1500.0
06:06:41.665,STABILIZE,-35.3632622,149.1652375,17,-0.0009394626249559224,0.000948903732933104,0.024859894067049026,0.00024122954346239567,0.0002258909516967833,0.0018238567281514406,0,2,-1000,0,0,0,-1,1,0,1500.0
06:06:41.867,STABILIZE,-35.3632622,149.1652375,17,-0.0009394626249559224,0.000948903732933104,0.024859894067049026,0.00024122954346239567,0.0002258909516967833,0.0018238567281514406,0,2,-1000,0,0,0,-1,1,0,1500.0
06:06:42.069,STABILIZE,-35.3632622,149.1652375,18,-0.0010625709546729922,0.0009575041476637125,0.024436412379145622,0.0002804524847306311,0.0001710484502837062,0.0016513990703970194,0,2,-1000,0,0,0,-1,1,0,1500.0
06:06:42.270,STABILIZE,-35.3632622,149.1652375,18,-0.0010625709546729922,0.0009575041476637125,0.024436412379145622,0.0002804524847306311,0.0001710484502837062,0.0016513990703970194,0,2,-1000,0,0,0,-1,1,0,1500.0
06:06:42.472,STABILIZE,-35.3632622,149.1652375,18,-0.0010625709546729922,0.0009575041476637125,0.024436412379145622,0.0002804524847306311,0.0001710484502837062,0.0016513990703970194,0,2,-1000,0,0,0,-1,1,0,1500.0
06:06:42.673,STABILIZE,-35.3632622,149.1652375,20,-0.0010625709546729922,0.0009575041476637125,0.024436412379145622,0.0002804524847306311,0.0001710484502837062,0.0016513990703970194,0,2,-1000,0,0,0,-1,1,0,1500.0
06:06:42.875,STABILIZE,-35.3632622,149.1652375,20,-0.0010625709546729922,0.0009575041476637125,0.024436412379145622,0.0002804524847306311,0.0001710484502837062,0.0016513990703970194,0,2,-1000,0,0,0,-1,1,0,1500.0
06:06:43.076,STABILIZE,-35.3632622,149.1652375,20,-0.0010625709546729922,0.0009575041476637125,0.024436412379145622,0.0002804524847306311,0.0001710484502837062,0.0016513990703970194,0,2,-1000,0,0,0,-1,1,0,1500.0
06:06:43.278,STABILIZE,-35.3632622,149.1652375,20,-0.0010625709546729922,0.0009575041476637125,0.024436412379145622,0.0002804524847306311,0.0001710484502837062,0.0016513990703970194,0,2,-1000,0,0,0,-1,1,0,1500.0
06:06:43.479,STABILIZE,-35.3632622,149.1652375,22,-0.0010625709546729922,0.0009575041476637125,0.024436412379145622,0.0002804524847306311,0.0001710484502837062,0.0016513990703970194,0,1,-1000,0,1,0,-1,1,0,1500.0
06:06:43.681,STABILIZE,-35.3632622,149.1652375,23,-0.0011509134201332927,0.000968360633123666,0.023890839889645576,0.00030009710462763906,0.00022987305419519544,0.001613809959962964,0,1,-1000,1,1,0,-1,1,0,1500.0
06:06:43.883,STABILIZE,-35.3632622,149.1652375,23,-0.0011509134201332927,0.000968360633123666,0.023890839889645576,0.00030009710462763906,0.00022987305419519544,0.001613809959962964,0,1,-1000,1,1,0,-1,1,0,1500.0
06:06:44.084,STABILIZE,-35.3632622,149.1652375,23,-0.0011527629103511572,0.0009631766588427126,0.023821022361516953,0.00016556354239583015,0.00022257573436945677,0.0017526044975966215,0,2,-1000,0,0,0,-1,1,0,1500.0
06:06:44.286,STABILIZE,-35.3632622,149.1652375,23,-0.0011527629103511572,0.0009631766588427126,0.023821022361516953,0.00016556354239583015,0.00022257573436945677,0.0017526044975966215,0,2,-1000,0,0,0,-1,1,0,1500.0
06:06:44.487,STABILIZE,-35.3632622,149.1652375,23,-0.0011527629103511572,0.0009631766588427126,0.023821022361516953,0.00016556354239583015,0.00022257573436945677,0.0017526044975966215,0,2,-1000,0,0,0,-1,1,0,1500.0
06:06:44.689,STABILIZE,-35.3632622,149.1652375,26,-0.001141545595601201,0.0009626599494367838,0.023613382130861282,0.00024831260088831186,0.00034947070525959134,0.0016393670812249184,0,1,-1000,0,1,0,-1,1,0,1500.0
06:06:44.891,STABILIZE,-35.3632622,149.1652375,26,-0.001141545595601201,0.0009626599494367838,0.023613382130861282,0.00024831260088831186,0.00034947070525959134,0.0016393670812249184,0,1,-1000,0,1,0,-1,1,0,1500.0
06:06:45.094,STABILIZE,-35.3632622,149.1652375,26,-0.001141545595601201,0.0009626599494367838,0.023613382130861282,0.00024831260088831186,0.00034947070525959134,0.0016393670812249184,0,1,-1000,0,1,0,-1,1,0,1500.0
06:06:45.297,STABILIZE,-35.3632622,149.1652375,26,-0.001141545595601201,0.0009626599494367838,0.023613382130861282,0.00024831260088831186,0.00034947070525959134,0.0016393670812249184,0,1,-1000,0,1,0,-1,1,0,1500.0
06:06:45.498,STABILIZE,-35.3632622,149.1652375,26,-0.0011302200146019459,0.0009676943300291896,0.02341810241341591,0.00024792348267510533,0.000316742982249707,0.001471162773668766,0,1,-1000,0,1,0,-1,1,0,1500.0
06:06:45.700,STABILIZE,-35.3632622,149.1652375,28,-0.0011302200146019459,0.0009676943300291896,0.02341810241341591,0.00024792348267510533,0.000316742982249707,0.001471162773668766,0,1,-1000,0,0,0,-1,1,-1,1500.0
06:06:45.902,STABILIZE,-35.3632622,149.1652375,29,-0.0011148451594635844,0.0009758141823112965,0.023273658007383347,0.00033089210046455264,0.00015043007442727685,0.0016454497817903757,0,2,-1000,0,1,0,-1,1,-1,1500.0
06:06:46.105,STABILIZE,-35.3632622,149.1652375,29,-0.0011148451594635844,0.0009758141823112965,0.023273658007383347,0.00033089210046455264,0.00015043007442727685,0.0016454497817903757,0,2,-1000,0,1,0,-1,1,-1,1500.0
06:06:46.308,STABILIZE,-35.3632622,149.1652375,29,-0.0011148451594635844,0.0009758141823112965,0.023273658007383347,0.00033089210046455264,0.00015043007442727685,0.0016454497817903757,0,2,-1000,0,1,0,-1,1,-1,1500.0
06:06:46.510,STABILIZE,-35.3632622,149.1652375,29,-0.0011148451594635844,0.0009758141823112965,0.023273658007383347,0.00033089210046455264,0.00015043007442727685,0.0016454497817903757,0,2,-1000,0,1,0,-1,1,-1,1500.0
06:06:46.711,STABILIZE,-35.3632622,149.1652375,30,-0.001104135299101472,0.000981010147370398,0.023084310814738274,0.0003157324390485883,0.0002403721446171403,0.0016178032383322716,0,2,-1000,0,1,0,-1,1,-1,1500.0
06:06:46.912,STABILIZE,-35.3632622,149.1652375,30,-0.001104135299101472,0.000981010147370398,0.023084310814738274,0.0003157324390485883,0.0002403721446171403,0.0016178032383322716,0,2,-1000,0,1,0,-1,1,-1,1500.0
06:06:47.114,STABILIZE,-35.3632622,149.1652375,30,-0.001104135299101472,0.000981010147370398,0.023084310814738274,0.0003157324390485883,0.0002403721446171403,0.0016178032383322716,0,2,-1000,0,1,0,-1,1,-1,1500.0
06:06:47.317,AUTO,-35.3632622,149.1652375,1,-0.0011073435889557004,0.0009854144882410765,0.02296002209186554,0.00026014773175120354,0.00017687404761090875,0.0014307196252048016,0,1,-1000,0,1,0,-1,1,-1,1500.0
06:06:47.519,AUTO,-35.3632622,149.1652375,2,-0.0011005806736648083,0.0009852988878265023,0.02289000153541565,0.00025166658451780677,0.0002697110176086426,0.001501935301348567,0,1,-1000,0,0,1,-1,1,-1,1500.0
06:06:47.720,AUTO,-35.3632622,149.1652375,2,-0.0010895237792283297,0.0009860863210633397,0.022846052423119545,0.0002091544447466731,0.00021401618141680956,0.0015467593912035227,0,2,-1000,0,0,0,-1,0,-1,1500.0
06:06:47.922,AUTO,-35.3632622,149.1652375,3,-0.0010757669806480408,0.0009981126058846712,0.022784890606999397,0.0002723748330026865,0.0003205976099707186,0.0015946979401633143,0,2,-1000,1,0,0,-1,0,-1,1500.0
06:06:48.124,AUTO,-35.3632622,149.1652375,3,-0.0010757669806480408,0.0009981126058846712,0.022784890606999397,0.0002723748330026865,0.0003205976099707186,0.0015946979401633143,0,2,-1000,1,0,0,-1,0,-1,1500.0
06:06:48.327,AUTO,-35.3632622,149.1652375,3,-0.0010757669806480408,0.0009981126058846712,0.022784890606999397,0.0002723748330026865,0.0003205976099707186,0.0015946979401633143,0,2,-1000,1,0,0,-1,0,-1,1500.0
06:06:48.530,AUTO,-35.3632622,149.1652375,3,-0.0010757669806480408,0.0009981126058846712,0.022784890606999397,0.0002723748330026865,0.0003205976099707186,0.0015946979401633143,0,2,-1000,1,0,0,-1,0,-1,1500.0
06:06:48.732,AUTO,-35.3632621,149.1652375,5,-0.0009684115066193044,0.0011136303655803204,0.0226153377443552,0.0002736407332122326,0.0002404041588306427,0.0014536448288708925,0,1,-1000,0,0,1,0,0,-1,1500.0
06:06:48.933,AUTO,-35.3632621,149.1652375,6,-0.0009168368997052312,0.001173853175714612,0.022534562274813652,0.00033790862653404474,0.0002655762364156544,0.0012566742952913046,0,2,-1000,0,1,0,0,0,-1,1500.0
06:06:49.135,AUTO,-35.3632621,149.1652375,6,-0.0009168368997052312,0.001173853175714612,0.022534562274813652,0.00033790862653404474,0.0002655762364156544,0.0012566742952913046,0,2,-1000,0,1,0,0,0,-1,1500.0
06:06:49.337,AUTO,-35.3632621,149.1652375,6,-0.0008601806475780904,0.0012420747661963105,0.022455155849456787,0.00030361959943547845,0.00031675974605605006,0.0014774909941479564,0,1,-1000,1,0,0,0,0,-1,96770.0
06:06:49.538,AUTO,-35.3632621,149.1652375,6,-0.000800877227447927,0.0013108976418152452,0.02240040712058544,0.0003421575529500842,0.00025650375755503774,0.0013965386897325516,0,1,-1000,0,0,0,0,0,0,96770.0
06:06:49.740,AUTO,-35.3632621,149.1652375,6,-0.0007441230700351298,0.001384581788443029,0.022328907623887062,0.0003018365823663771,0.00018824462313205004,0.0015054885298013687,0,1,-1000,1,1,0,0,0,0,96770.0
06:06:49.942,AUTO,-35.3632621,149.1652375,6,-0.0006834464729763567,0.0014495387440547347,0.022250741720199585,0.0003014021785929799,0.00025845912750810385,0.0014324367512017488,0,1,-1000,0,0,1,0,0,0,96770.0
06:06:50.143,AUTO,-35.3632621,149.1652375,6,-0.0006834464729763567,0.0014495387440547347,0.022250741720199585,0.0003014021785929799,0.00025845912750810385,0.0014324367512017488,0,1,-1000,0,0,1,0,0,0,96770.0
06:06:50.345,AUTO,-35.3632621,149.1652375,6,-0.0006834464729763567,0.0014495387440547347,0.022250741720199585,0.0003014021785929799,0.00025845912750810385,0.0014324367512017488,0,1,-1000,0,0,1,0,0,0,96770.0
06:06:50.552,AUTO,-35.3632621,149.1652375,6,-0.0006834464729763567,0.0014495387440547347,0.022250741720199585,0.0003014021785929799,0.00025845912750810385,0.0014324367512017488,0,1,-1000,0,0,1,0,0,0,96770.0
06:06:50.754,AUTO,-35.3632621,149.1652374,15,-0.0004832955019082874,0.0016634147614240646,0.022025862708687782,0.00035580736584961414,0.0003660552320070565,0.0014669576194137335,0,2,-1000,0,1,0,0,-1,-3,96770.0
06:06:50.957,AUTO,-35.3632621,149.1652374,17,-0.00041106692515313625,0.001743276952765882,0.021950701251626015,0.00037416472332552075,0.0003235862241126597,0.0014611056540161371,0,1,-1000,1,1,0,0,-1,-3,96770.0
06:06:51.159,AUTO,-35.3632621,149.1652374,20,0.0017233946127817035,0.0011439579539000988,0.021974388509988785,0.012476570904254913,-0.011591935530304909,0.0022747155744582415,0,0,-1093,13,-10,1,0,0,-9,96770.0
06:06:51.361,AUTO,-35.3632621,149.1652374,20,0.0017233946127817035,0.0011439579539000988,0.021974388509988785,0.012476570904254913,-0.011591935530304909,0.0022747155744582415,0,0,-1093,13,-10,1,0,0,-9,96770.0
06:06:51.563,AUTO,-35.3632621,149.1652374,78,0.0060276142321527,-0.0005976781249046326,0.021822525188326836,0.018665265291929245,-0.0022615455090999603,0.001341438852250576,0,0,-1141,19,-1,1,0,0,-42,96770.0
06:06:51.765,AUTO,-35.3632621,149.1652374,221,0.004064266104251146,0.00018779217498376966,0.021798759698867798,-0.00939783826470375,0.005610260646790266,0.0016380875604227185,0,0,-1130,-8,6,1,0,1,-76,96770.0
06:06:51.968,AUTO,-35.3632621,149.1652374,440,0.0015977636212483048,0.0011664776830002666,0.02172227017581463,-0.0196292195469141,0.004442100413143635,0.0001277098199352622,0,-1,-1109,-19,5,0,0,2,-104,96770.0
06:06:52.171,AUTO,-35.3632621,149.1652374,440,0.0015977636212483048,0.0011664776830002666,0.02172227017581463,-0.0196292195469141,0.004442100413143635,0.0001277098199352622,0,-1,-1109,-19,5,0,0,2,-104,96770.0
06:06:52.374,AUTO,-35.3632621,149.1652374,440,0.0015977636212483048,0.0011664776830002666,0.02172227017581463,-0.0196292195469141,0.004442100413143635,0.0001277098199352622,0,-1,-1109,-19,5,0,0,2,-104,96770.0
06:06:52.576,AUTO,-35.3632621,149.1652374,440,0.0015977636212483048,0.0011664776830002666,0.02172227017581463,-0.0196292195469141,0.004442100413143635,0.0001277098199352622,0,-1,-1109,-19,5,0,0,2,-104,96770.0
06:06:52.777,AUTO,-35.363262,149.1652376,1432,0.02356383204460144,-0.0011186712654307485,0.02173253521323204,0.046284232288599014,-0.007274061907082796,0.0024720614310353994,0,-1,-1016,47,-6,2,1,7,-147,96770.0
06:06:52.979,AUTO,-35.363262,149.1652379,1809,0.03486432880163193,-0.0031785261817276478,0.021923329681158066,0.044335056096315384,-0.008211767300963402,0.0031795473769307137,0,-2,-1006,45,-7,2,2,13,-149,96770.0
06:06:53.180,AUTO,-35.3632619,149.1652383,2191,0.04555223137140274,-0.005476114805787802,0.022152340039610863,0.04172531142830849,-0.009965226985514164,0.0034636035561561584,0,-3,-1002,42,-9,3,3,22,-150,96770.0
06:06:53.382,AUTO,-35.3632619,149.1652383,2191,0.04555223137140274,-0.005476114805787802,0.022152340039610863,0.04172531142830849,-0.009965226985514164,0.0034636035561561584,0,-3,-1002,42,-9,3,3,22,-150,260199.0
06:06:53.585,AUTO,-35.3632618,149.1652391,2575,0.0555005744099617,-0.008197064511477947,0.022414980456233025,0.038328126072883606,-0.010759809985756874,0.0036777681671082973,1,-5,-1000,39,-10,3,6,33,-150,260199.0
06:06:53.788,AUTO,-35.3632616,149.1652401,2958,0.059278178960084915,-0.006972516421228647,-0.010411246679723263,-0.03955182433128357,0.04753848910331726,-0.0681062787771225,2,-9,-991,-38,48,-68,9,45,-149,260199.0
06:06:53.991,AUTO,-35.3632613,149.1652414,3336,0.03277336433529854,0.01753649115562439,-0.03464086353778839,-0.1618560254573822,0.0836387425661087,-0.0976421982049942,3,-10,-991,-161,84,-98,9,54,-146,260199.0
06:06:54.193,AUTO,-35.3632613,149.1652414,3336,0.03277336433529854,0.01753649115562439,-0.03464086353778839,-0.1618560254573822,0.0836387425661087,-0.0976421982049942,3,-10,-991,-161,84,-98,9,54,-146,260199.0
06:06:54.396,AUTO,-35.3632613,149.1652414,3336,0.03277336433529854,0.01753649115562439,-0.03464086353778839,-0.1618560254573822,0.0836387425661087,-0.0976421982049942,3,-10,-991,-161,84,-98,9,54,-146,260199.0
06:06:54.598,AUTO,-35.3632613,149.1652414,3336,0.03277336433529854,0.01753649115562439,-0.03464086353778839,-0.1618560254573822,0.0836387425661087,-0.0976421982049942,3,-10,-991,-161,84,-98,9,54,-146,260199.0
06:06:54.800,AUTO,-35.3632607,149.1652453,4473,-0.03235287591814995,-0.019687319174408913,-0.03499293699860573,-0.05888577550649643,-0.002258745487779379,-0.025301845744252205,2,-9,-1000,-58,-1,-25,10,35,-150,260199.0
06:06:55.002,AUTO,-35.3632604,149.1652461,4857,-0.05172736570239067,-0.004912711679935455,-0.05290071666240692,-0.08945651352405548,0.0957176685333252,-0.09914781898260117,2,-10,-1000,-89,96,-99,14,22,-149,260199.0
06:06:55.205,AUTO,-35.3632601,149.1652465,5243,-0.07766517251729965,0.01755726896226406,-0.08387911319732666,-0.1107972040772438,0.08604837208986282,-0.11646129190921783,0,-5,-1000,-110,86,-116,12,4,-149,260199.0
06:06:55.409,AUTO,-35.3632599,149.1652463,5625,-0.08221875876188278,0.023990262299776077,-0.1051572933793068,0.032089803367853165,0.0022285531740635633,-0.06569893658161163,-2,0,-1006,32,2,-66,4,-15,-149,260199.0
06:06:55.612,AUTO,-35.3632599,149.1652463,5625,-0.08221875876188278,0.023990262299776077,-0.1051572933793068,0.032089803367853165,0.0022285531740635633,-0.06569893658161163,-2,0,-1006,32,2,-66,4,-15,-149,260199.0
06:06:55.814,AUTO,-35.3632599,149.1652456,6008,-0.07106604427099228,0.02317996881902218,-0.11952237039804459,0.05217042192816734,0.0014689189847558737,-0.04792207106947899,-3,4,-1001,52,2,-48,-3,-33,-149,260199.0
06:06:56.016,AUTO,-35.36326,149.1652446,6390,-0.05734884366393089,0.023288942873477936,-0.12947030365467072,0.05922828987240791,0.004262629896402359,-0.034164320677518845,-4,7,-1000,59,4,-34,-11,-47,-149,260199.0
06:06:56.219,AUTO,-35.36326,149.1652446,6390,-0.05734884366393089,0.023288942873477936,-0.12947030365467072,0.05922828987240791,0.004262629896402359,-0.034164320677518845,-4,7,-1000,59,4,-34,-11,-47,-149,260199.0
06:06:56.423,AUTO,-35.36326,149.1652446,6390,-0.05734884366393089,0.023288942873477936,-0.12947030365467072,0.05922828987240791,0.004262629896402359,-0.034164320677518845,-4,7,-1000,59,4,-34,-11,-47,-149,260199.0
06:06:56.625,AUTO,-35.36326,149.1652446,6390,-0.05734884366393089,0.023288942873477936,-0.12947030365467072,0.05922828987240791,0.004262629896402359,-0.034164320677518845,-4,7,-1000,59,4,-34,-11,-47,-149,260199.0
06:06:56.827,AUTO,-35.3632615,149.1652398,7534,-0.008136573247611523,0.026456473395228386,-0.14254167675971985,0.07200749218463898,0.003950038924813271,-0.009792103432118893,-4,14,-1003,72,4,-9,-33,-60,-150,260199.0
06:06:57.029,AUTO,-35.3632623,149.1652382,7920,0.009907469153404236,0.026961199939250946,-0.14330250024795532,0.0731617882847786,1.106486888602376e-05,-0.004428207874298096,-1,16,-1004,73,0,-4,-39,-56,-151,260199.0
06:06:57.231,AUTO,-35.3632632,149.1652367,8307,0.027929076924920082,0.026308728381991386,-0.14274142682552338,0.07197648286819458,-0.004692127928137779,-0.0003955251013394445,2,16,-1004,72,-4,0,-44,-47,-152,260199.0
06:06:57.432,AUTO,-35.3632642,149.1652355,8695,0.03455067053437233,0.014902481809258461,-0.1313566118478775,-0.015534684993326664,-0.08730455487966537,0.07595349848270416,3,15,-997,-14,-86,75,-47,-36,-151,72057.0
06:06:57.634,AUTO,-35.3632642,149.1652355,8695,0.03455067053437233,0.014902481809258461,-0.1313566118478775,-0.015534684993326664,-0.08730455487966537,0.07595349848270416,3,15,-997,-14,-86,75,-47,-36,-151,72057.0
06:06:57.836,AUTO,-35.3632653,149.1652345,9082,0.028074201196432114,-0.013650934211909771,-0.10628283768892288,-0.01875031180679798,-0.11573807895183563,0.10881827771663666,4,12,-1002,-18,-115,108,-45,-26,-151,72057.0
06:06:58.038,AUTO,-35.3632662,149.1652339,9470,0.02687130495905876,-0.03959372267127037,-0.07894989848136902,0.017130717635154724,-0.08238441497087479,0.10408144444227219,5,9,-1006,17,-81,103,-35,-18,-152,72057.0
06:06:58.240,AUTO,-35.3632662,149.1652339,9470,0.02687130495905876,-0.03959372267127037,-0.07894989848136902,0.017130717635154724,-0.08238441497087479,0.10408144444227219,5,9,-1006,17,-81,103,-35,-18,-152,72057.0
06:06:58.442,AUTO,-35.3632662,149.1652339,9470,0.02687130495905876,-0.03959372267127037,-0.07894989848136902,0.017130717635154724,-0.08238441497087479,0.10408144444227219,5,9,-1006,17,-81,103,-35,-18,-152,72057.0
06:06:58.644,AUTO,-35.3632662,149.1652339,9470,0.02687130495905876,-0.03959372267127037,-0.07894989848136902,0.017130717635154724,-0.08238441497087479,0.10408144444227219,5,9,-1006,17,-81,103,-35,-18,-152,72057.0
06:06:58.846,AUTO,-35.3632672,149.1652332,10641,0.05192790552973747,-0.0725141242146492,-0.022816117852926254,0.03536701574921608,-0.025525473058223724,0.06099790707230568,0,0,-999,35,-24,60,11,9,-152,72057.0
06:06:59.048,AUTO,-35.3632668,149.1652335,11028,0.06017325446009636,-0.077100470662117,-0.011287958361208439,0.039279017597436905,-0.0068738581612706184,0.045972198247909546,-3,-4,-997,39,-6,45,30,21,-150,72057.0
06:06:59.250,AUTO,-35.3632659,149.1652342,11412,0.06825047731399536,-0.07804429531097412,-0.0027354659978300333,0.026874860748648643,0.00026399234775453806,0.043811947107315063,-3,-8,-995,27,1,43,49,34,-148,72057.0
06:06:59.451,AUTO,-35.3632646,149.1652352,11786,0.046425122767686844,-0.06285391002893448,-0.011671877466142178,-0.16038115322589874,0.1203426718711853,-0.0817217156291008,-9,-11,-988,-159,120,-82,65,45,-144,72057.0
06:06:59.655,AUTO,-35.363263,149.1652364,12154,0.0027119896840304136,-0.025616517290472984,-0.043162714689970016,-0.166515052318573,0.15304575860500336,-0.1395794302225113,-9,-17,-1008,-165,153,-139,75,45,-143,72057.0
06:06:59.857,AUTO,-35.363263,149.1652364,12154,0.0027119896840304136,-0.025616517290472984,-0.043162714689970016,-0.166515052318573,0.15304575860500336,-0.1395794302225113,-9,-17,-1008,-165,153,-139,75,45,-143,72057.0
06:07:00.059,AUTO,-35.3632613,149.1652375,12528,-0.021986262872815132,0.005097909830510616,-0.08010893315076828,-0.06212528422474861,0.10469761490821838,-0.1353105902671814,-11,-17,-1017,-61,105,-135,75,37,-147,72057.0
06:07:00.262,AUTO,-35.3632613,149.1652375,12528,-0.021986262872815132,0.005097909830510616,-0.08010893315076828,-0.06212528422474861,0.10469761490821838,-0.1353105902671814,-11,-17,-1017,-61,105,-135,75,37,-147,72057.0
06:07:00.464,AUTO,-35.3632613,149.1652375,12528,-0.021986262872815132,0.005097909830510616,-0.08010893315076828,-0.06212528422474861,0.10469761490821838,-0.1353105902671814,-11,-17,-1017,-61,105,-135,75,37,-147,72057.0
06:07:00.666,AUTO,-35.3632571,149.165239,13690,-0.053943321108818054,0.04691819101572037,-0.16754329204559326,-0.084018774330616,0.01663510501384735,-0.07590119540691376,-7,-7,-1005,-83,17,-76,42,2,-152,72057.0
06:07:00.868,AUTO,-35.3632571,149.165239,13690,-0.053943321108818054,0.04691819101572037,-0.16754329204559326,-0.084018774330616,0.01663510501384735,-0.07590119540691376,-7,-7,-1005,-83,17,-76,42,2,-152,72057.0
06:07:01.070,AUTO,-35.3632563,149.165239,14080,-0.05630164220929146,0.05276243016123772,-0.18657663464546204,0.03174787759780884,0.02245813049376011,-0.061170872300863266,-7,-5,-1005,32,23,-61,26,-11,-153,72057.0
06:07:01.272,AUTO,-35.3632558,149.1652384,14476,-0.046824268996715546,0.05616040155291557,-0.199850395321846,0.045001070946455,0.013775564730167389,-0.04430091381072998,-6,0,-1001,45,14,-44,9,-22,-153,72057.0
06:07:01.474,AUTO,-35.3632557,149.1652377,14867,-0.03522195294499397,0.05840304493904114,-0.20887067914009094,0.052218958735466,0.009457370266318321,-0.032114170491695404,-5,4,-1000,52,10,-32,-6,-29,-152,21843.0
06:07:01.676,AUTO,-35.363256,149.1652368,15257,-0.021945130079984665,0.05970831215381622,-0.21472804248332977,0.05773512274026871,0.004340238869190216,-0.022722024470567703,-4,8,-1000,58,5,-23,-22,-32,-152,21843.0
06:07:01.878,AUTO,-35.363256,149.1652368,15257,-0.021945130079984665,0.05970831215381622,-0.21472804248332977,0.05773512274026871,0.004340238869190216,-0.022722024470567703,-4,8,-1000,58,5,-23,-22,-32,-152,21843.0
06:07:02.080,AUTO,-35.3632565,149.1652359,15645,-0.007352868560701609,0.059697262942790985,-0.21820691227912903,0.062331605702638626,-0.0017707758815959096,-0.014973710291087627,0,9,-1000,62,-1,-15,-36,-31,-151,21843.0
06:07:02.282,AUTO,-35.3632565,149.1652359,15645,-0.007352868560701609,0.059697262942790985,-0.21820691227912903,0.062331605702638626,-0.0017707758815959096,-0.014973710291087627,0,9,-1000,62,-1,-15,-36,-31,-151,21843.0
06:07:02.484,AUTO,-35.3632565,149.1652359,15645,-0.007352868560701609,0.059697262942790985,-0.21820691227912903,0.062331605702638626,-0.0017707758815959096,-0.014973710291087627,0,9,-1000,62,-1,-15,-36,-31,-151,21843.0
06:07:02.686,AUTO,-35.3632599,149.165234,16802,0.04081576317548752,0.0484582744538784,-0.2194044589996338,0.06639108806848526,-0.02699650079011917,0.0005699376342818141,8,11,-1001,66,-26,0,-66,-5,-151,21843.0
06:07:02.888,AUTO,-35.3632599,149.165234,16802,0.04081576317548752,0.0484582744538784,-0.2194044589996338,0.06639108806848526,-0.02699650079011917,0.0005699376342818141,8,11,-1001,66,-26,0,-66,-5,-151,21843.0
06:07:03.090,AUTO,-35.3632614,149.165234,17189,0.05707983300089836,0.040324848145246506,-0.2182195633649826,0.06473314762115479,-0.036678120493888855,0.00285073253326118,8,10,-1001,65,-35,2,-71,10,-151,21843.0
06:07:03.292,AUTO,-35.363263,149.1652344,17574,0.06389100104570389,0.022540666162967682,-0.2088186889886856,-0.032391294836997986,-0.12216686457395554,0.08637923747301102,16,7,-994,-31,-121,86,-71,27,-150,21843.0
06:07:03.493,AUTO,-35.3632645,149.1652352,17956,0.05187125504016876,-0.017994381487369537,-0.18298374116420746,-0.051699794828891754,-0.16908583045005798,0.12774558365345,14,6,-1004,-50,-168,127,-65,41,-149,21843.0
06:07:03.695,AUTO,-35.3632657,149.1652364,18340,0.037694208323955536,-0.062044378370046616,-0.1474713236093521,-0.048586905002593994,-0.16655966639518738,0.15911924839019775,17,0,-1009,-48,-165,158,-48,49,-151,21843.0
06:07:03.897,AUTO,-35.3632657,149.1652364,18340,0.037694208323955536,-0.062044378370046616,-0.1474713236093521,-0.048586905002593994,-0.16655966639518738,0.15911924839019775,17,0,-1009,-48,-165,158,-48,49,-151,21843.0
06:07:04.099,AUTO,-35.3632665,149.1652377,18727,0.01959017850458622,-0.10504383593797684,-0.10423863679170609,-0.07103191316127777,-0.17282944917678833,0.19170433282852173,14,-3,-1007,-70,-172,191,-22,52,-151,21843.0
06:07:04.301,AUTO,-35.3632665,149.1652377,18727,0.01959017850458622,-0.10504383593797684,-0.10423863679170609,-0.07103191316127777,-0.17282944917678833,0.19170433282852173,14,-3,-1007,-70,-172,191,-22,52,-151,21843.0
06:07:04.503,AUTO,-35.3632665,149.1652377,18727,0.01959017850458622,-0.10504383593797684,-0.10423863679170609,-0.07103191316127777,-0.17282944917678833,0.19170433282852173,14,-3,-1007,-70,-172,191,-22,52,-151,21843.0
06:07:04.704,AUTO,-35.363265,149.1652408,19873,-0.06467679888010025,-0.06547664105892181,-0.1209893450140953,-0.07426582276821136,0.1359105110168457,-0.13031533360481262,-7,-14,-1008,-73,136,-130,58,17,-147,21843.0
06:07:04.906,AUTO,-35.3632636,149.1652409,20251,-0.07552190124988556,-0.03909468650817871,-0.1582021564245224,-0.03297078609466553,0.10226301848888397,-0.13502798974514008,-10,-10,-1008,-31,102,-135,66,-4,-148,21843.0
06:07:05.109,AUTO,-35.3632636,149.1652409,20251,-0.07552190124988556,-0.03909468650817871,-0.1582021564245224,-0.03297078609466553,0.10226301848888397,-0.13502798974514008,-10,-10,-1008,-31,102,-135,66,-4,-148,21843.0
06:07:05.311,AUTO,-35.3632621,149.1652405,20631,-0.07723592966794968,-0.020540954545140266,-0.1914883553981781,0.009065080434083939,0.06873591989278793,-0.11151580512523651,-14,-7,-1007,9,69,-111,66,-27,-149,21843.0
06:07:05.512,AUTO,-35.3632606,149.1652394,21012,-0.06993173062801361,-0.008966338820755482,-0.21560631692409515,0.037937428802251816,0.045114122331142426,-0.07696539908647537,-18,-6,-1005,38,45,-76,62,-47,-150,300000.0
06:07:05.714,AUTO,-35.3632592,149.1652378,21402,-0.05914171040058136,0.001496331300586462,-0.23330308496952057,0.04413513094186783,0.04886791855096817,-0.056933168321847916,-18,3,-1003,45,49,-57,56,-63,-150,300000.0
06:07:05.916,AUTO,-35.363258,149.1652359,21785,-0.047299984842538834,0.013109351508319378,-0.24585604667663574,0.050491657108068466,0.051745783537626266,-0.04315873980522156,-20,2,-1004,51,52,-43,47,-74,-151,300000.0
06:07:06.118,AUTO,-35.363258,149.1652359,21785,-0.047299984842538834,0.013109351508319378,-0.24585604667663574,0.050491657108068466,0.051745783537626266,-0.04315873980522156,-20,2,-1004,51,52,-43,47,-74,-151,300000.0
06:07:06.321,AUTO,-35.363258,149.1652359,21785,-0.047299984842538834,0.013109351508319378,-0.24585604667663574,0.050491657108068466,0.051745783537626266,-0.04315873980522156,-20,2,-1004,51,52,-43,47,-74,-151,300000.0
06:07:06.523,AUTO,-35.363258,149.1652359,21785,-0.047299984842538834,0.013109351508319378,-0.24585604667663574,0.050491657108068466,0.051745783537626266,-0.04315873980522156,-20,2,-1004,51,52,-43,47,-74,-151,300000.0
06:07:06.725,AUTO,-35.3632559,149.1652291,22940,-0.0054580518044531345,0.04980197921395302,-0.2667134404182434,0.0623045451939106,0.04570886492729187,-0.0174800343811512,-18,10,-1006,63,46,-17,8,-81,-153,300000.0
06:07:06.927,AUTO,-35.3632558,149.1652269,23332,0.010432006791234016,0.06003790348768234,-0.26966482400894165,0.0662384107708931,0.03884146362543106,-0.012874475680291653,-12,15,-1005,66,39,-13,-6,-73,-154,300000.0
06:07:07.128,AUTO,-35.3632558,149.1652269,23332,0.010432006791234016,0.06003790348768234,-0.26966482400894165,0.0662384107708931,0.03884146362543106,-0.012874475680291653,-12,15,-1005,66,39,-13,-6,-73,-154,300000.0
06:07:07.330,AUTO,-35.3632559,149.165225,23726,0.0268106646835804,0.06798259168863297,-0.2714481055736542,0.06853316724300385,0.027017483487725258,-0.00746052386239171,-10,12,-1004,69,27,-7,-21,-62,-155,300000.0
06:07:07.532,AUTO,-35.3632565,149.1652234,24121,0.04368407651782036,0.07296549528837204,-0.2723434865474701,0.06803092360496521,0.014907130040228367,-0.005142320413142443,-5,15,-1003,68,15,-5,-36,-46,-154,300000.0
06:07:07.734,AUTO,-35.3632574,149.1652223,24515,0.06047747656702995,0.0745125487446785,-0.27274850010871887,0.0682719275355339,-0.0003356317465659231,-0.0010005366057157516,0,11,-1001,69,0,0,-49,-26,-154,300000.0
06:07:07.936,AUTO,-35.3632586,149.1652218,24906,0.07701653987169266,0.07216158509254456,-0.27249380946159363,0.06492947041988373,-0.016104681417346,-0.0003191612777300179,3,10,-999,65,-15,0,-60,-3,-152,300000.0
06:07:08.138,AUTO,-35.3632586,149.1652218,24906,0.07701653987169266,0.07216158509254456,-0.27249380946159363,0.06492947041988373,-0.016104681417346,-0.0003191612777300179,3,10,-999,65,-15,0,-60,-3,-152,300000.0
06:07:08.340,AUTO,-35.3632586,149.1652218,24906,0.07701653987169266,0.07216158509254456,-0.27249380946159363,0.06492947041988373,-0.016104681417346,-0.0003191612777300179,3,10,-999,65,-15,0,-60,-3,-152,300000.0
06:07:08.542,AUTO,-35.3632586,149.1652218,24906,0.07701653987169266,0.07216158509254456,-0.27249380946159363,0.06492947041988373,-0.016104681417346,-0.0003191612777300179,3,10,-999,65,-15,0,-60,-3,-152,300000.0
06:07:08.744,AUTO,-35.3632629,149.1652245,26050,0.12098424136638641,0.041045721620321274,-0.27238553762435913,0.05046187341213226,-0.06269107758998871,0.00906348880380392,20,1,-996,51,-61,8,-68,78,-146,300000.0
06:07:08.946,AUTO,-35.3632643,149.165227,26419,0.1228826716542244,0.014806555584073067,-0.26442962884902954,-0.05978528410196304,-0.16060732305049896,0.09761116653680801,26,-4,-991,-59,-159,97,-61,107,-142,300000.0
06:07:09.148,AUTO,-35.3632643,149.165227,26419,0.1228826716542244,0.014806555584073067,-0.26442962884902954,-0.05978528410196304,-0.16060732305049896,0.09761116653680801,26,-4,-991,-59,-159,97,-61,107,-142,300000.0
06:07:09.350,AUTO,-35.3632655,149.1652302,26781,0.09464649856090546,-0.04162934422492981,-0.233418807387352,-0.1302969753742218,-0.2233787477016449,0.1919851452112198,25,-12,-1006,-129,-222,191,-44,128,-141,300000.0
06:07:09.551,AUTO,-35.3632661,149.1652338,27142,0.054931171238422394,-0.09654698520898819,-0.19178014993667603,-0.17665985226631165,-0.14344669878482819,0.1222735270857811,26,-13,-1012,-175,-142,122,-17,138,-142,27605.0
06:07:09.753,AUTO,-35.3632661,149.1652375,27506,0.0044121821410954,-0.10497338324785233,-0.1828104853630066,-0.2084316909313202,0.0406152680516243,-0.020548589527606964,20,-24,-1016,-207,41,-20,14,133,-144,27605.0
06:07:09.955,AUTO,-35.3632656,149.1652409,27878,-0.042396996170282364,-0.08803507685661316,-0.20072682201862335,-0.1776868999004364,0.08101065456867218,-0.10039399564266205,17,-26,-1024,-176,82,-100,40,115,-147,27605.0
06:07:10.168,AUTO,-35.3632656,149.1652409,27878,-0.042396996170282364,-0.08803507685661316,-0.20072682201862335,-0.1776868999004364,0.08101065456867218,-0.10039399564266205,17,-26,-1024,-176,82,-100,40,115,-147,27605.0
06:07:10.370,AUTO,-35.3632656,149.1652409,27878,-0.042396996170282364,-0.08803507685661316,-0.20072682201862335,-0.1776868999004364,0.08101065456867218,-0.10039399564266205,17,-26,-1024,-176,82,-100,40,115,-147,27605.0
06:07:10.572,AUTO,-35.3632656,149.1652409,27878,-0.042396996170282364,-0.08803507685661316,-0.20072682201862335,-0.1776868999004364,0.08101065456867218,-0.10039399564266205,17,-26,-1024,-176,82,-100,40,115,-147,27605.0
06:07:10.774,AUTO,-35.3632615,149.1652466,29034,-0.1421131193637848,-0.03017885610461235,-0.3277108073234558,-0.07167339324951172,0.13135506212711334,-0.17585250735282898,-1,-17,-1008,-70,132,-176,64,14,-153,27605.0
06:07:10.976,AUTO,-35.3632602,149.1652466,29420,-0.14117856323719025,0.008592236787080765,-0.3662208020687103,0.058253128081560135,0.19533196091651917,-0.08395121246576309,-9,-11,-1003,59,196,-83,52,-21,-150,27605.0
06:07:11.177,AUTO,-35.3632593,149.1652457,29803,-0.12325943261384964,0.037120506167411804,-0.38518059253692627,0.06395043432712555,0.07648126035928726,-0.051804885268211365,-12,-4,-1007,64,77,-52,31,-50,-150,27605.0
06:07:11.379,AUTO,-35.3632593,149.1652457,29803,-0.12325943261384964,0.037120506167411804,-0.38518059253692627,0.06395043432712555,0.07648126035928726,-0.051804885268211365,-12,-4,-1007,64,77,-52,31,-50,-150,27605.0
06:07:11.582,AUTO,-35.3632589,149.165244,30184,-0.11037364602088928,0.04812237620353699,-0.3985151946544647,0.05232486128807068,0.037504471838474274,-0.041775621473789215,-13,4,-1002,53,38,-41,7,-71,-149,27605.0
06:07:11.783,AUTO,-35.363259,149.1652418,30570,-0.09610884636640549,0.05605239421129227,-0.40877583622932434,0.06365180015563965,0.0342925526201725,-0.030643371865153313,-14,9,-1000,64,35,-30,-16,-86,-147,27605.0
06:07:11.985,AUTO,-35.3632595,149.1652393,30945,-0.0794559121131897,0.0638011023402214,-0.4161960780620575,0.07346829771995544,0.03269445523619652,-0.02077680639922619,-14,16,-1001,74,33,-21,-40,-96,-146,27605.0
06:07:12.188,AUTO,-35.3632595,149.1652393,30945,-0.0794559121131897,0.0638011023402214,-0.4161960780620575,0.07346829771995544,0.03269445523619652,-0.02077680639922619,-14,16,-1001,74,33,-21,-40,-96,-146,27605.0
06:07:12.390,AUTO,-35.3632595,149.1652393,30945,-0.0794559121131897,0.0638011023402214,-0.4161960780620575,0.07346829771995544,0.03269445523619652,-0.02077680639922619,-14,16,-1001,74,33,-21,-40,-96,-146,27605.0
06:07:12.592,AUTO,-35.3632595,149.1652393,30945,-0.0794559121131897,0.0638011023402214,-0.4161960780620575,0.07346829771995544,0.03269445523619652,-0.02077680639922619,-14,16,-1001,74,33,-21,-40,-96,-146,27605.0
06:07:12.794,AUTO,-35.3632645,149.1652313,32059,-0.016492081806063652,0.08142615109682083,-0.42586550116539,0.09525369107723236,0.012911466881632805,-0.0005816030316054821,-6,27,-1006,96,13,0,-103,-88,-146,27605.0
06:07:12.996,AUTO,-35.363267,149.165229,32433,0.00765715166926384,0.08294504880905151,-0.4255618453025818,0.09933380782604218,-0.0005680822068825364,0.0028786445036530495,-3,33,-1008,100,0,2,-120,-74,-147,27605.0
06:07:13.198,AUTO,-35.3632698,149.1652272,32809,0.03202754259109497,0.08086126297712326,-0.4243038594722748,0.09634439647197723,-0.013644055463373661,0.007034094072878361,8,30,-1008,97,-12,7,-132,-54,-148,27605.0
06:07:13.400,AUTO,-35.3632698,149.1652272,32809,0.03202754259109497,0.08086126297712326,-0.4243038594722748,0.09634439647197723,-0.013644055463373661,0.007034094072878361,8,30,-1008,97,-12,7,-132,-54,-148,27605.0
06:07:13.602,AUTO,-35.3632729,149.165226,33186,0.05709290876984596,0.07507435977458954,-0.42205706238746643,0.09945740550756454,-0.02950623631477356,0.010508188046514988,8,35,-1008,100,-28,10,-140,-30,-149,176714.0
06:07:13.804,AUTO,-35.363276,149.1652255,33565,0.07860518246889114,0.06298287957906723,-0.41726088523864746,0.06444350630044937,-0.07092451304197311,0.03795841708779335,14,28,-1006,65,-69,37,-142,-2,-149,176714.0
06:07:14.006,AUTO,-35.3632792,149.1652257,33945,0.09132612496614456,0.037957943975925446,-0.4057053029537201,0.039178937673568726,-0.11126614362001419,0.06519287079572678,21,30,-1009,40,-110,65,-138,25,-149,176714.0
06:07:14.208,AUTO,-35.3632792,149.1652257,33945,0.09132612496614456,0.037957943975925446,-0.4057053029537201,0.039178937673568726,-0.11126614362001419,0.06519287079572678,21,30,-1009,40,-110,65,-138,25,-149,176714.0
06:07:14.410,AUTO,-35.3632792,149.1652257,33945,0.09132612496614456,0.037957943975925446,-0.4057053029537201,0.039178937673568726,-0.11126614362001419,0.06519287079572678,21,30,-1009,40,-110,65,-138,25,-149,176714.0
06:07:14.612,AUTO,-35.3632792,149.1652257,33945,0.09132612496614456,0.037957943975925446,-0.4057053029537201,0.039178937673568726,-0.11126614362001419,0.06519287079572678,21,30,-1009,40,-110,65,-138,25,-149,176714.0
06:07:14.814,AUTO,-35.3632869,149.1652307,35098,0.11527702957391739,-0.060472697019577026,-0.35505616664886475,-0.06316230446100235,-0.1906702071428299,0.15910401940345764,37,1,-1001,-62,-189,159,-79,97,-150,176714.0
06:07:15.016,AUTO,-35.3632883,149.1652335,35479,0.06927203387022018,-0.13290973007678986,-0.29803749918937683,-0.23045137524604797,-0.3234185576438904,0.34048739075660706,27,-7,-1006,-229,-322,340,-42,109,-148,176714.0
06:07:15.218,AUTO,-35.3632887,149.1652363,35856,-0.02326846681535244,-0.22948364913463593,-0.1891118437051773,-0.3157358169555664,-0.42110055685043335,0.49534741044044495,21,-15,-1013,-314,-419,494,8,99,-146,176714.0
06:07:15.420,AUTO,-35.3632878,149.1652385,36215,-0.11054772138595581,-0.3387019634246826,-0.06294358521699905,-0.09573400020599365,-0.2812585234642029,0.36987513303756714,5,-18,-1003,-94,-280,369,78,68,-135,176714.0
06:07:15.622,AUTO,-35.3632878,149.1652385,36215,-0.11054772138595581,-0.3387019634246826,-0.06294358521699905,-0.09573400020599365,-0.2812585234642029,0.36987513303756714,5,-18,-1003,-94,-280,369,78,68,-135,176714.0
06:07:15.824,AUTO,-35.3632854,149.1652398,36530,-0.11798188090324402,-0.291687548160553,-0.006235719192773104,0.12585031986236572,0.41865330934524536,0.14930781722068787,-18,-17,-949,127,419,149,150,32,-110,176714.0
06:07:16.026,AUTO,-35.3632815,149.1652402,36790,-0.07909862697124481,-0.15694072842597961,-0.005717050284147263,0.16886961460113525,0.5672403573989868,0.006186074111610651,-28,-20,-959,169,568,6,195,2,-93,176714.0
06:07:16.228,AUTO,-35.3632815,149.1652402,36790,-0.07909862697124481,-0.15694072842597961,-0.005717050284147263,0.16886961460113525,0.5672403573989868,0.006186074111610651,-28,-20,-959,169,568,6,195,2,-93,176714.0
06:07:16.431,AUTO,-35.3632815,149.1652402,36790,-0.07909862697124481,-0.15694072842597961,-0.005717050284147263,0.16886961460113525,0.5672403573989868,0.006186074111610651,-28,-20,-959,169,568,6,195,2,-93,176714.0
06:07:16.633,AUTO,-35.3632815,149.1652402,36790,-0.07909862697124481,-0.15694072842597961,-0.005717050284147263,0.16886961460113525,0.5672403573989868,0.006186074111610651,-28,-20,-959,169,568,6,195,2,-93,176714.0
06:07:16.835,AUTO,-35.3632686,149.1652385,37400,0.015642689540982246,0.09405370056629181,-0.045803893357515335,0.04545939341187477,0.13077077269554138,-0.03492356836795807,-32,-13,-959,46,131,-34,165,-30,-64,176714.0
06:07:17.037,AUTO,-35.3632653,149.1652376,37548,0.027718184515833855,0.11421676725149155,-0.05342761427164078,0.1346592903137207,0.04287717491388321,-0.02620186284184456,-31,-12,-960,135,43,-26,133,-27,-51,176714.0
06:07:17.239,AUTO,-35.3632626,149.1652368,37665,0.027336061000823975,0.11617529392242432,-0.05861978605389595,-0.2806200683116913,-0.01366369891911745,-0.0143048744648695,-23,-29,-962,-280,-12,-14,99,-23,-40,176714.0
06:07:17.442,AUTO,-35.3632607,149.1652362,37752,0.024092989042401314,0.1089593842625618,-0.06261718273162842,-0.08496002107858658,-0.035848625004291534,-0.018190639093518257,-17,7,-948,-83,-34,-18,69,-15,-27,176714.0
06:07:17.645,AUTO,-35.3632607,149.1652362,37752,0.024092989042401314,0.1089593842625618,-0.06261718273162842,-0.08496002107858658,-0.035848625004291534,-0.018190639093518257,-17,7,-948,-83,-34,-18,69,-15,-27,195388.0
06:07:17.846,AUTO,-35.3632593,149.1652358,37809,0.031359780579805374,0.0964425578713417,-0.06561099737882614,0.6716800332069397,-0.057950425893068314,-0.014708307571709156,-9,26,-980,672,-56,-14,42,-9,-18,195388.0
06:07:18.048,AUTO,-35.3632586,149.1652357,37846,0.02619628980755806,0.0794270783662796,-0.068650022149086,0.17396458983421326,-0.07471659779548645,0.0001635349908610806,-5,-12,-972,174,-73,0,20,-4,-11,195388.0
06:07:18.250,AUTO,-35.3632586,149.1652357,37846,0.02619628980755806,0.0794270783662796,-0.068650022149086,0.17396458983421326,-0.07471659779548645,0.0001635349908610806,-5,-12,-972,174,-73,0,20,-4,-11,195388.0
06:07:18.452,AUTO,-35.3632586,149.1652357,37846,0.02619628980755806,0.0794270783662796,-0.068650022149086,0.17396458983421326,-0.07471659779548645,0.0001635349908610806,-5,-12,-972,174,-73,0,20,-4,-11,195388.0
06:07:18.654,AUTO,-35.3632586,149.1652357,37846,0.02619628980755806,0.0794270783662796,-0.068650022149086,0.17396458983421326,-0.07471659779548645,0.0001635349908610806,-5,-12,-972,174,-73,0,20,-4,-11,195388.0
06:07:18.856,AUTO,-35.3632586,149.1652358,37882,-0.001287925406359136,0.03224235028028488,-0.07883808761835098,0.2657965421676636,-0.04989037290215492,-0.012038672342896461,6,29,-970,267,-48,-12,-15,7,2,195388.0
06:07:19.057,AUTO,-35.3632589,149.1652361,37863,0.007858624681830406,0.03769182413816452,-0.07170138508081436,0.9888063669204712,-0.017073269933462143,-0.0006375103257596493,8,44,-945,990,-16,0,-22,8,12,195388.0
06:07:19.259,AUTO,-35.3632595,149.1652363,37812,0.0026099635288119316,0.021850038319826126,-0.08000354468822479,0.8328551054000854,-0.09758129715919495,-0.0221199132502079,8,36,-1023,834,-96,-21,-28,7,18,195388.0
06:07:19.461,AUTO,-35.3632602,149.1652365,37764,-0.015645811334252357,0.002437915885820985,-0.0854867473244667,0.33204978704452515,-0.05918378382921219,-0.023047419264912605,8,0,-1013,332,-58,-22,-29,3,16,195388.0
06:07:19.663,AUTO,-35.3632609,149.1652365,37724,-0.040414970368146896,-0.008522345684468746,-0.08988058567047119,-0.332335501909256,-0.03907597064971924,-0.01835727132856846,5,-26,-1011,-332,-38,-18,-27,-4,11,195388.0
06:07:19.864,AUTO,-35.3632609,149.1652365,37724,-0.040414970368146896,-0.008522345684468746,-0.08988058567047119,-0.332335501909256,-0.03907597064971924,-0.01835727132856846,5,-26,-1011,-332,-38,-18,-27,-4,11,195388.0
06:07:20.066,AUTO,-35.3632616,149.1652364,37695,-0.06546343117952347,-0.01707010343670845,-0.09278217703104019,-0.7735357880592346,-0.029977893456816673,-0.014584746211767197,2,-26,-1024,-773,-28,-14,-24,-15,6,195388.0
06:07:20.274,AUTO,-35.3632616,149.1652364,37695,-0.06546343117952347,-0.01707010343670845,-0.09278217703104019,-0.7735357880592346,-0.029977893456816673,-0.014584746211767197,2,-26,-1024,-773,-28,-14,-24,-15,6,195388.0
06:07:20.475,AUTO,-35.3632616,149.1652364,37695,-0.06546343117952347,-0.01707010343670845,-0.09278217703104019,-0.7735357880592346,-0.029977893456816673,-0.014584746211767197,2,-26,-1024,-773,-28,-14,-24,-15,6,195388.0
06:07:20.677,AUTO,-35.3632631,149.1652333,37649,-0.08579795807600021,-0.03465251997113228,-0.11483396589756012,0.2625557780265808,-0.04846147447824478,-0.20932061970233917,-7,52,-980,264,-47,-209,-12,-58,4,195388.0
06:07:20.879,AUTO,-35.3632631,149.1652333,37649,-0.08579795807600021,-0.03465251997113228,-0.11483396589756012,0.2625557780265808,-0.04846147447824478,-0.20932061970233917,-7,52,-980,264,-47,-209,-12,-58,4,195388.0
06:07:21.081,AUTO,-35.3632634,149.1652312,37644,-0.07479491084814072,-0.05062968283891678,-0.24005503952503204,0.6315410733222961,-0.04782216623425484,-0.723426878452301,-10,45,-1016,632,-46,-722,-8,-78,-4,290437.0
06:07:21.283,AUTO,-35.3632637,149.1652285,37645,-0.07091179490089417,-0.07070901244878769,-0.44458070397377014,0.17986664175987244,-0.03062528371810913,-0.8502163290977478,-23,11,-1008,179,-29,-849,-5,-98,-3,290437.0
06:07:21.485,AUTO,-35.3632639,149.1652252,37648,-0.0682239830493927,-0.09007199108600616,-0.6612938642501831,-0.5570178031921387,-0.002478792564943433,-0.8447015881538391,-32,-15,-1000,-556,-1,-844,-2,-119,-4,290437.0
06:07:21.687,AUTO,-35.3632641,149.1652212,37652,-0.05204496905207634,-0.1063455268740654,-0.8716560006141663,-0.3606688976287842,-0.01085651759058237,-0.816716730594635,-44,0,-1010,-358,-9,-816,0,-141,-6,290437.0
06:07:21.890,AUTO,-35.3632641,149.1652212,37652,-0.05204496905207634,-0.1063455268740654,-0.8716560006141663,-0.3606688976287842,-0.01085651759058237,-0.816716730594635,-44,0,-1010,-358,-9,-816,0,-141,-6,290437.0
06:07:22.094,AUTO,-35.3632643,149.1652164,37659,-0.01924082823097706,-0.11921360343694687,-1.0685056447982788,0.39011743664741516,-0.012094969861209393,-0.7729659676551819,-47,27,-1003,391,-11,-772,2,-163,-7,290437.0
06:07:22.296,AUTO,-35.3632643,149.1652164,37659,-0.01924082823097706,-0.11921360343694687,-1.0685056447982788,0.39011743664741516,-0.012094969861209393,-0.7729659676551819,-47,27,-1003,391,-11,-772,2,-163,-7,290437.0
06:07:22.499,AUTO,-35.3632643,149.1652164,37659,-0.01924082823097706,-0.11921360343694687,-1.0685056447982788,0.39011743664741516,-0.012094969861209393,-0.7729659676551819,-47,27,-1003,391,-11,-772,2,-163,-7,290437.0
06:07:22.701,AUTO,-35.3632644,149.1651976,37687,0.03533496707677841,-0.1396942138671875,-1.5127842426300049,-0.2120092362165451,-0.05724059045314789,-0.1653774380683899,-58,-32,-1008,-209,-56,-164,8,-238,-9,290437.0
06:07:22.903,AUTO,-35.3632644,149.1651976,37687,0.03533496707677841,-0.1396942138671875,-1.5127842426300049,-0.2120092362165451,-0.05724059045314789,-0.1653774380683899,-58,-32,-1008,-209,-56,-164,8,-238,-9,290437.0
06:07:23.105,AUTO,-35.3632645,149.1651899,37700,0.04927074909210205,-0.14584742486476898,-1.5201964378356934,0.4217628240585327,0.03105940856039524,0.0482938215136528,-63,-15,-1013,423,32,48,10,-266,-10,290437.0
06:07:23.307,AUTO,-35.3632644,149.1651813,37717,0.04824575036764145,-0.14327463507652283,-1.496659517288208,-0.014909716323018074,0.031805869191884995,0.12468978017568588,-64,-48,-1009,-13,32,125,12,-293,-12,290437.0
06:07:23.509,AUTO,-35.3632642,149.1651719,37739,0.041622135788202286,-0.1441747546195984,-1.4751874208450317,-0.29082852602005005,-0.009999014437198639,0.0594208762049675,-72,-48,-1006,-288,-9,60,14,-318,-14,290437.0
06:07:23.712,AUTO,-35.363264,149.165162,37764,0.047350041568279266,-0.14753897488117218,-1.4648765325546265,0.23524422943592072,-0.02811957709491253,0.008611087687313557,-74,-23,-1007,237,-26,8,18,-343,-15,290437.0
06:07:23.916,AUTO,-35.3632637,149.1651515,37793,0.04584403708577156,-0.15644581615924835,-1.4620602130889893,0.18649403750896454,-0.03348211199045181,0.009351029060781002,-77,-46,-1003,188,-32,9,19,-368,-16,290437.0
06:07:24.118,AUTO,-35.3632637,149.1651515,37793,0.04584403708577156,-0.15644581615924835,-1.4620602130889893,0.18649403750896454,-0.03348211199045181,0.009351029060781002,-77,-46,-1003,188,-32,9,19,-368,-16,290437.0
06:07:24.320,AUTO,-35.3632637,149.1651515,37793,0.04584403708577156,-0.15644581615924835,-1.4620602130889893,0.18649403750896454,-0.03348211199045181,0.009351029060781002,-77,-46,-1003,188,-32,9,19,-368,-16,290437.0
06:07:24.523,AUTO,-35.3632637,149.1651515,37793,0.04584403708577156,-0.15644581615924835,-1.4620602130889893,0.18649403750896454,-0.03348211199045181,0.009351029060781002,-77,-46,-1003,188,-32,9,19,-368,-16,290437.0
06:07:24.725,AUTO,-35.3632625,149.165116,37885,0.03962920233607292,-0.1795317828655243,-1.4702073335647583,0.13539567589759827,-0.0020522146951407194,-0.011142436414957047,-98,-52,-1010,137,-1,-10,21,-449,-16,290437.0
06:07:24.927,AUTO,-35.363262,149.1651028,37922,0.03516487777233124,-0.17674675583839417,-1.4712727069854736,-0.11469868570566177,0.02152932621538639,0.004959514364600182,-89,-76,-1008,-113,22,5,21,-474,-18,290437.0
06:07:25.129,AUTO,-35.363262,149.1651028,37922,0.03516487777233124,-0.17674675583839417,-1.4712727069854736,-0.11469868570566177,0.02152932621538639,0.004959514364600182,-89,-76,-1008,-113,22,5,21,-474,-18,300000.0
06:07:25.331,AUTO,-35.3632615,149.165089,37965,0.03483065590262413,-0.1725943684577942,-1.4726017713546753,-0.015746060758829117,0.026194624602794647,-0.00584429083392024,-93,-43,-1007,-13,27,-5,21,-498,-20,300000.0
06:07:25.533,AUTO,-35.363261,149.1650745,38015,0.034441087394952774,-0.16498509049415588,-1.4731119871139526,0.040305785834789276,0.027286188676953316,-0.010240879841148853,-111,-48,-1009,42,28,-9,20,-520,-22,300000.0
06:07:25.735,AUTO,-35.3632605,149.1650595,38071,0.0333624966442585,-0.1599348485469818,-1.4740428924560547,-0.039716266095638275,0.01414226833730936,-0.002897614147514105,-97,-53,-996,-37,14,-2,18,-539,-24,300000.0
06:07:25.937,AUTO,-35.36326,149.1650442,38131,0.03615250438451767,-0.15899938344955444,-1.4753705263137817,0.02709071896970272,0.002913522068411112,-0.005221921019256115,-106,-53,-994,29,3,-5,16,-555,-25,300000.0
06:07:26.140,AUTO,-35.36326,149.1650442,38131,0.03615250438451767,-0.15899938344955444,-1.4753705263137817,0.02709071896970272,0.002913522068411112,-0.005221921019256115,-106,-53,-994,29,3,-5,16,-555,-25,300000.0
06:07:26.342,AUTO,-35.36326,149.1650442,38131,0.03615250438451767,-0.15899938344955444,-1.4753705263137817,0.02709071896970272,0.002913522068411112,-0.005221921019256115,-106,-53,-994,29,3,-5,16,-555,-25,300000.0
06:07:26.544,AUTO,-35.36326,149.1650442,38131,0.03615250438451767,-0.15899938344955444,-1.4753705263137817,0.02709071896970272,0.002913522068411112,-0.005221921019256115,-106,-53,-994,29,3,-5,16,-555,-25,300000.0
06:07:26.746,AUTO,-35.3632588,149.1649957,38325,0.04258158057928085,-0.15376286208629608,-1.480210542678833,-0.021231748163700104,-0.01926003023982048,-0.00017053005285561085,-125,-48,-990,-19,-18,0,14,-595,-25,300000.0
06:07:26.948,AUTO,-35.3632585,149.1649792,38390,0.040559351444244385,-0.1557508260011673,-1.4811840057373047,0.014940238557755947,0.016251806169748306,-0.00593941006809473,-116,-76,-990,16,17,-5,12,-606,-23,300000.0
06:07:27.150,AUTO,-35.3632585,149.1649792,38390,0.040559351444244385,-0.1557508260011673,-1.4811840057373047,0.014940238557755947,0.016251806169748306,-0.00593941006809473,-116,-76,-990,16,17,-5,12,-606,-23,300000.0
06:07:27.352,AUTO,-35.3632581,149.1649623,38455,0.048645809292793274,-0.15045273303985596,-1.4833086729049683,0.039930570870637894,0.02001769468188286,-0.0035813869908452034,-141,-69,-1002,41,21,-3,10,-616,-23,300000.0
06:07:27.556,AUTO,-35.3632579,149.1649452,38521,0.053289029747247696,-0.1424119919538498,-1.4848072528839111,0.008599755354225636,0.034841518849134445,-0.006340431980788708,-128,-63,-993,10,35,-6,10,-624,-24,300000.0
06:07:27.758,AUTO,-35.3632576,149.1649277,38590,0.05419345945119858,-0.1305256485939026,-1.4855756759643555,-0.009827246889472008,0.07256860285997391,-0.005542105995118618,-125,-61,-997,-7,73,-5,10,-631,-24,300000.0
06:07:27.960,AUTO,-35.3632573,149.1649099,38663,0.05682648718357086,-0.11854400485754013,-1.4862663745880127,0.05189109593629837,0.017789391800761223,-0.004729063715785742,-131,-66,-991,53,18,-4,10,-633,-26,300000.0
06:07:28.173,AUTO,-35.3632573,149.1649099,38663,0.05682648718357086,-0.11854400485754013,-1.4862663745880127,0.05189109593629837,0.017789391800761223,-0.004729063715785742,-131,-66,-991,53,18,-4,10,-633,-26,300000.0
06:07:28.376,AUTO,-35.3632573,149.1649099,38663,0.05682648718357086,-0.11854400485754013,-1.4862663745880127,0.05189109593629837,0.017789391800761223,-0.004729063715785742,-131,-66,-991,53,18,-4,10,-633,-26,300000.0
06:07:28.579,AUTO,-35.3632573,149.1649099,38663,0.05682648718357086,-0.11854400485754013,-1.4862663745880127,0.05189109593629837,0.017789391800761223,-0.004729063715785742,-131,-66,-991,53,18,-4,10,-633,-26,300000.0
06:07:28.781,AUTO,-35.3632564,149.164858,38870,0.06182883679866791,-0.11804965138435364,-1.4897998571395874,0.08790743350982666,-0.013296978548169136,-0.019972966983914375,-117,-59,-972,89,-12,-19,10,-632,-19,300000.0
06:07:28.983,AUTO,-35.3632561,149.1648406,38928,0.06173218414187431,-0.115716353058815,-1.491382360458374,-0.03710325062274933,0.033493079245090485,-0.006620384752750397,-121,-77,-982,-35,34,-6,10,-631,-17,300000.0
06:07:29.185,AUTO,-35.3632557,149.1648234,38986,0.06124969199299812,-0.10603082925081253,-1.4923847913742065,0.0004208110040053725,0.037018220871686935,-0.0035572045017033815,-121,-69,-991,2,38,-3,10,-628,-18,200.0
06:07:29.387,AUTO,-35.3632557,149.1648234,38986,0.06124969199299812,-0.10603082925081253,-1.4923847913742065,0.0004208110040053725,0.037018220871686935,-0.0035572045017033815,-121,-69,-991,2,38,-3,10,-628,-18,200.0
06:07:29.589,AUTO,-35.3632554,149.1648062,39046,0.06112269312143326,-0.09453134983778,-1.4931883811950684,0.03268080949783325,0.03447843715548515,-0.006814648862928152,-142,-64,-1002,34,35,-6,11,-622,-19,200.0
06:07:29.791,AUTO,-35.363255,149.1647891,39106,0.05989625304937363,-0.07608026266098022,-1.4931864738464355,-0.02121886797249317,0.08174397051334381,-0.0013220827095210552,-128,-87,-1005,-19,82,0,10,-615,-19,200.0
06:07:29.993,AUTO,-35.3632547,149.1647722,39169,0.06261258572340012,-0.05923737958073616,-1.4942799806594849,0.023585733026266098,0.059980496764183044,-0.013238755986094475,-128,-57,-992,25,60,-12,11,-604,-20,200.0
06:07:30.195,AUTO,-35.3632547,149.1647722,39169,0.06261258572340012,-0.05923737958073616,-1.4942799806594849,0.023585733026266098,0.059980496764183044,-0.013238755986094475,-128,-57,-992,25,60,-12,11,-604,-20,200.0
06:07:30.398,AUTO,-35.3632547,149.1647722,39169,0.06261258572340012,-0.05923737958073616,-1.4942799806594849,0.023585733026266098,0.059980496764183044,-0.013238755986094475,-128,-57,-992,25,60,-12,11,-604,-20,200.0
06:07:30.600,AUTO,-35.3632547,149.1647722,39169,0.06261258572340012,-0.05923737958073616,-1.4942799806594849,0.023585733026266098,0.059980496764183044,-0.013238755986094475,-128,-57,-992,25,60,-12,11,-604,-20,200.0
