time_stamp,MODE,lat,lon,alt,relative_alt,roll,pitch,yaw,rollspeed,pitchspeed,yawspeed,xacc,yacc,zacc,xgyro,ygyro,zgyro,vx,vy,vz
11:36:41.798,STABILIZE,-35.3633017,149.1652771,583950,0,-0.0005400544032454491,0.0014791073044762015,0.027394726872444153,0.000269310490693897,0.00013639350072480738,0.002175436820834875,0,2,-1000,0,0,0,-1,1,-1
11:36:41.999,STABILIZE,-35.3633017,149.1652771,583950,0,-0.0005400544032454491,0.0014791073044762015,0.027394726872444153,0.000269310490693897,0.00013639350072480738,0.002175436820834875,0,2,-1000,0,0,0,-1,1,-1
11:36:42.203,STABILIZE,-35.3633017,149.1652771,583950,0,-0.0005400544032454491,0.0014791073044762015,0.027394726872444153,0.000269310490693897,0.00013639350072480738,0.002175436820834875,0,2,-1000,0,0,0,-1,1,-1
11:36:42.406,STABILIZE,-35.3633017,149.1652771,583950,0,-0.0005400544032454491,0.0014791073044762015,0.027394726872444153,0.000269310490693897,0.00013639350072480738,0.002175436820834875,0,2,-1000,0,0,0,-1,1,-1
11:36:42.608,STABILIZE,-35.3633017,149.1652771,583950,0,-0.0005400544032454491,0.0014791073044762015,0.027394726872444153,0.000269310490693897,0.00013639350072480738,0.002175436820834875,0,2,-1000,0,0,0,-1,1,-1
11:36:42.810,STABILIZE,-35.3633017,149.1652771,583950,0,-0.0005400544032454491,0.0014791073044762015,0.027394726872444153,0.000269310490693897,0.00013639350072480738,0.002175436820834875,0,2,-1000,0,0,0,-1,1,-1
11:36:43.012,STABILIZE,-35.3633017,149.1652771,583950,0,-0.0005400544032454491,0.0014791073044762015,0.027394726872444153,0.000269310490693897,0.00013639350072480738,0.002175436820834875,0,2,-1000,0,0,0,-1,1,-1
11:36:43.215,STABILIZE,-35.3633017,149.1652771,583950,0,-0.0005400544032454491,0.0014791073044762015,0.027394726872444153,0.000269310490693897,0.00013639350072480738,0.002175436820834875,0,2,-1000,0,0,0,-1,1,-1
11:36:43.417,STABILIZE,-35.3633017,149.1652772,583950,0,-0.0008205861668102443,0.0011838742066174746,0.02657889947295189,0.00019621435785666108,0.00028732416103594005,0.002067136112600565,0,2,-1000,0,0,0,-1,1,0
11:36:43.620,STABILIZE,-35.3633017,149.1652772,583950,0,-0.0008205861668102443,0.0011838742066174746,0.02657889947295189,0.00019621435785666108,0.00028732416103594005,0.002067136112600565,0,2,-1000,0,0,0,-1,1,0
11:36:43.821,STABILIZE,-35.3633017,149.1652772,583950,0,-0.0009684033575467765,0.001035533263348043,0.026132116094231606,0.0003083961200900376,0.00020349962869659066,0.0021003750152885914,0,2,-1000,0,0,0,-1,1,0
11:36:44.025,STABILIZE,-35.3633017,149.1652772,583950,0,-0.0009684033575467765,0.001035533263348043,0.026132116094231606,0.0003083961200900376,0.00020349962869659066,0.0021003750152885914,0,2,-1000,0,0,0,-1,1,0
11:36:44.243,STABILIZE,-35.3633017,149.1652772,583950,0,-0.0009684033575467765,0.001035533263348043,0.026132116094231606,0.0003083961200900376,0.00020349962869659066,0.0021003750152885914,0,2,-1000,0,0,0,-1,1,0
11:36:44.450,STABILIZE,-35.3633017,149.1652772,583950,0,-0.0009684033575467765,0.001035533263348043,0.026132116094231606,0.0003083961200900376,0.00020349962869659066,0.0021003750152885914,0,2,-1000,0,0,0,-1,1,0
11:36:44.655,STABILIZE,-35.3633017,149.1652772,583950,0,-0.0009684033575467765,0.001035533263348043,0.026132116094231606,0.0003083961200900376,0.00020349962869659066,0.0021003750152885914,0,2,-1000,0,0,0,-1,1,0
11:36:44.857,STABILIZE,-35.3633017,149.1652772,583950,0,-0.0009684033575467765,0.001035533263348043,0.026132116094231606,0.0003083961200900376,0.00020349962869659066,0.0021003750152885914,0,2,-1000,0,0,0,-1,1,0
11:36:45.060,STABILIZE,-35.3633017,149.1652772,583950,0,-0.0009684033575467765,0.001035533263348043,0.026132116094231606,0.0003083961200900376,0.00020349962869659066,0.0021003750152885914,0,2,-1000,0,0,0,-1,1,0
11:36:45.263,STABILIZE,-35.3633017,149.1652772,583950,0,-0.0009684033575467765,0.001035533263348043,0.026132116094231606,0.0003083961200900376,0.00020349962869659066,0.0021003750152885914,0,2,-1000,0,0,0,-1,1,0
11:36:45.468,STABILIZE,-35.3633017,149.1652772,583950,0,-0.0010719052515923977,0.0009521595202386379,0.025716427713632584,0.000231967365834862,0.00011816766345873475,0.002051747404038906,0,2,-1000,0,0,0,-1,1,0
11:36:45.671,STABILIZE,-35.3633017,149.1652772,583950,0,-0.0011376203037798405,0.0009272865136153996,0.025338908657431602,0.0002437123330309987,0.00021687138359993696,0.0018884057644754648,0,1,-1000,0,0,0,-1,0,0
11:36:45.874,STABILIZE,-35.3633017,149.1652772,583950,0,-0.0011376203037798405,0.0009272865136153996,0.025338908657431602,0.0002437123330309987,0.00021687138359993696,0.0018884057644754648,0,1,-1000,0,0,1,-1,0,0
11:36:46.076,STABILIZE,-35.3633017,149.1652772,583950,0,-0.0011376203037798405,0.0009272865136153996,0.025338908657431602,0.0002437123330309987,0.00021687138359993696,0.0018884057644754648,0,1,-1000,0,0,1,-1,0,0
11:36:46.278,STABILIZE,-35.3633017,149.1652772,583950,0,-0.0011376203037798405,0.0009272865136153996,0.025338908657431602,0.0002437123330309987,0.00021687138359993696,0.0018884057644754648,0,1,-1000,0,0,1,-1,0,0
11:36:46.480,STABILIZE,-35.3633017,149.1652772,583950,0,-0.0011376203037798405,0.0009272865136153996,0.025338908657431602,0.0002437123330309987,0.00021687138359993696,0.0018884057644754648,0,1,-1000,0,0,1,-1,0,0
11:36:46.683,STABILIZE,-35.3633017,149.1652772,583950,0,-0.0011376203037798405,0.0009272865136153996,0.025338908657431602,0.0002437123330309987,0.00021687138359993696,0.0018884057644754648,0,1,-1000,0,0,1,-1,0,0
11:36:46.885,STABILIZE,-35.3633017,149.1652772,583950,0,-0.0011376203037798405,0.0009272865136153996,0.025338908657431602,0.0002437123330309987,0.00021687138359993696,0.0018884057644754648,0,1,-1000,0,0,1,-1,0,0
11:36:47.090,STABILIZE,-35.3633017,149.1652772,583950,0,-0.0011376203037798405,0.0009272865136153996,0.025338908657431602,0.0002437123330309987,0.00021687138359993696,0.0018884057644754648,0,1,-1000,0,0,1,-1,0,0
11:36:47.292,STABILIZE,-35.3633017,149.1652772,583950,0,-0.0011376203037798405,0.0009272865136153996,0.025338908657431602,0.0002437123330309987,0.00021687138359993696,0.0018884057644754648,0,1,-1000,0,0,1,-1,0,0
11:36:47.501,STABILIZE,-35.3633017,149.1652772,583950,0,-0.001176016521640122,0.0009088697261177003,0.02488391473889351,0.0002267315867356956,0.00023918953957036138,0.001898894552141428,0,1,-1000,0,0,1,-1,0,0
11:36:47.705,STABILIZE,-35.3633016,149.1652772,583950,0,-0.0011711885454133153,0.0009240119252353907,0.02471897006034851,0.00033858686219900846,0.000143818324431777,0.0018977245781570673,0,2,-1000,0,0,0,-1,0,0
11:36:47.911,STABILIZE,-35.3633016,149.1652772,583950,0,-0.0011711885454133153,0.0009240119252353907,0.02471897006034851,0.00033858686219900846,0.000143818324431777,0.0018977245781570673,0,2,-1000,0,0,0,-1,0,0
11:36:48.119,STABILIZE,-35.3633016,149.1652772,583950,0,-0.0011711885454133153,0.0009240119252353907,0.02471897006034851,0.00033858686219900846,0.000143818324431777,0.0018977245781570673,0,2,-1000,0,0,0,-1,0,0
11:36:48.321,STABILIZE,-35.3633016,149.1652772,583950,0,-0.0011711885454133153,0.0009240119252353907,0.02471897006034851,0.00033858686219900846,0.000143818324431777,0.0018977245781570673,0,2,-1000,0,0,0,-1,0,0
11:36:48.527,STABILIZE,-35.3633016,149.1652772,583950,0,-0.0011711885454133153,0.0009240119252353907,0.02471897006034851,0.00033858686219900846,0.000143818324431777,0.0018977245781570673,0,2,-1000,0,0,0,-1,0,0
11:36:48.731,STABILIZE,-35.3633016,149.1652772,583950,0,-0.0011711885454133153,0.0009240119252353907,0.02471897006034851,0.00033858686219900846,0.000143818324431777,0.0018977245781570673,0,2,-1000,0,0,0,-1,0,0
11:36:48.937,STABILIZE,-35.3633016,149.1652772,583950,0,-0.0011711885454133153,0.0009240119252353907,0.02471897006034851,0.00033858686219900846,0.000143818324431777,0.0018977245781570673,0,2,-1000,0,0,0,-1,0,0
11:36:49.144,STABILIZE,-35.3633016,149.1652772,583950,0,-0.0011711885454133153,0.0009240119252353907,0.02471897006034851,0.00033858686219900846,0.000143818324431777,0.0018977245781570673,0,2,-1000,0,0,0,-1,0,0
11:36:49.351,STABILIZE,-35.3633016,149.1652772,583950,0,-0.0011762587819248438,0.0009608956752344966,0.024440167471766472,0.00040893477853387594,0.00017149682389572263,0.001973456237465143,0,2,-1000,0,0,0,-1,0,0
11:36:49.554,STABILIZE,-35.3633016,149.1652773,583950,0,-0.000887030444573611,0.0009839321719482541,0.024106480181217194,0.00039820047095417976,0.0002358862548135221,0.0018317995127290487,0,1,-1000,1,0,1,-1,1,0
11:36:49.756,STABILIZE,-35.3633016,149.1652773,583940,0,-0.0009130463004112244,0.000987874809652567,0.02401147596538067,0.00019698950927704573,0.00031050562392920256,0.0017197751440107822,0,1,-1000,1,0,1,-1,1,0
11:36:49.958,STABILIZE,-35.3633016,149.1652773,583940,0,-0.0009130463004112244,0.000987874809652567,0.02401147596538067,0.00019698950927704573,0.00031050562392920256,0.0017197751440107822,0,1,-1000,1,0,1,-1,1,0
11:36:50.161,STABILIZE,-35.3633016,149.1652773,583940,0,-0.0009130463004112244,0.000987874809652567,0.02401147596538067,0.00019698950927704573,0.00031050562392920256,0.0017197751440107822,0,1,-1000,1,0,1,-1,1,0
11:36:50.368,STABILIZE,-35.3633016,149.1652773,583940,0,-0.0009130463004112244,0.000987874809652567,0.02401147596538067,0.00019698950927704573,0.00031050562392920256,0.0017197751440107822,0,1,-1000,1,0,1,-1,1,0
11:36:50.574,STABILIZE,-35.3633016,149.1652773,583940,0,-0.0009130463004112244,0.000987874809652567,0.02401147596538067,0.00019698950927704573,0.00031050562392920256,0.0017197751440107822,0,1,-1000,1,0,1,-1,1,0
11:36:50.778,STABILIZE,-35.3633016,149.1652773,583940,0,-0.0009130463004112244,0.000987874809652567,0.02401147596538067,0.00019698950927704573,0.00031050562392920256,0.0017197751440107822,0,1,-1000,1,0,1,-1,1,0
11:36:50.980,STABILIZE,-35.3633016,149.1652773,583940,0,-0.0009130463004112244,0.000987874809652567,0.02401147596538067,0.00019698950927704573,0.00031050562392920256,0.0017197751440107822,0,1,-1000,1,0,1,-1,1,0
11:36:51.188,STABILIZE,-35.3633016,149.1652773,583940,0,-0.0009130463004112244,0.000987874809652567,0.02401147596538067,0.00019698950927704573,0.00031050562392920256,0.0017197751440107822,0,1,-1000,1,0,1,-1,1,0
11:36:51.392,STABILIZE,-35.3633016,149.1652773,583940,0,-0.0010203804122284055,0.001007209881208837,0.023437686264514923,0.00030078564304858446,0.0003588530234992504,0.0017965283477678895,0,2,-1000,0,0,1,-1,1,0
11:36:51.593,STABILIZE,-35.3633016,149.1652773,583940,0,-0.0010203804122284055,0.001007209881208837,0.023437686264514923,0.00030078564304858446,0.0003588530234992504,0.0017965283477678895,0,2,-1000,0,0,1,-1,1,0
11:36:51.795,STABILIZE,-35.3633016,149.1652773,583940,0,-0.0010335022816434503,0.0010021417401731014,0.023374119773507118,0.0002621483872644603,0.00017815915634855628,0.0016137026250362396,0,1,-1000,0,0,1,-1,1,0
11:36:52.001,STABILIZE,-35.3633016,149.1652773,583940,0,-0.0010335022816434503,0.0010021417401731014,0.023374119773507118,0.0002621483872644603,0.00017815915634855628,0.0016137026250362396,0,1,-1000,0,0,1,-1,1,0
11:36:52.207,STABILIZE,-35.3633016,149.1652773,583940,0,-0.0010335022816434503,0.0010021417401731014,0.023374119773507118,0.0002621483872644603,0.00017815915634855628,0.0016137026250362396,0,1,-1000,0,0,1,-1,1,0
11:36:52.410,STABILIZE,-35.3633016,149.1652773,583940,0,-0.0010335022816434503,0.0010021417401731014,0.023374119773507118,0.0002621483872644603,0.00017815915634855628,0.0016137026250362396,0,1,-1000,0,0,1,-1,1,0
11:36:52.613,STABILIZE,-35.3633016,149.1652773,583940,0,-0.0010335022816434503,0.0010021417401731014,0.023374119773507118,0.0002621483872644603,0.00017815915634855628,0.0016137026250362396,0,1,-1000,0,0,1,-1,1,0
11:36:52.817,STABILIZE,-35.3633016,149.1652773,583940,0,-0.0010335022816434503,0.0010021417401731014,0.023374119773507118,0.0002621483872644603,0.00017815915634855628,0.0016137026250362396,0,1,-1000,0,0,1,-1,1,0
11:36:53.020,STABILIZE,-35.3633016,149.1652773,583940,0,-0.0010335022816434503,0.0010021417401731014,0.023374119773507118,0.0002621483872644603,0.00017815915634855628,0.0016137026250362396,0,1,-1000,0,0,1,-1,1,0
11:36:53.223,STABILIZE,-35.3633016,149.1652773,583940,0,-0.0010335022816434503,0.0010021417401731014,0.023374119773507118,0.0002621483872644603,0.00017815915634855628,0.0016137026250362396,0,1,-1000,0,0,1,-1,1,0
11:36:53.428,STABILIZE,-35.3633016,149.1652775,583910,1,-0.0008888075826689601,0.001006654929369688,0.022875338792800903,0.00026414840249344707,0.0003392577636986971,0.0016242896672338247,0,1,-1000,0,1,1,-1,3,4
11:36:53.631,AUTO,-35.3633016,149.1652775,583900,0,-0.0010708560002967715,0.0010095125762745738,0.02273261919617653,0.00018081616144627333,0.00014990376075729728,0.001750136143527925,0,1,-1000,1,0,0,-1,1,3
11:36:53.833,AUTO,-35.3633016,149.1652775,583900,0,-0.0010708560002967715,0.0010095125762745738,0.02273261919617653,0.00018081616144627333,0.00014990376075729728,0.001750136143527925,0,1,-1000,1,0,0,-1,1,3
11:36:54.036,AUTO,-35.3633016,149.1652775,583900,0,-0.0010708560002967715,0.0010095125762745738,0.02273261919617653,0.00018081616144627333,0.00014990376075729728,0.001750136143527925,0,1,-1000,1,0,0,-1,1,3
11:36:54.238,AUTO,-35.3633016,149.1652775,583900,0,-0.0010708560002967715,0.0010095125762745738,0.02273261919617653,0.00018081616144627333,0.00014990376075729728,0.001750136143527925,0,1,-1000,1,0,0,-1,1,3
11:36:54.440,AUTO,-35.3633016,149.1652775,583900,0,-0.0010708560002967715,0.0010095125762745738,0.02273261919617653,0.00018081616144627333,0.00014990376075729728,0.001750136143527925,0,1,-1000,1,0,0,-1,1,3
11:36:54.642,AUTO,-35.3633016,149.1652775,583900,0,-0.0010708560002967715,0.0010095125762745738,0.02273261919617653,0.00018081616144627333,0.00014990376075729728,0.001750136143527925,0,1,-1000,1,0,0,-1,1,3
11:36:54.846,AUTO,-35.3633016,149.1652775,583900,0,-0.0010708560002967715,0.0010095125762745738,0.02273261919617653,0.00018081616144627333,0.00014990376075729728,0.001750136143527925,0,1,-1000,1,0,0,-1,1,3
11:36:55.058,AUTO,-35.3633016,149.1652775,583900,0,-0.0010708560002967715,0.0010095125762745738,0.02273261919617653,0.00018081616144627333,0.00014990376075729728,0.001750136143527925,0,1,-1000,1,0,0,-1,1,3
11:36:55.261,AUTO,-35.3633016,149.1652775,583900,0,-0.0010708560002967715,0.0010095125762745738,0.02273261919617653,0.00018081616144627333,0.00014990376075729728,0.001750136143527925,0,1,-1000,1,0,0,-1,1,3
11:36:55.463,AUTO,-35.3633016,149.1652773,583890,0,-0.000969576823990792,0.0012417783727869391,0.022446637973189354,0.0002495181397534907,0.0004233038634993136,0.0015262763481587172,0,1,-1000,1,0,0,0,-1,2
11:36:55.666,AUTO,-35.3633015,149.1652773,583880,0,-0.0005017789080739021,0.001437869039364159,0.022232983261346817,0.00032759702298790216,0.00037548813270404935,0.0014679429586976767,0,1,-1000,0,0,0,0,0,3
11:36:55.868,AUTO,-35.3633015,149.1652773,583880,0,-0.0005017789080739021,0.001437869039364159,0.022232983261346817,0.00032759702298790216,0.00037548813270404935,0.0014679429586976767,0,1,-1000,0,0,0,0,0,3
11:36:56.074,AUTO,-35.3633015,149.1652773,583880,0,-0.0005017789080739021,0.001437869039364159,0.022232983261346817,0.00032759702298790216,0.00037548813270404935,0.0014679429586976767,0,1,-1000,0,0,0,0,0,3
11:36:56.278,AUTO,-35.3633015,149.1652773,583880,0,-0.0005017789080739021,0.001437869039364159,0.022232983261346817,0.00032759702298790216,0.00037548813270404935,0.0014679429586976767,0,1,-1000,0,0,0,0,0,3
11:36:56.481,AUTO,-35.3633015,149.1652773,583880,0,-0.0005017789080739021,0.001437869039364159,0.022232983261346817,0.00032759702298790216,0.00037548813270404935,0.0014679429586976767,0,1,-1000,0,0,0,0,0,3
11:36:56.687,AUTO,-35.3633015,149.1652773,583880,0,-0.0005017789080739021,0.001437869039364159,0.022232983261346817,0.00032759702298790216,0.00037548813270404935,0.0014679429586976767,0,1,-1000,0,0,0,0,0,3
11:36:56.889,AUTO,-35.3633015,149.1652773,583880,0,-0.0005017789080739021,0.001437869039364159,0.022232983261346817,0.00032759702298790216,0.00037548813270404935,0.0014679429586976767,0,1,-1000,0,0,0,0,0,3
11:36:57.093,AUTO,-35.3633015,149.1652773,583880,0,-0.0005017789080739021,0.001437869039364159,0.022232983261346817,0.00032759702298790216,0.00037548813270404935,0.0014679429586976767,0,1,-1000,0,0,0,0,0,3
11:36:57.296,AUTO,-35.3633015,149.1652773,583880,0,-0.0003138825122732669,0.001654177438467741,0.022001229226589203,0.00035999860847368836,0.00033401098335161805,0.0014548341277986765,0,1,-1000,0,0,0,0,-1,2
11:36:57.499,AUTO,-35.3633015,149.165277,584110,205,0.011895301751792431,-0.0017811722354963422,0.021908676251769066,0.012846170924603939,-0.0033268791157752275,0.0024006268940865993,0,0,-1095,13,-2,1,0,0,-73
11:36:57.701,AUTO,-35.3633015,149.165277,584330,423,0.005654447246342897,-0.001895806402899325,0.021786224097013474,-0.05779312551021576,0.006018031854182482,0.0012404065346345305,0,-2,-1059,-57,6,0,0,2,-91
11:36:57.903,AUTO,-35.3633015,149.165277,584330,423,0.005654447246342897,-0.001895806402899325,0.021786224097013474,-0.05779312551021576,0.006018031854182482,0.0012404065346345305,0,-2,-1059,-57,6,0,0,2,-91
11:36:58.107,AUTO,-35.3633015,149.165277,584330,423,0.005654447246342897,-0.001895806402899325,0.021786224097013474,-0.05779312551021576,0.006018031854182482,0.0012404065346345305,0,-2,-1059,-57,6,0,0,2,-91
11:36:58.309,AUTO,-35.3633015,149.165277,584330,423,0.005654447246342897,-0.001895806402899325,0.021786224097013474,-0.05779312551021576,0.006018031854182482,0.0012404065346345305,0,-2,-1059,-57,6,0,0,2,-91
11:36:58.512,AUTO,-35.3633015,149.165277,584330,423,0.005654447246342897,-0.001895806402899325,0.021786224097013474,-0.05779312551021576,0.006018031854182482,0.0012404065346345305,0,-2,-1059,-57,6,0,0,2,-91
11:36:58.716,AUTO,-35.3633015,149.165277,584330,423,0.005654447246342897,-0.001895806402899325,0.021786224097013474,-0.05779312551021576,0.006018031854182482,0.0012404065346345305,0,-2,-1059,-57,6,0,0,2,-91
11:36:58.923,AUTO,-35.3633015,149.165277,584330,423,0.005654447246342897,-0.001895806402899325,0.021786224097013474,-0.05779312551021576,0.006018031854182482,0.0012404065346345305,0,-2,-1059,-57,6,0,0,2,-91
11:36:59.126,AUTO,-35.3633015,149.165277,584330,423,0.005654447246342897,-0.001895806402899325,0.021786224097013474,-0.05779312551021576,0.006018031854182482,0.0012404065346345305,0,-2,-1059,-57,6,0,0,2,-91
11:36:59.329,AUTO,-35.363301,149.1652788,585490,1585,-0.02566530741751194,0.016120225191116333,0.02161620743572712,0.043675314635038376,0.0050552464090287685,-0.00017126346938312054,-1,2,-982,44,5,0,0,-4,-102
11:36:59.532,AUTO,-35.3633014,149.1652758,586140,2237,0.055936142802238464,-0.01482575573027134,0.02183869108557701,0.08642392605543137,-0.04896772652864456,0.0017042482504621148,0,3,-1001,86,-48,1,-6,-10,-91
11:36:59.734,AUTO,-35.363302,149.1652741,586340,2437,0.081202432513237,-0.030173547565937042,0.021252786740660667,0.05492774397134781,-0.05062231048941612,0.0010274089872837067,1,0,-1003,55,-50,0,-4,-3,-90
11:36:59.937,AUTO,-35.363302,149.1652741,586340,2437,0.081202432513237,-0.030173547565937042,0.021252786740660667,0.05492774397134781,-0.05062231048941612,0.0010274089872837067,1,0,-1003,55,-50,0,-4,-3,-90
11:37:00.143,AUTO,-35.363302,149.1652741,586340,2437,0.081202432513237,-0.030173547565937042,0.021252786740660667,0.05492774397134781,-0.05062231048941612,0.0010274089872837067,1,0,-1003,55,-50,0,-4,-3,-90
11:37:00.346,AUTO,-35.363302,149.1652741,586340,2437,0.081202432513237,-0.030173547565937042,0.021252786740660667,0.05492774397134781,-0.05062231048941612,0.0010274089872837067,1,0,-1003,55,-50,0,-4,-3,-90
11:37:00.548,AUTO,-35.363302,149.1652741,586340,2437,0.081202432513237,-0.030173547565937042,0.021252786740660667,0.05492774397134781,-0.05062231048941612,0.0010274089872837067,1,0,-1003,55,-50,0,-4,-3,-90
11:37:00.752,AUTO,-35.363302,149.1652741,586340,2437,0.081202432513237,-0.030173547565937042,0.021252786740660667,0.05492774397134781,-0.05062231048941612,0.0010274089872837067,1,0,-1003,55,-50,0,-4,-3,-90
11:37:00.957,AUTO,-35.363302,149.1652741,586340,2437,0.081202432513237,-0.030173547565937042,0.021252786740660667,0.05492774397134781,-0.05062231048941612,0.0010274089872837067,1,0,-1003,55,-50,0,-4,-3,-90
11:37:01.162,AUTO,-35.363302,149.1652741,586340,2437,0.081202432513237,-0.030173547565937042,0.021252786740660667,0.05492774397134781,-0.05062231048941612,0.0010274089872837067,1,0,-1003,55,-50,0,-4,-3,-90
11:37:01.364,AUTO,-35.3632954,149.1652844,587530,3629,-0.22127854824066162,0.2738087475299835,-0.0031682790722697973,0.03974407538771629,0.3050405979156494,-0.08319051563739777,11,15,-995,40,305,-83,52,26,-69
11:37:01.567,AUTO,-35.3632885,149.165286,587490,3580,-0.18176043033599854,0.37826260924339294,0.07721978425979614,0.1705971360206604,0.01843947544693947,-0.028283389285206795,27,59,-927,171,18,-28,28,-55,-14
11:37:01.770,AUTO,-35.3632908,149.1652815,587230,3325,-0.09599971771240234,0.2905285060405731,0.05429793521761894,0.8266328573226929,-0.6142385601997375,-0.7073262929916382,55,86,-955,827,-614,-708,-55,-107,29
11:37:01.972,AUTO,-35.3632908,149.1652815,587230,3325,-0.09599971771240234,0.2905285060405731,0.05429793521761894,0.8266328573226929,-0.6142385601997375,-0.7073262929916382,55,86,-955,827,-614,-708,-55,-107,29
11:37:02.175,AUTO,-35.3632908,149.1652815,587230,3325,-0.09599971771240234,0.2905285060405731,0.05429793521761894,0.8266328573226929,-0.6142385601997375,-0.7073262929916382,55,86,-955,827,-614,-708,-55,-107,29
11:37:02.378,AUTO,-35.3632908,149.1652815,587230,3325,-0.09599971771240234,0.2905285060405731,0.05429793521761894,0.8266328573226929,-0.6142385601997375,-0.7073262929916382,55,86,-955,827,-614,-708,-55,-107,29
11:37:02.584,AUTO,-35.3632908,149.1652815,587230,3325,-0.09599971771240234,0.2905285060405731,0.05429793521761894,0.8266328573226929,-0.6142385601997375,-0.7073262929916382,55,86,-955,827,-614,-708,-55,-107,29
11:37:02.788,AUTO,-35.3632908,149.1652815,587230,3325,-0.09599971771240234,0.2905285060405731,0.05429793521761894,0.8266328573226929,-0.6142385601997375,-0.7073262929916382,55,86,-955,827,-614,-708,-55,-107,29
11:37:02.991,AUTO,-35.3632908,149.1652815,587230,3325,-0.09599971771240234,0.2905285060405731,0.05429793521761894,0.8266328573226929,-0.6142385601997375,-0.7073262929916382,55,86,-955,827,-614,-708,-55,-107,29
11:37:03.196,AUTO,-35.3632908,149.1652815,587230,3325,-0.09599971771240234,0.2905285060405731,0.05429793521761894,0.8266328573226929,-0.6142385601997375,-0.7073262929916382,55,86,-955,827,-614,-708,-55,-107,29
11:37:03.399,AUTO,-35.3632908,149.1652815,587230,3325,-0.09599971771240234,0.2905285060405731,0.05429793521761894,0.8266328573226929,-0.6142385601997375,-0.7073262929916382,55,86,-955,827,-614,-708,-55,-107,29
11:37:03.602,AUTO,-35.3633485,149.1652929,588860,4959,-0.10604831576347351,-0.5803465843200684,-0.2710622251033783,-0.5736702084541321,0.08482465147972107,0.06238546594977379,25,8,-1034,-836,-245,307,121,190,-83
11:37:03.806,AUTO,-35.3633482,149.1652915,589360,5458,-0.1304764598608017,-0.5181472897529602,-0.27892887592315674,0.5693622827529907,0.4083847105503082,0.4133846163749695,-36,-3,-897,570,408,413,205,47,-55
11:37:04.008,AUTO,-35.3633482,149.1652915,589360,5458,-0.1304764598608017,-0.5181472897529602,-0.27892887592315674,0.5693622827529907,0.4083847105503082,0.4133846163749695,-36,-3,-897,570,408,413,205,47,-55
11:37:04.216,AUTO,-35.3633482,149.1652915,589360,5458,-0.1304764598608017,-0.5181472897529602,-0.27892887592315674,0.5693622827529907,0.4083847105503082,0.4133846163749695,-36,-3,-897,570,408,413,205,47,-55
11:37:04.419,AUTO,-35.3633482,149.1652915,589360,5458,-0.1304764598608017,-0.5181472897529602,-0.27892887592315674,0.5693622827529907,0.4083847105503082,0.4133846163749695,-36,-3,-897,570,408,413,205,47,-55
11:37:04.623,AUTO,-35.3633482,149.1652915,589360,5458,-0.1304764598608017,-0.5181472897529602,-0.27892887592315674,0.5693622827529907,0.4083847105503082,0.4133846163749695,-36,-3,-897,570,408,413,205,47,-55
11:37:04.828,AUTO,-35.3633482,149.1652915,589360,5458,-0.1304764598608017,-0.5181472897529602,-0.27892887592315674,0.5693622827529907,0.4083847105503082,0.4133846163749695,-36,-3,-897,570,408,413,205,47,-55
11:37:05.042,AUTO,-35.3633482,149.1652915,589360,5458,-0.1304764598608017,-0.5181472897529602,-0.27892887592315674,0.5693622827529907,0.4083847105503082,0.4133846163749695,-36,-3,-897,570,408,413,205,47,-55
11:37:05.246,AUTO,-35.3633482,149.1652915,589360,5458,-0.1304764598608017,-0.5181472897529602,-0.27892887592315674,0.5693622827529907,0.4083847105503082,0.4133846163749695,-36,-3,-897,570,408,413,205,47,-55
11:37:05.450,LAND,-35.3633233,149.1652605,590410,6504,0.398005872964859,0.13546006381511688,-0.2883184552192688,-0.23799210786819458,0.01788421720266342,-0.10805464535951614,-101,-29,-1074,724,440,-395,294,-37,-92
11:37:05.654,LAND,-35.3633064,149.1652461,590750,6841,0.08915918320417404,0.02819378860294819,-0.29712530970573425,-0.6417259573936462,-0.02407098561525345,0.18973766267299652,-51,-69,-911,-642,-23,190,291,-28,-45
11:37:05.856,LAND,-35.3632983,149.16525,590990,7084,0.06710881739854813,0.025809017941355705,-0.23945750296115875,0.029927194118499756,-0.009904876351356506,0.033388249576091766,-50,-29,-895,35,-9,34,280,11,-27
11:37:06.059,LAND,-35.3632983,149.16525,590990,7084,0.06710881739854813,0.025809017941355705,-0.23945750296115875,0.029927194118499756,-0.009904876351356506,0.033388249576091766,-50,-29,-895,35,-9,34,280,11,-27
11:37:06.263,LAND,-35.3632983,149.16525,590990,7084,0.06710881739854813,0.025809017941355705,-0.23945750296115875,0.029927194118499756,-0.009904876351356506,0.033388249576091766,-50,-29,-895,35,-9,34,280,11,-27
11:37:06.468,LAND,-35.3632983,149.16525,590990,7084,0.06710881739854813,0.025809017941355705,-0.23945750296115875,0.029927194118499756,-0.009904876351356506,0.033388249576091766,-50,-29,-895,35,-9,34,280,11,-27
11:37:06.672,LAND,-35.3632983,149.16525,590990,7084,0.06710881739854813,0.025809017941355705,-0.23945750296115875,0.029927194118499756,-0.009904876351356506,0.033388249576091766,-50,-29,-895,35,-9,34,280,11,-27
11:37:06.876,LAND,-35.3632983,149.16525,590990,7084,0.06710881739854813,0.025809017941355705,-0.23945750296115875,0.029927194118499756,-0.009904876351356506,0.033388249576091766,-50,-29,-895,35,-9,34,280,11,-27
11:37:07.083,LAND,-35.3632983,149.16525,590990,7084,0.06710881739854813,0.025809017941355705,-0.23945750296115875,0.029927194118499756,-0.009904876351356506,0.033388249576091766,-50,-29,-895,35,-9,34,280,11,-27
11:37:07.294,LAND,-35.3632983,149.16525,590990,7084,0.06710881739854813,0.025809017941355705,-0.23945750296115875,0.029927194118499756,-0.009904876351356506,0.033388249576091766,-50,-29,-895,35,-9,34,280,11,-27
11:37:07.498,LAND,-35.3632635,149.1652509,590550,6648,0.02715371362864971,0.009697392582893372,-0.2638857662677765,-0.32777324318885803,0.0011137224500998855,0.05336077883839607,-43,-93,-1037,-332,1,54,237,4,10
11:37:07.700,LAND,-35.3632518,149.1652465,590210,6301,0.006679826881736517,0.006779210641980171,-0.25187447667121887,-0.3087781071662903,-0.0047137844376266,-0.012657813727855682,-41,-51,-1076,-305,-4,-12,217,-26,-13
11:37:07.903,LAND,-35.3632466,149.1652442,590110,6209,0.01598369888961315,0.005763388238847256,-0.25178027153015137,0.44175195693969727,-0.0025976174511015415,-0.0298536978662014,-44,-15,-1081,444,-1,-29,207,-38,-29
11:37:08.106,LAND,-35.3632466,149.1652442,590110,6209,0.01598369888961315,0.005763388238847256,-0.25178027153015137,0.44175195693969727,-0.0025976174511015415,-0.0298536978662014,-44,-15,-1081,444,-1,-29,207,-38,-29
11:37:08.310,LAND,-35.3632466,149.1652442,590110,6209,0.01598369888961315,0.005763388238847256,-0.25178027153015137,0.44175195693969727,-0.0025976174511015415,-0.0298536978662014,-44,-15,-1081,444,-1,-29,207,-38,-29
11:37:08.513,LAND,-35.3632466,149.1652442,590110,6209,0.01598369888961315,0.005763388238847256,-0.25178027153015137,0.44175195693969727,-0.0025976174511015415,-0.0298536978662014,-44,-15,-1081,444,-1,-29,207,-38,-29
11:37:08.716,LAND,-35.3632466,149.1652442,590110,6209,0.01598369888961315,0.005763388238847256,-0.25178027153015137,0.44175195693969727,-0.0025976174511015415,-0.0298536978662014,-44,-15,-1081,444,-1,-29,207,-38,-29
11:37:08.919,LAND,-35.3632466,149.1652442,590110,6209,0.01598369888961315,0.005763388238847256,-0.25178027153015137,0.44175195693969727,-0.0025976174511015415,-0.0298536978662014,-44,-15,-1081,444,-1,-29,207,-38,-29
11:37:09.124,LAND,-35.3632466,149.1652442,590110,6209,0.01598369888961315,0.005763388238847256,-0.25178027153015137,0.44175195693969727,-0.0025976174511015415,-0.0298536978662014,-44,-15,-1081,444,-1,-29,207,-38,-29
11:37:09.327,LAND,-35.3632466,149.1652442,590110,6209,0.01598369888961315,0.005763388238847256,-0.25178027153015137,0.44175195693969727,-0.0025976174511015415,-0.0298536978662014,-44,-15,-1081,444,-1,-29,207,-38,-29
11:37:09.534,LAND,-35.3632232,149.165241,590290,6380,0.0052624717354774475,0.0008816909976303577,-0.27940890192985535,-0.3260093629360199,0.0005485741421580315,0.03147619217634201,-37,-56,-1002,-427,0,10,183,-33,-50
11:37:09.737,LAND,-35.3632105,149.1652368,590170,6267,0.014895121566951275,-0.0003335520450491458,-0.251276433467865,0.22324581444263458,0.00047900265781208873,0.016502873972058296,-35,-35,-960,219,1,16,164,-49,0
11:37:09.944,LAND,-35.3632105,149.1652368,590170,6267,0.014895121566951275,-0.0003335520450491458,-0.251276433467865,0.22324581444263458,0.00047900265781208873,0.016502873972058296,-35,-35,-960,219,1,16,164,-49,0
11:37:10.150,LAND,-35.3632105,149.1652368,590170,6267,0.014895121566951275,-0.0003335520450491458,-0.251276433467865,0.22324581444263458,0.00047900265781208873,0.016502873972058296,-35,-35,-960,219,1,16,164,-49,0
11:37:10.353,LAND,-35.3632105,149.1652368,590170,6267,0.014895121566951275,-0.0003335520450491458,-0.251276433467865,0.22324581444263458,0.00047900265781208873,0.016502873972058296,-35,-35,-960,219,1,16,164,-49,0
11:37:10.555,LAND,-35.3632105,149.1652368,590170,6267,0.014895121566951275,-0.0003335520450491458,-0.251276433467865,0.22324581444263458,0.00047900265781208873,0.016502873972058296,-35,-35,-960,219,1,16,164,-49,0
11:37:10.760,LAND,-35.3632105,149.1652368,590170,6267,0.014895121566951275,-0.0003335520450491458,-0.251276433467865,0.22324581444263458,0.00047900265781208873,0.016502873972058296,-35,-35,-960,219,1,16,164,-49,0
11:37:10.965,LAND,-35.3632105,149.1652368,590170,6267,0.014895121566951275,-0.0003335520450491458,-0.251276433467865,0.22324581444263458,0.00047900265781208873,0.016502873972058296,-35,-35,-960,219,1,16,164,-49,0
11:37:11.174,LAND,-35.3632105,149.1652368,590170,6267,0.014895121566951275,-0.0003335520450491458,-0.251276433467865,0.22324581444263458,0.00047900265781208873,0.016502873972058296,-35,-35,-960,219,1,16,164,-49,0
11:37:11.382,LAND,-35.3632105,149.1652368,590170,6267,0.014895121566951275,-0.0003335520450491458,-0.251276433467865,0.22324581444263458,0.00047900265781208873,0.016502873972058296,-35,-35,-960,219,1,16,164,-49,0
11:37:11.586,LAND,-35.363192,149.1652195,589360,5454,0.004121661651879549,-0.0006836525280959904,-0.2601264417171478,-0.31630629301071167,-0.0004521095543168485,0.008757209405303001,-29,-37,-999,-318,0,9,121,-96,-15
11:37:11.789,LAND,-35.3631874,149.1652126,589150,5244,0.0012850697385147214,-0.0004962916718795896,-0.2542514204978943,0.2769814729690552,0.0005748116527684033,-0.013867449015378952,-28,8,-1025,280,1,-13,106,-113,-13
11:37:11.992,LAND,-35.3631874,149.1652126,589150,5244,0.0012850697385147214,-0.0004962916718795896,-0.2542514204978943,0.2769814729690552,0.0005748116527684033,-0.013867449015378952,-28,8,-1025,280,1,-13,106,-113,-13
11:37:12.196,LAND,-35.3631874,149.1652126,589150,5244,0.0012850697385147214,-0.0004962916718795896,-0.2542514204978943,0.2769814729690552,0.0005748116527684033,-0.013867449015378952,-28,8,-1025,280,1,-13,106,-113,-13
11:37:12.400,LAND,-35.3631874,149.1652126,589150,5244,0.0012850697385147214,-0.0004962916718795896,-0.2542514204978943,0.2769814729690552,0.0005748116527684033,-0.013867449015378952,-28,8,-1025,280,1,-13,106,-113,-13
11:37:12.602,LAND,-35.3631874,149.1652126,589150,5244,0.0012850697385147214,-0.0004962916718795896,-0.2542514204978943,0.2769814729690552,0.0005748116527684033,-0.013867449015378952,-28,8,-1025,280,1,-13,106,-113,-13
11:37:12.807,LAND,-35.3631874,149.1652126,589150,5244,0.0012850697385147214,-0.0004962916718795896,-0.2542514204978943,0.2769814729690552,0.0005748116527684033,-0.013867449015378952,-28,8,-1025,280,1,-13,106,-113,-13
11:37:13.013,LAND,-35.3631874,149.1652126,589150,5244,0.0012850697385147214,-0.0004962916718795896,-0.2542514204978943,0.2769814729690552,0.0005748116527684033,-0.013867449015378952,-28,8,-1025,280,1,-13,106,-113,-13
11:37:13.218,LAND,-35.3631874,149.1652126,589150,5244,0.0012850697385147214,-0.0004962916718795896,-0.2542514204978943,0.2769814729690552,0.0005748116527684033,-0.013867449015378952,-28,8,-1025,280,1,-13,106,-113,-13
11:37:13.426,LAND,-35.363181,149.1652043,588980,5075,-0.003490613540634513,-0.0011447356082499027,-0.25918617844581604,-0.09937113523483276,0.0012791836634278297,-0.0032683408353477716,-28,8,-1025,280,1,-13,89,-123,-13
11:37:15.097,LAND,-35.3631715,149.1652045,589260,5358,0.012009711004793644,-0.0018369101453572512,-0.2598535716533661,0.6614271998405457,-0.0020941640250384808,0.0039062078576534986,-18,18,-920,663,-1,4,86,-74,23
11:37:15.300,LAND,-35.3631696,149.1652029,589150,5248,0.008373073302209377,-0.002434177789837122,-0.2586124539375305,0.3321596384048462,0.000348926056176424,0.012404119595885277,-22,-17,-977,329,0,13,82,-77,36
11:37:15.503,LAND,-35.3631696,149.1652029,589150,5248,0.008373073302209377,-0.002434177789837122,-0.2586124539375305,0.3321596384048462,0.000348926056176424,0.012404119595885277,-22,-17,-977,329,0,13,82,-77,36
11:37:15.704,LAND,-35.3631696,149.1652029,589150,5248,0.008373073302209377,-0.002434177789837122,-0.2586124539375305,0.3321596384048462,0.000348926056176424,0.012404119595885277,-22,-17,-977,329,0,13,82,-77,36
11:37:15.911,LAND,-35.3631696,149.1652029,589150,5248,0.008373073302209377,-0.002434177789837122,-0.2586124539375305,0.3321596384048462,0.000348926056176424,0.012404119595885277,-22,-17,-977,329,0,13,82,-77,36
11:37:16.115,LAND,-35.3631696,149.1652029,589150,5248,0.008373073302209377,-0.002434177789837122,-0.2586124539375305,0.3321596384048462,0.000348926056176424,0.012404119595885277,-22,-17,-977,329,0,13,82,-77,36
11:37:16.320,LAND,-35.3631696,149.1652029,589150,5248,0.008373073302209377,-0.002434177789837122,-0.2586124539375305,0.3321596384048462,0.000348926056176424,0.012404119595885277,-22,-17,-977,329,0,13,82,-77,36
11:37:16.523,LAND,-35.3631696,149.1652029,589150,5248,0.008373073302209377,-0.002434177789837122,-0.2586124539375305,0.3321596384048462,0.000348926056176424,0.012404119595885277,-22,-17,-977,329,0,13,82,-77,36
11:37:16.732,LAND,-35.3631696,149.1652029,589150,5248,0.008373073302209377,-0.002434177789837122,-0.2586124539375305,0.3321596384048462,0.000348926056176424,0.012404119595885277,-22,-17,-977,329,0,13,82,-77,36
11:37:16.934,LAND,-35.3631628,149.1651854,588680,4774,0.006167656276375055,-0.0015738210640847683,-0.258950412273407,0.67613285779953,0.00444390345364809,0.003131166798993945,-19,27,-1007,639,3,0,59,-121,41
11:37:17.145,LAND,-35.3631595,149.1651751,588570,4664,-0.004158847499638796,-0.0011732190614566207,-0.2534584701061249,-0.4372881352901459,-0.0025184298865497112,-0.0016947255935519934,-16,-42,-992,-655,0,11,52,-121,40
11:37:17.348,LAND,-35.3631595,149.1651751,588570,4664,-0.004158847499638796,-0.0011732190614566207,-0.2534584701061249,-0.4372881352901459,-0.0025184298865497112,-0.0016947255935519934,-18,-8,-975,-433,-2,-1,52,-121,40
11:37:17.550,LAND,-35.3631595,149.1651751,588570,4664,-0.004158847499638796,-0.0011732190614566207,-0.2534584701061249,-0.4372881352901459,-0.0025184298865497112,-0.0016947255935519934,-18,-8,-975,-433,-2,-1,52,-121,40
11:37:17.758,LAND,-35.3631595,149.1651751,588570,4664,-0.004158847499638796,-0.0011732190614566207,-0.2534584701061249,-0.4372881352901459,-0.0025184298865497112,-0.0016947255935519934,-18,-8,-975,-433,-2,-1,52,-121,40
11:37:17.963,LAND,-35.3631595,149.1651751,588570,4664,-0.004158847499638796,-0.0011732190614566207,-0.2534584701061249,-0.4372881352901459,-0.0025184298865497112,-0.0016947255935519934,-18,-8,-975,-433,-2,-1,52,-121,40
11:37:18.168,LAND,-35.3631595,149.1651751,588570,4664,-0.004158847499638796,-0.0011732190614566207,-0.2534584701061249,-0.4372881352901459,-0.0025184298865497112,-0.0016947255935519934,-18,-8,-975,-433,-2,-1,52,-121,40
11:37:18.374,LAND,-35.3631595,149.1651751,588570,4664,-0.004158847499638796,-0.0011732190614566207,-0.2534584701061249,-0.4372881352901459,-0.0025184298865497112,-0.0016947255935519934,-18,-8,-975,-433,-2,-1,52,-121,40
11:37:18.579,LAND,-35.3631595,149.1651751,588570,4664,-0.004158847499638796,-0.0011732190614566207,-0.2534584701061249,-0.4372881352901459,-0.0025184298865497112,-0.0016947255935519934,-18,-8,-975,-433,-2,-1,52,-121,40
11:37:18.786,LAND,-35.3631553,149.1651718,588630,4729,0.016075298190116882,-0.0012807325692847371,-0.25554436445236206,0.40533554553985596,0.0008621292654424906,-0.004366255830973387,-16,-21,-918,401,1,-4,51,-100,59
11:37:18.989,LAND,-35.3631488,149.1651717,587580,3676,-0.002896643942221999,-0.00040997815085574985,-0.25537702441215515,-0.20620615780353546,-0.0012046179035678506,-0.004945314023643732,-15,0,-1114,-202,0,-4,54,-64,48
11:37:19.192,LAND,-35.3631474,149.1651709,587510,3601,0.007733961101621389,-0.0003097804437857121,-0.2565544843673706,0.5237758755683899,0.0038948445580899715,-0.005560921970754862,-16,19,-1065,525,4,-5,54,-61,29
11:37:19.395,LAND,-35.3631474,149.1651709,587510,3601,0.007733961101621389,-0.0003097804437857121,-0.2565544843673706,0.5237758755683899,0.0038948445580899715,-0.005560921970754862,-16,19,-1065,525,4,-5,54,-61,29
11:37:19.599,LAND,-35.3631474,149.1651709,587510,3601,0.007733961101621389,-0.0003097804437857121,-0.2565544843673706,0.5237758755683899,0.0038948445580899715,-0.005560921970754862,-16,19,-1065,525,4,-5,54,-61,29
11:37:19.808,LAND,-35.3631474,149.1651709,587510,3601,0.007733961101621389,-0.0003097804437857121,-0.2565544843673706,0.5237758755683899,0.0038948445580899715,-0.005560921970754862,-16,19,-1065,525,4,-5,54,-61,29
11:37:20.013,LAND,-35.3631474,149.1651709,587510,3601,0.007733961101621389,-0.0003097804437857121,-0.2565544843673706,0.5237758755683899,0.0038948445580899715,-0.005560921970754862,-16,19,-1065,525,4,-5,54,-61,29
11:37:20.215,LAND,-35.3631474,149.1651709,587510,3601,0.007733961101621389,-0.0003097804437857121,-0.2565544843673706,0.5237758755683899,0.0038948445580899715,-0.005560921970754862,-16,19,-1065,525,4,-5,54,-61,29
11:37:20.421,LAND,-35.3631474,149.1651709,587510,3601,0.007733961101621389,-0.0003097804437857121,-0.2565544843673706,0.5237758755683899,0.0038948445580899715,-0.005560921970754862,-16,19,-1065,525,4,-5,54,-61,29
11:37:20.624,LAND,-35.3631474,149.1651709,587510,3601,0.007733961101621389,-0.0003097804437857121,-0.2565544843673706,0.5237758755683899,0.0038948445580899715,-0.005560921970754862,-16,19,-1065,525,4,-5,54,-61,29
11:37:20.827,LAND,-35.3631448,149.1651647,587970,4061,-0.012028108350932598,-0.0006161952624097466,-0.2571121156215668,-0.28763970732688904,-0.0050458526238799095,0.0011921196710318327,-15,3,-897,-282,-4,1,46,-68,55
11:37:21.030,LAND,-35.3631416,149.1651578,587690,3787,0.02170318365097046,-0.00022305367747321725,-0.25700628757476807,1.3314062356948853,0.0010269174817949533,-0.007867449894547462,-16,40,-960,1330,1,-7,38,-68,97
11:37:21.232,LAND,-35.3631407,149.1651558,587440,3530,0.018311630934476852,-7.705974894633982e-06,-0.2576310634613037,0.9428925514221191,0.0018154492136090994,-0.001933347200974822,-17,16,-1066,940,2,-1,36,-70,90
11:37:21.435,LAND,-35.3631407,149.1651558,587440,3530,0.018311630934476852,-7.705974894633982e-06,-0.2576310634613037,0.9428925514221191,0.0018154492136090994,-0.001933347200974822,-17,16,-1066,940,2,-1,36,-70,90
11:37:21.638,LAND,-35.3631407,149.1651558,587440,3530,0.018311630934476852,-7.705974894633982e-06,-0.2576310634613037,0.9428925514221191,0.0018154492136090994,-0.001933347200974822,-17,16,-1066,940,2,-1,36,-70,90
11:37:21.841,LAND,-35.3631407,149.1651558,587440,3530,0.018311630934476852,-7.705974894633982e-06,-0.2576310634613037,0.9428925514221191,0.0018154492136090994,-0.001933347200974822,-17,16,-1066,940,2,-1,36,-70,90
11:37:22.047,LAND,-35.3631407,149.1651558,587440,3530,0.018311630934476852,-7.705974894633982e-06,-0.2576310634613037,0.9428925514221191,0.0018154492136090994,-0.001933347200974822,-17,16,-1066,940,2,-1,36,-70,90
11:37:22.251,LAND,-35.3631407,149.1651558,587440,3530,0.018311630934476852,-7.705974894633982e-06,-0.2576310634613037,0.9428925514221191,0.0018154492136090994,-0.001933347200974822,-17,16,-1066,940,2,-1,36,-70,90
11:37:22.455,LAND,-35.3631407,149.1651558,587440,3530,0.018311630934476852,-7.705974894633982e-06,-0.2576310634613037,0.9428925514221191,0.0018154492136090994,-0.001933347200974822,-17,16,-1066,940,2,-1,36,-70,90
11:37:22.662,LAND,-35.3631407,149.1651558,587440,3530,0.018311630934476852,-7.705974894633982e-06,-0.2576310634613037,0.9428925514221191,0.0018154492136090994,-0.001933347200974822,-17,16,-1066,940,2,-1,36,-70,90
11:37:22.864,LAND,-35.3631407,149.1651558,587440,3530,0.018311630934476852,-7.705974894633982e-06,-0.2576310634613037,0.9428925514221191,0.0018154492136090994,-0.001933347200974822,-17,16,-1066,940,2,-1,36,-70,90
11:37:23.067,LAND,-35.3631105,149.1651751,586660,2752,0.00854125339537859,0.0010573329636827111,-0.25733253359794617,0.8737233877182007,-0.0009165378287434578,-0.005353512242436409,-16,56,-986,496,-1,-12,71,-10,51
11:37:23.270,LAND,-35.3631075,149.1651747,586460,2555,0.010954326018691063,0.0020453089382499456,-0.2580094039440155,0.7788440585136414,-0.0037747237365692854,-0.0016200339887291193,-17,34,-998,777,-3,0,60,-11,45
11:37:23.473,LAND,-35.3631075,149.1651747,586460,2555,0.010954326018691063,0.0020453089382499456,-0.2580094039440155,0.7788440585136414,-0.0037747237365692854,-0.0016200339887291193,-17,34,-998,777,-3,0,60,-11,45
11:37:23.678,LAND,-35.3631075,149.1651747,586460,2555,0.010954326018691063,0.0020453089382499456,-0.2580094039440155,0.7788440585136414,-0.0037747237365692854,-0.0016200339887291193,-17,34,-998,777,-3,0,60,-11,45
11:37:23.881,LAND,-35.3631075,149.1651747,586460,2555,0.010954326018691063,0.0020453089382499456,-0.2580094039440155,0.7788440585136414,-0.0037747237365692854,-0.0016200339887291193,-17,34,-998,777,-3,0,60,-11,45
11:37:24.084,LAND,-35.3631075,149.1651747,586460,2555,0.010954326018691063,0.0020453089382499456,-0.2580094039440155,0.7788440585136414,-0.0037747237365692854,-0.0016200339887291193,-17,34,-998,777,-3,0,60,-11,45
11:37:24.288,LAND,-35.3631075,149.1651747,586460,2555,0.010954326018691063,0.0020453089382499456,-0.2580094039440155,0.7788440585136414,-0.0037747237365692854,-0.0016200339887291193,-17,34,-998,777,-3,0,60,-11,45
11:37:24.493,LAND,-35.3631075,149.1651747,586460,2555,0.010954326018691063,0.0020453089382499456,-0.2580094039440155,0.7788440585136414,-0.0037747237365692854,-0.0016200339887291193,-17,34,-998,777,-3,0,60,-11,45
11:37:24.699,LAND,-35.3631075,149.1651747,586460,2555,0.010954326018691063,0.0020453089382499456,-0.2580094039440155,0.7788440585136414,-0.0037747237365692854,-0.0016200339887291193,-17,34,-998,777,-3,0,60,-11,45
11:37:24.903,LAND,-35.3631075,149.1651747,586460,2555,0.010954326018691063,0.0020453089382499456,-0.2580094039440155,0.7788440585136414,-0.0037747237365692854,-0.0016200339887291193,-17,34,-998,777,-3,0,60,-11,45
11:37:25.107,LAND,-35.3631084,149.1651623,585830,1920,-0.018128331750631332,3.1353774829767644e-05,-0.2571154236793518,-0.6893724203109741,-0.004057426005601883,0.00031301670242100954,-16,8,-1017,-685,-4,0,12,-45,46
11:37:25.309,LOITER,-35.3631092,149.1651571,585520,1615,0.004762945231050253,-0.00014800076314713806,-0.25657978653907776,0.6449114084243774,0.006065296940505505,0.000885845220182091,-15,58,-1039,649,5,1,6,-50,31
11:37:25.514,LOITER,-35.3631092,149.1651571,585520,1615,0.004762945231050253,-0.00014800076314713806,-0.25657978653907776,0.6449114084243774,0.006065296940505505,0.000885845220182091,-15,58,-1039,649,5,1,6,-50,31
11:37:25.726,LOITER,-35.3631092,149.1651571,585520,1615,0.004762945231050253,-0.00014800076314713806,-0.25657978653907776,0.6449114084243774,0.006065296940505505,0.000885845220182091,-15,58,-1039,649,5,1,6,-50,31
11:37:25.932,LOITER,-35.3631092,149.1651571,585520,1615,0.004762945231050253,-0.00014800076314713806,-0.25657978653907776,0.6449114084243774,0.006065296940505505,0.000885845220182091,-15,58,-1039,649,5,1,6,-50,31
11:37:26.134,LOITER,-35.3631092,149.1651571,585520,1615,0.004762945231050253,-0.00014800076314713806,-0.25657978653907776,0.6449114084243774,0.006065296940505505,0.000885845220182091,-15,58,-1039,649,5,1,6,-50,31
11:37:26.339,LOITER,-35.3631092,149.1651571,585520,1615,0.004762945231050253,-0.00014800076314713806,-0.25657978653907776,0.6449114084243774,0.006065296940505505,0.000885845220182091,-15,58,-1039,649,5,1,6,-50,31
11:37:26.542,LOITER,-35.3631092,149.1651571,585520,1615,0.004762945231050253,-0.00014800076314713806,-0.25657978653907776,0.6449114084243774,0.006065296940505505,0.000885845220182091,-15,58,-1039,649,5,1,6,-50,31
11:37:26.745,LOITER,-35.3631092,149.1651571,585520,1615,0.004762945231050253,-0.00014800076314713806,-0.25657978653907776,0.6449114084243774,0.006065296940505505,0.000885845220182091,-15,58,-1039,649,5,1,6,-50,31
11:37:26.949,LOITER,-35.3631104,149.1651494,584660,755,-0.012759682722389698,0.014374344609677792,-0.2574964761734009,0.001132589066401124,0.001375269261188805,0.0006203707889653742,0,0,-1000,1,1,1,-17,-44,53
11:37:27.151,LOITER,-35.3631103,149.1651495,584610,703,-0.010714107193052769,0.01452342513948679,-0.25764012336730957,0.0011541078565642238,0.0013105315156280994,0.0006230561411939561,0,0,-1000,1,1,1,-16,-41,51
11:37:27.354,LOITER,-35.3631104,149.1651495,584550,643,-0.008864386938512325,0.014688062481582165,-0.25761309266090393,0.0011848879512399435,0.0013750032521784306,0.0006707420689053833,0,0,-1000,1,1,1,-15,-39,49
11:37:27.562,LOITER,-35.3631104,149.1651495,584550,643,-0.008864386938512325,0.014688062481582165,-0.25761309266090393,0.0011848879512399435,0.0013750032521784306,0.0006707420689053833,0,0,-1000,1,1,1,-15,-39,49
11:37:27.767,LOITER,-35.3631104,149.1651495,584550,643,-0.008864386938512325,0.014688062481582165,-0.25761309266090393,0.0011848879512399435,0.0013750032521784306,0.0006707420689053833,0,0,-1000,1,1,1,-15,-39,49
11:37:27.971,LOITER,-35.3631104,149.1651495,584550,643,-0.008864386938512325,0.014688062481582165,-0.25761309266090393,0.0011848879512399435,0.0013750032521784306,0.0006707420689053833,0,0,-1000,1,1,1,-15,-39,49
11:37:28.174,LOITER,-35.3631104,149.1651495,584550,643,-0.008864386938512325,0.014688062481582165,-0.25761309266090393,0.0011848879512399435,0.0013750032521784306,0.0006707420689053833,0,0,-1000,1,1,1,-15,-39,49
11:37:28.377,LOITER,-35.3631104,149.1651495,584550,643,-0.008864386938512325,0.014688062481582165,-0.25761309266090393,0.0011848879512399435,0.0013750032521784306,0.0006707420689053833,0,0,-1000,1,1,1,-15,-39,49
11:37:28.582,LOITER,-35.3631104,149.1651495,584550,643,-0.008864386938512325,0.014688062481582165,-0.25761309266090393,0.0011848879512399435,0.0013750032521784306,0.0006707420689053833,0,0,-1000,1,1,1,-15,-39,49
11:37:28.785,LOITER,-35.3631104,149.1651495,584550,643,-0.008864386938512325,0.014688062481582165,-0.25761309266090393,0.0011848879512399435,0.0013750032521784306,0.0006707420689053833,0,0,-1000,1,1,1,-15,-39,49
11:37:28.991,LOITER,-35.36311,149.1651514,584280,372,0.0017479249509051442,0.015660937875509262,-0.2564378082752228,0.0016367988428100944,0.0014306239318102598,0.0005568048800341785,0,0,-1000,1,1,1,-10,-15,36
11:37:29.196,LOITER,-35.36311,149.1651514,584280,372,0.0017479249509051442,0.015660937875509262,-0.2564378082752228,0.0016367988428100944,0.0014306239318102598,0.0005568048800341785,0,0,-1000,1,1,1,-10,-15,36
11:37:29.398,LOITER,-35.3631099,149.1651517,584250,341,0.002833133563399315,0.015786463394761086,-0.2563069462776184,0.0015631418209522963,0.001390020246617496,0.0006349892355501652,0,0,-1000,1,1,1,-9,-12,34
11:37:29.601,LOITER,-35.3631099,149.1651517,584250,341,0.002833133563399315,0.015786463394761086,-0.2563069462776184,0.0015631418209522963,0.001390020246617496,0.0006349892355501652,0,0,-1000,1,1,1,-9,-12,34
11:37:29.804,LOITER,-35.3631099,149.1651517,584250,341,0.002833133563399315,0.015786463394761086,-0.2563069462776184,0.0015631418209522963,0.001390020246617496,0.0006349892355501652,0,0,-1000,1,1,1,-9,-12,34
11:37:30.011,LOITER,-35.3631099,149.1651517,584250,341,0.002833133563399315,0.015786463394761086,-0.2563069462776184,0.0015631418209522963,0.001390020246617496,0.0006349892355501652,0,0,-1000,1,1,1,-9,-12,34
11:37:30.215,LOITER,-35.3631099,149.1651517,584250,341,0.002833133563399315,0.015786463394761086,-0.2563069462776184,0.0015631418209522963,0.001390020246617496,0.0006349892355501652,0,0,-1000,1,1,1,-9,-12,34
11:37:30.418,LOITER,-35.3631099,149.1651517,584250,341,0.002833133563399315,0.015786463394761086,-0.2563069462776184,0.0015631418209522963,0.001390020246617496,0.0006349892355501652,0,0,-1000,1,1,1,-9,-12,34
11:37:30.623,LOITER,-35.3631099,149.1651517,584250,341,0.002833133563399315,0.015786463394761086,-0.2563069462776184,0.0015631418209522963,0.001390020246617496,0.0006349892355501652,0,0,-1000,1,1,1,-9,-12,34
11:37:30.827,LOITER,-35.363101,149.1651503,584170,267,0.005309361964464188,0.015725966542959213,-0.25603243708610535,0.0016336895059794188,0.0013166619464755058,0.0006456376286223531,0,0,-1000,1,1,1,3,-7,30
11:37:31.032,AUTO,-35.3630935,149.1651489,584070,168,0.007999836467206478,0.017741218209266663,-0.2566404938697815,0.0017809709534049034,0.0014082699781283736,0.0005039387033320963,0,0,-1000,1,1,1,7,0,24
11:37:31.234,AUTO,-35.3630927,149.1651488,584050,148,0.008500393480062485,0.018235892057418823,-0.2568356990814209,0.0017749599646776915,0.0014073483180254698,0.0005454260972328484,0,0,-1000,1,1,1,6,2,23
11:37:31.438,AUTO,-35.3630927,149.1651488,584050,148,0.008500393480062485,0.018235892057418823,-0.2568356990814209,0.0017749599646776915,0.0014073483180254698,0.0005454260972328484,0,0,-1000,1,1,1,6,2,23
11:37:31.641,AUTO,-35.3630927,149.1651488,584050,148,0.008500393480062485,0.018235892057418823,-0.2568356990814209,0.0017749599646776915,0.0014073483180254698,0.0005454260972328484,0,0,-1000,1,1,1,6,2,23
11:37:31.843,AUTO,-35.3630927,149.1651488,584050,148,0.008500393480062485,0.018235892057418823,-0.2568356990814209,0.0017749599646776915,0.0014073483180254698,0.0005454260972328484,0,0,-1000,1,1,1,6,2,23
11:37:32.048,AUTO,-35.3630927,149.1651488,584050,148,0.008500393480062485,0.018235892057418823,-0.2568356990814209,0.0017749599646776915,0.0014073483180254698,0.0005454260972328484,0,0,-1000,1,1,1,6,2,23
11:37:32.251,AUTO,-35.3630927,149.1651488,584050,148,0.008500393480062485,0.018235892057418823,-0.2568356990814209,0.0017749599646776915,0.0014073483180254698,0.0005454260972328484,0,0,-1000,1,1,1,6,2,23
11:37:32.454,AUTO,-35.3630927,149.1651488,584050,148,0.008500393480062485,0.018235892057418823,-0.2568356990814209,0.0017749599646776915,0.0014073483180254698,0.0005454260972328484,0,0,-1000,1,1,1,6,2,23
11:37:32.657,AUTO,-35.3630927,149.1651488,584050,148,0.008500393480062485,0.018235892057418823,-0.2568356990814209,0.0017749599646776915,0.0014073483180254698,0.0005454260972328484,0,0,-1000,1,1,1,6,2,23
11:37:32.860,AUTO,-35.3630927,149.1651488,584050,148,0.008500393480062485,0.018235892057418823,-0.2568356990814209,0.0017749599646776915,0.0014073483180254698,0.0005454260972328484,0,0,-1000,1,1,1,6,2,23
11:37:33.065,AUTO,-35.3630921,149.1651526,584490,582,-0.01491020992398262,0.01236354187130928,-0.2461853325366974,-0.06152651458978653,-0.03539593145251274,0.004852189216762781,6,-4,-1125,-136,-88,10,-12,45,-101
11:37:33.272,AUTO,-35.3630923,149.1651528,584870,960,-0.022946113720536232,0.008828742429614067,-0.2456190139055252,0.002185782417654991,0.006469534710049629,-0.004445038735866547,4,-2,-1050,2,6,-3,-11,32,-120
11:37:33.475,AUTO,-35.3630923,149.1651528,584870,960,-0.022946113720536232,0.008828742429614067,-0.2456190139055252,0.002185782417654991,0.006469534710049629,-0.004445038735866547,4,-2,-1050,2,6,-3,-11,32,-120
11:37:33.679,AUTO,-35.3630923,149.1651528,584870,960,-0.022946113720536232,0.008828742429614067,-0.2456190139055252,0.002185782417654991,0.006469534710049629,-0.004445038735866547,4,-2,-1050,2,6,-3,-11,32,-120
11:37:33.883,AUTO,-35.3630923,149.1651528,584870,960,-0.022946113720536232,0.008828742429614067,-0.2456190139055252,0.002185782417654991,0.006469534710049629,-0.004445038735866547,4,-2,-1050,2,6,-3,-11,32,-120
11:37:34.086,AUTO,-35.3630923,149.1651528,584870,960,-0.022946113720536232,0.008828742429614067,-0.2456190139055252,0.002185782417654991,0.006469534710049629,-0.004445038735866547,4,-2,-1050,2,6,-3,-11,32,-120
11:37:34.290,AUTO,-35.3630923,149.1651528,584870,960,-0.022946113720536232,0.008828742429614067,-0.2456190139055252,0.002185782417654991,0.006469534710049629,-0.004445038735866547,4,-2,-1050,2,6,-3,-11,32,-120
11:37:34.494,AUTO,-35.3630923,149.1651528,584870,960,-0.022946113720536232,0.008828742429614067,-0.2456190139055252,0.002185782417654991,0.006469534710049629,-0.004445038735866547,4,-2,-1050,2,6,-3,-11,32,-120
11:37:34.697,AUTO,-35.3630923,149.1651528,584870,960,-0.022946113720536232,0.008828742429614067,-0.2456190139055252,0.002185782417654991,0.006469534710049629,-0.004445038735866547,4,-2,-1050,2,6,-3,-11,32,-120
11:37:34.899,AUTO,-35.3630924,149.1651522,586050,2140,0.004431800916790962,0.00272034271620214,-0.24908065795898438,0.047798704355955124,-0.008526813238859177,-0.0002778622438199818,4,-2,-1050,2,6,-3,-5,8,-138
11:37:35.101,AUTO,-35.3630917,149.1651521,587550,3647,0.04916432872414589,-0.0022297094110399485,-0.2491021305322647,0.04224584251642227,-0.00024651020066812634,0.001742151565849781,-2,-3,-999,42,0,2,14,21,-141
11:37:35.305,AUTO,-35.3630911,149.1651525,587930,4024,0.05883665010333061,-0.0027500807773321867,-0.24922937154769897,0.039035554975271225,0.00013110606232658029,0.001613448839634657,-2,-6,-999,39,0,2,21,30,-142
11:37:35.510,AUTO,-35.3630911,149.1651525,587930,4024,0.05883665010333061,-0.0027500807773321867,-0.24922937154769897,0.039035554975271225,0.00013110606232658029,0.001613448839634657,-2,-6,-999,39,0,2,21,30,-142
11:37:35.714,AUTO,-35.3630911,149.1651525,587930,4024,0.05883665010333061,-0.0027500807773321867,-0.24922937154769897,0.039035554975271225,0.00013110606232658029,0.001613448839634657,-2,-6,-999,39,0,2,21,30,-142
11:37:35.919,AUTO,-35.3630911,149.1651525,587930,4024,0.05883665010333061,-0.0027500807773321867,-0.24922937154769897,0.039035554975271225,0.00013110606232658029,0.001613448839634657,-2,-6,-999,39,0,2,21,30,-142
11:37:36.126,AUTO,-35.3630911,149.1651525,587930,4024,0.05883665010333061,-0.0027500807773321867,-0.24922937154769897,0.039035554975271225,0.00013110606232658029,0.001613448839634657,-2,-6,-999,39,0,2,21,30,-142
11:37:36.330,AUTO,-35.3630911,149.1651525,587930,4024,0.05883665010333061,-0.0027500807773321867,-0.24922937154769897,0.039035554975271225,0.00013110606232658029,0.001613448839634657,-2,-6,-999,39,0,2,21,30,-142
11:37:36.535,AUTO,-35.3630911,149.1651525,587930,4024,0.05883665010333061,-0.0027500807773321867,-0.24922937154769897,0.039035554975271225,0.00013110606232658029,0.001613448839634657,-2,-6,-999,39,0,2,21,30,-142
11:37:36.738,AUTO,-35.3630911,149.1651525,587930,4024,0.05883665010333061,-0.0027500807773321867,-0.24922937154769897,0.039035554975271225,0.00013110606232658029,0.001613448839634657,-2,-6,-999,39,0,2,21,30,-142
11:37:36.942,AUTO,-35.3630885,149.1651597,590450,6544,-0.15164384245872498,0.055796556174755096,-0.40172120928764343,-0.10685546696186066,-0.07223103195428848,-0.0019558474887162447,5,2,-1004,-106,-71,0,-47,6,-136
11:37:37.145,AUTO,-35.3630885,149.1651597,590450,6544,-0.15164384245872498,0.055796556174755096,-0.40172120928764343,-0.10685546696186066,-0.07223103195428848,-0.0019558474887162447,5,2,-1004,-106,-71,0,-47,6,-136
11:37:37.347,AUTO,-35.3630895,149.1651581,590840,6931,-0.16475361585617065,0.03901192918419838,-0.3930845856666565,0.0010594447376206517,-0.05589551106095314,0.01575109176337719,2,11,-1000,1,-55,16,-67,-32,-135
11:37:37.550,AUTO,-35.3630895,149.1651581,590840,6931,-0.16475361585617065,0.03901192918419838,-0.3930845856666565,0.0010594447376206517,-0.05589551106095314,0.01575109176337719,2,11,-1000,1,-55,16,-67,-32,-135
11:37:37.753,AUTO,-35.3630895,149.1651581,590840,6931,-0.16475361585617065,0.03901192918419838,-0.3930845856666565,0.0010594447376206517,-0.05589551106095314,0.01575109176337719,2,11,-1000,1,-55,16,-67,-32,-135
11:37:37.958,AUTO,-35.3630895,149.1651581,590840,6931,-0.16475361585617065,0.03901192918419838,-0.3930845856666565,0.0010594447376206517,-0.05589551106095314,0.01575109176337719,2,11,-1000,1,-55,16,-67,-32,-135
11:37:38.160,AUTO,-35.3630895,149.1651581,590840,6931,-0.16475361585617065,0.03901192918419838,-0.3930845856666565,0.0010594447376206517,-0.05589551106095314,0.01575109176337719,2,11,-1000,1,-55,16,-67,-32,-135
11:37:38.362,AUTO,-35.3630895,149.1651581,590840,6931,-0.16475361585617065,0.03901192918419838,-0.3930845856666565,0.0010594447376206517,-0.05589551106095314,0.01575109176337719,2,11,-1000,1,-55,16,-67,-32,-135
11:37:38.566,AUTO,-35.3630895,149.1651581,590840,6931,-0.16475361585617065,0.03901192918419838,-0.3930845856666565,0.0010594447376206517,-0.05589551106095314,0.01575109176337719,2,11,-1000,1,-55,16,-67,-32,-135
11:37:38.769,AUTO,-35.3630895,149.1651581,590840,6931,-0.16475361585617065,0.03901192918419838,-0.3930845856666565,0.0010594447376206517,-0.05589551106095314,0.01575109176337719,2,11,-1000,1,-55,16,-67,-32,-135
11:37:38.971,AUTO,-35.3631057,149.1651381,593360,9456,0.004986543208360672,0.04538455232977867,-0.37154489755630493,0.1192692294716835,0.01080227829515934,0.019054487347602844,-8,43,-1015,119,15,17,-143,-109,-143
11:37:39.174,AUTO,-35.3631057,149.1651381,593360,9456,0.004986543208360672,0.04538455232977867,-0.37154489755630493,0.1192692294716835,0.01080227829515934,0.019054487347602844,-5,42,-1017,119,11,19,-143,-109,-143
11:37:39.376,AUTO,-35.3631089,149.1651353,593740,9837,0.03462563082575798,0.047162167727947235,-0.36709505319595337,0.11760982125997543,0.005614511668682098,0.017900140956044197,-4,39,-1018,117,6,18,-147,-92,-147
11:37:39.579,AUTO,-35.3631089,149.1651353,593740,9837,0.03462563082575798,0.047162167727947235,-0.36709505319595337,0.11760982125997543,0.005614511668682098,0.017900140956044197,-4,39,-1018,117,6,18,-147,-92,-147
11:37:39.783,AUTO,-35.3631089,149.1651353,593740,9837,0.03462563082575798,0.047162167727947235,-0.36709505319595337,0.11760982125997543,0.005614511668682098,0.017900140956044197,-4,39,-1018,117,6,18,-147,-92,-147
11:37:39.988,AUTO,-35.3631089,149.1651353,593740,9837,0.03462563082575798,0.047162167727947235,-0.36709505319595337,0.11760982125997543,0.005614511668682098,0.017900140956044197,-4,39,-1018,117,6,18,-147,-92,-147
11:37:40.192,AUTO,-35.3631089,149.1651353,593740,9837,0.03462563082575798,0.047162167727947235,-0.36709505319595337,0.11760982125997543,0.005614511668682098,0.017900140956044197,-4,39,-1018,117,6,18,-147,-92,-147
11:37:40.396,AUTO,-35.3631089,149.1651353,593740,9837,0.03462563082575798,0.047162167727947235,-0.36709505319595337,0.11760982125997543,0.005614511668682098,0.017900140956044197,-4,39,-1018,117,6,18,-147,-92,-147
11:37:40.598,AUTO,-35.3631089,149.1651353,593740,9837,0.03462563082575798,0.047162167727947235,-0.36709505319595337,0.11760982125997543,0.005614511668682098,0.017900140956044197,-4,39,-1018,117,6,18,-147,-92,-147
11:37:40.801,AUTO,-35.3631201,149.1651261,594840,10931,0.11347681283950806,0.03708405792713165,-0.3451120853424072,0.10054147243499756,-0.029249094426631927,0.021995553746819496,-4,39,-1018,117,6,18,-144,-26,-152
