time_stamp,MODE,lat,lon,relative_alt,roll,pitch,yaw,rollspeed,pitchspeed,yawspeed,xacc,yacc,zacc,xgyro,ygyro,zgyro,vx,vy,vz,RTL_ALT
07:01:48.408,STABILIZE,-35.3632621,149.1652374,0,0.00022452467237599194,0.0016051186248660088,0.02786269038915634,0.0002728647959884256,0.0003018160641659051,0.0023619597777724266,0,1,-1000,0,0,0,-1,1,0,1500.0
07:01:48.609,STABILIZE,-35.3632621,149.1652374,0,0.00022452467237599194,0.0016051186248660088,0.02786269038915634,0.0002728647959884256,0.0003018160641659051,0.0023619597777724266,0,1,-1000,0,0,0,-1,1,0,1500.0
07:01:48.810,STABILIZE,-35.3632621,149.1652374,0,0.00022452467237599194,0.0016051186248660088,0.02786269038915634,0.0002728647959884256,0.0003018160641659051,0.0023619597777724266,0,1,-1000,0,0,0,-1,1,0,1500.0
07:01:49.010,STABILIZE,-35.3632621,149.1652374,0,0.00022452467237599194,0.0016051186248660088,0.02786269038915634,0.0002728647959884256,0.0003018160641659051,0.0023619597777724266,0,1,-1000,0,0,0,-1,1,0,1500.0
07:01:49.211,STABILIZE,-35.3632621,149.1652374,0,0.00022452467237599194,0.0016051186248660088,0.02786269038915634,0.0002728647959884256,0.0003018160641659051,0.0023619597777724266,0,1,-1000,0,0,0,-1,1,0,1500.0
07:01:49.412,STABILIZE,-35.3632621,149.1652374,0,0.00022452467237599194,0.0016051186248660088,0.02786269038915634,0.0002728647959884256,0.0003018160641659051,0.0023619597777724266,0,1,-1000,0,0,0,-1,1,0,1500.0
07:01:49.613,STABILIZE,-35.3632621,149.1652374,0,0.00022452467237599194,0.0016051186248660088,0.02786269038915634,0.0002728647959884256,0.0003018160641659051,0.0023619597777724266,0,1,-1000,0,0,0,-1,1,0,1500.0
07:01:49.814,STABILIZE,-35.3632621,149.1652374,0,0.00022452467237599194,0.0016051186248660088,0.02786269038915634,0.0002728647959884256,0.0003018160641659051,0.0023619597777724266,0,1,-1000,0,0,0,-1,1,0,1500.0
07:01:50.014,STABILIZE,-35.3632621,149.1652374,0,0.00022452467237599194,0.0016051186248660088,0.02786269038915634,0.0002728647959884256,0.0003018160641659051,0.0023619597777724266,0,1,-1000,0,0,0,-1,1,0,1500.0
07:01:50.215,STABILIZE,-35.3632621,149.1652374,0,0.00022452467237599194,0.0016051186248660088,0.02786269038915634,0.0002728647959884256,0.0003018160641659051,0.0023619597777724266,0,1,-1000,0,0,0,-1,1,0,1500.0
07:01:50.416,STABILIZE,-35.3632621,149.1652374,0,0.00022452467237599194,0.0016051186248660088,0.02786269038915634,0.0002728647959884256,0.0003018160641659051,0.0023619597777724266,0,1,-1000,0,0,0,-1,1,0,1500.0
07:01:50.617,STABILIZE,-35.3632621,149.1652374,0,0.00022452467237599194,0.0016051186248660088,0.02786269038915634,0.0002728647959884256,0.0003018160641659051,0.0023619597777724266,0,1,-1000,0,0,0,-1,1,0,1500.0
07:01:50.818,STABILIZE,-35.3632621,149.1652374,0,0.00022452467237599194,0.0016051186248660088,0.02786269038915634,0.0002728647959884256,0.0003018160641659051,0.0023619597777724266,0,1,-1000,0,0,0,-1,1,0,1500.0
07:01:51.019,STABILIZE,-35.3632621,149.1652374,0,0.00022452467237599194,0.0016051186248660088,0.02786269038915634,0.0002728647959884256,0.0003018160641659051,0.0023619597777724266,0,1,-1000,0,0,0,-1,1,0,1500.0
07:01:51.220,STABILIZE,-35.3632621,149.1652374,0,0.00022452467237599194,0.0016051186248660088,0.02786269038915634,0.0002728647959884256,0.0003018160641659051,0.0023619597777724266,0,1,-1000,0,0,0,-1,1,0,1500.0
07:01:51.420,STABILIZE,-35.3632621,149.1652374,0,-1.4824174286331981e-05,0.0011958961840718985,0.026027921587228775,0.0002472300548106432,0.0003683176764752716,0.002254872815683484,0,1,-1000,0,0,0,-1,1,0,1500.0
07:01:51.621,STABILIZE,-35.3632621,149.1652374,0,-1.4824174286331981e-05,0.0011958961840718985,0.026027921587228775,0.0002472300548106432,0.0003683176764752716,0.002254872815683484,0,1,-1000,0,0,0,-1,1,0,1500.0
07:01:51.822,STABILIZE,-35.3632621,149.1652374,0,-1.4824174286331981e-05,0.0011958961840718985,0.026027921587228775,0.0002472300548106432,0.0003683176764752716,0.002254872815683484,0,1,-1000,0,0,0,-1,1,0,1500.0
07:01:52.023,STABILIZE,-35.3632621,149.1652374,0,-1.4824174286331981e-05,0.0011958961840718985,0.026027921587228775,0.0002472300548106432,0.0003683176764752716,0.002254872815683484,0,1,-1000,0,0,0,-1,1,0,1500.0
07:01:52.223,STABILIZE,-35.3632621,149.1652374,0,-1.4824174286331981e-05,0.0011958961840718985,0.026027921587228775,0.0002472300548106432,0.0003683176764752716,0.002254872815683484,0,1,-1000,0,0,0,-1,1,0,1500.0
07:01:52.424,STABILIZE,-35.3632621,149.1652374,0,-1.4824174286331981e-05,0.0011958961840718985,0.026027921587228775,0.0002472300548106432,0.0003683176764752716,0.002254872815683484,0,1,-1000,0,0,0,-1,1,0,1500.0
07:01:52.625,STABILIZE,-35.3632621,149.1652374,0,-1.4824174286331981e-05,0.0011958961840718985,0.026027921587228775,0.0002472300548106432,0.0003683176764752716,0.002254872815683484,0,1,-1000,0,0,0,-1,1,0,1500.0
07:01:52.825,STABILIZE,-35.3632621,149.1652374,0,-1.4824174286331981e-05,0.0011958961840718985,0.026027921587228775,0.0002472300548106432,0.0003683176764752716,0.002254872815683484,0,1,-1000,0,0,0,-1,1,0,1500.0
07:01:53.026,STABILIZE,-35.3632621,149.1652374,0,-1.4824174286331981e-05,0.0011958961840718985,0.026027921587228775,0.0002472300548106432,0.0003683176764752716,0.002254872815683484,0,1,-1000,0,0,0,-1,1,0,1500.0
07:01:53.227,STABILIZE,-35.3632621,149.1652374,0,-1.4824174286331981e-05,0.0011958961840718985,0.026027921587228775,0.0002472300548106432,0.0003683176764752716,0.002254872815683484,0,1,-1000,0,0,0,-1,1,0,1500.0
07:01:53.428,STABILIZE,-35.3632621,149.1652374,0,-1.4824174286331981e-05,0.0011958961840718985,0.026027921587228775,0.0002472300548106432,0.0003683176764752716,0.002254872815683484,0,1,-1000,0,0,0,-1,0,-3,1500.0
07:01:53.629,STABILIZE,-35.3632621,149.1652374,0,-1.4824174286331981e-05,0.0011958961840718985,0.026027921587228775,0.0002472300548106432,0.0003683176764752716,0.002254872815683484,0,1,-1000,0,0,0,-1,0,-3,1500.0
07:01:53.830,STABILIZE,-35.3632621,149.1652374,0,-0.0002642741019371897,0.000970833410974592,0.024781836196780205,0.00021201290655881166,0.00023408088600263,0.0018825489096343517,0,1,-1000,0,0,0,-1,0,-3,1500.0
07:01:54.031,STABILIZE,-35.3632621,149.1652374,0,-0.0002642741019371897,0.000970833410974592,0.024781836196780205,0.00021201290655881166,0.00023408088600263,0.0018825489096343517,0,1,-1000,0,0,0,-1,0,-3,1500.0
07:01:54.233,STABILIZE,-35.3632621,149.1652374,0,-0.00024572235997766256,0.0009620294440537691,0.024664077907800674,0.0003618982736952603,0.00024115416454151273,0.0019996031187474728,0,1,-1000,0,0,0,-1,0,-2,1500.0
07:01:54.434,STABILIZE,-35.3632621,149.1652374,0,-0.00024572235997766256,0.0009620294440537691,0.024664077907800674,0.0003618982736952603,0.00024115416454151273,0.0019996031187474728,0,1,-1000,0,0,0,-1,1,-2,1500.0
07:01:54.636,STABILIZE,-35.3632621,149.1652374,0,-0.00024572235997766256,0.0009620294440537691,0.024664077907800674,0.0003618982736952603,0.00024115416454151273,0.0019996031187474728,0,1,-1000,0,0,0,-1,1,-2,1500.0
07:01:54.837,STABILIZE,-35.3632621,149.1652374,0,-0.00024572235997766256,0.0009620294440537691,0.024664077907800674,0.0003618982736952603,0.00024115416454151273,0.0019996031187474728,0,1,-1000,0,0,0,-1,1,-2,1500.0
07:01:55.038,STABILIZE,-35.3632621,149.1652374,0,-0.00024572235997766256,0.0009620294440537691,0.024664077907800674,0.0003618982736952603,0.00024115416454151273,0.0019996031187474728,0,1,-1000,0,0,0,-1,1,-2,1500.0
07:01:55.240,STABILIZE,-35.3632621,149.1652374,0,-0.00025982363149523735,0.0009448579512536526,0.024219729006290436,0.00029059889493510127,0.00027328726719133556,0.0018138558370992541,0,1,-1000,0,0,0,-1,1,-1,1500.0
07:01:55.441,STABILIZE,-35.3632621,149.1652375,0,-0.00026968252495862544,0.0009345307480543852,0.02409876137971878,0.00025603134417906404,8.253860869444907e-05,0.0017732444684952497,0,2,-1000,1,0,0,-1,1,-1,1500.0
07:01:55.642,STABILIZE,-35.3632621,149.1652375,0,-0.00026968252495862544,0.0009345307480543852,0.02409876137971878,0.00025603134417906404,8.253860869444907e-05,0.0017732444684952497,0,2,-1000,1,0,0,-1,1,-1,1500.0
07:01:55.843,STABILIZE,-35.3632621,149.1652375,0,-0.0003069956146646291,0.0009315500501543283,0.023890333250164986,0.00027693965239450336,0.0002459646202623844,0.0018001935677602887,0,1,-1000,0,0,0,-1,1,-1,1500.0
07:01:56.045,STABILIZE,-35.3632621,149.1652375,0,-0.0003069956146646291,0.0009315500501543283,0.023890333250164986,0.00027693965239450336,0.0002459646202623844,0.0018001935677602887,0,1,-1000,0,0,0,-1,1,-1,1500.0
07:01:56.246,STABILIZE,-35.3632621,149.1652375,0,-0.0003340588591527194,0.0009205857058987021,0.023772355169057846,0.0002705936203710735,0.0002594905672594905,0.0018142397748306394,0,1,-1000,0,0,0,-1,1,-1,1500.0
07:01:56.447,STABILIZE,-35.3632621,149.1652375,0,-0.0003340588591527194,0.0009205857058987021,0.023772355169057846,0.0002705936203710735,0.0002594905672594905,0.0018142397748306394,0,1,-1000,0,0,0,-1,1,-1,1500.0
07:01:56.649,STABILIZE,-35.3632621,149.1652375,0,-0.0003340588591527194,0.0009205857058987021,0.023772355169057846,0.0002705936203710735,0.0002594905672594905,0.0018142397748306394,0,1,-1000,0,0,0,-1,1,-1,1500.0
07:01:56.850,STABILIZE,-35.3632621,149.1652375,0,-0.0003340588591527194,0.0009205857058987021,0.023772355169057846,0.0002705936203710735,0.0002594905672594905,0.0018142397748306394,0,1,-1000,0,0,0,-1,1,-1,1500.0
07:01:57.051,STABILIZE,-35.3632621,149.1652375,0,-0.0003340588591527194,0.0009205857058987021,0.023772355169057846,0.0002705936203710735,0.0002594905672594905,0.0018142397748306394,0,1,-1000,0,0,0,-1,1,-1,1500.0
07:01:57.253,STABILIZE,-35.3632621,149.1652375,0,-0.0003340588591527194,0.0009205857058987021,0.023772355169057846,0.0002705936203710735,0.0002594905672594905,0.0018142397748306394,0,2,-1000,0,0,0,-1,1,-1,1500.0
07:01:57.454,STABILIZE,-35.3632621,149.1652375,0,-0.0003340588591527194,0.0009205857058987021,0.023772355169057846,0.0002705936203710735,0.0002594905672594905,0.0018142397748306394,0,2,-1000,0,0,0,-1,1,-1,1500.0
07:01:57.656,STABILIZE,-35.3632621,149.1652375,0,-0.00022121808433439583,0.0009443480521440506,0.023169338703155518,0.0002970757195726037,0.00022424518829211593,0.0017618248239159584,0,1,-1000,1,0,1,-1,1,-1,1500.0
07:01:57.857,STABILIZE,-35.3632622,149.1652375,0,-0.0002332905278308317,0.0009460706496611238,0.02305999957025051,0.00021027785260230303,0.00036898074904456735,0.0017134135123342276,0,1,-1000,0,0,0,-1,1,0,1500.0
07:01:58.058,STABILIZE,-35.3632622,149.1652375,0,-0.0002332905278308317,0.0009460706496611238,0.02305999957025051,0.00021027785260230303,0.00036898074904456735,0.0017134135123342276,0,1,-1000,0,0,0,-1,1,0,1500.0
07:01:58.259,STABILIZE,-35.3632622,149.1652375,0,-0.0002332905278308317,0.0009460706496611238,0.02305999957025051,0.00021027785260230303,0.00036898074904456735,0.0017134135123342276,0,1,-1000,0,0,0,-1,1,0,1500.0
07:01:58.461,STABILIZE,-35.3632622,149.1652375,0,-0.000290725554805249,0.0009550002287141979,0.022876180708408356,0.00034480710746720433,0.0002685277722775936,0.0015688266139477491,0,1,-1000,0,0,0,-1,2,0,1500.0
07:01:58.662,STABILIZE,-35.3632622,149.1652375,0,-0.000290725554805249,0.0009550002287141979,0.022876180708408356,0.00034480710746720433,0.0002685277722775936,0.0015688266139477491,0,1,-1000,0,0,0,-1,2,0,1500.0
07:01:58.870,STABILIZE,-35.3632622,149.1652375,0,-0.000290725554805249,0.0009550002287141979,0.022876180708408356,0.00034480710746720433,0.0002685277722775936,0.0015688266139477491,0,1,-1000,0,0,0,-1,2,0,1500.0
07:01:59.072,STABILIZE,-35.3632622,149.1652375,0,-0.000290725554805249,0.0009550002287141979,0.022876180708408356,0.00034480710746720433,0.0002685277722775936,0.0015688266139477491,0,1,-1000,0,0,0,-1,2,0,1500.0
07:01:59.274,STABILIZE,-35.3632622,149.1652375,0,-0.000290725554805249,0.0009550002287141979,0.022876180708408356,0.00034480710746720433,0.0002685277722775936,0.0015688266139477491,0,1,-1000,0,0,0,-1,2,0,1500.0
07:01:59.475,STABILIZE,-35.3632622,149.1652375,0,-0.0004383967025205493,0.0009602491627447307,0.02251574583351612,0.00015021616127341986,0.00036090624053031206,0.0017360786441713572,0,2,-1000,0,0,0,-1,2,0,1500.0
07:01:59.677,STABILIZE,-35.3632622,149.1652375,0,-0.00047818085295148194,0.0009652446606196463,0.022430606186389923,0.0002591918455436826,0.0002839054213836789,0.0016362469177693129,0,1,-1000,0,0,0,-1,2,0,1500.0
07:01:59.878,STABILIZE,-35.3632622,149.1652375,0,-0.0005141738220117986,0.000964798906352371,0.022357171401381493,0.00029678671853616834,0.00014736579032614827,0.001599865616299212,0,1,-1000,0,0,0,-1,2,0,1500.0
07:02:00.079,STABILIZE,-35.3632622,149.1652375,0,-0.0005141738220117986,0.000964798906352371,0.022357171401381493,0.00029678671853616834,0.00014736579032614827,0.001599865616299212,0,1,-1000,0,0,0,-1,2,0,1500.0
07:02:00.281,STABILIZE,-35.3632622,149.1652375,0,-0.0005141738220117986,0.000964798906352371,0.022357171401381493,0.00029678671853616834,0.00014736579032614827,0.001599865616299212,0,1,-1000,0,0,0,-1,2,0,1500.0
07:02:00.482,STABILIZE,-35.3632622,149.1652375,0,-0.0005141738220117986,0.000964798906352371,0.022357171401381493,0.00029678671853616834,0.00014736579032614827,0.001599865616299212,0,1,-1000,0,0,0,-1,2,0,1500.0
07:02:00.683,STABILIZE,-35.3632622,149.1652375,0,-0.0005141738220117986,0.000964798906352371,0.022357171401381493,0.00029678671853616834,0.00014736579032614827,0.001599865616299212,0,1,-1000,0,0,0,-1,2,0,1500.0
07:02:00.885,STABILIZE,-35.3632622,149.1652375,0,-0.0005141738220117986,0.000964798906352371,0.022357171401381493,0.00029678671853616834,0.00014736579032614827,0.001599865616299212,0,1,-1000,0,0,0,-1,2,0,1500.0
07:02:01.086,STABILIZE,-35.3632622,149.1652375,0,-0.0005141738220117986,0.000964798906352371,0.022357171401381493,0.00029678671853616834,0.00014736579032614827,0.001599865616299212,0,1,-1000,0,1,0,-1,2,0,1500.0
07:02:01.287,STABILIZE,-35.3632622,149.1652375,0,-0.0005141738220117986,0.000964798906352371,0.022357171401381493,0.00029678671853616834,0.00014736579032614827,0.001599865616299212,0,1,-1000,0,1,0,-1,2,0,1500.0
07:02:01.488,STABILIZE,-35.3632622,149.1652375,0,-0.0005141738220117986,0.000964798906352371,0.022357171401381493,0.00029678671853616834,0.00014736579032614827,0.001599865616299212,0,1,-1000,0,1,0,-1,2,0,1500.0
07:02:01.690,STABILIZE,-35.3632622,149.1652375,0,-0.0005807067500427365,0.0009744064882397652,0.021857107058167458,0.0002614581026136875,0.0001539484364911914,0.0015523415058851242,0,1,-1000,0,0,0,-1,1,0,1500.0
07:02:01.891,STABILIZE,-35.3632622,149.1652375,0,-0.0005854610353708267,0.0009795085061341524,0.021775731816887856,0.000319360988214612,0.00032022723462432623,0.001638210378587246,0,1,-1000,0,1,0,-1,1,0,1500.0
07:02:02.093,STABILIZE,-35.3632622,149.1652375,0,-0.0006053825491108,0.0009752556798048317,0.0217136237770319,0.00027502054581418633,0.00028102437499910593,0.0016663770657032728,0,1,-1000,0,1,0,-1,1,0,1500.0
07:02:02.294,STABILIZE,-35.3632622,149.1652375,0,-0.0006053825491108,0.0009752556798048317,0.0217136237770319,0.00027502054581418633,0.00028102437499910593,0.0016663770657032728,0,1,-1000,0,1,0,-1,1,0,1500.0
07:02:02.497,STABILIZE,-35.3632622,149.1652375,0,-0.0006252226303331554,0.0009736085776239634,0.021664103493094444,0.00028456730069592595,0.00029457866912707686,0.001516556367278099,0,2,-1000,0,1,0,-1,1,0,1500.0
07:02:02.698,STABILIZE,-35.3632622,149.1652375,0,-0.0006252226303331554,0.0009736085776239634,0.021664103493094444,0.00028456730069592595,0.00029457866912707686,0.001516556367278099,0,2,-1000,0,1,0,-1,1,0,1500.0
07:02:02.900,STABILIZE,-35.3632622,149.1652375,0,-0.0006252226303331554,0.0009736085776239634,0.021664103493094444,0.00028456730069592595,0.00029457866912707686,0.001516556367278099,0,2,-1000,0,1,0,-1,1,0,1500.0
07:02:03.102,STABILIZE,-35.3632622,149.1652375,0,-0.0006252226303331554,0.0009736085776239634,0.021664103493094444,0.00028456730069592595,0.00029457866912707686,0.001516556367278099,0,2,-1000,0,1,0,-1,1,0,1500.0
07:02:03.303,STABILIZE,-35.3632622,149.1652375,0,-0.0006252226303331554,0.0009736085776239634,0.021664103493094444,0.00028456730069592595,0.00029457866912707686,0.001516556367278099,0,2,-1000,0,1,0,-1,1,0,1500.0
07:02:03.505,STABILIZE,-35.3632622,149.1652375,0,-0.0006252226303331554,0.0009736085776239634,0.021664103493094444,0.00028456730069592595,0.00029457866912707686,0.001516556367278099,0,1,-1000,1,1,0,-1,0,-2,1500.0
07:02:03.706,STABILIZE,-35.3632622,149.1652375,0,-0.0006932155229151249,0.0009915062692016363,0.021358536556363106,0.0001239556586369872,0.0002859826781786978,0.0015726437559351325,0,1,-1000,1,0,1,-1,0,-2,1500.0
07:02:03.907,STABILIZE,-35.3632622,149.1652375,0,-0.0006497136782854795,0.0009924831101670861,0.02130534127354622,0.00032070052111521363,0.00022661598632112145,0.001541709410957992,0,1,-1000,0,1,1,-1,0,-1,1500.0
07:02:04.109,STABILIZE,-35.3632622,149.1652375,0,-0.0006497136782854795,0.0009924831101670861,0.02130534127354622,0.00032070052111521363,0.00022661598632112145,0.001541709410957992,0,2,-1000,1,1,0,-1,0,-1,1500.0
07:02:04.310,STABILIZE,-35.3632622,149.1652375,0,-0.0006497136782854795,0.0009924831101670861,0.02130534127354622,0.00032070052111521363,0.00022661598632112145,0.001541709410957992,0,2,-1000,1,1,0,-1,0,-1,1500.0
07:02:04.513,STABILIZE,-35.3632622,149.1652375,0,-0.0006497136782854795,0.0009924831101670861,0.02130534127354622,0.00032070052111521363,0.00022661598632112145,0.001541709410957992,0,1,-1000,0,0,0,-1,0,-1,1500.0
07:02:04.714,STABILIZE,-35.3632622,149.1652375,0,-0.0006497136782854795,0.0009924831101670861,0.02130534127354622,0.00032070052111521363,0.00022661598632112145,0.001541709410957992,0,1,-1000,0,0,0,-1,0,-1,1500.0
07:02:04.915,STABILIZE,-35.3632622,149.1652375,0,-0.0006497136782854795,0.0009924831101670861,0.02130534127354622,0.00032070052111521363,0.00022661598632112145,0.001541709410957992,0,1,-1000,0,0,0,-1,0,-1,1500.0
07:02:05.117,STABILIZE,-35.3632622,149.1652375,0,-0.0004969536676071584,0.0009970254031941295,0.021051255986094475,0.00034741638228297234,0.0002445118734613061,0.0014731145929545164,0,1,-1000,0,0,0,-1,1,0,1500.0
07:02:05.318,STABILIZE,-35.3632622,149.1652375,0,-0.0004969536676071584,0.0009970254031941295,0.021051255986094475,0.00034741638228297234,0.0002445118734613061,0.0014731145929545164,0,2,-1000,1,1,0,-1,1,0,1500.0
07:02:05.519,STABILIZE,-35.3632622,149.1652375,0,-0.0004969536676071584,0.0009970254031941295,0.021051255986094475,0.00034741638228297234,0.0002445118734613061,0.0014731145929545164,0,2,-1000,1,1,0,-1,1,0,1500.0
07:02:05.721,STABILIZE,-35.3632622,149.1652375,0,-0.0004969536676071584,0.0009970254031941295,0.021051255986094475,0.00034741638228297234,0.0002445118734613061,0.0014731145929545164,0,2,-1000,1,1,0,-1,1,0,1500.0
07:02:05.923,STABILIZE,-35.3632622,149.1652375,0,-0.0004969536676071584,0.0009970254031941295,0.021051255986094475,0.00034741638228297234,0.0002445118734613061,0.0014731145929545164,0,2,-1000,1,1,0,-1,1,0,1500.0
07:02:06.124,STABILIZE,-35.3632622,149.1652375,0,-0.0004969536676071584,0.0009970254031941295,0.021051255986094475,0.00034741638228297234,0.0002445118734613061,0.0014731145929545164,0,1,-1000,0,1,0,-1,1,0,1500.0
07:02:06.326,STABILIZE,-35.3632622,149.1652375,0,-0.0004969536676071584,0.0009970254031941295,0.021051255986094475,0.00034741638228297234,0.0002445118734613061,0.0014731145929545164,0,1,-1000,0,1,0,-1,1,0,1500.0
07:02:06.528,STABILIZE,-35.3632622,149.1652375,0,-0.0004969536676071584,0.0009970254031941295,0.021051255986094475,0.00034741638228297234,0.0002445118734613061,0.0014731145929545164,0,1,-1000,0,1,0,-1,1,0,1500.0
07:02:06.730,STABILIZE,-35.3632622,149.1652375,0,-0.0004969536676071584,0.0009970254031941295,0.021051255986094475,0.00034741638228297234,0.0002445118734613061,0.0014731145929545164,0,1,-1000,0,1,0,-1,1,0,1500.0
07:02:06.931,STABILIZE,-35.3632622,149.1652375,0,-0.0004969536676071584,0.0009970254031941295,0.021051255986094475,0.00034741638228297234,0.0002445118734613061,0.0014731145929545164,0,1,-1000,0,1,0,-1,1,0,1500.0
07:02:07.133,STABILIZE,-35.3632622,149.1652375,0,-0.0004174456116743386,0.0009778414387255907,0.0205646101385355,0.0003238460049033165,0.00027946586487814784,0.001397392014041543,0,2,-1000,0,0,0,-1,2,2,1500.0
07:02:07.334,STABILIZE,-35.3632622,149.1652375,0,-0.0004174456116743386,0.0009778414387255907,0.0205646101385355,0.0003238460049033165,0.00027946586487814784,0.001397392014041543,0,1,-1000,1,0,1,-1,2,2,1500.0
07:02:07.535,STABILIZE,-35.3632622,149.1652375,0,-0.0004174456116743386,0.0009778414387255907,0.0205646101385355,0.0003238460049033165,0.00027946586487814784,0.001397392014041543,0,1,-1000,1,0,1,-1,2,2,1500.0
07:02:07.736,STABILIZE,-35.3632622,149.1652375,0,-0.0005270701949484646,0.0009771727491170168,0.02046583592891693,0.0003063997137360275,0.0001900718780234456,0.0014546002494171262,0,2,-1000,1,0,0,-1,2,2,1500.0
07:02:07.938,STABILIZE,-35.3632622,149.1652375,0,-0.0005270701949484646,0.0009771727491170168,0.02046583592891693,0.0003063997137360275,0.0001900718780234456,0.0014546002494171262,0,1,-1000,1,1,1,-1,2,2,1500.0
07:02:08.139,STABILIZE,-35.3632622,149.1652375,0,-0.0005270701949484646,0.0009771727491170168,0.02046583592891693,0.0003063997137360275,0.0001900718780234456,0.0014546002494171262,0,1,-1000,1,1,1,-1,2,2,1500.0
07:02:08.340,STABILIZE,-35.3632622,149.1652375,0,-0.0006714048213325441,0.0009836081881076097,0.020330194383859634,0.00031195429619401693,0.00035445624962449074,0.0013674283400177956,0,1,-1000,0,1,0,-1,2,2,1500.0
07:02:08.542,STABILIZE,-35.3632622,149.1652375,0,-0.0006714048213325441,0.0009836081881076097,0.020330194383859634,0.00031195429619401693,0.00035445624962449074,0.0013674283400177956,0,1,-1000,0,1,0,-1,2,2,1500.0
07:02:08.744,AUTO,-35.3632622,149.1652375,0,-0.0006714048213325441,0.0009836081881076097,0.020330194383859634,0.00031195429619401693,0.00035445624962449074,0.0013674283400177956,0,1,-1000,0,1,0,-1,2,2,1500.0
07:02:08.945,AUTO,-35.3632622,149.1652375,0,-0.0006714048213325441,0.0009836081881076097,0.020330194383859634,0.00031195429619401693,0.00035445624962449074,0.0013674283400177956,0,1,-1000,0,1,0,-1,2,2,1500.0
07:02:09.147,AUTO,-35.3632622,149.1652375,4,-0.0007711565704084933,0.000977276940830052,0.02021918073296547,0.00040428288048133254,0.00014587462646886706,0.0014577233232557774,0,1,-1000,0,0,0,-1,1,2,1500.0
07:02:09.401,AUTO,-35.3632622,149.1652375,2,-0.000786349643021822,0.000988670508377254,0.02016419544816017,0.00033852620981633663,0.0003092773840762675,0.0013869010144844651,0,2,-1000,1,1,0,-1,1,2,1500.0
07:02:09.663,AUTO,-35.3632621,149.1652375,1,-0.0008013772312551737,0.0010039637563750148,0.02012648805975914,0.0002694967552088201,0.00029108667513355613,0.0013918239856138825,0,2,-1000,1,0,1,0,1,1,1500.0
07:02:09.936,AUTO,-35.3632621,149.1652375,0,-0.0007977052009664476,0.001039187191054225,0.020094893872737885,0.00023194262757897377,0.0003513341653160751,0.0014443513937294483,0,1,-1000,1,0,0,0,0,1,1500.0
07:02:10.186,AUTO,-35.3632621,149.1652375,0,-0.0007684407173655927,0.0010867816163226962,0.02004793845117092,0.00018473807722330093,0.0002872429904527962,0.001311435946263373,0,1,-1000,1,1,0,0,0,1,1500.0
07:02:10.452,AUTO,-35.3632621,149.1652375,0,-0.0003959244641009718,0.001141859102062881,0.02000059001147747,0.0002287093666382134,0.00028274330543354154,0.0012678729835897684,0,1,-1000,0,1,0,0,1,4,1500.0
07:02:10.654,AUTO,-35.3632621,149.1652375,0,-0.0003959244641009718,0.001141859102062881,0.02000059001147747,0.0002287093666382134,0.00028274330543354154,0.0012678729835897684,0,1,-1000,0,1,0,0,1,4,1500.0
07:02:10.856,AUTO,-35.3632621,149.1652375,0,-0.0003959244641009718,0.001141859102062881,0.02000059001147747,0.0002287093666382134,0.00028274330543354154,0.0012678729835897684,0,1,-1000,0,1,0,0,1,4,1500.0
07:02:11.058,AUTO,-35.3632621,149.1652375,0,-0.0003959244641009718,0.001141859102062881,0.02000059001147747,0.0002287093666382134,0.00028274330543354154,0.0012678729835897684,0,1,-1000,0,1,0,0,1,4,1500.0
07:02:11.260,AUTO,-35.3632621,149.1652375,0,-0.00026562658604234457,0.0013520452193915844,0.01986800692975521,0.0002268365933559835,0.0003790800692513585,0.0012607804965227842,0,2,-1000,1,1,1,0,0,4,1500.0
07:02:11.462,AUTO,-35.3632621,149.1652375,0,-0.0002068040193989873,0.001423522480763495,0.019821172580122948,0.0003273719339631498,0.00019664113642647862,0.0014047713484615088,0,1,-1000,1,0,1,0,0,4,96495.0
07:02:11.663,AUTO,-35.3632621,149.1652375,0,-0.00014483038103207946,0.0014967173337936401,0.019775765016674995,0.00035639427369460464,0.0003571661654859781,0.0012725184205919504,0,1,-1000,1,0,0,0,0,3,96495.0
07:02:11.865,AUTO,-35.3632621,149.1652375,0,-8.121891733026132e-05,0.0015694786561653018,0.019712530076503754,0.00025384838227182627,0.00034710176987573504,0.001408977434039116,0,1,-1000,1,1,1,0,0,3,96495.0
07:02:12.066,AUTO,-35.3632621,149.1652375,0,-8.121891733026132e-05,0.0015694786561653018,0.019712530076503754,0.00025384838227182627,0.00034710176987573504,0.001408977434039116,0,1,-1000,1,1,1,0,0,3,96495.0
07:02:12.268,AUTO,-35.3632621,149.1652374,0,-1.5162419913394842e-05,0.0016446069348603487,0.01965208724141121,0.00029775884468108416,0.00030747294658795,0.0013415382709354162,0,2,-1000,1,1,1,0,0,3,96495.0
07:02:12.469,AUTO,-35.3632621,149.1652374,0,5.8784415159607306e-05,0.0017192054074257612,0.019603006541728973,0.0003333059139549732,0.00033279339550063014,0.0012235511094331741,0,1,-1000,1,1,0,0,0,3,96495.0
07:02:12.671,AUTO,-35.3632621,149.1652374,0,5.8784415159607306e-05,0.0017192054074257612,0.019603006541728973,0.0003333059139549732,0.00033279339550063014,0.0012235511094331741,0,1,-1000,1,1,0,0,0,3,96495.0
07:02:12.872,AUTO,-35.3632621,149.1652374,0,5.8784415159607306e-05,0.0017192054074257612,0.019603006541728973,0.0003333059139549732,0.00033279339550063014,0.0012235511094331741,0,1,-1000,1,1,0,0,0,3,96495.0
07:02:13.084,AUTO,-35.3632621,149.1652374,0,5.8784415159607306e-05,0.0017192054074257612,0.019603006541728973,0.0003333059139549732,0.00033279339550063014,0.0012235511094331741,0,1,-1000,1,1,0,0,0,3,96495.0
07:02:13.286,AUTO,-35.3632621,149.1652375,155,0.005038428585976362,0.0001442732900613919,0.019463475793600082,-0.004451978951692581,0.005157502833753824,0.0009936823043972254,0,0,-1130,-3,5,0,0,1,-64,96495.0
07:02:13.488,AUTO,-35.3632621,149.1652375,360,0.003221644088625908,0.001146557042375207,0.019312532618641853,-0.0008294149301946163,0.003712387289851904,0.00029841094510629773,0,0,-1109,0,4,0,0,1,-93,96495.0
07:02:13.690,AUTO,-35.3632621,149.1652375,632,0.0018154372228309512,0.001760524115525186,0.0192988533526659,-0.00945275742560625,0.0024163846392184496,0.002341556828469038,0,0,-1090,-8,3,2,0,1,-117,96495.0
07:02:13.892,AUTO,-35.3632621,149.1652375,964,0.007856366224586964,0.0015172816347330809,0.018925417214632034,0.04513634741306305,-0.005168865900486708,0.0007859652396291494,0,0,-1049,45,-4,0,0,1,-134,96495.0
07:02:14.093,AUTO,-35.363262,149.1652376,1327,0.01955277845263481,-0.00017874909099191427,0.01884259097278118,0.047118473798036575,-0.007123458664864302,0.0017294762656092644,0,0,-1021,47,-6,1,0,4,-142,96495.0
07:02:14.295,AUTO,-35.363262,149.1652376,1327,0.01955277845263481,-0.00017874909099191427,0.01884259097278118,0.047118473798036575,-0.007123458664864302,0.0017294762656092644,0,0,-1021,47,-6,1,0,4,-142,96495.0
07:02:14.498,AUTO,-35.363262,149.1652377,1705,0.03104267828166485,-0.0021236559841781855,0.01891249231994152,0.0444297157227993,-0.007994895800948143,0.0024621945340186357,0,-1,-1009,45,-7,2,1,9,-145,96495.0
07:02:14.700,AUTO,-35.363262,149.1652377,1705,0.03104267828166485,-0.0021236559841781855,0.01891249231994152,0.0444297157227993,-0.007994895800948143,0.0024621945340186357,0,-1,-1009,45,-7,2,1,9,-145,96495.0
07:02:14.903,AUTO,-35.363262,149.1652377,1705,0.03104267828166485,-0.0021236559841781855,0.01891249231994152,0.0444297157227993,-0.007994895800948143,0.0024621945340186357,0,-1,-1009,45,-7,2,1,9,-145,96495.0
07:02:15.105,AUTO,-35.3632617,149.1652396,2860,0.061620041728019714,-0.00974728912115097,-0.007472529541701078,0.028636690229177475,-0.009391600266098976,-0.01285602431744337,2,-6,-997,29,-8,-13,7,39,-146,96495.0
07:02:15.311,AUTO,-35.3632617,149.1652396,2860,0.061620041728019714,-0.00974728912115097,-0.007472529541701078,0.028636690229177475,-0.009391600266098976,-0.01285602431744337,2,-6,-997,29,-8,-13,7,39,-146,96495.0
07:02:15.543,AUTO,-35.3632614,149.1652409,3242,0.04905706271529198,0.006537565030157566,-0.02626367285847664,-0.09942814707756042,0.10968684405088425,-0.11093557626008987,3,-10,-992,-98,110,-111,10,50,-144,96495.0
07:02:15.780,AUTO,-35.3632612,149.1652423,3618,0.008262591436505318,0.023636706173419952,-0.04826899990439415,-0.18051239848136902,0.01845634914934635,-0.07586003094911575,5,-12,-996,-179,19,-75,7,54,-143,96495.0
07:02:16.042,AUTO,-35.363261,149.1652437,3993,-0.027059631422162056,0.02668582834303379,-0.07008767873048782,-0.08456875383853912,0.028947066515684128,-0.10290700942277908,5,-12,-1012,-83,29,-103,3,48,-145,96495.0
07:02:16.415,AUTO,-35.363261,149.1652457,4761,-0.04348176717758179,0.028582628816366196,-0.10851185023784637,-0.007867555133998394,-0.02426634542644024,-0.051446013152599335,4,-6,-1003,-7,-23,-51,-9,24,-148,96495.0
07:02:16.692,AUTO,-35.363261,149.1652457,4761,-0.04348176717758179,0.028582628816366196,-0.10851185023784637,-0.007867555133998394,-0.02426634542644024,-0.051446013152599335,4,-6,-1003,-7,-23,-51,-9,24,-148,96495.0
07:02:16.895,AUTO,-35.363261,149.1652457,4761,-0.04348176717758179,0.028582628816366196,-0.10851185023784637,-0.007867555133998394,-0.02426634542644024,-0.051446013152599335,4,-6,-1003,-7,-23,-51,-9,24,-148,96495.0
07:02:17.098,AUTO,-35.363261,149.1652457,4761,-0.04348176717758179,0.028582628816366196,-0.10851185023784637,-0.007867555133998394,-0.02426634542644024,-0.051446013152599335,4,-6,-1003,-7,-23,-51,-9,24,-148,96495.0
07:02:17.301,AUTO,-35.3632617,149.1652458,6070,-0.06178797781467438,-0.02622796781361103,-0.07667291909456253,0.03178492933511734,0.010634242556989193,0.00945163331925869,0,4,-1001,32,11,9,-4,-26,-148,96495.0
07:02:17.503,AUTO,-35.3632618,149.165245,6454,-0.051430217921733856,-0.02308608591556549,-0.07612833380699158,0.04972590506076813,0.010341319255530834,0.006672056391835213,-3,6,-1001,50,10,6,0,-39,-148,50986.0
07:02:17.705,AUTO,-35.3632618,149.1652437,6842,-0.037586528807878494,-0.02046588994562626,-0.07598242908716202,0.0594356544315815,0.009796274825930595,0.005982035305351019,-6,8,-1001,60,10,5,3,-49,-148,50986.0
07:02:17.907,AUTO,-35.3632618,149.1652437,6842,-0.037586528807878494,-0.02046588994562626,-0.07598242908716202,0.0594356544315815,0.009796274825930595,0.005982035305351019,-6,8,-1001,60,10,5,3,-49,-148,50986.0
07:02:18.109,AUTO,-35.3632618,149.1652423,7227,-0.022402793169021606,-0.017478547990322113,-0.07559797167778015,0.06206311285495758,0.013515091501176357,0.005214385688304901,-8,8,-1002,62,14,5,6,-55,-149,50986.0
07:02:18.311,AUTO,-35.3632616,149.1652407,7613,-0.006763759534806013,-0.013526618480682373,-0.07498219609260559,0.06344828009605408,0.01736224628984928,0.005123903974890709,-9,10,-1003,64,18,4,8,-57,-149,50986.0
07:02:18.514,AUTO,-35.3632614,149.1652391,8001,0.008752778172492981,-0.008694498799741268,-0.07447424530982971,0.06033458933234215,0.022275393828749657,0.0017477050423622131,-9,9,-1003,61,23,1,9,-56,-150,50986.0
07:02:18.715,AUTO,-35.3632614,149.1652391,8001,0.008752778172492981,-0.008694498799741268,-0.07447424530982971,0.06033458933234215,0.022275393828749657,0.0017477050423622131,-9,9,-1003,61,23,1,9,-56,-150,50986.0
07:02:18.917,AUTO,-35.3632614,149.1652391,8001,0.008752778172492981,-0.008694498799741268,-0.07447424530982971,0.06033458933234215,0.022275393828749657,0.0017477050423622131,-9,9,-1003,61,23,1,9,-56,-150,50986.0
07:02:19.119,AUTO,-35.3632614,149.1652391,8001,0.008752778172492981,-0.008694498799741268,-0.07447424530982971,0.06033458933234215,0.022275393828749657,0.0017477050423622131,-9,9,-1003,61,23,1,9,-56,-150,50986.0
07:02:19.321,AUTO,-35.3632609,149.1652351,9170,0.043900057673454285,0.01608387380838394,-0.08548328280448914,0.034387581050395966,0.0395042710006237,-0.03058158978819847,-7,6,-1001,34,40,-30,4,-31,-152,50986.0
07:02:19.523,AUTO,-35.3632609,149.1652343,9562,0.05161627009510994,0.026176754385232925,-0.09452246874570847,0.027699297294020653,0.039182860404253006,-0.04203372821211815,-5,5,-1000,28,39,-42,0,-19,-152,50986.0
07:02:19.725,AUTO,-35.3632609,149.1652339,9954,0.05735977739095688,0.035881366580724716,-0.10622350871562958,0.01615157723426819,0.03297237679362297,-0.04319453239440918,-2,3,-999,16,33,-43,-6,-5,-151,50986.0
07:02:19.927,AUTO,-35.363261,149.1652339,10344,0.05130805820226669,0.03418226167559624,-0.11087736487388611,-0.05039270222187042,-0.0361226350069046,0.004298871848732233,1,1,-994,-49,-35,4,-13,8,-150,50986.0
07:02:20.129,AUTO,-35.363261,149.1652339,10344,0.05130805820226669,0.03418226167559624,-0.11087736487388611,-0.05039270222187042,-0.0361226350069046,0.004298871848732233,1,1,-994,-49,-35,4,-13,8,-150,50986.0
07:02:20.331,AUTO,-35.3632614,149.1652342,10730,0.03453279286623001,0.020640267059206963,-0.10762110352516174,-0.07503525167703629,-0.0581207312643528,0.02618509903550148,4,-1,-996,-74,-57,26,-17,18,-149,50986.0
07:02:20.534,AUTO,-35.3632617,149.1652346,11112,0.016464294865727425,0.007086312398314476,-0.10194658488035202,-0.06958892941474915,-0.046128250658512115,0.024176763370633125,5,-1,-1000,-68,-45,23,-18,23,-148,50986.0
07:02:20.736,AUTO,-35.3632617,149.1652346,11112,0.016464294865727425,0.007086312398314476,-0.10194658488035202,-0.06958892941474915,-0.046128250658512115,0.024176763370633125,5,-1,-1000,-68,-45,23,-18,23,-148,50986.0
07:02:20.939,AUTO,-35.3632617,149.1652346,11112,0.016464294865727425,0.007086312398314476,-0.10194658488035202,-0.06958892941474915,-0.046128250658512115,0.024176763370633125,5,-1,-1000,-68,-45,23,-18,23,-148,50986.0
07:02:21.141,AUTO,-35.3632617,149.1652346,11112,0.016464294865727425,0.007086312398314476,-0.10194658488035202,-0.06958892941474915,-0.046128250658512115,0.024176763370633125,5,-1,-1000,-68,-45,23,-18,23,-148,50986.0
07:02:21.343,AUTO,-35.3632627,149.1652363,12273,-0.012034766376018524,-0.011130737140774727,-0.09661228209733963,-0.014811750501394272,-0.00821827631443739,-0.008171530440449715,4,-3,-1002,-13,-7,-8,-9,17,-151,50986.0
07:02:21.620,AUTO,-35.3632628,149.1652367,12661,-0.014560151845216751,-0.012143926694989204,-0.10022192448377609,-0.00479087745770812,-0.001452978583984077,-0.014719231985509396,2,-3,-1001,-4,0,-14,-5,12,-151,50986.0
07:02:21.892,AUTO,-35.3632629,149.1652369,13051,-0.013958069495856762,-0.012209497392177582,-0.10529349744319916,0.006356865633279085,0.0014952834462746978,-0.02163553424179554,1,-1,-1001,7,2,-21,-2,6,-152,50986.0
07:02:22.185,AUTO,-35.3632628,149.165237,13839,-0.009026235900819302,-0.008825499564409256,-0.1193152368068695,0.013002751395106316,0.009859675541520119,-0.02898113988339901,0,0,-1000,13,10,-29,3,-1,-152,50986.0
07:02:22.478,AUTO,-35.3632628,149.1652369,14229,-0.005219395738095045,-0.006163640879094601,-0.1270710527896881,0.015365226194262505,0.01214227732270956,-0.028989378362894058,-1,0,-1000,16,12,-29,5,-4,-152,50986.0
07:02:22.769,AUTO,-35.3632628,149.1652369,14229,-0.005219395738095045,-0.006163640879094601,-0.1270710527896881,0.015365226194262505,0.01214227732270956,-0.028989378362894058,-1,0,-1000,16,12,-29,5,-4,-152,50986.0
07:02:22.972,AUTO,-35.3632628,149.1652369,14229,-0.005219395738095045,-0.006163640879094601,-0.1270710527896881,0.015365226194262505,0.01214227732270956,-0.028989378362894058,-1,0,-1000,16,12,-29,5,-4,-152,50986.0
07:02:23.175,AUTO,-35.3632628,149.1652369,14229,-0.005219395738095045,-0.006163640879094601,-0.1270710527896881,0.015365226194262505,0.01214227732270956,-0.028989378362894058,-1,0,-1000,16,12,-29,5,-4,-152,50986.0
07:02:23.377,AUTO,-35.3632623,149.1652363,15393,0.005794516298919916,0.0016746828332543373,-0.14771923422813416,0.009751943871378899,0.010024565272033215,-0.02378349006175995,-2,0,-999,10,10,-24,6,-6,-152,68354.0
07:02:23.579,AUTO,-35.3632621,149.1652361,15783,0.00787647906690836,0.004025700967758894,-0.1536552608013153,0.006372074130922556,0.008587835356593132,-0.02114596776664257,-3,0,-999,7,9,-21,6,-5,-152,68354.0
07:02:23.780,AUTO,-35.363262,149.1652359,16173,0.009508687071502209,0.005910100881010294,-0.15902170538902283,0.008965042419731617,0.006401816848665476,-0.019555682316422462,-2,0,-1000,9,7,-19,5,-4,-152,68354.0
07:02:23.983,AUTO,-35.3632618,149.1652357,16563,0.0011933157220482826,0.0072163972072303295,-0.16378973424434662,-0.05694131180644035,0.00498572550714016,-0.01595214381814003,-2,0,-996,-56,5,-16,3,-3,-151,68354.0
07:02:24.185,AUTO,-35.3632617,149.1652355,16950,-0.015851782634854317,0.008066516369581223,-0.16829562187194824,-0.07280901819467545,0.0035214112140238285,-0.015302617102861404,-2,0,-997,-71,4,-15,1,-6,-151,68354.0
07:02:24.388,AUTO,-35.3632617,149.1652355,16950,-0.015851782634854317,0.008066516369581223,-0.16829562187194824,-0.07280901819467545,0.0035214112140238285,-0.015302617102861404,-2,0,-997,-71,4,-15,1,-6,-151,68354.0
07:02:24.590,AUTO,-35.3632617,149.1652352,17335,-0.035642147064208984,0.008386477828025818,-0.1723014861345291,-0.08417044579982758,0.001221063663251698,-0.010666378773748875,-2,0,-997,-83,1,-11,-1,-12,-150,68354.0
07:02:24.791,AUTO,-35.3632617,149.1652352,17335,-0.035642147064208984,0.008386477828025818,-0.1723014861345291,-0.08417044579982758,0.001221063663251698,-0.010666378773748875,-2,0,-997,-83,1,-11,-1,-12,-150,68354.0
07:02:24.993,AUTO,-35.3632617,149.1652352,17335,-0.035642147064208984,0.008386477828025818,-0.1723014861345291,-0.08417044579982758,0.001221063663251698,-0.010666378773748875,-2,0,-997,-83,1,-11,-1,-12,-150,68354.0
07:02:25.195,AUTO,-35.3632622,149.1652329,18433,-0.015086541883647442,0.038585130125284195,0.024505482986569405,0.1349257230758667,-0.13721220195293427,0.23986397683620453,-1,7,-955,135,-136,239,-26,-37,-131,68354.0
07:02:25.405,AUTO,-35.3632622,149.1652329,18433,-0.015086541883647442,0.038585130125284195,0.024505482986569405,0.1349257230758667,-0.13721220195293427,0.23986397683620453,-1,7,-955,135,-136,239,-26,-37,-131,68354.0
07:02:25.607,AUTO,-35.3632628,149.1652318,18755,0.020592670887708664,0.00015340287063736469,0.060875970870256424,0.13376376032829285,-0.14064976572990417,0.06600163877010345,0,11,-955,134,-139,65,-29,-35,-120,68354.0
07:02:25.809,AUTO,-35.3632633,149.1652309,19049,0.04806802421808243,-0.02545798011124134,0.0642121359705925,0.08861638605594635,-0.0683409571647644,-0.022664567455649376,1,9,-959,89,-67,-22,-25,-25,-109,68354.0
07:02:26.011,AUTO,-35.3632638,149.1652303,19318,0.0630936324596405,-0.03459140658378601,0.055181872099637985,0.03825729712843895,-0.017386892810463905,-0.04452823847532272,1,7,-961,39,-16,-44,-18,-10,-99,68354.0
07:02:26.213,AUTO,-35.3632641,149.1652301,19561,0.066579170525074,-0.0345858559012413,0.0455525740981102,-0.0016553618479520082,0.007589071057736874,-0.03633354976773262,1,2,-965,0,8,-36,-9,5,-90,68354.0
07:02:26.416,AUTO,-35.3632641,149.1652301,19561,0.066579170525074,-0.0345858559012413,0.0455525740981102,-0.0016553618479520082,0.007589071057736874,-0.03633354976773262,1,2,-965,0,8,-36,-9,5,-90,68354.0
07:02:26.618,AUTO,-35.3632642,149.1652303,19780,0.06165372580289841,-0.030077874660491943,0.039572570472955704,-0.03206096217036247,0.02295202948153019,-0.01866268925368786,1,-2,-969,-31,23,-18,-1,19,-81,68354.0
07:02:26.820,AUTO,-35.3632642,149.1652303,19780,0.06165372580289841,-0.030077874660491943,0.039572570472955704,-0.03206096217036247,0.02295202948153019,-0.01866268925368786,1,-2,-969,-31,23,-18,-1,19,-81,68354.0
07:02:27.022,AUTO,-35.3632642,149.1652303,19780,0.06165372580289841,-0.030077874660491943,0.039572570472955704,-0.03206096217036247,0.02295202948153019,-0.01866268925368786,1,-2,-969,-31,23,-18,-1,19,-81,68354.0
07:02:27.225,AUTO,-35.3632637,149.1652328,20322,0.02625785954296589,-0.007119972724467516,0.035498276352882385,-0.048529837280511856,0.029947780072689056,0.0021110340021550655,1,-9,-976,-47,30,1,13,43,-61,68354.0
07:02:27.440,AUTO,-35.3632634,149.1652339,20469,0.01480918563902378,-0.0006768140010535717,0.035383205860853195,-0.04293747991323471,0.022351136431097984,0.003095154417678714,2,-10,-976,-41,23,3,15,44,-55,68354.0
07:02:27.820,AUTO,-35.363263,149.165235,20601,0.005260216537863016,0.005008091684430838,0.035004306584596634,-0.033979590982198715,0.022297080606222153,0.003350371029227972,0,-10,-977,-32,23,3,15,43,-49,68354.0
07:02:28.114,AUTO,-35.3632626,149.1652362,20721,-0.0022652314510196447,0.009608099237084389,0.03421296179294586,-0.02265949361026287,0.016087250784039497,0.00016325108299497515,1,-10,-977,-21,17,0,14,40,-43,68354.0
07:02:28.326,AUTO,-35.3632622,149.1652372,20824,-0.007315261755138636,0.01241663284599781,0.03357463702559471,-0.02042754925787449,0.010051952674984932,-0.0013898189645260572,0,-9,-977,-19,11,-1,13,35,-38,68354.0
07:02:28.572,AUTO,-35.3632619,149.165238,20911,-0.010660741478204727,0.013792606070637703,0.03294998034834862,-0.007305612787604332,0.002887546317651868,-0.0021461867727339268,0,-8,-976,-6,3,-2,10,30,-32,68354.0
07:02:28.775,AUTO,-35.3632619,149.165238,20911,-0.010660741478204727,0.013792606070637703,0.03294998034834862,-0.007305612787604332,0.002887546317651868,-0.0021461867727339268,0,-8,-976,-6,3,-2,10,30,-32,68354.0
07:02:28.979,AUTO,-35.3632619,149.165238,20911,-0.010660741478204727,0.013792606070637703,0.03294998034834862,-0.007305612787604332,0.002887546317651868,-0.0021461867727339268,0,-8,-976,-6,3,-2,10,30,-32,68354.0
07:02:29.188,AUTO,-35.3632619,149.165238,20911,-0.010660741478204727,0.013792606070637703,0.03294998034834862,-0.007305612787604332,0.002887546317651868,-0.0021461867727339268,0,-8,-976,-6,3,-2,10,30,-32,68354.0
07:02:29.390,AUTO,-35.3632614,149.1652397,21075,-0.012587463483214378,0.012236129492521286,0.031386323273181915,-0.00445907935500145,-0.005685595795512199,-0.0034388608764857054,0,-3,-970,-3,-4,-3,3,14,-12,25171.0
07:02:29.593,AUTO,-35.3632613,149.16524,21093,-0.010453276336193085,0.01053594145923853,0.030753817409276962,0.08157884329557419,-0.007873841561377048,-0.004588359035551548,0,0,-965,82,-6,-4,1,10,-4,25171.0
07:02:29.795,AUTO,-35.3632612,149.1652402,21082,-0.04771064594388008,0.023219874128699303,0.02926548942923546,-0.44051653146743774,0.029147149994969368,-0.004843925125896931,0,-22,-939,-440,30,-4,-1,2,11,25171.0
07:02:29.997,AUTO,-35.3632613,149.1652401,21037,-0.04952683299779892,0.024346843361854553,0.028861746191978455,-0.3407210111618042,0.0025326055474579334,-0.002619121689349413,0,-1,-972,-338,3,-2,-6,-7,20,25171.0
07:02:30.199,AUTO,-35.3632613,149.1652398,20980,-0.03189976513385773,0.027468962594866753,0.02872449904680252,0.3784242868423462,0.01988689973950386,0.0015962899196892977,0,40,-1014,380,20,1,-11,-14,19,25171.0
07:02:30.402,AUTO,-35.3632613,149.1652398,20980,-0.03189976513385773,0.027468962594866753,0.02872449904680252,0.3784242868423462,0.01988689973950386,0.0015962899196892977,0,40,-1014,380,20,1,-11,-14,19,25171.0
07:02:30.606,AUTO,-35.3632616,149.1652393,20929,-0.015318753197789192,0.03149804100394249,0.02839736081659794,0.7434827089309692,0.014957540668547153,-0.004902481101453304,0,46,-1040,744,15,-4,-18,-20,15,25171.0
07:02:30.808,AUTO,-35.3632616,149.1652393,20929,-0.015318753197789192,0.03149804100394249,0.02839736081659794,0.7434827089309692,0.014957540668547153,-0.004902481101453304,0,46,-1040,744,15,-4,-18,-20,15,25171.0
07:02:31.010,AUTO,-35.3632616,149.1652393,20929,-0.015318753197789192,0.03149804100394249,0.02839736081659794,0.7434827089309692,0.014957540668547153,-0.004902481101453304,0,46,-1040,744,15,-4,-18,-20,15,25171.0
07:02:31.211,AUTO,-35.3632635,149.1652371,20842,-0.025618277490139008,0.044835738837718964,0.02538379095494747,-0.6098211407661438,0.02541975863277912,-0.0015809971373528242,5,-8,-1010,-608,26,-1,-43,-31,2,25171.0
07:02:31.413,AUTO,-35.3632635,149.1652371,20842,-0.025618277490139008,0.044835738837718964,0.02538379095494747,-0.6098211407661438,0.02541975863277912,-0.0015809971373528242,5,-8,-1010,-608,26,-1,-43,-31,2,25171.0
07:02:31.615,AUTO,-35.3632646,149.1652362,20832,-0.024650631472468376,0.05103926360607147,0.02425028756260872,-0.04803825169801712,0.031475700438022614,-0.007055963389575481,3,31,-1007,-45,32,-6,-53,-32,0,25171.0
07:02:31.817,AUTO,-35.3632659,149.1652352,20828,-0.026532817631959915,0.05514119565486908,-0.02176073007285595,0.5792058706283569,0.0068387240171432495,-0.34314873814582825,5,50,-1016,580,8,-343,-64,-35,-1,25171.0
07:02:32.019,AUTO,-35.3632674,149.1652341,20828,-0.03649202361702919,0.057635702192783356,-0.12561655044555664,0.1124749481678009,0.02244100719690323,-0.455648273229599,7,13,-999,112,23,-455,-76,-40,-2,25171.0
07:02:32.223,AUTO,-35.3632693,149.1652329,20829,-0.061250925064086914,0.058486208319664,-0.23927292227745056,-0.5964309573173523,0.027582382783293724,-0.45320287346839905,5,-3,-1003,-595,28,-453,-90,-46,-3,25171.0
07:02:32.425,AUTO,-35.3632693,149.1652329,20829,-0.061250925064086914,0.058486208319664,-0.23927292227745056,-0.5964309573173523,0.027582382783293724,-0.45320287346839905,5,-3,-1003,-595,28,-453,-90,-46,-3,25171.0
07:02:32.630,AUTO,-35.3632715,149.1652315,20832,-0.07635495066642761,0.05695366859436035,-0.34665992856025696,-0.026382731273770332,0.01990789920091629,-0.4117901623249054,0,39,-1004,-24,20,-411,-105,-51,-3,25171.0
07:02:32.834,AUTO,-35.3632715,149.1652315,20832,-0.07635495066642761,0.05695366859436035,-0.34665992856025696,-0.026382731273770332,0.01990789920091629,-0.4117901623249054,0,39,-1004,-24,20,-411,-105,-51,-3,25171.0
07:02:33.036,AUTO,-35.3632715,149.1652315,20832,-0.07635495066642761,0.05695366859436035,-0.34665992856025696,-0.026382731273770332,0.01990789920091629,-0.4117901623249054,0,39,-1004,-24,20,-411,-105,-51,-3,25171.0
07:02:33.238,AUTO,-35.3632803,149.1652259,20842,-0.12378310412168503,0.042364686727523804,-0.630746603012085,-0.550154983997345,0.007845851592719555,-0.36996781826019287,-9,16,-998,-549,8,-370,-161,-76,-3,25171.0
07:02:33.532,AUTO,-35.3632842,149.1652236,20844,-0.13016782701015472,0.028263621032238007,-0.7220083475112915,0.0629352256655693,-0.01766642928123474,-0.37938255071640015,-10,55,-1008,64,-16,-379,-181,-86,-3,25171.0
07:02:33.916,AUTO,-35.3632885,149.1652209,20846,-0.12158964574337006,0.012782495468854904,-0.8131130337715149,0.48775026202201843,-0.026956237852573395,-0.37887144088745117,-20,78,-1012,489,-26,-378,-201,-95,-3,25171.0
07:02:34.310,AUTO,-35.3632984,149.1652148,20861,-0.10591055452823639,-0.02044755406677723,-0.9984857439994812,-0.268343448638916,-0.012151478789746761,-0.3830511271953583,-30,45,-1006,-266,-11,-383,-232,-110,-6,25171.0
07:02:34.619,AUTO,-35.3633038,149.1652115,20875,-0.08755835890769958,-0.032622963190078735,-1.092640995979309,0.3771991729736328,-0.011761292815208435,-0.38502582907676697,-35,75,-1001,378,-10,-385,-242,-116,-8,25171.0
07:02:34.822,AUTO,-35.3633038,149.1652115,20875,-0.08755835890769958,-0.032622963190078735,-1.092640995979309,0.3771991729736328,-0.011761292815208435,-0.38502582907676697,-35,75,-1001,378,-10,-385,-242,-116,-8,25171.0
07:02:35.026,AUTO,-35.3633038,149.1652115,20875,-0.08755835890769958,-0.032622963190078735,-1.092640995979309,0.3771991729736328,-0.011761292815208435,-0.38502582907676697,-35,75,-1001,378,-10,-385,-242,-116,-8,25171.0
07:02:35.230,AUTO,-35.363321,149.1652007,20920,-0.066495381295681,-0.055674344301223755,-1.372630000114441,0.12846851348876953,-0.0008768015541136265,-0.3880940079689026,-61,65,-996,130,0,-388,-261,-128,-6,25171.0
07:02:35.434,AUTO,-35.363327,149.165197,20933,-0.05322138965129852,-0.06356805562973022,-1.4664384126663208,0.4759175479412079,-0.0034733167849481106,-0.38940492272377014,-61,61,-984,477,-2,-389,-266,-131,-6,201075.0
07:02:35.636,AUTO,-35.363327,149.165197,20933,-0.05322138965129852,-0.06356805562973022,-1.4664384126663208,0.4759175479412079,-0.0034733167849481106,-0.38940492272377014,-61,61,-984,477,-2,-389,-266,-131,-6,201075.0
07:02:35.838,AUTO,-35.3633331,149.1651931,20944,-0.04819171503186226,-0.06940169632434845,-1.569802165031433,-0.18900734186172485,0.008788768202066422,-0.4141661524772644,-67,15,-993,-188,9,-414,-270,-134,-5,201075.0
07:02:36.040,AUTO,-35.3633392,149.1651892,20955,-0.0430692695081234,-0.07141420245170593,-1.6801269054412842,-0.20733322203159332,0.013282297179102898,-0.4496769905090332,-71,29,-996,-205,14,-449,-273,-137,-5,201075.0
07:02:36.242,AUTO,-35.3633454,149.1651852,20965,-0.02136843465268612,-0.07187710702419281,-1.791559100151062,0.48322567343711853,0.015934260562062263,-0.45585599541664124,-74,43,-995,484,16,-456,-276,-139,-5,201075.0
07:02:36.444,AUTO,-35.3633518,149.1651811,20976,-0.008476827293634415,-0.06864142417907715,-1.9016824960708618,-0.012975686229765415,0.02023981139063835,-0.4078465700149536,-76,0,-998,-12,21,-407,-278,-141,-5,201075.0
07:02:36.646,AUTO,-35.3633518,149.1651811,20976,-0.008476827293634415,-0.06864142417907715,-1.9016824960708618,-0.012975686229765415,0.02023981139063835,-0.4078465700149536,-76,0,-998,-12,21,-407,-278,-141,-5,201075.0
07:02:36.848,AUTO,-35.3633518,149.1651811,20976,-0.008476827293634415,-0.06864142417907715,-1.9016824960708618,-0.012975686229765415,0.02023981139063835,-0.4078465700149536,-76,0,-998,-12,21,-407,-278,-141,-5,201075.0
07:02:37.050,AUTO,-35.3633518,149.1651811,20976,-0.008476827293634415,-0.06864142417907715,-1.9016824960708618,-0.012975686229765415,0.02023981139063835,-0.4078465700149536,-76,0,-998,-12,21,-407,-278,-141,-5,201075.0
07:02:37.252,AUTO,-35.3633707,149.165169,21009,0.021662309765815735,-0.0658087208867073,-2.226339340209961,0.4680226445198059,-0.005777466576546431,-0.430252343416214,-77,7,-1002,469,-4,-430,-276,-141,-4,201075.0
07:02:37.453,AUTO,-35.363377,149.165165,21019,0.02297060191631317,-0.06433551013469696,-2.333798408508301,-0.2695390284061432,0.0153302988037467,-0.4051937460899353,-70,-43,-992,-269,16,-405,-277,-141,-4,201075.0
07:02:37.655,AUTO,-35.363377,149.165165,21019,0.02297060191631317,-0.06433551013469696,-2.333798408508301,-0.2695390284061432,0.0153302988037467,-0.4051937460899353,-70,-43,-992,-269,16,-405,-277,-141,-4,201075.0
07:02:37.857,AUTO,-35.3633833,149.165161,21028,0.024947626516222954,-0.05439160019159317,-2.4417483806610107,-0.4436362385749817,0.0523218996822834,-0.4295726716518402,-70,-40,-997,-441,53,-429,-275,-142,-3,201075.0
07:02:38.059,AUTO,-35.3633894,149.165157,21038,0.03591694310307503,-0.04057753086090088,-2.5487024784088135,0.29246985912323,0.04535336419939995,-0.4391140341758728,-68,-5,-997,294,46,-439,-271,-141,-4,201075.0
07:02:38.261,AUTO,-35.3633955,149.1651531,21048,0.048991527408361435,-0.02272479049861431,-2.6469080448150635,0.6228534579277039,0.052980031818151474,-0.3190686106681824,-64,-14,-995,624,53,-319,-265,-138,-3,201075.0
07:02:38.463,AUTO,-35.3634015,149.1651493,21059,0.04659101739525795,-0.007797662168741226,-2.6893012523651123,0.03798835724592209,0.057658229023218155,-0.056442130357027054,-51,-57,-1000,38,58,-56,-258,-134,-4,201075.0
07:02:38.665,AUTO,-35.3634015,149.1651493,21059,0.04659101739525795,-0.007797662168741226,-2.6893012523651123,0.03798835724592209,0.057658229023218155,-0.056442130357027054,-51,-57,-1000,38,58,-56,-258,-134,-4,201075.0
07:02:38.867,AUTO,-35.3634015,149.1651493,21059,0.04659101739525795,-0.007797662168741226,-2.6893012523651123,0.03798835724592209,0.057658229023218155,-0.056442130357027054,-51,-57,-1000,38,58,-56,-258,-134,-4,201075.0
07:02:39.069,AUTO,-35.3634015,149.1651493,21059,0.04659101739525795,-0.007797662168741226,-2.6893012523651123,0.03798835724592209,0.057658229023218155,-0.056442130357027054,-51,-57,-1000,38,58,-56,-258,-134,-4,201075.0
07:02:39.271,AUTO,-35.3634179,149.1651388,21094,0.038164060562849045,0.02628684602677822,-2.6588642597198486,0.2679044008255005,0.04151022434234619,0.022397305816411972,-52,-7,-1002,270,42,22,-218,-118,-4,201075.0
07:02:39.486,AUTO,-35.3634227,149.1651356,21103,0.045364487916231155,0.039247117936611176,-2.6516740322113037,0.7014083862304688,0.057897161692380905,0.004222207702696323,-48,0,-999,702,58,4,-202,-111,-2,201075.0
07:02:39.733,AUTO,-35.3634272,149.1651327,21110,0.04175064340233803,0.052226003259420395,-2.6500158309936523,0.03017193078994751,0.05127833038568497,0.0012976306024938822,-42,-46,-1004,30,51,1,-184,-101,-2,201075.0
07:02:40.036,AUTO,-35.3634312,149.16513,21118,0.025762978941202164,0.06420847773551941,-2.6501622200012207,-0.6817219257354736,0.055931173264980316,0.007270326837897301,-33,-53,-1001,-680,56,7,-163,-92,-2,201075.0
07:02:40.333,AUTO,-35.3634347,149.1651275,21122,0.02337029203772545,0.07857265323400497,-2.6503162384033203,-0.06831644475460052,0.06096111238002777,-0.01237797737121582,-32,-7,-1002,-66,61,-12,-141,-82,0,201075.0
07:02:40.648,AUTO,-35.3634378,149.1651254,21125,0.030159128829836845,0.08908040076494217,-2.650630235671997,0.6417725682258606,0.019344834610819817,-0.014459317550063133,-27,13,-1005,643,20,-14,-118,-70,0,201075.0
07:02:40.851,AUTO,-35.3634378,149.1651254,21125,0.030159128829836845,0.08908040076494217,-2.650630235671997,0.6417725682258606,0.019344834610819817,-0.014459317550063133,-27,13,-1005,643,20,-14,-118,-70,0,201075.0
07:02:41.053,AUTO,-35.3634378,149.1651254,21125,0.030159128829836845,0.08908040076494217,-2.650630235671997,0.6417725682258606,0.019344834610819817,-0.014459317550063133,-27,13,-1005,643,20,-14,-118,-70,0,201075.0
07:02:41.256,AUTO,-35.363444,149.1651213,21118,0.01007155328989029,0.06998354196548462,-2.650336742401123,-0.6363824009895325,-0.05813739076256752,-0.0031888631638139486,-15,-25,-995,-635,-57,-3,-54,-38,3,201075.0
07:02:41.457,AUTO,-35.3634453,149.1651205,21110,0.011677837930619717,0.05632048100233078,-2.6506564617156982,-0.046730414032936096,-0.057234786450862885,-0.013083882629871368,-11,4,-999,-44,-56,-13,-40,-31,3,81740.0
07:02:41.659,AUTO,-35.3634453,149.1651205,21110,0.011677837930619717,0.05632048100233078,-2.6506564617156982,-0.046730414032936096,-0.057234786450862885,-0.013083882629871368,-11,4,-999,-44,-56,-13,-40,-31,3,81740.0
07:02:41.861,AUTO,-35.3634463,149.16512,21105,0.022030359134078026,0.04556736722588539,-2.6505112648010254,0.5514235496520996,-0.03710715100169182,-0.00569748692214489,-10,30,-1007,553,-36,-5,-28,-25,2,81740.0
07:02:42.063,AUTO,-35.3634471,149.1651195,21103,0.022997822612524033,0.03862255811691284,-2.6505236625671387,0.553857147693634,-0.02480074018239975,-0.007642731070518494,-8,1,-994,554,-23,-7,-19,-20,2,81740.0
07:02:42.265,AUTO,-35.3634476,149.1651192,21100,0.012067826464772224,0.03385530784726143,-2.651632070541382,-0.33103281259536743,-0.010502643883228302,-0.004133593291044235,-5,-31,-1015,-330,-9,-4,-12,-17,0,81740.0
07:02:42.467,AUTO,-35.3634481,149.165119,21100,0.0030010927002876997,0.030614862218499184,-2.652235984802246,-0.5968978404998779,-0.008792949840426445,-0.0014747981913387775,-1,-24,-996,-595,-7,-1,-7,-14,1,81740.0
07:02:42.669,AUTO,-35.3634481,149.165119,21100,0.0030010927002876997,0.030614862218499184,-2.652235984802246,-0.5968978404998779,-0.008792949840426445,-0.0014747981913387775,-1,-24,-996,-595,-7,-1,-7,-14,1,81740.0
07:02:42.871,AUTO,-35.3634481,149.165119,21100,0.0030010927002876997,0.030614862218499184,-2.652235984802246,-0.5968978404998779,-0.008792949840426445,-0.0014747981913387775,-1,-24,-996,-595,-7,-1,-7,-14,1,81740.0
07:02:43.073,AUTO,-35.3634481,149.165119,21100,0.0030010927002876997,0.030614862218499184,-2.652235984802246,-0.5968978404998779,-0.008792949840426445,-0.0014747981913387775,-1,-24,-996,-595,-7,-1,-7,-14,1,81740.0
07:02:43.275,AUTO,-35.3634487,149.1651185,21103,0.009533889591693878,0.02050130069255829,-2.653714418411255,-0.10022199898958206,-0.01323897298425436,0.0012954528210684657,-2,-20,-993,-100,-12,1,4,-7,0,81740.0
07:02:43.477,AUTO,-35.3634488,149.1651185,21104,-0.0038132830522954464,0.015771444886922836,-2.6535656452178955,-0.62533038854599,-0.018078850582242012,0.0028428349178284407,0,-25,-1002,-624,-16,2,6,-6,0,81740.0
07:02:43.679,AUTO,-35.3634488,149.1651185,21104,-0.0038132830522954464,0.015771444886922836,-2.6535656452178955,-0.62533038854599,-0.018078850582242012,0.0028428349178284407,0,-25,-1002,-624,-16,2,6,-6,0,81740.0
07:02:43.880,AUTO,-35.3634489,149.1651184,21105,0.0004281412693671882,0.009858109056949615,-2.6536738872528076,-0.003595254849642515,-0.026974057778716087,0.0020165955647826195,-1,18,-997,0,-25,1,6,-6,0,81740.0
07:02:44.082,AUTO,-35.3634489,149.1651184,21107,0.008920018561184406,0.003084738040342927,-2.6541764736175537,0.6013821363449097,-0.022039251402020454,0.0017214404651895165,0,32,-999,603,-21,1,6,-6,0,81740.0
07:02:44.285,AUTO,-35.363449,149.1651184,21107,0.015002535656094551,0.0016126788686960936,-2.6549270153045654,0.34240952134132385,0.011084313504397869,-0.004800901748239994,-2,-6,-993,342,12,-4,3,-5,1,81740.0
07:02:44.487,AUTO,-35.3634492,149.1651183,21106,0.0031868338119238615,0.003603839548304677,-2.6549453735351562,-0.5264990925788879,-0.0035526095889508724,0.006063769105821848,-1,-34,-996,-525,-2,5,2,-5,0,81740.0
07:02:44.695,RTL,-35.3634492,149.1651183,21106,0.0031868338119238615,0.003603839548304677,-2.6549453735351562,-0.5264990925788879,-0.0035526095889508724,0.006063769105821848,-1,-34,-996,-525,-2,5,2,-5,0,81740.0
07:02:44.897,RTL,-35.3634492,149.1651183,21106,0.0031868338119238615,0.003603839548304677,-2.6549453735351562,-0.5264990925788879,-0.0035526095889508724,0.006063769105821848,-1,-34,-996,-525,-2,5,2,-5,0,81740.0
07:02:45.099,RTL,-35.3634492,149.1651183,21106,0.0031868338119238615,0.003603839548304677,-2.6549453735351562,-0.5264990925788879,-0.0035526095889508724,0.006063769105821848,-1,-34,-996,-525,-2,5,2,-5,0,81740.0
07:02:45.330,RTL,-35.3634498,149.1651181,21109,0.015538518317043781,0.01533534936606884,-2.6547303199768066,0.5690317153930664,0.011418395675718784,-0.0014755598967894912,-1,17,-1002,570,12,-1,1,-8,0,81740.0
07:02:45.583,RTL,-35.3634499,149.1651179,21117,0.009903226979076862,0.016746558248996735,-2.6552462577819824,-0.21211904287338257,0.0029256590642035007,-0.0012917701387777925,-1,-22,-1019,-211,4,-1,2,-7,-4,81740.0
07:02:45.813,RTL,-35.3634501,149.1651179,21139,0.0017476630164310336,0.018046021461486816,-2.655819892883301,-0.5317944884300232,0.0026055551134049892,0.0027579152956604958,-2,-23,-1022,-529,3,2,4,-6,-10,81740.0
07:02:46.087,RTL,-35.3634502,149.1651178,21179,0.009240265004336834,0.017567718401551247,-2.6556859016418457,0.21942707896232605,9.942695032805204e-05,0.004863445647060871,0,16,-1045,221,1,4,6,-6,-20,81740.0
07:02:46.426,RTL,-35.3634503,149.1651177,21244,0.013797425664961338,0.017209278419613838,-2.655478000640869,0.3840513229370117,0.0025246276054531336,0.0041201007552444935,-1,7,-1043,385,4,4,8,-5,-29,81740.0
07:02:46.658,RTL,-35.3634503,149.1651176,21334,0.007348681800067425,0.01642453297972679,-2.655270576477051,-0.1295180320739746,0.0016905403463169932,0.0014869356527924538,0,-15,-1049,-128,2,1,9,-4,-41,81740.0
07:02:46.860,RTL,-35.3634503,149.1651176,21334,0.007348681800067425,0.01642453297972679,-2.655270576477051,-0.1295180320739746,0.0016905403463169932,0.0014869356527924538,0,-15,-1049,-128,2,1,9,-4,-41,81740.0
07:02:47.063,RTL,-35.3634503,149.1651176,21334,0.007348681800067425,0.01642453297972679,-2.655270576477051,-0.1295180320739746,0.0016905403463169932,0.0014869356527924538,0,-15,-1049,-128,2,1,9,-4,-41,81740.0
07:02:47.265,RTL,-35.3634505,149.1651175,21798,0.0075377183966338634,0.01377768162637949,-2.655172109603882,0.11662770062685013,0.0002832963364198804,0.004775065463036299,0,3,-1048,118,1,5,11,-3,-78,60643.0
07:02:47.467,RTL,-35.3634504,149.1651175,22017,0.003938817884773016,0.013170436955988407,-2.655073404312134,-0.06648380309343338,-0.0028845411725342274,0.002529400633648038,0,-4,-1046,-64,-1,2,11,-2,-90,60643.0
07:02:47.669,RTL,-35.3634504,149.1651175,22017,0.003938817884773016,0.013170436955988407,-2.655073404312134,-0.06648380309343338,-0.0028845411725342274,0.002529400633648038,0,-4,-1046,-64,-1,2,11,-2,-90,60643.0
07:02:47.871,RTL,-35.3634504,149.1651175,22263,0.004107351414859295,0.012538506649434566,-2.6551756858825684,0.0007868262473493814,-0.0026093570049852133,0.002088665496557951,0,0,-1046,2,-1,1,11,-2,-102,60643.0
