time_stamp,MODE,lat,lon,relative_alt,roll,pitch,yaw,rollspeed,pitchspeed,yawspeed,xacc,yacc,zacc,xgyro,ygyro,zgyro,vx,vy,vz,RTL_ALT
13:08:13.210,STABILIZE,-35.3632621,149.1652374,11,-0.00023527012672275305,0.0014070285251364112,0.03038666397333145,0.00011852590250782669,0.00031391484662890434,0.002451049629598856,0,1,-1000,0,0,0,0,0,0,1500.0
13:08:13.411,STABILIZE,-35.3632621,149.1652374,11,-0.00023527012672275305,0.0014070285251364112,0.03038666397333145,0.00011852590250782669,0.00031391484662890434,0.002451049629598856,0,1,-1000,0,0,0,0,0,0,1500.0
13:08:13.611,STABILIZE,-35.3632621,149.1652374,11,-0.00023527012672275305,0.0014070285251364112,0.03038666397333145,0.00011852590250782669,0.00031391484662890434,0.002451049629598856,0,1,-1000,0,0,0,0,0,0,1500.0
13:08:13.812,STABILIZE,-35.3632621,149.1652374,11,-0.00023527012672275305,0.0014070285251364112,0.03038666397333145,0.00011852590250782669,0.00031391484662890434,0.002451049629598856,0,1,-1000,0,0,0,0,0,0,1500.0
13:08:14.013,STABILIZE,-35.3632621,149.1652374,14,-0.00024327424762304872,0.0015604522777721286,0.028889350593090057,0.00020309441606514156,0.00022668237215839326,0.00233818287961185,0,1,-1000,0,0,1,-2,1,0,1500.0
13:08:14.214,STABILIZE,-35.3632621,149.1652374,15,-0.00013302992738317698,0.0015217401087284088,0.028714973479509354,0.00031762837897986174,0.00024926086189225316,0.0022514143493026495,0,1,-1000,0,0,0,-2,1,-1,1500.0
13:08:14.416,STABILIZE,-35.3632621,149.1652374,15,-0.00013302992738317698,0.0015217401087284088,0.028714973479509354,0.00031762837897986174,0.00024926086189225316,0.0022514143493026495,0,1,-1000,0,0,0,-2,1,-1,1500.0
13:08:14.619,STABILIZE,-35.3632621,149.1652374,15,-0.00013302992738317698,0.0015217401087284088,0.028714973479509354,0.00031762837897986174,0.00024926086189225316,0.0022514143493026495,0,1,-1000,0,0,0,-2,1,-1,1500.0
13:08:14.821,STABILIZE,-35.3632622,149.1652375,16,-0.00024885189486667514,0.0014251181855797768,0.02840309590101242,0.00026394519954919815,0.00035874824970960617,0.0022655068896710873,0,1,-1000,0,0,0,-2,1,-1,1500.0
13:08:15.022,STABILIZE,-35.3632622,149.1652375,17,-0.00024885189486667514,0.0014251181855797768,0.02840309590101242,0.00026394519954919815,0.00035874824970960617,0.0022655068896710873,0,1,-1000,0,0,0,-2,1,-1,1500.0
13:08:15.235,STABILIZE,-35.3632622,149.1652375,17,-0.00024885189486667514,0.0014251181855797768,0.02840309590101242,0.00026394519954919815,0.00035874824970960617,0.0022655068896710873,0,1,-1000,0,0,0,-2,1,-1,1500.0
13:08:15.439,STABILIZE,-35.3632622,149.1652375,17,-0.00024885189486667514,0.0014251181855797768,0.02840309590101242,0.00026394519954919815,0.00035874824970960617,0.0022655068896710873,0,1,-1000,0,0,0,-2,1,-1,1500.0
13:08:15.641,STABILIZE,-35.3632622,149.1652375,17,-0.00024885189486667514,0.0014251181855797768,0.02840309590101242,0.00026394519954919815,0.00035874824970960617,0.0022655068896710873,0,1,-1000,0,0,0,-2,1,-1,1500.0
13:08:15.843,STABILIZE,-35.3632622,149.1652375,20,-0.000516017316840589,0.0012039351277053356,0.027755772694945335,0.0002271560369990766,0.00033383877598680556,0.0021399948745965958,0,1,-1000,0,0,0,-1,1,-1,1500.0
13:08:16.044,STABILIZE,-35.3632622,149.1652375,20,-0.000516017316840589,0.0012039351277053356,0.027755772694945335,0.0002271560369990766,0.00033383877598680556,0.0021399948745965958,0,1,-1000,0,0,0,-1,1,-1,1500.0
13:08:16.246,STABILIZE,-35.3632622,149.1652375,20,-0.000516017316840589,0.0012039351277053356,0.027755772694945335,0.0002271560369990766,0.00033383877598680556,0.0021399948745965958,0,1,-1000,0,0,0,-1,1,-1,1500.0
13:08:16.448,STABILIZE,-35.3632622,149.1652375,20,-0.000516017316840589,0.0012039351277053356,0.027755772694945335,0.0002271560369990766,0.00033383877598680556,0.0021399948745965958,0,1,-1000,0,0,0,-1,1,-1,1500.0
13:08:16.650,STABILIZE,-35.3632622,149.1652375,20,-0.000516017316840589,0.0012039351277053356,0.027755772694945335,0.0002271560369990766,0.00033383877598680556,0.0021399948745965958,0,1,-1000,0,0,0,-1,1,-1,1500.0
13:08:16.852,STABILIZE,-35.3632622,149.1652375,23,-0.0007259750855155289,0.0010566149139776826,0.02720389887690544,0.00013667118037119508,0.00018228174303658307,0.0021680882200598717,0,1,-1000,0,0,0,-1,1,-1,1500.0
13:08:17.053,STABILIZE,-35.3632622,149.1652375,23,-0.0007754594553261995,0.0010297293774783611,0.027061577886343002,0.00026711408281698823,0.00012597852037288249,0.0021262438967823982,0,1,-1000,0,0,0,-1,1,-1,1500.0
13:08:17.255,STABILIZE,-35.3632622,149.1652375,23,-0.0007754594553261995,0.0010297293774783611,0.027061577886343002,0.00026711408281698823,0.00012597852037288249,0.0021262438967823982,0,1,-1000,0,0,0,-1,1,-1,1500.0
13:08:17.457,STABILIZE,-35.3632622,149.1652375,23,-0.0007754594553261995,0.0010297293774783611,0.027061577886343002,0.00026711408281698823,0.00012597852037288249,0.0021262438967823982,0,1,-1000,0,0,0,-1,1,-1,1500.0
13:08:17.660,STABILIZE,-35.3632622,149.1652375,23,-0.0007754594553261995,0.0010297293774783611,0.027061577886343002,0.00026711408281698823,0.00012597852037288249,0.0021262438967823982,0,1,-1000,0,0,0,-1,1,-1,1500.0
13:08:17.862,STABILIZE,-35.3632622,149.1652375,23,-0.0007754594553261995,0.0010297293774783611,0.027061577886343002,0.00026711408281698823,0.00012597852037288249,0.0021262438967823982,0,1,-1000,0,0,0,-1,1,-1,1500.0
13:08:18.064,STABILIZE,-35.3632622,149.1652375,23,-0.0007754594553261995,0.0010297293774783611,0.027061577886343002,0.00026711408281698823,0.00012597852037288249,0.0021262438967823982,0,1,-1000,0,0,0,-1,1,-1,1500.0
13:08:18.265,STABILIZE,-35.3632622,149.1652375,23,-0.0007754594553261995,0.0010297293774783611,0.027061577886343002,0.00026711408281698823,0.00012597852037288249,0.0021262438967823982,0,1,-1000,0,0,0,-1,1,-1,1500.0
13:08:18.467,STABILIZE,-35.3632622,149.1652375,23,-0.0007754594553261995,0.0010297293774783611,0.027061577886343002,0.00026711408281698823,0.00012597852037288249,0.0021262438967823982,0,1,-1000,0,0,0,-1,1,-1,1500.0
13:08:18.671,STABILIZE,-35.3632621,149.1652374,31,-0.0007312087691389024,0.0009664564277045429,0.026376131922006607,0.0003544948995113373,0.00016426079673692584,0.002018699422478676,0,1,-1000,1,1,0,-1,0,-2,1500.0
13:08:18.873,STABILIZE,-35.3632621,149.1652374,31,-0.0007312087691389024,0.0009664564277045429,0.026376131922006607,0.0003544948995113373,0.00016426079673692584,0.002018699422478676,0,1,-1000,1,1,0,-1,0,-2,1500.0
13:08:19.075,STABILIZE,-35.3632621,149.1652374,31,-0.0007456786115653813,0.0009595230221748352,0.026146791875362396,7.371592801064253e-06,0.000236637017223984,0.0020073535852134228,0,1,-1000,0,0,1,-1,0,-2,1500.0
13:08:19.276,STABILIZE,-35.3632621,149.1652374,31,-0.0007456786115653813,0.0009595230221748352,0.026146791875362396,7.371592801064253e-06,0.000236637017223984,0.0020073535852134228,0,1,-1000,0,0,1,-1,0,-2,1500.0
13:08:19.478,STABILIZE,-35.3632621,149.1652374,31,-0.0007456786115653813,0.0009595230221748352,0.026146791875362396,7.371592801064253e-06,0.000236637017223984,0.0020073535852134228,0,1,-1000,0,0,1,-1,0,-2,1500.0
13:08:19.679,STABILIZE,-35.3632621,149.1652374,31,-0.0007456786115653813,0.0009595230221748352,0.026146791875362396,7.371592801064253e-06,0.000236637017223984,0.0020073535852134228,0,1,-1000,0,0,1,-1,0,-2,1500.0
13:08:19.880,STABILIZE,-35.3632621,149.1652374,33,-0.0007876919116824865,0.000945309002418071,0.02582705393433571,0.00016170938033610582,0.0002477786620147526,0.0018669539131224155,0,2,-1000,0,0,0,-1,1,-1,1500.0
13:08:20.082,STABILIZE,-35.3632621,149.1652374,33,-0.0007876919116824865,0.000945309002418071,0.02582705393433571,0.00016170938033610582,0.0002477786620147526,0.0018669539131224155,0,2,-1000,0,0,0,-1,1,-1,1500.0
13:08:20.283,STABILIZE,-35.3632621,149.1652374,33,-0.0007876919116824865,0.000945309002418071,0.02582705393433571,0.00016170938033610582,0.0002477786620147526,0.0018669539131224155,0,2,-1000,0,0,0,-1,1,-1,1500.0
13:08:20.485,STABILIZE,-35.3632621,149.1652374,33,-0.0007876919116824865,0.000945309002418071,0.02582705393433571,0.00016170938033610582,0.0002477786620147526,0.0018669539131224155,0,2,-1000,0,0,0,-1,1,-1,1500.0
13:08:20.686,STABILIZE,-35.3632621,149.1652374,33,-0.0007876919116824865,0.000945309002418071,0.02582705393433571,0.00016170938033610582,0.0002477786620147526,0.0018669539131224155,0,2,-1000,0,0,0,-1,1,-1,1500.0
13:08:20.888,STABILIZE,-35.3632621,149.1652374,33,-0.0007876919116824865,0.000945309002418071,0.02582705393433571,0.00016170938033610582,0.0002477786620147526,0.0018669539131224155,0,2,-1000,0,0,0,-1,1,-1,1500.0
13:08:21.090,STABILIZE,-35.3632621,149.1652374,34,-0.0006750834290869534,0.0009257918572984636,0.025302866473793983,0.0002912499476224184,0.0002735357265919447,0.0017472413601353765,0,2,-1000,0,0,0,-1,1,-1,1500.0
13:08:21.291,STABILIZE,-35.3632621,149.1652374,34,-0.0006750834290869534,0.0009257918572984636,0.025302866473793983,0.0002912499476224184,0.0002735357265919447,0.0017472413601353765,0,2,-1000,0,0,0,-1,1,-1,1500.0
13:08:21.493,STABILIZE,-35.3632621,149.1652374,34,-0.0006750834290869534,0.0009257918572984636,0.025302866473793983,0.0002912499476224184,0.0002735357265919447,0.0017472413601353765,0,2,-1000,0,0,0,-1,1,-1,1500.0
13:08:21.694,STABILIZE,-35.3632621,149.1652374,34,-0.0006750834290869534,0.0009257918572984636,0.025302866473793983,0.0002912499476224184,0.0002735357265919447,0.0017472413601353765,0,2,-1000,0,0,0,-1,1,-1,1500.0
13:08:21.896,STABILIZE,-35.3632621,149.1652375,33,-0.0007074992754496634,0.0009334328351542354,0.024973837658762932,0.00020522659178823233,0.00021710811415687203,0.0018504585605114698,0,2,-1000,0,0,0,-1,1,-1,1500.0
13:08:22.097,STABILIZE,-35.3632621,149.1652375,33,-0.0007074992754496634,0.0009334328351542354,0.024973837658762932,0.00020522659178823233,0.00021710811415687203,0.0018504585605114698,0,1,-1000,0,0,0,-1,1,-1,1500.0
13:08:22.299,STABILIZE,-35.3632621,149.1652375,33,-0.0007074992754496634,0.0009334328351542354,0.024973837658762932,0.00020522659178823233,0.00021710811415687203,0.0018504585605114698,0,1,-1000,0,0,0,-1,1,-1,1500.0
13:08:22.500,STABILIZE,-35.3632622,149.1652375,32,-0.0007607558509334922,0.0009439397254027426,0.02469608001410961,0.0002713366411626339,0.000246759329456836,0.0018096605781465769,0,1,-1000,0,0,0,-1,1,-1,1500.0
13:08:22.702,STABILIZE,-35.3632622,149.1652375,32,-0.0007607558509334922,0.0009439397254027426,0.02469608001410961,0.0002713366411626339,0.000246759329456836,0.0018096605781465769,0,1,-1000,0,0,0,-1,1,-1,1500.0
13:08:22.903,STABILIZE,-35.3632622,149.1652375,32,-0.0007607558509334922,0.0009439397254027426,0.02469608001410961,0.0002713366411626339,0.000246759329456836,0.0018096605781465769,0,1,-1000,0,0,0,-1,1,-1,1500.0
13:08:23.105,STABILIZE,-35.3632622,149.1652375,32,-0.0007607558509334922,0.0009439397254027426,0.02469608001410961,0.0002713366411626339,0.000246759329456836,0.0018096605781465769,0,1,-1000,0,1,0,-1,1,-1,1500.0
13:08:23.307,STABILIZE,-35.3632622,149.1652375,32,-0.0007607558509334922,0.0009439397254027426,0.02469608001410961,0.0002713366411626339,0.000246759329456836,0.0018096605781465769,0,1,-1000,0,1,0,-1,1,-1,1500.0
13:08:23.508,STABILIZE,-35.3632622,149.1652375,32,-0.0007607558509334922,0.0009439397254027426,0.02469608001410961,0.0002713366411626339,0.000246759329456836,0.0018096605781465769,0,1,-1000,0,1,0,-1,1,-1,1500.0
13:08:23.710,STABILIZE,-35.3632622,149.1652375,32,-0.0007607558509334922,0.0009439397254027426,0.02469608001410961,0.0002713366411626339,0.000246759329456836,0.0018096605781465769,0,1,-1000,0,1,0,-1,1,-1,1500.0
13:08:23.912,STABILIZE,-35.3632622,149.1652375,30,-0.0008721958147361875,0.0009593464783392847,0.02421003021299839,0.00017323798965662718,0.00029279058799147606,0.0015929091023281217,0,1,-1000,0,1,0,-1,1,0,1500.0
13:08:24.113,STABILIZE,-35.3632622,149.1652375,30,-0.0009018037817440927,0.0009568226523697376,0.02412884309887886,0.0002053630887530744,0.00023036077618598938,0.0016942067304626107,0,2,-1000,0,0,0,-1,1,0,1500.0
13:08:24.314,STABILIZE,-35.3632622,149.1652375,29,-0.0009223691886290908,0.0009616981260478497,0.024049408733844757,0.00026277516735717654,0.00023162947036325932,0.001679473090916872,0,1,-1000,1,1,1,-1,1,0,1500.0
13:08:24.516,STABILIZE,-35.3632622,149.1652375,19,-0.00013132297317497432,0.000959069118835032,0.0239509679377079,0.0002957488177344203,0.00013363879406824708,0.0016747599001973867,0,1,-1000,0,0,1,-1,6,6,1500.0
13:08:24.718,STABILIZE,-35.3632622,149.1652375,19,-0.00013132297317497432,0.000959069118835032,0.0239509679377079,0.0002957488177344203,0.00013363879406824708,0.0016747599001973867,0,1,-1000,0,0,1,-1,6,6,1500.0
13:08:24.920,STABILIZE,-35.3632622,149.1652375,19,-0.00013132297317497432,0.000959069118835032,0.0239509679377079,0.0002957488177344203,0.00013363879406824708,0.0016747599001973867,0,1,-1000,0,0,1,-1,6,6,1500.0
13:08:25.122,STABILIZE,-35.3632622,149.1652375,19,-0.0004123079706914723,0.0009610946872271597,0.023747118189930916,0.0002838344662450254,0.0002768352278508246,0.0017116719391196966,0,2,-1000,0,0,0,-1,6,6,1500.0
13:08:25.324,STABILIZE,-35.3632622,149.1652375,19,-0.0004123079706914723,0.0009610946872271597,0.023747118189930916,0.0002838344662450254,0.0002768352278508246,0.0017116719391196966,0,2,-1000,0,0,0,-1,6,6,1500.0
13:08:25.539,STABILIZE,-35.3632622,149.1652375,19,-0.0004123079706914723,0.0009610946872271597,0.023747118189930916,0.0002838344662450254,0.0002768352278508246,0.0017116719391196966,0,2,-1000,0,0,0,-1,6,6,1500.0
13:08:25.741,STABILIZE,-35.3632622,149.1652377,0,-0.0008859922527335584,0.0009723026305437088,0.023442266508936882,0.00019281177083030343,0.00023511965991929173,0.0016544889658689499,0,1,-1000,0,0,0,-1,4,4,1500.0
13:08:25.942,STABILIZE,-35.3632622,149.1652377,0,-0.0008859922527335584,0.0009723026305437088,0.023442266508936882,0.00019281177083030343,0.00023511965991929173,0.0016544889658689499,0,1,-1000,0,0,0,-1,4,4,1500.0
13:08:26.144,STABILIZE,-35.3632622,149.1652377,0,-0.001046768855303526,0.0009687486453913152,0.023360053077340126,0.00020202150335535407,0.00016921648057177663,0.001614761189557612,0,1,-1000,0,1,0,-1,3,4,1500.0
13:08:26.345,STABILIZE,-35.3632622,149.1652377,0,-0.001046768855303526,0.0009687486453913152,0.023360053077340126,0.00020202150335535407,0.00016921648057177663,0.001614761189557612,0,1,-1000,0,1,0,-1,3,4,1500.0
13:08:26.546,STABILIZE,-35.3632622,149.1652377,0,-0.001046768855303526,0.0009687486453913152,0.023360053077340126,0.00020202150335535407,0.00016921648057177663,0.001614761189557612,0,1,-1000,0,1,0,-1,3,4,1500.0
13:08:26.748,STABILIZE,-35.3632622,149.1652377,0,-0.001046768855303526,0.0009687486453913152,0.023360053077340126,0.00020202150335535407,0.00016921648057177663,0.001614761189557612,0,1,-1000,0,1,0,-1,3,4,1500.0
13:08:26.949,STABILIZE,-35.3632622,149.1652377,0,-0.001046768855303526,0.0009687486453913152,0.023360053077340126,0.00020202150335535407,0.00016921648057177663,0.001614761189557612,0,1,-1000,0,1,0,-1,3,4,1500.0
13:08:27.151,STABILIZE,-35.3632622,149.1652376,0,-0.0014486011350527406,0.0009742556139826775,0.02310582622885704,0.00022290885681286454,0.00028488505631685257,0.0016692688222974539,0,1,-1000,1,1,1,-1,1,2,1500.0
13:08:27.352,STABILIZE,-35.3632622,149.1652376,0,-0.0014486011350527406,0.0009742556139826775,0.02310582622885704,0.00022290885681286454,0.00028488505631685257,0.0016692688222974539,0,1,-1000,1,1,1,-1,1,2,1500.0
13:08:27.553,STABILIZE,-35.3632622,149.1652376,0,-0.0014486011350527406,0.0009742556139826775,0.02310582622885704,0.00022290885681286454,0.00028488505631685257,0.0016692688222974539,0,1,-1000,1,1,1,-1,1,2,1500.0
13:08:27.755,STABILIZE,-35.3632622,149.1652376,0,-0.0016121886437758803,0.0009910787921398878,0.02296467125415802,0.00014107563765719533,0.0001798051525838673,0.0015651569701731205,0,2,-1000,0,1,1,-1,1,2,1500.0
13:08:27.956,STABILIZE,-35.3632622,149.1652376,0,-0.0016121886437758803,0.0009910787921398878,0.02296467125415802,0.00014107563765719533,0.0001798051525838673,0.0015651569701731205,0,2,-1000,0,1,1,-1,1,2,1500.0
13:08:28.157,STABILIZE,-35.3632622,149.1652376,0,-0.0016582095995545387,0.0009855803800746799,0.02292819879949093,0.0001543244579806924,0.0002663476625457406,0.0015523525653406978,0,2,-1000,0,1,1,-1,1,2,1500.0
13:08:28.360,STABILIZE,-35.3632622,149.1652376,0,-0.0016582095995545387,0.0009855803800746799,0.02292819879949093,0.0001543244579806924,0.0002663476625457406,0.0015523525653406978,0,1,-1000,1,0,0,-1,1,2,1500.0
13:08:28.561,STABILIZE,-35.3632622,149.1652375,0,-0.0016582095995545387,0.0009855803800746799,0.02292819879949093,0.0001543244579806924,0.0002663476625457406,0.0015523525653406978,0,1,-1000,1,0,0,-1,0,0,1500.0
13:08:28.762,STABILIZE,-35.3632622,149.1652375,0,-0.0016265971353277564,0.0009916283888742328,0.022830817848443985,0.0001708306954242289,0.00024274684255942702,0.0015162755735218525,0,1,-1000,0,1,1,-1,0,0,1500.0
13:08:28.964,STABILIZE,-35.3632622,149.1652375,0,-0.0016265971353277564,0.0009916283888742328,0.022830817848443985,0.0001708306954242289,0.00024274684255942702,0.0015162755735218525,0,1,-1000,0,1,1,-1,0,0,1500.0
13:08:29.165,STABILIZE,-35.3632622,149.1652375,0,-0.0016265971353277564,0.0009916283888742328,0.022830817848443985,0.0001708306954242289,0.00024274684255942702,0.0015162755735218525,0,1,-1000,0,1,1,-1,0,0,1500.0
13:08:29.367,AUTO,-35.3632622,149.1652375,0,-0.0016265971353277564,0.0009916283888742328,0.022830817848443985,0.0001708306954242289,0.00024274684255942702,0.0015162755735218525,0,1,-1000,0,1,1,-1,0,0,1500.0
13:08:29.569,AUTO,-35.3632622,149.1652375,0,-0.0016265971353277564,0.0009916283888742328,0.022830817848443985,0.0001708306954242289,0.00024274684255942702,0.0015162755735218525,0,1,-1000,0,1,1,-1,0,0,1500.0
13:08:29.771,AUTO,-35.3632622,149.1652375,4,-0.0015155328437685966,0.0010012765415012836,0.02272391878068447,0.00018671160796657205,0.00011573295341804624,0.0015489403158426285,0,2,-1000,0,1,1,-1,0,0,1500.0
13:08:29.972,AUTO,-35.3632622,149.1652375,4,-0.0015155328437685966,0.0010012765415012836,0.02272391878068447,0.00018671160796657205,0.00011573295341804624,0.0015489403158426285,0,2,-1000,0,1,1,-1,0,0,1500.0
13:08:30.173,AUTO,-35.3632621,149.1652375,5,-0.0014866736019030213,0.0010038665495812893,0.022687878459692,0.0002184621407650411,0.00018325663404539227,0.0015333732590079308,0,1,-1000,0,1,0,-1,0,0,1500.0
13:08:30.405,AUTO,-35.3632621,149.1652375,6,-0.0014523339923471212,0.001022936892695725,0.022637272253632545,0.00021861266577616334,0.00035388191463425756,0.001526945037767291,0,2,-1000,0,1,0,0,0,0,1500.0
13:08:30.683,AUTO,-35.3632621,149.1652375,7,-0.001413332181982696,0.0010577416978776455,0.022589759901165962,0.00027152872644364834,0.00033852504566311836,0.0014995255041867495,0,1,-1000,0,0,0,0,0,0,1500.0
13:08:30.917,AUTO,-35.3632621,149.1652375,8,-0.0013765798648819327,0.0011078137904405594,0.02254125475883484,0.000287845847196877,0.00028739398112520576,0.0014419713988900185,0,1,-1000,0,1,0,0,0,0,1500.0
13:08:31.150,AUTO,-35.3632621,149.1652375,9,-0.0013457684544846416,0.0011620192090049386,0.022492093965411186,0.0002799773355945945,0.0002747265389189124,0.001425967551767826,0,2,-1000,1,0,0,0,0,-1,1500.0
13:08:31.363,AUTO,-35.3632621,149.1652375,9,-0.0013457684544846416,0.0011620192090049386,0.022492093965411186,0.0002799773355945945,0.0002747265389189124,0.001425967551767826,0,2,-1000,1,0,0,0,0,-1,1500.0
13:08:31.566,AUTO,-35.3632621,149.1652375,9,-0.0013457684544846416,0.0011620192090049386,0.022492093965411186,0.0002799773355945945,0.0002747265389189124,0.001425967551767826,0,2,-1000,1,0,0,0,0,-1,1500.0
13:08:31.770,AUTO,-35.3632621,149.1652375,0,-0.0008956965175457299,0.0013476331951096654,0.02234949916601181,0.0002192807151004672,0.0002460937830619514,0.0015511821256950498,0,1,-1000,0,0,0,0,2,1,1500.0
13:08:31.971,AUTO,-35.3632621,149.1652375,0,-0.0008956965175457299,0.0013476331951096654,0.02234949916601181,0.0002192807151004672,0.0002460937830619514,0.0015511821256950498,0,1,-1000,0,0,0,0,2,1,1500.0
13:08:32.173,AUTO,-35.3632621,149.1652375,0,-0.0008473343914374709,0.0014247111976146698,0.022277647629380226,0.0002578802523203194,0.00035809975815936923,0.001455427147448063,0,1,-1000,0,1,0,0,1,1,1500.0
13:08:32.374,AUTO,-35.3632621,149.1652375,0,-0.0008007127325981855,0.0014951404882594943,0.022210218012332916,0.00020931055769324303,0.0003250869340263307,0.0013887672685086727,0,1,-1000,0,0,0,0,1,1,12187.0
13:08:32.575,AUTO,-35.3632621,149.1652375,0,-0.0007508640992455184,0.0015712311724200845,0.02214903198182583,0.0002503579598851502,0.00018804619321599603,0.0014555464731529355,0,2,-1000,1,0,1,0,0,1,12187.0
13:08:32.777,AUTO,-35.3632621,149.1652375,0,-0.0006981180631555617,0.001647261087782681,0.022081494331359863,0.0002933997893705964,0.00032363238278776407,0.0014712566044181585,0,1,-1000,0,0,1,0,0,0,12187.0
13:08:32.979,AUTO,-35.3632621,149.1652375,0,-0.0006352518685162067,0.0017276830039918423,0.022008908912539482,0.00030210346449166536,0.00041448441334068775,0.001416339655406773,0,2,-1000,1,0,0,0,0,0,12187.0
13:08:33.181,AUTO,-35.3632621,149.1652375,0,-0.0006352518685162067,0.0017276830039918423,0.022008908912539482,0.00030210346449166536,0.00041448441334068775,0.001416339655406773,0,2,-1000,1,0,0,0,0,0,12187.0
13:08:33.383,AUTO,-35.3632621,149.1652375,0,-0.0006352518685162067,0.0017276830039918423,0.022008908912539482,0.00030210346449166536,0.00041448441334068775,0.001416339655406773,0,2,-1000,1,0,0,0,0,0,12187.0
13:08:33.585,AUTO,-35.3632621,149.1652375,0,-0.0006352518685162067,0.0017276830039918423,0.022008908912539482,0.00030210346449166536,0.00041448441334068775,0.001416339655406773,0,2,-1000,1,0,0,0,0,0,12187.0
13:08:33.786,AUTO,-35.3632621,149.1652375,187,0.004323004744946957,8.069804607657716e-05,0.021885666996240616,0.006099602207541466,0.004672858398407698,0.0018283016979694366,0,0,-1129,6,5,1,0,1,-69,12187.0
13:08:33.988,AUTO,-35.3632621,149.1652375,396,0.002662466373294592,0.00120850361417979,0.021794700995087624,-0.006712557282298803,0.0035888166166841984,0.0008788473205640912,0,0,-1109,-5,4,0,0,2,-98,12187.0
13:08:34.189,AUTO,-35.3632621,149.1652375,396,0.002662466373294592,0.00120850361417979,0.021794700995087624,-0.006712557282298803,0.0035888166166841984,0.0008788473205640912,0,0,-1109,-5,4,0,0,2,-98,12187.0
13:08:34.391,AUTO,-35.3632621,149.1652375,673,0.00155037478543818,0.0018822187557816505,0.021821381524205208,-0.006782141048461199,0.0010500289499759674,0.002785671502351761,0,0,-1089,-6,1,2,0,2,-122,12187.0
13:08:34.592,AUTO,-35.3632621,149.1652375,1007,0.009020933881402016,0.0010965444380417466,0.02156856656074524,0.046457789838314056,-0.006194662302732468,0.0012969151139259338,0,0,-1045,46,-5,0,0,2,-137,12187.0
13:08:34.795,AUTO,-35.3632621,149.1652376,1372,0.020740730687975883,-0.000648785731755197,0.021569082513451576,0.04655860364437103,-0.007172310724854469,0.002138005569577217,0,0,-1019,47,-6,1,0,5,-144,12187.0
13:08:34.996,AUTO,-35.363262,149.1652378,1750,0.032119348645210266,-0.0026386315003037453,0.021719209849834442,0.04468380659818649,-0.008553475141525269,0.0028388549108058214,0,-1,-1008,45,-7,2,1,11,-147,12187.0
13:08:35.198,AUTO,-35.363262,149.1652378,1750,0.032119348645210266,-0.0026386315003037453,0.021719209849834442,0.04468380659818649,-0.008553475141525269,0.0028388549108058214,0,-1,-1008,45,-7,2,1,11,-147,12187.0
13:08:35.400,AUTO,-35.363262,149.1652378,1750,0.032119348645210266,-0.0026386315003037453,0.021719209849834442,0.04468380659818649,-0.008553475141525269,0.0028388549108058214,0,-1,-1008,45,-7,2,1,11,-147,12187.0
13:08:35.602,AUTO,-35.363262,149.1652378,1750,0.032119348645210266,-0.0026386315003037453,0.021719209849834442,0.04468380659818649,-0.008553475141525269,0.0028388549108058214,0,-1,-1008,45,-7,2,1,11,-147,12187.0
13:08:35.804,AUTO,-35.3632616,149.1652398,2907,0.0612192302942276,-0.009858285076916218,-0.005544556770473719,0.002844205591827631,0.008408274501562119,-0.03585950657725334,1,-7,-993,3,9,-36,8,42,-148,12187.0
13:08:36.006,AUTO,-35.3632614,149.1652411,3288,0.04393092542886734,0.010192357935011387,-0.026764540001749992,-0.12071606516838074,0.10884200781583786,-0.1070592924952507,2,-11,-991,-119,109,-107,10,52,-146,12187.0
13:08:36.259,AUTO,-35.3632611,149.1652426,3669,0.0005887122242711484,0.024275388568639755,-0.04853837192058563,-0.1846391260623932,0.006078256294131279,-0.07591243088245392,7,-16,-997,-183,7,-76,7,54,-145,12187.0
13:08:36.616,AUTO,-35.363261,149.165244,4047,-0.026316724717617035,0.01896386407315731,-0.06129542365670204,-0.059795260429382324,-0.03216255456209183,-0.04169686138629913,4,-10,-1011,-59,-31,-42,3,47,-148,12187.0
13:08:36.937,AUTO,-35.3632609,149.1652451,4431,-0.034994397312402725,0.0100721325725317,-0.06849491596221924,-0.021139318123459816,-0.027359431609511375,-0.032361846417188644,4,-9,-1006,-20,-26,-32,1,36,-150,12187.0
13:08:37.172,AUTO,-35.3632608,149.165246,4818,-0.045161835849285126,0.004564437083899975,-0.07532202452421188,-0.05747787281870842,-0.01469159685075283,-0.027104709297418594,3,-7,-1000,-56,-14,-27,0,25,-150,12187.0
13:08:37.458,AUTO,-35.3632608,149.165246,4818,-0.045161835849285126,0.004564437083899975,-0.07532202452421188,-0.05747787281870842,-0.01469159685075283,-0.027104709297418594,3,-7,-1000,-56,-14,-27,0,25,-150,12187.0
13:08:37.662,AUTO,-35.3632608,149.165246,4818,-0.045161835849285126,0.004564437083899975,-0.07532202452421188,-0.05747787281870842,-0.01469159685075283,-0.027104709297418594,3,-7,-1000,-56,-14,-27,0,25,-150,12187.0
13:08:37.866,AUTO,-35.3632608,149.165246,5969,-0.0704856738448143,-0.0006162664503790438,-0.09579967707395554,0.04971720278263092,-0.003080492140725255,-0.01812705770134926,-1,3,-1002,50,-2,-18,-2,-27,-150,12187.0
13:08:38.073,AUTO,-35.3632609,149.1652452,6354,-0.05698242783546448,-0.0010506235994398594,-0.10011480003595352,0.056790489703416824,0.001558641204610467,-0.012082964181900024,-4,7,-1001,57,2,-12,-3,-41,-150,12187.0
13:08:38.275,AUTO,-35.3632609,149.1652439,6739,-0.042215775698423386,-0.00013018865138292313,-0.10316647589206696,0.06101558357477188,0.006247858051210642,-0.007388797588646412,-4,7,-1001,61,7,-7,-5,-52,-150,107347.0
13:08:38.477,AUTO,-35.3632609,149.1652439,6739,-0.042215775698423386,-0.00013018865138292313,-0.10316647589206696,0.06101558357477188,0.006247858051210642,-0.007388797588646412,-4,7,-1001,61,7,-7,-5,-52,-150,107347.0
13:08:38.679,AUTO,-35.363261,149.1652424,7124,-0.026413481682538986,0.0018832293571904302,-0.10511957108974457,0.06361602246761322,0.009247012436389923,-0.0034557494800537825,-6,12,-1002,64,9,-3,-7,-57,-151,107347.0
13:08:38.881,AUTO,-35.3632612,149.1652408,7511,-0.010099087841808796,0.004474434535950422,-0.10599596053361893,0.0668475404381752,0.011184409260749817,-0.0013533782912418246,-6,11,-1003,67,11,-1,-9,-60,-151,107347.0
13:08:39.084,AUTO,-35.3632615,149.1652392,7900,0.006578551139682531,0.007199087180197239,-0.10607048124074936,0.06711585074663162,0.010588292963802814,0.0011534277582541108,-4,11,-1003,67,11,0,-11,-57,-152,107347.0
13:08:39.286,AUTO,-35.3632615,149.1652392,7900,0.006578551139682531,0.007199087180197239,-0.10607048124074936,0.06711585074663162,0.010588292963802814,0.0011534277582541108,-4,11,-1003,67,11,0,-11,-57,-152,107347.0
13:08:39.488,AUTO,-35.3632615,149.1652392,7900,0.006578551139682531,0.007199087180197239,-0.10607048124074936,0.06711585074663162,0.010588292963802814,0.0011534277582541108,-4,11,-1003,67,11,0,-11,-57,-152,107347.0
13:08:39.690,AUTO,-35.3632615,149.1652392,7900,0.006578551139682531,0.007199087180197239,-0.10607048124074936,0.06711585074663162,0.010588292963802814,0.0011534277582541108,-4,11,-1003,67,11,0,-11,-57,-152,107347.0
13:08:39.892,AUTO,-35.3632625,149.1652353,9081,0.055862583220005035,0.011715427972376347,-0.10310044139623642,0.062443483620882034,-0.0002639395243022591,0.0047322604805231094,-3,10,-1002,63,0,4,-18,-26,-154,107347.0
13:08:40.093,AUTO,-35.3632629,149.1652348,9475,0.06728888303041458,0.007964462041854858,-0.09843362122774124,0.011741351336240768,-0.042503904551267624,0.04578161612153053,1,6,-996,12,-41,45,-18,-9,-154,107347.0
13:08:40.295,AUTO,-35.3632633,149.1652347,9865,0.06089929863810539,-0.014329207129776478,-0.07976868748664856,-0.046948254108428955,-0.11289260536432266,0.10637032240629196,3,3,-995,-46,-112,106,-15,6,-152,107347.0
13:08:40.497,AUTO,-35.3632636,149.165235,10252,0.042792387306690216,-0.04220190644264221,-0.056072596460580826,-0.09242622554302216,-0.061492033302783966,0.06707198172807693,3,-1,-996,-92,-60,66,-6,18,-151,107347.0
13:08:40.699,AUTO,-35.3632636,149.165235,10252,0.042792387306690216,-0.04220190644264221,-0.056072596460580826,-0.09242622554302216,-0.061492033302783966,0.06707198172807693,3,-1,-996,-92,-60,66,-6,18,-151,107347.0
13:08:40.901,AUTO,-35.3632636,149.1652354,10643,0.01553615927696228,-0.04080969840288162,-0.05140434205532074,-0.10243489593267441,0.04621449112892151,-0.012510155327618122,2,-3,-999,-101,47,-12,6,23,-150,107347.0
13:08:41.104,AUTO,-35.3632634,149.1652359,11024,-0.004735163412988186,-0.025922391563653946,-0.06095127388834953,-0.06820636242628098,0.0628197193145752,-0.04928472265601158,0,-4,-1003,-67,63,-50,15,21,-150,107347.0
13:08:41.306,AUTO,-35.3632634,149.1652359,11024,-0.004735163412988186,-0.025922391563653946,-0.06095127388834953,-0.06820636242628098,0.0628197193145752,-0.04928472265601158,0,-4,-1003,-67,63,-50,15,21,-150,107347.0
13:08:41.507,AUTO,-35.3632634,149.1652359,11024,-0.004735163412988186,-0.025922391563653946,-0.06095127388834953,-0.06820636242628098,0.0628197193145752,-0.04928472265601158,0,-4,-1003,-67,63,-50,15,21,-150,107347.0
13:08:41.709,AUTO,-35.3632634,149.1652359,11024,-0.004735163412988186,-0.025922391563653946,-0.06095127388834953,-0.06820636242628098,0.0628197193145752,-0.04928472265601158,0,-4,-1003,-67,63,-50,15,21,-150,107347.0
13:08:41.911,AUTO,-35.3632621,149.1652369,12173,-0.021098066121339798,0.00340707297436893,-0.10816070437431335,0.006663982290774584,0.02344759926199913,-0.05694543570280075,-2,-5,-1002,7,24,-57,19,2,-153,107347.0
13:08:42.112,AUTO,-35.3632617,149.1652369,12563,-0.01758250780403614,0.008192680776119232,-0.12180596590042114,0.01946554146707058,0.01594301126897335,-0.046375006437301636,-4,-2,-1002,20,16,-46,17,-3,-153,107347.0
13:08:42.324,AUTO,-35.3632613,149.1652367,12953,-0.012073760852217674,0.011535566300153732,-0.13309688866138458,0.026224380359053612,0.013468352146446705,-0.039665572345256805,-3,-1,-1001,26,14,-39,13,-7,-154,107347.0
13:08:42.550,AUTO,-35.363261,149.1652365,13344,-0.005793190095573664,0.014406414702534676,-0.14231626689434052,0.026383882388472557,0.01039466168731451,-0.03227104991674423,-3,0,-1000,27,11,-32,10,-9,-154,107347.0
13:08:42.762,AUTO,-35.3632608,149.1652362,13735,0.0006328520248644054,0.01611137017607689,-0.14916566014289856,0.025974996387958527,0.005134219769388437,-0.021893294528126717,-2,0,-1000,26,6,-22,5,-10,-154,107347.0
13:08:42.969,AUTO,-35.3632608,149.1652362,13735,0.0006328520248644054,0.01611137017607689,-0.14916566014289856,0.025974996387958527,0.005134219769388437,-0.021893294528126717,-2,0,-1000,26,6,-22,5,-10,-154,107347.0
13:08:43.236,AUTO,-35.3632607,149.1652359,14126,0.006243717856705189,0.01649775542318821,-0.1537138819694519,0.021069474518299103,-0.0004873836296610534,-0.013393200933933258,-2,0,-1000,21,0,-13,1,-9,-154,107347.0
13:08:43.449,AUTO,-35.3632607,149.1652359,14126,0.006243717856705189,0.01649775542318821,-0.1537138819694519,0.021069474518299103,-0.0004873836296610534,-0.013393200933933258,-2,0,-1000,21,0,-13,1,-9,-154,107347.0
13:08:43.653,AUTO,-35.3632607,149.1652359,14126,0.006243717856705189,0.01649775542318821,-0.1537138819694519,0.021069474518299103,-0.0004873836296610534,-0.013393200933933258,-2,0,-1000,21,0,-13,1,-9,-154,107347.0
13:08:43.862,AUTO,-35.3632608,149.1652353,15298,0.012743348255753517,0.012571349740028381,-0.1587722897529602,0.0002053889911621809,-0.008236550725996494,-0.00038712398963980377,0,1,-999,0,-7,0,-6,0,-153,107347.0
13:08:44.067,AUTO,-35.3632608,149.1652353,15687,0.011915946379303932,0.010354182682931423,-0.15931427478790283,-0.003705109003931284,-0.008688993752002716,-0.00196850742213428,0,0,-1000,-2,-7,-2,-8,2,-153,107347.0
13:08:44.269,AUTO,-35.3632609,149.1652353,16075,0.010269937105476856,0.008266918361186981,-0.1601589024066925,-0.00622613076120615,-0.008632849901914597,-0.0036639992613345385,1,0,-1000,-5,-8,-4,-9,4,-153,158592.0
13:08:44.471,AUTO,-35.3632609,149.1652353,16075,0.010269937105476856,0.008266918361186981,-0.1601589024066925,-0.00622613076120615,-0.008632849901914597,-0.0036639992613345385,1,0,-1000,-5,-8,-4,-9,4,-153,158592.0
13:08:44.673,AUTO,-35.3632611,149.1652353,16465,0.008407987654209137,0.006352257449179888,-0.16157574951648712,-0.007410496938973665,-0.007747967261821032,-0.00781701598316431,1,0,-1000,-6,-6,-8,-9,6,-153,158592.0
13:08:44.875,AUTO,-35.3632613,149.1652355,16854,0.006636493839323521,0.004303034860640764,-0.16337846219539642,-0.006432826165109873,-0.006220707204192877,-0.009119443595409393,2,0,-1000,-5,-5,-9,-9,7,-153,158592.0
13:08:45.076,AUTO,-35.3632614,149.1652356,17243,0.005057426169514656,0.0027634415309876204,-0.1659269630908966,-0.0049666548147797585,-0.006712228059768677,-0.010439185425639153,1,0,-1000,-4,-6,-10,-8,8,-153,158592.0
13:08:45.278,AUTO,-35.3632614,149.1652356,17243,0.005057426169514656,0.0027634415309876204,-0.1659269630908966,-0.0049666548147797585,-0.006712228059768677,-0.010439185425639153,1,0,-1000,-4,-6,-10,-8,8,-153,158592.0
13:08:45.481,AUTO,-35.3632614,149.1652356,17243,0.005057426169514656,0.0027634415309876204,-0.1659269630908966,-0.0049666548147797585,-0.006712228059768677,-0.010439185425639153,1,0,-1000,-4,-6,-10,-8,8,-153,158592.0
13:08:45.682,AUTO,-35.3632614,149.1652356,17243,0.005057426169514656,0.0027634415309876204,-0.1659269630908966,-0.0049666548147797585,-0.006712228059768677,-0.010439185425639153,1,0,-1000,-4,-6,-10,-8,8,-153,158592.0
13:08:45.884,AUTO,-35.3632618,149.1652361,18411,0.0007605028804391623,-4.215940134599805e-05,-0.17780277132987976,-0.0012662401422858238,-0.00019448844250291586,-0.021367579698562622,1,0,-1000,0,0,-21,-5,7,-154,158592.0
13:08:46.086,AUTO,-35.3632619,149.1652362,18799,0.00021135495626367629,0.00016675515507813543,-0.18336166441440582,-0.0008286064839921892,0.0011833551106974483,-0.023916523903608322,1,0,-1000,0,1,-24,-4,6,-154,158592.0
13:08:46.288,AUTO,-35.3632619,149.1652363,19189,-2.8115877285017632e-05,0.00040560687193647027,-0.1891849786043167,-0.00026545918080955744,0.0012488297652453184,-0.02308778278529644,1,0,-1000,0,2,-23,-4,5,-154,158592.0
13:08:46.490,AUTO,-35.3632619,149.1652364,19579,0.00020377905457280576,0.0003788825124502182,-0.1948736011981964,0.001974348444491625,-0.00036391837056726217,-0.023297417908906937,0,0,-1000,2,0,-23,-3,4,-154,158592.0
13:08:46.691,AUTO,-35.3632619,149.1652364,19579,0.00020377905457280576,0.0003788825124502182,-0.1948736011981964,0.001974348444491625,-0.00036391837056726217,-0.023297417908906937,0,0,-1000,2,0,-23,-3,4,-154,158592.0
13:08:46.893,AUTO,-35.363262,149.1652365,19977,0.0006430821376852691,0.0006148227257654071,-0.20085933804512024,0.004301703535020351,0.0018353061750531197,-0.024705449119210243,0,0,-1000,4,2,-25,-2,4,-154,158592.0
13:08:47.095,AUTO,-35.363262,149.1652365,20366,0.0010857268935069442,0.0014731090050190687,-0.20713379979133606,0.0029799463227391243,0.003662633476778865,-0.023682700470089912,0,0,-1000,3,4,-24,-2,3,-154,158592.0
13:08:47.297,AUTO,-35.363262,149.1652365,20366,0.0010857268935069442,0.0014731090050190687,-0.20713379979133606,0.0029799463227391243,0.003662633476778865,-0.023682700470089912,0,0,-1000,3,4,-24,-2,3,-154,158592.0
13:08:47.499,AUTO,-35.363262,149.1652365,20366,0.0010857268935069442,0.0014731090050190687,-0.20713379979133606,0.0029799463227391243,0.003662633476778865,-0.023682700470089912,0,0,-1000,3,4,-24,-2,3,-154,158592.0
13:08:47.701,AUTO,-35.363262,149.1652365,20366,0.0010857268935069442,0.0014731090050190687,-0.20713379979133606,0.0029799463227391243,0.003662633476778865,-0.023682700470089912,0,0,-1000,3,4,-24,-2,3,-154,158592.0
13:08:47.903,AUTO,-35.363262,149.1652366,21536,0.0023424827959388494,0.0026849706191569567,-0.22451508045196533,0.0024164391215890646,0.0036073713563382626,-0.02463284507393837,0,0,-1000,3,4,-25,-1,2,-154,158592.0
13:08:48.110,AUTO,-35.363262,149.1652366,21925,0.0027144511695951223,0.0031572876032441854,-0.23006531596183777,0.0022296712268143892,0.0016994329635053873,-0.021934552118182182,0,0,-1000,2,2,-21,-1,2,-154,158592.0
13:08:48.409,AUTO,-35.363262,149.1652366,22315,0.003035420086234808,0.0034430662635713816,-0.23545703291893005,0.00224900059401989,0.0012795208021998405,-0.021317273378372192,0,0,-1000,3,2,-21,-1,2,-154,158592.0
13:08:48.719,AUTO,-35.363262,149.1652367,22704,0.0030043928418308496,0.0035088297445327044,-0.24060767889022827,-0.0003833381342701614,0.0010781791061162949,-0.0210160743445158,0,0,-1000,0,1,-21,-1,2,-154,158592.0
13:08:48.947,AUTO,-35.363262,149.1652367,23094,0.0031247250735759735,0.0035370830446481705,-0.24558447301387787,0.0015897485427558422,0.0004777805879712105,-0.020626114681363106,0,0,-1000,2,1,-20,-1,3,-154,158592.0
13:08:49.159,AUTO,-35.363262,149.1652367,23484,0.0031764956656843424,0.0035732793621718884,-0.25043341517448425,0.0006281347014009953,0.0004280263092368841,-0.016987387090921402,0,0,-1000,1,1,-17,-1,3,-154,158592.0
13:08:49.361,AUTO,-35.363262,149.1652367,23484,0.0031764956656843424,0.0035732793621718884,-0.25043341517448425,0.0006281347014009953,0.0004280263092368841,-0.016987387090921402,0,0,-1000,1,1,-17,-1,3,-154,158592.0
13:08:49.563,AUTO,-35.363262,149.1652367,23484,0.0031764956656843424,0.0035732793621718884,-0.25043341517448425,0.0006281347014009953,0.0004280263092368841,-0.016987387090921402,0,0,-1000,1,1,-17,-1,3,-154,158592.0
13:08:49.767,AUTO,-35.363262,149.1652368,24652,0.0022436268627643585,0.0028679873794317245,-0.26417064666748047,0.00025374366668984294,0.0006623029476031661,-0.01873644068837166,0,0,-1000,1,1,-18,-1,3,-154,158592.0
13:08:49.969,AUTO,-35.363262,149.1652368,24652,0.0022436268627643585,0.0028679873794317245,-0.26417064666748047,0.00025374366668984294,0.0006623029476031661,-0.01873644068837166,0,0,-1000,1,1,-18,-1,3,-154,158592.0
13:08:50.171,AUTO,-35.363262,149.1652369,25041,0.001698483363725245,0.002876542741432786,-0.26885485649108887,-0.0001912116422317922,-0.0004887561080977321,-0.017070278525352478,0,0,-1000,0,0,-17,-1,3,-154,77018.0
13:08:50.373,AUTO,-35.363262,149.1652369,25428,-0.007770966272801161,0.005704823881387711,-0.2684558629989624,-0.044113509356975555,0.020942745730280876,0.021701153367757797,0,0,-996,-43,21,21,-2,2,-152,77018.0
13:08:50.575,AUTO,-35.363262,149.1652369,25814,-0.008465123362839222,0.007812383584678173,-0.2618310749530792,0.027341848239302635,0.00018546736100688577,0.029554113745689392,0,0,-1004,28,1,29,-4,0,-153,77018.0
13:08:50.779,AUTO,-35.3632621,149.1652369,26202,-0.0008273673010990024,0.006235069595277309,-0.25409260392189026,0.030471961945295334,-0.006025577429682016,0.03222084045410156,0,1,-1002,31,-5,31,-5,0,-154,77018.0
13:08:50.981,AUTO,-35.3632621,149.1652369,26202,-0.0008273673010990024,0.006235069595277309,-0.25409260392189026,0.030471961945295334,-0.006025577429682016,0.03222084045410156,0,1,-1002,31,-5,31,-5,0,-154,77018.0
13:08:51.183,AUTO,-35.3632622,149.1652369,26590,0.005299570504575968,0.004357675556093454,-0.2458467185497284,0.01787603832781315,-0.007684828247874975,0.033756472170352936,0,0,-1000,18,-6,33,-5,0,-154,77018.0
13:08:51.385,AUTO,-35.3632622,149.1652369,26590,0.005299570504575968,0.004357675556093454,-0.2458467185497284,0.01787603832781315,-0.007684828247874975,0.033756472170352936,0,0,-1000,18,-6,33,-5,0,-154,77018.0
13:08:51.586,AUTO,-35.3632622,149.1652369,26590,0.005299570504575968,0.004357675556093454,-0.2458467185497284,0.01787603832781315,-0.007684828247874975,0.033756472170352936,0,0,-1000,18,-6,33,-5,0,-154,77018.0
13:08:51.788,AUTO,-35.3632624,149.1652369,27757,0.00922679528594017,0.0004371489631012082,-0.22444255650043488,-0.0009479193831793964,-0.0006658606580458581,0.02562631480395794,0,0,-999,0,0,25,-3,4,-153,77018.0
13:08:51.990,AUTO,-35.3632624,149.165237,28144,0.00796390138566494,0.0001177623271360062,-0.21844790875911713,-0.007249730639159679,-0.00036260910565033555,0.023665454238653183,0,0,-999,-6,0,23,-2,6,-153,77018.0
13:08:52.191,AUTO,-35.3632624,149.165237,28144,0.00796390138566494,0.0001177623271360062,-0.21844790875911713,-0.007249730639159679,-0.00036260910565033555,0.023665454238653183,0,0,-999,-6,0,23,-2,6,-153,77018.0
13:08:52.393,AUTO,-35.3632625,149.1652371,28532,0.006509409286081791,0.00019285791495349258,-0.21291495859622955,-0.007487466558814049,-0.0007054415764287114,0.022108184173703194,0,0,-1000,-6,0,21,-1,7,-153,77018.0
13:08:52.595,AUTO,-35.3632625,149.1652373,28920,0.004887005314230919,0.00012113484262954444,-0.20782682299613953,-0.004787759389728308,0.0009658157359808683,0.0196691881865263,0,0,-1000,-4,1,19,-1,7,-153,77018.0
13:08:52.796,AUTO,-35.3632625,149.1652374,29312,0.003203002503141761,0.0003263368853367865,-0.20285852253437042,-0.004690898582339287,0.002355974866077304,0.020770369097590446,0,-1,-1000,-3,3,20,0,7,-153,77018.0
13:08:52.998,AUTO,-35.3632625,149.1652376,29700,0.0019014114513993263,0.0006604624213650823,-0.19806548953056335,-0.003915400244295597,0.0011588474735617638,0.020155008882284164,0,-1,-1000,-3,2,19,0,7,-153,77018.0
13:08:53.200,AUTO,-35.3632625,149.1652376,29700,0.0019014114513993263,0.0006604624213650823,-0.19806548953056335,-0.003915400244295597,0.0011588474735617638,0.020155008882284164,0,-1,-1000,-3,2,19,0,7,-153,77018.0
13:08:53.402,AUTO,-35.3632625,149.1652376,29700,0.0019014114513993263,0.0006604624213650823,-0.19806548953056335,-0.003915400244295597,0.0011588474735617638,0.020155008882284164,0,-1,-1000,-3,2,19,0,7,-153,77018.0
13:08:53.604,AUTO,-35.3632625,149.1652376,29700,0.0019014114513993263,0.0006604624213650823,-0.19806548953056335,-0.003915400244295597,0.0011588474735617638,0.020155008882284164,0,-1,-1000,-3,2,19,0,7,-153,77018.0
13:08:53.806,AUTO,-35.3632625,149.165238,30859,-0.00017824127280618995,0.001231999834999442,-0.1852641999721527,0.0024950404185801744,2.4645822122693062e-05,0.01815039850771427,0,-1,-1000,3,0,17,0,5,-153,77018.0
13:08:54.007,AUTO,-35.3632625,149.165238,31247,-0.0003966176009271294,0.0012508485233411193,-0.18110738694667816,-0.0028894077986478806,-0.0005039015086367726,0.015459904447197914,0,-1,-1000,-1,0,15,0,4,-153,77018.0
13:08:54.227,AUTO,-35.3632625,149.165238,31247,-0.0003966176009271294,0.0012508485233411193,-0.18110738694667816,-0.0028894077986478806,-0.0005039015086367726,0.015459904447197914,0,-1,-1000,-1,0,15,0,4,-153,77018.0
13:08:54.540,AUTO,-35.3632624,149.1652381,32022,-0.0005346535472199321,0.0018881583819165826,-0.17305657267570496,0.0033006779849529266,0.00214958842843771,0.015171531587839127,0,0,-1001,4,3,15,0,2,-153,77018.0
13:08:54.842,AUTO,-35.3632624,149.1652382,32411,-0.00041110135498456657,0.00200128136202693,-0.16931915283203125,0.00016224791761487722,0.001665060524828732,0.016882319003343582,0,0,-999,1,2,16,0,2,-153,77018.0
13:08:55.054,AUTO,-35.3632623,149.1652382,32799,6.80703524267301e-05,0.00222694780677557,-0.1657748967409134,0.00285381730645895,0.000856796046718955,0.013834331184625626,0,0,-1000,4,1,13,0,1,-153,77018.0
13:08:55.281,AUTO,-35.3632623,149.1652382,32799,6.80703524267301e-05,0.00222694780677557,-0.1657748967409134,0.00285381730645895,0.000856796046718955,0.013834331184625626,0,0,-1000,4,1,13,0,1,-153,77018.0
13:08:55.483,AUTO,-35.3632623,149.1652382,32799,6.80703524267301e-05,0.00222694780677557,-0.1657748967409134,0.00285381730645895,0.000856796046718955,0.013834331184625626,0,0,-1000,4,1,13,0,1,-153,77018.0
13:08:55.690,AUTO,-35.3632623,149.1652382,32799,6.80703524267301e-05,0.00222694780677557,-0.1657748967409134,0.00285381730645895,0.000856796046718955,0.013834331184625626,0,0,-1000,4,1,13,0,1,-153,77018.0
13:08:55.892,AUTO,-35.3632623,149.1652381,33964,0.0009911892702803016,0.0016461986815556884,-0.1558651179075241,5.7331169955432415e-05,-0.0010369534138590097,0.013246916234493256,0,0,-1000,1,0,13,0,0,-153,7345.0
13:08:56.094,AUTO,-35.3632622,149.1652381,34352,0.0011191654484719038,0.0014771148562431335,-0.15284810960292816,3.27512389048934e-05,-0.0008994013187475502,0.011846812441945076,0,0,-1000,0,0,11,0,0,-153,7345.0
13:08:56.296,AUTO,-35.3632622,149.1652381,34740,0.0011494215577840805,0.0011319563491269946,-0.14986053109169006,0.0006642119260504842,-0.003280275734141469,0.012151340954005718,0,0,-1001,1,-2,12,0,0,-153,7345.0
13:08:56.498,AUTO,-35.3632622,149.1652381,35128,0.001384942326694727,0.0010444477666169405,-0.14681191742420197,0.00276017258875072,0.0012056594714522362,0.012097546830773354,0,0,-1000,3,2,11,0,0,-153,7345.0
13:08:56.699,AUTO,-35.3632622,149.1652381,35128,0.001384942326694727,0.0010444477666169405,-0.14681191742420197,0.00276017258875072,0.0012056594714522362,0.012097546830773354,0,0,-1000,3,2,11,0,0,-153,7345.0
13:08:56.901,AUTO,-35.3632622,149.1652381,35516,0.001272514695301652,0.0011684942292049527,-0.1438535898923874,-0.0021017431281507015,0.001709688687697053,0.009845105931162834,0,0,-999,-1,2,9,0,0,-153,7345.0
13:08:57.103,AUTO,-35.3632622,149.165238,35904,0.001293383538722992,0.001286752405576408,-0.14114916324615479,-0.0007366550271399319,-0.0002652281546033919,0.01250581443309784,0,0,-1000,0,0,12,0,0,-153,7345.0
13:08:57.305,AUTO,-35.3632622,149.165238,35904,0.001293383538722992,0.001286752405576408,-0.14114916324615479,-0.0007366550271399319,-0.0002652281546033919,0.01250581443309784,0,0,-1000,0,0,12,0,0,-153,7345.0
13:08:57.507,AUTO,-35.3632622,149.165238,35904,0.001293383538722992,0.001286752405576408,-0.14114916324615479,-0.0007366550271399319,-0.0002652281546033919,0.01250581443309784,0,0,-1000,0,0,12,0,0,-153,7345.0
13:08:57.710,AUTO,-35.3632622,149.165238,35904,0.001293383538722992,0.001286752405576408,-0.14114916324615479,-0.0007366550271399319,-0.0002652281546033919,0.01250581443309784,0,0,-1000,0,0,12,0,0,-153,7345.0
13:08:57.911,AUTO,-35.3632622,149.1652379,37068,0.001363700837828219,0.0013056601164862514,-0.13338662683963776,0.000717783928848803,-0.0004490787396207452,0.010876094922423363,0,0,-1000,2,0,11,0,0,-153,7345.0
13:08:58.113,AUTO,-35.3632622,149.1652379,37457,0.001347880344837904,0.001189148286357522,-0.13123799860477448,-7.495458703488111e-05,-0.0004899705527350307,0.01162914652377367,0,0,-1000,0,0,11,0,0,-153,7345.0
13:08:58.314,AUTO,-35.3632621,149.1652379,37845,0.0015947449719533324,0.001307767117395997,-0.12883467972278595,0.0019096230389550328,0.0010770319495350122,0.008805555291473866,0,0,-1000,2,2,8,0,0,-153,7345.0
13:08:58.516,AUTO,-35.3632621,149.1652379,38232,0.0015965043567121029,0.0015149685787037015,-0.1268949806690216,-0.0008002484682947397,-0.0002542815636843443,0.009771439246833324,0,0,-1000,0,0,9,0,0,-153,7345.0
13:08:58.719,AUTO,-35.3632621,149.1652379,38232,0.0015965043567121029,0.0015149685787037015,-0.1268949806690216,-0.0008002484682947397,-0.0002542815636843443,0.009771439246833324,0,0,-1000,0,0,9,0,0,-153,7345.0
13:08:58.932,AUTO,-35.3632621,149.1652378,38625,0.0017121168784797192,0.0016574027249589562,-0.12472601234912872,-0.0006923010805621743,0.0016749503556638956,0.009071449749171734,0,0,-999,0,2,9,0,0,-153,7345.0
13:08:59.200,AUTO,-35.3632621,149.1652378,39013,0.0018504380714148283,0.0016843562480062246,-0.12280259281396866,0.0028815590776503086,-8.436827920377254e-05,0.006856031250208616,0,0,-1001,3,0,6,0,0,-153,7345.0
13:08:59.413,AUTO,-35.3632621,149.1652378,39013,0.0018504380714148283,0.0016843562480062246,-0.12280259281396866,0.0028815590776503086,-8.436827920377254e-05,0.006856031250208616,0,0,-1001,3,0,6,0,0,-153,7345.0
13:08:59.650,AUTO,-35.3632621,149.1652378,39013,0.0018504380714148283,0.0016843562480062246,-0.12280259281396866,0.0028815590776503086,-8.436827920377254e-05,0.006856031250208616,0,0,-1001,3,0,6,0,0,-153,7345.0
13:08:59.906,AUTO,-35.3632621,149.1652377,40173,0.0025762070436030626,0.0013430524850264192,-0.11713811010122299,0.004760823678225279,0.00242119119502604,0.00800403207540512,0,0,-1000,5,3,7,0,0,-153,7345.0
13:09:00.109,AUTO,-35.3632621,149.1652376,40562,0.0025872134137898684,0.0012565647484734654,-0.11546901613473892,0.000837216037325561,-0.0006848218617960811,0.006441658362746239,0,0,-1000,1,0,6,-1,0,-153,7345.0
13:09:00.312,AUTO,-35.3632621,149.1652376,40949,0.002298050792887807,0.001231136149726808,-0.11383845657110214,-0.004768450744450092,-0.00015807931777089834,0.007758997846394777,0,0,-1000,-3,0,7,0,0,-153,7345.0
13:09:00.514,AUTO,-35.3632621,149.1652376,41337,0.002055192831903696,0.0014947975287213922,-0.11205894500017166,0.0007350279483944178,0.0007533705793321133,0.00987798348069191,0,0,-1000,1,1,9,0,1,-153,7345.0
13:09:00.719,AUTO,-35.3632621,149.1652376,41337,0.002055192831903696,0.0014947975287213922,-0.11205894500017166,0.0007350279483944178,0.0007533705793321133,0.00987798348069191,0,0,-1000,1,1,9,0,1,-153,7345.0
13:09:00.921,AUTO,-35.3632621,149.1652376,41725,0.0017646565102040768,0.0016648571472615004,-0.11026734858751297,-0.0010935503523796797,0.0019918917678296566,0.008232696913182735,0,0,-1000,0,2,8,-1,1,-153,211261.0
13:09:01.123,AUTO,-35.3632621,149.1652376,42112,0.0017144486773759127,0.0017040258971974254,-0.10845056921243668,0.001685820403508842,0.0009456856641918421,0.006699780467897654,0,0,-1000,2,1,6,-1,1,-153,211261.0
13:09:01.325,AUTO,-35.3632621,149.1652376,42112,0.0017144486773759127,0.0017040258971974254,-0.10845056921243668,0.001685820403508842,0.0009456856641918421,0.006699780467897654,0,0,-1000,2,1,6,-1,1,-153,211261.0
13:09:01.527,AUTO,-35.3632621,149.1652376,42112,0.0017144486773759127,0.0017040258971974254,-0.10845056921243668,0.001685820403508842,0.0009456856641918421,0.006699780467897654,0,0,-1000,2,1,6,-1,1,-153,211261.0
13:09:01.730,AUTO,-35.3632621,149.1652376,42112,0.0017144486773759127,0.0017040258971974254,-0.10845056921243668,0.001685820403508842,0.0009456856641918421,0.006699780467897654,0,0,-1000,2,1,6,-1,1,-153,211261.0
13:09:01.932,AUTO,-35.363262,149.1652376,43280,0.0015663884114474058,0.0015726798446848989,-0.10387833416461945,-0.0012513069668784738,0.000631410744972527,0.006995339412242174,0,0,-1000,0,1,7,-1,1,-153,211261.0
13:09:02.134,AUTO,-35.363262,149.1652376,43668,0.0018234291346743703,0.001552443951368332,-0.10238312929868698,0.002867653965950012,2.021854743361473e-05,0.006969261448830366,0,0,-1000,3,1,7,-1,1,-153,211261.0
13:09:02.336,AUTO,-35.363262,149.1652375,44057,0.001759679988026619,0.0014378487830981612,-0.10085292905569077,-0.0006640148349106312,-0.0015760366804897785,0.00640025082975626,0,0,-1000,0,0,6,-1,1,-153,211261.0
13:09:02.538,AUTO,-35.363262,149.1652375,44445,0.0016405087662860751,0.0012878193520009518,-0.09942273795604706,-0.0028344555757939816,-0.0004206872545182705,0.006944451481103897,0,0,-1000,-1,0,7,-1,1,-153,211261.0
13:09:02.740,AUTO,-35.363262,149.1652375,44832,0.0017936007352545857,0.0013420737814158201,-0.09806222468614578,0.002009121235460043,0.0005331458523869514,0.004868743009865284,0,0,-1001,3,1,4,-1,1,-153,211261.0
13:09:02.941,AUTO,-35.363262,149.1652375,44832,0.0017936007352545857,0.0013420737814158201,-0.09806222468614578,0.002009121235460043,0.0005331458523869514,0.004868743009865284,0,0,-1001,3,1,4,-1,1,-153,211261.0
13:09:03.143,AUTO,-35.363262,149.1652375,45228,0.0017695362912490964,0.0014007404679432511,-0.09665422886610031,-0.001819852041080594,0.0007437299937009811,0.007007379084825516,0,0,-999,0,2,7,-1,1,-153,211261.0
13:09:03.347,AUTO,-35.363262,149.1652375,45228,0.0017695362912490964,0.0014007404679432511,-0.09665422886610031,-0.001819852041080594,0.0007437299937009811,0.007007379084825516,0,0,-999,0,2,7,-1,1,-153,211261.0
13:09:03.549,AUTO,-35.363262,149.1652375,45228,0.0017695362912490964,0.0014007404679432511,-0.09665422886610031,-0.001819852041080594,0.0007437299937009811,0.007007379084825516,0,0,-999,0,2,7,-1,1,-153,211261.0
13:09:03.757,AUTO,-35.3632621,149.1652373,46346,-0.05127992853522301,0.05982018634676933,0.06564387679100037,-0.1655721664428711,0.12711411714553833,0.5859802961349487,0,0,-974,-164,128,586,-13,-10,-138,211261.0
13:09:03.959,AUTO,-35.3632621,149.1652373,46346,-0.05127992853522301,0.05982018634676933,0.06564387679100037,-0.1655721664428711,0.12711411714553833,0.5859802961349487,0,0,-974,-164,128,586,-13,-10,-138,211261.0
13:09:04.160,AUTO,-35.3632625,149.1652368,46682,-0.059303924441337585,0.06412756443023682,0.1879153549671173,0.027766410261392593,-0.1474957913160324,0.3677719533443451,3,5,-939,28,-146,368,-26,-25,-125,211261.0
13:09:04.397,AUTO,-35.3632632,149.1652359,46978,-0.03462990000844002,0.016253815963864326,0.2556469738483429,0.10947517305612564,-0.21463511884212494,0.1885272115468979,3,8,-942,110,-213,188,-32,-36,-110,211261.0
13:09:04.674,AUTO,-35.3632638,149.1652349,47241,-0.00693777808919549,-0.025527050718665123,0.2873517572879791,0.10671740770339966,-0.13281162083148956,0.08287321031093597,4,10,-950,107,-131,82,-28,-37,-97,211261.0
13:09:05.031,AUTO,-35.3632647,149.1652332,47675,0.030550824478268623,-0.05485553666949272,0.297547847032547,0.05907110124826431,-0.010094208642840385,-0.011655842885375023,1,8,-963,60,-8,-11,-10,-21,-75,211261.0
13:09:05.258,AUTO,-35.3632647,149.1652332,47675,0.030550824478268623,-0.05485553666949272,0.297547847032547,0.05907110124826431,-0.010094208642840385,-0.011655842885375023,1,8,-963,60,-8,-11,-10,-21,-75,211261.0
13:09:05.480,AUTO,-35.3632647,149.1652332,47675,0.030550824478268623,-0.05485553666949272,0.297547847032547,0.05907110124826431,-0.010094208642840385,-0.011655842885375023,1,8,-963,60,-8,-11,-10,-21,-75,211261.0
13:09:05.684,AUTO,-35.3632647,149.1652332,47675,0.030550824478268623,-0.05485553666949272,0.297547847032547,0.05907110124826431,-0.010094208642840385,-0.011655842885375023,1,8,-963,60,-8,-11,-10,-21,-75,211261.0
13:09:05.888,AUTO,-35.3632645,149.1652327,48146,0.03812114894390106,-0.0337921567261219,0.2742544114589691,0.043393805623054504,0.04183764383196831,-0.03467298299074173,-2,1,-977,45,43,-34,13,13,-51,211261.0
13:09:06.091,AUTO,-35.3632641,149.1652332,48270,0.035013116896152496,-0.022222405299544334,0.26491960883140564,-0.03301127254962921,0.049152057617902756,-0.03420337289571762,-3,-12,-978,-32,50,-33,18,21,-46,211261.0
13:09:06.292,AUTO,-35.3632637,149.1652337,48376,0.017957184463739395,-0.011379285715520382,0.2558211088180542,-0.4737008213996887,0.039878882467746735,-0.03283638879656792,-3,-22,-973,-472,40,-32,20,27,-40,49381.0
13:09:06.494,AUTO,-35.3632632,149.1652344,48465,0.01753651350736618,-0.0024189974647015333,0.24716489017009735,0.11004189401865005,0.03184445947408676,-0.02659689635038376,-2,12,-976,112,33,-26,20,30,-33,49381.0
13:09:06.696,AUTO,-35.3632632,149.1652344,48465,0.01753651350736618,-0.0024189974647015333,0.24716489017009735,0.11004189401865005,0.03184445947408676,-0.02659689635038376,-2,12,-976,112,33,-26,20,30,-33,49381.0
13:09:06.898,AUTO,-35.3632627,149.1652352,48540,0.01934157684445381,0.004875206388533115,0.23924854397773743,0.5096364617347717,0.023982398211956024,-0.026991959661245346,-2,19,-985,510,25,-26,19,31,-28,49381.0
13:09:07.101,AUTO,-35.3632623,149.165236,48604,0.013285191729664803,0.010160931386053562,0.23199495673179626,0.07281547039747238,0.02064128965139389,-0.028208650648593903,-1,-24,-968,72,21,-27,17,29,-23,49381.0
13:09:07.303,AUTO,-35.3632623,149.165236,48604,0.013285191729664803,0.010160931386053562,0.23199495673179626,0.07281547039747238,0.02064128965139389,-0.028208650648593903,-1,-24,-968,72,21,-27,17,29,-23,49381.0
13:09:07.505,AUTO,-35.3632623,149.165236,48604,0.013285191729664803,0.010160931386053562,0.23199495673179626,0.07281547039747238,0.02064128965139389,-0.028208650648593903,-1,-24,-968,72,21,-27,17,29,-23,49381.0
13:09:07.707,AUTO,-35.3632623,149.165236,48604,0.013285191729664803,0.010160931386053562,0.23199495673179626,0.07281547039747238,0.02064128965139389,-0.028208650648593903,-1,-24,-968,72,21,-27,17,29,-23,49381.0
13:09:07.909,AUTO,-35.3632613,149.1652383,48704,-0.015543744899332523,0.016423162072896957,0.21242573857307434,0.005045750178396702,-0.0009111354011110961,-0.018653178587555885,0,14,-961,7,0,-18,9,22,-4,49381.0
13:09:08.110,AUTO,-35.3632611,149.1652388,48694,-0.03416450321674347,0.03866526111960411,0.19824829697608948,0.5642480850219727,0.10562150180339813,0.03392719477415085,0,39,-949,566,106,34,4,15,9,49381.0
13:09:08.312,AUTO,-35.3632611,149.1652391,48653,-0.019576124846935272,0.039699625223875046,0.19543765485286713,0.9070625305175781,-0.04763784632086754,-0.009731336496770382,0,35,-1031,908,-46,-9,-3,4,13,49381.0
13:09:08.513,AUTO,-35.3632612,149.1652391,48613,0.009112352505326271,0.027682067826390266,0.1931532621383667,0.7157679796218872,-0.03178475797176361,-0.008259446360170841,0,9,-986,716,-30,-8,-9,-1,14,49381.0
13:09:08.715,AUTO,-35.3632612,149.1652391,48613,0.009112352505326271,0.027682067826390266,0.1931532621383667,0.7157679796218872,-0.03178475797176361,-0.008259446360170841,0,9,-986,716,-30,-8,-9,-1,14,49381.0
13:09:08.917,AUTO,-35.3632614,149.1652391,48576,0.025353750213980675,0.022151727229356766,0.18979261815547943,0.010624097660183907,-0.014500106684863567,-0.010451429523527622,3,-24,-998,10,-13,-10,-15,0,10,49381.0
13:09:09.119,AUTO,-35.3632619,149.1652392,48547,0.030709445476531982,0.021034078672528267,0.18638138473033905,-0.585147500038147,0.002633600030094385,-0.015378179028630257,6,-24,-1040,-584,4,-14,-21,7,5,49381.0
13:09:09.321,AUTO,-35.3632619,149.1652392,48547,0.030709445476531982,0.021034078672528267,0.18638138473033905,-0.585147500038147,0.002633600030094385,-0.015378179028630257,6,-24,-1040,-584,4,-14,-21,7,5,49381.0
13:09:09.523,AUTO,-35.3632619,149.1652392,48547,0.030709445476531982,0.021034078672528267,0.18638138473033905,-0.585147500038147,0.002633600030094385,-0.015378179028630257,6,-24,-1040,-584,4,-14,-21,7,5,49381.0
13:09:09.725,AUTO,-35.3632619,149.1652392,48547,0.030709445476531982,0.021034078672528267,0.18638138473033905,-0.585147500038147,0.002633600030094385,-0.015378179028630257,6,-24,-1040,-584,4,-14,-21,7,5,49381.0
13:09:09.927,AUTO,-35.3632639,149.1652413,48506,0.08838453143835068,0.02842872031033039,0.20016437768936157,0.6301273703575134,0.04822923243045807,0.26627227663993835,12,6,-1005,631,49,266,-39,49,0,49381.0
13:09:10.129,AUTO,-35.3632649,149.165243,48500,0.0995846539735794,0.022372346371412277,0.3396182060241699,-0.03590841591358185,0.028965076431632042,0.7416619658470154,17,-29,-998,-36,29,742,-46,66,0,49381.0
13:09:10.335,AUTO,-35.3632661,149.1652452,48493,0.10096872597932816,0.007075111847370863,0.5435447692871094,-0.614861011505127,-0.005563325248658657,0.8383278250694275,20,-54,-998,-614,-4,838,-55,85,-1,49381.0
13:09:10.578,AUTO,-35.3632676,149.165248,48488,0.10219794511795044,-0.010978635400533676,0.7508907914161682,-0.4476858973503113,0.004137877374887466,0.8229737281799316,13,-40,-1017,-445,5,823,-65,106,-2,49381.0
13:09:10.809,AUTO,-35.3632692,149.1652513,48488,0.11936990916728973,-0.030353810638189316,0.9481410384178162,0.3681213855743408,0.00891975685954094,0.7853850722312927,6,-13,-1009,370,10,785,-76,126,-3,49381.0
13:09:11.058,AUTO,-35.3632711,149.1652553,48488,0.1319020837545395,-0.05446445196866989,1.1354836225509644,0.6514803171157837,0.0007836061995476484,0.7404845356941223,-4,-19,-1014,652,2,740,-88,146,-2,49381.0
13:09:11.321,AUTO,-35.3632711,149.1652553,48488,0.1319020837545395,-0.05446445196866989,1.1354836225509644,0.6514803171157837,0.0007836061995476484,0.7404845356941223,-4,-19,-1014,652,2,740,-88,146,-2,49381.0
13:09:11.525,AUTO,-35.3632711,149.1652553,48488,0.1319020837545395,-0.05446445196866989,1.1354836225509644,0.6514803171157837,0.0007836061995476484,0.7404845356941223,-4,-19,-1014,652,2,740,-88,146,-2,49381.0
13:09:11.727,AUTO,-35.3632711,149.1652553,48488,0.1319020837545395,-0.05446445196866989,1.1354836225509644,0.6514803171157837,0.0007836061995476484,0.7404845356941223,-4,-19,-1014,652,2,740,-88,146,-2,49381.0
13:09:11.931,AUTO,-35.3632787,149.1652709,48491,0.11008436977863312,-0.13605935871601105,1.6618255376815796,0.05298471823334694,-0.03460614010691643,0.690396249294281,-29,-48,-1000,55,-33,690,-132,217,-3,49381.0
