time_stamp,RTL_ALT,MODE,roll,pitch,yaw,rollspeed,pitchspeed,yawspeed,lat,lon,relative_alt,vx,vy,vz,xacc,yacc,zacc,xgyro,ygyro,zgyro
06:53:02,209592.0,STABILIZE,-1.1460154382803012e-05,0.0014372416771948338,0.028037410229444504,0.00019879534374922514,0.00017800251953303814,0.002480632858350873,-35.3632621,149.1652374,0.0,0.0,0.0,1.0,0.0,1.0,-1000.0,0.0,0.0,0.0
06:53:18,209592.0,AUTO,-0.0007447536627296358,0.0009677138295955956,0.02193150483071804,0.00022993978927843273,0.0002863258123397827,0.0015399632975459099,-35.3632622,149.1652375,7.5,-1.0,1.0,0.0,0.0,2.0,-1000.0,0.5,0.0,0.5
06:53:19,166873.0,AUTO,-0.0006437929405365139,0.0010431178961880505,0.021753227803856134,0.0003191594732925296,0.00023803806107025594,0.00153129588579759,-35.3632621,149.1652375,18.75,0.0,0.0,-2.75,0.0,1.5,-1000.0,0.75,0.25,0.25
06:53:20,166873.0,AUTO,-0.00034283980494365096,0.001346289413049817,0.021436921320855618,0.00031042753835208714,0.0003193019947502762,0.0014703756896778941,-35.3632621,149.1652375,23.5,0.0,0.0,-2.0,0.0,1.0,-1000.0,0.0,1.0,0.5
06:53:22,166873.0,AUTO,0.001884501485619694,0.0006417062759282999,0.02097477950155735,-0.0016663889691699296,0.003609540406614542,0.001728191098663956,-35.3632621,149.1652375,336.5,0.0,1.0,-89.0,0.0,0.0,-1119.5,-1.0,3.5,1.0
06:53:23,72919.0,AUTO,0.018983543326612562,-0.0005719631153624505,0.02096555894240737,0.0390114919282496,-0.005393930259742774,0.0021011262288084254,-35.363262049999996,149.16523755,1263.5,0.25,5.25,-139.75,0.0,-0.25,-1035.75,39.25,-4.5,1.25
06:53:24,72919.0,AUTO,0.049943773075938225,0.003711066674441099,-0.02074277773499489,-0.09260252583771944,0.06135167367756367,-0.0755386408418417,-35.3632615,149.16524045,3150.5,8.5,50.0,-146.0,2.0,-9.5,-991.5,-91.5,61.5,-75.5
06:53:26,72919.0,AUTO,-0.06320806033909321,0.0012472661910578609,-0.10056455433368683,0.05452089384198189,0.0002257876330986619,-0.01701376447454095,-35.36326085,149.16524525,6195.5,-3.5,-37.5,-148.0,-3.0,5.5,-1000.5,55.0,0.5,-17.0
06:53:27,229961.0,AUTO,-0.01640376285649836,0.0061392393545247614,-0.10792540945112705,0.06657293625175953,0.010067007504403591,-0.003950153062760364,-35.363261275,149.165240925,7347.25,-10.75,-58.25,-148.75,-5.75,12.0,-1002.5,66.25,9.75,-4.0
06:53:28,229961.0,AUTO,0.06541423685848713,0.012406579218804836,-0.10468245297670364,0.045638700015842915,-0.01542678422993049,0.018075085012242198,-35.36326325,149.16523415,9290.5,-23.0,-17.0,-152.0,-0.5,9.0,-999.5,45.5,-14.5,17.5
06:53:30,229961.0,AUTO,-0.03472524136304855,0.007109364727512002,-0.11425408720970154,0.005115479696542025,0.04304441250860691,-0.08601367846131325,-35.363261800000004,149.16523765,12364.0,33.0,4.5,-150.5,-5.5,-6.5,-1005.0,6.0,43.5,-86.0
06:53:31,43819.0,AUTO,-0.013085906452033669,0.023841123562306166,-0.16096226125955582,0.04098058305680752,0.014346998650580645,-0.040936431381851435,-35.363260075,149.165237,13536.0,14.25,-14.75,-151.75,-5.75,-0.75,-1001.5,41.25,14.25,-40.75
06:53:32,43819.0,AUTO,0.01799918245524168,0.017899496480822563,-0.17342842370271683,-0.00394187934580259,-0.017310859635472298,0.010521068703383207,-35.36325985,149.16523515,15487.5,-13.0,-2.0,-151.0,0.0,2.0,-998.5,-3.0,-16.0,9.5
06:53:34,43819.0,AUTO,-0.008276527965790592,-0.003620548639446497,-0.18076501786708832,-0.05843418277800083,-0.00015619117766618729,-0.02352858241647482,-35.363261949999995,149.16523615,18598.0,-8.0,6.5,-150.5,2.0,0.0,-996.5,-57.5,0.5,-23.5
06:53:35,7558.0,AUTO,-0.052321392111480236,0.02496916428208351,-0.08345302008092403,0.018587973900139332,-0.008606255054473877,0.23680403409525752,-35.36326255,149.165235375,19718.0,-17.25,-24.0,-135.5,-0.25,4.75,-964.0,19.5,-8.0,236.0
06:53:36,7558.0,AUTO,0.06440974026918411,-0.041189881041646004,0.04456619545817375,0.024343099212273955,0.0036264308728277683,-0.03531524259597063,-35.363264900000004,149.16523105,21113.0,-10.0,-8.0,-79.0,0.0,4.5,-961.5,24.5,4.5,-35.5
06:53:38,7558.0,AUTO,-0.003200203413143754,0.012716920580714941,0.03042621724307537,-0.03054969757795334,0.011608716566115618,0.0010802450124174356,-35.36326265,149.16523665,22133.0,16.5,36.0,-26.0,0.5,-9.5,-976.5,-29.5,12.0,0.5
06:53:39,89453.0,AUTO,-0.021372253308072686,0.019493961008265615,0.027999557089060545,0.020278104348108172,0.008754623180720955,-0.001848530868301168,-35.363261699999995,149.16523892499998,22245.25,8.0,21.0,-4.0,0.25,0.0,-965.0,21.5,9.25,-1.5
06:53:40,89453.0,AUTO,0.005373201907787006,0.030602711252868176,0.025027498602867126,-0.3919593244791031,0.0007395384600386024,-0.00330513744847849,-35.3632619,149.16523934999998,22074.5,-20.5,-5.5,12.5,2.5,-9.5,-1027.5,-390.5,1.5,-3.0
06:53:42,89453.0,AUTO,0.12417920678853989,0.043097566813230515,0.7092233300209045,0.08917355537414551,0.024448723066598177,0.7939976155757904,-35.363271749999996,149.16524505,22041.0,-110.5,71.5,-6.5,25.0,-27.5,-1009.5,89.5,24.5,793.5
06:53:43,266110.0,AUTO,0.1583089791238308,-0.023922002874314785,1.2558599561452866,0.008822478353977203,0.011294445837847888,0.7125672399997711,-35.363281725,149.165253025,22094.5,-177.0,121.25,-9.0,15.0,-48.5,-1008.75,9.75,11.5,711.75
06:53:44,266110.0,AUTO,0.09275844320654869,-0.10373618453741074,2.141947031021118,-0.08045931160449982,0.045736636966466904,0.7124349772930145,-35.363308399999994,149.16527480000002,22252.0,-285.0,194.5,-20.5,-47.0,-69.0,-1010.0,-79.5,45.5,712.0
06:53:46,266110.0,AUTO,0.05667822062969208,-0.01333568524569273,2.610111713409424,0.018593644723296165,0.23057370632886887,-0.03177750064060092,-35.3633674,149.16532275,22746.0,-336.0,218.5,-32.5,-81.5,-40.0,-1015.0,19.0,231.0,-31.5
06:53:47,300000.0,AUTO,0.05523602571338415,0.040474217385053635,2.610139489173889,-0.09645267017185688,-0.0126528509426862,-0.0011099899711553007,-35.363387975,149.16533915,22977.25,-275.25,173.75,-23.0,-71.0,-44.0,-975.0,-95.5,-11.75,-1.25
06:53:48,300000.0,AUTO,0.03078003879636526,0.018736371770501137,2.608408808708191,-0.5437608957290649,0.027924449183046818,0.005198537386604585,-35.36341455,149.16535950000002,23116.0,-199.5,119.0,-4.5,-47.0,-52.0,-1011.0,-542.5,28.0,5.0
06:53:50,300000.0,AUTO,0.018622695468366146,-0.11238836124539375,2.6015392541885376,-0.07200348377227783,-0.09924823045730591,0.011086254380643368,-35.363442649999996,149.16538045,23207.0,-153.0,96.0,-2.5,-37.5,-36.5,-1003.0,-72.0,-98.0,10.5
06:53:51,10436.0,AUTO,0.024045633152127266,-0.11731743440032005,2.5981850624084473,0.01823026780039072,0.0645630694925785,-0.007937017944641411,-35.363455125,149.16539052500002,23247.5,-205.5,135.5,-9.0,-53.0,-27.25,-1014.5,19.5,65.0,-7.75
06:53:52,10436.0,AUTO,0.047979606315493584,-0.022899512201547623,2.595643162727356,0.06753253936767578,0.051753985695540905,-0.0007176587823778391,-35.3634802,149.16541185,23449.0,-222.5,145.5,-18.5,-58.0,-24.5,-994.5,69.0,52.0,-1.0
06:53:54,10436.0,AUTO,0.014978363178670406,0.06515638343989849,2.5943557024002075,0.30884477955987677,-0.1310630515217781,0.0007621189579367638,-35.3635087,149.1654335,23696.0,-45.5,14.0,1.0,-8.5,0.0,-998.0,309.5,-129.5,0.5
06:53:55,200.0,AUTO,-0.0025130164431175217,-0.007450497709214687,2.593139410018921,-0.06909326836466789,-0.05975976143963635,-0.004498727677855641,-35.363511525,149.165434775,23687.75,-31.5,11.75,1.25,-8.0,-8.25,-1003.25,-68.0,-58.5,-4.0
06:53:56,200.0,AUTO,0.011790144722908735,0.00786480656825006,2.590788722038269,0.4185102880001068,0.0737219974398613,-0.006331446697004139,-35.3635163,149.1654385,23699.5,-39.5,28.0,-1.0,-11.0,11.0,-1003.0,419.0,74.5,-6.0
06:53:58,200.0,AUTO,0.0015477301640203223,0.024948316626250744,2.587515115737915,0.4455655813217163,-0.04185163788497448,-0.0033827117295004427,-35.363519749999995,149.16544155,23722.5,12.5,-10.0,1.0,2.0,25.5,-1004.0,446.5,-40.0,-3.5
06:53:59,109527.0,AUTO,-0.005790189257822931,-0.0011737742752302438,2.5871501564979553,0.03829503804445267,-0.021182073513045907,0.0004070208524353802,-35.36351955,149.16544097500002,23721.5,12.5,-6.0,0.5,1.75,-0.75,-998.5,39.5,-19.5,0.25
06:54:00,109527.0,RTL,0.006115517346188426,0.00966858584433794,2.584732174873352,0.3375241756439209,0.011783050606027246,0.0026122150593437254,-35.3635195,149.165441,23725.5,1.5,0.0,-2.5,-2.0,14.5,-1010.5,338.0,12.5,2.0
06:54:02,109527.0,RTL,0.004021330387331545,0.010213631670922041,2.581071972846985,-0.026018998119980097,-0.0016768670757301152,0.0025023568305186927,-35.3635195,149.1654418,24514.0,4.0,-8.0,-75.5,0.0,-1.0,-1021.0,-24.5,0.0,2.0
06:54:03,300000.0,RTL,0.000779551082814578,0.008797966060228646,2.580527186393738,0.00040123926009982824,-0.002176853478886187,0.0012050829536747187,-35.3635195,149.165441675,25148.0,4.5,-8.25,-85.0,0.25,0.25,-995.75,1.75,-0.25,0.75
06:54:04,300000.0,RTL,-0.0009439459245186299,0.005096888169646263,2.5795921087265015,0.0037279328098520637,-0.004381197388283908,0.0006179727206472307,-35.363519249999996,149.16544125000001,26162.5,5.0,-6.0,-60.5,1.0,0.0,-964.0,4.5,-2.0,1.0
06:54:06,300000.0,RTL,0.00819542771205306,0.0023829835699871182,2.5788978338241577,0.16564176231622696,-0.003429604694247246,0.005644561722874641,-35.36351875,149.1654408,26692.5,2.0,-1.5,10.0,0.0,-9.5,-980.5,166.5,-1.5,5.5
06:54:07,135321.0,RTL,-0.005244570475042565,0.0021900951687712222,2.577876031398773,-0.028027527034282684,0.0018194493604823947,-0.0001839951437432319,-35.3635187,149.165440625,26628.75,0.25,-0.75,7.75,1.25,7.0,-1005.0,-26.25,3.5,0.0
06:54:08,135321.0,RTL,-0.00857038504909724,0.0048704301007092,2.5766243934631348,-0.2871210537850857,0.004209192120470107,0.003579997573979199,-35.3635189,149.16544,26673.5,0.0,2.0,-25.0,1.0,-22.0,-1044.0,-286.0,5.5,3.5
06:54:10,135321.0,RTL,-0.03024373110383749,0.0076430318877100945,2.57596218585968,-0.3545304238796234,-0.004266855772584677,0.0005987562472000718,-35.3635201,149.1654384,27613.0,11.5,15.5,-28.0,0.0,-14.0,-948.0,-353.0,-2.0,0.5
06:54:11,300000.0,RTL,-0.014257251983508468,0.004227462166454643,2.575182318687439,0.20485953986644745,-0.0012765981955453753,0.00042847893928410485,-35.363520175000005,149.165438225,27704.5,14.75,17.75,-1.5,-0.5,5.75,-983.25,205.0,0.5,0.5
06:54:12,300000.0,RTL,0.0006679738871753216,0.0009347086306661367,2.5749852657318115,0.5650392174720764,0.0024864103179425,-0.0002961653226520866,-35.36351965,149.16543915,27665.0,13.5,16.0,2.5,-2.0,37.0,-1018.0,566.0,3.5,0.0
06:54:14,300000.0,RTL,0.012841024436056614,0.004446865059435368,2.5731066465377808,0.05962508171796799,0.00402023340575397,0.0003009622450917959,-35.36351865,149.16544155,28308.5,2.5,-1.0,-58.0,-2.0,10.0,-996.0,60.5,5.5,0.0
06:54:15,200863.0,RTL,0.01615309529006481,0.0058413532096892595,2.572819411754608,0.0696830740198493,0.0015889553760644048,0.0018629572659847327,-35.363518375,149.1654423,28680.5,-0.25,-7.5,-34.25,-1.5,8.25,-957.25,70.25,3.25,1.75
06:54:16,200863.0,RTL,0.011773518286645412,0.004493084270507097,2.5727208852767944,-0.7234479784965515,0.00035244476748630404,-0.0008106306195259094,-35.363518,149.16544305000002,28837.0,-3.5,-15.5,4.0,0.0,-32.0,-997.0,-722.5,2.0,0.0
06:54:18,200863.0,RTL,0.011704084929078817,0.007521680556237698,2.571191191673279,0.24431335553526878,0.0008160154102370143,0.00291229912545532,-35.36351795,149.1654431,28969.5,-8.5,-22.5,-39.5,1.0,8.5,-1049.5,245.0,2.5,3.5
06:54:19,200.0,RTL,0.005063714284915477,0.007568918284960091,2.571035325527191,-0.046513921581208706,0.002044437453150749,0.0014326249511213973,-35.3635182,149.1654427,29370.75,-6.25,-19.0,-58.25,0.5,-4.5,-1009.0,-45.0,3.75,1.75
06:54:20,200.0,RTL,0.007191113196313381,0.006930624833330512,2.5709259510040283,0.039989277720451355,-0.0046438961289823055,0.003763733198866248,-35.3635184,149.16544215,29975.0,-3.5,-14.5,-21.5,0.5,-6.0,-949.5,40.5,-2.5,4.0
06:54:22,200.0,RTL,0.0024558595032431185,0.0038710759254172444,2.5714646577835083,-0.11527453362941742,-0.0018272624583914876,-0.0013684920850209892,-35.3635184,149.1654417,29998.5,-2.0,-10.0,-3.0,-0.5,9.0,-1023.0,-113.0,0.5,-0.5
06:54:23,58265.0,RTL,0.012594303349032998,0.0030066968756727874,2.570387601852417,0.11377375200390816,-0.0013339539873413742,-0.0014211946399882436,-35.363518225,149.165441975,30143.0,-2.75,-10.75,-34.5,-1.25,9.25,-1047.5,115.25,0.75,-0.5
06:54:24,58265.0,RTL,0.02501758188009262,0.003196106292307377,2.5693767070770264,0.025900155305862427,0.003937104134820402,0.002136142342351377,-35.363517650000006,149.16544305,30835.5,-6.5,-16.0,-63.0,-2.0,5.0,-984.5,28.0,6.0,2.5
06:54:26,58265.0,RTL,0.010169768938794732,0.006497524445876479,2.568620443344116,-0.32541794888675213,0.002819697489030659,0.004368231981061399,-35.3635175,149.16544349999998,31361.0,-13.0,-24.5,3.0,0.5,-6.5,-988.0,-322.5,4.5,5.0
06:54:27,200.0,RTL,0.011648957937723026,0.007084313780069351,2.5691298842430115,0.24988146498799324,0.0005322251818142831,0.0019783201278187335,-35.363517825,149.16544292499998,31329.0,-11.25,-22.5,3.0,1.25,0.5,-1006.5,252.0,2.5,2.5
06:54:28,200.0,RTL,0.010821363888680935,0.005457770777866244,2.5691721439361572,0.20542671531438828,-0.0004598936066031456,0.0006391103961504996,-35.3635182,149.1654422,31518.5,-6.0,-15.5,-42.5,0.0,2.0,-1047.5,208.0,2.0,1.5
06:54:30,200.0,RTL,-0.000975368544459343,0.006347708869725466,2.5688339471817017,-0.4988356828689575,-0.002316281432285905,0.002805208438076079,-35.3635185,149.16544165,32526.5,-2.0,-10.0,-18.0,0.5,-22.0,-947.5,-496.0,0.0,3.5
06:54:31,151877.0,RTL,0.002593988989247009,0.0051209923112764955,2.568650543689728,0.12836819887161255,-0.0007228023023344576,0.0007548915164079517,-35.3635186,149.16544132500002,32576.25,-2.0,-8.5,1.0,0.75,4.25,-983.75,130.75,1.5,1.5
06:54:32,151877.0,RTL,0.006992414593696594,0.004249259829521179,2.569054126739502,0.467746265232563,0.004287296673282981,0.004192657885141671,-35.3635187,149.1654409,32537.0,0.0,-4.5,-1.0,0.0,12.0,-1025.5,470.0,6.5,5.0
06:54:34,151877.0,RTL,0.004879699205048382,0.005473863799124956,2.567764163017273,0.10124160349369049,0.003161694621667266,0.001378761837258935,-35.3635187,149.1654409,33333.5,0.0,-2.5,-61.0,0.0,-1.5,-987.0,104.0,5.0,2.0
06:54:35,5308.0,RTL,0.0004044072120450437,0.006137673859484494,2.5677186846733093,-0.04512830078601837,0.001216008182382211,0.0028304418083280325,-35.363518775,149.1654409,33704.0,0.25,-3.0,-32.75,0.25,-4.0,-951.75,-42.25,3.25,3.5
06:54:36,5308.0,RTL,0.0015116741851670668,0.005106415133923292,2.567641019821167,0.6555176079273224,3.391713835299015e-05,0.00016339949797838926,-35.3635189,149.16544065,33842.5,0.5,-2.5,3.5,0.5,33.5,-993.0,658.5,2.0,1.0
06:54:38,5308.0,RTL,-0.0040795160457491875,0.004476433387026191,2.5676358938217163,-0.1285569965839386,0.0029080385575070977,-0.0011138313566334546,-35.36351895,149.1654405,33995.0,2.0,0.0,-42.5,0.5,-1.0,-1045.0,-125.5,5.0,0.0
06:54:39,80867.0,RTL,-0.003183199733030051,0.005013271467760205,2.567033529281616,0.06441839039325714,0.0008173101232387125,0.0014907645527273417,-35.363519024999995,149.165440375,34419.5,2.0,0.25,-62.75,0.5,-0.75,-1008.75,67.25,2.75,2.5
06:54:40,80867.0,RTL,-0.004427300067618489,0.005492261610925198,2.567826271057129,0.3027448505163193,-0.0009289977024309337,0.002973092603497207,-35.3635192,149.16544005,35088.5,4.5,3.5,-27.0,0.0,8.0,-949.0,305.0,1.5,4.0
06:54:42,80867.0,RTL,-0.015316445380449295,0.004088945221155882,2.567549228668213,-0.3689075615257025,-0.005550506059080362,-0.0006116499425843358,-35.3635193,149.1654397,35132.5,6.0,6.5,0.5,0.0,-8.0,-1010.5,-365.5,-2.5,0.5
06:54:43,200.0,RTL,-0.005262234291876666,0.004297995124943554,2.567771852016449,0.07888047024607658,0.002220917958766222,-0.0008280873444164172,-35.3635193,149.1654397,35238.25,6.5,7.5,-28.5,0.0,2.25,-1047.0,81.5,4.25,0.5
06:54:44,200.0,RTL,-0.008907882729545236,0.004989292472600937,2.5666580200195312,0.017120361328125,0.007012292742729187,0.0028198216459713876,-35.3635193,149.1654397,35882.5,6.0,7.0,-62.5,0.0,3.5,-991.0,20.0,9.5,3.5
06:54:46,200.0,RTL,-0.014754410833120346,0.004335651872679591,2.567280411720276,0.12256170809268951,0.001957342028617859,0.0011963144643232226,-35.3635196,149.1654393,36460.0,9.0,9.5,3.0,0.0,15.0,-997.5,126.0,4.0,2.0
06:54:47,203235.0,RTL,-0.011676048045046628,0.0038523078546859324,2.567129671573639,-0.12333582527935505,-0.001192326919408515,-0.000605735694989562,-35.363519624999995,149.16543922500003,36427.25,9.75,10.75,3.5,0.0,-7.25,-1011.75,-121.0,1.0,1.0
06:54:48,203235.0,RTL,-0.007660913513973355,0.0020766251254826784,2.5677173137664795,-0.23047462850809097,-0.002555578073952347,-0.0010084222594741732,-35.36351945,149.1654395,36576.0,9.5,10.5,-37.5,-1.0,-8.0,-1046.0,-228.5,0.5,0.0
06:54:50,203235.0,RTL,0.0011005190899595618,0.004294805461540818,2.5670214891433716,-0.15528737008571625,-0.002758659888058901,0.0010236046509817243,-35.36351875,149.16544095,37582.0,1.5,0.5,-21.0,-1.0,4.0,-954.5,-152.5,0.0,2.0
06:54:51,10765.0,RTL,0.006261727889068425,0.0030505064059980214,2.5677326321601868,-0.09376220032572746,0.0006181803764775395,0.0006398131808964536,-35.363518549999995,149.165441275,37649.0,0.75,-1.5,0.25,-0.5,-9.25,-978.75,-92.0,2.75,2.0
06:54:52,10765.0,RTL,0.01886104792356491,0.0031015005661174655,2.5670238733291626,0.16681955754756927,0.004186464357189834,0.0002932580537162721,-35.3635182,149.1654418,37610.0,-1.5,-6.0,2.0,0.0,-5.5,-1016.0,168.5,6.5,1.5
06:54:54,10765.0,RTL,0.011883365456014872,0.0045633160043507814,2.56668484210968,0.09788701683282852,0.0011864930856972933,0.0007166865398176014,-35.363518150000004,149.1654422,38322.0,-4.0,-11.0,-58.5,-1.0,5.0,-991.5,100.0,4.0,1.5
06:54:55,67572.0,RTL,0.012637740350328386,0.005007988424040377,2.5666438341140747,-0.07877348363399506,-0.00025610788725316525,0.0036741626099683344,-35.3635181,149.16544234999998,38682.75,-4.25,-12.0,-31.5,0.0,-5.75,-949.75,-76.5,2.5,5.0
06:54:56,67572.0,RTL,0.018447590991854668,0.004029408097267151,2.5671111345291138,0.5749954730272293,0.001680720946751535,0.00030649243853986263,-35.363518,149.1654425,38819.5,-6.0,-14.0,4.0,1.0,17.0,-997.0,577.5,4.5,1.5
06:54:58,67572.0,RTL,0.007495712721720338,0.004787402460351586,2.566940665245056,-0.06287971138954163,0.0027898215921595693,0.0006618862389586866,-35.36351795,149.16544234999998,38981.0,-7.5,-15.0,-42.5,0.0,1.0,-1044.5,-59.5,5.5,1.5
06:54:59,200.0,RTL,0.005214597447775304,0.00570162117946893,2.566357731819153,0.062082286924123764,0.0015351242618635297,0.0011102805729024112,-35.36351815,149.16544199999998,39397.25,-6.75,-13.0,-59.0,0.25,-2.0,-1002.0,65.0,4.0,2.25
06:55:00,200.0,RTL,0.0011167582706548274,0.006741044344380498,2.5668669939041138,0.512057900428772,-0.0014266168582253158,0.0017865223344415426,-35.36351865,149.16544125000001,39979.0,-2.5,-8.5,-18.0,1.0,21.5,-947.0,515.0,1.0,3.0
06:55:02,200.0,RTL,-0.0020594687666743994,0.004108732100576162,2.566997766494751,-0.4233514219522476,-0.0022817724384367466,0.0028757168911397457,-35.3635188,149.1654407,39982.0,1.0,-2.0,-3.0,0.0,-28.0,-1027.5,-421.0,0.5,4.5
06:55:03,300000.0,RTL,-0.000692366244038567,0.004056651145219803,2.5673916339874268,0.09367345733335242,-0.0005850933957844973,-0.000557556952117011,-35.363518875000004,149.165440625,40140.0,0.75,-0.75,-36.25,0.0,4.5,-1046.25,97.0,1.75,1.25
06:55:04,300000.0,RTL,-0.005320623749867082,0.005624949233606458,2.566309094429016,-0.08708113431930542,0.0033829170279204845,0.00016810314264148474,-35.363519,149.1654405,40831.0,1.0,0.0,-60.0,0.0,0.5,-981.0,-84.0,6.0,1.5
06:55:06,300000.0,RTL,-0.011432910803705454,0.0035793244605883956,2.566721796989441,-0.37411993741989136,-1.841795165091753e-05,-6.887991912662983e-05,-35.3635191,149.1654401,41286.5,4.0,2.0,3.5,0.0,-2.5,-994.0,-370.0,2.5,1.5
06:55:07,169842.0,RTL,-0.0020398320048116148,0.003352691128384322,2.5670326948165894,0.0855230987071991,0.00044701778097078204,0.0005244346393737942,-35.3635191,149.16544005,41251.75,4.0,3.25,1.25,-0.25,-2.0,-1019.75,88.0,3.0,1.75
06:55:08,169842.0,RTL,-0.0016965618124231696,0.003219784004613757,2.566719651222229,-0.08613411337137222,-0.0014268681406974792,-0.0011628690990619361,-35.363519,149.16544015,41477.5,4.0,3.0,-46.0,-0.5,-9.5,-1043.0,-83.5,1.5,0.5
06:55:10,169842.0,RTL,-9.413657244294882e-05,0.004539208486676216,2.5672004222869873,-0.01511526107788086,-0.00046544941142201424,-0.0004430589615367353,-35.3635188,149.1654408,42445.0,1.5,-0.5,-13.5,0.0,12.0,-948.5,-11.0,2.0,1.5
06:55:11,200.0,RTL,0.001960440364200622,0.0037218868383206427,2.566558599472046,-0.08967211470007896,0.0002975350944325328,0.00159492896636948,-35.3635187,149.165440975,42470.25,0.75,-1.0,2.5,0.25,-7.0,-993.75,-86.5,3.0,3.0
06:55:12,200.0,RTL,0.004831993515836075,0.0035430005518719554,2.567436456680298,-0.16930022090673447,0.0023343150969594717,0.00023000326473265886,-35.3635186,149.1654412,42430.5,0.0,-3.0,-4.5,-1.0,-20.0,-1022.5,-167.0,5.5,1.5
06:55:14,200.0,RTL,0.010298400651663542,0.004501091316342354,2.566596031188965,-0.179217672906816,0.0025644798297435045,-0.0010052401921711862,-35.3635182,149.16544205000002,43286.0,-2.5,-7.5,-57.0,-1.0,-7.5,-977.5,-175.5,5.0,0.5
06:55:15,200.0,RTL,0.01095671218354255,0.004328343202359974,2.5667330026626587,-0.11423816159367561,0.0010245390585623682,0.0017879017686937004,-35.363518075,149.1654422,43605.0,-4.25,-10.75,-25.25,-0.5,-1.25,-951.75,-111.0,4.0,3.25
06:55:16,200.0,RTL,0.006831871287431568,0.004299407824873924,2.566727876663208,-0.29170328937470913,-0.0006997723830863833,-0.0028071971610188484,-35.3635181,149.16544205000002,43689.0,-5.0,-11.0,4.5,0.5,-24.5,-996.5,-289.5,2.0,-0.5
06:55:18,200.0,RTL,0.005411139922216535,0.004344232147559524,2.566643714904785,0.2249821349978447,0.0016209539026021957,0.0006225699326023459,-35.3635183,149.1654416,43916.5,-3.0,-8.5,-48.0,0.0,8.0,-1040.5,228.5,4.5,2.0
06:55:19,134304.0,RTL,0.005569200089666992,0.005347145721316338,2.566145360469818,-0.03396104939747602,0.0005973901133984327,7.568631554022431e-05,-35.3635184,149.1654416,44348.25,-2.5,-8.25,-57.0,0.0,-4.5,-992.5,-30.25,3.5,1.75
06:55:20,134304.0,RTL,0.010344829875975847,0.005017574178054929,2.5669915676116943,0.36898918077349663,-0.00043636292684823275,0.0024403545539826155,-35.36351845,149.16544145,44861.0,-1.5,-6.5,-10.5,0.5,9.0,-957.5,372.0,2.0,4.0
06:55:22,134304.0,RTL,-0.0073955554980784655,0.00449723843485117,2.5667030811309814,-0.46081075072288513,-0.0025045674992725253,-0.0010755116818472743,-35.3635187,149.1654409,44844.5,0.0,-3.0,-3.5,0.0,-20.0,-1029.0,-457.0,1.0,0.5
06:55:23,80713.0,RTL,0.004242130780767184,0.004247336240950972,2.5666986107826233,0.07885318994522095,0.0004225362208671868,-4.850019467994571e-05,-35.3635187,149.1654409,45013.25,0.0,-2.75,-36.0,0.25,4.25,-1046.0,82.75,3.25,1.5
06:55:24,80713.0,RTL,-0.003088123514316976,0.005260406993329525,2.566210985183716,-0.10242226719856262,0.0008183122845366597,0.0013743918389081955,-35.3635187,149.1654409,45674.5,0.0,-3.0,-50.5,0.0,1.5,-972.0,-98.5,4.0,3.0
06:55:26,80713.0,RTL,-0.012539695482701063,0.0039282405050471425,2.5670254230499268,-0.6249801963567734,0.002164155710488558,-0.0007658761460334063,-35.363519,149.1654402,45990.0,2.0,1.5,6.0,1.5,-32.0,-997.0,-621.5,5.0,0.5
06:55:27,33316.0,RTL,-0.010976982302963734,0.005300683551467955,2.566821038722992,0.16468091309070587,0.003505383210722357,0.001462917251046747,-35.363519175,149.16543975000002,45965.75,3.0,3.5,-0.5,1.5,8.25,-1019.25,168.25,6.5,3.0
06:55:28,33316.0,RTL,-0.015698449686169624,0.005816609365865588,2.5666338205337524,0.21955673396587372,0.001980012748390436,0.0014615296386182308,-35.363519749999995,149.16543885,46259.0,7.5,10.0,-49.0,1.0,5.5,-1036.5,222.5,4.5,3.5
06:55:30,33316.0,RTL,-0.010449792724102736,0.003134103608317673,2.5669260025024414,-0.20772100985050201,-0.004521890543401241,0.0008606797200627625,-35.36351985,149.16543865,47103.5,13.5,17.0,-5.5,-0.5,-17.5,-973.0,-205.5,-0.5,2.5
06:55:31,72069.0,RTL,-0.0033810477470979095,0.0015359153330791742,2.567092776298523,0.24198166280984879,-0.00012151949340477586,-0.0015508587239310145,-35.36351955,149.165439125,47102.0,11.0,14.0,3.75,-0.25,17.5,-994.75,245.0,3.25,0.5
06:55:32,72069.0,RTL,0.005058498703874648,0.0027339879889041185,2.567103147506714,0.33447646349668503,0.0032345696818083525,-1.902529038488865e-05,-35.363519049999994,149.1654401,47086.5,6.5,8.0,-12.0,-0.5,27.0,-1039.0,337.5,6.0,2.0
06:55:34,72069.0,RTL,-0.0015998564776964486,0.005854752846062183,2.5661003589630127,0.08814526349306107,0.0030626257648691535,0.003147780545987189,-35.363519,149.1654405,48042.5,3.5,2.5,-49.5,0.0,-5.5,-960.5,90.5,6.0,5.0
06:55:35,200.0,RTL,-0.004070747527293861,0.005476594087667763,2.566728353500366,0.09556985646486282,-0.0016310572973452508,0.001492714451160282,-35.36351907499999,149.1654404,48281.5,4.25,2.25,-15.25,0.0,2.75,-962.0,98.25,1.75,3.25
06:55:36,200.0,RTL,-0.00026913988403975964,0.0032501317327842116,2.5665453672409058,0.4363633617758751,0.00021730270236730576,0.0002146153710782528,-35.3635191,149.1654403,48303.0,4.0,2.0,4.5,0.0,31.5,-996.0,439.5,3.5,2.0
06:55:38,200.0,RTL,0.011096864007413387,0.0010882753122132272,2.566273331642151,-0.14524932950735092,0.0010181841207668185,-0.0013991612941026688,-35.36351825,149.16544155,48668.5,0.5,-2.0,-55.5,-2.5,-2.0,-1027.0,-142.5,4.5,1.0
06:55:39,300000.0,RTL,0.019535147352144122,0.002479916933225468,2.5660746693611145,0.08248054049909115,0.002502594783436507,0.0018846880993805826,-35.363517925,149.165442225,49120.25,-3.0,-7.5,-55.25,-1.75,4.5,-977.25,85.25,5.5,3.75
06:55:40,300000.0,RTL,0.0181532702408731,0.004841963294893503,2.566762924194336,0.2663299888372421,0.001306002028286457,-0.0011650261003524065,-35.3635176,149.1654429,49541.0,-8.5,-16.0,-4.0,0.0,27.0,-972.0,271.0,4.5,1.0
06:55:42,300000.0,RTL,0.006789672886952758,0.0034845179179683328,2.567297577857971,-0.3944978788495064,-0.0034931014524772763,0.0012513913679867983,-35.3635177,149.1654427,49520.5,-8.5,-16.5,-10.0,0.0,-14.0,-1039.0,-390.5,0.0,3.5
06:55:43,200.0,RTL,0.01182824675925076,0.004371987539343536,2.566468119621277,0.09928230941295624,0.0037816475960426033,0.00046296563232317567,-35.3635178,149.1654425,49746.5,-9.0,-16.25,-43.75,0.0,2.0,-1038.75,102.5,7.0,2.25
06:55:44,200.0,RTL,0.005960280541330576,0.006347436690703034,2.5665793418884277,0.09879220277070999,0.004085861495696008,0.0030556286219507456,-35.363518150000004,149.16544215,50456.0,-6.5,-14.0,-51.0,0.0,9.5,-965.5,103.0,7.0,5.0
06:55:46,200.0,RTL,-0.01159772602841258,0.005906217033043504,2.5668846368789673,-0.5000628083944321,-0.002717734663747251,0.0002733442233875394,-35.3635188,149.16544084999998,50741.5,-1.5,-6.5,4.5,3.0,-22.5,-997.0,-495.5,0.5,2.0
06:55:47,200.0,RTL,-0.010184464044868946,0.006743861711584032,2.5668686032295227,0.173781618475914,-0.0022687147720716894,0.0005794866301584989,-35.363519175,149.165440125,50725.75,0.75,-2.0,-4.0,1.0,3.25,-1030.25,177.5,1.25,2.5
06:55:48,200.0,RTL,-0.009790478507056832,0.004349744180217385,2.5667266845703125,0.01975085586309433,-0.003144359798170626,0.00016357621643692255,-35.3635196,149.1654393,51075.5,7.0,6.5,-54.5,0.0,-3.0,-1031.5,23.0,1.0,2.5
06:55:50,200.0,RTL,-0.006878130232507829,0.004053788841702044,2.5668416023254395,-0.23090898245573044,-0.0021540768211707473,0.00044236716348677874,-35.363519350000004,149.1654397,51975.0,7.0,8.0,-6.0,1.0,-21.0,-968.5,-228.5,1.5,2.5
06:55:51,53536.0,RTL,-0.0037427187198773026,0.0029907842399552464,2.5669566988945007,0.2893175408244133,0.00097800005460158,0.0006395077798515558,-35.363519249999996,149.1654397,51978.25,6.25,7.0,3.75,0.25,16.5,-998.0,293.0,4.25,2.5
06:55:52,53536.0,RTL,-0.00940500944852829,0.003079756861552596,2.5668458938598633,0.13065305352210999,-0.00016675901133567095,0.0003032278036698699,-35.3635192,149.16543965,51959.5,5.0,6.0,-10.5,0.0,17.5,-1035.5,134.5,3.0,2.5
06:55:54,53536.0,RTL,-0.0018902095034718513,0.005039671901613474,2.566385269165039,0.24317093193531036,0.002639169804751873,0.001656754408031702,-35.3635192,149.16543995,52874.5,5.0,6.0,-48.0,0.0,10.5,-964.0,246.0,6.0,3.5
06:55:55,9290.0,RTL,-0.006735734699759632,0.005190778989344835,2.5670289993286133,-0.11802893877029419,-0.00028174323961138725,-0.00143595872214064,-35.3635192,149.16544,53104.25,4.75,5.25,-13.5,0.25,-2.0,-959.5,-114.25,3.0,1.0
06:55:56,9290.0,RTL,-0.009826179593801498,0.003681185655295849,2.567363739013672,-0.5785068869590759,-0.0059372796677052975,-0.0010227396269328892,-35.3635192,149.16543995,53124.5,6.0,5.5,4.0,-0.5,-26.5,-1010.0,-575.5,-1.5,1.0
06:55:58,9290.0,RTL,0.010096038691699505,0.0036238902248442173,2.566454291343689,0.08918462693691254,0.0023602095898240805,-0.0008927814778871834,-35.363518549999995,149.1654413,53514.0,0.5,-1.5,-56.5,0.0,3.5,-1025.5,92.0,5.5,1.0
06:55:59,300000.0,RTL,0.005143874790519476,0.005793370772153139,2.566381871700287,-0.058605849742889404,0.0021453018998727202,5.707619129680097e-05,-35.3635185,149.165441475,53962.0,0.0,-4.0,-53.0,-0.25,-1.5,-974.75,-55.5,5.75,2.5
06:56:00,300000.0,RTL,0.014298427384346724,0.004293818026781082,2.5669984817504883,0.19243479520082474,-0.0018460501451045275,0.00318403379060328,-35.36351845,149.16544175,54355.0,0.0,-6.0,-4.0,0.0,-4.5,-969.5,195.0,2.0,5.0
06:56:02,300000.0,RTL,-0.008901840075850487,0.0052077381405979395,2.5666509866714478,-0.2351623997092247,-0.0009283868130296469,0.0011827570851892233,-35.3635186,149.16544115,54337.5,-1.5,-6.5,-15.0,0.5,-3.0,-1044.0,-231.5,2.5,3.5
06:56:03,300000.0,RTL,-0.0012177771423012018,0.00485318957362324,2.566783845424652,0.02725412487052381,-0.00040429155342280865,0.0011217509745620191,-35.363518725,149.16544095,54597.5,0.0,-3.75,-47.0,0.25,-1.5,-1034.0,30.5,3.5,3.5
06:56:04,300000.0,RTL,-0.007541152648627758,0.005633584689348936,2.566436290740967,-0.040750518441200256,-0.0007638433016836643,0.001978621003217995,-35.36351895,149.16544055,55283.0,1.0,-1.0,-43.5,1.0,2.0,-955.5,-37.0,2.5,4.0
06:56:06,300000.0,RTL,-0.01020760927349329,0.004219836322590709,2.5665968656539917,-0.40624308958649635,-0.0051668083760887384,0.001031556399539113,-35.363519249999996,149.1654397,55470.5,6.0,6.0,5.0,0.5,-33.5,-988.0,-403.5,-0.5,3.5
06:56:07,192201.0,RTL,-0.00908024440286681,0.004019737360067666,2.566923141479492,0.07585710659623146,0.0007360171293839812,0.0012590581027325243,-35.3635194,149.165439475,55473.5,6.5,7.0,-8.5,0.5,7.0,-1031.75,78.75,4.25,3.25
06:56:08,192201.0,RTL,-0.010645510163158178,0.003294954542070627,2.5665324926376343,-0.11255711130797863,-0.0021011705975979567,0.0008658532751724124,-35.3635195,149.1654393,55907.5,8.0,10.0,-58.0,0.0,-9.0,-1018.0,-110.0,1.5,3.5
06:56:10,192201.0,RTL,-0.009935695212334394,0.0021836039959453046,2.5674073696136475,-0.3810109868645668,-0.00325823319144547,0.0008032443001866341,-35.36351915,149.1654399,56679.5,6.5,7.5,-2.0,-1.5,-6.5,-976.0,-378.0,1.0,3.0
06:56:11,174194.0,RTL,0.006167945452034473,0.0010127143177669495,2.5674750208854675,0.16433720290660858,-1.2676813639700413e-05,-0.0005963309668004513,-35.363518850000006,149.16544034999998,56657.25,4.75,4.0,4.75,-1.75,2.0,-1001.75,166.75,3.5,1.5
06:56:12,174194.0,RTL,0.021726813167333603,0.0010038821201305836,2.5671833753585815,0.07450885325670242,0.0017452964093536139,0.00010566372657194734,-35.3635181,149.16544169999997,56702.0,0.0,-2.0,-24.0,-2.5,-4.0,-1042.0,77.0,5.5,2.5
06:56:14,174194.0,RTL,0.011681495234370232,0.005522881401702762,2.56637442111969,-0.3408888056874275,0.0030317401979118586,0.001811655587516725,-35.3635176,149.165443,57710.0,-9.0,-16.0,-36.5,-0.5,-18.0,-944.5,-337.5,7.0,4.5
06:56:15,240391.0,RTL,0.014218177879229188,0.0053328219801187515,2.5671494007110596,0.07703070063143969,-0.0004195951041765511,0.0015062596066854894,-35.3635177,149.16544290000002,57850.75,-8.75,-17.25,-5.5,0.5,3.0,-967.0,80.25,3.5,4.25
06:56:16,240391.0,RTL,0.01560142869129777,0.005048647755756974,2.5663583278656006,0.518416553735733,0.0008163707097992301,0.00036556809209287167,-35.3635179,149.16544245,57826.0,-8.5,-17.0,4.5,1.0,15.0,-998.5,521.0,4.5,3.0
06:56:18,240391.0,RTL,0.025344866327941418,0.001292769971769303,2.56659471988678,0.267584428191185,0.0031300894916057587,-3.601284697651863e-05,-35.3635174,149.1654431,58384.0,-9.5,-18.0,-61.0,-1.0,14.0,-1009.5,271.0,6.5,2.5
06:56:19,125444.0,RTL,0.029237451497465372,0.003042406984604895,2.5664031505584717,0.031209250912070274,0.002464748569764197,0.0010674274526536465,-35.36351715,149.1654437,58812.5,-12.5,-22.0,-46.5,-0.75,1.5,-963.0,35.5,6.0,3.5
06:56:20,125444.0,RTL,0.026583311147987843,0.004706122213974595,2.5668150186538696,0.4256233796477318,-0.0010060605127364397,-0.0005700858891941607,-35.36351705,149.16544395,59084.0,-17.0,-28.0,0.0,0.5,27.0,-990.0,430.5,2.5,1.5
06:56:22,125444.0,RTL,0.002846758463419974,0.006989410379901528,2.567017674446106,-0.3066171035170555,-0.0011516502127051353,0.0023644330794923007,-35.3635179,149.16544255,59121.5,-11.5,-21.0,-29.0,1.0,-21.0,-1050.0,-302.0,2.5,5.0
06:56:23,207863.0,RTL,0.0003512689108902123,0.00666960421949625,2.566604793071747,0.0011387458071112633,0.0014203203609213233,0.0015527841169387102,-35.363518275000004,149.165441875,59472.25,-8.0,-16.25,-58.25,1.0,0.0,-1026.0,6.0,5.0,4.25
06:56:24,207863.0,RTL,9.239022620022297e-05,0.006608812836930156,2.567055821418762,0.20184581354260445,-0.000833694008179009,0.0010994537733495235,-35.36351865,149.1654412,60216.0,-2.5,-8.5,-42.5,0.5,13.0,-950.0,207.0,3.0,3.5
06:56:26,207863.0,RTL,-0.0006448039785027504,0.0038621433777734637,2.567097544670105,-0.4556877538561821,-0.0017694260459393263,-0.00048037723172456026,-35.3635187,149.1654408,60369.0,0.0,-3.0,3.5,0.5,-29.0,-1007.5,-451.0,2.5,2.0
06:56:27,22182.0,RTL,-0.0030028485343791544,0.004558003740385175,2.5670936703681946,0.06482607871294022,0.002279990876559168,4.8054265789687634e-05,-35.363518775,149.165440575,60393.75,-0.25,-2.25,-14.25,0.5,1.0,-1038.0,70.25,6.0,2.75
06:56:28,22182.0,RTL,-0.008637391380034387,0.0054743350483477116,2.566572666168213,-0.050023019313812256,0.001477773068472743,0.0007337002316489816,-35.3635191,149.16544,60896.0,1.5,1.5,-63.0,0.5,-6.0,-1016.0,-45.5,5.5,3.5
06:56:30,22182.0,RTL,-0.011019520461559296,0.004267604323104024,2.567322611808777,-0.35161441937088966,-0.0003599452320486307,-0.00024541665334254503,-35.3635195,149.16543934999999,61695.0,8.0,8.0,-2.0,0.0,-27.0,-978.0,-347.0,3.5,2.5
06:56:31,200.0,RTL,-0.011913454800378531,0.004040120635181665,2.566956102848053,0.08037077076733112,0.003500926191918552,9.786937152966857e-05,-35.363519525,149.16543917500002,61675.5,7.5,9.5,3.75,0.5,4.75,-995.0,84.75,7.25,2.75
06:56:32,200.0,RTL,-0.017542508896440268,0.005641532363370061,2.567464828491211,0.3083236664533615,0.003831520676612854,0.0009000797290354967,-35.3635198,149.1654386,61712.0,9.5,13.5,-24.0,0.5,18.0,-1050.0,313.0,8.0,3.5
06:56:34,200.0,RTL,-0.005021744640544057,0.0031215851195156574,2.56679904460907,0.12861475348472595,5.984294693917036e-05,0.0011297680903226137,-35.363519749999995,149.1654389,62767.0,13.5,16.5,-44.0,-1.0,3.5,-952.5,132.0,4.0,3.5
06:56:35,300000.0,RTL,-0.00014817400369793177,0.0021587330556940287,2.5675939321517944,0.1009658444672823,-0.0012915180996060371,-0.0008644687186460942,-35.3635194,149.1654395,62952.5,11.5,12.75,-9.5,-1.25,7.5,-961.75,105.25,2.75,1.75
06:56:36,300000.0,RTL,0.009010383277200162,0.0019562277593649924,2.567672610282898,0.5461544245481491,0.0036228629760444164,-0.000993482768535614,-35.3635189,149.16544025000002,62940.5,4.5,5.5,4.5,-1.0,28.5,-1006.5,550.0,7.5,2.5
06:56:38,300000.0,RTL,0.004302919318433851,0.003283130470663309,2.5666325092315674,0.04715150594711304,0.0009172041900455952,-0.0003634075401350856,-35.36351865,149.16544095,63415.0,0.5,-0.5,-62.0,-1.0,6.0,-1024.5,51.5,5.0,2.5
06:56:39,10733.0,RTL,0.006604686350328848,0.004023874935228378,2.5664039254188538,0.027301026158966124,0.0024682076182216406,0.0018026527250185609,-35.3635185,149.1654413,63883.25,0.0,-2.25,-55.5,-0.5,0.25,-971.0,31.25,6.5,4.5
06:56:40,10733.0,RTL,0.014216301497071981,0.003231828799471259,2.567407965660095,0.6206502914428711,0.0020741575863212347,0.001355816435534507,-35.3635184,149.1654416,64275.0,-2.0,-6.0,-2.5,0.5,25.0,-980.0,624.5,6.0,4.0
06:56:42,10733.0,RTL,-0.00408101876382716,0.005092998733744025,2.5669901371002197,-0.33471184968948364,0.00038996292278170586,0.0002518777037039399,-35.3635185,149.16544115,64260.5,-2.0,-4.0,-15.5,1.0,-18.5,-1049.5,-330.5,4.0,3.0
06:56:43,247013.0,RTL,-0.007023954880423844,0.005209002527408302,2.566880226135254,0.025621937355026603,0.0002311712596565485,0.0002736156457103789,-35.363518750000004,149.1654406,64529.75,-0.75,-2.25,-49.0,1.25,-0.25,-1036.0,29.75,4.0,3.25
06:56:44,247013.0,RTL,-0.00951370713301003,0.006053201854228973,2.5668909549713135,0.20521451346576214,0.0013037867611274123,0.0007991601014509797,-35.3635192,149.16543995,65253.0,3.5,2.5,-47.5,0.0,10.0,-959.0,208.5,5.0,3.5
06:56:46,247013.0,RTL,-0.009465164504945278,0.0027689035050570965,2.5672264099121094,-0.5804296731948853,-0.002026199596002698,0.0012545582139864564,-35.363519,149.1654401,65481.0,5.0,5.5,4.5,0.0,-21.0,-998.0,-576.0,2.0,4.0
06:56:47,90027.0,RTL,0.0033207644592039287,0.0033122834283858538,2.5672974586486816,0.25990602374076843,0.0036866605514660478,0.0012142023188062012,-35.3635189,149.165440325,65474.5,3.25,2.5,-6.25,-1.0,10.5,-1036.75,264.0,7.75,4.0
06:56:48,90027.0,RTL,-0.0017531828489154577,0.004809716250747442,2.566831350326538,-0.12383829616010189,0.00011850660666823387,0.0005507887108251452,-35.3635189,149.1654405,65872.5,2.0,1.0,-55.5,0.0,-9.0,-1021.5,-120.0,4.5,3.5
06:56:50,90027.0,RTL,-0.013554404955357313,0.005143368616700172,2.5673184394836426,-0.5426658689975739,-0.00224788801278919,0.0002777860499918461,-35.3635191,149.1654404,66673.5,5.0,2.5,-1.0,0.5,-13.0,-965.5,-538.0,2.0,3.0
06:56:51,139117.0,RTL,-0.00044241640716791153,0.004171321634203196,2.5671521425247192,0.3589162901043892,-6.354827200993896e-05,0.000766908167861402,-35.3635191,149.165440225,66652.75,4.5,3.0,4.0,1.0,7.5,-1005.25,362.25,4.25,3.5
06:56:52,139117.0,RTL,-0.012434947304427624,0.006180491531267762,2.5670071840286255,0.24646968767046928,0.002748521976172924,0.003599851857870817,-35.36351955,149.16543925,66684.5,6.0,7.0,-22.0,1.5,-0.5,-1049.0,249.0,7.0,6.5
06:56:54,139117.0,RTL,-0.017247522249817848,0.0029422729276120663,2.566950798034668,-0.4191484749317169,-0.002525994088500738,-0.0009336548391729593,-35.3635198,149.1654386,67701.0,13.0,17.0,-45.0,-1.0,-19.0,-951.0,-416.0,2.0,2.0
06:56:55,82058.0,RTL,-0.003938663168810308,0.002221594884758815,2.5673797130584717,0.019729508087038994,-0.0003885882906615734,-0.0010550752631388605,-35.36351955,149.1654391,67873.5,12.25,15.0,-14.75,-0.75,-1.5,-956.5,22.5,3.75,2.0
06:56:56,82058.0,RTL,0.003926997538655996,0.0005248825085194161,2.5674559275309243,0.19266748428344727,0.0005660393896202246,-0.00034206189836064976,-35.363518899999995,149.16544006666666,67894.0,7.0,8.333333333333334,3.0,-2.0,18.0,-1008.6666666666666,196.0,4.666666666666667,2.6666666666666665
06:56:58,82058.0,RTL,0.01578686572611332,0.003729539690539241,2.566746234893799,0.2920060157775879,0.002657639794051647,-4.003872163593769e-05,-35.3635181,149.1654419,68385.0,-3.0,-6.0,-63.0,-1.0,11.0,-1024.0,295.0,7.0,3.0
06:56:59,300000.0,RTL,0.012732975417748094,0.005170943448320031,2.5667757987976074,-0.04346061125397682,0.0018818521639332175,0.0011744799558073282,-35.363518075,149.1654422,68787.25,-3.75,-8.75,-59.75,-0.5,-3.25,-979.25,-40.25,6.0,4.25
06:57:00,300000.0,RTL,0.00792514393106103,0.005488349823281169,2.5673773288726807,-0.3704482913017273,-0.004726412473246455,0.0010014512808993459,-35.363518,149.16544249999998,69196.5,-4.5,-12.0,-19.5,0.0,-16.5,-963.0,-367.0,0.0,3.5
06:57:02,300000.0,RTL,0.011839197715744376,0.005316555732861161,2.5672287940979004,0.10448859818279743,2.1924381144344807e-05,-0.0005056553054600954,-35.36351795,149.16544245,69237.5,-6.5,-14.5,-5.5,0.5,-2.0,-1036.5,107.0,4.5,2.5
06:57:03,201946.0,RTL,-0.00273200377705507,0.006621008040383458,2.5668948888778687,0.01756718009710312,0.0036992693785578012,0.0014562096330337226,-35.363518400000004,149.16544155000003,69456.25,-6.25,-12.25,-44.0,2.5,-3.5,-1040.25,21.25,8.0,4.75
06:57:04,201946.0,RTL,-0.010038306936621666,0.008125009946525097,2.5668846368789673,0.2738999277353287,-0.0016871867701411247,0.0015134310815483332,-35.363519100000005,149.1654403,70011.5,0.0,-3.5,-55.5,1.5,3.5,-987.0,276.5,2.5,5.0
06:57:06,201946.0,RTL,-0.004472576954867691,0.0024982629693113267,2.5677685737609863,-0.017865806818008423,-0.0003391376230865717,0.0007406264776363969,-35.363519350000004,149.16543955,70481.0,8.5,7.0,2.5,0.0,1.0,-999.0,-14.5,4.0,4.0
06:57:07,198325.0,RTL,0.0065259231778327376,0.0013276514073368162,2.5674968361854553,0.21146618202328682,0.0007362905889749527,0.0006574864382855594,-35.363518924999994,149.16544015,70456.5,5.5,4.75,-4.5,-1.25,13.0,-1030.5,214.75,5.0,4.0
06:57:08,198325.0,RTL,0.01122706662863493,0.0007992047758307308,2.5672630071640015,-0.20752433687448502,-0.0025845172349363565,-0.0012463489547371864,-35.36351835,149.16544125000001,70707.5,1.5,-0.5,-44.0,-3.0,-2.5,-1033.0,-203.0,1.5,2.0
06:57:10,198325.0,RTL,0.01336707512382418,0.005902570439502597,2.567298650741577,-0.1130957305431366,0.0003422219306230545,0.0005232366966083646,-35.3635177,149.1654429,71675.0,-8.0,-15.5,-20.0,0.5,0.0,-964.0,-109.0,5.0,3.5
06:57:11,200.0,RTL,0.010033905738964677,0.005371635430492461,2.5672332048416138,0.17968781664967537,-0.0019154599867761135,0.0011102260323241353,-35.363517875,149.16544265000002,71741.25,-8.25,-17.25,3.75,0.25,8.0,-999.5,183.75,3.0,4.0
06:57:12,200.0,RTL,0.005434001563116908,0.004281031200662255,2.5679733753204346,-0.11885064840316772,-0.004159592557698488,0.0003186234971508384,-35.36351795,149.1654423,71719.5,-7.0,-15.0,-2.5,0.5,-5.0,-1019.0,-115.0,1.0,3.5
06:57:14,200.0,RTL,0.00962632242590189,0.004144373233430088,2.567023515701294,-0.0503104105591774,-0.002550083212554455,0.00046320934779942036,-35.3635181,149.165442,72441.5,-5.5,-11.5,-55.5,0.0,-11.5,-987.0,-46.0,2.5,3.5
06:57:15,195724.0,RTL,0.008071029034908861,0.005086684366688132,2.5676559805870056,0.10984641313552856,0.0012057656422257423,0.0029955381178297102,-35.363518125,149.16544190000002,72889.0,-5.0,-10.75,-21.5,0.75,4.0,-953.25,114.0,5.5,6.25
06:57:16,195724.0,RTL,-0.0004542438546195626,0.006025247275829315,2.567651867866516,-0.046034932136535645,-0.0017682579346001148,0.001996180391870439,-35.36351835,149.16544145,72955.0,-4.0,-9.0,2.5,2.0,-2.5,-992.5,-41.0,3.0,5.0
06:57:18,195724.0,RTL,-0.005535402684472501,0.003778891870751977,2.5675337314605713,0.15263807028532028,-0.0023416574113070965,0.000898443628102541,-35.363519,149.1654401,73146.0,2.0,0.5,-40.5,0.0,11.5,-1039.0,157.5,2.0,4.5
06:57:19,104010.0,RTL,-0.002783765814456274,0.0037862350000068545,2.567095935344696,0.0788549748249352,0.0007356478599831462,0.00019258150132372975,-35.363519075,149.16544005,73686.75,3.0,2.25,-57.5,0.0,3.75,-987.5,83.25,5.25,3.5
06:57:20,104010.0,RTL,0.002435233793221414,0.003640787093900144,2.5674831867218018,0.3380604758858681,0.0015757624059915543,0.0005883872509002686,-35.36351895,149.16544025000002,74107.0,3.0,2.0,-21.5,-0.5,18.0,-956.0,342.0,6.0,4.0
06:57:22,104010.0,RTL,-0.0033134802943095565,0.003558910684660077,2.567432999610901,-0.07868663873523474,0.0012865506578236818,0.0033881483832374215,-35.36351875,149.16544034999998,74158.5,0.0,0.5,-3.0,0.5,-0.5,-1000.0,-74.0,6.0,7.0
06:57:23,58867.0,RTL,-0.008534319698810577,0.004345708643086255,2.5674875378608704,-0.04694109328556806,-0.0006070889648981392,0.0002762271324172616,-35.36351895,149.165440025,74348.75,1.25,2.0,-40.75,0.5,-2.5,-1041.0,-42.5,4.0,3.5
06:57:24,58867.0,RTL,-0.013304353691637516,0.004495518049225211,2.5670478343963623,-0.3190877437591553,-0.0018368420423939824,0.0009856878314167261,-35.36351915,149.16543975000002,74885.0,4.0,5.0,-54.0,0.0,-14.0,-987.0,-314.0,3.0,4.0
06:57:26,58867.0,RTL,-0.00745122620719485,0.0031855428824201226,2.567524552345276,-0.036148801445961,0.0019577203784137964,-0.00044418114703148603,-35.3635191,149.16543984999998,75359.5,5.0,5.5,2.0,-0.5,0.5,-987.0,-32.0,6.5,3.0
06:57:27,288722.0,RTL,-0.010165561339817941,0.003913716995157301,2.567356586456299,-0.1659402120858431,0.0020859186188317835,0.00012058287393301725,-35.36351915,149.16543975,75331.5,4.25,6.25,-2.75,0.25,-6.75,-1025.75,-161.75,6.75,3.5
06:57:28,288722.0,RTL,-0.011589393485337496,0.0051420077215880156,2.56733238697052,0.2433275729417801,-0.0009134188294410706,-0.0010118994396179914,-35.3635194,149.1654393,75565.0,6.0,8.5,-42.5,0.5,6.0,-1042.5,246.5,3.5,2.5
06:57:30,288722.0,RTL,-0.010633361875079572,0.0035896432818844914,2.567461371421814,0.03932666778564453,-0.0036610764218494296,0.0016018834430724382,-35.3635197,149.16543885,76536.5,11.0,14.0,-21.5,0.5,-9.5,-954.5,42.0,1.0,5.0
06:57:31,200.0,RTL,-0.010671442258171737,0.00041776827492867596,2.5682013034820557,-0.18847881257534027,-0.00015790434554219246,0.0017817867919802666,-35.36351945,149.16543905,76609.75,9.75,13.25,3.0,-0.75,-5.5,-990.0,-184.75,4.5,5.5
06:57:32,200.0,RTL,-0.0024184914072975516,-0.0004088449204573408,2.5679514408111572,0.1400076448917389,-0.004440969321876764,-0.0017834429163485765,-35.36351905,149.1654395,76591.0,6.5,11.0,-5.0,-2.0,10.5,-1022.5,143.5,0.0,1.5
06:57:34,200.0,RTL,0.0071182227693498135,0.002187925099860877,2.5671350955963135,0.12215027585625648,0.005216635763645172,-0.0016601942479610443,-35.363518299999996,149.165441,77373.0,-1.0,1.0,-58.0,-0.5,14.0,-988.0,126.0,9.5,1.5
06:57:35,253173.0,RTL,0.0031475697178393602,0.004062045947648585,2.567556142807007,-0.04837504541501403,0.0001859334297478199,0.001450450043193996,-35.363518250000006,149.16544125000001,77828.75,-2.25,-2.75,-22.0,0.0,-3.75,-952.0,-44.75,4.75,4.75
06:57:36,253173.0,RTL,-0.001967498566955328,0.0032958053052425385,2.5678727626800537,0.009313225746154785,-0.000945095787756145,-0.0007305189501494169,-35.36351835,149.1654411,77900.0,-2.5,-3.0,3.0,0.0,9.0,-990.0,13.0,3.5,2.5
06:57:38,253173.0,RTL,-0.004520920745562762,0.0036581624299287796,2.5676454305648804,-0.18752171099185944,-0.0025944445515051484,-0.0011630052467808127,-35.3635186,149.16544055,78062.5,-1.0,-0.5,-38.5,0.5,-11.5,-1041.5,-184.5,2.5,2.5
06:57:39,200.0,RTL,-0.0051261119660921395,0.0032453578314743936,2.567292332649231,-0.06302456045523286,-0.0023443595855496824,0.0009770144242793322,-35.363518750000004,149.165440325,78596.75,0.25,1.25,-59.0,0.0,-3.75,-989.75,-59.5,2.75,4.5
06:57:40,200.0,RTL,-0.008115246426314116,0.0030034217052161694,2.5677120685577393,-0.3970140740275383,-0.0006380570121109486,-0.0011966967722401023,-35.3635188,149.16544025000002,79041.5,1.5,2.5,-25.0,0.0,-17.0,-960.0,-393.5,4.0,2.0
06:57:42,200.0,RTL,-0.003416631725485786,0.002521765767596662,2.567843437194824,-0.07036535441875458,0.0029557584784924984,-0.0003071748651564121,-35.36351875,149.1654402,79103.5,0.5,2.5,-2.5,0.5,-3.0,-1021.5,-67.0,8.0,3.0
06:57:43,300000.0,RTL,-0.006354437860863982,0.0033998811850324273,2.5675272345542908,0.00160294771194458,-0.0009144804207608104,0.0004550964804366231,-35.363518825,149.16544005,79271.75,1.0,3.75,-38.0,0.25,-2.25,-1043.0,5.0,3.25,3.75
06:57:44,300000.0,RTL,-0.007972551742568612,0.0037890401436015964,2.5671486854553223,0.2174244225025177,0.0025315299862995744,0.0009813890792429447,-35.3635191,149.1654396,79808.0,2.5,6.0,-56.5,0.0,-1.0,-989.0,220.0,7.0,4.5
06:57:46,300000.0,RTL,-0.012132497504353523,0.0019134021131321788,2.568357825279236,-0.15520630031824112,-0.004001482622697949,0.0026913266628980637,-35.3635193,149.16543915,80348.0,7.0,11.5,2.5,0.0,-3.5,-983.0,-152.0,0.5,6.5
06:57:47,300000.0,RTL,-0.003732865792699158,0.00202758377417922,2.567644417285919,0.18417317606508732,0.0038726001512259245,0.0023978675017133355,-35.363519225,149.165439275,80317.75,5.75,10.75,-0.75,0.25,3.25,-1024.5,186.25,8.25,6.0
06:57:48,300000.0,RTL,-0.01776183769106865,0.0021756967762485147,2.5676252841949463,-0.30223290622234344,0.0006274329498410225,-0.0012239953503012657,-35.3635193,149.16543910000001,80521.0,6.0,12.0,-37.5,0.0,-8.5,-1041.0,-299.0,5.0,2.5
06:57:50,300000.0,RTL,-0.007214476936496794,0.001254867936950177,2.567847967147827,-0.10624365508556366,-0.0032074934570118785,0.00012925220653414726,-35.3635191,149.16543955,81420.0,5.5,10.0,-18.5,-1.5,1.0,-963.0,-103.5,1.5,4.0
06:57:51,200.0,RTL,0.009126752789597958,-0.0005704282430087915,2.568274676799774,0.24711082130670547,-0.00010892911814153194,-0.0011629986111074686,-35.3635186,149.16544025,81480.0,3.25,6.75,4.0,-1.75,11.25,-993.5,249.25,4.5,2.5
06:57:52,200.0,RTL,0.010212767403572798,-0.0001719889187370427,2.568152070045471,-0.05106073617935181,-0.00029254681430757046,-0.002655026037245989,-35.3635181,149.16544115,81462.5,-1.0,1.0,-5.0,-1.0,2.0,-1025.0,-48.5,4.5,1.0
06:57:54,200.0,RTL,0.01042088819667697,0.0029126182198524475,2.5675772428512573,-0.2564719617366791,-0.0010708242189139128,0.00014803721569478512,-35.3635177,149.16544215,82231.5,-7.5,-9.0,-51.0,0.0,-17.0,-975.5,-254.0,3.5,3.5
06:57:55,225204.0,RTL,0.0104545415379107,0.0029410362476482987,2.5678483843803406,0.10975039470940828,-0.0009362230193801224,0.0010073474841192365,-35.363517775,149.1654422,82602.0,-8.0,-11.5,-13.0,0.0,8.25,-963.0,112.25,3.75,4.5
06:57:56,225204.0,RTL,0.01550828805193305,0.0009454869505134411,2.5680840015411377,0.10172520577907562,-0.004694901406764984,-0.0016691489145159721,-35.3635176,149.1654423,82628.0,-8.5,-12.0,4.0,0.0,0.5,-988.0,104.5,0.5,1.5
06:57:58,225204.0,RTL,0.025087766349315643,0.0009808895119931549,2.5675971508026123,0.12241806089878082,0.004115050658583641,-0.0013638708041980863,-35.36351705,149.16544335,82895.5,-14.0,-19.5,-45.0,-1.0,12.0,-1029.0,126.5,9.0,2.0
06:57:59,172874.0,RTL,0.029791928362101316,0.0029724345076829195,2.567113697528839,0.07211975194513798,0.0020973588107153773,-0.00017571065109223127,-35.363516749999995,149.1654441,83440.75,-16.75,-24.75,-51.5,-0.75,5.75,-973.25,76.0,6.5,3.25
06:58:00,172874.0,RTL,0.029551726765930653,0.004493138287216425,2.568130373954773,0.3199279308319092,0.0014403497334569693,0.0027957300189882517,-35.363516849999996,149.1654442,83765.5,-18.5,-29.0,-13.0,1.0,13.5,-961.5,323.5,6.0,6.5
06:58:02,172874.0,RTL,0.0011322219506837428,0.004887002753093839,2.5677549839019775,-0.050107747316360474,-0.002351501490920782,-0.0008979594567790627,-35.36351765,149.16544249999998,83799.0,-14.0,-21.0,-12.5,2.0,-7.0,-1027.0,-45.5,2.0,2.5
06:58:03,132355.0,RTL,-0.0021813610510434955,0.004218161222524941,2.567678391933441,-0.04043698310852051,0.0005212776595726609,-0.00019173620967194438,-35.363518125,149.165441475,84106.25,-9.25,-13.5,-51.75,1.75,-4.0,-1033.25,-36.0,5.0,3.5
06:58:04,132355.0,RTL,-0.009987663477659225,0.00425568176433444,2.567455530166626,-0.2556431144475937,-0.0028259068494662642,0.0012070583179593086,-35.3635185,149.16544069999998,84684.0,-4.0,-6.0,-50.0,0.5,-9.0,-968.5,-250.5,1.5,5.0
06:58:06,132355.0,RTL,-0.01094160694628954,0.001791168877389282,2.56789493560791,-0.10389713943004608,-0.0022649465827271342,0.0005598554853349924,-35.363518850000006,149.16543965,85031.5,0.0,3.0,4.0,1.5,3.5,-1017.5,-99.0,2.0,4.0
06:58:07,199811.0,RTL,-0.006890554192068521,0.001652762817684561,2.568317711353302,-0.015278713777661324,0.0008525301818735898,0.0018383730202913284,-35.363518925,149.165439425,85030.75,1.75,6.25,-10.25,0.0,-2.5,-1034.25,-11.25,5.25,5.5
06:58:08,199811.0,RTL,-0.0032342381309717894,0.0014417163329198956,2.567752718925476,0.22639993578195572,0.0011192266829311848,-0.0013465547235682607,-35.36351895,149.1654395,85360.0,2.5,7.5,-50.5,-0.5,17.0,-1032.0,230.5,5.5,2.0
06:58:10,199811.0,RTL,0.002448530663968995,0.001518729462986812,2.568273186683655,0.1955331712961197,-0.0030727419070899487,-1.7332960851490498e-05,-35.3635187,149.1654401,86293.5,1.5,4.5,-14.0,0.0,13.0,-967.0,199.5,1.0,3.5
06:58:11,98989.0,RTL,0.004443376092240214,0.0007693653315072879,2.5683165192604065,0.013420335948467255,-0.000948951521422714,0.0006955044809728861,-35.363518549999995,149.165440325,86326.25,0.0,3.0,4.25,0.0,-5.5,-991.25,17.25,3.75,4.25
06:58:12,98989.0,RTL,-0.0002178582362830639,0.0014480569516308606,2.568293809890747,0.009380251169204712,0.0021342099644243717,-0.0006689471192657948,-35.3635185,149.1654404,86327.0,-1.0,1.5,-9.0,0.0,1.5,-1029.0,13.5,6.5,2.5
06:58:14,98989.0,RTL,-0.017306413501501083,0.004789118189364672,2.5676493644714355,-0.3514791280031204,-0.0020319256000220776,0.001305252779275179,-35.36351905,149.1654396,87190.0,1.5,5.0,-52.0,0.5,-15.0,-972.5,-347.0,2.5,5.0
06:58:15,200.0,RTL,-0.013589395792223513,0.0031223250553011894,2.5680944323539734,0.02509835734963417,-0.002014912315644324,0.0005363476811908185,-35.3635193,149.1654392,87557.25,5.5,9.5,-12.75,0.25,0.25,-962.75,29.0,2.5,4.25
06:58:16,200.0,RTL,-0.009903281345032156,0.0009252408781321719,2.568109631538391,-0.14594559371471405,-0.006176430732011795,-0.0011143663432449102,-35.363519249999996,149.16543915,87574.0,6.5,11.0,4.0,0.0,-6.5,-989.5,-142.0,-1.0,2.5
06:58:18,200.0,RTL,0.00588479801081121,0.00037382310983957723,2.567832350730896,0.19464173913002014,-0.0018815083894878626,-0.001130210584960878,-35.3635187,149.16544,87852.5,2.5,7.5,-47.0,-0.5,7.5,-1036.0,197.5,2.0,2.5
06:58:19,185365.0,RTL,0.004719362361356616,0.00089160181414627,2.567558467388153,0.012664221227169037,0.0009675491601228714,-0.0007317123818211257,-35.363518425,149.165440475,88415.75,-0.25,3.25,-53.75,0.25,0.5,-972.5,16.25,5.0,2.75
06:58:20,185365.0,RTL,0.005602816119790077,0.00115213607205078,2.5680387020111084,0.02330029010772705,0.00027690548449754715,0.0015693885507062078,-35.36351825,149.1654408,88760.5,-2.0,1.0,-14.0,-1.5,-7.0,-964.5,26.5,4.5,5.0
06:58:22,185365.0,RTL,-0.0021421757992357016,0.001988665375392884,2.568352699279785,0.10222044587135315,-0.002970269648358226,0.0014247222570702434,-35.36351835,149.1654405,88789.0,-2.5,0.5,-9.0,0.5,2.5,-1029.5,106.0,1.0,5.0
06:58:23,52211.0,RTL,-0.007570165558718145,0.002624632674269378,2.5681234002113342,-0.050921236630529165,0.00018401793204247952,-0.0010059409542009234,-35.363518575,149.16544020000003,89058.0,-1.25,2.0,-48.5,0.0,0.25,-1036.0,-46.75,4.5,2.5
06:58:24,52211.0,RTL,-0.008525261422619224,0.0040166223188862205,2.5674599409103394,0.10727228131145239,0.003655973356217146,0.0014765826053917408,-35.3635188,149.16543995,89632.0,0.5,3.5,-52.5,0.0,10.0,-975.0,111.0,8.0,5.0
06:58:26,52211.0,RTL,-0.009099180111661553,0.0023427075357176363,2.568124771118164,0.0024841278791427612,-0.0007253722287714481,-0.0014493416529148817,-35.3635191,149.16543945,90033.5,4.0,8.0,4.0,0.5,0.5,-984.5,6.0,3.5,2.0
06:58:27,138772.0,RTL,-0.010562274313997477,0.0020698782172985375,2.5682321786880493,-0.028886519372463226,-0.0005057444795966148,-0.0006969424430280924,-35.3635191,149.165439325,90014.5,4.5,10.0,-5.75,0.25,-0.25,-1032.0,-25.25,3.25,2.75
06:58:28,138772.0,RTL,-0.009078945964574814,0.002700473298318684,2.5680837631225586,0.04033315181732178,-0.0017790556885302067,-0.0013173834886401892,-35.3635193,149.16543905,90293.5,5.5,11.5,-44.5,0.5,-7.5,-1028.0,43.0,2.5,2.0
06:58:30,138772.0,RTL,-0.003030072432011366,0.0011179472785443068,2.568255662918091,0.10952894389629364,-0.004681973252445459,-0.0006391226779669523,-35.36351915,149.1654393,91144.5,7.0,12.0,-11.5,-1.0,8.5,-966.5,112.5,0.0,2.5
06:58:31,230563.0,RTL,-0.0025256312219426036,-0.0001778853857103968,2.5684343576431274,-0.19473939016461372,0.0007511073490604758,-0.0020927575533278286,-35.363518750000004,149.165439875,91165.0,4.5,8.75,4.0,-1.0,-5.75,-998.0,-191.25,5.0,1.5
06:58:32,230563.0,RTL,0.01011572708375752,-0.00026478680956643075,2.5685406923294067,0.23857462778687477,0.001464588101953268,-0.0025799329159781337,-35.36351835,149.16544065,91175.0,0.5,3.5,-12.0,-1.0,13.5,-1032.5,242.0,6.0,1.0
06:58:34,230563.0,RTL,0.009731886442750692,0.002820352907292545,2.567582607269287,0.32246917486190796,-0.00031579798087477684,0.0002000987296923995,-35.36351795,149.16544155,92064.5,-5.5,-5.0,-52.5,0.0,10.0,-976.0,325.5,3.5,3.5
06:58:35,300000.0,RTL,0.0009006725740619004,0.0031595074688084424,2.568282902240753,-0.013026811182498932,-0.002184207201935351,-5.7922385167330503e-05,-35.363518150000004,149.16544125000001,92428.75,-5.0,-5.0,-12.0,0.0,1.25,-961.5,-9.25,1.5,3.25
06:58:36,300000.0,RTL,-0.0010799253359436989,0.0027102892054244876,2.568190574645996,-0.08133909106254578,-0.00018528569489717484,0.0005551987560465932,-35.36351835,149.1654409,92445.5,-3.5,-3.0,3.5,-0.5,-8.5,-996.5,-78.0,4.0,4.0
06:58:38,300000.0,RTL,0.010194085421971977,0.0006429619388654828,2.5680668354034424,-0.21621568291448057,-0.00306721031665802,-0.0011163633316755295,-35.3635181,149.16544134999998,92749.5,-3.0,-3.5,-47.0,-1.0,-10.0,-1025.0,-212.5,1.0,3.0
06:58:39,200.0,RTL,0.015790067613124847,0.0016044627700466663,2.56772118806839,-0.1069901417940855,0.0003662045346572995,-0.00041892530862241983,-35.363517725,149.1654421,93306.25,-6.25,-8.25,-50.5,-0.75,-3.5,-970.25,-103.25,4.0,2.75
06:58:40,200.0,RTL,0.013376975897699594,0.002364207641221583,2.568345785140991,-0.15997696667909622,-0.0012936701532453299,0.0009928200161084533,-35.3635175,149.16544249999998,93618.0,-8.5,-12.0,-11.5,0.0,-3.5,-970.0,-156.5,2.5,4.0
06:58:42,200.0,RTL,0.013124790508300066,0.0017811022698879242,2.568069100379944,0.09497807174921036,-0.00046550692059099674,-0.00025922147324308753,-35.3635175,149.1654423,93643.5,-11.0,-14.0,-11.5,1.0,-0.5,-1030.0,98.5,3.5,3.0
06:58:43,72850.0,RTL,0.008167529944330454,0.0020021843374706805,2.5675172805786133,0.02972821146249771,0.0006147868116386235,-0.00020786465029232204,-35.363517650000006,149.16544195,93944.25,-10.75,-13.0,-49.75,0.5,-1.0,-1030.5,33.75,4.75,3.0
06:58:44,72850.0,RTL,0.0041320923482999206,0.0035905622644349933,2.5677151679992676,0.04743658006191254,0.0011688381200656295,0.002332895644940436,-35.36351795,149.16544140000002,94498.0,-9.0,-9.0,-46.5,1.5,-9.5,-966.5,51.0,5.0,6.0
06:58:46,72850.0,RTL,-0.001087680459022522,0.001638152461964637,2.5685282945632935,0.09038878977298737,-3.353389911353588e-05,-0.000389296212233603,-35.3635184,149.1654405,94809.5,-2.5,-1.5,3.5,-0.5,3.5,-999.0,94.0,4.0,2.5
06:58:47,43500.0,RTL,0.004978239070624113,0.001127761323004961,2.568874418735504,0.15546155720949173,0.0012410582276061177,-0.0013182511902414262,-35.3635184,149.16544042499999,94814.75,-1.75,0.0,-12.0,-0.5,2.0,-1040.0,159.75,5.0,1.75
06:58:48,43500.0,RTL,0.0015462814480997622,0.001368722936604172,2.5680336952209473,-0.0871698409318924,-0.0007648724131286144,-0.0001475923345424235,-35.36351835,149.1654407,95168.5,-2.5,-0.5,-51.5,-0.5,4.5,-1023.0,-82.5,2.5,3.0
06:58:50,43500.0,RTL,0.005310080596245825,0.0013383268378674984,2.5685404539108276,0.09982214868068695,-0.0046034378465265036,0.001994602382183075,-35.3635181,149.1654412,96037.0,-4.5,-4.0,-9.5,0.0,7.5,-957.0,104.5,-0.5,5.5
06:58:51,254860.0,RTL,0.007216159661766142,0.0012436966644600034,2.568307340145111,0.08546864986419678,-0.00016055203741416335,0.00026208360213786364,-35.363518,149.16544115,96046.5,-6.0,-4.0,4.25,0.5,-0.5,-997.25,89.75,3.5,3.25
06:58:52,254860.0,RTL,-0.004531763959676027,0.0022229976020753384,2.568536162376404,-0.22856597043573856,-0.001096020103432238,0.0013691710773855448,-35.3635182,149.1654408,96066.5,-5.0,-2.5,-14.5,1.5,-7.0,-1035.0,-223.5,2.5,5.0
06:58:54,254860.0,RTL,-0.013293568510562181,0.0054087089374661446,2.567405104637146,0.0985044352710247,-0.001263774698600173,-0.0002197488211095333,-35.363518850000006,149.16543965,96981.0,1.5,2.5,-49.5,1.0,10.5,-970.0,103.0,3.0,2.5
06:58:55,300000.0,RTL,-0.01309643650893122,0.0016959257482085377,2.568415582180023,-0.0412091389298439,-0.0026867158012464643,-0.00012977776350453496,-35.3635191,149.16543902499998,97315.25,4.75,8.25,-8.75,1.0,-6.0,-963.5,-37.25,1.25,3.0
06:58:56,300000.0,RTL,-0.01061003259383142,0.0012781618861481547,2.568624973297119,-0.11805426236242056,-0.0006695198826491833,-0.004465443780645728,-35.363519049999994,149.16543885,97317.5,5.5,11.5,5.0,1.0,-7.5,-995.0,-114.0,3.0,-0.5
06:58:58,300000.0,RTL,-0.006125241983681917,0.0074871922843158245,2.5678746700286865,0.007862858474254608,-0.0006888993084430695,0.0013525990070775151,-35.36351865,149.16543885,97632.5,10.0,8.5,-48.0,1.0,-8.5,-1023.0,11.5,3.0,4.5
06:58:59,200.0,RTL,-0.009140814072452486,0.00020594228408299387,2.5675829648971558,-0.027489565312862396,-0.015440437709912658,0.0005394699110183865,-35.36351815,149.16543855,98185.75,11.25,6.75,-49.25,1.0,-3.5,-966.25,-23.5,-10.75,3.5
06:59:00,200.0,RTL,-0.007868935994338244,-0.005151524324901402,2.5684826374053955,0.016944989562034607,0.002710335422307253,0.00020919856615364552,-35.36351775,149.1654383,98479.0,6.0,10.0,-10.0,0.0,1.5,-960.0,20.5,7.0,3.5
