time_stamp,MODE,lat,lon,relative_alt,roll,pitch,yaw,rollspeed,pitchspeed,yawspeed,xacc,yacc,zacc,xgyro,ygyro,zgyro,vx,vy,vz,RTL_ALT
02:08:03.621,STABILIZE,-35.3632622,149.1652375,21,-0.0008277047309093177,0.0012189928675070405,0.027211815118789673,0.00020037975627928972,0.0004005923983640969,0.002087466884404421,0,1,-1000,0,0,0,-1,1,2,1500.0
02:08:03.822,STABILIZE,-35.3632622,149.1652375,21,-0.0008277047309093177,0.0012189928675070405,0.027211815118789673,0.00020037975627928972,0.0004005923983640969,0.002087466884404421,0,1,-1000,0,0,0,-1,1,2,1500.0
02:08:04.023,STABILIZE,-35.3632622,149.1652375,21,-0.0008277047309093177,0.0012189928675070405,0.027211815118789673,0.00020037975627928972,0.0004005923983640969,0.002087466884404421,0,1,-1000,0,0,0,-1,1,2,1500.0
02:08:04.223,STABILIZE,-35.3632622,149.1652375,21,-0.0008277047309093177,0.0012189928675070405,0.027211815118789673,0.00020037975627928972,0.0004005923983640969,0.002087466884404421,0,1,-1000,0,0,0,-1,1,2,1500.0
02:08:04.424,STABILIZE,-35.3632622,149.1652375,19,-0.001056193606927991,0.0011046129511669278,0.026902612298727036,0.0001693438389338553,0.0002405344566795975,0.002052054274827242,0,1,-1000,0,0,0,-1,1,1,1500.0
02:08:04.626,STABILIZE,-35.3632622,149.1652375,19,-0.001056193606927991,0.0011046129511669278,0.026902612298727036,0.0001693438389338553,0.0002405344566795975,0.002052054274827242,0,1,-1000,0,0,0,-1,1,1,1500.0
02:08:04.828,STABILIZE,-35.3632622,149.1652375,19,-0.001056193606927991,0.0011046129511669278,0.026902612298727036,0.0001693438389338553,0.0002405344566795975,0.002052054274827242,0,1,-1000,0,0,0,-1,1,1,1500.0
02:08:05.030,STABILIZE,-35.3632622,149.1652375,18,-0.0011637260904535651,0.0010449590627104044,0.026698293164372444,0.00013907672837376595,0.0003710186865646392,0.0019476605812087655,0,1,-1000,0,0,0,-1,0,1,1500.0
02:08:05.232,STABILIZE,-35.3632622,149.1652375,18,-0.0011637260904535651,0.0010449590627104044,0.026698293164372444,0.00013907672837376595,0.0003710186865646392,0.0019476605812087655,0,1,-1000,0,0,0,-1,0,1,1500.0
02:08:05.433,STABILIZE,-35.3632622,149.1652375,18,-0.0011637260904535651,0.0010449590627104044,0.026698293164372444,0.00013907672837376595,0.0003710186865646392,0.0019476605812087655,0,1,-1000,0,0,0,-1,0,1,1500.0
02:08:05.634,STABILIZE,-35.3632622,149.1652375,18,-0.0011637260904535651,0.0010449590627104044,0.026698293164372444,0.00013907672837376595,0.0003710186865646392,0.0019476605812087655,0,1,-1000,0,0,0,-1,0,1,1500.0
02:08:05.836,STABILIZE,-35.3632622,149.1652375,18,-0.0011637260904535651,0.0010449590627104044,0.026698293164372444,0.00013907672837376595,0.0003710186865646392,0.0019476605812087655,0,1,-1000,0,0,0,-1,0,1,1500.0
02:08:06.039,STABILIZE,-35.3632622,149.1652375,18,-0.0011056273942813277,0.0009803203865885735,0.026362279430031776,0.00022516964236274362,0.00024140405002981424,0.002136169234290719,0,1,-1000,0,0,0,-1,0,1,1500.0
02:08:06.240,STABILIZE,-35.3632622,149.1652375,18,-0.00111517368350178,0.0009716617059893906,0.026287125423550606,0.00015506817726418376,0.00027088169008493423,0.002001039683818817,0,1,-1000,0,0,0,-1,0,1,1500.0
02:08:06.442,STABILIZE,-35.3632622,149.1652375,18,-0.0011144765885546803,0.0009680570219643414,0.026206348091363907,0.00024293712340295315,0.00018146177171729505,0.0020749219693243504,0,1,-1000,0,0,0,-1,0,1,1500.0
02:08:06.645,STABILIZE,-35.3632622,149.1652375,18,-0.0011144765885546803,0.0009680570219643414,0.026206348091363907,0.00024293712340295315,0.00018146177171729505,0.0020749219693243504,0,1,-1000,0,0,0,-1,0,1,1500.0
02:08:06.846,STABILIZE,-35.3632621,149.1652375,18,-0.001112107071094215,0.000951030058786273,0.026041453704237938,0.00020269653759896755,0.00028474567807279527,0.002126054372638464,0,1,-1000,0,0,0,-1,0,1,1500.0
02:08:07.049,STABILIZE,-35.3632621,149.1652375,18,-0.001112107071094215,0.000951030058786273,0.026041453704237938,0.00020269653759896755,0.00028474567807279527,0.002126054372638464,0,1,-1000,0,0,0,-1,0,1,1500.0
02:08:07.251,STABILIZE,-35.3632621,149.1652375,18,-0.001112107071094215,0.000951030058786273,0.026041453704237938,0.00020269653759896755,0.00028474567807279527,0.002126054372638464,0,1,-1000,0,0,0,-1,0,1,1500.0
02:08:07.452,STABILIZE,-35.3632621,149.1652375,18,-0.001112107071094215,0.000951030058786273,0.026041453704237938,0.00020269653759896755,0.00028474567807279527,0.002126054372638464,0,1,-1000,0,0,0,-1,0,1,1500.0
02:08:07.654,STABILIZE,-35.3632621,149.1652375,18,-0.001112107071094215,0.000951030058786273,0.026041453704237938,0.00020269653759896755,0.00028474567807279527,0.002126054372638464,0,1,-1000,0,0,0,-1,0,1,1500.0
02:08:07.855,STABILIZE,-35.3632621,149.1652375,18,-0.001107543706893921,0.000925102736800909,0.02569456771016121,0.0002023898996412754,0.0002485439763404429,0.0019632845651358366,0,1,-1000,1,0,0,-1,0,1,1500.0
02:08:08.057,STABILIZE,-35.3632621,149.1652375,18,-0.001107543706893921,0.000925102736800909,0.02569456771016121,0.0002023898996412754,0.0002485439763404429,0.0019632845651358366,0,1,-1000,1,0,0,-1,0,1,1500.0
02:08:08.258,STABILIZE,-35.3632621,149.1652375,18,-0.001107543706893921,0.000925102736800909,0.02569456771016121,0.0002023898996412754,0.0002485439763404429,0.0019632845651358366,0,1,-1000,1,0,0,-1,0,1,1500.0
02:08:08.460,STABILIZE,-35.3632621,149.1652375,18,-0.001107543706893921,0.000925102736800909,0.02569456771016121,0.0002023898996412754,0.0002485439763404429,0.0019632845651358366,0,1,-1000,0,0,0,-1,0,1,1500.0
02:08:08.661,STABILIZE,-35.3632621,149.1652375,21,-0.001107543706893921,0.000925102736800909,0.02569456771016121,0.0002023898996412754,0.0002485439763404429,0.0019632845651358366,0,1,-1000,1,0,0,-1,0,0,1500.0
02:08:08.863,STABILIZE,-35.3632621,149.1652375,22,-0.0009276675409637392,0.000933439121581614,0.02536546252667904,0.0038942168466746807,0.00017841433873400092,0.002029233146458864,0,-28,-1045,4,0,1,-1,0,0,1500.0
02:08:09.064,STABILIZE,-35.3632621,149.1652375,22,-0.0009276675409637392,0.000933439121581614,0.02536546252667904,0.0038942168466746807,0.00017841433873400092,0.002029233146458864,0,-28,-1045,4,0,1,-1,0,0,1500.0
02:08:09.265,STABILIZE,-35.3632621,149.1652375,22,-0.0009276675409637392,0.000933439121581614,0.02536546252667904,0.0038942168466746807,0.00017841433873400092,0.002029233146458864,0,-28,-1045,4,0,1,-1,0,0,1500.0
02:08:09.467,STABILIZE,-35.3632621,149.1652375,22,-0.0009276675409637392,0.000933439121581614,0.02536546252667904,0.0038942168466746807,0.00017841433873400092,0.002029233146458864,0,-28,-1045,4,0,1,-1,0,0,1500.0
02:08:09.668,STABILIZE,-35.3632621,149.1652375,22,-0.0009276675409637392,0.000933439121581614,0.02536546252667904,0.0038942168466746807,0.00017841433873400092,0.002029233146458864,0,-28,-1045,4,0,1,-1,0,0,1500.0
02:08:09.870,STABILIZE,-35.3632621,149.1652375,32,-0.0008097546524368227,0.0009437028202228248,0.025000112131237984,0.00024643121287226677,0.0002312291180714965,0.0017344068037346005,0,1,-1000,0,0,0,-1,0,0,1500.0
02:08:10.071,STABILIZE,-35.3632621,149.1652375,32,-0.0008097546524368227,0.0009437028202228248,0.025000112131237984,0.00024643121287226677,0.0002312291180714965,0.0017344068037346005,0,1,-1000,0,0,0,-1,0,0,1500.0
02:08:10.273,STABILIZE,-35.3632621,149.1652375,33,-0.0007877417956478894,0.0009461721056140959,0.024917351081967354,0.0002752330037765205,0.00020879716612398624,0.0019295522943139076,0,1,-1000,0,0,0,-1,0,0,1500.0
02:08:10.474,STABILIZE,-35.3632621,149.1652375,33,-0.0007877417956478894,0.0009461721056140959,0.024917351081967354,0.0002752330037765205,0.00020879716612398624,0.0019295522943139076,0,1,-1000,0,0,0,-1,0,0,1500.0
02:08:10.676,STABILIZE,-35.3632621,149.1652375,33,-0.0007877417956478894,0.0009461721056140959,0.024917351081967354,0.0002752330037765205,0.00020879716612398624,0.0019295522943139076,0,1,-1000,0,0,0,-1,0,0,1500.0
02:08:10.877,STABILIZE,-35.3632621,149.1652375,33,-0.0007438522879965603,0.000957866373937577,0.02464534156024456,0.00023824727395549417,0.0002496279776096344,0.0017912115436047316,0,2,-1000,0,1,0,-1,0,0,1500.0
02:08:11.079,STABILIZE,-35.3632621,149.1652375,33,-0.0007438522879965603,0.000957866373937577,0.02464534156024456,0.00023824727395549417,0.0002496279776096344,0.0017912115436047316,0,2,-1000,0,1,0,-1,0,0,1500.0
02:08:11.281,STABILIZE,-35.3632621,149.1652375,33,-0.0007438522879965603,0.000957866373937577,0.02464534156024456,0.00023824727395549417,0.0002496279776096344,0.0017912115436047316,0,2,-1000,0,1,0,-1,0,0,1500.0
02:08:11.483,STABILIZE,-35.3632621,149.1652375,33,-0.0007438522879965603,0.000957866373937577,0.02464534156024456,0.00023824727395549417,0.0002496279776096344,0.0017912115436047316,0,2,-1000,0,1,0,-1,0,0,1500.0
02:08:11.685,STABILIZE,-35.3632622,149.1652375,38,-0.0007438522879965603,0.000957866373937577,0.02464534156024456,0.00023824727395549417,0.0002496279776096344,0.0017912115436047316,0,1,-1000,0,0,0,-1,1,0,1500.0
02:08:11.887,STABILIZE,-35.3632622,149.1652375,39,-0.0007549473666585982,0.0009666616679169238,0.02428600937128067,0.0001426315284334123,0.0002867012517526746,0.001817482290789485,0,2,-1000,1,0,1,-1,1,0,1500.0
02:08:12.088,STABILIZE,-35.3632622,149.1652375,39,-0.0007549473666585982,0.0009666616679169238,0.02428600937128067,0.0001426315284334123,0.0002867012517526746,0.001817482290789485,0,2,-1000,1,0,1,-1,1,0,1500.0
02:08:12.290,STABILIZE,-35.3632622,149.1652375,39,-0.0007549473666585982,0.0009666616679169238,0.02428600937128067,0.0001426315284334123,0.0002867012517526746,0.001817482290789485,0,2,-1000,1,0,1,-1,1,0,1500.0
02:08:12.491,STABILIZE,-35.3632622,149.1652375,39,-0.0007549473666585982,0.0009666616679169238,0.02428600937128067,0.0001426315284334123,0.0002867012517526746,0.001817482290789485,0,2,-1000,1,0,1,-1,1,0,1500.0
02:08:12.693,STABILIZE,-35.3632622,149.1652375,39,-0.0007549473666585982,0.0009666616679169238,0.02428600937128067,0.0001426315284334123,0.0002867012517526746,0.001817482290789485,0,2,-1000,1,0,1,-1,1,0,1500.0
02:08:12.894,STABILIZE,-35.3632622,149.1652375,54,-0.0007460002670995891,0.0009649523417465389,0.02394700236618519,0.0001236850512214005,0.00025230209575966,0.0017584329470992088,0,1,-1000,0,0,0,-1,0,-3,1500.0
02:08:13.096,STABILIZE,-35.3632622,149.1652375,54,-0.0007460002670995891,0.0009649523417465389,0.02394700236618519,0.0001236850512214005,0.00025230209575966,0.0017584329470992088,0,1,-1000,0,0,0,-1,0,-3,1500.0
02:08:13.317,STABILIZE,-35.3632622,149.1652375,54,-0.0007460002670995891,0.0009649523417465389,0.02394700236618519,0.0001236850512214005,0.00025230209575966,0.0017584329470992088,0,1,-1000,0,0,0,-1,0,-3,1500.0
02:08:13.519,STABILIZE,-35.3632622,149.1652375,54,-0.0007460002670995891,0.0009649523417465389,0.02394700236618519,0.0001236850512214005,0.00025230209575966,0.0017584329470992088,0,1,-1000,0,0,0,-1,0,-3,1500.0
02:08:13.721,STABILIZE,-35.3632622,149.1652375,61,-0.0005938195390626788,0.0009560039034113288,0.023726655170321465,0.0002261498593725264,0.00030568038346245885,0.0017793995793908834,0,2,-1000,0,0,0,-1,0,-2,1500.0
02:08:13.922,STABILIZE,-35.3632622,149.1652375,61,-0.0005938195390626788,0.0009560039034113288,0.023726655170321465,0.0002261498593725264,0.00030568038346245885,0.0017793995793908834,0,2,-1000,0,0,0,-1,0,-2,1500.0
02:08:14.124,STABILIZE,-35.3632622,149.1652375,61,-0.0005938195390626788,0.0009560039034113288,0.023726655170321465,0.0002261498593725264,0.00030568038346245885,0.0017793995793908834,0,2,-1000,0,0,0,-1,0,-2,1500.0
02:08:14.325,STABILIZE,-35.3632622,149.1652375,61,-0.0005938195390626788,0.0009560039034113288,0.023726655170321465,0.0002261498593725264,0.00030568038346245885,0.0017793995793908834,0,2,-1000,0,0,0,-1,0,-2,1500.0
02:08:14.528,STABILIZE,-35.3632622,149.1652375,63,-0.0005092248320579529,0.000949709617998451,0.02346840314567089,0.00020279473392292857,0.0002891229814849794,0.0017133494839072227,0,2,-1000,0,1,1,-1,1,-2,1500.0
02:08:14.730,STABILIZE,-35.3632622,149.1652375,63,-0.0005092248320579529,0.000949709617998451,0.02346840314567089,0.00020279473392292857,0.0002891229814849794,0.0017133494839072227,0,2,-1000,0,1,1,-1,1,-2,1500.0
02:08:14.932,STABILIZE,-35.3632622,149.1652375,63,-0.0005092248320579529,0.000949709617998451,0.02346840314567089,0.00020279473392292857,0.0002891229814849794,0.0017133494839072227,0,1,-1000,0,1,0,-1,1,-2,1500.0
02:08:15.133,STABILIZE,-35.3632622,149.1652375,63,-0.0005092248320579529,0.000949709617998451,0.02346840314567089,0.00020279473392292857,0.0002891229814849794,0.0017133494839072227,0,1,-1000,0,1,0,-1,1,-2,1500.0
02:08:15.335,STABILIZE,-35.3632622,149.1652375,63,-0.0005092248320579529,0.000949709617998451,0.02346840314567089,0.00020279473392292857,0.0002891229814849794,0.0017133494839072227,0,1,-1000,0,1,0,-1,1,-2,1500.0
02:08:15.537,STABILIZE,-35.3632622,149.1652375,63,-0.0005092248320579529,0.000949709617998451,0.02346840314567089,0.00020279473392292857,0.0002891229814849794,0.0017133494839072227,0,1,-1000,0,1,0,-1,1,-2,1500.0
02:08:15.739,STABILIZE,-35.3632622,149.1652375,63,-0.0005092248320579529,0.000949709617998451,0.02346840314567089,0.00020279473392292857,0.0002891229814849794,0.0017133494839072227,0,1,-1000,0,1,0,-1,1,-2,1500.0
02:08:15.941,STABILIZE,-35.3632622,149.1652375,59,-0.00020251017122063786,0.0009758453816175461,0.022937245666980743,0.00031011615647003055,0.0002475044457241893,0.0015803644200786948,0,1,-1000,0,1,0,-1,3,0,1500.0
02:08:16.143,STABILIZE,-35.3632622,149.1652375,55,-0.00023776663874741644,0.0009726916323415935,0.022849367931485176,0.00017949810717254877,0.00021145964274182916,0.0015357180964201689,0,1,-1000,0,1,0,-1,3,1,1500.0
02:08:16.345,STABILIZE,-35.3632622,149.1652375,55,-0.00023776663874741644,0.0009726916323415935,0.022849367931485176,0.00017949810717254877,0.00021145964274182916,0.0015357180964201689,0,1,-1000,0,1,0,-1,3,1,1500.0
02:08:16.547,STABILIZE,-35.3632622,149.1652376,51,-0.00029397307662293315,0.0009725414565764368,0.02276703342795372,0.00026048748986795545,0.00029205676401034,0.0015594027936458588,0,1,-1000,0,1,0,-1,3,1,1500.0
02:08:16.748,STABILIZE,-35.3632622,149.1652376,49,-0.00029397307662293315,0.0009725414565764368,0.02276703342795372,0.00026048748986795545,0.00029205676401034,0.0015594027936458588,0,1,-1000,0,1,0,-1,3,1,1500.0
02:08:16.950,STABILIZE,-35.3632622,149.1652376,46,-0.0004296223050914705,0.0009733574697747827,0.022583385929465294,0.00022098387125879526,0.00021045876201242208,0.001596946269273758,0,2,-1000,0,0,0,-1,3,1,1500.0
02:08:17.153,STABILIZE,-35.3632622,149.1652376,46,-0.0004296223050914705,0.0009733574697747827,0.022583385929465294,0.00022098387125879526,0.00021045876201242208,0.001596946269273758,0,2,-1000,0,0,0,-1,3,1,1500.0
02:08:17.355,STABILIZE,-35.3632622,149.1652376,46,-0.0004296223050914705,0.0009733574697747827,0.022583385929465294,0.00022098387125879526,0.00021045876201242208,0.001596946269273758,0,2,-1000,0,0,0,-1,3,1,1500.0
02:08:17.557,STABILIZE,-35.3632622,149.1652376,46,-0.0004296223050914705,0.0009733574697747827,0.022583385929465294,0.00022098387125879526,0.00021045876201242208,0.001596946269273758,0,2,-1000,0,0,0,-1,3,1,1500.0
02:08:17.758,STABILIZE,-35.3632622,149.1652376,41,-0.0006101236795075238,0.0009836350800469518,0.022352559491991997,0.00023620983120054007,0.00020096218213438988,0.0014741455670446157,0,2,-1000,0,0,0,-1,2,1,1500.0
02:08:17.961,STABILIZE,-35.3632622,149.1652376,40,-0.0006647832924500108,0.0009939379524439573,0.022288456559181213,0.0003264478873461485,0.0002377149066887796,0.0014925252180546522,0,1,-1000,1,1,0,-1,2,1,1500.0
02:08:18.165,AUTO,-35.3632622,149.1652376,39,-0.0007320083677768707,0.000990363652817905,0.02221008948981762,0.00019271852215752006,0.0003233398892916739,0.0015062324237078428,0,2,-1000,0,0,0,-1,2,1,1500.0
02:08:18.377,AUTO,-35.3632622,149.1652376,8,-0.0007692888029851019,0.000996931572444737,0.022149208933115005,0.00042671727715060115,0.00032923254184424877,0.0013670623302459717,0,1,-1000,0,1,0,-1,2,1,229428.0
02:08:18.579,AUTO,-35.3632622,149.1652376,8,-0.0007692888029851019,0.000996931572444737,0.022149208933115005,0.00042671727715060115,0.00032923254184424877,0.0013670623302459717,0,1,-1000,0,1,0,-1,2,1,229428.0
02:08:18.780,AUTO,-35.3632622,149.1652375,7,-0.0008111365023069084,0.001003323239274323,0.0220919381827116,0.0004330684896558523,0.0001929663121700287,0.0015306583372876048,0,2,-1000,1,1,0,-1,2,1,229428.0
02:08:18.983,AUTO,-35.3632622,149.1652375,6,-0.0008483967976644635,0.0010066099930554628,0.022018209099769592,0.0003160407650284469,0.0002795919426716864,0.001539729768410325,0,2,-1000,0,0,0,-1,1,1,229428.0
02:08:19.185,AUTO,-35.3632622,149.1652375,6,-0.0008483967976644635,0.0010066099930554628,0.022018209099769592,0.0003160407650284469,0.0002795919426716864,0.001539729768410325,0,2,-1000,0,0,0,-1,1,1,229428.0
02:08:19.387,AUTO,-35.3632622,149.1652375,6,-0.0008483967976644635,0.0010066099930554628,0.022018209099769592,0.0003160407650284469,0.0002795919426716864,0.001539729768410325,0,2,-1000,0,0,0,-1,1,1,229428.0
02:08:19.589,AUTO,-35.3632622,149.1652375,6,-0.0008483967976644635,0.0010066099930554628,0.022018209099769592,0.0003160407650284469,0.0002795919426716864,0.001539729768410325,0,2,-1000,0,0,0,-1,1,1,229428.0
02:08:19.790,AUTO,-35.3632621,149.1652374,21,-0.000651149486657232,0.0010877188760787249,0.02186662331223488,0.00019198586232960224,0.0002992537338286638,0.001522541744634509,0,1,-1000,1,0,1,0,-3,-4,229428.0
02:08:19.992,AUTO,-35.3632621,149.1652374,26,-0.0005820730002596974,0.0011381662916392088,0.021807638928294182,0.00022633903427049518,0.0002562179579399526,0.0013777287676930428,0,2,-1000,0,0,1,0,-2,-4,229428.0
02:08:20.194,AUTO,-35.3632621,149.1652374,28,-0.0005269243847578764,0.001201484352350235,0.021749194711446762,0.00025715865194797516,0.00018933397950604558,0.0013923279475420713,0,1,-1000,0,0,0,0,-1,-4,229428.0
02:08:20.395,AUTO,-35.3632621,149.1652374,29,-0.0004712719819508493,0.0012685318943113089,0.021695975214242935,0.00021635321900248528,0.000324964988976717,0.0013787088682875037,0,1,-1000,0,1,0,0,0,-3,229428.0
02:08:20.597,AUTO,-35.3632621,149.1652374,29,-0.0004712719819508493,0.0012685318943113089,0.021695975214242935,0.00021635321900248528,0.000324964988976717,0.0013787088682875037,0,1,-1000,0,1,0,0,0,-3,229428.0
02:08:20.799,AUTO,-35.3632621,149.1652375,31,-0.0004162618424743414,0.0013362376485019922,0.021635012701153755,0.00022155826445668936,0.00027865037554875016,0.0014871067833155394,0,2,-1000,0,0,0,0,0,-3,229428.0
02:08:21.001,AUTO,-35.3632621,149.1652375,31,-0.0003597709001041949,0.0014098582323640585,0.021562345325946808,0.00031908421078696847,0.0003508087247610092,0.0013905150117352605,0,2,-1000,1,0,0,0,0,-3,229428.0
02:08:21.202,AUTO,-35.3632621,149.1652375,31,-0.0003597709001041949,0.0014098582323640585,0.021562345325946808,0.00031908421078696847,0.0003508087247610092,0.0013905150117352605,0,2,-1000,1,0,0,0,0,-3,221218.0
02:08:21.418,AUTO,-35.3632621,149.1652375,31,-0.0003597709001041949,0.0014098582323640585,0.021562345325946808,0.00031908421078696847,0.0003508087247610092,0.0013905150117352605,0,2,-1000,1,0,0,0,0,-3,221218.0
02:08:21.620,AUTO,-35.3632621,149.1652375,31,-0.0003597709001041949,0.0014098582323640585,0.021562345325946808,0.00031908421078696847,0.0003508087247610092,0.0013905150117352605,0,2,-1000,1,0,0,0,0,-3,221218.0
02:08:21.821,AUTO,-35.3632621,149.1652375,31,-0.00016405616770498455,0.0016234054928645492,0.021356409415602684,0.00041665806202217937,0.0003237331402488053,0.0014007685240358114,0,1,-1000,0,0,0,0,1,-2,221218.0
02:08:22.024,AUTO,-35.3632621,149.1652375,31,-8.849192090565339e-05,0.001703036017715931,0.021281447261571884,0.00037390977377071977,0.0003747618175111711,0.0013927753316238523,0,1,-1000,0,0,0,0,1,-2,221218.0
02:08:22.226,AUTO,-35.3632621,149.1652375,34,-0.0002698772877920419,0.0007194087374955416,0.021159552037715912,-0.002611439907923341,-0.010310353711247444,0.0008665832574479282,0,0,-1119,-1,-9,0,0,1,-11,221218.0
02:08:22.429,AUTO,-35.3632621,149.1652375,103,0.00041727989446371794,-0.0004970981972292066,0.0210567694157362,0.005786148831248283,0.0009313664049841464,0.0007506266701966524,0,0,-1144,6,1,0,0,1,-45,221218.0
02:08:22.632,AUTO,-35.3632621,149.1652375,257,0.0008457141811959445,0.0003804591251537204,0.021055975928902626,0.0027262012008577585,0.003325687488541007,0.001644523930735886,0,0,-1128,3,4,1,0,0,-78,221218.0
02:08:22.834,AUTO,-35.3632621,149.1652375,257,0.0008457141811959445,0.0003804591251537204,0.021055975928902626,0.0027262012008577585,0.003325687488541007,0.001644523930735886,0,0,-1128,3,4,1,0,0,-78,221218.0
02:08:23.035,AUTO,-35.3632621,149.1652375,488,0.0010098088532686234,0.0010681571438908577,0.021149925887584686,-0.0032101955730468035,0.002191109349951148,0.0015605245716869831,0,0,-1106,-2,2,1,0,0,-107,221218.0
02:08:23.237,AUTO,-35.3632621,149.1652375,488,0.0010098088532686234,0.0010681571438908577,0.021149925887584686,-0.0032101955730468035,0.002191109349951148,0.0015605245716869831,0,0,-1106,-2,2,1,0,0,-107,221218.0
02:08:23.439,AUTO,-35.3632621,149.1652375,488,0.0010098088532686234,0.0010681571438908577,0.021149925887584686,-0.0032101955730468035,0.002191109349951148,0.0015605245716869831,0,0,-1106,-2,2,1,0,0,-107,221218.0
02:08:23.641,AUTO,-35.3632621,149.1652375,1487,0.025885973125696182,-0.0014328076504170895,0.021196333691477776,0.04744666814804077,-0.0069511402398347855,0.0027605423238128424,0,0,-1014,47,-6,2,1,6,-146,221218.0
02:08:23.843,AUTO,-35.3632621,149.1652375,1487,0.025885973125696182,-0.0014328076504170895,0.021196333691477776,0.04744666814804077,-0.0069511402398347855,0.0027605423238128424,0,0,-1014,47,-6,2,1,6,-146,221218.0
02:08:24.045,AUTO,-35.363262,149.1652376,1864,0.03733829781413078,-0.0033036679960787296,0.02142231911420822,0.045125942677259445,-0.007692284416407347,0.003225720487535,0,-1,-1006,45,-7,2,1,13,-148,221218.0
02:08:24.248,AUTO,-35.3632619,149.165238,2246,0.048088833689689636,-0.005533072166144848,0.021687816828489304,0.04184393584728241,-0.009367961436510086,0.0034660298842936754,0,-3,-1002,42,-8,3,3,23,-148,156374.0
02:08:24.451,AUTO,-35.3632618,149.1652387,2629,0.058106664568185806,-0.008218171074986458,0.022007007151842117,0.03766055405139923,-0.011272793635725975,0.003661710536107421,1,-5,-999,38,-10,3,5,34,-148,156374.0
02:08:24.653,AUTO,-35.3632616,149.1652398,3011,0.06195620819926262,-0.007165656890720129,-0.009805059060454369,-0.04045397788286209,0.046815041452646255,-0.06470076739788055,1,-9,-990,-39,47,-65,8,47,-147,156374.0
02:08:24.857,AUTO,-35.3632614,149.1652411,3389,0.0351056270301342,0.016342472285032272,-0.03319232165813446,-0.16844505071640015,0.07799758017063141,-0.0931895524263382,3,-12,-990,-167,78,-93,9,56,-144,156374.0
02:08:25.061,AUTO,-35.3632614,149.1652411,3389,0.0351056270301342,0.016342472285032272,-0.03319232165813446,-0.16844505071640015,0.07799758017063141,-0.0931895524263382,3,-12,-990,-167,78,-93,9,56,-144,156374.0
02:08:25.264,AUTO,-35.3632614,149.1652411,3389,0.0351056270301342,0.016342472285032272,-0.03319232165813446,-0.16844505071640015,0.07799758017063141,-0.0931895524263382,3,-12,-990,-167,78,-93,9,56,-144,156374.0
02:08:25.467,AUTO,-35.3632614,149.1652411,3389,0.0351056270301342,0.016342472285032272,-0.03319232165813446,-0.16844505071640015,0.07799758017063141,-0.0931895524263382,3,-12,-990,-167,78,-93,9,56,-144,156374.0
02:08:25.669,AUTO,-35.3632609,149.1652451,4521,-0.028856005519628525,0.004706312902271748,-0.06273346394300461,-0.054051268845796585,-0.011969592422246933,-0.0354757197201252,4,-10,-1002,-53,-11,-35,3,39,-148,156374.0
02:08:25.871,AUTO,-35.3632608,149.165246,4909,-0.047770991921424866,0.0035632189828902483,-0.07198621332645416,-0.09065309911966324,0.004514503758400679,-0.04391248896718025,3,-6,-1000,-89,5,-44,3,27,-148,156374.0
02:08:26.073,AUTO,-35.3632608,149.165246,4909,-0.047770991921424866,0.0035632189828902483,-0.07198621332645416,-0.09065309911966324,0.004514503758400679,-0.04391248896718025,3,-6,-1000,-89,5,-44,3,27,-148,156374.0
02:08:26.274,AUTO,-35.3632607,149.1652465,5291,-0.07408777624368668,0.0044475276954472065,-0.08323512971401215,-0.11324794590473175,0.0051680663600564,-0.043742578476667404,2,-5,-999,-112,5,-44,2,10,-147,156374.0
02:08:26.476,AUTO,-35.3632606,149.1652466,5672,-0.08645208179950714,0.00417409697547555,-0.0934523418545723,0.01572926715016365,-0.002871501026675105,-0.032742634415626526,0,0,-1007,15,-2,-33,0,-10,-147,156374.0
02:08:26.678,AUTO,-35.3632607,149.165246,6056,-0.07586478441953659,0.002656244672834873,-0.10056307166814804,0.05105912685394287,-0.002890337724238634,-0.0225946307182312,-2,3,-1002,51,-2,-22,-2,-30,-148,156374.0
02:08:26.880,AUTO,-35.3632607,149.165245,6437,-0.062134966254234314,0.002403717255219817,-0.10560150444507599,0.05803569406270981,0.002849900396540761,-0.015571804717183113,-5,8,-1000,58,3,-16,-5,-45,-147,156374.0
02:08:27.082,AUTO,-35.3632607,149.165245,6437,-0.062134966254234314,0.002403717255219817,-0.10560150444507599,0.05803569406270981,0.002849900396540761,-0.015571804717183113,-5,8,-1000,58,3,-16,-5,-45,-147,156374.0
02:08:27.284,AUTO,-35.3632607,149.165245,6437,-0.062134966254234314,0.002403717255219817,-0.10560150444507599,0.05803569406270981,0.002849900396540761,-0.015571804717183113,-5,8,-1000,58,3,-16,-5,-45,-147,134050.0
02:08:27.487,AUTO,-35.3632607,149.165245,6437,-0.062134966254234314,0.002403717255219817,-0.10560150444507599,0.05803569406270981,0.002849900396540761,-0.015571804717183113,-5,8,-1000,58,3,-16,-5,-45,-147,134050.0
02:08:27.689,AUTO,-35.3632613,149.1652402,7579,-0.014026859775185585,0.008583009243011475,-0.11273343116044998,0.07022473961114883,0.012306335382163525,-0.0026372785214334726,-5,12,-1003,71,13,-3,-14,-65,-148,134050.0
02:08:27.890,AUTO,-35.3632616,149.1652384,7964,0.0032682204619050026,0.01139941904693842,-0.112713523209095,0.07069656252861023,0.011132270097732544,0.00018837186507880688,-6,15,-1004,71,12,0,-17,-63,-149,134050.0
02:08:28.092,AUTO,-35.3632616,149.1652384,7964,0.0032682204619050026,0.01139941904693842,-0.112713523209095,0.07069656252861023,0.011132270097732544,0.00018837186507880688,-6,15,-1004,71,12,0,-17,-63,-149,134050.0
02:08:28.294,AUTO,-35.3632621,149.1652366,8351,0.020805982872843742,0.013854889199137688,-0.11190617829561234,0.06962665915489197,0.007878381758928299,0.0024554161354899406,-6,16,-1004,70,8,2,-21,-56,-150,134050.0
02:08:28.495,AUTO,-35.3632626,149.1652351,8742,0.03814902901649475,0.015410960651934147,-0.1105048656463623,0.0686434954404831,0.004044023342430592,0.0036478012334555387,-4,14,-1004,69,5,3,-24,-46,-151,134050.0
02:08:28.697,AUTO,-35.3632631,149.165234,9134,0.05492301657795906,0.01565377786755562,-0.10890447348356247,0.06560320407152176,-0.002354005351662636,0.005312810186296701,-1,11,-1003,66,-1,4,-26,-32,-152,134050.0
02:08:28.899,AUTO,-35.3632638,149.1652332,9529,0.07099341601133347,0.014225044287741184,-0.10734221339225769,0.06207109987735748,-0.008339028805494308,0.005671941675245762,0,10,-1002,62,-7,5,-27,-14,-152,134050.0
02:08:29.102,AUTO,-35.3632638,149.1652332,9529,0.07099341601133347,0.014225044287741184,-0.10734221339225769,0.06207109987735748,-0.008339028805494308,0.005671941675245762,0,10,-1002,62,-7,5,-27,-14,-152,134050.0
02:08:29.324,AUTO,-35.3632638,149.1652332,9529,0.07099341601133347,0.014225044287741184,-0.10734221339225769,0.06207109987735748,-0.008339028805494308,0.005671941675245762,0,10,-1002,62,-7,5,-27,-14,-152,134050.0
02:08:29.526,AUTO,-35.3632638,149.1652332,9529,0.07099341601133347,0.014225044287741184,-0.10734221339225769,0.06207109987735748,-0.008339028805494308,0.005671941675245762,0,10,-1002,62,-7,5,-27,-14,-152,134050.0
02:08:29.728,AUTO,-35.3632652,149.1652338,10686,0.05494852736592293,-0.05943557620048523,-0.04613813757896423,-0.01590040884912014,-0.09915725886821747,0.12138566374778748,6,-1,-1002,-15,-98,121,-6,33,-148,134050.0
02:08:29.930,AUTO,-35.3632653,149.1652348,11069,0.045219793915748596,-0.07958438247442245,-0.02194182574748993,-0.09158699214458466,-0.029079334810376167,0.058293793350458145,3,-8,-991,-90,-28,57,12,43,-147,134050.0
02:08:30.133,AUTO,-35.3632648,149.165236,11445,0.01136768888682127,-0.06582759320735931,-0.02489609271287918,-0.1517012119293213,0.1074817106127739,-0.05859401449561119,1,-10,-997,-150,108,-58,32,46,-144,134050.0
02:08:30.335,AUTO,-35.3632648,149.165236,11445,0.01136768888682127,-0.06582759320735931,-0.02489609271287918,-0.1517012119293213,0.1074817106127739,-0.05859401449561119,1,-10,-997,-150,108,-58,32,46,-144,243895.0
02:08:30.537,AUTO,-35.3632639,149.1652372,11819,-0.021136237308382988,-0.035697802901268005,-0.0484115332365036,-0.10964642465114594,0.1206091046333313,-0.11372312158346176,-1,-14,-1007,-108,121,-113,44,40,-145,243895.0
02:08:30.739,AUTO,-35.3632629,149.1652381,12197,-0.04085054621100426,-0.010567715391516685,-0.07913077622652054,-0.05972525104880333,0.08807957172393799,-0.12091609090566635,-5,-12,-1010,-59,88,-121,48,28,-147,243895.0
02:08:30.941,AUTO,-35.3632618,149.1652387,12581,-0.048898812383413315,0.00628390209749341,-0.10997571051120758,-0.01362078357487917,0.06283032149076462,-0.11308048665523529,-9,-8,-1009,-13,63,-113,46,13,-149,243895.0
02:08:31.142,AUTO,-35.3632618,149.1652387,12581,-0.048898812383413315,0.00628390209749341,-0.10997571051120758,-0.01362078357487917,0.06283032149076462,-0.11308048665523529,-9,-8,-1009,-13,63,-113,46,13,-149,243895.0
02:08:31.344,AUTO,-35.3632618,149.1652387,12581,-0.048898812383413315,0.00628390209749341,-0.10997571051120758,-0.01362078357487917,0.06283032149076462,-0.11308048665523529,-9,-8,-1009,-13,63,-113,46,13,-149,243895.0
02:08:31.546,AUTO,-35.3632618,149.1652387,12581,-0.048898812383413315,0.00628390209749341,-0.10997571051120758,-0.01362078357487917,0.06283032149076462,-0.11308048665523529,-9,-8,-1009,-13,63,-113,46,13,-149,243895.0
02:08:31.749,AUTO,-35.3632594,149.1652382,13749,-0.03308914229273796,0.02842789515852928,-0.17243421077728271,0.043807730078697205,0.016404755413532257,-0.04999127984046936,-8,-1,-1001,44,17,-50,22,-21,-151,243895.0
02:08:31.951,AUTO,-35.3632589,149.1652376,14140,-0.02192079648375511,0.03201988339424133,-0.18326085805892944,0.048085395246744156,0.015585346147418022,-0.03710951283574104,-6,2,-1001,48,16,-37,13,-26,-151,243895.0
02:08:32.153,AUTO,-35.3632587,149.1652368,14531,-0.009700799360871315,0.03520616888999939,-0.19067661464214325,0.052311163395643234,0.012114360928535461,-0.02608262002468109,-6,2,-1001,53,12,-26,3,-28,-151,243895.0
02:08:32.355,AUTO,-35.3632587,149.165236,14923,0.0033581596799194813,0.03770984709262848,-0.19566792249679565,0.05432169884443283,0.008581888861954212,-0.018488023430109024,-5,4,-1001,55,9,-18,-6,-27,-152,243895.0
02:08:32.557,AUTO,-35.3632587,149.165236,14923,0.0033581596799194813,0.03770984709262848,-0.19566792249679565,0.05432169884443283,0.008581888861954212,-0.018488023430109024,-5,4,-1001,55,9,-18,-6,-27,-152,243895.0
02:08:32.759,AUTO,-35.3632589,149.1652353,15314,0.016997981816530228,0.039048679172992706,-0.1987503170967102,0.056141652166843414,0.0033255068119615316,-0.012354196049273014,-2,6,-1001,57,3,-12,-14,-21,-152,243895.0
02:08:32.962,AUTO,-35.3632591,149.1652347,15705,0.030863141641020775,0.03890244662761688,-0.20048940181732178,0.05686675012111664,-0.003402440808713436,-0.007735288701951504,0,5,-1001,57,-2,-8,-22,-13,-152,243895.0
02:08:33.163,AUTO,-35.3632591,149.1652347,15705,0.030863141641020775,0.03890244662761688,-0.20048940181732178,0.05686675012111664,-0.003402440808713436,-0.007735288701951504,0,5,-1001,57,-2,-8,-22,-13,-152,243895.0
02:08:33.365,AUTO,-35.3632591,149.1652347,15705,0.030863141641020775,0.03890244662761688,-0.20048940181732178,0.05686675012111664,-0.003402440808713436,-0.007735288701951504,0,5,-1001,57,-2,-8,-22,-13,-152,15883.0
02:08:33.567,AUTO,-35.3632591,149.1652347,15705,0.030863141641020775,0.03890244662761688,-0.20048940181732178,0.05686675012111664,-0.003402440808713436,-0.007735288701951504,0,5,-1001,57,-2,-8,-22,-13,-152,15883.0
02:08:33.769,AUTO,-35.3632609,149.1652348,16873,0.032618846744298935,-0.009232436306774616,-0.1646329164505005,-0.05188961327075958,-0.08400452136993408,0.072328582406044,6,2,-998,-51,-83,72,-27,18,-149,15883.0
02:08:33.971,AUTO,-35.3632614,149.1652352,17259,0.01639118604362011,-0.019447240978479385,-0.15349090099334717,-0.06816517561674118,-0.00849433708935976,0.020933276042342186,6,0,-999,-67,-7,20,-20,22,-149,15883.0
02:08:34.172,AUTO,-35.3632617,149.1652357,17644,0.0015412768116220832,-0.01731293462216854,-0.15323103964328766,-0.048583272844552994,0.014781123027205467,-0.012901480309665203,4,-1,-1002,-47,15,-13,-13,22,-149,15883.0
02:08:34.374,AUTO,-35.3632619,149.1652362,18031,-0.00829347688704729,-0.013312269002199173,-0.15935027599334717,-0.03395923972129822,0.018676770851016045,-0.03326701000332832,3,-1,-1002,-33,19,-33,-8,19,-150,15883.0
02:08:34.576,AUTO,-35.3632619,149.1652362,18031,-0.00829347688704729,-0.013312269002199173,-0.15935027599334717,-0.03395923972129822,0.018676770851016045,-0.03326701000332832,3,-1,-1002,-33,19,-33,-8,19,-150,15883.0
02:08:34.778,AUTO,-35.363262,149.1652367,18422,-0.013964897021651268,-0.009687653742730618,-0.1689084768295288,-0.012333111837506294,0.013978702947497368,-0.04061267152428627,3,-2,-1002,-11,14,-41,-4,14,-150,15883.0
02:08:34.980,AUTO,-35.3632621,149.165237,18811,-0.015602744184434414,-0.007082326337695122,-0.1795407235622406,-0.0003406598698347807,0.009936802089214325,-0.041569698601961136,1,-1,-1002,0,10,-41,-2,9,-151,15883.0
02:08:35.181,AUTO,-35.3632621,149.165237,18811,-0.015602744184434414,-0.007082326337695122,-0.1795407235622406,-0.0003406598698347807,0.009936802089214325,-0.041569698601961136,1,-1,-1002,0,10,-41,-2,9,-151,15883.0
02:08:35.383,AUTO,-35.3632621,149.165237,18811,-0.015602744184434414,-0.007082326337695122,-0.1795407235622406,-0.0003406598698347807,0.009936802089214325,-0.041569698601961136,1,-1,-1002,0,10,-41,-2,9,-151,15883.0
02:08:35.585,AUTO,-35.3632621,149.165237,18811,-0.015602744184434414,-0.007082326337695122,-0.1795407235622406,-0.0003406598698347807,0.009936802089214325,-0.041569698601961136,1,-1,-1002,0,10,-41,-2,9,-151,15883.0
02:08:35.787,AUTO,-35.363262,149.1652371,19979,-0.007398106157779694,0.0001834773283917457,-0.21182020008563995,0.020168675109744072,0.009820623323321342,-0.038284461945295334,0,0,-1001,20,10,-38,0,-2,-151,15883.0
02:08:35.989,AUTO,-35.363262,149.165237,20370,-0.003143527777865529,0.0015509556978940964,-0.22036905586719513,0.0174880251288414,0.004570656456053257,-0.03244917467236519,-1,0,-1000,18,5,-32,0,-4,-152,15883.0
02:08:36.190,AUTO,-35.363262,149.1652368,20768,0.000722529599443078,0.0032775208819657564,-0.22849233448505402,0.01203189231455326,0.00604411493986845,-0.02959635481238365,-1,0,-999,12,6,-29,0,-4,-152,15883.0
02:08:36.392,AUTO,-35.363262,149.1652367,21158,0.0036517081316560507,0.0043456838466227055,-0.23522049188613892,0.010622314177453518,0.0032998553942888975,-0.025132473558187485,-1,1,-1000,11,4,-25,0,-4,-152,108447.0
02:08:36.593,AUTO,-35.363262,149.1652367,21158,0.0036517081316560507,0.0043456838466227055,-0.23522049188613892,0.010622314177453518,0.0032998553942888975,-0.025132473558187485,-1,1,-1000,11,4,-25,0,-4,-152,108447.0
02:08:36.795,AUTO,-35.363262,149.1652365,21549,0.006077969446778297,0.00490901293233037,-0.24091759324073792,0.010020851157605648,0.0016426565125584602,-0.020921308547258377,-1,0,-1000,10,2,-21,-1,-3,-152,108447.0
02:08:36.997,AUTO,-35.363262,149.1652364,21939,0.007087241858243942,0.005244070198386908,-0.2459460198879242,0.0014029813464730978,0.001267549698241055,-0.017603598535060883,-1,0,-999,2,2,-17,-1,-1,-151,108447.0
02:08:37.198,AUTO,-35.363262,149.1652364,21939,0.007087241858243942,0.005244070198386908,-0.2459460198879242,0.0014029813464730978,0.001267549698241055,-0.017603598535060883,-1,0,-999,2,2,-17,-1,-1,-151,108447.0
02:08:37.400,AUTO,-35.363262,149.1652364,21939,0.007087241858243942,0.005244070198386908,-0.2459460198879242,0.0014029813464730978,0.001267549698241055,-0.017603598535060883,-1,0,-999,2,2,-17,-1,-1,-151,108447.0
02:08:37.602,AUTO,-35.363262,149.1652364,21939,0.007087241858243942,0.005244070198386908,-0.2459460198879242,0.0014029813464730978,0.001267549698241055,-0.017603598535060883,-1,0,-999,2,2,-17,-1,-1,-151,108447.0
02:08:37.803,AUTO,-35.363262,149.1652363,23099,0.006374825723469257,0.004573191981762648,-0.2582532465457916,-0.0007140429224818945,9.231653530150652e-05,-0.0147023294121027,0,0,-1000,0,0,-14,-2,2,-151,108447.0
02:08:38.005,AUTO,-35.363262,149.1652362,23488,0.005525507498532534,0.004258474800735712,-0.26222091913223267,-0.004121476784348488,-0.0005841786623932421,-0.015301723033189774,0,0,-1000,-3,0,-15,-2,3,-151,108447.0
02:08:38.206,AUTO,-35.363262,149.1652362,23877,0.004637186415493488,0.0038714143447577953,-0.2662960886955261,-0.003214642871171236,-0.0006325108115561306,-0.016664013266563416,0,0,-1000,-2,0,-16,-2,4,-151,108447.0
02:08:38.408,AUTO,-35.363262,149.1652363,24266,0.003951510414481163,0.003750061383470893,-0.2707410752773285,-0.0008763346122577786,-1.4382181689143181e-05,-0.017852608114480972,0,0,-1000,0,0,-18,-2,4,-151,108447.0
02:08:38.609,AUTO,-35.363262,149.1652363,24656,0.0031871481332927942,0.003416717518121004,-0.2751520574092865,-0.004894303157925606,-0.000784790376201272,-0.018152687698602676,0,0,-1000,-4,0,-18,-2,4,-151,108447.0
02:08:38.812,AUTO,-35.363262,149.1652363,24656,0.0031871481332927942,0.003416717518121004,-0.2751520574092865,-0.004894303157925606,-0.000784790376201272,-0.018152687698602676,0,0,-1000,-4,0,-18,-2,4,-151,108447.0
02:08:39.014,AUTO,-35.363262,149.1652364,25045,0.0011454246705397964,0.003189590061083436,-0.2797732353210449,-0.05345897004008293,-7.946969708427787e-05,-0.017770197242498398,0,-2,-990,-52,0,-17,-2,4,-151,108447.0
02:08:39.222,AUTO,-35.363262,149.1652364,25045,0.0011454246705397964,0.003189590061083436,-0.2797732353210449,-0.05345897004008293,-7.946969708427787e-05,-0.017770197242498398,0,-2,-990,-52,0,-17,-2,4,-151,108447.0
02:08:39.423,AUTO,-35.363262,149.1652364,25045,0.0011454246705397964,0.003189590061083436,-0.2797732353210449,-0.05345897004008293,-7.946969708427787e-05,-0.017770197242498398,0,-2,-990,-52,0,-17,-2,4,-151,174124.0
02:08:39.626,AUTO,-35.3632621,149.1652363,26210,0.0007733468664810061,0.00461624376475811,-0.28863951563835144,0.03563055768609047,0.0036982716992497444,0.003665912663564086,0,1,-1001,36,4,3,-4,-1,-152,174124.0
02:08:39.827,AUTO,-35.3632621,149.1652363,26210,0.0007733468664810061,0.00461624376475811,-0.28863951563835144,0.03563055768609047,0.0036982716992497444,0.003665912663564086,0,1,-1001,36,4,3,-4,-1,-152,174124.0
02:08:40.029,AUTO,-35.3632622,149.1652363,26601,0.00756189925596118,0.004569592885673046,-0.2856575548648834,0.021828776225447655,-0.0018632112769410014,0.016471510753035545,0,1,-1000,22,0,15,-5,0,-152,174124.0
02:08:40.230,AUTO,-35.3632623,149.1652363,26990,0.010937323793768883,0.003976675681769848,-0.28092700242996216,0.009427160024642944,-0.002297796308994293,0.01999579183757305,0,0,-999,10,-1,19,-4,1,-152,174124.0
02:08:40.432,AUTO,-35.3632624,149.1652363,27378,0.012026031501591206,0.003172018565237522,-0.27490633726119995,0.00033920822897925973,-0.00340760825201869,0.026937570422887802,0,0,-999,1,-2,26,-4,4,-151,174124.0
02:08:40.633,AUTO,-35.3632624,149.1652363,27766,0.011189093813300133,0.0025844769552350044,-0.2688376307487488,-0.002744887722656131,-0.00021470204228535295,0.02477746643126011,1,0,-1000,-1,0,24,-3,6,-151,174124.0
02:08:40.835,AUTO,-35.3632624,149.1652363,27766,0.011189093813300133,0.0025844769552350044,-0.2688376307487488,-0.002744887722656131,-0.00021470204228535295,0.02477746643126011,1,0,-1000,-1,0,24,-3,6,-151,174124.0
02:08:41.037,AUTO,-35.3632624,149.1652365,28155,0.009422984905540943,0.0023465254344046116,-0.26264676451683044,-0.007376528810709715,-8.100154809653759e-05,0.025031665340065956,0,0,-999,-6,0,24,-2,8,-151,174124.0
02:08:41.238,AUTO,-35.3632624,149.1652365,28155,0.009422984905540943,0.0023465254344046116,-0.26264676451683044,-0.007376528810709715,-8.100154809653759e-05,0.025031665340065956,0,0,-999,-6,0,24,-2,8,-151,174124.0
02:08:41.441,AUTO,-35.3632624,149.1652365,28155,0.009422984905540943,0.0023465254344046116,-0.26264676451683044,-0.007376528810709715,-8.100154809653759e-05,0.025031665340065956,0,0,-999,-6,0,24,-2,8,-151,174124.0
02:08:41.643,AUTO,-35.3632625,149.1652371,29317,0.003054944798350334,0.0013750536600127816,-0.24484843015670776,-0.005935417488217354,-0.0009650909923948348,0.023922676220536232,1,-1,-1000,-4,0,23,0,10,-151,174124.0
02:08:41.844,AUTO,-35.3632625,149.1652371,29317,0.003054944798350334,0.0013750536600127816,-0.24484843015670776,-0.005935417488217354,-0.0009650909923948348,0.023922676220536232,1,-1,-1000,-4,0,23,0,10,-151,174124.0
02:08:42.046,AUTO,-35.3632625,149.1652373,29705,0.0008668704540468752,0.0010503275552764535,-0.2394620180130005,-0.008461550809442997,-0.001329431775957346,0.021398166194558144,1,-1,-1000,-7,0,21,0,9,-151,174124.0
02:08:42.247,AUTO,-35.3632625,149.1652375,30100,-0.0007362044416368008,0.0008828879799693823,-0.23412449657917023,-0.00642024353146553,-0.00010206259321421385,0.02147587761282921,0,-1,-1000,-5,0,21,0,8,-151,188633.0
02:08:42.449,AUTO,-35.3632625,149.1652377,30488,-0.0015376091469079256,0.0010641781846061349,-0.22911255061626434,0.0006342403357848525,0.002265749964863062,0.0197437833994627,0,-1,-1000,1,3,19,0,7,-151,188633.0
02:08:42.651,AUTO,-35.3632625,149.1652379,30875,-0.0018786258297041059,0.0010460184421390295,-0.2244027704000473,-0.0001580121461302042,-2.7930946089327335e-06,0.020496554672718048,0,-1,-1000,0,0,20,0,6,-151,188633.0
02:08:42.853,AUTO,-35.3632625,149.1652379,30875,-0.0018786258297041059,0.0010460184421390295,-0.2244027704000473,-0.0001580121461302042,-2.7930946089327335e-06,0.020496554672718048,0,-1,-1000,0,0,20,0,6,-151,188633.0
02:08:43.055,AUTO,-35.3632625,149.165238,31259,-0.014777342788875103,0.013071042485535145,-0.1941603720188141,-0.11220239847898483,0.10906267911195755,0.25466981530189514,0,-2,-964,-111,110,254,0,4,-146,188633.0
02:08:43.256,AUTO,-35.3632625,149.165238,31259,-0.014777342788875103,0.013071042485535145,-0.1941603720188141,-0.11220239847898483,0.10906267911195755,0.25466981530189514,0,-2,-964,-111,110,254,0,4,-146,188633.0
02:08:43.458,AUTO,-35.3632625,149.165238,31259,-0.014777342788875103,0.013071042485535145,-0.1941603720188141,-0.11220239847898483,0.10906267911195755,0.25466981530189514,0,-2,-964,-111,110,254,0,4,-146,188633.0
02:08:43.660,AUTO,-35.3632635,149.1652371,32254,-0.04569359868764877,0.03116440959274769,0.13074341416358948,0.09921810030937195,-0.20916952192783356,0.16812966763973236,4,7,-932,100,-208,168,-34,-29,-106,188633.0
02:08:43.861,AUTO,-35.3632635,149.1652371,32254,-0.04569359868764877,0.03116440959274769,0.13074341416358948,0.09921810030937195,-0.20916952192783356,0.16812966763973236,4,7,-932,100,-208,168,-34,-29,-106,188633.0
02:08:44.063,AUTO,-35.3632642,149.1652362,32507,-0.015497216954827309,-0.015500695444643497,0.15338857471942902,0.1282086819410324,-0.15388701856136322,0.03436628356575966,4,12,-941,129,-152,34,-33,-34,-90,188633.0
02:08:44.265,AUTO,-35.3632649,149.1652352,32725,0.011258475482463837,-0.04198579117655754,0.15262673795223236,0.09532538801431656,-0.07032733410596848,-0.022317245602607727,2,10,-950,96,-69,-22,-25,-31,-77,188633.0
02:08:44.466,AUTO,-35.3632653,149.1652345,32910,0.028592916205525398,-0.05175989866256714,0.14348821341991425,0.024589020758867264,-0.018534280359745026,-0.0392000712454319,1,6,-958,25,-17,-39,-14,-22,-66,188633.0
02:08:44.668,AUTO,-35.3632655,149.1652339,33068,0.03932629153132439,-0.051163092255592346,0.13330025970935822,0.08154287934303284,0.014584893360733986,-0.03791100159287453,0,7,-966,82,15,-37,-3,-12,-56,188633.0
02:08:44.870,AUTO,-35.3632655,149.1652337,33202,0.0420076809823513,-0.044292692095041275,0.12461254000663757,-0.010023785755038261,0.03471795842051506,-0.031036963686347008,-1,-2,-971,-9,35,-31,6,-1,-48,188633.0
02:08:45.072,AUTO,-35.3632655,149.1652337,33202,0.0420076809823513,-0.044292692095041275,0.12461254000663757,-0.010023785755038261,0.03471795842051506,-0.031036963686347008,-1,-2,-971,-9,35,-31,6,-1,-48,188633.0
02:08:45.274,AUTO,-35.3632655,149.1652337,33202,0.0420076809823513,-0.044292692095041275,0.12461254000663757,-0.010023785755038261,0.03471795842051506,-0.031036963686347008,-1,-2,-971,-9,35,-31,6,-1,-48,246675.0
02:08:45.476,AUTO,-35.3632655,149.1652337,33202,0.0420076809823513,-0.044292692095041275,0.12461254000663757,-0.010023785755038261,0.03471795842051506,-0.031036963686347008,-1,-2,-971,-9,35,-31,6,-1,-48,246675.0
02:08:45.677,AUTO,-35.3632644,149.1652343,33494,0.03321688622236252,-0.01473897323012352,0.10886409133672714,0.06286843866109848,0.039356619119644165,-0.01996852271258831,-1,-14,-979,63,40,-19,23,21,-27,246675.0
02:08:45.880,AUTO,-35.3632639,149.1652349,33561,0.016682274639606476,-0.004785042256116867,0.1054195761680603,-0.601209819316864,0.03878283128142357,-0.011846396140754223,-1,-35,-982,-600,39,-12,25,25,-24,246675.0
02:08:46.083,AUTO,-35.3632639,149.1652349,33561,0.016682274639606476,-0.004785042256116867,0.1054195761680603,-0.601209819316864,0.03878283128142357,-0.011846396140754223,-1,-35,-982,-600,39,-12,25,25,-24,246675.0
02:08:46.284,AUTO,-35.3632633,149.1652356,33616,0.006641932763159275,0.0035234042443335056,0.10207288712263107,-0.2703917324542999,0.0264811422675848,-0.00756399892270565,-4,-6,-987,-268,27,-7,24,27,-19,246675.0
02:08:46.486,AUTO,-35.3632627,149.1652363,33657,0.00793488323688507,0.009373541921377182,0.09887678921222687,0.4951409697532654,0.0207345113158226,-0.0023288021329790354,-1,25,-983,497,21,-2,22,27,-14,246675.0
02:08:46.688,AUTO,-35.3632622,149.165237,33683,0.009702927432954311,0.013648102059960365,0.09661232680082321,0.5209310054779053,0.01138414815068245,-0.007946152240037918,-1,2,-972,521,12,-7,19,25,-7,246675.0
02:08:46.891,AUTO,-35.3632617,149.1652376,33693,0.005547757260501385,0.015594186261296272,0.0943894013762474,-0.04109414666891098,0.00917983241379261,-0.01224319264292717,-1,-22,-973,-41,10,-12,16,21,0,246675.0
02:08:47.092,AUTO,-35.3632617,149.1652376,33693,0.005547757260501385,0.015594186261296272,0.0943894013762474,-0.04109414666891098,0.00917983241379261,-0.01224319264292717,-1,-22,-973,-41,10,-12,16,21,0,246675.0
02:08:47.294,AUTO,-35.3632617,149.1652376,33693,0.005547757260501385,0.015594186261296272,0.0943894013762474,-0.04109414666891098,0.00917983241379261,-0.01224319264292717,-1,-22,-973,-41,10,-12,16,21,0,246675.0
02:08:47.496,AUTO,-35.3632617,149.1652376,33693,0.005547757260501385,0.015594186261296272,0.0943894013762474,-0.04109414666891098,0.00917983241379261,-0.01224319264292717,-1,-22,-973,-41,10,-12,16,21,0,246675.0
02:08:47.698,AUTO,-35.3632613,149.1652384,33592,-0.04767049849033356,0.028951594606041908,0.08603794127702713,-0.5087391138076782,-0.04132292419672012,-0.010419445112347603,-1,-7,-1039,-507,-40,-10,-6,-1,13,246675.0
02:08:47.899,AUTO,-35.3632614,149.1652382,33562,-0.0420675128698349,0.019853761419653893,0.08407311886548996,0.1724337488412857,-0.03230232745409012,-0.010660707019269466,0,32,-1017,174,-31,-10,-11,-10,8,246675.0
02:08:48.101,AUTO,-35.3632614,149.1652382,33562,-0.0420675128698349,0.019853761419653893,0.08407311886548996,0.1724337488412857,-0.03230232745409012,-0.010660707019269466,0,32,-1017,174,-31,-10,-11,-10,8,246675.0
02:08:48.302,AUTO,-35.3632616,149.1652377,33540,-0.0321323536336422,0.012701201252639294,0.08177149295806885,0.7064634561538696,-0.023796018213033676,-0.00864885188639164,-1,39,-1037,707,-22,-8,-14,-20,3,46047.0
02:08:48.504,AUTO,-35.363262,149.1652369,33531,-0.032104216516017914,0.008099835366010666,0.07970588654279709,0.4782530963420868,-0.012996613048017025,-0.011306540109217167,1,13,-1031,478,-11,-11,-16,-29,0,46047.0
02:08:48.706,AUTO,-35.3632624,149.1652358,33533,-0.04147128388285637,0.0056973895989358425,0.07779350876808167,-0.23294398188591003,-0.011093400418758392,-0.005681151524186134,-1,-13,-1008,-232,-10,-5,-18,-39,-5,46047.0
02:08:48.908,AUTO,-35.3632628,149.1652344,33549,-0.05294676870107651,0.003251128364354372,0.0762644112110138,-0.6529491543769836,-0.005076976493000984,-0.011056755669414997,-1,-15,-1013,-652,-3,-10,-19,-48,-11,46047.0
02:08:49.110,AUTO,-35.3632628,149.1652344,33549,-0.05294676870107651,0.003251128364354372,0.0762644112110138,-0.6529491543769836,-0.005076976493000984,-0.011056755669414997,-1,-15,-1013,-652,-3,-10,-19,-48,-11,46047.0
02:08:49.312,AUTO,-35.3632628,149.1652344,33549,-0.05294676870107651,0.003251128364354372,0.0762644112110138,-0.6529491543769836,-0.005076976493000984,-0.011056755669414997,-1,-15,-1013,-652,-3,-10,-19,-48,-11,46047.0
02:08:49.524,AUTO,-35.3632628,149.1652344,33549,-0.05294676870107651,0.003251128364354372,0.0762644112110138,-0.6529491543769836,-0.005076976493000984,-0.011056755669414997,-1,-15,-1013,-652,-3,-10,-19,-48,-11,46047.0
02:08:49.726,AUTO,-35.3632644,149.1652286,33666,-0.057182732969522476,-0.017942575737833977,-0.26498764753341675,0.33433473110198975,-0.022901087999343872,-0.8557802438735962,-9,25,-1028,335,-21,-855,-23,-79,-23,46047.0
02:08:49.928,AUTO,-35.363265,149.165226,33728,-0.0692424327135086,-0.034360211342573166,-0.480716735124588,-0.4199784994125366,-0.005541132763028145,-0.8515288829803467,-15,-6,-1017,-419,-4,-851,-25,-93,-28,46047.0
02:08:50.130,AUTO,-35.3632657,149.1652231,33801,-0.07322447001934052,-0.05417400225996971,-0.6884258389472961,-0.35074567794799805,-0.02005108818411827,-0.8071460127830505,-25,8,-1031,-349,-18,-806,-28,-107,-33,46047.0
02:08:50.332,AUTO,-35.3632657,149.1652231,33801,-0.07322447001934052,-0.05417400225996971,-0.6884258389472961,-0.35074567794799805,-0.02005108818411827,-0.8071460127830505,-25,8,-1031,-349,-18,-806,-28,-107,-33,46047.0
02:08:50.534,AUTO,-35.3632665,149.1652197,33888,-0.06360994279384613,-0.07508231699466705,-0.8815494775772095,0.2474362552165985,-0.04176286235451698,-0.7613839507102966,-30,37,-1022,249,-40,-761,-31,-125,-38,46047.0
02:08:50.736,AUTO,-35.3632674,149.1652158,33989,-0.053086597472429276,-0.09477903693914413,-1.0644495487213135,0.15869131684303284,-0.03956928849220276,-0.7046451568603516,-34,10,-1026,159,-38,-704,-36,-145,-44,46047.0
02:08:50.938,AUTO,-35.3632684,149.1652114,34105,-0.043112412095069885,-0.11326977610588074,-1.2434228658676147,-0.279387503862381,-0.03272648900747299,-0.6999923586845398,-45,-13,-1029,-278,-31,-699,-41,-166,-50,46047.0
02:08:51.141,AUTO,-35.3632684,149.1652114,34105,-0.043112412095069885,-0.11326977610588074,-1.2434228658676147,-0.279387503862381,-0.03272648900747299,-0.6999923586845398,-45,-13,-1029,-278,-31,-699,-41,-166,-50,46047.0
02:08:51.344,AUTO,-35.3632684,149.1652114,34105,-0.043112412095069885,-0.11326977610588074,-1.2434228658676147,-0.279387503862381,-0.03272648900747299,-0.6999923586845398,-45,-13,-1029,-278,-31,-699,-41,-166,-50,69679.0
02:08:51.546,AUTO,-35.3632684,149.1652114,34105,-0.043112412095069885,-0.11326977610588074,-1.2434228658676147,-0.279387503862381,-0.03272648900747299,-0.6999923586845398,-45,-13,-1029,-278,-31,-699,-41,-166,-50,69679.0
02:08:51.748,AUTO,-35.3632721,149.1651943,34552,0.02825615368783474,-0.13679254055023193,-1.7479217052459717,-0.056619931012392044,0.003261239267885685,-0.37790414690971375,-50,-34,-1033,-55,4,-377,-56,-237,-70,69679.0
02:08:51.950,AUTO,-35.3632736,149.1651874,34738,0.03561573475599289,-0.13151274621486664,-1.7933331727981567,0.009941102005541325,0.021122273057699203,-0.029146438464522362,-61,-31,-1034,11,22,-29,-61,-258,-78,69679.0
02:08:52.152,AUTO,-35.3632751,149.1651798,34942,0.03921803832054138,-0.1208796575665474,-1.7810078859329224,0.06087594851851463,0.05089990794658661,0.09818599373102188,-57,-33,-1033,62,51,98,-65,-278,-85,69679.0
02:08:52.353,AUTO,-35.3632751,149.1651798,34942,0.03921803832054138,-0.1208796575665474,-1.7810078859329224,0.06087594851851463,0.05089990794658661,0.09818599373102188,-57,-33,-1033,62,51,98,-65,-278,-85,69679.0
02:08:52.555,AUTO,-35.3632767,149.1651717,35167,0.03939870744943619,-0.11110789328813553,-1.7557263374328613,-0.01960138976573944,0.034777261316776276,0.09223729372024536,-61,-37,-1026,-18,35,92,-67,-294,-93,69679.0
02:08:52.757,AUTO,-35.3632784,149.1651633,35409,0.03804555907845497,-0.10632221400737762,-1.738091230392456,0.006431004498153925,0.023512117564678192,0.053416844457387924,-66,-32,-1021,7,24,53,-69,-307,-99,69679.0
02:08:52.959,AUTO,-35.36328,149.1651545,35665,0.036345843225717545,-0.10446571558713913,-1.7310521602630615,-0.025772996246814728,0.029073121026158333,0.01697942428290844,-55,-24,-1013,-24,29,17,-69,-320,-103,69679.0
02:08:53.161,AUTO,-35.36328,149.1651545,35665,0.036345843225717545,-0.10446571558713913,-1.7310521602630615,-0.025772996246814728,0.029073121026158333,0.01697942428290844,-55,-24,-1013,-24,29,17,-69,-320,-103,69679.0
02:08:53.363,AUTO,-35.36328,149.1651545,35665,0.036345843225717545,-0.10446571558713913,-1.7310521602630615,-0.025772996246814728,0.029073121026158333,0.01697942428290844,-55,-24,-1013,-24,29,17,-69,-320,-103,69679.0
02:08:53.565,AUTO,-35.36328,149.1651545,35665,0.036345843225717545,-0.10446571558713913,-1.7310521602630615,-0.025772996246814728,0.029073121026158333,0.01697942428290844,-55,-24,-1013,-24,29,17,-69,-320,-103,69679.0
02:08:53.767,AUTO,-35.3632851,149.1651265,36495,0.03523903340101242,-0.0972217246890068,-1.7390477657318115,0.012091799639165401,0.005916990339756012,-0.02041683904826641,-75,-42,-1004,13,6,-20,-78,-345,-113,69679.0
02:08:53.969,AUTO,-35.3632868,149.1651168,36785,0.032903969287872314,-0.08854439109563828,-1.744374394416809,-0.006275681313127279,0.04618048295378685,-0.023485014215111732,-79,-41,-1006,-4,47,-23,-79,-351,-115,69679.0
02:08:54.171,AUTO,-35.3632887,149.1651068,37084,0.03158991038799286,-0.08296247571706772,-1.7502070665359497,-0.004815300926566124,0.02098391391336918,-0.023733723908662796,-66,-19,-999,-3,21,-23,-80,-356,-116,69679.0
02:08:54.373,AUTO,-35.3632905,149.1650968,37383,0.029377643018960953,-0.07965448498725891,-1.7571914196014404,0.013286048546433449,-0.0014811953296884894,-0.04376809671521187,-82,-55,-1004,14,0,-43,-84,-358,-117,85412.0
02:08:54.574,AUTO,-35.3632905,149.1650968,37383,0.029377643018960953,-0.07965448498725891,-1.7571914196014404,0.013286048546433449,-0.0014811953296884894,-0.04376809671521187,-82,-55,-1004,14,0,-43,-84,-358,-117,85412.0
02:08:54.776,AUTO,-35.3632924,149.1650869,37685,0.03174740821123123,-0.08444660156965256,-1.767067790031433,-0.013355299830436707,-0.011643887497484684,-0.03092939965426922,-79,-41,-998,-11,-10,-30,-85,-360,-117,85412.0
02:08:54.978,AUTO,-35.3632943,149.1650768,37987,0.028179241344332695,-0.08244498074054718,-1.775675654411316,-0.021932246163487434,0.015504466369748116,-0.03324185311794281,-77,-44,-997,-20,16,-32,-86,-364,-117,85412.0
02:08:55.181,AUTO,-35.3632943,149.1650768,37987,0.028179241344332695,-0.08244498074054718,-1.775675654411316,-0.021932246163487434,0.015504466369748116,-0.03324185311794281,-77,-44,-997,-20,16,-32,-86,-364,-117,85412.0
02:08:55.383,AUTO,-35.3632943,149.1650768,37987,0.028179241344332695,-0.08244498074054718,-1.775675654411316,-0.021932246163487434,0.015504466369748116,-0.03324185311794281,-77,-44,-997,-20,16,-32,-86,-364,-117,85412.0
02:08:55.586,AUTO,-35.3632943,149.1650768,37987,0.028179241344332695,-0.08244498074054718,-1.775675654411316,-0.021932246163487434,0.015504466369748116,-0.03324185311794281,-77,-44,-997,-20,16,-32,-86,-364,-117,85412.0
02:08:55.788,AUTO,-35.3633002,149.1650465,38888,0.03729122504591942,-0.08703538030385971,-1.8197332620620728,-0.00842828769236803,-0.031109454110264778,-0.05532507598400116,-81,-46,-990,-6,-29,-55,-94,-369,-116,85412.0
02:08:55.990,AUTO,-35.3633023,149.1650362,39184,0.037550486624240875,-0.08495552837848663,-1.8342294692993164,-0.0003389609046280384,0.06170938163995743,-0.04914528876543045,-81,-46,-999,1,62,-49,-95,-375,-114,85412.0
02:08:56.191,AUTO,-35.3633044,149.1650258,39481,0.044352974742650986,-0.07393889129161835,-1.8400614261627197,0.030713506042957306,0.059752121567726135,0.012048191390931606,-76,-47,-999,32,60,12,-96,-376,-115,85412.0
02:08:56.393,AUTO,-35.3633065,149.1650154,39779,0.054053936153650284,-0.06667764484882355,-1.8261128664016724,0.052047695964574814,0.01716339960694313,0.09920810163021088,-81,-51,-998,53,18,99,-95,-375,-115,85412.0
02:08:56.595,AUTO,-35.3633065,149.1650154,39779,0.054053936153650284,-0.06667764484882355,-1.8261128664016724,0.052047695964574814,0.01716339960694313,0.09920810163021088,-81,-51,-998,53,18,99,-95,-375,-115,85412.0
02:08:56.797,AUTO,-35.3633086,149.165005,40078,0.0704759731888771,-0.06700804084539413,-1.7875946760177612,0.06254082918167114,0.02377430349588394,0.18333430588245392,-78,-38,-990,64,24,183,-90,-374,-115,85412.0
02:08:56.999,AUTO,-35.3633105,149.1649947,40372,0.06825650483369827,-0.05118250474333763,-1.7522581815719604,-0.03937717154622078,0.11148632317781448,0.09471520036458969,-80,-40,-987,-37,112,95,-82,-372,-112,85412.0
02:08:57.201,AUTO,-35.3633105,149.1649947,40372,0.06825650483369827,-0.05118250474333763,-1.7522581815719604,-0.03937717154622078,0.11148632317781448,0.09471520036458969,-80,-40,-987,-37,112,95,-82,-372,-112,85412.0
02:08:57.403,AUTO,-35.3633105,149.1649947,40372,0.06825650483369827,-0.05118250474333763,-1.7522581815719604,-0.03937717154622078,0.11148632317781448,0.09471520036458969,-80,-40,-987,-37,112,95,-82,-372,-112,70400.0
02:08:57.605,AUTO,-35.3633105,149.1649947,40372,0.06825650483369827,-0.05118250474333763,-1.7522581815719604,-0.03937717154622078,0.11148632317781448,0.09471520036458969,-80,-40,-987,-37,112,95,-82,-372,-112,70400.0
02:08:57.807,AUTO,-35.3633153,149.1649651,41207,0.03764433041214943,0.017786812037229538,-1.7387611865997314,-0.01261148601770401,0.07518474757671356,-0.020060790702700615,-71,-35,-975,-11,76,-19,-67,-333,-99,70400.0
02:08:58.009,AUTO,-35.3633167,149.1649561,41456,0.03145020827651024,0.03353799507021904,-1.7430527210235596,-0.018511474132537842,0.04599224403500557,-0.018492698669433594,-62,-32,-969,-17,46,-18,-64,-311,-92,70400.0
02:08:58.211,AUTO,-35.3633181,149.1649478,41686,0.02660568803548813,0.04529206082224846,-1.745854377746582,-0.03489086404442787,0.04356620833277702,-0.005110572092235088,-63,-37,-970,-33,44,-4,-61,-288,-84,70400.0
02:08:58.414,AUTO,-35.3633194,149.1649401,41895,0.02563590183854103,0.05420155078172684,-1.7476201057434082,0.03530846908688545,0.05027693137526512,-0.006087546236813068,-54,-25,-966,36,51,-6,-58,-263,-75,70400.0
02:08:58.616,AUTO,-35.3633194,149.1649401,41895,0.02563590183854103,0.05420155078172684,-1.7476201057434082,0.03530846908688545,0.05027693137526512,-0.006087546236813068,-54,-25,-966,36,51,-6,-58,-263,-75,70400.0
02:08:58.818,AUTO,-35.3633206,149.1649331,42082,0.023809347301721573,0.06465353816747665,-1.7484210729599,-0.050349120050668716,0.044566571712493896,-0.0011730054393410683,-51,-30,-968,-49,45,0,-55,-236,-66,70400.0
02:08:59.020,AUTO,-35.3633218,149.1649268,42245,0.022802554070949554,0.0747547596693039,-1.7491003274917603,0.0005659214220941067,0.04316478222608566,-0.0020607735496014357,-45,-25,-970,2,44,-1,-51,-210,-58,70400.0
02:08:59.228,AUTO,-35.3633218,149.1649268,42245,0.022802554070949554,0.0747547596693039,-1.7491003274917603,0.0005659214220941067,0.04316478222608566,-0.0020607735496014357,-45,-25,-970,2,44,-1,-51,-210,-58,70400.0
02:08:59.432,AUTO,-35.3633218,149.1649268,42245,0.022802554070949554,0.0747547596693039,-1.7491003274917603,0.0005659214220941067,0.04316478222608566,-0.0020607735496014357,-45,-25,-970,2,44,-1,-51,-210,-58,70400.0
02:08:59.634,AUTO,-35.3633245,149.1649128,42592,0.014350765384733677,0.08975429087877274,-1.7505744695663452,-0.6209491491317749,-0.013361962512135506,0.0031844559125602245,-27,-45,-971,-619,-12,3,-34,-127,-27,70400.0
02:08:59.835,AUTO,-35.3633245,149.1649128,42592,0.014350765384733677,0.08975429087877274,-1.7505744695663452,-0.6209491491317749,-0.013361962512135506,0.0031844559125602245,-27,-45,-971,-619,-12,3,-34,-127,-27,70400.0
02:09:00.037,AUTO,-35.3633252,149.1649096,42660,0.011665265075862408,0.07910571992397308,-1.7513664960861206,-0.03493519499897957,-0.06373755633831024,-0.014121870510280132,-20,4,-974,-32,-62,-13,-27,-102,-22,70400.0
