time_stamp,RTL_ALT,roll,pitch,yaw,rollspeed,pitchspeed,yawspeed,lat,lon,relative_alt,vx,vy,vz,xacc,yacc,zacc,xgyro,ygyro,zgyro,MODE
03:53:00,1500.0,-0.0005862637772224844,0.0009739472297951579,0.021530602127313614,0.00025100522907450795,0.00025835144333541393,0.0015606246888637543,-35.3632622,149.1652375,31.0,-1.0,1.0,-1.0,0.0,1.0,-1000.0,1.0,1.0,0.0,STABILIZE
03:53:04,1500.0,-0.0007580787350889295,0.0009962231270037591,0.020384516566991806,0.000285368732875213,0.0002011388132814318,0.0013646932784467936,-35.3632622,149.1652375,11.0,-1.0,1.0,0.0,0.0,1.0,-1000.0,1.0,1.0,0.0,AUTO
03:53:05,300000.0,-0.0007119195943232626,0.0010428087261971086,0.020192047115415335,0.00029432293376885355,0.00027925379981752485,0.0014045193966012448,-35.363262125,149.1652375,0.0,-0.25,0.25,0.0,0.0,1.25,-1000.0,0.5,0.25,0.25,AUTO
03:53:06,300000.0,-0.0005403375253081322,0.0012544438941404223,0.019992065615952015,0.0003651785955298692,0.00015881352010183036,0.0013199083041399717,-35.3632621,149.1652375,0.0,0.0,0.0,0.0,0.0,1.5,-1000.0,0.0,0.5,0.5,AUTO
03:53:08,300000.0,0.0012576809640449937,0.0009606402963981964,0.019497363828122616,0.0006508933147415519,0.002175541565520689,0.0014169518253766,-35.3632621,149.1652375,92.0,0.0,0.0,-34.5,0.0,0.5,-1065.0,0.5,2.5,0.5,AUTO
03:53:09,130221.0,0.009263066138373688,0.000727086458937265,0.019338855519890785,0.023527964251115918,-0.001992315170355141,0.0016334464307874441,-35.3632621,149.1652375,874.75,0.0,1.5,-126.0,0.0,0.0,-1064.0,23.75,-1.5,1.0,AUTO
03:53:10,130221.0,0.048517925664782524,-0.006027919938787818,0.005848359316587448,0.021090982481837273,0.0026558656245470047,-0.017313580960035324,-35.363261800000004,149.1652386,2336.0,4.5,26.5,-146.5,0.0,-4.0,-999.5,22.0,3.5,-17.5,AUTO
03:53:12,130221.0,-0.056224290281534195,-0.00041351281106472015,-0.09096352383494377,-0.00921036396175623,-0.02334950678050518,-0.00447856355458498,-35.363261300000005,149.16524594999998,5385.0,-6.5,2.0,-148.5,2.5,-1.5,-1001.0,-8.5,-23.0,-4.5,AUTO
03:53:13,251484.0,-0.036687528947368264,-0.01791752176359296,-0.07806890457868576,0.05934020318090916,0.010760098695755005,0.006092238239943981,-35.3632616,149.16524325,6919.75,3.5,-50.75,-148.5,-6.0,8.0,-1001.75,59.5,11.0,5.0,AUTO
03:53:14,251484.0,0.024450820055790246,-0.00040117697790265083,-0.07579454034566879,0.05106761306524277,0.02783234231173992,-0.005484906956553459,-35.36326115,149.1652371,8467.0,6.0,-48.0,-151.0,-8.0,9.5,-1002.0,51.0,28.0,-5.5,AUTO
03:53:16,251484.0,0.005317208357155323,0.0037223966792225838,-0.1009606420993805,-0.05727750156074762,-0.04261202272027731,0.013311727088876069,-35.36326205,149.1652353,11572.0,-16.5,25.5,-149.0,5.5,-2.5,-1001.0,-56.0,-41.5,13.0,AUTO
03:53:17,64284.0,-0.01878526248037815,-0.013982164673507214,-0.10624357499182224,0.005169278709217906,0.001166713445854839,-0.020713566336780787,-35.36326305,149.1652373,13116.75,-3.25,7.5,-151.5,2.0,-1.5,-1001.25,5.5,1.75,-20.25,AUTO
03:53:18,64284.0,-0.003818557015620172,-0.004968410818037228,-0.13491448014974594,0.01725848065689206,0.013230244163423777,-0.028286767192184925,-35.3632628,149.1652371,14678.0,5.5,-7.5,-152.0,-2.0,0.0,-1000.0,17.5,13.5,-28.0,AUTO
03:53:20,64284.0,0.010365185793489218,0.008343151770532131,-0.17501822859048843,-0.003985613235272467,0.0007220932748168707,-0.011203783098608255,-35.3632616,149.16523554999998,17795.5,0.5,1.5,-152.0,-0.5,0.0,-999.5,-3.0,1.5,-11.5,AUTO
03:53:21,300000.0,0.005576961557380855,0.005913605913519859,-0.1864745430648327,-0.0037645220290869474,-0.0022108571138232946,-0.012315035564824939,-35.3632615,149.16523565,19357.25,-2.5,6.0,-152.0,0.0,-0.25,-1000.0,-2.5,-0.75,-12.0,AUTO
03:53:22,300000.0,0.002431246160995215,0.0038045807741582394,-0.20134524255990982,-0.001828190201194957,-0.0005994011298753321,-0.017347772605717182,-35.363261550000004,149.16523615,20914.5,-3.0,5.5,-152.5,0.5,0.0,-1000.0,-1.0,0.5,-17.0,AUTO
03:53:24,300000.0,0.002047666348516941,0.0026318917516618967,-0.23944950848817825,0.0019940813072025776,0.0009282294195145369,-0.020239354111254215,-35.36326175,149.16523665,24030.5,-2.5,3.0,-153.0,0.0,0.0,-1000.5,2.5,1.5,-20.0,AUTO
03:53:25,200.0,-0.003686283773276955,0.004159373522270471,-0.25249820947647095,-0.008177983065252192,0.0023547114979010075,-0.00045791955199092627,-35.363261824999995,149.16523665,25584.5,-3.5,-0.5,-152.5,0.0,-0.25,-997.0,-7.5,3.25,-1.0,AUTO
03:53:26,200.0,0.010617482010275126,0.0027743621030822396,-0.23589294403791428,0.006006935611367226,-0.0026472394820302725,0.02345628198236227,-35.36326215,149.1652365,27141.0,-4.0,2.5,-152.5,0.5,0.0,-999.5,7.0,-1.5,22.5,AUTO
03:53:28,200.0,0.0005882119585294276,0.0014156826073303819,-0.19218770414590836,-0.0016203849809244275,0.00024004658916965127,0.020097240805625916,-35.3632624,149.16523755,30247.5,0.0,7.0,-152.0,0.0,-1.0,-1000.0,-0.5,1.0,19.5,AUTO
03:53:29,200.0,-0.005494192948390264,0.006425871921237558,-0.1629927847534418,-0.03152992614195682,0.030663045909022912,0.09820043621584773,-35.363262375000005,149.16523795,31796.5,-0.5,3.0,-150.5,0.0,-0.25,-990.0,-30.5,31.75,98.0,AUTO
03:53:30,200.0,-0.02801482379436493,0.016469311900436878,0.09081625938415527,-0.019464079290628433,-0.009104505181312561,0.28981869108974934,-35.36326325,149.16523684999999,33199.5,-20.5,-21.5,-120.5,1.5,5.0,-964.5,-18.5,-8.0,289.0,AUTO
03:53:32,200.0,0.029466562904417515,-0.019059750717133284,0.15825746208429337,-0.2436346411705017,0.03647460974752903,-0.020389148965477943,-35.3632643,149.165234,34847.5,18.5,18.0,-49.0,-2.0,-19.0,-974.0,-242.5,37.0,-20.0,AUTO
03:53:33,36840.0,0.004835497005842626,0.010016083135269582,0.14268694072961807,0.005307637155056,0.0171441282145679,-0.01035220199264586,-35.363262375,149.165236475,35233.5,19.0,26.25,-27.0,-1.5,-7.0,-976.0,6.25,17.75,-10.0,AUTO
03:53:34,36840.0,-0.010552964638918638,0.026087437756359577,0.12919096276164055,0.06956788897514343,-0.024268106324598193,-0.004738510528113693,-35.36326115,149.1652384,35345.0,3.5,10.0,1.5,0.5,-8.5,-989.5,70.0,-23.0,-4.5,AUTO
03:53:36,36840.0,0.061583537608385086,0.02145756408572197,0.1847768910229206,0.038511693477630615,0.0032352383714169264,0.37024302827194333,-35.363263950000004,149.1652416,35243.0,-32.5,41.0,-9.0,12.5,-6.0,-1021.0,40.0,4.5,370.0,AUTO
03:53:37,300000.0,0.11499070189893246,-0.016241103585343808,0.7675641849637032,0.01569443941116333,0.002865267771994695,0.7985292375087738,-35.363268274999996,149.16524985,35383.5,-65.0,109.25,-25.0,9.0,-27.5,-1021.25,17.0,3.75,798.25,AUTO
03:53:38,300000.0,0.10668208450078964,-0.11235211044549942,1.4925041794776917,-0.04442322871182114,-0.007602606434375048,0.6966077983379364,-35.363276850000005,149.1652678,35719.0,-119.0,202.0,-45.0,-23.5,-45.0,-1031.5,-43.0,-6.5,696.5,AUTO
03:53:40,300000.0,0.04449787177145481,0.004138849559240043,2.2459373474121094,-0.0003905380144715309,0.03536557499319315,-0.06631766259670258,-35.363306449999996,149.1653283,37116.5,-165.5,270.5,-84.0,-70.5,-28.0,-988.0,1.0,36.5,-65.5,AUTO
03:53:41,127965.0,0.041136234998703,0.00849706120789051,2.2087302207946777,0.06973689794540405,0.009830689654336311,-0.003176655256538652,-35.36332035,149.16535574999997,37857.0,-136.75,217.25,-59.5,-51.5,-27.5,-974.75,70.25,10.5,-2.5,AUTO
03:53:42,127965.0,0.03409540094435215,0.029263369739055634,2.2046597003936768,-0.06730537116527557,0.0324724018573761,0.004334055352956057,-35.363331349999996,149.16537685,38350.5,-106.5,165.0,-38.5,-40.5,-36.0,-979.0,-67.0,33.0,4.0,AUTO
03:53:44,127965.0,0.010195205686613917,0.06854134984314442,2.1941709518432617,0.009099707007408142,-0.06760155223309994,-0.014165795058943331,-35.3633441,149.16539999999998,38790.5,-25.5,38.0,-4.5,-9.5,-5.5,-986.0,10.0,-66.5,-14.0,AUTO
03:53:45,149846.0,-0.0016776147531345487,-0.02691609668545425,2.1891006231307983,0.007533259689807892,-0.14891570806503296,0.0058509441441856325,-35.36334565,149.165402375,38788.25,-5.25,12.25,2.5,-3.5,-9.75,-1008.25,7.75,-147.5,6.0,AUTO
03:53:46,149846.0,-0.0029710158705711365,-0.1252669170498848,2.184790849685669,-0.22750946134328842,-0.02128366008400917,-0.017783461837098002,-35.3633483,149.16540815,38830.5,-49.0,92.5,-12.0,-23.5,-16.0,-1026.5,-225.5,-20.0,-16.5,AUTO
03:53:48,149846.0,0.040371568873524666,0.01052238792181015,2.1768105030059814,0.3297608494758606,0.18432405591011047,-0.011560622602701187,-35.36336545,149.1654454,39548.5,-107.5,184.0,-52.5,-47.5,-8.0,-1009.5,330.5,185.0,-11.0,AUTO
03:53:49,22952.0,0.03187722200527787,0.1294569931924343,2.1745073795318604,-0.08901382237672806,-0.0018230229616165161,-0.009893147740513086,-35.363374050000004,149.16546267500001,40041.25,-58.25,89.0,-34.5,-24.5,-15.5,-974.5,-88.0,-0.25,-9.25,AUTO
03:53:50,22952.0,0.006424168590456247,0.07125855796039104,2.169364094734192,0.03920561075210571,-0.10002756118774414,-0.01567850634455681,-35.3633775,149.1654679,40234.5,-10.5,4.5,-5.5,-3.0,5.5,-978.0,40.5,-98.0,-15.0,AUTO
03:53:52,22952.0,0.008767423452809453,-0.1201004646718502,2.162268280982971,-0.13805720210075378,-0.022694244980812073,-0.009023927967064083,-35.36337875,149.16547125,40241.5,-35.5,58.5,-6.0,-18.5,-15.0,-1024.5,-137.5,-21.0,-8.5,AUTO
03:53:53,300000.0,0.0377135849557817,-0.08955592475831509,2.155012786388397,-0.05732366070151329,0.10559224709868431,-0.004869956901529804,-35.363383675,149.165484075,40402.5,-90.75,145.0,-28.0,-38.5,-22.75,-1024.75,-56.0,106.75,-4.0,AUTO
03:53:54,300000.0,0.05062928795814514,0.0667876823572442,2.156911015510559,-0.342838890850544,0.19210165739059448,0.008810325525701046,-35.36339135,149.16550215,40775.0,-92.5,124.5,-38.5,-36.5,-31.5,-997.0,-340.5,193.5,9.0,AUTO
03:53:56,300000.0,0.004258947097696364,0.02496956381946802,2.154851198196411,0.008767664432525635,-0.06809103116393089,0.0023080818355083466,-35.36339735,149.16551135,41130.0,-6.5,-40.0,2.5,7.0,-7.5,-986.0,10.0,-65.5,2.5,AUTO
03:53:57,93615.0,-0.00879705196712166,-0.08797029498964548,2.1512802243232727,-0.15857366286218166,-0.12369029875844717,-0.010289032710716128,-35.363397575,149.165509525,41099.75,-19.25,3.5,1.75,-2.75,-8.75,-1012.25,-156.75,-121.0,-10.25,AUTO
03:53:58,93615.0,0.019241200760006905,-0.11948061361908913,2.1467944383621216,0.42719666659832,0.050704337656497955,-0.01021159766241908,-35.36340105,149.1655169,41176.5,-69.5,104.0,-17.0,-27.0,4.0,-1034.5,429.0,52.5,-9.0,AUTO
03:54:00,93615.0,0.018300381489098072,0.1279504969716072,2.1454179286956787,0.09509888291358948,-0.0161619670689106,-0.007253475720062852,-35.3634139,149.16554245,41736.5,-32.5,37.5,-18.0,-10.0,-8.5,-982.5,96.5,-14.0,-6.0,AUTO
03:54:01,97817.0,-0.01681949506746605,0.037320727948099375,2.1420037150382996,-0.2575594559311867,-0.13799908012151718,0.007992539060069248,-35.363415475,149.1655424,41812.5,13.5,-34.0,2.25,9.0,-12.75,-989.25,-255.75,-135.25,8.25,AUTO
03:54:02,97817.0,-0.021595065481960773,-0.08601893857121468,2.1421209573745728,0.02743762731552124,-0.08915983512997627,0.0021595866419374943,-35.36341535,149.16554,41783.0,2.0,11.0,0.5,0.0,-2.5,-1012.0,29.0,-86.0,3.0,AUTO
03:54:04,97817.0,0.012232213281095028,0.016168339177966118,2.140532612800598,-0.341786190867424,0.14291594922542572,-0.0002432351466268301,-35.36342435,149.16555979999998,42093.0,-58.5,132.0,-30.0,-32.0,-36.0,-1005.5,-340.0,145.0,0.5,AUTO
03:54:05,140046.0,0.013709057122468948,0.1265860330313444,2.1389330625534058,0.07217902317643166,-0.006781833246350288,0.0001331646926701069,-35.363429325,149.1655706,42367.75,-15.75,46.25,-16.5,-11.25,-3.25,-982.5,73.75,-4.25,1.0,AUTO
03:54:06,140046.0,-0.006903351284563541,0.032187837176024914,2.135405421257019,-0.01566159725189209,-0.09795645624399185,0.006393207469955087,-35.36342995,149.16557089999998,42432.5,18.5,-21.0,1.5,4.0,0.0,-993.0,-14.5,-94.5,6.5,AUTO
03:54:08,140046.0,0.01535154995508492,-0.10238146409392357,2.1335413455963135,0.2676495146006346,0.00977332517504692,-0.0025562263908796012,-35.36343075,149.16557455,42448.5,-40.0,85.0,-11.5,-24.5,13.5,-1023.5,270.0,12.0,-1.5,AUTO
03:54:09,91699.0,0.0397739065811038,0.0038268854841589928,2.13191157579422,0.06441220734268427,0.1386996004730463,-0.001334751257672906,-35.363435375,149.165587325,42651.0,-67.25,113.25,-26.5,-32.0,-11.5,-1007.0,65.75,140.75,-0.25,AUTO
03:54:10,91699.0,0.03116876631975174,0.10201898589730263,2.1331839561462402,0.061055392026901245,-0.008692961186170578,-0.014309708261862397,-35.363439650000004,149.16559735,42894.0,-37.5,37.0,-16.5,-12.0,-2.0,-989.5,63.0,-6.0,-12.5,AUTO
03:54:12,91699.0,-0.009707878343760967,-0.05525065865367651,2.131850838661194,-0.23259799927473068,-0.08121716976165771,-0.0022800536826252937,-35.363440999999995,149.16559655,42965.5,-8.5,-9.5,2.0,2.0,-11.0,-1005.0,-230.0,-78.0,-1.0,AUTO
03:54:13,86388.0,0.0031332700746133924,-0.08462018985301256,2.129802167415619,-0.011830830946564674,0.0552950045093894,0.0014510114560835063,-35.363443025,149.165599575,42993.75,-42.25,65.75,-9.25,-14.75,-12.5,-1020.5,-10.25,57.75,2.25,AUTO
03:54:14,86388.0,0.011619247496128082,0.005556412041187286,2.130077838897705,-0.2048649750649929,0.0907660499215126,-0.005344737088307738,-35.363448000000005,149.1656092,43161.5,-52.0,92.0,-20.0,-21.0,-34.0,-1001.5,-204.0,93.0,-4.5,AUTO
03:54:16,86388.0,-0.007458304171450436,0.04506360087543726,2.1269803047180176,0.15700501203536987,-0.0854308120906353,0.0070557521539740264,-35.363454000000004,149.1656189,43445.0,9.0,-6.5,-2.5,3.0,3.5,-994.0,158.5,-82.5,8.0,AUTO
03:54:17,200.0,-0.017923554754815996,-0.03369325786479749,2.1274160146713257,-0.1769431307911873,-0.07872115354984999,0.006660571205429733,-35.363454024999996,149.16561755,43440.75,12.25,-0.25,1.5,1.5,-11.25,-1007.0,-175.5,-75.25,7.5,AUTO
03:54:18,200.0,-0.010175278410315514,-0.05443267896771431,2.1275930404663086,-0.042940884828567505,0.016710255295038223,-0.005042798933573067,-35.363455099999996,149.1656198,43458.5,-11.0,50.5,-5.0,-10.5,-1.5,-1015.5,-41.5,19.5,-4.0,AUTO
03:54:20,200.0,0.008371020667254925,0.032710366416722536,2.1268614530563354,-0.2799999639391899,0.050862183794379234,0.003071847837418318,-35.363460700000005,149.1656337,43709.5,-18.5,52.5,-14.0,-12.0,-19.0,-999.0,-278.0,53.5,3.5,AUTO
03:54:21,200.0,0.004811611579498276,0.03523695713374764,2.1252585649490356,0.11540796188637614,-0.056848784210160375,-0.0017426760459784418,-35.363462150000004,149.165637425,43814.25,-2.25,11.5,-5.75,-3.0,5.0,-995.75,116.5,-53.5,-0.5,AUTO
03:54:22,200.0,0.0060758828185498714,-0.02226976864039898,2.12555730342865,0.10665658116340637,-0.03122636873740703,0.003281370154581964,-35.363462600000005,149.16563845000002,43851.0,-5.5,12.0,-3.0,-3.0,-4.0,-996.5,107.0,-28.0,4.0,AUTO
03:54:24,200.0,0.00993253948399797,0.02099066460505128,2.125004768371582,-0.008828014135360718,0.01813925988972187,-0.00014055080828256905,-35.3634649,149.16564449999998,43941.5,-15.0,19.5,-5.0,-5.0,-1.5,-1009.5,-7.5,21.0,0.5,AUTO
03:54:25,265818.0,0.0034090778208337724,0.02625599503517151,2.1245055198669434,0.026476068887859583,-0.003827715408988297,-0.001166724250651896,-35.363465825000006,149.16564607499998,43976.5,-5.25,0.0,-2.0,-1.0,-0.25,-997.25,27.25,-0.75,0.25,AUTO
03:54:26,265818.0,-0.0057011074386537075,0.008561975788325071,2.123647451400757,-0.1911303550004959,-0.02027298230677843,-0.0006947022047825158,-35.3634661,149.1656457,43976.5,1.0,-7.5,0.0,1.5,-9.5,-1005.5,-189.0,-17.0,0.5,AUTO
03:54:28,265818.0,-0.0012691178126260638,0.007574218790978193,2.1237796545028687,0.0008878558874130249,-0.0009459586581215262,0.0005441999819595367,-35.36346655,149.1656452,44008.5,1.5,0.0,-13.0,0.0,-7.5,-1031.5,1.0,2.5,1.5,RTL
03:54:29,200.0,-0.0019110509174424806,0.0061866892501711845,2.123816668987274,-0.04520215280354023,-0.0006324361893348396,0.0014268248050939292,-35.3634666,149.16564525,44295.5,3.5,0.0,-49.75,0.0,-1.75,-1042.25,-44.25,2.25,2.5,RTL
03:54:30,200.0,0.0012524755111371633,0.005441263085231185,2.124052882194519,-0.18885327130556107,-0.0010092291049659252,0.0003056317800655961,-35.363466349999996,149.16564545,44969.0,2.0,-1.5,-77.5,-0.5,-6.0,-1015.5,-187.5,1.5,1.5,RTL
03:54:32,200.0,0.00919660972431302,0.0031960108317434788,2.1234819889068604,0.002795281819999218,-0.0011974669760093093,0.0015691674780100584,-35.363465649999995,149.1656457,46588.5,-3.0,-4.0,-69.5,0.0,-3.0,-980.0,3.5,1.5,3.0,RTL
03:54:33,26201.0,0.007417111366521567,0.0028782240697182715,2.123120427131653,-0.08434123545885086,0.0003504136111587286,0.0005482081032823771,-35.36346535,149.1656457,47195.5,-6.0,-4.75,-44.5,0.25,-1.25,-971.0,-82.75,3.0,1.5,RTL
03:54:34,26201.0,0.0033325875774607994,0.001393401704262942,2.1221704483032227,-0.24657392501831055,-0.00016984972171485424,0.0008089715847745538,-35.3634652,149.16564555000002,47493.0,-9.0,-4.5,-14.0,0.5,-5.0,-974.5,-244.5,2.5,2.0,RTL
03:54:36,26201.0,0.001563464873470366,0.0033632080303505063,2.1218764781951904,-0.13867123425006866,0.001482051913626492,0.00448606675490737,-35.3634653,149.16564534999998,47507.0,-10.0,-2.0,-3.0,0.0,-7.5,-1033.0,-137.5,4.0,5.5,RTL
03:54:37,98469.0,0.003148905117996037,0.00438206281978637,2.122024893760681,0.05803981190547347,0.0008754656300880015,-0.00014016180648468435,-35.363465524999995,149.1656453,47664.75,-7.75,-1.25,-34.75,0.0,0.25,-1039.25,59.5,3.25,1.0,RTL
03:54:38,98469.0,0.007847014348953962,0.005431851372122765,2.1220648288726807,0.3551153689622879,-0.0020887830178253353,0.000582501757889986,-35.36346575,149.1656453,48150.5,-5.0,-1.0,-53.5,0.5,10.5,-1001.0,356.0,0.0,2.0,RTL
03:54:40,98469.0,0.006477966904640198,0.0054516473319381475,2.1215487718582153,0.20324396714568138,0.001067313482053578,0.0021069117938168347,-35.363466,149.16564534999998,48764.0,-2.0,-2.5,-1.5,0.0,9.5,-978.5,205.0,3.5,3.5,RTL
03:54:41,105879.0,0.005129900644533336,0.005028443410992622,2.121594488620758,-0.1562098152935505,0.00040474144043400884,0.0017703019839245826,-35.3634659,149.165645475,48742.75,-2.5,-3.25,1.5,-0.75,-7.25,-1006.5,-154.75,3.0,2.75,RTL
03:54:42,105879.0,0.004532060353085399,0.00555494031868875,2.1214274168014526,0.06923322379589081,0.0011112489737570286,0.0006511949468404055,-35.36346575,149.16564565,48848.5,-4.5,-4.5,-25.5,-0.5,13.0,-1036.5,71.5,4.0,1.5,RTL
03:54:44,105879.0,0.0008744195802137256,0.008796059060841799,2.121408700942993,0.36699292063713074,-0.002310983487404883,0.0005173227400518954,-35.36346615,149.1656456,49771.5,-3.0,-5.0,-38.0,0.5,18.0,-973.0,369.0,1.0,1.5,RTL
03:54:45,300000.0,-0.006453335197875276,0.007135715568438172,2.120748519897461,-0.12512709945440292,-4.2745377868413925e-05,-0.0012047247437294573,-35.36346652500001,149.16564527499997,50004.75,0.75,-2.75,-4.25,0.5,-5.0,-968.0,-123.0,2.75,0.25,RTL
03:54:46,300000.0,-0.004090809030458331,0.00592355546541512,2.1210882663726807,0.0682273805141449,-0.0023546661250293255,0.0006744482961948961,-35.36346665,149.16564505000002,49992.0,3.0,-1.0,2.0,0.0,9.5,-1010.0,70.5,1.0,2.0,RTL
03:54:48,300000.0,-0.002726072445511818,0.0048466098960489035,2.121255397796631,0.01514570415019989,-0.0025146178668364882,-3.639725036919117e-05,-35.3634665,149.165645,50395.0,2.0,0.0,-49.5,0.0,9.5,-1021.5,17.5,1.0,1.5,RTL
03:54:49,200.0,-0.001414919228409417,0.00640732201281935,2.1214429140090942,0.01146421954035759,0.002016546670347452,-9.82487399596721e-05,-35.3634665,149.165645,50939.75,2.0,0.0,-49.0,0.25,2.25,-974.75,13.25,4.5,1.0,RTL
03:54:50,200.0,0.00048270588740706444,0.006139947101473808,2.121011972427368,0.40838515758514404,-0.005404660711064935,-0.0018362704431638122,-35.3634665,149.165645,51257.0,2.5,0.0,-14.0,0.5,18.5,-973.0,410.0,-1.5,0.0,RTL
03:54:52,200.0,0.003988966171164066,0.0040537562454119325,2.120913863182068,0.10954511165618896,0.0012397437822073698,0.0026992796338163316,-35.36346615,149.1656452,51298.0,1.0,-1.5,-9.5,-0.5,17.0,-1035.0,112.0,4.0,4.0,RTL
03:54:53,256511.0,0.007251476286910474,0.004752637818455696,2.120950996875763,0.07250782917253673,0.0007700680871494114,0.0007197523955255747,-35.363465775,149.165645525,51551.0,-1.75,-2.25,-43.5,-1.0,5.25,-1031.0,74.25,3.5,2.0,RTL
03:54:54,256511.0,0.011520212516188622,0.00626933085732162,2.1210447549819946,0.3605633080005646,-0.0024684882955625653,0.0009577102609910071,-35.363465649999995,149.1656458,52080.0,-4.0,-4.0,-51.5,-1.0,13.0,-987.0,362.0,1.0,2.0,RTL
03:54:56,256511.0,0.0035480711376294494,0.005783197935670614,2.1204426288604736,0.1528873536735773,-0.0015483781462535262,-0.0011003398103639483,-35.36346575,149.1656457,52559.5,-4.5,-5.0,2.0,1.0,2.5,-984.0,154.5,1.5,1.0,RTL
03:54:57,77978.0,0.002700381330214441,0.005974948056973517,2.1202127933502197,0.10056327283382416,0.0004076354089193046,0.002076416101772338,-35.363466,149.16564542499998,52536.5,-3.25,-4.0,-1.0,0.0,-4.25,-1019.75,102.0,3.25,3.5,RTL
03:54:58,77978.0,-0.004944949643686414,0.005871980218216777,2.120732069015503,-0.3134630173444748,0.0009447812335565686,0.0005808335263282061,-35.363466149999994,149.16564534999998,52720.5,-1.0,-2.5,-34.5,0.0,-6.0,-1035.5,-311.0,4.0,2.0,RTL
03:55:00,77978.0,0.003516330267302692,0.005390020553022623,2.1206040382385254,-0.028531327843666077,0.00021916686091572046,-0.0007563891122117639,-35.363465950000005,149.16564549999998,53637.0,-1.5,-3.5,-28.5,0.0,7.0,-964.0,-26.0,3.5,1.0,RTL
03:55:01,58023.0,0.008774298359639943,0.004582621273584664,2.12011456489563,0.13351578451693058,-0.0017999672854784876,0.0014105894370004535,-35.3634657,149.16564565000002,53774.25,-3.25,-4.0,0.25,-0.75,1.75,-985.25,135.0,1.5,3.0,RTL
03:55:02,58023.0,0.008715117524843663,0.0049015008844435215,2.120550274848938,-0.24236682523041964,-0.0011350037530064583,-0.0019285203306935728,-35.363465399999995,149.16564585,53754.0,-5.5,-5.5,-1.5,0.0,-9.0,-1019.5,-240.5,2.0,0.0,RTL
03:55:04,58023.0,0.009218823164701462,0.005188611336052418,2.1209559440612793,-0.3101450502872467,0.003159527899697423,0.0006191474385559559,-35.3634649,149.1656463,54115.0,-11.0,-9.0,-51.0,-1.0,-11.0,-1030.0,-307.0,6.0,2.0,RTL
03:55:05,201023.0,0.007671583705814555,0.007871553883887827,2.120881140232086,-0.11788200587034225,0.0020669561345130205,0.0015765413409098983,-35.363465024999996,149.16564635,54784.5,-12.5,-10.0,-43.5,0.75,-3.25,-966.5,-114.75,5.0,3.5,RTL
03:55:06,201023.0,0.00703506749899437,0.007832631623993317,2.1205437183380127,0.11145466566085815,-0.0031011488754302263,0.0025087088191260896,-35.36346543333333,149.16564606666665,55039.666666666664,-10.666666666666666,-9.666666666666666,-9.0,1.0,4.0,-972.3333333333334,114.0,0.0,4.0,RTL
03:55:08,201023.0,0.010666341055184603,0.004377768957056105,2.1203503608703613,0.21042843163013458,-0.003779365448281169,0.00035701924934983253,-35.36346575,149.16564575,55116.5,-4.0,-6.5,-21.5,0.0,6.5,-1032.0,212.5,0.0,2.5,RTL
03:55:09,42967.0,0.014974742662161589,0.004260673653334379,2.120868980884552,0.06337939202785492,0.0029183999286033213,0.001237087359186262,-35.363465225,149.165645975,55498.0,-7.25,-7.25,-52.5,-1.0,2.0,-1016.5,66.25,6.0,3.0,RTL
03:55:10,42967.0,0.013263091444969177,0.005769357085227966,2.1207656860351562,-0.2791450321674347,0.0047753844410181046,0.0016768064815551043,-35.3634651,149.1656462,55849.0,-9.0,-8.0,-54.0,0.0,-18.0,-984.0,-276.0,8.0,3.0,RTL
03:55:12,42967.0,-0.0008219692390412092,0.007292041555047035,2.1200904846191406,-0.6017487645149231,0.003076316206716001,-0.0009907021885737777,-35.36346535,149.16564605000002,56297.0,-11.0,-9.0,3.0,0.5,-31.0,-985.5,-598.0,6.0,1.0,RTL
03:55:13,90429.0,-0.000897074380191043,0.006980412174016237,2.1203083992004395,-0.04264725744724274,-0.00034038652665913105,0.0018514157854951918,-35.363465999999995,149.165645525,56289.0,-5.0,-5.75,-10.0,1.5,-7.75,-1026.75,-39.25,3.0,3.5,RTL
03:55:14,90429.0,-0.0035991991171613336,0.0068640082608908415,2.1207797527313232,0.19909455254673958,0.0007220100378617644,0.0014181312872096896,-35.363466450000004,149.16564515,56455.5,-1.5,-3.5,-37.5,1.0,3.0,-1034.5,202.0,4.0,3.0,RTL
03:55:16,90429.0,-0.012804345693439245,0.00775979389436543,2.1208654642105103,-0.4074326232075691,0.0008619207656010985,0.00019798276480287313,-35.36346725,149.1656446,57414.5,7.5,1.0,-24.5,0.5,-24.0,-954.0,-404.0,4.0,2.0,RTL
03:55:17,200.0,-0.013416700530797243,0.0050370837561786175,2.120025098323822,-0.23218046268448234,0.0006343840213958174,0.0008811091829556972,-35.3634674,149.16564434999998,57503.25,10.5,3.75,3.0,0.0,-7.75,-989.5,-228.75,3.75,2.5,RTL
03:55:18,200.0,-0.0021155787690076977,0.005343490280210972,2.1204349994659424,0.31624908512458205,0.0028649724554270506,-0.0001806060317903757,-35.3634675,149.1656442,57476.5,11.5,5.0,1.5,0.0,4.0,-1019.0,318.5,6.0,1.5,RTL
03:55:20,200.0,0.0004647422829293646,0.0039279990596696734,2.120857834815979,0.13766968017444015,0.0012582274503074586,-2.438307274132967e-05,-35.36346695,149.16564455000002,58083.0,9.0,4.0,-55.0,-1.0,6.0,-1000.0,140.0,4.5,1.5,RTL
03:55:21,160508.0,0.005448440526379272,0.0034889234229922295,2.1206098198890686,-0.03774929791688919,-0.0012919777655042708,-0.001401571265887469,-35.363466224999996,149.165645075,58621.25,4.25,0.75,-21.0,-1.5,2.75,-960.25,-34.5,2.5,0.75,RTL
03:55:22,160508.0,0.019478097558021545,0.0022638329537585378,2.120215654373169,0.4543089047074318,-0.0013644377468153834,0.0024167405208572745,-35.36346575,149.16564534999998,58701.5,0.0,-1.0,0.5,0.0,10.0,-987.5,456.0,2.5,4.0,RTL
03:55:24,160508.0,0.011720115086063743,0.004713830072432756,2.120384454727173,0.21331999264657497,0.0011950385523959994,0.0014946003211662173,-35.363464949999994,149.1656461,58752.0,-9.5,-6.5,-25.0,-0.5,13.0,-1043.5,217.0,4.5,3.0,RTL
03:55:25,300000.0,0.006890961551107466,0.006714390590786934,2.120869278907776,-0.022783581167459488,0.0023089341120794415,0.0006427348125725985,-35.363465125000005,149.16564615,59323.25,-11.5,-7.75,-54.0,0.5,-0.75,-997.5,-19.25,5.5,2.75,RTL
03:55:26,300000.0,0.007160135544836521,0.008539918810129166,2.1208062171936035,0.1590770184993744,-0.0010557202622294426,0.0018701230874285102,-35.36346535,149.16564605000002,59710.5,-10.0,-8.0,-38.5,0.5,-1.0,-958.5,162.0,2.5,3.5,RTL
03:55:28,300000.0,0.0024735284969210625,0.004725227365270257,2.120331048965454,0.18090857565402985,-7.738394197076559e-05,0.000988501706160605,-35.3634657,149.16564555000002,59889.0,-5.0,-5.0,3.0,1.0,20.5,-1001.5,185.5,3.0,3.0,RTL
03:55:29,114052.0,-0.003732859273441136,0.006505049648694694,2.120382606983185,-0.04557417333126068,0.002322582760825753,0.0012064666952937841,-35.363466200000005,149.1656452,60008.5,-2.75,-2.5,-30.0,1.0,-3.0,-1038.75,-42.25,5.75,3.25,RTL
03:55:30,114052.0,-0.012253796681761742,0.0075539343524724245,2.12056303024292,-0.1312618926167488,0.0006030568620190024,0.0013240525731816888,-35.363466700000004,149.16564495,60323.0,0.0,-0.5,-54.5,0.5,-6.0,-1024.0,-127.5,4.0,3.0,RTL
03:55:32,114052.0,-0.007870292756706476,0.006462861318141222,2.1207159757614136,0.5199967622756958,-0.00518286251462996,0.0010407461086288095,-35.363467650000004,149.1656443,61184.0,11.0,3.5,-8.5,0.0,24.0,-970.0,523.0,-1.5,3.0,RTL
03:55:33,206032.0,-0.010474734706804156,0.003953673120122403,2.1200573444366455,0.17717570066452026,0.0002480736584402621,-0.0007145591953303665,-35.3634675,149.16564415,61176.0,13.25,5.25,2.5,0.25,16.5,-1005.25,180.5,3.75,1.5,RTL
03:55:34,206032.0,-0.008536268258467317,0.004423097241669893,2.120191812515259,-0.3956902027130127,0.0024103871546685696,0.0009019444696605206,-35.3634673,149.1656443,61184.5,12.5,5.5,-11.5,-0.5,-15.5,-1043.5,-392.5,5.5,3.0,RTL
03:55:36,206032.0,-0.008707073284313083,0.005971126025542617,2.1210638284683228,0.10615280270576477,-0.0009388069156557322,0.00046520994510501623,-35.3634673,149.1656444,62054.0,11.0,5.0,-54.5,0.0,8.0,-980.5,109.5,2.5,2.5,RTL
03:55:37,214046.0,-0.00374564848607406,0.0054286186350509524,2.120086431503296,-0.007345065474510193,-0.0020259034354239702,0.0004784638585988432,-35.36346710000001,149.1656446,62466.0,10.25,3.5,-10.0,-0.25,-0.5,-971.25,-4.75,1.5,2.5,RTL
03:55:38,214046.0,-0.0020357512403279543,0.003975422005169094,2.1204334497451782,0.27261795476078987,-0.0037452554097399116,-0.0003934035776183009,-35.3634668,149.16564475,62485.5,8.5,2.5,2.5,-0.5,25.0,-1005.5,276.5,0.5,1.5,RTL
03:55:40,214046.0,0.003170925425365567,0.003728369134478271,2.120811343193054,-0.19716069381684065,0.0014665385242551565,0.00034675863571465015,-35.363466,149.1656453,62684.5,1.0,-0.5,-40.5,-1.0,-4.0,-1036.0,-194.5,5.5,2.5,RTL
03:55:41,123135.0,0.010646821232512593,0.004596990416757762,2.120861530303955,-0.08709163963794708,0.0016429497045464814,0.00045598368160426617,-35.363465425,149.16564582499998,63344.5,-3.75,-3.5,-49.0,-0.5,-1.5,-976.25,-83.75,5.0,2.5,RTL
03:55:42,123135.0,0.016684789210557938,0.005351162515580654,2.1206037998199463,0.4217945486307144,-0.002266801195219159,0.0017937272787094116,-35.3634651,149.1656461,63646.5,-7.5,-6.0,-22.0,0.0,22.0,-959.5,425.0,1.5,3.5,RTL
03:55:44,123135.0,0.0041265873005613685,0.00525578623637557,2.1199148893356323,-0.32763511314988136,0.0013297975528985262,0.0021605718648061156,-35.36346505,149.1656461,63689.5,-11.5,-8.5,1.5,0.0,-0.5,-1019.5,-323.5,5.0,4.5,RTL
03:55:45,115413.0,0.013279083999805152,0.004804756725206971,2.120923697948456,-0.0024844645522534847,-0.000599161081481725,0.0006859380519017577,-35.363464949999994,149.16564625,63946.5,-11.25,-8.75,-41.75,0.0,-0.25,-1033.5,0.75,2.75,2.75,RTL
03:55:46,115413.0,0.018263778649270535,0.005324085941538215,2.121061682701111,-0.15104497969150543,0.0029071366880089045,-9.257270721718669e-05,-35.36346455,149.16564655000002,64333.0,-12.5,-10.5,-56.0,-1.5,-8.0,-999.0,-147.5,6.5,2.0,RTL
03:55:48,115413.0,0.003583873505704105,0.006728328997269273,2.1207985877990723,-0.4715895876288414,-0.00015366659499704838,-0.00014265242498368025,-35.36346465,149.16564664999999,64955.5,-17.0,-13.0,1.5,1.0,-15.0,-978.5,-467.0,4.0,2.5,RTL
03:55:49,300000.0,-0.002726349906879477,0.008404513588175178,2.120226800441742,-0.18966981023550034,0.0009308988228440285,0.0020258584117982537,-35.36346545,149.165645975,64923.5,-13.25,-10.25,-1.75,2.0,-6.0,-1023.0,-185.25,4.5,3.75,RTL
03:55:50,300000.0,-0.0066012428142130375,0.00860780430957675,2.1205992698669434,-0.15140805765986443,0.00024089706130325794,0.000886589870788157,-35.36346615,149.16564549999998,65001.5,-6.5,-6.5,-25.0,2.0,-20.5,-1038.5,-148.0,3.5,3.5,RTL
03:55:52,300000.0,-0.012873074039816856,0.007124314084649086,2.1209582090377808,0.02062356472015381,-0.0016507554100826383,0.00014016474597156048,-35.3634674,149.1656445,65976.0,7.0,0.5,-41.5,1.0,6.5,-960.5,25.0,2.0,2.0,RTL
03:55:53,198545.0,-0.009448953031096607,0.00468279659980908,2.12021803855896,0.19912556931376457,-0.002053403644822538,0.0003234441392123699,-35.363467424999996,149.165644225,66201.5,10.5,3.25,-0.25,0.0,13.25,-983.75,203.0,2.0,2.75,RTL
03:55:54,198545.0,-0.008242557058110833,0.002931308699771762,2.1209206581115723,-0.5384477972984314,-0.0008123675361275673,0.0012894159881398082,-35.36346725,149.16564425,66182.0,11.5,4.5,3.5,0.0,-26.0,-1003.5,-534.5,3.0,3.5,RTL
03:55:56,198545.0,0.006364785600453615,0.003910959581844509,2.1207001209259033,-0.08305401355028152,0.00165592844132334,0.0006013424135744572,-35.36346625,149.16564505000002,66581.5,3.5,1.5,-53.0,-2.0,-7.0,-1022.5,-80.0,5.5,3.0,RTL
03:55:57,38157.0,0.012578390771523118,0.005802071420475841,2.120906889438629,-0.050239391857758164,0.001730667776428163,0.0005182602908462286,-35.363465624999996,149.16564575,67265.0,-2.0,-2.75,-41.25,-0.5,-4.0,-961.25,-46.5,5.75,2.75,RTL
03:55:58,38157.0,0.0035879668430425227,0.006467112572863698,2.1201999187469482,-0.22316250950098038,0.0011222187895327806,-0.0010050793644040823,-35.3634654,149.165646,67486.0,-6.0,-5.5,-11.5,-0.5,3.0,-971.5,-218.5,5.0,1.5,RTL
03:56:00,38157.0,0.007511845789849758,0.005964046576991677,2.1202977895736694,0.25661544129252434,-0.0015356880612671375,0.0020834398455917835,-35.3634656,149.1656458,67482.0,-6.5,-5.5,-7.0,0.5,-2.5,-1032.5,260.0,2.5,4.0,RTL
03:56:01,224411.0,0.0007714761886745691,0.00773589638993144,2.1210175156593323,0.07435302436351776,0.0010239477851428092,0.0012669444549828768,-35.36346595,149.16564565,67881.5,-4.0,-4.75,-49.75,0.5,3.25,-1018.5,78.25,5.0,3.5,RTL
03:56:02,224411.0,-0.00333858301746659,0.007695615058764815,2.121180772781372,-0.15650489181280136,-0.0011308519169688225,0.0012206598185002804,-35.36346625,149.1656455,68295.0,-1.5,-4.0,-53.0,0.5,-10.0,-981.5,-153.0,2.5,3.5,RTL
03:56:04,224411.0,0.0017212993698194623,0.004602854838594794,2.12014901638031,-0.41684163361787796,0.00041739933658391237,-0.0008028093725442886,-35.3634662,149.16564534999998,68734.0,0.0,-2.5,3.0,0.0,-31.0,-987.5,-413.5,4.5,1.5,RTL
03:56:05,87924.0,0.0011022202670574188,0.005028610932640731,2.120556890964508,-0.0042028725147247314,0.0001920695649459958,-0.00034736370434984565,-35.3634662,149.1656452,68728.0,-0.25,-1.5,-9.75,0.0,-2.25,-1025.5,-0.25,3.75,1.75,RTL
03:56:06,87924.0,0.006867065792903304,0.004605842288583517,2.120607376098633,0.2712518237531185,-0.0023813341977074742,0.00020342622883617878,-35.363466149999994,149.16564525,68894.5,0.0,-1.5,-37.0,0.0,10.0,-1037.0,274.5,1.5,2.5,RTL
03:56:08,87924.0,0.0027966321213170886,0.00617986056022346,2.1205668449401855,-0.43563368916511536,0.002938009798526764,0.0003110016696155071,-35.3634656,149.1656458,69837.0,-4.5,-4.5,-22.5,0.0,-19.0,-958.0,-431.0,7.0,2.5,RTL
03:56:09,176206.0,0.005625104677164927,0.006028563366271555,2.1200459003448486,-0.10940659558400512,0.0012820850242860615,0.0013788793003186584,-35.3634656,149.165645775,69907.0,-5.5,-5.25,3.25,0.25,-13.0,-991.75,-105.25,5.25,4.25,RTL
03:56:10,176206.0,0.006606466951780021,0.006042809691280127,2.1204992532730103,0.4008828327059746,0.00029389956034719944,0.00040367781184613705,-35.3634657,149.16564565,69885.0,-6.0,-5.5,0.5,0.5,23.0,-1019.0,405.5,4.5,3.0,RTL
03:56:12,176206.0,-0.0003748909803107381,0.006209076149389148,2.121147871017456,0.19538207724690437,-0.0022391132079064846,0.0007032010471448302,-35.3634663,149.1656453,70509.0,-0.5,-2.5,-55.0,0.5,8.5,-1000.5,199.5,1.5,3.0,RTL
03:56:13,1319.0,-0.004214057640638202,0.006661366787739098,2.120785892009735,-0.1020539216697216,0.0014829919091425836,-0.000988222484011203,-35.3634665,149.1656451,71036.25,1.75,-1.25,-19.25,0.0,-2.5,-961.0,-97.75,5.5,2.0,RTL
03:56:14,1319.0,0.0006113250274211168,0.005152127239853144,2.1203129291534424,0.47340603917837143,-0.006026804447174072,-0.0005139538552612066,-35.3634665,149.1656451,71108.5,2.0,-1.0,1.0,-0.5,36.0,-986.0,478.0,-1.5,2.5,RTL
03:56:16,1319.0,0.014635494444519281,0.0024646176025271416,2.120901584625244,-0.279779389500618,0.0034033090341836214,0.0024138615699484944,-35.36346535,149.16564575,71190.5,-2.5,-3.5,-29.0,-1.0,-13.5,-1034.0,-275.5,7.5,5.0,RTL
03:56:17,133879.0,0.015358427306637168,0.006033458514139056,2.1210179924964905,-0.0805465392768383,0.0046099412720650434,0.001087161072064191,-35.363464775,149.165646375,71788.25,-11.75,-7.75,-54.25,-0.25,-6.0,-993.75,-75.75,8.75,3.5,RTL
03:56:18,133879.0,0.007489840034395456,0.00885366415604949,2.120820164680481,0.17753560841083527,0.000391628360375762,0.0008227482903748751,-35.36346505,149.1656463,72164.0,-13.0,-9.0,-36.5,1.0,10.5,-959.0,182.5,4.5,3.5,RTL
03:56:20,133879.0,-0.0138661814853549,0.006880736444145441,2.1205345392227173,-0.49026989936828613,0.000774991000071168,-0.00040824548341333866,-35.3634663,149.1656453,72316.5,-3.5,-4.5,3.5,2.0,-16.5,-1012.0,-485.0,5.0,2.5,RTL
03:56:21,193278.0,-0.011024965671822429,0.0060255497228354216,2.120846927165985,-0.007474110461771488,-0.0002620938466861844,0.0006974966381676495,-35.363467,149.165644675,72466.25,3.25,0.0,-32.75,0.25,0.25,-1039.25,-3.25,3.75,3.25,RTL
03:56:22,193278.0,-0.011271655093878508,0.005464461632072926,2.121377944946289,-0.19204553961753845,-1.5527475625276566e-06,-0.0003377421526238322,-35.363467150000005,149.16564455000002,72802.0,7.5,2.0,-55.5,0.0,-7.5,-1014.0,-187.0,4.0,2.5,RTL
03:56:24,193278.0,0.0004996766801923513,0.00410367944277823,2.1207164525985718,-0.0029440373182296753,0.002661342965438962,-0.00038482213858515024,-35.363466450000004,149.16564495,73596.0,4.5,0.0,-4.5,-0.5,14.0,-972.0,3.0,6.5,2.0,RTL
03:56:25,200217.0,0.0023323835994233377,0.004516894870903343,2.1207938194274902,-0.06689147651195526,0.0022864596685394645,0.0019403088954277337,-35.363466149999994,149.16564519999997,73573.0,0.75,-0.5,1.75,0.0,-1.0,-1013.25,-62.25,6.75,4.5,RTL
03:56:26,200217.0,0.006492804677691311,0.005220131482928991,2.120505690574646,-0.23156912252306938,0.001368172001093626,0.002514444524422288,-35.363465950000005,149.16564534999998,73600.5,-0.5,-1.5,-14.5,0.0,-17.5,-1033.5,-228.0,5.5,5.5,RTL
03:56:28,200217.0,0.0023584270966239274,0.006578280357643962,2.1210979223251343,0.13466308265924454,-0.0015150109538808465,0.0008840379305183887,-35.3634659,149.1656456,74500.0,-3.0,-4.0,-48.5,-0.5,10.0,-972.5,140.0,2.5,4.0,RTL
03:56:29,300000.0,0.003845249411824625,0.005848637316375971,2.1205117106437683,0.17188402451574802,-0.001121909124776721,-2.322928048670292e-05,-35.363465950000005,149.1656455,74823.0,-2.25,-3.75,-4.25,0.25,5.0,-973.75,176.5,3.25,2.75,RTL
03:56:30,300000.0,-0.008575581479817629,0.004845034563913941,2.120402455329895,-0.45533667504787445,0.0006344742141664028,-0.0019478596514090896,-35.36346605,149.16564534999998,74822.0,-1.5,-3.0,3.5,0.0,-10.0,-1000.0,-450.0,5.0,1.0,RTL
03:56:32,300000.0,-0.002848161879228428,0.006281750509515405,2.1208490133285522,-0.17253483459353447,0.002483998890966177,0.00037779007107019424,-35.363466450000004,149.16564505000002,75080.0,0.5,0.0,-44.0,0.5,-14.0,-1031.5,-168.5,7.0,3.0,RTL
03:56:33,300000.0,-0.006438956188503653,0.007596454466693103,2.1213361024856567,0.018769167363643646,-0.0015156736481003463,0.00045488562318496406,-35.363466849999995,149.16564492499998,75727.0,4.0,0.25,-42.5,0.25,-2.25,-969.25,23.5,3.0,3.25,RTL
03:56:34,300000.0,-0.014144918881356716,0.006938085192814469,2.1209174394607544,-0.2837129011750221,-0.003193248761817813,0.0001787678338587284,-35.36346705,149.16564475,75973.0,6.0,1.0,-14.0,0.5,-7.0,-960.5,-279.0,1.5,3.5,RTL
03:56:36,300000.0,-0.0015117872972041368,0.004384962376207113,2.1203938722610474,-0.291846071369946,-0.0009055144619196653,0.000730941304937005,-35.3634668,149.1656447,75984.5,7.0,2.0,-3.0,0.0,-23.0,-1027.5,-288.0,3.0,3.5,RTL
03:56:37,293857.0,-0.0001701639557722956,0.005017838208004832,2.1209696531295776,0.07556512206792831,0.0011547876056283712,0.0010618084343150258,-35.363466625,149.16564487499997,76318.75,4.75,1.0,-46.75,0.0,2.0,-1029.0,80.0,5.5,4.0,RTL
03:56:38,293857.0,-0.002384829393122345,0.00642646849155426,2.1212003231048584,-0.20235461555421352,0.002960372483357787,0.0016518040793016553,-35.3634666,149.165645,76724.0,4.0,0.5,-55.0,0.0,-10.0,-990.5,-197.5,7.0,4.0,RTL
03:56:40,293857.0,-0.0012944345362484455,0.0064645137172192335,2.1203200817108154,-0.20403306558728218,0.001123836962506175,0.0027738172793760896,-35.36346655,149.16564505000002,77248.5,3.0,0.0,2.0,1.0,-29.5,-979.5,-201.0,5.5,6.0,RTL
03:56:41,103038.0,-0.009669150982517749,0.005938578164204955,2.1209468841552734,0.07471279054880142,-0.0022841804893687367,0.0009005080792121589,-35.363467075,149.1656446,77225.75,6.25,1.75,-5.75,0.75,-1.0,-1028.0,78.75,2.25,4.0,RTL
03:56:42,103038.0,-0.008179087191820145,0.0053126756101846695,2.1206477880477905,0.2015025019645691,0.0008186660706996918,-0.00020907586440443993,-35.3634672,149.16564445,77355.5,9.0,3.0,-33.0,0.0,12.5,-1040.5,205.5,5.0,3.0,RTL
03:56:44,103038.0,-0.005229740258073434,0.005577543750405312,2.1210559606552124,-0.16040397435426712,0.00041582726407796144,-0.00041850691195577383,-35.36346695,149.1656447,78319.0,8.5,2.0,-30.0,-1.0,-10.5,-957.5,-157.0,5.0,2.5,RTL
03:56:45,87248.0,-0.00011831941083073616,0.004239579197019339,2.120852470397949,-0.13373976526781917,0.003872447879984975,0.001610032981261611,-35.363466575000004,149.1656449,78438.5,5.75,0.75,2.25,-0.5,-6.0,-986.75,-130.0,8.25,4.5,RTL
03:56:46,87248.0,0.001526881125755608,0.005323644727468491,2.12075936794281,0.49233555793762207,-0.0004904357483610511,-0.0011590353678911924,-35.3634665,149.165645,78410.5,2.0,0.0,2.0,0.0,32.5,-1014.5,496.5,4.0,2.0,RTL
03:56:48,87248.0,0.00211463519372046,0.005439837230369449,2.121102213859558,0.19147388637065887,0.0013215653598308563,0.0013419030001387,-35.3634664,149.16564515,78978.0,2.0,0.0,-55.5,0.0,9.0,-1005.5,195.0,6.0,4.5,RTL
03:56:49,150618.0,-0.001396750914864242,0.0060563667211681604,2.1209678649902344,-0.06560242734849453,2.820615191012621e-05,-0.0006190050044097006,-35.363466325,149.1656452,79536.25,0.75,-1.25,-23.5,0.0,3.0,-961.0,-61.75,4.75,2.5,RTL
03:56:50,150618.0,0.009853043593466282,0.004575151251628995,2.120508551597595,0.5857083648443222,-0.003440875210799277,-0.00029842869844287634,-35.36346625,149.16564525,79633.5,1.0,-2.0,0.0,-1.0,20.5,-985.5,589.0,1.0,3.0,RTL
03:56:52,150618.0,0.004365588538348675,0.0042760055512189865,2.120613694190979,-0.4004288911819458,0.0027270126156508923,0.0016520943026989698,-35.3634656,149.1656456,79682.5,-3.0,-3.5,-23.0,0.0,-13.0,-1037.5,-395.5,7.0,5.0,RTL
03:56:53,229691.0,0.010068487958051264,0.005850225803442299,2.121334731578827,-0.05338560789823532,0.0018061734735965729,0.0004578704247251153,-35.363465325,149.16564595000003,80255.5,-6.75,-5.75,-55.0,0.0,-2.0,-999.0,-49.25,6.25,3.5,RTL
03:56:54,229691.0,0.011890919180586934,0.006973746465519071,2.1211315393447876,0.23485646955668926,0.0013793283142149448,-0.0014983261935412884,-35.363465250000004,149.16564615,80655.5,-8.5,-7.5,-41.0,-0.5,18.0,-962.5,240.0,5.5,2.0,RTL
03:56:56,229691.0,0.0003600437194108963,0.005944493226706982,2.1210654973983765,-0.515381321310997,-0.0008408513385802507,0.000838451785966754,-35.3634653,149.165646,80866.0,-8.5,-8.0,4.0,1.0,-19.0,-996.0,-509.5,4.0,4.0,RTL
03:56:57,120595.0,0.003343867603689432,0.006245936034247279,2.1207340359687805,-0.07221992686390877,0.0018861156422644854,0.000502668903209269,-35.36346555,149.1656458,80945.5,-8.25,-6.75,-24.0,1.25,-7.5,-1037.0,-68.0,6.5,3.5,RTL
03:56:58,120595.0,-0.0051808166317641735,0.0071773892268538475,2.120843291282654,-0.23317593708634377,0.002787881065160036,0.0002720735501497984,-35.363465950000005,149.16564555000002,81226.0,-5.5,-5.0,-50.0,1.5,-16.5,-1023.5,-228.0,7.5,3.5,RTL
03:57:00,120595.0,-0.017654736526310444,0.006605799775570631,2.120925545692444,-0.40010204166173935,-0.0016501350328326225,-6.999843753874302e-05,-35.363467,149.1656447,82052.5,4.5,0.0,-7.5,0.5,-11.0,-964.0,-394.5,3.0,3.5,RTL
03:57:01,103456.0,-0.01022995775565505,0.004716825089417398,2.1206725239753723,-0.11856652423739433,-0.0009625557577237487,0.0007752547971904278,-35.3634672,149.16564445,82045.25,8.0,2.75,2.75,0.0,-1.5,-1004.0,-113.5,3.5,4.0,RTL
03:57:02,103456.0,-0.00047215892118401825,0.0037763617001473904,2.120779871940613,0.26654232665896416,-0.0009018583223223686,0.004686679225414991,-35.36346705,149.16564445,82049.0,9.5,3.5,-9.5,-1.5,1.5,-1036.0,270.5,4.0,8.0,RTL
03:57:04,103456.0,-0.0026429927384015173,0.006715485127642751,2.1211034059524536,-0.22071487829089165,0.004094818141311407,0.0024636808084324002,-35.36346665,149.16564495,82896.5,5.0,1.5,-51.5,-0.5,-12.0,-978.0,-216.0,9.0,5.5,RTL
03:57:05,244486.0,0.00042975321412086487,0.005530410446226597,2.120776116847992,-0.08599063660949469,-0.001402061025146395,0.000790193909779191,-35.363466475,149.16564507500001,83278.75,3.5,0.0,-7.5,0.5,-1.0,-966.5,-81.5,3.5,4.25,RTL
03:57:06,244486.0,0.005368965037632734,0.005045945290476084,2.1204618215560913,0.12687116116285324,0.0009561514016240835,0.0013265975285321474,-35.3634664,149.1656451,83293.0,2.5,0.0,3.5,0.5,-11.0,-996.0,130.0,5.5,5.0,RTL
03:57:08,244486.0,0.0018652455182746053,0.0036937410477548838,2.1211384534835815,0.152350265532732,-0.0021041466388851404,0.00030928628984838724,-35.3634662,149.1656451,83490.5,0.0,-1.0,-40.0,-0.5,12.5,-1037.5,157.0,3.0,3.5,RTL
03:57:09,200.0,0.003944414987927303,0.004972548224031925,2.121187746524811,0.05719199776649475,0.0018047760240733624,-0.0005073320353403687,-35.36346595,149.1656453,84124.25,-1.25,-1.25,-44.5,0.0,6.5,-972.75,61.5,6.5,2.75,RTL
03:57:10,200.0,0.007571979658678174,0.006000513443723321,2.1204605102539062,0.1697835475206375,0.0003455404657870531,0.00024438078980892897,-35.3634659,149.1656453,84391.5,-1.5,-1.5,-17.5,0.0,-5.5,-962.0,173.0,5.0,3.5,RTL
03:57:12,200.0,0.0029957136139273643,0.004219681955873966,2.120890974998474,0.2931846212595701,-0.0002545556053519249,0.0014974121004343033,-35.363466,149.1656452,84416.0,-2.0,-2.0,-2.5,1.0,22.5,-1021.0,298.0,4.5,5.0,RTL
03:57:13,300000.0,0.0010588701697997749,0.003731296572368592,2.1208637356758118,-0.03396480530500412,0.00022214138880372047,0.0003786308807320893,-35.363466,149.1656452,84733.5,-1.25,-1.0,-45.75,-0.25,1.25,-1028.75,-29.75,5.0,4.0,RTL
03:57:14,300000.0,0.003482015323243104,0.003753990400582552,2.1213197708129883,0.18962247855961323,-0.00014831498265266418,0.0003955650608986616,-35.363466,149.1656452,85133.5,-2.0,-1.0,-55.0,0.0,14.0,-993.0,193.5,4.5,4.0,RTL
03:57:16,300000.0,0.004038838102133013,0.002663690014742315,2.120890498161316,0.014981433749198914,0.00316558126360178,0.002177637186832726,-35.3634656,149.1656453,85665.5,-5.5,-2.0,2.0,-1.0,15.0,-995.5,20.5,8.0,5.5,RTL
03:57:17,247878.0,0.004496044712141156,0.004574978607706726,2.1206659078598022,-0.0131276436150074,-0.0013515348546206951,0.00026633834931999445,-35.363465524999995,149.1656454,85646.25,-6.75,-2.5,-6.0,-0.25,0.25,-1028.75,-8.75,3.5,3.75,RTL
03:57:18,247878.0,-0.003102953196503222,0.004209253704175353,2.120888829231262,-0.28651659935712814,0.0008582677692174911,0.0011158783454447985,-35.3634657,149.1656453,85775.0,-6.0,-2.0,-32.0,0.0,-10.0,-1037.0,-281.5,5.5,4.5,RTL
03:57:20,247878.0,0.0055616011377424,0.005648453254252672,2.1211352348327637,0.4231102466583252,-0.004735057707875967,0.00018076400738209486,-35.3634659,149.16564525,86770.0,-3.0,-1.0,-33.0,0.0,19.5,-956.5,427.5,0.0,3.5,RTL
03:57:21,108525.0,0.0019792931561823934,0.003087675024289638,2.1205796003341675,0.21420480497181416,-0.002009024959988892,0.0016799588920548558,-35.363466,149.16564505000002,86920.75,-2.0,-1.0,1.25,0.25,11.0,-990.5,219.0,2.75,5.25,RTL
03:57:22,108525.0,-0.003874683636240661,0.0026658177375793457,2.1210532188415527,-0.6020092964172363,0.0005193671677261591,0.0005559504497796297,-35.363466,149.165645,86894.0,-1.0,0.0,3.5,0.0,-24.5,-1005.5,-597.0,5.0,3.5,RTL
03:57:24,108525.0,0.003035965681192465,0.003199700149707496,2.1213983297348022,-0.10643669962882996,0.0013562727253884077,0.0015911501832306385,-35.3634658,149.1656451,87382.5,-4.0,0.0,-54.5,0.0,-9.0,-1011.5,-102.0,6.0,5.0,RTL
03:57:25,200.0,0.004881626908627368,0.004250238125678152,2.120916962623596,-0.03470868431031704,-0.0008761118515394628,-0.001885424368083477,-35.3634657,149.16564525,88002.0,-4.25,-1.25,-30.75,0.0,0.25,-958.5,-29.75,4.0,1.25,RTL
03:57:26,200.0,0.00946277566254139,0.004393778741359711,2.1206616163253784,-0.01847846806049347,-0.00021569989621639252,0.0011598197743296623,-35.3634657,149.1656453,88149.0,-4.5,-1.0,-4.5,0.0,-16.5,-976.5,-15.0,4.5,4.5,RTL
03:57:28,200.0,0.00239162624347955,0.003599217045120895,2.120936870574951,0.24707342684268951,0.002559556160122156,-0.002565269358456135,-35.3634659,149.1656451,88157.5,-3.0,-1.0,-16.5,-0.5,19.0,-1036.5,252.5,7.0,1.5,RTL
03:57:29,172512.0,0.003804850610322319,0.0029678666032850742,2.121466636657715,-0.032001178711652756,0.0013447279343381524,-0.0005014517228119075,-35.36346585,149.1656451,88648.75,-3.0,-0.5,-53.25,0.0,1.0,-1011.25,-26.75,6.25,2.75,RTL
03:57:30,172512.0,0.008576438296586275,0.003462383057922125,2.121286392211914,0.3032277747988701,-9.767571464180946e-05,-0.00021862774156033993,-35.3634658,149.1656452,89058.0,-4.0,-1.0,-47.5,0.0,11.5,-972.5,308.0,5.0,3.5,RTL
03:57:32,172512.0,0.0030545854242518544,0.003846913226880133,2.1212621927261353,0.0533696711063385,-0.002911376766860485,-0.0046756312949582934,-35.3634657,149.1656452,89359.0,-5.0,-1.0,3.5,0.0,14.5,-1004.0,60.0,2.0,-0.5,RTL
03:57:33,300000.0,-0.001100114081054926,0.004123235528822988,2.120958089828491,-0.06656590849161148,0.002077185024973005,0.00040934281423687935,-35.36346585,149.165645125,89411.75,-5.0,-0.75,-20.75,0.5,-3.0,-1038.0,-61.25,6.75,3.75,RTL
03:57:34,300000.0,-0.008836111985147,0.005483445944264531,2.120980739593506,-0.26837578415870667,-0.0006665445398539305,0.0019281154964119196,-35.36346625,149.16564495,89660.5,-2.5,0.0,-47.5,1.5,-17.0,-1030.5,-263.0,4.0,5.0,RTL
03:57:36,300000.0,-0.010982637526467443,0.004848860437050462,2.121166706085205,0.3341583153232932,-0.0021928868955001235,-0.0008132245857268572,-35.3634673,149.16564425,90587.5,7.5,4.5,-15.5,0.0,23.0,-963.5,340.0,2.0,3.5,RTL
03:57:37,200.0,-0.006068919494282454,0.002105394349200651,2.121372938156128,0.1458214782178402,-0.0020487517467699945,-0.00020408019190654159,-35.363467225,149.16564405,90613.75,10.0,6.0,2.5,-0.25,9.25,-1004.5,150.5,2.5,3.5,RTL
03:57:38,200.0,-0.007992081576958299,0.0014734052238054574,2.121057629585266,-0.47116944193840027,0.001090881647542119,-0.0007855539442971349,-35.3634669,149.16564425,90600.5,9.0,6.0,-5.0,-1.5,-18.0,-1031.0,-466.0,5.5,2.5,RTL
03:57:40,200.0,0.00959273474290967,0.002078030549455434,2.1215217113494873,-0.06300191581249237,0.00010399427264928818,5.823327228426933e-05,-35.36346555,149.16564534999998,91386.0,-2.0,0.0,-59.0,-0.5,4.5,-992.0,-58.0,4.5,3.5,RTL
03:57:41,200.0,0.010134315467439592,0.0036142744938842952,2.121040105819702,0.04373529553413391,-0.00037704629357904196,-0.00024343124823644757,-35.363465125,149.1656457,91907.75,-7.75,-3.0,-18.75,0.25,-1.0,-961.25,48.75,4.25,3.5,RTL
03:57:42,200.0,0.0024047057377174497,0.0038731168024241924,2.120833158493042,-0.06416898965835571,0.00035904766991734505,-0.0042501892894506454,-35.363465250000004,149.16564555000002,91972.0,-9.5,-4.0,0.5,0.5,11.0,-979.5,-58.5,5.0,0.0,RTL
03:57:44,200.0,0.0009821413550525904,0.003994428436271846,2.121141791343689,0.21902459487318993,-0.0008078260580077767,0.001070487080141902,-35.36346605,149.16564495,92067.5,-3.5,-0.5,-31.5,0.0,0.5,-1030.5,223.5,3.5,4.5,RTL
03:57:45,166681.0,-0.006442500336561352,0.004865082213655114,2.1214725375175476,0.030598274432122707,0.0009560330072417855,-2.3054948542267084e-05,-35.363466550000005,149.16564465000002,92694.5,0.5,2.0,-55.5,0.25,-1.0,-990.5,35.25,5.75,3.25,RTL
03:57:46,166681.0,-0.013994111213833094,0.00533538986928761,2.121328353881836,-0.2996377572417259,-0.00011242786422371864,-1.2873206287622452e-06,-35.36346675,149.1656445,93069.5,3.0,3.0,-36.0,0.5,-11.5,-961.0,-294.0,4.5,4.0,RTL
03:57:48,166681.0,-0.004346215340774506,0.003022997290827334,2.121024489402771,0.20212948322296143,-0.0018717879429459572,-9.548314847052097e-05,-35.3634673,149.165644,93214.0,9.5,7.0,3.0,1.0,-3.5,-1008.5,206.0,2.5,3.0,RTL
03:57:49,207281.0,-0.005867484651389532,0.0025690648471936584,2.1212757229804993,-0.005581211298704147,-0.0005288011161610484,-0.001042111311107874,-35.36346710000001,149.165644075,93355.75,9.5,7.0,-32.0,-0.5,1.25,-1038.0,-1.25,3.75,2.5,RTL
03:57:50,207281.0,0.0020127955940552056,0.002597816870547831,2.12154221534729,0.20606116950511932,-0.0016390635864809155,-0.0010858477326110005,-35.363466849999995,149.16564434999998,93682.0,9.0,6.5,-54.5,-1.0,9.5,-1020.0,210.0,2.5,2.5,RTL
03:57:52,207281.0,0.002708920044824481,0.0037604981334879994,2.121008038520813,-0.15636420249938965,-0.0015200229827314615,0.00029613065999001265,-35.3634662,149.1656449,94481.0,1.5,2.0,-4.5,0.0,-23.0,-964.5,-152.5,3.0,4.0,RTL
03:57:53,136238.0,-0.0005099523114040494,0.0030671286513097584,2.1213154792785645,-0.018102731555700302,-0.000554626458324492,0.00042449607281014323,-35.3634662,149.1656449,94460.5,0.0,1.0,2.5,1.0,-5.75,-1002.25,-14.0,4.25,4.0,RTL
03:57:54,136238.0,0.0017835740000009537,0.0033752511953935027,2.121054530143738,0.37437473237514496,-0.0017144030425697565,-0.0006345940055325627,-35.3634662,149.1656448,94479.5,0.0,1.0,-13.5,0.0,21.5,-1041.5,379.0,2.5,3.0,RTL
03:57:56,136238.0,-0.00013008690439164639,0.003579866490326822,2.121632218360901,-0.03920231759548187,0.001980565022677183,-0.0011710827238857746,-35.3634662,149.1656448,95362.0,0.5,2.0,-48.5,0.0,-6.5,-972.0,-35.0,6.5,2.5,RTL
03:57:57,146758.0,-0.0005916135851293802,0.002643331710714847,2.1210485696792603,-0.14122117310762405,-0.00043602799996733665,0.000468414684291929,-35.363466175,149.1656448,95686.25,0.25,1.75,-4.5,0.0,-8.5,-976.0,-136.75,4.0,4.0,RTL
03:57:58,146758.0,0.008896239334717393,0.0019315669778734446,2.120931029319763,0.5171889364719391,0.0003807258326560259,0.00020336557645350695,-35.3634661,149.1656448,95688.5,0.0,1.5,3.5,0.0,18.0,-1000.5,521.0,4.5,3.5,RTL
03:58:00,146758.0,0.000916282064281404,0.002649843809194863,2.1215380430221558,0.08059439808130264,0.0004236816894263029,-0.00011811219155788422,-35.3634659,149.1656448,95931.0,-2.0,1.0,-43.0,0.0,8.5,-1034.0,85.5,4.5,3.5,RTL
03:58:01,178097.0,0.0033175576681969687,0.003896556911058724,2.1215967535972595,0.09349531610496342,-0.0008817936759442091,-0.00056539784418419,-35.3634659,149.165645025,96612.25,-2.5,0.25,-38.5,-0.25,4.5,-960.5,97.75,3.5,2.75,RTL
03:58:02,178097.0,0.0027441888523753732,0.00443233666010201,2.121048927307129,-0.29601333290338516,0.0007027031388133764,-0.0019327509216964245,-35.3634659,149.1656451,96824.5,-2.0,0.0,-9.5,0.0,-29.0,-959.5,-292.5,5.5,1.5,RTL
03:58:04,178097.0,-0.00875313556753099,0.004920420004054904,2.12061870098114,0.31045377999544144,-0.0002899259561672807,-8.379155769944191e-05,-35.363466700000004,149.16564455000002,96825.5,1.0,2.0,-7.5,1.0,17.5,-1029.5,315.0,4.0,3.5,RTL
03:58:05,68410.0,-0.014947103802114725,0.005037411232478917,2.1217241287231445,-0.1162272710353136,0.00029689748771488667,3.271887544542551e-05,-35.363467299999996,149.16564415,97176.75,8.0,5.5,-46.75,-0.25,-6.5,-1022.5,-112.25,4.5,3.5,RTL
03:58:06,68410.0,-0.010827096877619624,0.004367494955658913,2.1217315196990967,0.1719134198501706,-0.0015451423823833466,-0.0004949580179527402,-35.36346745,149.165644,97577.5,10.5,7.0,-51.5,-0.5,10.5,-986.5,175.5,3.0,2.5,RTL
03:58:08,68410.0,0.006984715815633535,0.0013463358045555651,2.1214957237243652,0.49130527675151825,-0.000634148484095931,-0.00014006905257701874,-35.3634668,149.16564425,98002.5,8.5,6.0,4.0,-1.0,12.5,-994.0,494.5,3.5,3.0,RTL
03:58:09,211596.0,0.0011104953809990548,0.0022236982185859233,2.1213472485542297,0.07448171079158783,0.0015256996266543865,-0.0007441944326274097,-35.363466375,149.16564457500002,98017.75,3.25,4.25,-14.0,0.0,6.75,-1040.75,78.5,5.75,2.75,RTL
03:58:10,211596.0,-0.003448013565503061,0.0033505859319120646,2.1213138103485107,-0.3052676171064377,-0.00021942052990198135,0.000553997466340661,-35.3634663,149.1656447,98224.0,1.5,3.5,-41.0,0.0,-11.5,-1033.0,-301.0,4.0,4.0,RTL
03:58:12,211596.0,-0.005089498212328181,0.004063958767801523,2.1212620735168457,0.12802229821681976,0.0009199022315442562,0.001673525432124734,-35.3634664,149.1656447,99084.5,1.0,2.5,-12.5,0.5,15.5,-962.0,132.5,5.0,5.0,RTL
03:58:13,109757.0,-0.005592737055849284,0.0038946832064539194,2.120991826057434,0.11265632137656212,-0.0012561082257889211,-0.00062319147400558,-35.3634666,149.16564455,99102.5,2.75,3.25,4.5,0.25,10.5,-1002.5,116.75,3.0,2.75,RTL
03:58:14,109757.0,-0.006233843741938472,0.003006460377946496,2.121471881866455,-0.2946027871221304,-0.0019298301776871085,0.00038066378328949213,-35.3634667,149.1656445,99081.5,5.5,4.5,-2.0,0.0,-24.0,-1023.5,-291.5,2.0,4.0,RTL
03:58:16,109757.0,0.00041756138671189547,0.003617757582105696,2.121580719947815,-0.019096404314041138,0.0003335496876388788,0.0011604728642851114,-35.363466450000004,149.1656446,99786.5,3.5,4.0,-49.0,0.0,-5.0,-989.5,-16.0,4.5,4.5,RTL
03:58:17,300000.0,0.00019767426420003176,0.0027869499754160643,2.121253788471222,-0.14160766080021858,-0.00038287194911390543,-0.0020917067886330187,-35.363466125,149.16564484999998,100174.25,0.75,1.25,-7.5,-0.5,1.5,-968.75,-137.25,4.25,1.25,RTL
03:58:18,300000.0,0.009419253328815103,0.0016554813482798636,2.1213849782943726,0.1912318915128708,-0.0032699694857001305,0.001369641744531691,-35.363465950000005,149.16564495,100190.5,0.0,0.5,3.5,-0.5,-2.5,-995.5,194.0,0.5,4.5,RTL
03:58:20,300000.0,0.002787651937978808,0.0029983242275193334,2.121169328689575,-0.04875459522008896,-0.0005978329572826624,0.00014165055472403765,-35.3634654,149.1656453,100373.0,-6.0,-1.5,-39.0,-0.5,7.0,-1041.5,-44.5,3.5,3.5,RTL
03:58:21,278345.0,0.007206070236861706,0.003811118542216718,2.1216242909431458,-0.09146213158965111,0.0009530509123578668,-0.000694983871653676,-35.363465325,149.16564555000002,101001.0,-7.75,-2.75,-45.5,-0.25,-2.0,-975.75,-87.0,4.75,2.25,RTL
03:58:22,278345.0,0.011186747346073389,0.0043062432669103146,2.1216323375701904,0.4027766287326813,-0.001006856095045805,-0.0011179492576047778,-35.363465250000004,149.16564565,101270.5,-9.0,-4.0,-17.0,0.5,24.5,-957.0,407.0,3.0,2.0,RTL
03:58:24,278345.0,-0.008835551096126437,0.005031562643125653,2.1212656497955322,-0.5453771352767944,0.0015249887946993113,-4.9268826842308044e-05,-35.363465950000005,149.16564515,101297.5,-5.5,-2.0,-2.5,1.0,-25.0,-1016.0,-541.5,6.0,3.0,RTL
03:58:25,108989.0,-0.005614496098132804,0.0039512140792794526,2.1214972138404846,-0.020531773567199707,0.0005616034613922238,0.0007069851853884757,-35.36346645,149.165644675,101620.25,0.0,1.0,-47.0,0.5,-2.5,-1027.5,-16.5,4.5,3.75,RTL
03:58:26,108989.0,-0.006982196355238557,0.0037842903984710574,2.121679663658142,-0.18683026731014252,0.0035190260969102383,-0.0014481476973742247,-35.3634666,149.1656445,102032.5,2.0,2.0,-58.5,0.0,-7.5,-993.0,-182.5,7.5,1.5,RTL
03:58:28,108989.0,-0.00840497831813991,0.0016113515594042838,2.1209661960601807,-0.41584618389606476,-0.001352263381704688,-0.0003887084312736988,-35.363466450000004,149.1656445,102642.0,2.5,3.0,1.0,0.0,-8.0,-987.5,-411.0,3.0,3.0,RTL
03:58:29,300000.0,-0.001222470833454281,0.001969588818610646,2.121153473854065,-0.19108941406011581,0.0034973572473973036,-0.001279324700590223,-35.363466224999996,149.165644525,102615.5,0.5,3.25,-4.0,0.0,-7.75,-1022.75,-187.25,7.5,2.0,RTL
03:58:30,300000.0,-0.00017299049068242311,0.003307364182546735,2.12128746509552,0.2067928072065115,-0.0022132046287879348,0.0006259478395804763,-35.3634663,149.1656445,102723.0,0.0,3.5,-30.0,0.0,2.0,-1039.5,210.5,1.5,3.5,RTL
03:58:32,300000.0,-0.007517570164054632,0.0033777578501030803,2.121899724006653,-0.29377491027116776,-0.0005682514747604728,-0.0005195279372856021,-35.3634665,149.1656445,103725.0,2.5,3.5,-37.5,-0.5,-7.0,-960.0,-289.0,3.0,2.5,RTL
03:58:33,37764.0,-0.0028359036950860173,0.002699909673538059,2.12135511636734,-0.0648274589329958,-0.0014929476892575622,0.0010035735904239118,-35.3634664,149.16564455000002,103913.0,1.75,3.25,1.25,0.5,1.5,-979.5,-60.5,2.25,4.0,RTL
03:58:34,37764.0,-0.0002781790681183338,0.002307425020262599,2.1210832595825195,-0.05625331401824951,-0.0031205257400870323,0.0007351131644099951,-35.3634664,149.1656446,103889.5,1.5,3.0,3.5,-0.5,-10.5,-993.5,-53.5,1.0,3.5,RTL
03:58:36,37764.0,-0.0015853289514780045,0.003704177914187312,2.12198543548584,0.29175204038619995,0.00021742552053183317,0.000442786724306643,-35.3634664,149.1656446,104326.5,1.5,3.0,-54.5,0.5,12.5,-1021.5,295.0,4.0,3.5,RTL
03:58:37,300000.0,-0.0013444757787510753,0.0034759663394652307,2.1215911507606506,0.06650155037641525,0.0014556070091202855,-0.0009385761222802103,-35.3634664,149.165644675,104985.5,1.75,2.5,-36.75,-0.5,6.25,-960.75,70.25,5.5,2.5,RTL
03:58:38,300000.0,0.003437488339841366,0.003228451358154416,2.121055245399475,-0.15173013508319855,-0.0021143388003110886,0.0005375746404752135,-35.363466349999996,149.1656447,105170.0,2.0,3.0,-7.0,0.0,-15.5,-963.5,-149.5,2.0,3.5,RTL
03:58:40,300000.0,-0.001128572621382773,0.0022702158894389868,2.121029853820801,0.2254664357751608,-0.00015819049440324306,-0.0020965003641322255,-35.3634662,149.1656447,105166.0,0.0,2.0,-12.0,0.0,21.5,-1039.0,230.0,3.5,1.0,RTL
03:58:41,200.0,-0.00038782611954957247,0.0027725223335437477,2.1218525171279907,-0.029989300295710564,0.0016390340169891715,-0.0013916870229877532,-35.363466175,149.165644725,105612.0,0.0,2.0,-52.0,0.0,1.25,-1017.25,-26.25,5.25,1.75,RTL
03:58:42,200.0,0.004642168176360428,0.003210352500900626,2.121575355529785,0.20609232783317566,-0.0003419539425522089,-0.0013074789894744754,-35.3634661,149.1656448,106022.0,-0.5,2.0,-50.0,0.0,7.5,-977.0,209.5,3.5,2.0,RTL
03:58:44,200.0,0.000694025307893753,0.0025339432759210467,2.1214205026626587,0.33324567414820194,0.0013325241161510348,-0.0009771317709237337,-35.363466,149.1656449,106371.0,-2.0,0.0,3.0,-0.5,26.5,-999.0,337.5,5.5,2.0,RTL
