time_stamp,MODE,lat,lon,relative_alt,roll,pitch,yaw,rollspeed,pitchspeed,yawspeed,xacc,yacc,zacc,xgyro,ygyro,zgyro,vx,vy,vz,RTL_ALT
08:43:56.956,STABILIZE,-35.3632621,149.1652374,0,-0.0003493417170830071,0.0015234166057780385,0.028437595814466476,0.0001995930215343833,0.00036665084189735353,0.002454090863466263,0,1,-1000,0,0,0,0,0,-1,1500.0
08:43:57.157,STABILIZE,-35.3632621,149.1652374,0,-0.0003493417170830071,0.0015234166057780385,0.028437595814466476,0.0001995930215343833,0.00036665084189735353,0.002454090863466263,0,1,-1000,0,0,0,0,0,-1,1500.0
08:43:57.358,STABILIZE,-35.3632621,149.1652374,0,-0.0003177201433572918,0.001569671556353569,0.028278466314077377,0.0002649248344823718,0.00020563811995089054,0.002331005409359932,0,1,-1000,0,1,0,-1,0,-1,1500.0
08:43:57.559,STABILIZE,-35.3632621,149.1652374,0,-0.0003177201433572918,0.001569671556353569,0.028278466314077377,0.0002649248344823718,0.00020563811995089054,0.002331005409359932,0,1,-1000,0,1,0,-1,0,-1,1500.0
08:43:57.759,STABILIZE,-35.3632621,149.1652374,0,-0.0002868305309675634,0.0016360693844035268,0.027982991188764572,0.00019208845333196223,0.00025117112090811133,0.0025062402710318565,0,1,-1000,0,0,0,-1,0,-1,1500.0
08:43:57.960,STABILIZE,-35.3632621,149.1652374,0,-0.0002868305309675634,0.0016360693844035268,0.027982991188764572,0.00019208845333196223,0.00025117112090811133,0.0025062402710318565,0,1,-1000,0,0,0,-1,0,-1,1500.0
08:43:58.161,STABILIZE,-35.3632621,149.1652374,0,-0.0002868305309675634,0.0016360693844035268,0.027982991188764572,0.00019208845333196223,0.00025117112090811133,0.0025062402710318565,0,1,-1000,0,0,0,-1,0,-1,1500.0
08:43:58.362,STABILIZE,-35.3632621,149.1652374,0,-0.0002868305309675634,0.0016360693844035268,0.027982991188764572,0.00019208845333196223,0.00025117112090811133,0.0025062402710318565,0,1,-1000,0,0,0,-1,0,-1,1500.0
08:43:58.562,STABILIZE,-35.3632621,149.1652374,0,-0.0002868305309675634,0.0016360693844035268,0.027982991188764572,0.00019208845333196223,0.00025117112090811133,0.0025062402710318565,0,1,-1000,0,0,0,-1,0,-1,1500.0
08:43:58.763,STABILIZE,-35.3632621,149.1652374,0,-0.00033136759884655476,0.001591420965269208,0.027371391654014587,0.00013754382962360978,0.00027805782156065106,0.002234925515949726,0,1,-1000,0,0,0,-1,0,-1,1500.0
08:43:58.964,STABILIZE,-35.3632621,149.1652374,0,-0.00033136759884655476,0.001591420965269208,0.027371391654014587,0.00013754382962360978,0.00027805782156065106,0.002234925515949726,0,1,-1000,0,0,0,-1,0,-1,1500.0
08:43:59.164,STABILIZE,-35.3632621,149.1652374,0,-0.00033136759884655476,0.001591420965269208,0.027371391654014587,0.00013754382962360978,0.00027805782156065106,0.002234925515949726,0,1,-1000,0,0,0,-1,0,-1,1500.0
08:43:59.365,STABILIZE,-35.3632621,149.1652374,0,-0.00033136759884655476,0.001591420965269208,0.027371391654014587,0.00013754382962360978,0.00027805782156065106,0.002234925515949726,0,1,-1000,0,0,0,-1,0,-1,1500.0
08:43:59.566,STABILIZE,-35.3632622,149.1652375,0,-0.00019027352391276509,0.0014414859469980001,0.026909584179520607,0.0002580156724434346,9.828971815295517e-05,0.002219671616330743,0,1,-1000,0,0,0,-2,2,0,1500.0
08:43:59.767,STABILIZE,-35.3632622,149.1652375,0,-0.0002926276356447488,0.0013868899550288916,0.026779022067785263,0.0002022446133196354,0.00032599936821497977,0.002160536590963602,0,1,-1000,0,0,0,-2,2,0,1500.0
08:43:59.968,STABILIZE,-35.3632622,149.1652375,0,-0.0002926276356447488,0.0013868899550288916,0.026779022067785263,0.0002022446133196354,0.00032599936821497977,0.002160536590963602,0,1,-1000,0,0,0,-2,2,0,1500.0
08:44:00.169,STABILIZE,-35.3632622,149.1652375,0,-0.0002926276356447488,0.0013868899550288916,0.026779022067785263,0.0002022446133196354,0.00032599936821497977,0.002160536590963602,0,1,-1000,0,0,0,-2,2,0,1500.0
08:44:00.370,STABILIZE,-35.3632622,149.1652375,0,-0.0002926276356447488,0.0013868899550288916,0.026779022067785263,0.0002022446133196354,0.00032599936821497977,0.002160536590963602,0,1,-1000,0,0,0,-2,2,0,1500.0
08:44:00.571,STABILIZE,-35.3632622,149.1652375,0,-0.0002926276356447488,0.0013868899550288916,0.026779022067785263,0.0002022446133196354,0.00032599936821497977,0.002160536590963602,0,1,-1000,0,0,0,-2,2,0,1500.0
08:44:00.772,STABILIZE,-35.3632622,149.1652375,0,-0.0002926276356447488,0.0013868899550288916,0.026779022067785263,0.0002022446133196354,0.00032599936821497977,0.002160536590963602,0,1,-1000,0,0,0,-2,2,0,1500.0
08:44:00.974,STABILIZE,-35.3632622,149.1652375,0,-0.0002926276356447488,0.0013868899550288916,0.026779022067785263,0.0002022446133196354,0.00032599936821497977,0.002160536590963602,0,1,-1000,0,0,0,-2,2,0,1500.0
08:44:01.175,STABILIZE,-35.3632622,149.1652375,0,-0.0007255053496919572,0.0011296822922304273,0.02614622935652733,0.00014642946189269423,0.00022737693507224321,0.0020518326200544834,0,1,-1000,0,0,0,-1,1,0,1500.0
08:44:01.376,STABILIZE,-35.3632622,149.1652375,0,-0.000783658295404166,0.001098975189961493,0.02605467289686203,0.00016666087321937084,0.0002761248324532062,0.0020948583260178566,0,1,-1000,0,0,0,-1,1,0,1500.0
08:44:01.577,STABILIZE,-35.3632622,149.1652375,0,-0.000783658295404166,0.001098975189961493,0.02605467289686203,0.00016666087321937084,0.0002761248324532062,0.0020948583260178566,0,1,-1000,0,0,0,-1,1,0,1500.0
08:44:01.779,STABILIZE,-35.3632622,149.1652375,0,-0.0008989661582745612,0.0010196834336966276,0.02583262324333191,0.00033105158945545554,0.000189593352843076,0.0020207443740218878,0,1,-1000,0,0,0,-1,1,0,1500.0
08:44:01.980,STABILIZE,-35.3632622,149.1652375,0,-0.0008989661582745612,0.0010196834336966276,0.02583262324333191,0.00033105158945545554,0.000189593352843076,0.0020207443740218878,0,1,-1000,0,0,0,-1,1,0,1500.0
08:44:02.181,STABILIZE,-35.3632622,149.1652375,0,-0.0008989661582745612,0.0010196834336966276,0.02583262324333191,0.00033105158945545554,0.000189593352843076,0.0020207443740218878,0,1,-1000,0,0,0,-1,1,0,1500.0
08:44:02.383,STABILIZE,-35.3632622,149.1652375,0,-0.0008989661582745612,0.0010196834336966276,0.02583262324333191,0.00033105158945545554,0.000189593352843076,0.0020207443740218878,0,1,-1000,0,0,0,-1,1,0,1500.0
08:44:02.584,STABILIZE,-35.3632621,149.1652375,0,-0.0008379999781027436,0.0009575557196512818,0.025545699521899223,0.00025904871290549636,0.00011917692609131336,0.001982551533728838,0,1,-1000,0,0,1,-1,1,0,1500.0
08:44:02.785,STABILIZE,-35.3632621,149.1652375,0,-0.0008379999781027436,0.0009575557196512818,0.025545699521899223,0.00025904871290549636,0.00011917692609131336,0.001982551533728838,0,1,-1000,0,0,0,-1,1,0,1500.0
08:44:02.988,STABILIZE,-35.3632621,149.1652375,0,-0.0008379999781027436,0.0009575557196512818,0.025545699521899223,0.00025904871290549636,0.00011917692609131336,0.001982551533728838,0,1,-1000,0,0,0,-1,1,0,1500.0
08:44:03.192,STABILIZE,-35.3632621,149.1652375,0,-0.0008379999781027436,0.0009575557196512818,0.025545699521899223,0.00025904871290549636,0.00011917692609131336,0.001982551533728838,0,1,-1000,0,0,0,-1,1,0,1500.0
08:44:03.394,STABILIZE,-35.3632621,149.1652375,0,-0.0008379999781027436,0.0009575557196512818,0.025545699521899223,0.00025904871290549636,0.00011917692609131336,0.001982551533728838,0,1,-1000,0,0,0,-1,1,0,1500.0
08:44:03.596,STABILIZE,-35.3632621,149.1652375,0,-0.0008379999781027436,0.0009575557196512818,0.025545699521899223,0.00025904871290549636,0.00011917692609131336,0.001982551533728838,0,1,-1000,0,0,0,-1,1,0,1500.0
08:44:03.798,STABILIZE,-35.3632621,149.1652374,0,-0.001014205627143383,0.0009265551343560219,0.025118397548794746,0.00016612611943855882,0.00019890978001058102,0.0020107729360461235,0,1,-1000,0,0,0,-1,1,0,1500.0
08:44:04.006,STABILIZE,-35.3632621,149.1652374,0,-0.001014205627143383,0.0009265551343560219,0.025118397548794746,0.00016612611943855882,0.00019890978001058102,0.0020107729360461235,0,1,-1000,0,0,0,-1,1,0,1500.0
08:44:04.207,STABILIZE,-35.3632621,149.1652374,0,-0.001014205627143383,0.0009265551343560219,0.025118397548794746,0.00016612611943855882,0.00019890978001058102,0.0020107729360461235,0,1,-1000,0,0,0,-1,1,0,1500.0
08:44:04.409,STABILIZE,-35.3632621,149.1652374,0,-0.001014205627143383,0.0009265551343560219,0.025118397548794746,0.00016612611943855882,0.00019890978001058102,0.0020107729360461235,0,1,-1000,0,0,0,-1,1,0,1500.0
08:44:04.610,STABILIZE,-35.3632621,149.1652374,0,-0.001014205627143383,0.0009265551343560219,0.025118397548794746,0.00016612611943855882,0.00019890978001058102,0.0020107729360461235,0,1,-1000,0,0,0,-1,1,0,1500.0
08:44:04.811,STABILIZE,-35.3632621,149.1652374,0,-0.001092693768441677,0.0009208187693729997,0.02475832961499691,0.00021704757818952203,0.00023953162599354982,0.0018636221066117287,0,1,-1000,0,0,0,-1,0,0,1500.0
08:44:05.013,STABILIZE,-35.3632621,149.1652374,0,-0.001092693768441677,0.0009208187693729997,0.02475832961499691,0.00021704757818952203,0.00023953162599354982,0.0018636221066117287,0,1,-1000,0,0,0,-1,0,0,1500.0
08:44:05.215,STABILIZE,-35.3632621,149.1652374,0,-0.001092693768441677,0.0009208187693729997,0.02475832961499691,0.00021704757818952203,0.00023953162599354982,0.0018636221066117287,0,1,-1000,0,0,0,-1,0,0,1500.0
08:44:05.416,STABILIZE,-35.3632621,149.1652374,0,-0.001119327498599887,0.0009182084468193352,0.024585846811532974,0.00025575445033609867,0.0003905535559169948,0.0018934920663014054,0,1,-1000,0,0,0,-1,0,0,1500.0
08:44:05.618,STABILIZE,-35.3632621,149.1652374,0,-0.001119327498599887,0.0009182084468193352,0.024585846811532974,0.00025575445033609867,0.0003905535559169948,0.0018934920663014054,0,1,-1000,0,0,0,-1,0,0,1500.0
08:44:05.819,STABILIZE,-35.3632621,149.1652374,0,-0.001119327498599887,0.0009182084468193352,0.024585846811532974,0.00025575445033609867,0.0003905535559169948,0.0018934920663014054,0,1,-1000,0,0,0,-1,0,0,1500.0
08:44:06.021,STABILIZE,-35.3632621,149.1652374,0,-0.001119327498599887,0.0009182084468193352,0.024585846811532974,0.00025575445033609867,0.0003905535559169948,0.0018934920663014054,0,1,-1000,0,0,0,-1,0,0,1500.0
08:44:06.222,STABILIZE,-35.3632621,149.1652374,0,-0.001119327498599887,0.0009182084468193352,0.024585846811532974,0.00025575445033609867,0.0003905535559169948,0.0018934920663014054,0,1,-1000,0,0,0,-1,0,0,1500.0
08:44:06.424,STABILIZE,-35.3632621,149.1652374,0,-0.001119327498599887,0.0009182084468193352,0.024585846811532974,0.00025575445033609867,0.0003905535559169948,0.0018934920663014054,0,1,-1000,0,0,0,-1,0,0,1500.0
08:44:06.625,STABILIZE,-35.3632621,149.1652374,0,-0.001119327498599887,0.0009182084468193352,0.024585846811532974,0.00025575445033609867,0.0003905535559169948,0.0018934920663014054,0,1,-1000,0,0,0,-1,0,0,1500.0
08:44:06.827,STABILIZE,-35.3632621,149.1652375,0,-0.0010678420076146722,0.0009588312241248786,0.024118125438690186,0.0002764336531981826,0.00020057731308043003,0.001809324836358428,0,1,-1000,0,1,1,-1,1,1,1500.0
08:44:07.028,STABILIZE,-35.3632621,149.1652375,0,-0.0010678420076146722,0.0009588312241248786,0.024118125438690186,0.0002764336531981826,0.00020057731308043003,0.001809324836358428,0,2,-1000,0,0,0,-1,1,1,1500.0
08:44:07.230,STABILIZE,-35.3632621,149.1652375,0,-0.0010678420076146722,0.0009588312241248786,0.024118125438690186,0.0002764336531981826,0.00020057731308043003,0.001809324836358428,0,2,-1000,0,0,0,-1,1,1,1500.0
08:44:07.431,STABILIZE,-35.3632621,149.1652375,0,-0.0011306076776236296,0.0009719438385218382,0.02397732064127922,0.0003050201339647174,0.00031428568763658404,0.0018216297030448914,0,1,-1000,0,0,0,-1,1,0,1500.0
08:44:07.632,STABILIZE,-35.3632621,149.1652375,0,-0.0011306076776236296,0.0009719438385218382,0.02397732064127922,0.0003050201339647174,0.00031428568763658404,0.0018216297030448914,0,1,-1000,0,0,0,-1,1,0,1500.0
08:44:07.833,STABILIZE,-35.3632621,149.1652375,0,-0.0011851044837385416,0.0009758573141880333,0.02383405715227127,0.00028071890119463205,0.0002844339469447732,0.0017755490262061357,0,1,-1000,0,0,0,-1,1,0,1500.0
08:44:08.034,STABILIZE,-35.3632621,149.1652375,0,-0.0011851044837385416,0.0009758573141880333,0.02383405715227127,0.00028071890119463205,0.0002844339469447732,0.0017755490262061357,0,1,-1000,0,0,0,-1,1,0,1500.0
08:44:08.235,STABILIZE,-35.3632621,149.1652375,0,-0.0011851044837385416,0.0009758573141880333,0.02383405715227127,0.00028071890119463205,0.0002844339469447732,0.0017755490262061357,0,1,-1000,0,0,0,-1,1,0,1500.0
08:44:08.437,STABILIZE,-35.3632621,149.1652375,0,-0.0011851044837385416,0.0009758573141880333,0.02383405715227127,0.00028071890119463205,0.0002844339469447732,0.0017755490262061357,0,1,-1000,0,0,0,-1,1,0,1500.0
08:44:08.638,STABILIZE,-35.3632621,149.1652375,0,-0.0011851044837385416,0.0009758573141880333,0.02383405715227127,0.00028071890119463205,0.0002844339469447732,0.0017755490262061357,0,1,-1000,0,0,0,-1,1,0,1500.0
08:44:08.839,STABILIZE,-35.3632621,149.1652375,0,-0.001243128441274166,0.0009859022684395313,0.023570533841848373,0.00027287210104987025,0.00019284267909824848,0.0016543419333174825,0,1,-1000,0,0,0,-1,1,0,1500.0
08:44:09.040,STABILIZE,-35.3632622,149.1652374,0,-0.001243128441274166,0.0009859022684395313,0.023570533841848373,0.00027287210104987025,0.00019284267909824848,0.0016543419333174825,0,1,-1000,0,0,1,-1,0,0,1500.0
08:44:09.241,STABILIZE,-35.3632622,149.1652374,0,-0.001243128441274166,0.0009859022684395313,0.023570533841848373,0.00027287210104987025,0.00019284267909824848,0.0016543419333174825,0,1,-1000,0,0,1,-1,0,0,1500.0
08:44:09.442,STABILIZE,-35.3632622,149.1652374,0,-0.001273790723644197,0.0009859924903139472,0.023424336686730385,0.00022066023666411638,0.0003008212079294026,0.0016226698644459248,0,1,-1000,0,0,0,-1,0,0,1500.0
08:44:09.643,STABILIZE,-35.3632622,149.1652374,0,-0.001273790723644197,0.0009859924903139472,0.023424336686730385,0.00022066023666411638,0.0003008212079294026,0.0016226698644459248,0,1,-1000,0,0,0,-1,0,0,1500.0
08:44:09.845,STABILIZE,-35.3632622,149.1652374,0,-0.0009635015740059316,0.0009889717912301421,0.023296937346458435,0.00024303345708176494,0.0001936280750669539,0.00160200335085392,0,2,-1000,0,0,0,-1,0,0,1500.0
08:44:10.046,STABILIZE,-35.3632622,149.1652374,0,-0.0009635015740059316,0.0009889717912301421,0.023296937346458435,0.00024303345708176494,0.0001936280750669539,0.00160200335085392,0,2,-1000,0,0,0,-1,0,0,1500.0
08:44:10.247,STABILIZE,-35.3632622,149.1652374,0,-0.0009635015740059316,0.0009889717912301421,0.023296937346458435,0.00024303345708176494,0.0001936280750669539,0.00160200335085392,0,2,-1000,0,0,0,-1,0,0,1500.0
08:44:10.448,STABILIZE,-35.3632622,149.1652374,0,-0.0009635015740059316,0.0009889717912301421,0.023296937346458435,0.00024303345708176494,0.0001936280750669539,0.00160200335085392,0,2,-1000,0,0,0,-1,0,0,1500.0
08:44:10.649,STABILIZE,-35.3632622,149.1652374,0,-0.0009635015740059316,0.0009889717912301421,0.023296937346458435,0.00024303345708176494,0.0001936280750669539,0.00160200335085392,0,2,-1000,0,0,0,-1,0,0,1500.0
08:44:10.851,STABILIZE,-35.3632622,149.1652375,0,-0.0009635015740059316,0.0009889717912301421,0.023296937346458435,0.00024303345708176494,0.0001936280750669539,0.00160200335085392,0,1,-1000,0,0,0,-1,1,0,1500.0
08:44:11.052,STABILIZE,-35.3632622,149.1652375,0,-0.001098992652259767,0.0009765775175765157,0.02293204329907894,0.00023872265592217445,0.0002939572441391647,0.0016198237426578999,0,1,-1000,1,0,0,-1,1,0,1500.0
08:44:11.253,STABILIZE,-35.3632622,149.1652375,0,-0.001098992652259767,0.0009765775175765157,0.02293204329907894,0.00023872265592217445,0.0002939572441391647,0.0016198237426578999,0,1,-1000,1,0,0,-1,1,0,1500.0
08:44:11.454,STABILIZE,-35.3632622,149.1652375,0,-0.001098992652259767,0.0009765775175765157,0.02293204329907894,0.00023872265592217445,0.0002939572441391647,0.0016198237426578999,0,1,-1000,1,0,0,-1,1,0,1500.0
08:44:11.655,STABILIZE,-35.3632622,149.1652375,0,-0.0011377041228115559,0.0009749275050126016,0.022813372313976288,0.00019304151646792889,0.0002519160625524819,0.0016757403500378132,0,1,-1000,1,0,0,-1,1,0,1500.0
08:44:11.856,STABILIZE,-35.3632622,149.1652375,0,-0.001145841903053224,0.0009730607271194458,0.022747846320271492,0.0002711053239181638,0.0002729497500695288,0.0015633355360478163,0,1,-1000,1,0,0,-1,1,0,1500.0
08:44:12.058,AUTO,-35.3632622,149.1652375,0,-0.001145841903053224,0.0009730607271194458,0.022747846320271492,0.0002711053239181638,0.0002729497500695288,0.0015633355360478163,0,1,-1000,1,0,0,-1,1,0,1500.0
08:44:12.270,AUTO,-35.3632622,149.1652375,0,-0.001145841903053224,0.0009730607271194458,0.022747846320271492,0.0002711053239181638,0.0002729497500695288,0.0015633355360478163,0,1,-1000,1,0,0,-1,1,0,267894.0
08:44:12.472,AUTO,-35.3632622,149.1652375,0,-0.001145841903053224,0.0009730607271194458,0.022747846320271492,0.0002711053239181638,0.0002729497500695288,0.0015633355360478163,0,1,-1000,1,0,0,-1,1,0,267894.0
08:44:12.673,AUTO,-35.3632622,149.1652375,8,-0.0011696905130520463,0.0009713557083159685,0.022588877007365227,0.00035766029031947255,0.00023310387041419744,0.0014717441517859697,0,2,-1000,0,0,1,-1,1,0,267894.0
08:44:12.874,AUTO,-35.3632622,149.1652375,9,-0.0011595115065574646,0.0009812198113650084,0.02253013104200363,0.00028450076933950186,0.00022073497530072927,0.0015882104635238647,0,2,-1000,0,0,0,-1,0,0,267894.0
08:44:13.076,AUTO,-35.3632621,149.1652375,15,-0.0011377283371984959,0.0009945868514478207,0.02248605340719223,0.00028736586682498455,0.0003248790744692087,0.0014799342025071383,0,1,-1000,0,0,1,0,-1,-3,267894.0
08:44:13.277,AUTO,-35.3632621,149.1652375,19,-0.0010922433575615287,0.0010298443958163261,0.022421522065997124,0.00019991863518953323,0.00028261548141017556,0.0015343038830906153,0,1,-1000,0,1,0,0,-1,-2,267894.0
08:44:13.479,AUTO,-35.3632621,149.1652375,19,-0.0010922433575615287,0.0010298443958163261,0.022421522065997124,0.00019991863518953323,0.00028261548141017556,0.0015343038830906153,0,1,-1000,0,1,0,0,-1,-2,267894.0
08:44:13.680,AUTO,-35.3632621,149.1652375,22,-0.0010399450547993183,0.001084382296539843,0.022371506318449974,0.00016517401672899723,0.0003098687739111483,0.0014803234953433275,0,1,-1000,1,0,0,0,0,-2,267894.0
08:44:13.882,AUTO,-35.3632621,149.1652375,24,-0.0009795153746381402,0.001136237639002502,0.022321481257677078,0.00019393564434722066,0.00022943888325244188,0.0015208970289677382,0,1,-1000,1,0,0,0,0,-2,267894.0
08:44:14.084,AUTO,-35.3632621,149.1652375,24,-0.0009795153746381402,0.001136237639002502,0.022321481257677078,0.00019393564434722066,0.00022943888325244188,0.0015208970289677382,0,1,-1000,1,0,0,0,0,-2,267894.0
08:44:14.286,AUTO,-35.3632621,149.1652375,24,-0.0009795153746381402,0.001136237639002502,0.022321481257677078,0.00019393564434722066,0.00022943888325244188,0.0015208970289677382,0,1,-1000,1,0,0,0,0,-2,267894.0
08:44:14.488,AUTO,-35.3632621,149.1652375,24,-0.0009795153746381402,0.001136237639002502,0.022321481257677078,0.00019393564434722066,0.00022943888325244188,0.0015208970289677382,0,1,-1000,1,0,0,0,0,-2,267894.0
08:44:14.690,AUTO,-35.3632621,149.1652375,27,-0.0008154678507708013,0.0013350086519494653,0.02214929088950157,0.0003122701891697943,0.0003138748579658568,0.0015762043185532093,0,2,-1000,0,0,1,0,0,-2,267894.0
08:44:14.891,AUTO,-35.3632621,149.1652375,28,-0.0007541643572039902,0.0014038424706086516,0.022083699703216553,0.0003321600379422307,0.0003752278280444443,0.001525558647699654,0,1,-1000,1,0,0,0,0,-2,267894.0
08:44:15.093,AUTO,-35.3632621,149.1652375,28,-0.0006970244576223195,0.0014778077602386475,0.02200879342854023,0.00024907401530072093,0.000358969671651721,0.0014938169624656439,0,1,-1000,0,0,0,0,0,-2,49608.0
08:44:15.296,AUTO,-35.3632621,149.1652375,29,-0.0006390186608769,0.0015540719032287598,0.02193746715784073,0.00034971884451806545,0.0002934269141405821,0.001480707316659391,0,2,-1000,1,0,0,0,0,-2,49608.0
08:44:15.498,AUTO,-35.3632621,149.1652375,29,-0.0005804073298349977,0.0016324250027537346,0.021863862872123718,0.00029284885386005044,0.0003762658452615142,0.0014720838516950607,0,1,-1000,1,0,1,0,0,-1,49608.0
08:44:15.700,AUTO,-35.3632621,149.1652375,29,-0.0005804073298349977,0.0016324250027537346,0.021863862872123718,0.00029284885386005044,0.0003762658452615142,0.0014720838516950607,0,1,-1000,1,0,1,0,0,-1,49608.0
08:44:15.901,AUTO,-35.3632621,149.1652375,30,-0.0005129710189066827,0.001704079331830144,0.021793467923998833,0.0003754597855731845,0.00028033775743097067,0.0014502920676022768,0,1,-1000,0,0,1,0,0,-1,49608.0
08:44:16.105,AUTO,-35.3632621,149.1652375,30,-0.0005129710189066827,0.001704079331830144,0.021793467923998833,0.0003754597855731845,0.00028033775743097067,0.0014502920676022768,0,1,-1000,0,0,1,0,0,-1,49608.0
08:44:16.313,AUTO,-35.3632621,149.1652375,30,-0.0005129710189066827,0.001704079331830144,0.021793467923998833,0.0003754597855731845,0.00028033775743097067,0.0014502920676022768,0,1,-1000,0,0,1,0,0,-1,49608.0
08:44:16.515,AUTO,-35.3632621,149.1652375,279,0.0017226730706170201,0.00039709312841296196,0.021694976836442947,0.004105383530259132,0.004230340011417866,0.0005679658497683704,0,0,-1125,4,4,0,0,1,-82,49608.0
08:44:16.717,AUTO,-35.3632621,149.1652375,279,0.0017226730706170201,0.00039709312841296196,0.021694976836442947,0.004105383530259132,0.004230340011417866,0.0005679658497683704,0,0,-1125,4,4,0,0,1,-82,49608.0
08:44:16.918,AUTO,-35.3632621,149.1652375,518,0.0012534859124571085,0.001324484241195023,0.021670155227184296,-0.006316693499684334,0.002648358466103673,0.0019254370126873255,0,0,-1104,-5,3,1,0,1,-109,49608.0
08:44:17.120,AUTO,-35.3632621,149.1652375,819,0.003245544619858265,0.001481817802414298,0.021399512887001038,0.03356363996863365,-0.00232546404004097,0.00043111483682878315,0,0,-1073,34,-1,0,0,1,-131,49608.0
08:44:17.322,AUTO,-35.3632621,149.1652375,1165,0.014689375646412373,0.00015981183969415724,0.021258767694234848,0.04831741750240326,-0.006446815561503172,0.0017991232452914119,0,0,-1031,48,-5,1,0,2,-142,49608.0
08:44:17.524,AUTO,-35.363262,149.1652375,1535,0.02641758881509304,-0.0016028861282393336,0.02129318192601204,0.04661979526281357,-0.006969662383198738,0.0024822806008160114,0,0,-1013,47,-6,2,1,7,-147,49608.0
08:44:17.726,AUTO,-35.363262,149.1652375,1535,0.02641758881509304,-0.0016028861282393336,0.02129318192601204,0.04661979526281357,-0.006969662383198738,0.0024822806008160114,0,0,-1013,47,-6,2,1,7,-147,49608.0
08:44:17.928,AUTO,-35.363262,149.1652378,1915,0.03772924467921257,-0.003567090956494212,0.021472007036209106,0.04402625188231468,-0.008023002184927464,0.003039098810404539,0,-2,-1005,44,-7,2,2,14,-149,49608.0
08:44:18.130,AUTO,-35.363262,149.1652378,1915,0.03772924467921257,-0.003567090956494212,0.021472007036209106,0.04402625188231468,-0.008023002184927464,0.003039098810404539,0,-2,-1005,44,-7,2,2,14,-149,208116.0
08:44:18.332,AUTO,-35.363262,149.1652378,1915,0.03772924467921257,-0.003567090956494212,0.021472007036209106,0.04402625188231468,-0.008023002184927464,0.003039098810404539,0,-2,-1005,44,-7,2,2,14,-149,208116.0
08:44:18.534,AUTO,-35.3632616,149.1652401,3066,0.0591341070830822,-0.004967664368450642,-0.011724364012479782,-0.05936945229768753,0.0674055814743042,-0.08166330307722092,1,-7,-990,-58,67,-82,9,47,-147,208116.0
08:44:18.736,AUTO,-35.3632616,149.1652401,3066,0.0591341070830822,-0.004967664368450642,-0.011724364012479782,-0.05936945229768753,0.0674055814743042,-0.08166330307722092,1,-7,-990,-58,67,-82,9,47,-147,208116.0
08:44:18.937,AUTO,-35.3632613,149.1652415,3444,0.02853267639875412,0.019142914563417435,-0.03653619810938835,-0.16895489394664764,0.06825876981019974,-0.09208250790834427,4,-12,-993,-168,68,-92,9,55,-145,208116.0
08:44:19.139,AUTO,-35.3632611,149.1652429,3819,-0.010244284756481647,0.02175186760723591,-0.0522267147898674,-0.09829778224229813,-0.027069443836808205,-0.04571090638637543,5,-12,-1010,-97,-26,-46,5,53,-146,208116.0
08:44:19.341,AUTO,-35.363261,149.1652442,4199,-0.023999227210879326,0.011508645489811897,-0.058680903166532516,-0.03178254887461662,-0.0371868722140789,-0.030174000188708305,5,-12,-1009,-31,-36,-30,3,45,-148,208116.0
08:44:19.542,AUTO,-35.3632609,149.1652453,4583,-0.0331060029566288,0.004818082321435213,-0.06490729004144669,-0.05210627615451813,-0.013208483345806599,-0.03231192007660866,4,-8,-1002,-51,-12,-32,2,36,-149,208116.0
08:44:19.744,AUTO,-35.3632609,149.1652453,4583,-0.0331060029566288,0.004818082321435213,-0.06490729004144669,-0.05210627615451813,-0.013208483345806599,-0.03231192007660866,4,-8,-1002,-51,-12,-32,2,36,-149,208116.0
08:44:19.947,AUTO,-35.3632608,149.1652461,4967,-0.05106419697403908,0.0031390551012009382,-0.07348843663930893,-0.08576247841119766,0.0010547207202762365,-0.03797173500061035,2,-5,-999,-85,1,-38,2,23,-149,208116.0
08:44:20.149,AUTO,-35.3632608,149.1652461,4967,-0.05106419697403908,0.0031390551012009382,-0.07348843663930893,-0.08576247841119766,0.0010547207202762365,-0.03797173500061035,2,-5,-999,-85,1,-38,2,23,-149,208116.0
08:44:20.351,AUTO,-35.3632608,149.1652461,4967,-0.05106419697403908,0.0031390551012009382,-0.07348843663930893,-0.08576247841119766,0.0010547207202762365,-0.03797173500061035,2,-5,-999,-85,1,-38,2,23,-149,208116.0
08:44:20.553,AUTO,-35.3632608,149.1652458,6116,-0.07067864388227463,0.0016048994148150086,-0.09946729242801666,0.052319228649139404,-0.002023272914811969,-0.019991252571344376,-3,4,-1001,52,-1,-20,-2,-32,-149,208116.0
08:44:20.754,AUTO,-35.3632608,149.1652448,6499,-0.056733086705207825,0.0016200515674427152,-0.1039813831448555,0.058711692690849304,0.003430152777582407,-0.013322478160262108,-4,7,-1000,59,4,-13,-5,-47,-149,208116.0
08:44:20.956,AUTO,-35.3632608,149.1652448,6499,-0.056733086705207825,0.0016200515674427152,-0.1039813831448555,0.058711692690849304,0.003430152777582407,-0.013322478160262108,-4,7,-1000,59,4,-13,-5,-47,-149,208116.0
08:44:21.158,AUTO,-35.3632609,149.1652434,6882,-0.04153665900230408,0.0030172576662153006,-0.10705535858869553,0.06311067938804626,0.007786794099956751,-0.00847486313432455,-5,10,-1001,63,8,-8,-8,-56,-149,4498.0
08:44:21.360,AUTO,-35.3632611,149.1652417,7273,-0.02489781193435192,0.005370972212404013,-0.10894367098808289,0.06720679998397827,0.01039658859372139,-0.004157546442002058,-5,13,-1002,67,11,-4,-10,-62,-149,4498.0
08:44:21.562,AUTO,-35.3632614,149.16524,7657,-0.00806341227144003,0.008204963989555836,-0.10988400876522064,0.06831832230091095,0.011504314839839935,-0.0025256529916077852,-6,15,-1003,68,12,-2,-13,-62,-150,4498.0
08:44:21.764,AUTO,-35.3632617,149.1652382,8045,0.009120951406657696,0.010910875163972378,-0.10995415598154068,0.07002629339694977,0.010276936925947666,0.0010182595578953624,-4,14,-1004,70,10,0,-16,-59,-151,4498.0
08:44:21.965,AUTO,-35.3632617,149.1652382,8045,0.009120951406657696,0.010910875163972378,-0.10995415598154068,0.07002629339694977,0.010276936925947666,0.0010182595578953624,-4,14,-1004,70,10,0,-16,-59,-151,4498.0
08:44:22.167,AUTO,-35.3632617,149.1652382,8045,0.009120951406657696,0.010910875163972378,-0.10995415598154068,0.07002629339694977,0.010276936925947666,0.0010182595578953624,-4,14,-1004,70,10,0,-16,-59,-151,4498.0
08:44:22.369,AUTO,-35.3632617,149.1652382,8045,0.009120951406657696,0.010910875163972378,-0.10995415598154068,0.07002629339694977,0.010276936925947666,0.0010182595578953624,-4,14,-1004,70,10,0,-16,-59,-151,4498.0
08:44:22.571,AUTO,-35.3632631,149.1652343,9211,0.05896522477269173,0.014288910664618015,-0.10690878331661224,0.06369870901107788,-0.0027812698390334845,0.004074559547007084,0,11,-1002,64,-2,3,-24,-26,-153,4498.0
08:44:22.773,AUTO,-35.3632637,149.1652337,9605,0.07257624715566635,0.01137805450707674,-0.10395662486553192,0.026001930236816406,-0.03267491236329079,0.035279881209135056,1,6,-997,26,-32,34,-25,-8,-153,4498.0
08:44:22.975,AUTO,-35.3632637,149.1652337,9605,0.07257624715566635,0.01137805450707674,-0.10395662486553192,0.026001930236816406,-0.03267491236329079,0.035279881209135056,1,6,-997,26,-32,34,-25,-8,-153,4498.0
08:44:23.176,AUTO,-35.3632642,149.1652337,9993,0.06703515350818634,-0.010843117721378803,-0.0867081731557846,-0.04365524649620056,-0.11446379125118256,0.10043377429246902,4,4,-995,-42,-113,100,-22,9,-151,4498.0
08:44:23.378,AUTO,-35.3632646,149.1652341,10379,0.05655660480260849,-0.04199644923210144,-0.06074020639061928,-0.027969760820269585,-0.11149758845567703,0.11559240520000458,5,0,-1001,-27,-110,115,-13,23,-150,4498.0
08:44:23.580,AUTO,-35.3632647,149.1652347,10764,0.04502519220113754,-0.06836069375276566,-0.03344772383570671,-0.07800879329442978,-0.07131962478160858,0.08690506964921951,3,-4,-994,-77,-70,86,3,33,-149,4498.0
08:44:23.782,AUTO,-35.3632645,149.1652356,11144,0.0136854387819767,-0.06408794969320297,-0.030475616455078125,-0.13870513439178467,0.08146706223487854,-0.03428398817777634,2,-7,-996,-137,82,-34,21,38,-147,4498.0
08:44:23.984,AUTO,-35.3632645,149.1652356,11144,0.0136854387819767,-0.06408794969320297,-0.030475616455078125,-0.13870513439178467,0.08146706223487854,-0.03428398817777634,2,-7,-996,-137,82,-34,21,38,-147,4498.0
08:44:24.186,AUTO,-35.3632645,149.1652356,11144,0.0136854387819767,-0.06408794969320297,-0.030475616455078125,-0.13870513439178467,0.08146706223487854,-0.03428398817777634,2,-7,-996,-137,82,-34,21,38,-147,24690.0
08:44:24.388,AUTO,-35.3632645,149.1652356,11144,0.0136854387819767,-0.06408794969320297,-0.030475616455078125,-0.13870513439178467,0.08146706223487854,-0.03428398817777634,2,-7,-996,-137,82,-34,21,38,-147,24690.0
08:44:24.590,AUTO,-35.3632622,149.1652378,12291,-0.039290159940719604,0.0017090621404349804,-0.10118795931339264,-0.01316069345921278,0.06067780405282974,-0.10177474468946457,-4,-9,-1007,-12,61,-102,39,12,-150,24690.0
08:44:24.791,AUTO,-35.3632613,149.1652379,12678,-0.03842305392026901,0.012713410891592503,-0.12549754977226257,0.016549410298466682,0.03742637485265732,-0.08405536413192749,-7,-6,-1005,17,38,-84,35,0,-152,24690.0
08:44:24.993,AUTO,-35.3632613,149.1652379,12678,-0.03842305392026901,0.012713410891592503,-0.12549754977226257,0.016549410298466682,0.03742637485265732,-0.08405536413192749,-7,-6,-1005,17,38,-84,35,0,-152,24690.0
08:44:25.194,AUTO,-35.3632606,149.1652378,13068,-0.03244619444012642,0.01942017301917076,-0.14505119621753693,0.03289147838950157,0.02297363430261612,-0.06628032773733139,-7,-3,-1003,33,23,-66,28,-9,-152,24690.0
08:44:25.396,AUTO,-35.36326,149.1652375,13459,-0.02335561066865921,0.023694658651947975,-0.1595580130815506,0.04029247164726257,0.01677052117884159,-0.04987102001905441,-7,-1,-1002,40,17,-50,21,-16,-153,24690.0
08:44:25.598,AUTO,-35.3632596,149.165237,13849,-0.01268952339887619,0.027172505855560303,-0.17006854712963104,0.046698544174432755,0.013231239281594753,-0.03532728552818298,-6,0,-1001,47,13,-35,13,-19,-153,24690.0
08:44:25.800,AUTO,-35.3632593,149.1652364,14241,-0.0008527881000190973,0.029800107702612877,-0.17748884856700897,0.04984559863805771,0.009370912797749043,-0.025622917339205742,-6,1,-1001,50,10,-25,5,-20,-153,24690.0
08:44:26.002,AUTO,-35.3632593,149.1652364,14241,-0.0008527881000190973,0.029800107702612877,-0.17748884856700897,0.04984559863805771,0.009370912797749043,-0.025622917339205742,-6,1,-1001,50,10,-25,5,-20,-153,24690.0
08:44:26.208,AUTO,-35.3632593,149.1652364,14241,-0.0008527881000190973,0.029800107702612877,-0.17748884856700897,0.04984559863805771,0.009370912797749043,-0.025622917339205742,-6,1,-1001,50,10,-25,5,-20,-153,24690.0
08:44:26.414,AUTO,-35.3632593,149.1652364,14241,-0.0008527881000190973,0.029800107702612877,-0.17748884856700897,0.04984559863805771,0.009370912797749043,-0.025622917339205742,-6,1,-1001,50,10,-25,5,-20,-153,24690.0
08:44:26.620,AUTO,-35.3632595,149.1652351,15415,0.02177804708480835,0.02451121248304844,-0.18037106096744537,0.0010715858079493046,-0.02142253704369068,0.012704472057521343,0,2,-998,1,-20,12,-13,-5,-152,24690.0
08:44:26.822,AUTO,-35.3632597,149.165235,15805,0.02045830339193344,0.01877470873296261,-0.17651821672916412,-0.011366154998540878,-0.022229453548789024,0.0174496378749609,1,3,-998,-10,-21,17,-17,0,-152,24690.0
08:44:27.025,AUTO,-35.3632601,149.165235,16193,0.016602352261543274,0.01291405875235796,-0.17257553339004517,-0.017609668895602226,-0.02279147133231163,0.014624955132603645,2,2,-999,-16,-22,14,-18,5,-151,24690.0
08:44:27.227,AUTO,-35.3632601,149.165235,16193,0.016602352261543274,0.01291405875235796,-0.17257553339004517,-0.017609668895602226,-0.02279147133231163,0.014624955132603645,2,2,-999,-16,-22,14,-18,5,-151,244700.0
08:44:27.429,AUTO,-35.3632604,149.1652351,16584,0.012061139568686485,0.007648262660950422,-0.16958704590797424,-0.017638331279158592,-0.019173147156834602,0.008989673107862473,2,1,-1000,-16,-18,8,-18,8,-151,244700.0
08:44:27.631,AUTO,-35.3632608,149.1652353,16972,0.007744555827230215,0.003195999190211296,-0.1679905205965042,-0.014335655607283115,-0.0139822568744421,0.0009030870860442519,4,0,-1000,-13,-13,0,-18,10,-151,244700.0
08:44:27.833,AUTO,-35.3632611,149.1652355,17360,0.0038973367772996426,9.554216376272961e-05,-0.16831645369529724,-0.01382690854370594,-0.01016196794807911,-0.004714466631412506,4,0,-1001,-13,-9,-5,-16,11,-152,244700.0
08:44:28.035,AUTO,-35.3632611,149.1652355,17360,0.0038973367772996426,9.554216376272961e-05,-0.16831645369529724,-0.01382690854370594,-0.01016196794807911,-0.004714466631412506,4,0,-1001,-13,-9,-5,-16,11,-152,244700.0
08:44:28.236,AUTO,-35.3632611,149.1652355,17360,0.0038973367772996426,9.554216376272961e-05,-0.16831645369529724,-0.01382690854370594,-0.01016196794807911,-0.004714466631412506,4,0,-1001,-13,-9,-5,-16,11,-152,244700.0
08:44:28.439,AUTO,-35.3632611,149.1652355,17360,0.0038973367772996426,9.554216376272961e-05,-0.16831645369529724,-0.01382690854370594,-0.01016196794807911,-0.004714466631412506,4,0,-1001,-13,-9,-5,-16,11,-152,244700.0
08:44:28.640,AUTO,-35.3632619,149.1652362,18521,-0.0026741833426058292,-0.004826692398637533,-0.17847490310668945,-0.003784703789278865,-0.001764689339324832,-0.021639367565512657,2,0,-1001,-3,-1,-22,-10,8,-152,244700.0
08:44:28.842,AUTO,-35.3632621,149.1652364,18910,-0.0034472199622541666,-0.004926218185573816,-0.18430617451667786,-0.001001100754365325,0.001763037871569395,-0.022451888769865036,1,0,-1000,0,2,-23,-7,6,-152,244700.0
08:44:29.043,AUTO,-35.3632622,149.1652365,19299,-0.003115515923127532,-0.004463793709874153,-0.19101069867610931,0.001012408989481628,0.00359994824975729,-0.02804523892700672,1,0,-1000,1,4,-28,-5,5,-152,244700.0
08:44:29.245,AUTO,-35.3632622,149.1652365,19299,-0.003115515923127532,-0.004463793709874153,-0.19101069867610931,0.001012408989481628,0.00359994824975729,-0.02804523892700672,1,0,-1000,1,4,-28,-5,5,-152,244700.0
08:44:29.446,AUTO,-35.3632622,149.1652365,19689,-0.002394688781350851,-0.0036174138076603413,-0.1981864720582962,0.005021891091018915,0.003311512526124716,-0.029523061588406563,0,0,-1000,5,4,-30,-4,3,-152,244700.0
08:44:29.648,AUTO,-35.3632623,149.1652366,20079,-0.0012966565554961562,-0.0027562547475099564,-0.20538656413555145,0.006257724482566118,0.003766074310988188,-0.02687402255833149,0,0,-1000,7,4,-27,-2,2,-152,244700.0
08:44:29.849,AUTO,-35.3632623,149.1652366,20467,-0.008975960314273834,-0.0017489733872935176,-0.21270661056041718,-0.0884670540690422,0.005456185899674892,-0.029919268563389778,0,-1,-992,-87,6,-30,-1,0,-151,244700.0
08:44:30.051,AUTO,-35.3632623,149.1652366,20467,-0.008975960314273834,-0.0017489733872935176,-0.21270661056041718,-0.0884670540690422,0.005456185899674892,-0.029919268563389778,0,-1,-992,-87,6,-30,-1,0,-151,244700.0
08:44:30.253,AUTO,-35.3632623,149.1652366,20467,-0.008975960314273834,-0.0017489733872935176,-0.21270661056041718,-0.0884670540690422,0.005456185899674892,-0.029919268563389778,0,-1,-992,-87,6,-30,-1,0,-151,187371.0
08:44:30.454,AUTO,-35.3632623,149.1652366,20467,-0.008975960314273834,-0.0017489733872935176,-0.21270661056041718,-0.0884670540690422,0.005456185899674892,-0.029919268563389778,0,-1,-992,-87,6,-30,-1,0,-151,187371.0
08:44:30.656,AUTO,-35.3632626,149.1652355,21577,-0.060347188264131546,0.062175504863262177,-0.043256547302007675,0.035960521548986435,-0.004304779227823019,0.47375088930130005,0,6,-950,36,-3,473,-20,-30,-134,187371.0
08:44:30.857,AUTO,-35.3632632,149.1652345,21902,-0.028485430404543877,0.03269481658935547,0.04349634796380997,0.14783796668052673,-0.19409027695655823,0.22598296403884888,0,10,-944,148,-193,225,-31,-39,-120,187371.0
08:44:31.059,AUTO,-35.3632639,149.1652334,22192,0.008661971427500248,-0.011108688078820705,0.07411383837461472,0.13337695598602295,-0.14644362032413483,0.043429985642433167,1,11,-948,134,-145,43,-32,-39,-106,187371.0
08:44:31.261,AUTO,-35.3632645,149.1652324,22449,0.037982769310474396,-0.03625348210334778,0.07200455665588379,0.09594440460205078,-0.06530357152223587,-0.03726828098297119,1,11,-953,96,-64,-37,-26,-30,-94,187371.0
08:44:31.463,AUTO,-35.3632645,149.1652324,22449,0.037982769310474396,-0.03625348210334778,0.07200455665588379,0.09594440460205078,-0.06530357152223587,-0.03726828098297119,1,11,-953,96,-64,-37,-26,-30,-94,187371.0
08:44:31.665,AUTO,-35.363265,149.1652316,22676,0.05558859929442406,-0.044546276330947876,0.06005013734102249,0.048677463084459305,-0.015056505799293518,-0.0480920635163784,0,7,-958,49,-14,-48,-16,-17,-83,187371.0
08:44:31.867,AUTO,-35.3632652,149.1652313,22876,0.061418671160936356,-0.04363483935594559,0.04992233216762543,0.0030384135898202658,0.012878871522843838,-0.03238482400774956,0,3,-963,3,13,-32,-6,-2,-72,187371.0
08:44:32.068,AUTO,-35.3632652,149.1652313,22876,0.061418671160936356,-0.04363483935594559,0.04992233216762543,0.0030384135898202658,0.012878871522843838,-0.03238482400774956,0,3,-963,3,13,-32,-6,-2,-72,187371.0
08:44:32.270,AUTO,-35.3632652,149.1652313,22876,0.061418671160936356,-0.04363483935594559,0.04992233216762543,0.0030384135898202658,0.012878871522843838,-0.03238482400774956,0,3,-963,3,13,-32,-6,-2,-72,187371.0
08:44:32.473,AUTO,-35.3632652,149.1652313,22876,0.061418671160936356,-0.04363483935594559,0.04992233216762543,0.0030384135898202658,0.012878871522843838,-0.03238482400774956,0,3,-963,3,13,-32,-6,-2,-72,187371.0
08:44:32.674,AUTO,-35.3632649,149.1652323,23335,0.03932931274175644,-0.018920421600341797,0.041494306176900864,-0.0463598258793354,0.03915601596236229,-0.0006183638470247388,0,-7,-976,-45,39,0,16,32,-49,187371.0
08:44:32.876,AUTO,-35.3632645,149.1652332,23453,0.028086233884096146,-0.009629901498556137,0.04119633138179779,-0.04318027198314667,0.0349506214261055,0.0018742256797850132,0,-9,-978,-42,35,1,19,37,-43,187371.0
08:44:33.078,AUTO,-35.363264,149.1652341,23555,0.017697108909487724,-0.0014128484763205051,0.04057948663830757,-0.03675418719649315,0.030603531748056412,0.0016327549237757921,0,-10,-979,-35,31,1,21,39,-38,187371.0
08:44:33.280,AUTO,-35.3632635,149.1652352,23645,0.008176885545253754,0.005531870294362307,0.03982946649193764,-0.03022235445678234,0.022927338257431984,0.00021682001533918083,0,-10,-979,-29,24,0,21,39,-33,228445.0
08:44:33.482,AUTO,-35.3632635,149.1652352,23645,0.008176885545253754,0.005531870294362307,0.03982946649193764,-0.03022235445678234,0.022927338257431984,0.00021682001533918083,0,-10,-979,-29,24,0,21,39,-33,228445.0
08:44:33.684,AUTO,-35.363263,149.1652362,23720,0.0005008013686165214,0.010931499302387238,0.03888879716396332,-0.03159291669726372,0.021514004096388817,-0.0008819701615720987,0,-10,-977,-30,22,-1,20,37,-27,228445.0
08:44:33.886,AUTO,-35.3632625,149.1652371,23780,-0.005251629278063774,0.014021122828125954,0.03795585036277771,-0.01653265208005905,0.008180102333426476,-0.0018211482092738152,0,-9,-976,-15,8,-2,17,33,-21,228445.0
08:44:34.088,AUTO,-35.3632625,149.1652371,23780,-0.005251629278063774,0.014021122828125954,0.03795585036277771,-0.01653265208005905,0.008180102333426476,-0.0018211482092738152,0,-9,-976,-15,8,-2,17,33,-21,228445.0
08:44:34.290,AUTO,-35.3632625,149.1652371,23780,-0.005251629278063774,0.014021122828125954,0.03795585036277771,-0.01653265208005905,0.008180102333426476,-0.0018211482092738152,0,-9,-976,-15,8,-2,17,33,-21,228445.0
08:44:34.492,AUTO,-35.3632625,149.1652371,23780,-0.005251629278063774,0.014021122828125954,0.03795585036277771,-0.01653265208005905,0.008180102333426476,-0.0018211482092738152,0,-9,-976,-15,8,-2,17,33,-21,228445.0
08:44:34.694,AUTO,-35.3632615,149.1652392,23859,-0.02502327971160412,0.020784413442015648,0.03485832363367081,-0.42385682463645935,0.16385959088802338,-0.009212086908519268,-4,-16,-945,-423,164,-9,8,18,0,228445.0
08:44:34.896,AUTO,-35.3632614,149.1652395,23832,-0.05590089038014412,0.03423537686467171,0.03341422975063324,-0.34033915400505066,-0.023694170638918877,-0.00443478487432003,0,-2,-967,-338,-23,-4,2,8,15,228445.0
08:44:35.097,AUTO,-35.3632613,149.1652396,23781,-0.021261701360344887,0.021023118868470192,0.03300967440009117,0.6505580544471741,-0.060579050332307816,-0.00822952575981617,0,37,-1002,652,-59,-8,-3,0,21,228445.0
08:44:35.299,AUTO,-35.3632614,149.1652395,23725,0.018573181703686714,0.0078092715702950954,0.032695870846509933,0.8394703269004822,-0.04442697390913963,-0.0035018157213926315,0,30,-1017,840,-43,-3,-6,-2,19,228445.0
08:44:35.501,AUTO,-35.3632614,149.1652395,23725,0.018573181703686714,0.0078092715702950954,0.032695870846509933,0.8394703269004822,-0.04442697390913963,-0.0035018157213926315,0,30,-1017,840,-43,-3,-6,-2,19,228445.0
08:44:35.703,AUTO,-35.3632614,149.1652395,23678,0.039161525666713715,-0.001259039854630828,0.031495045870542526,-0.017567848786711693,-0.030770881101489067,-0.006862407084554434,2,-22,-1013,-17,-29,-7,-6,1,15,228445.0
08:44:35.905,AUTO,-35.3632615,149.1652397,23640,0.04850977286696434,-0.0063908579759299755,0.030423443764448166,-0.7060655355453491,-0.015988823026418686,-0.003059138311073184,2,-35,-1020,-705,-14,-3,-5,13,10,228445.0
08:44:36.107,AUTO,-35.3632615,149.1652397,23640,0.04850977286696434,-0.0063908579759299755,0.030423443764448166,-0.7060655355453491,-0.015988823026418686,-0.003059138311073184,2,-35,-1020,-705,-14,-3,-5,13,10,228445.0
08:44:36.316,AUTO,-35.3632615,149.1652397,23640,0.04850977286696434,-0.0063908579759299755,0.030423443764448166,-0.7060655355453491,-0.015988823026418686,-0.003059138311073184,2,-35,-1020,-705,-14,-3,-5,13,10,106864.0
08:44:36.519,AUTO,-35.3632615,149.1652427,23575,0.1043921634554863,-0.018475783988833427,0.10926046222448349,0.2559562623500824,0.010900210589170456,0.5637120604515076,6,-24,-1006,256,11,563,5,65,3,106864.0
08:44:36.723,AUTO,-35.3632615,149.1652427,23575,0.1043921634554863,-0.018475783988833427,0.10926046222448349,0.2559562623500824,0.010900210589170456,0.5637120604515076,6,-24,-1006,256,11,563,5,65,3,106864.0
08:44:36.925,AUTO,-35.3632614,149.1652447,23562,0.0983906164765358,-0.03887530416250229,0.2986381947994232,-0.49081704020500183,-0.028855709359049797,0.8500354886054993,6,-55,-996,-490,-27,849,9,86,3,106864.0
08:44:37.126,AUTO,-35.3632611,149.1652473,23549,0.10230681300163269,-0.06401876360177994,0.5120872855186462,-0.06448142230510712,-0.01483368594199419,0.8479810953140259,-2,-15,-998,-62,-14,848,13,110,3,106864.0
08:44:37.329,AUTO,-35.3632607,149.1652504,23534,0.11039690673351288,-0.09122734516859055,0.7158627510070801,0.6065130233764648,-0.017903650179505348,0.7997190952301025,-8,-1,-1002,607,-17,799,17,134,4,106864.0
08:44:37.531,AUTO,-35.3632603,149.1652543,23516,0.10044308751821518,-0.11784851551055908,0.9051574468612671,0.14574407041072845,-0.03127963840961456,0.7504949569702148,-16,-44,-995,145,-30,750,21,160,6,106864.0
08:44:37.734,AUTO,-35.3632603,149.1652543,23516,0.10044308751821518,-0.11784851551055908,0.9051574468612671,0.14574407041072845,-0.03127963840961456,0.7504949569702148,-16,-44,-995,145,-30,750,21,160,6,106864.0
08:44:37.936,AUTO,-35.3632597,149.1652589,23495,0.07378599792718887,-0.1422071009874344,1.0852241516113281,-0.49510133266448975,-0.05391915887594223,0.7282088994979858,-24,-61,-995,-494,-52,727,25,188,7,106864.0
08:44:38.138,AUTO,-35.3632597,149.1652589,23495,0.07378599792718887,-0.1422071009874344,1.0852241516113281,-0.49510133266448975,-0.05391915887594223,0.7282088994979858,-24,-61,-995,-494,-52,727,25,188,7,106864.0
08:44:38.340,AUTO,-35.3632597,149.1652589,23495,0.07378599792718887,-0.1422071009874344,1.0852241516113281,-0.49510133266448975,-0.05391915887594223,0.7282088994979858,-24,-61,-995,-494,-52,727,25,188,7,106864.0
08:44:38.542,AUTO,-35.3632577,149.1652776,23405,0.018685756251215935,-0.19759446382522583,1.5508763790130615,-0.11828938871622086,-0.022035004571080208,0.27157172560691833,-58,-39,-997,-117,-21,271,37,281,13,106864.0
08:44:38.744,AUTO,-35.3632577,149.1652776,23405,0.018685756251215935,-0.19759446382522583,1.5508763790130615,-0.11828938871622086,-0.022035004571080208,0.27157172560691833,-58,-39,-997,-117,-21,271,37,281,13,106864.0
08:44:38.946,AUTO,-35.3632569,149.1652855,23367,0.008823688142001629,-0.1981624960899353,1.5738725662231445,-0.3608368933200836,0.01661277376115322,-0.01700964756309986,-70,-40,-1002,-359,17,-17,39,313,14,106864.0
08:44:39.148,AUTO,-35.363256,149.1652945,23327,0.02195000648498535,-0.19604577124118805,1.5536365509033203,0.3255414664745331,-0.005218065809458494,-0.1314776986837387,-69,-20,-1001,327,-4,-131,43,343,15,106864.0
08:44:39.350,AUTO,-35.3632551,149.1653041,23284,0.02922823466360569,-0.1983131617307663,1.5258816480636597,0.03384196013212204,-0.018061073496937752,-0.09292501956224442,-85,-52,-997,34,-17,-92,48,371,16,117438.0
08:44:39.552,AUTO,-35.363254,149.1653146,23238,0.028738263994455338,-0.20502717792987823,1.5066055059432983,-0.2288365513086319,-0.018556132912635803,-0.04796421155333519,-85,-52,-996,-227,-17,-48,52,399,18,117438.0
08:44:39.755,AUTO,-35.3632528,149.1653259,23188,0.04092814400792122,-0.20564760267734528,1.4969528913497925,0.16931621730327606,-0.006219125352799892,-0.03233233466744423,-101,-43,-1004,170,-5,-32,56,427,19,117438.0
08:44:39.956,AUTO,-35.3632528,149.1653259,23188,0.04092814400792122,-0.20564760267734528,1.4969528913497925,0.16931621730327606,-0.006219125352799892,-0.03233233466744423,-101,-43,-1004,170,-5,-32,56,427,19,117438.0
08:44:40.159,AUTO,-35.3632528,149.1653259,23188,0.04092814400792122,-0.20564760267734528,1.4969528913497925,0.16931621730327606,-0.006219125352799892,-0.03233233466744423,-101,-43,-1004,170,-5,-32,56,427,19,117438.0
08:44:40.361,AUTO,-35.3632528,149.1653259,23188,0.04092814400792122,-0.20564760267734528,1.4969528913497925,0.16931621730327606,-0.006219125352799892,-0.03233233466744423,-101,-43,-1004,170,-5,-32,56,427,19,117438.0
08:44:40.563,AUTO,-35.3632487,149.1653646,23019,0.05325843766331673,-0.20490111410617828,1.4947766065597534,0.02623690851032734,0.055113356560468674,0.002685306593775749,-109,-65,-1008,27,56,2,65,509,21,117438.0
08:44:40.765,AUTO,-35.3632472,149.165379,22963,0.06079309806227684,-0.19116021692752838,1.4948605298995972,0.06152038648724556,0.051012661308050156,-0.013325219973921776,-105,-53,-1001,62,52,-13,67,532,19,117438.0
08:44:40.966,AUTO,-35.3632472,149.165379,22963,0.06079309806227684,-0.19116021692752838,1.4948605298995972,0.06152038648724556,0.051012661308050156,-0.013325219973921776,-105,-53,-1001,62,52,-13,67,532,19,117438.0
08:44:41.168,AUTO,-35.3632456,149.165394,22911,0.06268063932657242,-0.17959745228290558,1.4943883419036865,-0.005605324637144804,0.03964392840862274,-0.004837180022150278,-115,-68,-1000,-4,40,-4,68,551,18,117438.0
08:44:41.370,AUTO,-35.363244,149.1654095,22861,0.06712990999221802,-0.1723415106534958,1.4933981895446777,0.03852248564362526,0.02257392555475235,-0.0038093826733529568,-117,-58,-990,39,23,-3,69,566,18,117438.0
08:44:41.572,AUTO,-35.3632424,149.1654253,22811,0.07059341669082642,-0.17255736887454987,1.4920109510421753,0.020763367414474487,-0.01576864905655384,-0.0033189943060278893,-119,-63,-983,21,-15,-3,69,579,19,117438.0
08:44:41.774,AUTO,-35.3632408,149.1654415,22754,0.07307082414627075,-0.1712665855884552,1.4912084341049194,-0.011834792792797089,0.03146936744451523,-0.0059469775296747684,-118,-67,-985,-10,32,-6,70,593,22,117438.0
08:44:41.976,AUTO,-35.3632408,149.1654415,22754,0.07307082414627075,-0.1712665855884552,1.4912084341049194,-0.011834792792797089,0.03146936744451523,-0.0059469775296747684,-118,-67,-985,-10,32,-6,70,593,22,117438.0
08:44:42.178,AUTO,-35.3632408,149.1654415,22754,0.07307082414627075,-0.1712665855884552,1.4912084341049194,-0.011834792792797089,0.03146936744451523,-0.0059469775296747684,-118,-67,-985,-10,32,-6,70,593,22,134166.0
08:44:42.380,AUTO,-35.3632408,149.1654415,22754,0.07307082414627075,-0.1712665855884552,1.4912084341049194,-0.011834792792797089,0.03146936744451523,-0.0059469775296747684,-118,-67,-985,-10,32,-6,70,593,22,134166.0
08:44:42.582,AUTO,-35.363236,149.165492,22571,0.07584540545940399,-0.1569914072751999,1.4899245500564575,0.04259907454252243,0.010667539201676846,0.004115507006645203,-142,-64,-998,43,11,3,70,622,23,134166.0
08:44:42.784,AUTO,-35.3632345,149.1655094,22505,0.07057151198387146,-0.15111799538135529,1.4901636838912964,-0.04992946237325668,0.04430408030748367,0.005409745033830404,-126,-72,-995,-48,45,5,70,630,24,134166.0
08:44:42.986,AUTO,-35.3632345,149.1655094,22505,0.07057151198387146,-0.15111799538135529,1.4901636838912964,-0.04992946237325668,0.04430408030748367,0.005409745033830404,-126,-72,-995,-48,45,5,70,630,24,134166.0
08:44:43.188,AUTO,-35.3632329,149.1655271,22440,0.07256607711315155,-0.1371929943561554,1.4894481897354126,0.006659019738435745,0.057596709579229355,-0.009212855249643326,-118,-83,-996,8,58,-9,72,636,23,134166.0
08:44:43.390,AUTO,-35.3632313,149.1655449,22378,0.07637899369001389,-0.12600058317184448,1.4879028797149658,0.029069125652313232,0.014266611076891422,-0.010256067849695683,-135,-79,-998,30,15,-10,73,638,21,134166.0
08:44:43.592,AUTO,-35.3632296,149.1655629,22317,0.0758395865559578,-0.12460169941186905,1.4874629974365234,-0.02507025934755802,0.01215402502566576,-0.0010330897057428956,-126,-74,-981,-24,13,-1,72,637,23,134166.0
08:44:43.794,AUTO,-35.363228,149.1655806,22253,0.07424969226121902,-0.12029716372489929,1.4872387647628784,-0.030132321640849113,0.040336113423109055,0.0006357146776281297,-139,-85,-994,-29,41,0,72,636,24,134166.0
08:44:43.996,AUTO,-35.363228,149.1655806,22253,0.07424969226121902,-0.12029716372489929,1.4872387647628784,-0.030132321640849113,0.040336113423109055,0.0006357146776281297,-139,-85,-994,-29,41,0,72,636,24,134166.0
08:44:44.198,AUTO,-35.363228,149.1655806,22253,0.07424969226121902,-0.12029716372489929,1.4872387647628784,-0.030132321640849113,0.040336113423109055,0.0006357146776281297,-139,-85,-994,-29,41,0,72,636,24,134166.0
08:44:44.400,AUTO,-35.363228,149.1655806,22253,0.07424969226121902,-0.12029716372489929,1.4872387647628784,-0.030132321640849113,0.040336113423109055,0.0006357146776281297,-139,-85,-994,-29,41,0,72,636,24,134166.0
08:44:44.602,AUTO,-35.3632234,149.165633,22051,0.0732831209897995,-0.12462697178125381,1.4848088026046753,0.03788277134299278,-0.004368773195892572,0.0015326731372624636,-125,-75,-978,38,-3,1,72,630,29,134166.0
08:44:44.804,AUTO,-35.3632218,149.1656505,21975,0.07476900517940521,-0.11349402368068695,1.4848616123199463,-0.035809870809316635,0.06418868899345398,0.003948606085032225,-145,-89,-1006,-34,65,3,74,628,28,134166.0
08:44:45.006,AUTO,-35.3632202,149.1656679,21904,0.07316605746746063,-0.09402387589216232,1.4848883152008057,-0.022885164245963097,0.08137600123882294,-0.0033497873228043318,-124,-77,-1014,-21,82,-3,73,626,25,134166.0
08:44:45.208,AUTO,-35.3632202,149.1656679,21904,0.07316605746746063,-0.09402387589216232,1.4848883152008057,-0.022885164245963097,0.08137600123882294,-0.0033497873228043318,-124,-77,-1014,-21,82,-3,73,626,25,244720.0
08:44:45.410,AUTO,-35.3632186,149.1656852,21842,0.07553223520517349,-0.08171798288822174,1.484636664390564,0.06848850846290588,0.014346113428473473,-0.003814022522419691,-133,-73,-996,69,15,-3,72,616,22,244720.0
08:44:45.614,AUTO,-35.363217,149.1657021,21784,0.0755281001329422,-0.07328779250383377,1.4846243858337402,-0.03456185758113861,0.03962200880050659,-0.008264090865850449,-129,-82,-997,-33,40,-7,71,605,22,244720.0
08:44:45.816,AUTO,-35.3632154,149.1657186,21726,0.07414285093545914,-0.0625721737742424,1.48458731174469,-0.10158205777406693,0.04200110584497452,-0.0008854182087816298,-121,-81,-993,-100,42,-1,70,592,22,244720.0
08:44:46.022,AUTO,-35.3632154,149.1657186,21726,0.07414285093545914,-0.0625721737742424,1.48458731174469,-0.10158205777406693,0.04200110584497452,-0.0008854182087816298,-121,-81,-993,-100,42,-1,70,592,22,244720.0
08:44:46.225,AUTO,-35.3632154,149.1657186,21726,0.07414285093545914,-0.0625721737742424,1.48458731174469,-0.10158205777406693,0.04200110584497452,-0.0008854182087816298,-121,-81,-993,-100,42,-1,70,592,22,244720.0
08:44:46.427,AUTO,-35.3632154,149.1657186,21726,0.07414285093545914,-0.0625721737742424,1.48458731174469,-0.10158205777406693,0.04200110584497452,-0.0008854182087816298,-121,-81,-993,-100,42,-1,70,592,22,244720.0
08:44:46.629,AUTO,-35.363211,149.1657663,21558,0.0712519958615303,-0.025500476360321045,1.484045147895813,-0.13206340372562408,0.05294577032327652,-0.0011761662317439914,-107,-68,-994,-130,53,-1,62,540,21,244720.0
08:44:46.832,AUTO,-35.3632096,149.1657809,21502,0.08247458934783936,-0.012645401991903782,1.4831016063690186,0.7034672498703003,0.0444168858230114,-0.03534036502242088,-94,-43,-980,704,45,-35,59,519,23,244720.0
08:44:47.034,AUTO,-35.3632083,149.1657951,21438,0.07616075873374939,0.00849688146263361,1.4836591482162476,-0.05671264976263046,0.07704475522041321,0.03752261400222778,-102,-90,-1003,-57,78,37,57,496,24,244720.0
08:44:47.235,AUTO,-35.3632083,149.1657951,21438,0.07616075873374939,0.00849688146263361,1.4836591482162476,-0.05671264976263046,0.07704475522041321,0.03752261400222778,-102,-90,-1003,-57,78,37,57,496,24,244720.0
08:44:47.437,AUTO,-35.3632071,149.1658085,21378,0.05892473831772804,0.01685044914484024,1.485322117805481,-0.8563083410263062,0.04005025699734688,0.042543474584817886,-90,-113,-993,-855,40,42,53,469,23,244720.0
08:44:47.639,AUTO,-35.3632059,149.1658212,21319,0.05477280914783478,0.029160181060433388,1.4841538667678833,-0.3571261763572693,0.04776209220290184,-0.018916692584753036,-92,-53,-988,-355,48,-19,49,442,23,244720.0
08:44:47.842,AUTO,-35.3632049,149.1658331,21260,0.06522926688194275,0.04078488424420357,1.4826865196228027,0.574687123298645,0.037351373583078384,-0.05503617972135544,-92,-8,-1018,576,38,-54,44,412,21,244720.0
08:44:48.044,AUTO,-35.3632049,149.1658331,21260,0.06522926688194275,0.04078488424420357,1.4826865196228027,0.574687123298645,0.037351373583078384,-0.05503617972135544,-92,-8,-1018,576,38,-54,44,412,21,244720.0
08:44:48.245,AUTO,-35.3632049,149.1658331,21260,0.06522926688194275,0.04078488424420357,1.4826865196228027,0.574687123298645,0.037351373583078384,-0.05503617972135544,-92,-8,-1018,576,38,-54,44,412,21,210345.0
08:44:48.447,AUTO,-35.3632049,149.1658331,21260,0.06522926688194275,0.04078488424420357,1.4826865196228027,0.574687123298645,0.037351373583078384,-0.05503617972135544,-92,-8,-1018,576,38,-54,44,412,21,210345.0
08:44:48.649,AUTO,-35.3632023,149.1658638,21115,0.04424894601106644,0.06119551509618759,1.4835375547409058,-0.8349584937095642,0.00029802636709064245,0.03313831984996796,-68,-92,-1001,-835,1,33,34,318,18,210345.0
08:44:48.851,AUTO,-35.3632016,149.1658723,21070,0.031624697148799896,0.061700429767370224,1.4824720621109009,-0.7032440900802612,0.010385258123278618,0.0008344638044945896,-57,-61,-1018,-701,11,0,28,289,16,210345.0
08:44:49.053,AUTO,-35.3632011,149.1658801,21031,0.025079596787691116,0.06531266123056412,1.4811323881149292,-0.23875808715820312,0.023597903549671173,-0.008881366811692715,-52,-19,-983,-236,24,-8,24,262,17,210345.0
08:44:49.255,AUTO,-35.3632011,149.1658801,21031,0.025079596787691116,0.06531266123056412,1.4811323881149292,-0.23875808715820312,0.023597903549671173,-0.008881366811692715,-52,-19,-983,-236,24,-8,24,262,17,210345.0
08:44:49.456,AUTO,-35.3632007,149.1658871,20990,0.028490662574768066,0.0724525973200798,1.4806430339813232,0.4299817979335785,0.022091349586844444,-0.02376670576632023,-50,-1,-1043,432,23,-23,22,233,13,210345.0
08:44:49.658,AUTO,-35.3632003,149.1658934,20962,0.037699226289987564,0.07578104734420776,1.4805558919906616,0.6694701313972473,0.027862101793289185,-0.004303986672312021,-42,-14,-1009,669,29,-4,21,204,9,210345.0
08:44:49.860,AUTO,-35.3632,149.1658988,20938,0.021975601091980934,0.08350919187068939,1.4803298711776733,-0.19721999764442444,0.04206566512584686,0.012479989789426327,-38,-55,-1008,-197,43,12,20,176,8,210345.0
08:44:50.063,AUTO,-35.3632,149.1658988,20938,0.021975601091980934,0.08350919187068939,1.4803298711776733,-0.19721999764442444,0.04206566512584686,0.012479989789426327,-38,-55,-1008,-197,43,12,20,176,8,210345.0
08:44:50.265,AUTO,-35.3632,149.1658988,20938,0.021975601091980934,0.08350919187068939,1.4803298711776733,-0.19721999764442444,0.04206566512584686,0.012479989789426327,-38,-55,-1008,-197,43,12,20,176,8,210345.0
08:44:50.466,AUTO,-35.3632,149.1658988,20938,0.021975601091980934,0.08350919187068939,1.4803298711776733,-0.19721999764442444,0.04206566512584686,0.012479989789426327,-38,-55,-1008,-197,43,12,20,176,8,210345.0
08:44:50.668,AUTO,-35.3631994,149.1659107,20892,0.009033181704580784,0.07128123939037323,1.4789798259735107,0.5613070130348206,-0.03330249339342117,-0.013754833489656448,-20,19,-1013,562,-31,-13,13,99,5,210345.0
08:44:50.870,AUTO,-35.3631992,149.1659133,20882,0.012470611371099949,0.06365902721881866,1.4782103300094604,0.4009881317615509,-0.02946511283516884,0.0028032877016812563,-16,-13,-1003,401,-28,2,13,79,3,210345.0
08:44:51.072,AUTO,-35.3631992,149.1659155,20876,-0.004876547027379274,0.05871548876166344,1.4776180982589722,-0.5535173416137695,-0.01670418679714203,0.0057846256531775,-13,-42,-1004,-553,-15,6,13,61,2,210345.0
08:44:51.274,AUTO,-35.3631991,149.1659172,20872,-0.014934106729924679,0.05473341792821884,1.4773552417755127,-0.4724808633327484,-0.020569756627082825,0.0013376418501138687,-11,-16,-1005,-470,-19,1,11,46,2,252319.0
08:44:51.476,AUTO,-35.3631991,149.1659172,20872,-0.014934106729924679,0.05473341792821884,1.4773552417755127,-0.4724808633327484,-0.020569756627082825,0.0013376418501138687,-11,-16,-1005,-470,-19,1,11,46,2,252319.0
08:44:51.678,AUTO,-35.3631991,149.1659185,20870,-0.005650565959513187,0.049169041216373444,1.4771373271942139,0.4704738259315491,-0.01592283695936203,-0.0020285965874791145,-9,24,-1008,472,-14,-2,11,32,1,252319.0
08:44:51.880,AUTO,-35.363199,149.1659194,20869,-0.0024972669780254364,0.045225080102682114,1.4770655632019043,0.21611322462558746,-0.00930609181523323,0.0016868069069460034,-4,-11,-1007,216,-7,1,13,20,0,252319.0
08:44:52.083,AUTO,-35.363199,149.1659194,20869,-0.0024972669780254364,0.045225080102682114,1.4770655632019043,0.21611322462558746,-0.00930609181523323,0.0016868069069460034,-4,-11,-1007,216,-7,1,13,20,0,252319.0
08:44:52.285,AUTO,-35.363199,149.1659194,20869,-0.0024972669780254364,0.045225080102682114,1.4770655632019043,0.21611322462558746,-0.00930609181523323,0.0016868069069460034,-4,-11,-1007,216,-7,1,13,20,0,252319.0
08:44:52.487,AUTO,-35.363199,149.1659194,20869,-0.0024972669780254364,0.045225080102682114,1.4770655632019043,0.21611322462558746,-0.00930609181523323,0.0016868069069460034,-4,-11,-1007,216,-7,1,13,20,0,252319.0
08:44:52.689,AUTO,-35.363199,149.1659206,20875,-0.00952664203941822,0.028108427301049232,1.4771677255630493,0.5636676549911499,-0.018472343683242798,-0.0021984230261296034,-1,32,-1005,564,-17,-2,12,-5,0,252319.0
08:44:52.892,AUTO,-35.3631989,149.1659206,20879,-0.007314145565032959,0.021335892379283905,1.4769810438156128,0.3154732286930084,-0.026140348985791206,0.0019256767118349671,-1,-1,-997,315,-24,2,14,-11,0,252319.0
08:44:53.093,AUTO,-35.3631988,149.1659205,20882,-0.017486782744526863,0.014116632752120495,1.4766263961791992,-0.5500792860984802,-0.029805177822709084,-0.005166956223547459,0,-29,-991,-550,-28,-5,15,-14,0,252319.0
08:44:53.295,AUTO,-35.3631988,149.1659204,20886,-0.01905275695025921,0.006111923139542341,1.476588249206543,-0.3048175275325775,-0.02661104127764702,-0.005151285789906979,0,1,-989,-303,-25,-4,14,-15,0,252319.0
08:44:53.498,AUTO,-35.3631988,149.1659204,20886,-0.01905275695025921,0.006111923139542341,1.476588249206543,-0.3048175275325775,-0.02661104127764702,-0.005151285789906979,0,1,-989,-303,-25,-4,14,-15,0,252319.0
