time_stamp,RTL_ALT,MODE,roll,pitch,yaw,rollspeed,pitchspeed,yawspeed,lat,lon,relative_alt,vx,vy,vz,xacc,yacc,zacc,xgyro,ygyro,zgyro
04:00:24,1500.0,AUTO,-0.0006602058419957757,0.0009912376990541816,0.021030370146036148,0.0003633233718574047,0.0002452621702104807,0.0015445977915078402,-35.3632622,149.1652375,6.0,-1.0,0.0,-2.0,0.0,1.0,-1000.0,0.5,1.0,1.0
04:00:25,165543.0,AUTO,-0.0005683040944859385,0.0010518053895793855,0.02088131010532379,0.00025820007431320846,0.00030319008510559797,0.0014481738035101444,-35.363262125,149.1652375,14.75,-0.25,0.0,-1.25,0.0,1.5,-1000.0,0.25,0.0,0.5
04:00:26,165543.0,AUTO,-0.0002925417138612829,0.0012564384960569441,0.020635166205465794,0.00023675896227359772,0.00024212064454331994,0.0014591384679079056,-35.3632621,149.1652375,15.0,0.0,0.5,-0.5,0.0,1.0,-1000.0,0.0,0.0,1.0
04:00:28,165543.0,AUTO,0.0018864877056330442,0.0009969886596081778,0.02017779927700758,-0.00046279100934043527,0.0028884527273476124,0.0014385865069925785,-35.3632621,149.1652375,107.0,0.0,0.5,-35.5,0.0,0.5,-1064.5,0.5,3.5,0.5
04:00:29,210495.0,AUTO,0.009864171326626092,0.0006571799895027652,0.019824344664812088,0.022237073571886867,-0.002530098834540695,0.001456779871659819,-35.363262075,149.1652375,891.0,0.25,2.25,-126.25,0.0,-0.25,-1063.5,22.75,-2.0,0.75
04:00:30,210495.0,AUTO,0.04879180155694485,-0.006132898502983153,0.005033731460571289,0.017923754639923573,0.005622425116598606,-0.01935570582281798,-35.363261800000004,149.16523875000001,2354.5,4.5,27.5,-147.0,0.5,-5.5,-999.5,18.5,6.5,-19.5
04:00:32,210495.0,AUTO,-0.057007236406207085,0.0018708727438934147,-0.0882202759385109,-0.002647135406732559,-0.007341415737755597,-0.02542563248425722,-35.3632608,149.1652461,5402.5,0.0,1.0,-148.5,1.5,-3.0,-1002.0,-2.0,-6.5,-25.0
04:00:33,176077.0,AUTO,-0.037995711201801896,0.0013423614836938214,-0.10745194368064404,0.0622175894677639,0.007265729072969407,-0.007566546148154885,-35.363260975,149.165243275,6931.5,-6.0,-53.25,-148.5,-5.25,9.25,-1001.75,62.25,7.5,-7.5
04:00:34,176077.0,AUTO,0.027969703311100602,0.010468330699950457,-0.10899316892027855,0.06621085107326508,0.006684674299322069,0.002111281282850541,-35.363261949999995,149.1652371,8482.0,-15.5,-46.0,-151.5,-3.0,12.0,-1003.5,66.5,6.5,1.5
04:00:36,176077.0,AUTO,-0.011561225168406963,-0.027115097385831177,-0.0752966795116663,-0.06321627553552389,0.055058760568499565,-0.053974371403455734,-35.36326325,149.16523654999997,11579.5,19.5,22.0,-148.5,0.5,-6.5,-1003.0,-62.5,55.5,-54.0
04:00:37,200.0,AUTO,-0.019157160772010684,0.013596373377367854,-0.14422725699841976,0.03126174327917397,0.020502079278230667,-0.052496371790766716,-35.363261099999995,149.16523735,13127.5,19.0,-8.5,-151.75,-4.75,-2.0,-1001.75,31.5,20.75,-52.25
04:00:38,200.0,AUTO,0.009897180716507137,0.01961059682071209,-0.17184654623270035,0.01907370681874454,-0.002431306056678295,-0.010515536996535957,-35.3632603,149.1652359,14692.0,-1.0,-10.0,-152.0,-2.0,1.5,-999.5,19.5,-1.5,-10.5
04:00:40,200.0,AUTO,0.00412571121705696,0.001051350322086364,-0.17701217532157898,-0.007417597342282534,-0.005500738276168704,-0.01336460025049746,-35.36326149999999,149.16523575,17802.0,-9.5,8.0,-151.5,2.0,0.0,-1000.0,-6.0,-4.0,-13.0
04:00:41,91393.0,AUTO,0.0006029943178873509,-0.0008408662542933598,-0.19586878642439842,0.0005999423883622512,0.0010364971676608548,-0.024085139390081167,-35.36326199999999,149.1652363,19358.5,-4.5,5.5,-152.0,0.5,0.0,-1000.0,0.75,1.5,-23.75
04:00:42,91393.0,AUTO,0.0021489314385689795,0.000927118438994512,-0.22071801126003265,0.0026932505425065756,0.0033280951902270317,-0.025309975259006023,-35.3632621,149.1652365,20917.5,-1.5,2.5,-152.0,0.0,0.0,-1000.0,3.0,3.5,-25.0
04:00:44,91393.0,AUTO,0.0038426268147304654,0.0032759703462943435,-0.2644747793674469,-0.0005214571719989181,-0.0003190435527358204,-0.019373050890862942,-35.363262,149.16523665,24035.5,-1.0,3.0,-153.0,0.0,0.0,-1000.0,0.0,0.0,-19.0
04:00:45,213455.0,AUTO,-0.002125763101503253,0.005225997068919241,-0.2711331322789192,0.012687566355452873,0.0008828313439153135,0.010124059859663248,-35.36326205,149.16523675000002,25588.25,-3.0,1.0,-152.25,0.0,0.25,-1001.75,13.5,2.0,9.75
04:00:46,213455.0,AUTO,0.009163775946944952,0.0029975592624396086,-0.24669893085956573,0.008594272891059518,-0.0019946254906244576,0.027588624507188797,-35.3632623,149.1652367,27143.0,-4.0,3.0,-152.5,0.0,0.5,-999.5,9.5,-0.5,27.0
04:00:48,213455.0,AUTO,-0.02654581842944026,0.015001790598034859,0.10488117672502995,0.01640988513827324,-0.06508365273475647,0.22691142931580544,-35.36326385,149.16523610000002,30010.5,-24.5,-19.0,-109.5,3.0,5.0,-950.0,17.0,-63.5,227.0
04:00:49,122685.0,AUTO,0.036364934872835875,-0.04472997039556503,0.13280542008578777,0.03244913148228079,0.015107243321835995,-0.03233498614281416,-35.3632654,149.165234025,30913.0,0.5,-4.25,-67.5,-0.5,2.5,-969.5,33.0,15.75,-32.25
04:00:50,122685.0,AUTO,0.020620458759367466,-0.011327346321195364,0.11308242380619049,-0.3490051180124283,0.036250870674848557,-0.011185281910002232,-35.3632642,149.165235,31455.5,21.5,22.0,-42.5,-1.5,-23.5,-979.5,-348.0,36.5,-11.0
04:00:52,122685.0,AUTO,-0.009266340406611562,0.005406678421422839,0.09449037909507751,0.04462873935699463,-0.06448785401880741,-0.014423219487071037,-35.36326115,149.16523895,31806.0,2.5,6.0,5.5,-0.5,5.0,-999.0,46.0,-63.0,-13.5
04:00:53,96753.0,AUTO,0.026906935032457113,-0.0556963374838233,0.0855071023106575,-0.0635211318731308,-0.06483917310833931,-0.008627366158179939,-35.36326075,149.16523865,31687.5,16.5,2.5,4.75,-3.5,-8.5,-1016.0,-62.5,-63.25,-7.75
04:00:54,96753.0,AUTO,0.029594675404950976,-0.10790237411856651,0.34896010905504227,0.044233888387680054,-0.01638130471110344,0.3066592663526535,-35.36325655,149.16523995,31681.5,82.0,39.0,-5.5,-18.5,-5.5,-1007.0,46.0,-14.5,306.0
04:00:56,96753.0,AUTO,0.026682027615606785,-0.1853635013103485,0.5419959127902985,-0.06304469332098961,-0.03816397162154317,-0.014378699474036694,-35.363226,149.1652573,31893.5,272.0,140.5,-17.5,-62.5,-26.5,-1012.5,-61.0,-36.5,-13.5
04:00:57,300000.0,AUTO,0.03647429496049881,-0.19714289158582687,0.5387828499078751,0.038013671059161425,-0.01682893157703802,0.0030840703402645886,-35.363197375,149.16527467499998,32109.5,371.5,191.75,-25.5,-83.5,-39.25,-1006.25,39.25,-15.75,3.25
04:00:58,300000.0,AUTO,0.0424064788967371,-0.20539944618940353,0.5297679305076599,-0.004231749102473259,0.0029831836000084877,-0.01783868484199047,-35.3631594,149.16529795,32401.0,466.5,237.5,-32.5,-107.0,-58.5,-1007.0,-3.0,4.0,-17.5
04:01:00,300000.0,AUTO,0.07586384192109108,-0.15994364768266678,0.3780301809310913,0.030778341460973024,-0.0044832490384578705,-0.1146312952041626,-35.363063499999996,149.16535599999997,33248.0,580.0,282.5,-45.5,-128.0,-73.0,-983.0,32.0,-4.0,-113.5
04:01:01,300000.0,AUTO,0.10380359925329685,-0.13853715360164642,0.284384086728096,0.010153956827707589,0.008771536580752581,-0.05924201029120013,-35.363010175,149.16538785,33722.0,601.75,297.25,-45.5,-119.25,-76.25,-986.5,11.5,9.25,-58.5
04:01:02,300000.0,AUTO,0.11071866750717163,-0.13790035247802734,0.2859203815460205,-0.014331866055727005,-0.02672166656702757,0.04435828700661659,-35.362955549999995,149.16542170000002,34207.0,609.0,317.0,-44.5,-115.5,-92.5,-977.5,-13.0,-25.5,44.0
04:01:04,300000.0,AUTO,0.09085625410079956,-0.13940846920013428,0.40379056334495544,0.0069363778457045555,-0.01894235610961914,0.13955265283584595,-35.3628651,149.1654805,34975.0,624.0,329.0,-46.0,-129.0,-93.0,-990.0,8.0,-17.0,139.0
04:01:05,221766.0,AUTO,0.04560897219926119,-0.12192276678979397,0.569399893283844,-0.048899587243795395,0.03840990178287029,0.04737048002425581,-35.362796375,149.16552622499998,35573.75,621.0,329.0,-47.0,-146.75,-65.5,-982.75,-47.0,39.25,48.0
04:01:06,221766.0,AUTO,0.02744065225124359,-0.10603377968072891,0.5645433068275452,-0.006707285763695836,-0.01019222754985094,-0.02106791827827692,-35.362754499999994,149.16555315,35936.0,612.0,300.0,-42.0,-146.0,-62.0,-981.0,-5.0,-8.5,-20.0
04:01:08,221766.0,AUTO,0.06283885985612869,-0.14171744883060455,0.543224036693573,-0.001414720667526126,0.009177355095744133,-0.005253395531326532,-35.362645799999996,149.16561554999998,36707.5,600.5,275.0,-37.5,-146.5,-60.0,-999.0,0.0,10.0,-4.5
04:01:09,51218.0,AUTO,0.0647432692348957,-0.14889713376760483,0.5367929637432098,0.0003370812628418207,-0.0037528559914790094,-0.0024854301373125054,-35.362578225,149.16565500000002,37228.25,603.25,290.25,-41.25,-131.75,-51.75,-988.75,1.5,-2.25,-2.0
04:01:10,51218.0,AUTO,0.06280845776200294,-0.14189327508211136,0.5327056646347046,0.008560175308957696,0.0006410294445231557,-0.005166615359485149,-35.362537450000005,149.1656796,37562.5,607.5,298.0,-44.5,-127.0,-60.0,-989.5,9.0,1.5,-4.5
04:01:12,51218.0,AUTO,0.06616178154945374,-0.06064870208501816,0.525359034538269,-0.00697486475110054,0.02419277187436819,-0.006919580511748791,-35.36243065,149.16574505,38561.0,554.0,276.5,-46.0,-142.0,-64.0,-986.0,-6.0,25.0,-5.5
04:01:13,200610.0,AUTO,0.06923961360007524,0.0017508916789665818,0.5212139636278152,-0.027201533317565918,0.043439121916890144,0.0002829860895872116,-35.36237335,149.16578042499998,39065.75,456.0,228.25,-29.75,-106.0,-64.0,-983.0,-26.25,44.25,0.75
04:01:14,200610.0,AUTO,0.05535065941512585,0.036276369355618954,0.5191820561885834,-0.1148519515991211,0.039679067209362984,-0.029273354914039373,-35.3623447,149.16579825,39274.0,377.0,192.0,-21.5,-87.0,-42.5,-990.5,-113.0,40.0,-28.5
04:01:16,200610.0,AUTO,0.04231264442205429,0.0707954503595829,0.5129900276660919,0.3894934505224228,0.02724276576191187,-0.002769076032564044,-35.3622951,149.16582920000002,39565.5,173.5,93.5,-9.5,-43.5,-12.5,-1002.5,390.0,27.5,-2.5
04:01:17,25732.0,AUTO,0.016572386724874377,0.05475454032421112,0.5081987082958221,0.2283717505633831,-0.026352078653872013,-0.0041995878564193845,-35.362282025,149.16583772500002,39642.0,67.25,40.75,-2.25,-16.5,-4.0,-993.75,229.0,-25.0,-3.75
04:01:18,25732.0,AUTO,-0.003732169498107396,0.04009041748940945,0.5055063962936401,-0.5848697572946548,-0.013795292470604181,-0.003302863915450871,-35.36227875,149.16584015,39654.0,28.5,18.5,-0.5,-7.5,-28.5,-1001.0,-583.0,-12.0,-3.0
04:01:20,25732.0,RTL,-0.0039575943956151605,-0.009133702144026756,0.5013452470302582,0.3995041623711586,-0.01768068061210215,-0.0066858502104878426,-35.36227825,149.16584104999998,39656.0,-1.0,-7.0,0.0,2.0,6.5,-998.5,399.5,-16.5,-5.5
04:01:21,200.0,RTL,-0.005908450955757871,-0.0031848186044953763,0.4987647160887718,0.1509156133979559,-0.0005983221490168944,-0.0073616402223706245,-35.36227855,149.165841025,39684.0,4.5,-6.0,-10.0,0.0,5.75,-1022.25,151.75,0.5,-6.5
04:01:22,200.0,RTL,-0.008700467878952622,-0.0023924815468490124,0.49734023213386536,0.05377031862735748,0.0010374060948379338,-0.00628334772773087,-35.3622786,149.1658411,39839.0,5.0,-7.0,-37.5,0.0,8.5,-1052.0,55.0,1.5,-5.5
04:01:24,200.0,RTL,-0.00497647887095809,-0.0026890903245657682,0.49291349947452545,0.024767153896391392,-0.0008855173946358263,-0.005690834019333124,-35.3622787,149.165841,41593.5,4.0,-8.0,-132.5,0.0,0.0,-1044.0,25.0,0.5,-5.0
04:01:25,70180.0,RTL,0.04526938917115331,-0.009137995191849768,0.49113529920578003,0.018245024606585503,0.009669174905866385,-0.01892220095032826,-35.36227890000001,149.16584212499998,43457.75,-4.75,20.25,-148.5,0.5,-4.5,-998.25,18.75,11.0,-19.0
04:01:26,70180.0,RTL,-2.191402018070221e-06,0.014217708725482225,0.4529835879802704,-0.18544501066207886,0.016831076703965664,-0.07766309008002281,-35.362279650000005,149.16584534999998,44595.5,-15.0,43.0,-145.0,4.0,-11.0,-997.0,-184.0,18.0,-77.0
04:01:28,70180.0,RTL,-0.02231552405282855,0.002567207207903266,0.3925216346979141,0.06611790135502815,0.012320449110120535,-0.003541308338753879,-35.3622789,149.1658435,47645.0,18.0,-58.5,-149.5,-5.5,13.5,-1002.5,66.0,13.0,-2.5
04:01:29,147617.0,RTL,0.04883792903274298,-0.0004182419361313805,0.4043627977371216,0.0214911752846092,-0.04330957762431353,0.051381846773438156,-35.362277975,149.1658364,49593.5,-10.5,-29.75,-152.0,-1.25,7.5,-1000.0,22.0,-41.75,51.5
04:01:30,147617.0,RTL,0.044001584872603416,-0.054531197994947433,0.4611670821905136,-0.029604960465803742,-0.0406767912209034,0.07216185703873634,-35.36227855,149.16583525,50764.5,-10.5,12.0,-150.5,1.0,-1.0,-997.5,-28.5,-39.0,72.5
04:01:32,147617.0,RTL,-0.0064478396670892835,0.021438181400299072,0.36013004183769226,0.03021475300192833,0.008940689265727997,-0.034407456405460835,-35.362275499999996,149.16583915,53859.0,10.5,1.0,-152.5,-4.5,-0.5,-1000.5,30.5,10.0,-33.5
04:01:33,300000.0,RTL,0.013178261928260326,0.013005877146497369,0.3472912609577179,0.0015698870993219316,-0.011813272489234805,-2.4750479497015476e-05,-35.362274975000005,149.16583845,55814.25,-13.5,-1.0,-152.0,0.75,1.25,-999.5,2.25,-10.0,0.75
04:01:34,300000.0,RTL,0.008988261688500643,0.002847686526365578,0.3462096303701401,-0.008870439603924751,-0.011015947442501783,-0.005017912364564836,-35.3622757,149.1658382,56985.0,-20.0,3.5,-152.0,3.0,0.0,-1000.0,-7.5,-9.5,-3.5
04:01:36,300000.0,RTL,5.5511511163786054e-05,-0.004881739150732756,0.3059875965118408,0.004935334203764796,0.004491024184972048,-0.029486468993127346,-35.36227745,149.16583855,60100.5,-7.5,5.0,-152.0,0.5,0.0,-1000.0,5.5,5.0,-28.0
04:01:37,300000.0,RTL,0.004284772265236825,-0.0002862469009414781,0.26911889016628265,0.003953089384594932,0.00407954549882561,-0.026813472621142864,-35.3622775,149.165838625,62052.5,-4.0,4.25,-152.0,0.0,0.0,-1000.0,4.75,4.75,-25.25
04:01:38,300000.0,RTL,0.004814922111108899,0.0011433168547227979,0.2495437189936638,0.0006959448219276965,0.0015975779970176518,-0.022480124607682228,-35.3622775,149.16583874999998,63227.5,-4.5,5.0,-152.0,0.0,0.0,-1000.0,1.5,2.5,-21.0
04:01:40,300000.0,RTL,0.0022016181610524654,0.0004308774514356628,0.20474446564912796,0.00060189951909706,0.0007692925282754004,-0.020677920430898666,-35.3622777,149.16583924999998,66335.0,-6.0,5.0,-152.5,0.0,0.0,-1000.0,1.5,2.0,-19.0
04:01:41,16278.0,RTL,0.004238793335389346,0.001732086471747607,0.1952076070010662,0.0020799689809791744,0.0016628750890959054,0.015498533815843984,-35.3622779,149.1658395,68287.25,-6.0,4.75,-152.0,0.0,0.0,-999.25,3.0,3.0,16.25
04:01:42,16278.0,RTL,0.0036993161775171757,0.000846344482852146,0.21095560491085052,-0.0012369834585115314,-0.0008223563490901142,0.026120789349079132,-35.362278149999995,149.16583965,69450.5,-7.0,6.0,-152.0,0.0,0.0,-1000.5,0.0,0.0,26.5
04:01:44,16278.0,RTL,-0.00016006720397854224,-0.0020746728405356407,0.2587456554174423,0.0019529096316546202,0.001043641532305628,0.02051445748656988,-35.3622786,149.16584025,72556.5,-3.5,3.0,-152.0,0.0,0.0,-1000.0,3.0,2.5,21.0
04:01:45,216463.0,RTL,0.0005394178224378265,-0.0015482688031625003,0.28127314895391464,0.001946045580552891,0.0006989983667153865,0.01754269702360034,-35.3622786,149.1658403,74492.75,-1.75,1.25,-152.0,0.0,0.0,-1000.0,3.5,2.0,18.5
04:01:46,216463.0,RTL,0.0006999268953222781,-0.001589175604749471,0.293625608086586,0.002291088690981269,0.0012815002701245248,0.018286442384123802,-35.3622786,149.1658403,75661.0,-1.0,1.0,-152.0,0.0,0.0,-999.5,3.5,2.5,19.0
04:01:48,216463.0,RTL,0.0019400042365305126,-0.0010579352383501828,0.3196955621242523,0.0011301932972855866,0.002868062350898981,0.011467033997178078,-35.36227835,149.1658401,78761.5,-1.0,1.0,-152.0,0.0,0.0,-1000.0,2.0,4.0,12.5
04:01:49,200.0,RTL,0.002322114654816687,-0.0008981895662145689,0.33254989981651306,0.0006687522982247174,0.0011451537138782442,0.011313823284581304,-35.362278225,149.165840075,80701.75,-1.5,1.0,-152.0,0.0,0.0,-1000.0,2.0,2.25,12.25
04:01:50,200.0,RTL,0.0019229706376791,-0.000682255340507254,0.339316725730896,0.0014177958364598453,0.0018939801957458258,0.008192084962502122,-35.3622781,149.16584,81865.5,-2.0,1.0,-152.0,0.0,0.0,-1000.5,2.5,3.0,9.0
04:01:52,200.0,RTL,0.0012557856389321387,-0.0013340608566068113,0.35350947082042694,0.0007027208339422941,0.001356882625259459,0.006160820834338665,-35.3622781,149.16584,84974.5,-3.0,1.0,-152.0,0.0,0.0,-1000.0,2.0,3.0,7.0
04:01:53,78430.0,RTL,0.0007751238881610334,-0.0012101665197405964,0.3615313768386841,0.000711656321072951,0.00025219545932486653,0.007123476127162576,-35.3622781,149.16584,86910.0,-2.0,0.5,-152.0,0.0,0.0,-999.75,2.0,1.5,8.0
04:01:54,78430.0,RTL,0.001053819665685296,-0.0013926310348324478,0.36570213735103607,0.0004928483394905925,0.0005494990618899465,0.00681765703484416,-35.3622781,149.16584,88078.0,-2.0,0.0,-152.0,0.0,0.0,-999.5,2.0,1.5,8.0
04:01:56,78430.0,RTL,0.0010458234464749694,-0.0018582544289529324,0.37648820877075195,0.000392493384424597,-5.040864925831556e-05,0.00635144580155611,-35.3622781,149.16584,91186.5,-2.0,0.0,-152.0,0.0,0.0,-1000.0,2.0,1.5,7.5
04:01:57,98273.0,RTL,0.00185740549932234,-0.0021130789536982775,0.38255663961172104,0.0008607480558566749,0.00048849280574359,0.00501879199873656,-35.3622781,149.16584,93124.0,-2.0,1.0,-152.0,0.0,0.0,-1000.0,2.25,1.75,6.25
04:01:58,98273.0,RTL,0.001480117382016033,-0.0017655939445830882,0.3858581632375717,-0.0011845242115668952,0.0003136920859105885,0.007280538324266672,-35.3622781,149.16584,94292.0,-2.0,1.0,-152.0,0.0,0.0,-999.5,1.0,1.5,8.5
04:02:00,98273.0,RTL,0.0014280237373895943,-0.0017346901586279273,0.39407849311828613,0.0015292788739316165,0.001207586785312742,0.004808330675587058,-35.3622781,149.16584,97394.0,-2.0,1.0,-152.0,0.0,0.0,-1000.0,3.0,3.0,6.0
04:02:01,81896.0,RTL,0.0006973981362534687,-0.00112595348036848,0.39848487079143524,0.00032105494756251574,0.0008258128364104778,0.003366580029251054,-35.362278075,149.16584,99338.5,-2.0,0.75,-152.0,0.0,0.0,-1000.25,2.0,2.25,4.75
04:02:02,81896.0,RTL,0.0009252020972780883,-0.001093696046154946,0.40107372403144836,0.0005527392495423555,0.0008518231334164739,0.006146853789687157,-35.362278,149.16584,100507.0,-2.0,0.0,-152.0,0.0,0.0,-999.5,2.0,2.5,7.0
04:02:04,81896.0,RTL,0.0011338527547195554,-0.0017250686651095748,0.40807877480983734,0.001829820335842669,0.001323628588579595,0.0032492910977452993,-35.362278,149.16584,103609.0,-2.0,0.0,-152.0,0.0,0.0,-1000.5,3.0,2.5,5.0
04:02:05,141807.0,RTL,0.0009670690051279962,-0.0015970709500834346,0.41141705960035324,1.192436320707202e-05,-0.0004168199666310102,0.002392722381046042,-35.362278,149.16584,105549.25,-2.0,0.0,-152.0,0.0,0.0,-1000.0,1.75,1.25,3.75
04:02:06,141807.0,RTL,0.0008888279844541103,-0.0018458992126397789,0.4132162928581238,-6.153510184958577e-05,0.0005277962191030383,0.0029019416542723775,-35.362278,149.16584,106714.0,-2.0,0.0,-152.0,0.0,0.0,-999.5,1.5,2.5,4.0
04:02:08,141807.0,RTL,0.0008935014193411916,-0.0018830991466529667,0.41792507469654083,0.00019692047499120235,0.0008309123804792762,0.00268514989875257,-35.362278,149.16584,109827.5,-2.0,0.0,-152.0,0.0,0.0,-1000.0,2.0,2.5,3.5
04:02:09,190331.0,RTL,0.0015798987878952175,-0.0021315242047421634,0.4204482287168503,0.0010303889284841716,-0.0005663440097123384,0.0025144428364001215,-35.362278,149.16584,111769.5,-2.0,0.25,-152.0,0.0,0.0,-1000.25,2.5,1.25,3.5
04:02:10,190331.0,RTL,0.001665714313276112,-0.0022189299343153834,0.4220242500305176,-0.00020147906616330147,-7.909006671980023e-05,0.004342657048255205,-35.362278,149.16584,112936.5,-2.0,1.0,-152.0,0.0,0.0,-999.5,1.0,1.5,6.0
04:02:12,190331.0,RTL,0.00037100689951330423,-0.0014294306165538728,0.4255927503108978,-0.0003137927269563079,0.0008766230894252658,0.001652062637731433,-35.362278,149.16584,116040.5,-2.0,1.0,-152.0,0.0,0.0,-1000.5,1.5,2.5,3.0
04:02:13,269090.0,RTL,0.0004936300101689994,-0.0016784271865617484,0.42750630527734756,0.0004941000661347061,-3.983930218964815e-05,0.0027330685406923294,-35.362278,149.16584,117981.5,-2.0,0.0,-152.0,0.0,0.0,-999.75,2.25,1.75,4.0
04:02:14,269090.0,RTL,0.0007199651445262134,-0.0017606473411433399,0.42886270582675934,0.00033933878876268864,0.0010870081605389714,0.0018358361558057368,-35.362278,149.16584,119146.5,-2.0,0.0,-152.0,0.0,0.0,-1000.0,2.0,3.0,3.5
04:02:16,269090.0,RTL,0.0010463112557772547,-0.001924742537084967,0.4313284903764725,0.0026338143507018685,0.0013173505431041121,0.0022143833339214325,-35.362278,149.16584,122258.0,-2.0,0.0,-152.0,0.0,0.0,-1000.0,4.5,3.5,4.0
04:02:17,200.0,RTL,0.0010360410815337673,-0.001993476558709517,0.4328140839934349,0.001291697844862938,0.0016761975130066276,0.0011146127653773874,-35.362278,149.16584,124195.25,-2.0,0.0,-152.0,0.0,0.0,-999.75,3.25,3.5,2.5
04:02:18,200.0,RTL,0.0007752201636321843,-0.001715877267997712,0.43366020917892456,-0.0013398576993495226,0.0006938675651326776,0.004474452463909984,-35.362278,149.16584,125359.5,-2.0,0.0,-152.0,0.0,0.0,-999.5,1.0,2.0,6.0
04:02:20,200.0,RTL,0.001008367573376745,-0.001994181948248297,0.43655045330524445,-0.00019902654457837343,0.0015545624773949385,0.0012213003356009722,-35.362278,149.16584,128465.5,-2.0,0.0,-152.0,0.0,0.0,-1000.0,1.5,3.5,2.5
04:02:21,18023.0,RTL,0.0008972368959803134,-0.001844148093368858,0.4375089108943939,0.000322928826790303,-0.0005222587496973574,0.001343786425422877,-35.362278,149.16584,130411.25,-2.0,0.0,-152.0,0.0,0.0,-1000.0,2.25,1.25,2.75
04:02:22,18023.0,RTL,0.0008025571005418897,-0.001970339333638549,0.43826109170913696,0.0009122210321947932,0.0006915144622325897,0.0021899433340877295,-35.362278,149.16584,131577.5,-2.0,0.0,-152.0,0.0,0.0,-999.5,2.5,2.0,3.5
04:02:24,18023.0,RTL,0.0008986445318441838,-0.0017877572099678218,0.439833864569664,0.001877410220913589,-0.0004286461044102907,0.0022408899385482073,-35.362278,149.16584,134682.5,-2.0,0.0,-152.0,0.0,0.0,-1000.0,4.0,1.5,3.5
04:02:25,223527.0,RTL,0.0007380907190963626,-0.0021136898430995643,0.44056516140699387,0.0006992463313508779,0.000163060991326347,0.0023857522173784673,-35.362278,149.16584,136629.5,-2.0,0.0,-152.0,0.0,0.0,-999.75,2.75,2.0,4.25
04:02:26,223527.0,RTL,0.0003469887451501563,-0.0027358938241377473,0.44087566435337067,-0.00016619468806311488,-0.00048172811511904,0.0003577630268409848,-35.3622781,149.16584,137796.5,-1.5,0.0,-152.0,0.0,0.0,-1000.5,2.0,1.5,2.0
04:02:28,223527.0,RTL,0.0012020322610624135,-0.0016062777140177786,0.4419608563184738,0.0021036682883277535,0.0021057813428342342,0.0020418878411874175,-35.3622781,149.16584,140904.0,-1.0,0.0,-152.0,0.0,0.0,-1000.0,4.0,4.0,3.5
04:02:29,265367.0,RTL,0.0009623089135857299,-0.001567309576785192,0.44266705960035324,0.0005825736152473837,0.0004655602388083935,0.0010572495521046221,-35.3622781,149.16584,142845.5,-2.0,0.0,-152.0,0.0,0.0,-1000.0,2.5,2.5,2.75
04:02:30,265367.0,RTL,0.0006181545177241787,-0.001572171924635768,0.4429679811000824,0.0004335161065682769,0.0003196517936885357,0.00040436076233163476,-35.3622781,149.16584,144010.0,-2.0,0.0,-152.0,0.0,0.0,-1000.5,2.5,2.5,2.0
04:02:32,265367.0,RTL,0.000565537586226128,-0.0018584055360406637,0.44360093772411346,0.0036707392428070307,0.000729083432815969,0.0022868813248351216,-35.3622781,149.16584,147117.0,-2.0,0.0,-152.0,0.0,0.0,-1000.0,5.5,3.0,4.0
04:02:33,200.0,RTL,0.0006807732861489058,-0.0019786711200140417,0.44431260228157043,0.0016476335586048663,0.00037924660136923194,0.001251242239959538,-35.3622781,149.16584,149059.5,-2.0,0.0,-152.0,0.0,0.0,-1000.0,3.5,2.75,3.0
04:02:34,200.0,RTL,0.0006209141574800014,-0.001953547354787588,0.44461967051029205,0.0009190179989673197,0.00042669661343097687,0.0018902166048064828,-35.3622781,149.16584,150226.0,-2.0,0.0,-152.0,0.0,0.0,-1000.0,3.0,2.5,4.0
04:02:36,200.0,RTL,0.0009767284791450948,-0.0021481444127857685,0.44616667926311493,0.00010364246554672718,0.0005214486736804247,0.002119212644174695,-35.3622781,149.16584,153331.0,-2.0,0.0,-152.0,0.0,0.0,-999.0,2.5,2.5,3.5
04:02:37,300000.0,RTL,0.0003860673605231568,-0.0025047423550859094,0.44623448699712753,-0.0006418172270059586,-0.0010531195148359984,0.0005818101635668427,-35.3622781,149.16584,155270.0,-1.5,0.0,-152.0,0.0,0.0,-1000.0,1.5,1.0,2.5
04:02:38,300000.0,RTL,0.00032919195655267686,-0.0027976492419838905,0.4463094174861908,0.0020844362443313003,0.0006614519516006112,0.0004511120496317744,-35.3622781,149.16584,156434.5,-1.0,0.0,-152.0,0.0,0.0,-1000.0,4.0,3.0,2.0
04:02:40,300000.0,RTL,0.0009149267571046948,-0.001443536370061338,0.4468051344156265,-0.00019931839779019356,0.00015065009938552976,0.0002639752347022295,-35.3622781,149.16584,159541.5,-1.0,0.0,-152.0,0.0,0.0,-1000.0,1.5,2.0,2.0
04:02:41,209978.0,RTL,0.0009584648214513436,-0.0015700291842222214,0.44736965745687485,0.0007464542868547142,-1.6516627511009574e-05,0.00015119783347472548,-35.3622781,149.16584,161485.5,-2.0,0.0,-152.0,0.0,0.0,-1000.0,2.75,2.0,1.75
04:02:42,209978.0,RTL,0.000683460122672841,-0.0016561432275921106,0.4473962187767029,-0.0008236423600465059,-0.0007215730147436261,2.3159082047641277e-06,-35.3622781,149.16584,162652.0,-2.0,0.0,-152.0,0.0,0.0,-1000.0,1.0,1.5,1.5
04:02:44,209978.0,RTL,0.0008857043867465109,-0.0018199251499027014,0.4474683701992035,-0.00011087500024586916,0.0005633779801428318,0.0012151390546932817,-35.3622781,149.16584,165759.0,-2.0,0.0,-152.0,0.0,0.0,-999.5,2.0,2.5,3.0
04:02:45,200.0,RTL,0.00030593642441090196,-0.0016791539383120835,0.44763965904712677,0.000942601211136207,5.426700226962566e-06,0.0010878258617594838,-35.3622781,149.16584,167701.75,-2.0,0.0,-152.0,0.0,0.0,-1000.0,3.0,2.25,3.0
04:02:46,200.0,RTL,0.0006445406761486083,-0.0019068149267695844,0.44794560968875885,0.0010014127474278212,0.00018876546528190374,0.0003694792976602912,-35.3622781,149.16584,168872.0,-2.0,0.0,-152.0,0.0,0.0,-1000.0,3.5,2.5,2.5
04:02:48,200.0,RTL,0.0005363855743780732,-0.0019283794681541622,0.4481257349252701,2.816086634993553e-05,0.00019971374422311783,-0.00030283647356554866,-35.3622781,149.16584,171974.5,-2.0,0.0,-152.0,0.0,0.0,-1000.0,2.5,2.5,1.5
04:02:49,161600.0,RTL,0.0002933961368398741,-0.0027299780631437898,0.44811417907476425,0.0009320947574451566,0.0008822307572700083,0.0014287401572801173,-35.3622781,149.16584,173920.75,-1.0,0.0,-152.0,0.0,0.0,-999.5,3.25,3.25,3.25
04:02:50,161600.0,RTL,0.0009679454087745398,-0.002590782707557082,0.4481915831565857,0.00034549832344055176,0.0005108054028823972,9.958446025848389e-05,-35.3622781,149.16584,175086.0,-1.0,0.0,-152.0,0.0,0.0,-1000.0,2.5,3.0,2.0
04:02:52,161600.0,RTL,0.0012043881579302251,-0.001403693575412035,0.44916029274463654,0.0011579467682167888,0.0006910702213644981,0.00030618917662650347,-35.3622781,149.16584,178192.0,-1.0,0.0,-152.0,0.0,0.0,-1000.0,3.0,3.0,2.5
04:02:53,76912.0,RTL,0.0008429539739154279,-0.0018618942121975124,0.4493047669529915,-0.0003184758243151009,0.0004937389167025685,0.00023966620210558176,-35.3622781,149.16584,180134.25,-2.0,0.0,-152.0,0.0,0.0,-1000.0,2.0,3.25,2.25
04:02:54,76912.0,RTL,0.0007493201410397887,-0.0018354823696427047,0.4492459297180176,-0.001987122930586338,-0.0009491509990766644,-0.00010884297080338001,-35.3622781,149.16584,181302.0,-2.0,0.0,-152.0,0.0,0.0,-1000.0,0.5,1.5,1.5
04:02:56,76912.0,RTL,0.0006700694793835282,-0.0018980109598487616,0.4492870569229126,0.00018845812883228064,-0.0009453654056414962,0.0020156482933089137,-35.3622781,149.16584,184405.0,-2.0,0.0,-152.0,0.0,0.0,-1000.0,2.5,1.5,4.0
04:02:57,200.0,RTL,0.0007183926645666361,-0.0018435984675306827,0.4492408260703087,0.0006002982845529914,0.0010997834615409374,0.00041395757580175996,-35.3622781,149.16584,186347.25,-2.0,0.0,-152.0,0.0,0.0,-1000.0,3.0,3.5,2.75
04:02:58,200.0,RTL,0.0007757166167721152,-0.0018308554426766932,0.44949887692928314,-0.0003139509353786707,-0.0007659350521862507,0.001271601882763207,-35.3622781,149.16584,187512.0,-2.0,0.0,-152.0,0.0,0.0,-999.5,2.0,1.5,3.5
04:03:00,200.0,RTL,0.00034190800943179056,-0.0027052052319049835,0.44950197637081146,-0.0004381884355098009,-0.00022529426496475935,0.00105140614323318,-35.3622781,149.16584,190622.0,-1.0,0.0,-152.0,0.0,0.0,-1000.0,2.0,2.0,3.0
04:03:01,200.0,RTL,0.0003632507687143516,-0.002027836540946737,0.4494253993034363,0.001149566116509959,0.000341116392519325,0.0009304641862399876,-35.3622781,149.16584,192559.25,-1.0,0.0,-152.0,0.0,0.0,-1000.0,3.5,2.5,2.75
04:03:02,200.0,RTL,0.0009468821808695793,-0.0016815733397379518,0.4495127350091934,0.0008840069640427828,0.0009383547585457563,-6.976292934268713e-05,-35.3622781,149.16584,193728.5,-1.0,0.0,-152.0,0.0,0.0,-1000.5,3.5,3.5,2.0
04:03:04,200.0,RTL,0.0004892269498668611,-0.001782640814781189,0.449519619345665,0.0014380770735442638,0.0004894314333796501,0.000399924349039793,-35.3622781,149.16584,196843.0,-2.0,0.0,-152.0,0.0,0.0,-1000.0,4.0,3.0,2.5
04:03:05,200.0,RTL,0.0008388563001062721,-0.001981788838747889,0.44950835406780243,-0.0005416783387772739,0.00021780736278742552,-0.0004105200059711933,-35.3622781,149.16584,198777.0,-2.0,0.0,-152.0,0.0,0.0,-1000.0,1.75,2.75,1.75
04:03:06,200.0,RTL,0.0009539269376546144,-0.002060788101516664,0.4496504068374634,0.00015370978508144617,0.0007469827542081475,0.0008843434043228626,-35.3622781,149.16584,199949.5,-2.0,0.0,-152.0,0.0,0.0,-1000.0,2.5,3.0,3.0
04:03:08,200.0,RTL,0.0006791342457290739,-0.0020911821629852057,0.4501722753047943,-0.0005441070534288883,-0.0001569704618304968,-0.0016348517965525389,-35.3622781,149.16584,203049.0,-2.0,0.0,-152.0,0.0,0.0,-1000.0,2.0,2.5,0.5
04:03:09,200.0,RTL,0.0003821607679128647,-0.0026613615918904543,0.45030175149440765,0.0008007728029042482,0.001030694751534611,0.0010318754939362407,-35.3622781,149.16584,204998.5,-1.25,0.0,-152.0,0.0,0.0,-1000.25,3.25,3.75,3.25
04:03:10,200.0,RTL,0.0003962284536100924,-0.0023893782636150718,0.45000123977661133,-0.0007874693255871534,0.00029751588590443134,-0.0005138323758728802,-35.3622781,149.16584,206164.0,-1.0,0.0,-152.0,0.0,0.0,-1000.0,1.5,3.0,1.5
04:03:12,200.0,RTL,0.001016474619973451,-0.0013263936270959675,0.45007605850696564,-0.0009327929001301527,-0.00046530470717698336,0.0006537019507959485,-35.3622781,149.16584,209275.0,-1.0,0.0,-152.0,0.0,0.0,-1000.0,2.0,2.5,2.5
04:03:13,237346.0,RTL,0.0008309089462272823,-0.0016662330308463424,0.4502875804901123,0.0008020075038075447,-3.838766133412719e-05,0.0016337399720214307,-35.3622781,149.16584,211212.0,-2.0,0.0,-152.0,0.0,0.0,-999.75,3.5,2.5,4.0
04:03:14,237346.0,RTL,0.0006982625345699489,-0.0017999144620262086,0.4500931650400162,-0.0002913367934525013,-7.436610758304596e-05,0.0005549130728468299,-35.3622781,149.16584,212378.5,-2.0,0.0,-152.0,0.0,0.0,-1000.0,2.5,2.5,2.5
04:03:16,237346.0,RTL,0.0004127653955947608,-0.0018251013243570924,0.44979149103164673,-0.0011449043522588909,-0.0012076947605237365,5.395256448537111e-05,-35.3622781,149.16584,215482.5,-2.0,0.0,-152.0,0.0,0.0,-1000.0,1.5,1.5,2.5
04:03:17,28606.0,RTL,0.0005192270837142132,-0.0020306627557147294,0.4499051049351692,-6.294844206422567e-05,-0.000162334501510486,-0.0003791539347730577,-35.3622781,149.16584,217424.5,-2.0,0.0,-152.0,0.0,0.0,-1000.0,2.75,2.5,2.0
04:03:18,28606.0,RTL,0.00019788218924077228,-0.0027852754574269056,0.45007142424583435,-0.001423138310201466,-0.0014883486437611282,0.0013206639559939504,-35.3622781,149.16584,218589.0,-1.5,0.0,-152.0,0.0,0.0,-1000.0,1.5,1.5,4.0
04:03:20,28606.0,RTL,0.0008889577293302864,-0.0023492451291531324,0.44983671605587006,-0.001122479559853673,0.00024504901375621557,0.001579901436343789,-35.3622781,149.16584,221698.5,-1.0,0.0,-152.0,0.0,0.0,-1000.0,1.5,3.0,4.0
04:03:21,28722.0,RTL,0.0010471190180396661,-0.0017384985112585127,0.45007169991731644,0.0010147944849450141,0.001374355226289481,0.0016341233858838677,-35.3622781,149.16584,223635.75,-1.0,0.0,-152.0,0.0,0.0,-1000.0,3.75,4.25,4.25
04:03:22,28722.0,RTL,0.0011366528342477977,-0.0012704538530670106,0.45005615055561066,-0.0003777091624215245,-0.0005096001550555229,0.00028149993158876896,-35.3622781,149.16584,224802.0,-1.5,0.0,-152.0,0.0,0.0,-1000.0,2.5,2.0,3.0
04:03:24,28722.0,RTL,0.0006413243245333433,-0.0019876525038853288,0.4504677802324295,-0.0015663522062823176,-0.000272484146989882,-0.00015195866581052542,-35.3622781,149.16584,227918.0,-2.0,0.0,-152.0,0.0,0.0,-1000.0,1.5,2.5,2.5
04:03:25,300000.0,RTL,0.0007448363030562177,-0.001871102344011888,0.45035727322101593,0.0011477627558633685,0.00034105119993910193,0.0005546942120417953,-35.3622781,149.16584,229851.75,-2.0,0.0,-152.0,0.0,0.0,-1000.25,4.0,3.25,3.0
04:03:26,300000.0,RTL,0.0005953544896328822,-0.0019345991895534098,0.45054224133491516,-0.0018811931367963552,-0.0003736743237823248,-0.00016772316303104162,-35.3622781,149.16584,231017.0,-2.0,0.0,-152.0,0.0,0.0,-999.5,1.5,2.5,2.0
04:03:28,300000.0,RTL,5.788153430330567e-05,-0.0028774061938747764,0.45037391781806946,0.0012936793500557542,2.965016756206751e-05,0.002335393219254911,-35.3622781,149.16584,234123.5,-1.5,0.0,-152.0,0.0,0.0,-1000.5,4.0,3.0,4.5
04:03:29,120934.0,RTL,0.000602391897700727,-0.0022501919302158058,0.450282022356987,0.0006774189532734454,0.001009366533253342,0.0011624686303548515,-35.3622781,149.16584,236073.25,-1.0,0.0,-152.0,0.0,0.0,-999.75,3.5,3.75,4.0
04:03:30,120934.0,RTL,0.0006282755348365754,-0.0018673972226679325,0.4502285122871399,0.00017258082516491413,-0.0006573492428287864,0.0007915424648672342,-35.3622781,149.16584,237238.5,-1.0,0.0,-152.0,0.0,0.0,-1000.5,3.0,2.5,3.5
04:03:32,120934.0,RTL,0.0008259512251242995,-0.0014068482560105622,0.45043085515499115,0.00017945666331797838,-0.0017127346945926547,0.0011167924385517836,-35.3622781,149.16584,240350.0,-2.0,0.0,-152.0,0.0,0.0,-1000.0,3.0,1.5,3.5
04:03:33,29553.0,RTL,0.000641072154394351,-0.0018293443135917187,0.45037980377674103,0.000903048028703779,0.0003137681051157415,0.001829783956054598,-35.3622781,149.16584,242287.5,-2.0,0.0,-152.0,0.0,0.0,-999.75,3.75,3.5,4.5
04:03:34,29553.0,RTL,0.0008932366908993572,-0.0018758955993689597,0.45031316578388214,0.0010210442123934627,-7.202220149338245e-05,-0.0006250427104532719,-35.3622781,149.16584,243451.5,-2.0,0.0,-152.0,0.0,0.0,-1000.0,4.0,3.0,2.0
04:03:36,29553.0,RTL,0.0007491420255973935,-0.0019691860070452094,0.4501945823431015,0.001120225409977138,-0.00019320647697895765,-9.510829113423824e-05,-35.3622781,149.16584,246558.0,-2.0,0.0,-152.0,0.0,0.0,-1000.5,4.0,3.0,2.5
04:03:37,15219.0,RTL,0.0004274030288797803,-0.0021794865606352687,0.4500589147210121,-1.042999792844057e-05,0.00027570442762225866,-0.00011424487456679344,-35.3622781,149.16584,248502.0,-2.0,0.0,-152.0,0.0,0.0,-999.75,3.0,3.25,2.5
04:03:38,15219.0,RTL,0.0001495204651291715,-0.0026975463842973113,0.45000045001506805,0.00021295237820595503,-0.00021515123080462217,0.0012503295438364148,-35.3622781,149.16584,249668.5,-1.0,0.0,-152.0,0.0,0.0,-1000.0,3.0,3.0,4.0
04:03:40,15219.0,RTL,0.000354741292539984,0.02222456783056259,0.4507164806127548,-0.0006823030998930335,0.05514702387154102,0.0006833997322246432,-35.3622782,149.16584,252771.5,-6.5,-2.0,-151.0,0.0,0.0,-999.0,2.0,58.5,3.5
04:03:41,200.0,RTL,-0.004753195971716195,0.07120261527597904,0.4507739320397377,-0.006427071406506002,0.03425025101751089,0.0012932824902236462,-35.362281325,149.165838225,254675.25,-58.25,-26.0,-146.75,9.5,4.75,-995.5,-2.5,37.25,4.25
04:03:42,200.0,RTL,-0.011263329070061445,0.09704075753688812,0.45071354508399963,-0.009138245834037662,0.04078101925551891,-0.0009445797768421471,-35.3622864,149.16583535,255782.5,-103.5,-47.5,-140.5,17.0,11.5,-991.0,-5.0,44.0,2.0
04:03:44,200.0,RTL,0.07432244345545769,0.11070859059691429,0.9721913039684296,0.039325084537267685,-0.0036845868453383446,0.0884951502084732,-35.3623201,149.16581025,257636.0,-276.5,-161.5,-27.5,67.5,8.0,-940.5,42.5,0.0,91.0
04:03:45,101942.0,RTL,0.08026711829006672,0.1860758438706398,1.0092815458774567,0.02049587992951274,0.06959354504942894,-0.015782526170369238,-35.362357599999996,149.1657888,257582.5,-396.25,-164.5,24.25,98.0,-7.75,-985.0,23.75,72.5,-12.5
04:03:46,101942.0,RTL,0.04988306388258934,0.21819014102220535,0.986609697341919,-0.08610149472951889,-0.00703533086925745,-0.045347489416599274,-35.36238685,149.1657742,257375.0,-476.5,-201.0,22.5,126.5,-8.5,-1033.5,-82.5,-3.0,-41.5
04:03:48,101942.0,RTL,-0.015246124472469091,0.1880136802792549,0.8984448611736298,-0.03990830946713686,-0.040455328300595284,-0.04159623943269253,-35.3624845,149.16571905,257256.5,-590.5,-297.0,-5.5,156.0,14.0,-1003.0,-36.0,-36.0,-38.0
04:03:49,200.0,RTL,-0.028087928891181946,0.15272875130176544,0.8520021736621857,-0.01097723888233304,-0.015467212535440922,-0.037610530853271484,-35.3625523,149.165676525,257333.5,-605.5,-313.75,-5.25,153.5,23.5,-985.75,-7.25,-11.25,-34.0
04:03:50,200.0,RTL,-0.02878385689109564,0.1470116674900055,0.8262810111045837,0.010826122015714645,0.0256430609151721,-0.03990342281758785,-35.36259295,149.16565064999998,257363.5,-604.5,-313.0,-1.0,145.5,28.0,-977.0,14.5,28.5,-36.0
04:03:52,200.0,RTL,-0.031088165938854218,0.1528412103652954,0.7673692107200623,0.09568130970001221,-0.010973773431032896,-0.010483682388439775,-35.362702,149.1655819,257317.5,-618.5,-312.0,0.0,152.5,50.5,-993.5,99.0,-7.0,-6.5
04:03:53,200.0,RTL,-0.04210674948990345,0.14893818646669388,0.7410731464624405,0.0020174249075353146,-0.012277013156563044,-0.02302796207368374,-35.362771124999995,149.1655391,257332.0,-617.5,-309.5,-0.25,155.5,39.0,-988.5,5.25,-8.5,-19.0
04:03:54,200.0,RTL,-0.04642121680080891,0.14495369046926498,0.7272024154663086,0.04366452619433403,0.00810618745163083,-0.010979997459799051,-35.362812700000006,149.16551345,257335.5,-616.0,-308.0,0.0,141.0,45.5,-979.0,47.0,11.0,-7.0
04:03:56,200.0,RTL,-0.04781457036733627,0.14509445428848267,0.6952010095119476,-0.04959580674767494,0.016461778432130814,-0.01158783573191613,-35.3629227,149.1654455,257322.0,-608.0,-302.5,0.0,153.0,47.0,-984.5,-45.5,20.0,-8.0
04:03:57,138101.0,RTL,-0.04970515239983797,0.14247706159949303,0.6799667924642563,0.05600741133093834,-0.002762012416496873,-0.006967191700823605,-35.36299115,149.16540355,257316.75,-608.75,-303.25,-0.25,139.25,47.0,-984.0,59.5,0.75,-3.5
04:03:58,138101.0,RTL,-0.053687261417508125,0.14218303561210632,0.6724129021167755,-0.053330836817622185,-0.018176937475800514,-0.013512627221643925,-35.363032149999995,149.16537849999997,257316.0,-607.0,-302.5,0.0,141.5,44.0,-986.5,-50.0,-14.5,-9.5
04:04:00,138101.0,RTL,-0.0698634497821331,0.042390331625938416,0.6579136848449707,-0.00040192902088165283,-0.05062868073582649,-0.04186003189533949,-35.3631362,149.1653151,257409.5,-519.5,-263.5,-1.0,135.0,33.5,-992.5,2.5,-46.0,-38.0
04:04:01,188998.0,RTL,-0.0640585869550705,-0.017611819494049996,0.6532604247331619,0.04743397235870361,-0.04507259838283062,-0.016362566500902176,-35.363188425,149.16528255,257392.0,-407.5,-210.5,3.75,97.25,33.75,-993.25,50.25,-41.0,-12.5
04:04:02,188998.0,RTL,-0.0753464326262474,-0.043774520978331566,0.650713324546814,-0.38080597668886185,-0.004916359786875546,0.022457165410742164,-35.36321375,149.16526645,257365.0,-327.0,-169.5,3.0,80.5,41.0,-1002.5,-376.0,-1.0,25.5
04:04:04,188998.0,RTL,-0.03155813831835985,-0.07467847689986229,0.6398670673370361,0.5883392244577408,0.008079876191914082,-0.010207541403360665,-35.3632549,149.16524065,257317.0,-129.5,-68.5,1.0,34.5,25.5,-1017.5,591.0,12.0,-7.0
04:04:05,200.0,RTL,-0.028134959749877453,-0.04597445484250784,0.632106214761734,0.13201383501291275,0.01479471754282713,-0.004648379806894809,-35.3632646,149.165235875,257314.0,-38.75,-30.5,0.75,12.25,7.5,-1006.25,135.5,18.25,-1.25
04:04:06,200.0,RTL,-0.03288951050490141,-0.03377482853829861,0.6266694962978363,-0.2398802489042282,0.02083762176334858,-0.0011689907405525446,-35.3632669,149.16523515,257319.0,-5.0,-17.5,0.5,3.0,0.5,-997.0,-236.0,24.0,2.0
04:04:08,200.0,RTL,-0.006813807296566665,-0.003416943544152673,0.6157082319259644,0.12785834074020386,-0.026631221175193787,0.006230963859707117,-35.3632671,149.16523575000002,257328.5,13.0,-11.5,0.0,0.0,-10.5,-1002.5,130.0,-22.5,9.0
04:04:09,200.0,RTL,-0.003924489836208522,-0.012214334914460778,0.6123090535402298,0.08509775251150131,0.0024391349870711565,0.0006621777429245412,-35.363266375,149.16523595,257327.5,18.0,-7.0,0.25,-2.75,-1.5,-999.0,87.5,5.5,3.5
04:04:10,200.0,RTL,-0.004008191695902497,-0.00826585735194385,0.6104853749275208,-0.03385056555271149,0.004478339105844498,0.0008362311637029052,-35.36326545,149.165236,257324.5,17.5,-3.0,0.5,-3.5,17.0,-998.0,-30.0,7.5,4.0
04:04:12,200.0,RTL,0.014997968450188637,-0.0023848015116527677,0.604812502861023,0.058392494916915894,0.0011021231766790152,-0.004851234378293157,-35.3632632,149.16523595,257318.5,6.5,3.5,0.0,-1.5,-17.5,-996.5,60.0,4.0,-0.5
04:04:13,82746.0,RTL,0.013378944131545722,-0.001971118792425841,0.6018822342157364,0.7825510278344154,-0.0011535388184711337,-0.001421532011590898,-35.36326257499999,149.1652363,257214.0,1.0,6.0,30.5,-0.25,28.25,-946.0,784.75,2.5,2.0
04:04:14,82746.0,RTL,0.01943186204880476,-0.002253046608529985,0.5998948216438293,0.3731059432029724,0.0010427372762933373,-0.008602079236879945,-35.3632624,149.16523654999997,256817.0,0.0,5.0,80.0,-1.0,-17.0,-924.5,373.0,4.5,-4.5
04:04:16,82746.0,RTL,0.006372600328177214,0.001209819020004943,0.5946544706821442,1.1215912103652954,0.003191542229615152,-0.0009511837270110846,-35.36326255,149.1652381,254629.0,0.5,-0.5,97.0,1.5,32.0,-1083.0,1123.5,6.5,2.5
04:04:17,270572.0,RTL,-0.001309627783484757,0.0001630814076634124,0.5926557630300522,0.5523212887346745,0.0015787073061801493,-0.0038615576922893524,-35.363263125,149.16523925,253342.5,5.75,-9.75,98.5,1.75,-13.5,-987.25,552.5,5.0,-0.25
04:04:18,270572.0,RTL,-0.018156126141548157,0.0008619202417321503,0.5908435881137848,-0.17567698657512665,0.003742030472494662,-0.005563874612562358,-35.36326355,149.16524005,252573.5,9.5,-16.0,99.0,2.0,-55.0,-989.0,-175.5,7.0,-2.5
04:04:20,270572.0,RTL,-0.02005081996321678,-0.0009417662804480642,0.5869532227516174,-0.003903903067111969,0.00011088245082646608,-0.006797570735216141,-35.363264150000006,149.1652413,250543.0,17.5,-29.5,99.5,1.0,-35.5,-1008.0,-5.0,3.5,-2.5
04:04:21,119227.0,RTL,-0.02106740465387702,-0.0009614156006136909,0.585062563419342,0.13680163957178593,-0.000915916112717241,-0.002478584588970989,-35.363264525000005,149.165241875,249276.25,21.75,-35.25,98.25,0.75,-35.5,-989.75,135.5,3.0,0.75
04:04:22,119227.0,RTL,-0.029448681510984898,-0.0030013660434633493,0.5836333930492401,-0.5613352060317993,-0.004530255449935794,-0.00492939492687583,-35.3632647,149.1652421,248519.5,24.0,-38.5,100.5,0.0,-57.5,-987.0,-562.5,-0.5,-1.0
04:04:24,119227.0,RTL,-0.023043178021907806,-0.008169225417077541,0.5805306732654572,-1.0987834334373474,-0.0007382826879620552,0.0036397596122696996,-35.3632638,149.16523990000002,246371.5,20.0,-31.0,101.0,-4.333333333333333,-15.666666666666666,-1014.0,-1101.6666666666667,1.6666666666666667,6.333333333333333
04:04:25,269272.0,RTL,-0.014086751965805888,-0.005961107090115547,0.5792625546455383,-1.2238660603761673,0.0037842157762497663,-7.956812623888254e-06,-35.36326275,149.165238175,245197.5,11.75,-15.75,100.25,-2.75,-31.0,-995.5,-1222.75,7.0,3.0
04:04:26,269272.0,RTL,-0.012008510064333677,-0.003491845680400729,0.5788079500198364,-0.8064168691635132,0.005487169721163809,-0.0028378813294693828,-35.36326235,149.1652376,244421.0,6.0,-6.5,99.0,-1.0,1.0,-1019.0,-804.5,9.0,1.0
04:04:28,269272.0,RTL,0.007514036726206541,-0.0019293297470236819,0.5760886867841085,1.3201418320337932,0.0020771068520843983,-0.0012411031251152356,-35.3632621,149.1652376,242411.33333333334,0.0,-0.6666666666666666,99.33333333333333,-0.3333333333333333,68.66666666666667,-981.0,1320.3333333333333,5.333333333333333,2.6666666666666665
04:04:29,113530.0,RTL,0.020356388141711552,-0.002200803253799677,0.5751224557558695,1.4996310472488403,0.002513812001173695,0.0015293882849315803,-35.3632621,149.1652375,241118.66666666666,0.0,-1.3333333333333333,98.0,0.3333333333333333,60.666666666666664,-978.0,1499.0,6.0,5.0
04:04:30,113530.0,RTL,0.011959481363495192,-0.0006786185840610415,0.5747703313827515,1.303011178970337,0.0009502995914469162,0.004779239573205511,-35.3632622,149.1652378,240354.66666666666,0.0,-0.3333333333333333,97.33333333333333,1.0,42.0,-1024.0,1301.6666666666667,4.333333333333333,8.0
04:04:32,113530.0,RTL,0.009953371559580168,-0.0032457688357681036,0.5736288030942281,1.0392224192619324,-0.005050484479094545,-0.001696565809349219,-35.3632628,149.1652388,238322.33333333334,4.666666666666667,-9.0,100.0,0.6666666666666666,8.666666666666666,-995.0,1037.0,-1.0,2.0
04:04:33,6780.0,RTL,0.011409109147886435,-0.005124418220172326,0.5718067089716593,0.45562965671221417,-0.0035786076138416925,-0.006751686722661058,-35.36326283333333,149.16523850000002,237055.33333333334,6.0,-11.0,99.0,-0.6666666666666666,-16.333333333333332,-991.0,452.6666666666667,0.0,-2.6666666666666665
04:04:34,6780.0,RTL,0.017282157360265653,-0.0067868721671402454,0.5712287823359171,0.04060813784599304,-0.004305427195504308,-3.3616709212462105e-05,-35.36326259999999,149.16523786666667,236287.66666666666,5.0,-8.0,100.0,-2.3333333333333335,-34.666666666666664,-1008.0,38.0,-0.6666666666666666,4.0
04:04:36,6780.0,RTL,0.02152484158674876,-0.007032160336772601,0.569769561290741,-1.1807713111241658,-0.004102792202805479,-0.00567752355709672,-35.36326123333333,149.16523516666666,234255.0,-3.0,7.666666666666667,99.0,-1.0,-72.66666666666667,-995.0,-1182.0,-0.6666666666666666,-1.6666666666666667
04:04:37,26811.0,RTL,-0.00451689912006259,-8.039447372235979e-05,0.5711996157964071,-1.4121454159418743,0.006281225088362892,-0.00732719370474418,-35.36326103333333,149.16523523333333,232992.0,-8.666666666666666,19.666666666666668,100.66666666666667,2.0,-64.66666666666667,-1001.3333333333334,-1412.3333333333333,9.333333333333334,-3.0
04:04:38,26811.0,RTL,-0.026544854044914246,0.00387612326691548,0.5692907373110453,-1.2342817385991414,0.0031192205691089234,-0.002094654288763801,-35.363261533333336,149.1652366333333,232230.33333333334,-7.0,16.0,102.0,6.333333333333333,-45.666666666666664,-1006.3333333333334,-1233.6666666666667,6.333333333333333,1.6666666666666667
04:04:40,26811.0,RTL,-0.015013016449908415,-0.003424705316623052,0.5686927835146586,0.6903738578160604,-0.004897588475917776,0.0033162186543146768,-35.36326293333334,149.1652391,230192.33333333334,3.0,-7.0,100.33333333333333,0.3333333333333333,66.0,-994.6666666666666,691.0,-0.6666666666666666,6.666666666666667
04:04:41,135038.0,RTL,0.00044213437164823216,-0.006507235423972209,0.5681290229161581,1.1249138315518696,-0.0022811582311987877,0.0022642749051253,-35.3632632,149.1652388,228916.0,6.666666666666667,-10.666666666666666,99.0,-0.6666666666666666,66.0,-1024.6666666666667,1125.6666666666667,1.3333333333333333,6.0
04:04:42,135038.0,RTL,0.010880975052714348,-0.006458625663071871,0.5679807066917419,1.3778197367986043,-0.0006570221545795599,-0.001059184471766154,-35.36326303333333,149.1652384,228145.0,7.0,-8.333333333333334,102.66666666666667,0.0,72.0,-1025.3333333333333,1378.0,2.3333333333333335,2.6666666666666665
04:04:44,135038.0,RTL,0.016477102724214394,-0.0043558467489977675,0.5670409401257833,1.4639931917190552,-0.0015980636235326529,0.0017508195402721565,-35.363262733333336,149.16523800000002,226100.66666666666,5.0,-4.0,99.66666666666667,-0.3333333333333333,57.333333333333336,-1012.3333333333334,1463.3333333333333,1.3333333333333333,5.333333333333333
04:04:45,201587.0,RTL,0.024442847818136215,-0.004346706594030063,0.5669715404510498,1.2301998535792034,-4.421259897450606e-05,0.001055133684227864,-35.36326236666667,149.1652375,224831.0,2.6666666666666665,-2.0,101.33333333333333,-1.3333333333333333,32.0,-990.6666666666666,1228.3333333333333,3.3333333333333335,4.333333333333333
04:04:46,201587.0,RTL,0.018916675200064976,-0.004052726008618872,0.5659784078598022,0.5003497848908106,-0.0029233509364227452,-0.0018399568895498912,-35.36326223333334,149.16523726666665,224065.66666666666,1.3333333333333333,0.0,100.66666666666667,-0.3333333333333333,-11.0,-994.3333333333334,497.6666666666667,0.6666666666666666,2.0
04:04:48,201587.0,RTL,0.007730928870538871,-0.004237386941288908,0.5659939646720886,-0.9748443563779196,-0.0031328361947089434,-0.002137232727060715,-35.36326176666666,149.16523643333332,222009.33333333334,-1.3333333333333333,4.0,98.0,0.0,-69.0,-981.0,-976.6666666666666,0.6666666666666666,1.6666666666666667
04:04:49,200.0,RTL,0.003000404996176561,-0.004424835632865627,0.565217912197113,-1.3518642981847127,-0.0009509372369696697,-0.002831061137840152,-35.3632615,149.1652358,220726.0,-5.333333333333333,10.333333333333334,100.0,-1.0,-68.0,-1008.3333333333334,-1352.6666666666667,2.6666666666666665,1.0
04:04:50,200.0,RTL,0.005310825925941269,-0.00406484662865599,0.5655068556467692,-1.398435910542806,0.002631598695491751,-0.010095068564017614,-35.3632613,149.1652356,219952.33333333334,-5.333333333333333,11.666666666666666,97.33333333333333,0.0,-71.66666666666667,-978.6666666666666,-1399.3333333333333,6.0,-5.666666666666667
04:04:52,200.0,RTL,-0.013106834143400192,-0.0005386780006422972,0.565047045548757,-0.22365610798199972,-0.0006545341263214747,0.0035959073963264623,-35.363261666666666,149.16523676666665,217913.0,-6.666666666666667,11.333333333333334,100.0,0.0,30.666666666666668,-990.0,-221.33333333333334,2.6666666666666665,7.333333333333333
04:04:53,158364.0,RTL,-0.0030714389480029545,-0.004251422360539436,0.5642821590105692,-0.11541125054160754,-0.000838442783181866,-0.0025970404967665672,-35.3632618,149.16523686666667,216639.33333333334,-5.666666666666667,6.666666666666667,99.33333333333333,-1.6666666666666667,39.666666666666664,-997.3333333333334,-113.33333333333333,2.6666666666666665,1.0
04:04:54,158364.0,RTL,0.015732313971966505,-0.006740886718034744,0.5640286207199097,0.6612227161725363,-0.0013151088108619053,0.0013050870038568974,-35.3632615,149.16523606666667,215872.0,-7.333333333333333,9.333333333333334,99.0,-2.6666666666666665,68.0,-975.0,663.0,2.3333333333333335,5.0
04:04:56,158364.0,RTL,0.05844810729225477,-0.005461274723832806,0.5658582250277201,1.3649650812149048,0.008014095947146416,0.0050937156192958355,-35.36326006666666,149.1652331,213844.33333333334,-18.0,30.666666666666668,99.33333333333333,-1.0,61.0,-1021.6666666666666,1365.6666666666667,11.333333333333334,8.666666666666666
04:04:57,213353.0,RTL,0.04273208975791931,0.00013344123726710677,0.5658485293388367,1.2141413688659668,0.0025777348006765046,0.0009620767086744308,-35.3632601,149.16523363333332,212573.33333333334,-19.666666666666668,34.666666666666664,100.66666666666667,2.3333333333333335,24.0,-1029.3333333333333,1214.3333333333333,6.0,4.666666666666667
04:04:58,213353.0,RTL,0.027321952084700268,0.003025864018127322,0.566223124663035,0.9082168340682983,0.002154743066057563,-0.0019144313409924507,-35.363260700000005,149.1652349,211813.33333333334,-17.333333333333332,31.0,101.33333333333333,6.333333333333333,3.0,-997.0,907.6666666666666,5.333333333333333,1.6666666666666667
04:05:00,213353.0,RTL,-0.0030048751893142858,-0.0014916850729302193,0.5642476479212443,0.9147835771242777,-0.008099633269011974,-0.008103111758828163,-35.36326303333334,149.16523909999998,209775.33333333334,0.6666666666666666,-2.0,99.33333333333333,4.0,-0.6666666666666666,-1000.3333333333334,914.3333333333334,-4.0,-4.0
04:05:01,162695.0,RTL,0.010849684632072846,-0.006552318266282479,0.5641950368881226,0.7600561777750651,0.0011108943726867437,0.008620599284768105,-35.363263366666665,149.16523916666668,208502.0,7.666666666666667,-12.666666666666666,100.33333333333333,-0.6666666666666666,-0.6666666666666666,-996.6666666666666,759.3333333333334,4.666666666666667,12.0
04:05:02,162695.0,RTL,0.017356862624486286,-0.007451488636434078,0.5658515294392904,0.46687735120455426,0.0013046703146149714,0.0028215480657915273,-35.363263133333334,149.16523853333334,207732.0,8.666666666666666,-11.333333333333334,102.33333333333333,-2.3333333333333335,-22.0,-984.3333333333334,466.0,4.666666666666667,6.666666666666667
04:05:04,162695.0,RTL,0.013073686510324478,-0.0040350710817923146,0.5644453763961792,-0.29283327360947925,-0.0003914274275302887,0.004881882729629676,-35.36326226666667,149.16523706666666,205687.33333333334,2.3333333333333335,0.3333333333333333,99.0,0.3333333333333333,-49.0,-1009.0,-293.6666666666667,3.0,8.666666666666666
04:05:05,73888.0,RTL,0.010545555967837572,-0.004756179327766101,0.563919186592102,-0.8819133440653483,-0.0049675699944297476,0.0013839582291742165,-35.36326193333333,149.16523656666666,204407.66666666666,-0.3333333333333333,3.3333333333333335,100.66666666666667,-0.3333333333333333,-71.33333333333333,-976.3333333333334,-882.0,-1.0,5.0
04:05:06,73888.0,RTL,0.008688954946895441,-0.0050401695383091765,0.56401260693868,-0.944626530011495,-0.0010244629035393398,0.0009681292188664278,-35.3632617,149.1652361,203640.0,-2.3333333333333335,6.666666666666667,99.0,-0.6666666666666666,-65.66666666666667,-1024.0,-944.0,2.3333333333333335,4.333333333333333
04:05:08,73888.0,RTL,-0.010906632679204145,-0.004084020232160886,0.5643273194630941,-1.2645341555277507,-0.0025810771621763706,0.0005707237869501114,-35.3632614,149.1652357,201590.66666666666,-6.333333333333333,14.0,100.0,-0.6666666666666666,-33.0,-1017.3333333333334,-1262.0,0.3333333333333333,4.0
04:05:09,145872.0,RTL,-0.007499004403750102,-0.004482090783615907,0.563977579275767,-1.1682695547739665,0.005902109667658806,-0.005606833922987183,-35.3632614,149.16523553333332,200320.33333333334,-7.0,15.333333333333334,99.0,-0.6666666666666666,-29.333333333333332,-1019.6666666666666,-1165.0,9.0,-1.3333333333333333
04:05:10,145872.0,RTL,-0.009523607014367977,-0.0022788095520809293,0.5644507010777792,-0.989514152208964,0.0026943528403838477,0.003590003432085117,-35.36326143333333,149.16523576666665,199550.66666666666,-7.333333333333333,16.333333333333332,100.33333333333333,0.6666666666666666,-10.666666666666666,-1034.0,-986.0,5.666666666666667,7.0
04:05:12,145872.0,RTL,-0.02708307094871998,0.00034899087040685117,0.5645266572634379,0.13037522633870444,0.0017626907210797071,0.0050718119988838834,-35.363262600000006,149.1652383,197510.0,-0.6666666666666666,2.6666666666666665,99.0,2.3333333333333335,39.666666666666664,-1015.0,134.33333333333334,4.666666666666667,8.666666666666666
04:05:13,300000.0,RTL,-0.01960270262012879,-0.0025559602848564586,0.564014196395874,0.9319235483805338,-0.004167723702266812,0.005035299885397156,-35.36326343333334,149.16523966666668,196232.66666666666,6.666666666666667,-9.666666666666666,97.0,1.0,62.666666666666664,-1018.3333333333334,934.6666666666666,-0.6666666666666666,8.333333333333334
04:05:14,300000.0,RTL,-0.004838097491301596,-0.004199658753350377,0.5634365876515707,1.3494640191396077,-0.002574330816666285,0.00402711487064759,-35.36326366666666,149.16523986666667,195458.66666666666,10.666666666666666,-15.666666666666666,97.33333333333333,-0.3333333333333333,64.66666666666667,-1043.3333333333333,1351.0,0.6666666666666666,7.333333333333333
04:05:16,300000.0,RTL,0.002093203365802765,-0.004827194847166538,0.5636898676554362,1.26667058467865,-0.005174610608567794,0.0020097187565018735,-35.3632637,149.16523973333335,193421.66666666666,13.0,-17.0,99.0,0.0,42.666666666666664,-1025.0,1267.0,-1.6666666666666667,5.333333333333333
04:05:17,300000.0,RTL,0.009084912637869516,-0.0072559282804528875,0.5632824301719666,0.5501165191332499,-0.007407593851288159,-0.002833006593088309,-35.36326353333334,149.1652392666667,192155.66666666666,13.666666666666666,-17.666666666666668,101.33333333333333,-0.6666666666666666,-13.0,-979.0,549.0,-4.0,1.0
04:05:18,300000.0,RTL,0.018753393242756527,-0.010140711131195227,0.5635345776875814,0.1806401137728244,-0.0034943304878349104,0.001628166763111949,-35.363263133333334,149.16523829999997,191391.66666666666,11.666666666666666,-14.666666666666666,99.33333333333333,-3.6666666666666665,-30.0,-985.3333333333334,179.33333333333334,-0.3333333333333333,5.0
04:05:20,300000.0,RTL,0.016521282494068146,-0.008057691932966312,0.5631550550460815,-1.274906317392985,0.004993707795316975,-0.0037368667932848134,-35.363261533333336,149.16523516666666,189356.33333333334,0.0,8.333333333333334,99.33333333333333,-2.3333333333333335,-74.33333333333333,-976.3333333333334,-1274.3333333333333,7.666666666666667,0.3333333333333333
04:05:21,200.0,RTL,0.005626023979857564,-0.0032249347617228827,0.5637251536051432,-1.3227611382802327,-0.00010611745528876781,-0.008057926160593828,-35.36326093333333,149.1652346333333,188086.66666666666,-7.666666666666667,20.0,99.0,1.3333333333333333,-61.0,-1017.3333333333334,-1321.6666666666667,2.6666666666666665,-4.0
04:05:22,200.0,RTL,-0.003597912514427056,-0.0036166651795307794,0.5641718506813049,-1.108983039855957,-0.0009533202198023597,-0.004652902018278837,-35.3632609,149.16523476666669,187326.0,-10.0,22.0,101.33333333333333,-0.3333333333333333,-23.333333333333332,-1007.3333333333334,-1106.3333333333333,1.6666666666666667,-0.6666666666666666
04:05:24,200.0,RTL,-0.006157641609509786,-0.0013484225686018665,0.5639158288637797,-0.19071960945924124,0.003275481363137563,0.0010773753747344017,-35.3632613,149.1652356,185282.33333333334,-10.666666666666666,21.333333333333332,101.66666666666667,1.0,32.666666666666664,-994.6666666666666,-186.0,6.0,4.666666666666667
04:05:25,200.0,RTL,-0.008407630181560913,-0.0028101715724915266,0.5640496214230856,0.007718227182825406,0.0003349996792773406,0.0034950783010572195,-35.363261666666666,149.1652364,184000.0,-6.666666666666667,12.666666666666666,99.33333333333333,0.6666666666666666,39.333333333333336,-987.3333333333334,11.666666666666666,3.0,6.666666666666667
04:05:26,200.0,RTL,-0.002708308631554246,-0.003241593251004815,0.56380828221639,0.48411745329697925,-0.0009383790505429109,0.0019307932816445827,-35.36326186666667,149.1652366,183226.66666666666,-4.666666666666667,10.0,97.33333333333333,0.6666666666666666,57.666666666666664,-996.3333333333334,487.6666666666667,1.6666666666666667,5.333333333333333
04:05:28,200.0,RTL,0.0008786595426499844,-0.005437295728673537,0.5634303490320841,1.0767568349838257,-0.002472955733537674,0.0027052335596332946,-35.36326246666667,149.1652375,181159.0,-0.3333333333333333,4.0,96.0,-0.6666666666666666,73.0,-1018.0,1080.3333333333333,0.3333333333333333,6.0
04:05:29,222537.0,RTL,0.02285376936197281,-0.009011588369806608,0.5632015466690063,1.2603346904118855,-0.0025688856840133667,0.0003732213129599889,-35.36326223333334,149.1652365,179895.66666666666,0.0,4.666666666666667,96.33333333333333,-2.0,75.0,-1017.3333333333334,1263.3333333333333,0.0,4.0
04:05:30,222537.0,RTL,0.04361069699128469,-0.008239113725721836,0.5634028315544128,1.1936818957328796,0.0017161596721659105,-0.001122261630371213,-35.36326176666667,149.16523556666667,179133.0,-1.0,9.0,97.33333333333333,-1.0,36.0,-1003.0,1195.3333333333333,4.0,2.0
04:05:32,222537.0,RTL,0.03479993219176928,-0.002577823198710879,0.5643598834673563,0.7470096151034037,0.0019782306626439095,-0.0033332023303955793,-35.3632613,149.16523530000003,177096.0,-7.333333333333333,19.0,98.0,0.3333333333333333,-4.0,-978.0,747.6666666666666,4.333333333333333,0.6666666666666666
04:05:33,200.0,RTL,0.015038618197043737,-0.0012791537252875667,0.5641908049583435,-0.2918167021125555,-0.002113398785392443,-0.004487673286348581,-35.363261466666664,149.16523603333334,175814.33333333334,-7.0,15.0,99.33333333333333,0.6666666666666666,-56.333333333333336,-974.6666666666666,-291.0,0.3333333333333333,-0.3333333333333333
04:05:34,200.0,RTL,0.01606967548529307,-0.0014433562173508108,0.563804030418396,-0.17907373110453287,-0.0007558811921626329,-0.0015899946447461843,-35.36326163333334,149.1652364,175051.33333333334,-5.666666666666667,11.333333333333334,99.33333333333333,1.0,-50.333333333333336,-985.6666666666666,-177.66666666666666,2.0,2.0
04:05:36,200.0,RTL,0.002327521564438939,-0.004805979163696368,0.564320703347524,-1.3251326481501262,-0.00044202090551455814,-0.009465436994408568,-35.3632617,149.16523623333333,173026.66666666666,-4.0,8.333333333333334,100.0,0.6666666666666666,-74.66666666666667,-992.3333333333334,-1322.3333333333333,2.3333333333333335,-5.333333333333333
04:05:37,92776.0,RTL,-0.019783498408893745,-0.0020167524150262275,0.5644730925559998,-1.290788173675537,0.0007476223787913719,0.0010927615221589804,-35.363262,149.16523676666665,171749.33333333334,-2.6666666666666665,9.333333333333334,99.0,1.0,-48.333333333333336,-1006.3333333333334,-1287.0,3.3333333333333335,5.0
04:05:38,92776.0,RTL,-0.031064741934339207,-0.0005910294421482831,0.5647228757540385,-1.4068645636240642,0.0036745017083982625,-0.009479322005063295,-35.36326246666666,149.1652377,170975.33333333334,-0.3333333333333333,5.0,101.0,3.0,-50.666666666666664,-1008.3333333333334,-1403.0,6.333333333333333,-5.333333333333333
