time_stamp,MODE,lat,lon,relative_alt,roll,pitch,yaw,rollspeed,pitchspeed,yawspeed,xacc,yacc,zacc,xgyro,ygyro,zgyro,vx,vy,vz,LAND_SPEED_HIGH,WPNAV_SPEED_DN,RTL_ALT
12:15:38.148,GUIDED,-35.3632621,149.1652374,70,0.00028320838464424014,0.0015490270452573895,0.027743669226765633,0.0002685848157852888,0.000321248488035053,0.0024884166195988655,0,1,-1000,0,0,0,-1,0,-2,0.0,90.0,1500.0
12:15:38.351,GUIDED,-35.3632621,149.1652374,67,0.00031518476316705346,0.0015787594020366669,0.02756330370903015,0.00022224316489882767,0.0003845104365609586,0.0023955830838531256,0,1,-1000,0,0,0,-1,1,-2,0.0,90.0,1500.0
12:15:38.552,GUIDED,-35.3632621,149.1652374,67,0.00031518476316705346,0.0015787594020366669,0.02756330370903015,0.00022224316489882767,0.0003845104365609586,0.0023955830838531256,0,1,-1000,0,0,0,-1,1,-2,0.0,90.0,1500.0
12:15:38.758,GUIDED,-35.3632621,149.1652374,67,0.00031518476316705346,0.0015787594020366669,0.02756330370903015,0.00022224316489882767,0.0003845104365609586,0.0023955830838531256,0,1,-1000,0,0,0,-1,1,-2,0.0,90.0,1500.0
12:15:38.960,GUIDED,-35.3632621,149.1652374,67,0.00031518476316705346,0.0015787594020366669,0.02756330370903015,0.00022224316489882767,0.0003845104365609586,0.0023955830838531256,0,1,-1000,0,0,0,-1,1,-2,0.0,90.0,1500.0
12:15:39.163,GUIDED,-35.3632621,149.1652374,67,0.00031518476316705346,0.0015787594020366669,0.02756330370903015,0.00022224316489882767,0.0003845104365609586,0.0023955830838531256,0,1,-1000,0,0,0,-1,1,-2,0.0,90.0,1500.0
12:15:39.369,GUIDED,-35.3632621,149.1652374,67,0.00031518476316705346,0.0015787594020366669,0.02756330370903015,0.00022224316489882767,0.0003845104365609586,0.0023955830838531256,0,1,-1000,0,0,0,-1,1,-2,0.0,90.0,1500.0
12:15:39.570,GUIDED,-35.3632621,149.1652374,67,0.00031518476316705346,0.0015787594020366669,0.02756330370903015,0.00022224316489882767,0.0003845104365609586,0.0023955830838531256,0,1,-1000,0,0,0,-1,1,-2,0.0,90.0,1500.0
12:15:39.774,GUIDED,-35.3632621,149.1652374,67,0.00031518476316705346,0.0015787594020366669,0.02756330370903015,0.00022224316489882767,0.0003845104365609586,0.0023955830838531256,0,1,-1000,0,0,0,-1,1,-2,0.0,90.0,1500.0
12:15:39.976,GUIDED,-35.3632621,149.1652374,60,0.0003017356211785227,0.0015728861326351762,0.027007203549146652,0.0004528147401288152,0.00029337420710362494,0.002305458066985011,0,1,-1000,0,0,0,-1,2,-1,0.0,90.0,1500.0
12:15:40.179,GUIDED,-35.3632622,149.1652375,53,6.123945786384866e-05,0.0014107651077210903,0.026314780116081238,0.0003045404446311295,0.0002376578631810844,0.0022285645827651024,0,1,-1000,0,0,0,-2,2,0,0.0,90.0,1500.0
12:15:40.380,GUIDED,-35.3632622,149.1652375,1,0.00014058266242500395,0.0013621484395116568,0.026173390448093414,0.004911499097943306,0.00025215878849849105,0.0022024810314178467,0,8,-990,5,0,0,-2,2,0,0.0,90.0,1500.0
12:15:40.583,GUIDED,-35.3632622,149.1652375,1,0.00014058266242500395,0.0013621484395116568,0.026173390448093414,0.004911499097943306,0.00025215878849849105,0.0022024810314178467,0,8,-990,5,0,0,-2,2,0,0.0,90.0,1500.0
12:15:40.790,GUIDED,-35.3632622,149.1652375,1,0.00014058266242500395,0.0013621484395116568,0.026173390448093414,0.004911499097943306,0.00025215878849849105,0.0022024810314178467,0,8,-990,5,0,0,-2,2,0,0.0,90.0,1500.0
12:15:40.992,GUIDED,-35.3632622,149.1652375,1,0.00014058266242500395,0.0013621484395116568,0.026173390448093414,0.004911499097943306,0.00025215878849849105,0.0022024810314178467,0,8,-990,5,0,0,-2,2,0,0.0,90.0,1500.0
12:15:41.193,GUIDED,-35.3632622,149.1652375,1,0.00014058266242500395,0.0013621484395116568,0.026173390448093414,0.004911499097943306,0.00025215878849849105,0.0022024810314178467,0,8,-990,5,0,0,-2,2,0,0.0,90.0,1500.0
12:15:41.395,GUIDED,-35.3632622,149.1652375,1,0.00014058266242500395,0.0013621484395116568,0.026173390448093414,0.004911499097943306,0.00025215878849849105,0.0022024810314178467,0,8,-990,5,0,0,-2,2,0,0.0,90.0,1500.0
12:15:41.600,GUIDED,-35.3632622,149.1652375,1,0.00014058266242500395,0.0013621484395116568,0.026173390448093414,0.004911499097943306,0.00025215878849849105,0.0022024810314178467,0,8,-990,5,0,0,-2,2,0,0.0,90.0,1500.0
12:15:41.802,GUIDED,-35.3632622,149.1652375,1,0.00014058266242500395,0.0013621484395116568,0.026173390448093414,0.004911499097943306,0.00025215878849849105,0.0022024810314178467,0,8,-990,5,0,0,-2,2,0,0.0,90.0,1500.0
12:15:42.003,GUIDED,-35.3632622,149.1652375,1,0.00014058266242500395,0.0013621484395116568,0.026173390448093414,0.004911499097943306,0.00025215878849849105,0.0022024810314178467,0,8,-990,5,0,0,-2,2,0,0.0,90.0,1500.0
12:15:42.205,GUIDED,-35.3632621,149.1652375,6,2.2291133063845336e-05,0.0013044767547398806,0.02529965341091156,0.0003260636003687978,0.00022016401635482907,0.002058029640465975,0,1,-1000,0,0,1,0,0,0,0.0,90.0,1500.0
12:15:42.408,GUIDED,-35.3632621,149.1652375,5,0.00010457660391693935,0.0014117463724687696,0.02500952035188675,0.0003382542636245489,0.00023220543516799808,0.0020509541500359774,0,1,-1000,0,0,1,0,0,0,0.0,90.0,1500.0
12:15:42.612,GUIDED,-35.3632621,149.1652375,5,0.00010457660391693935,0.0014117463724687696,0.02500952035188675,0.0003382542636245489,0.00023220543516799808,0.0020509541500359774,0,1,-1000,0,0,1,0,0,0,0.0,90.0,1500.0
12:15:42.814,GUIDED,-35.3632621,149.1652375,5,0.00010457660391693935,0.0014117463724687696,0.02500952035188675,0.0003382542636245489,0.00023220543516799808,0.0020509541500359774,0,1,-1000,0,0,1,0,0,0,0.0,90.0,1500.0
12:15:43.016,GUIDED,-35.3632621,149.1652375,5,0.00010457660391693935,0.0014117463724687696,0.02500952035188675,0.0003382542636245489,0.00023220543516799808,0.0020509541500359774,0,1,-1000,0,0,1,0,0,0,0.0,90.0,1500.0
12:15:43.220,GUIDED,-35.3632621,149.1652375,5,0.00010457660391693935,0.0014117463724687696,0.02500952035188675,0.0003382542636245489,0.00023220543516799808,0.0020509541500359774,0,1,-1000,0,0,1,0,0,0,0.0,90.0,1500.0
12:15:43.423,GUIDED,-35.3632621,149.1652375,5,0.00010457660391693935,0.0014117463724687696,0.02500952035188675,0.0003382542636245489,0.00023220543516799808,0.0020509541500359774,0,1,-1000,0,0,1,0,0,0,0.0,90.0,1500.0
12:15:43.627,GUIDED,-35.3632621,149.1652375,5,0.00010457660391693935,0.0014117463724687696,0.02500952035188675,0.0003382542636245489,0.00023220543516799808,0.0020509541500359774,0,1,-1000,0,0,1,0,0,0,0.0,90.0,1500.0
12:15:43.828,GUIDED,-35.3632621,149.1652375,5,0.00010457660391693935,0.0014117463724687696,0.02500952035188675,0.0003382542636245489,0.00023220543516799808,0.0020509541500359774,0,1,-1000,0,0,1,0,0,0,0.0,90.0,1500.0
12:15:44.032,GUIDED,-35.3632621,149.1652375,2,0.0002684863575268537,0.00161179609131068,0.024551725015044212,0.00028366988408379257,0.0003125303192064166,0.001958691282197833,0,1,-1000,0,0,1,0,0,0,0.0,90.0,1500.0
12:15:44.234,GUIDED,-35.3632621,149.1652375,0,0.0005430365563370287,0.0018971256213262677,0.023936733603477478,0.00044936599442735314,0.0002933267969638109,0.0017714633140712976,0,2,-1000,1,0,0,0,0,0,0.0,90.0,1500.0
12:15:44.436,GUIDED,-35.3632621,149.1652375,24,0.0029375748708844185,-0.00018078389985021204,0.023852266371250153,0.005153755657374859,-0.006171755027025938,0.0039758444763720036,0,0,-1140,5,-5,3,0,0,-25,0.0,90.0,1500.0
12:15:44.639,GUIDED,-35.3632621,149.1652375,24,0.0029375748708844185,-0.00018078389985021204,0.023852266371250153,0.005153755657374859,-0.006171755027025938,0.0039758444763720036,0,0,-1140,5,-5,3,0,0,-25,0.0,90.0,1500.0
12:15:44.841,GUIDED,-35.3632621,149.1652375,24,0.0029375748708844185,-0.00018078389985021204,0.023852266371250153,0.005153755657374859,-0.006171755027025938,0.0039758444763720036,0,0,-1140,5,-5,3,0,0,-25,0.0,90.0,1500.0
12:15:45.043,GUIDED,-35.3632621,149.1652375,24,0.0029375748708844185,-0.00018078389985021204,0.023852266371250153,0.005153755657374859,-0.006171755027025938,0.0039758444763720036,0,0,-1140,5,-5,3,0,0,-25,0.0,90.0,1500.0
12:15:45.245,GUIDED,-35.3632621,149.1652375,24,0.0029375748708844185,-0.00018078389985021204,0.023852266371250153,0.005153755657374859,-0.006171755027025938,0.0039758444763720036,0,0,-1140,5,-5,3,0,0,-25,0.0,90.0,1500.0
12:15:45.449,GUIDED,-35.3632621,149.1652375,24,0.0029375748708844185,-0.00018078389985021204,0.023852266371250153,0.005153755657374859,-0.006171755027025938,0.0039758444763720036,0,0,-1140,5,-5,3,0,0,-25,0.0,90.0,1500.0
12:15:45.650,GUIDED,-35.3632621,149.1652375,24,0.0029375748708844185,-0.00018078389985021204,0.023852266371250153,0.005153755657374859,-0.006171755027025938,0.0039758444763720036,0,0,-1140,5,-5,3,0,0,-25,0.0,90.0,1500.0
12:15:45.852,GUIDED,-35.3632621,149.1652375,24,0.0029375748708844185,-0.00018078389985021204,0.023852266371250153,0.005153755657374859,-0.006171755027025938,0.0039758444763720036,0,0,-1140,5,-5,3,0,0,-25,0.0,90.0,1500.0
12:15:46.053,GUIDED,-35.363262,149.1652376,1627,0.031193574890494347,-0.0019341750303283334,0.02383962832391262,0.04597475752234459,-0.007445517461746931,0.00326935900375247,0,-1,-1010,46,-6,2,1,9,-145,0.0,90.0,1500.0
12:15:46.255,GUIDED,-35.363262,149.1652379,2006,0.0423206128180027,-0.003992116078734398,0.023990869522094727,0.04379095509648323,-0.008983046747744083,0.0037090368568897247,0,-2,-1004,44,-8,2,2,17,-147,0.0,90.0,1500.0
12:15:46.457,GUIDED,-35.3632619,149.1652385,2389,0.05276528745889664,-0.006468233652412891,0.024162178859114647,0.04043744504451752,-0.01044975221157074,0.003993723075836897,0,-3,-1000,40,-10,3,4,27,-147,0.0,90.0,1500.0
12:15:46.659,GUIDED,-35.3632619,149.1652385,2389,0.05276528745889664,-0.006468233652412891,0.024162178859114647,0.04043744504451752,-0.01044975221157074,0.003993723075836897,0,-3,-1000,40,-10,3,4,27,-147,0.0,90.0,1500.0
12:15:46.861,GUIDED,-35.3632619,149.1652385,2389,0.05276528745889664,-0.006468233652412891,0.024162178859114647,0.04043744504451752,-0.01044975221157074,0.003993723075836897,0,-3,-1000,40,-10,3,4,27,-147,0.0,90.0,1500.0
12:15:47.064,GUIDED,-35.3632619,149.1652385,2389,0.05276528745889664,-0.006468233652412891,0.024162178859114647,0.04043744504451752,-0.01044975221157074,0.003993723075836897,0,-3,-1000,40,-10,3,4,27,-147,0.0,90.0,1500.0
12:15:47.266,GUIDED,-35.3632619,149.1652385,2389,0.05276528745889664,-0.006468233652412891,0.024162178859114647,0.04043744504451752,-0.01044975221157074,0.003993723075836897,0,-3,-1000,40,-10,3,4,27,-147,0.0,90.0,1500.0
12:15:47.468,GUIDED,-35.3632619,149.1652385,2389,0.05276528745889664,-0.006468233652412891,0.024162178859114647,0.04043744504451752,-0.01044975221157074,0.003993723075836897,0,-3,-1000,40,-10,3,4,27,-147,0.0,90.0,1500.0
12:15:47.672,GUIDED,-35.3632619,149.1652385,2389,0.05276528745889664,-0.006468233652412891,0.024162178859114647,0.04043744504451752,-0.01044975221157074,0.003993723075836897,0,-3,-1000,40,-10,3,4,27,-147,0.0,90.0,1500.0
12:15:47.875,GUIDED,-35.3632619,149.1652385,2389,0.05276528745889664,-0.006468233652412891,0.024162178859114647,0.04043744504451752,-0.01044975221157074,0.003993723075836897,0,-3,-1000,40,-10,3,4,27,-147,0.0,90.0,1500.0
12:15:48.077,GUIDED,-35.3632607,149.1652456,4664,-0.033617760986089706,-0.002376493765041232,-0.059489551931619644,-0.05135239288210869,0.010991483926773071,-0.04126296192407608,3,-9,-1000,-50,11,-42,6,32,-147,0.0,90.0,1500.0
12:15:48.279,GUIDED,-35.3632606,149.1652463,5052,-0.05179845169186592,0.0032488766591995955,-0.07329811155796051,-0.09137886017560959,0.0304469745606184,-0.06123260408639908,2,-7,-998,-90,30,-62,7,19,-147,0.0,90.0,1500.0
12:15:48.484,GUIDED,-35.3632604,149.1652466,5435,-0.0775318369269371,0.009946368634700775,-0.0902155414223671,-0.10876183956861496,0.029669709503650665,-0.06478333473205566,0,-3,-998,-108,30,-65,4,1,-146,0.0,90.0,1500.0
12:15:48.686,GUIDED,-35.3632604,149.1652466,5435,-0.0775318369269371,0.009946368634700775,-0.0902155414223671,-0.10876183956861496,0.029669709503650665,-0.06478333473205566,0,-3,-998,-108,30,-65,4,1,-146,0.0,90.0,1500.0
12:15:48.889,GUIDED,-35.3632604,149.1652466,5435,-0.0775318369269371,0.009946368634700775,-0.0902155414223671,-0.10876183956861496,0.029669709503650665,-0.06478333473205566,0,-3,-998,-108,30,-65,4,1,-146,0.0,90.0,1500.0
12:15:49.091,GUIDED,-35.3632604,149.1652466,5435,-0.0775318369269371,0.009946368634700775,-0.0902155414223671,-0.10876183956861496,0.029669709503650665,-0.06478333473205566,0,-3,-998,-108,30,-65,4,1,-146,0.0,90.0,1500.0
12:15:49.294,GUIDED,-35.3632604,149.1652466,5435,-0.0775318369269371,0.009946368634700775,-0.0902155414223671,-0.10876183956861496,0.029669709503650665,-0.06478333473205566,0,-3,-998,-108,30,-65,4,1,-146,0.0,90.0,1500.0
12:15:49.495,GUIDED,-35.3632604,149.1652466,5435,-0.0775318369269371,0.009946368634700775,-0.0902155414223671,-0.10876183956861496,0.029669709503650665,-0.06478333473205566,0,-3,-998,-108,30,-65,4,1,-146,0.0,90.0,1500.0
12:15:49.697,GUIDED,-35.3632604,149.1652466,5435,-0.0775318369269371,0.009946368634700775,-0.0902155414223671,-0.10876183956861496,0.029669709503650665,-0.06478333473205566,0,-3,-998,-108,30,-65,4,1,-146,0.0,90.0,1500.0
12:15:49.898,GUIDED,-35.3632604,149.1652466,5435,-0.0775318369269371,0.009946368634700775,-0.0902155414223671,-0.10876183956861496,0.029669709503650665,-0.06478333473205566,0,-3,-998,-108,30,-65,4,1,-146,0.0,90.0,1500.0
12:15:50.100,GUIDED,-35.363262,149.1652378,8115,0.012943136505782604,0.018117815256118774,-0.12468471378087997,0.0710003674030304,0.006104244850575924,-0.0010571061866357923,-3,16,-1004,71,6,-1,-27,-59,-149,0.0,90.0,1500.0
12:15:50.308,GUIDED,-35.3632627,149.1652362,8505,0.0306117944419384,0.019096681848168373,-0.12414447963237762,0.07047899067401886,0.001977793872356415,0.001235596020705998,-2,14,-1004,71,2,0,-31,-50,-150,0.0,90.0,1500.0
12:15:50.511,GUIDED,-35.3632627,149.1652362,8505,0.0306117944419384,0.019096681848168373,-0.12414447963237762,0.07047899067401886,0.001977793872356415,0.001235596020705998,-2,14,-1004,71,2,0,-31,-50,-150,0.0,90.0,1500.0
12:15:50.716,GUIDED,-35.3632627,149.1652362,8505,0.0306117944419384,0.019096681848168373,-0.12414447963237762,0.07047899067401886,0.001977793872356415,0.001235596020705998,-2,14,-1004,71,2,0,-31,-50,-150,0.0,90.0,1500.0
12:15:50.917,GUIDED,-35.3632627,149.1652362,8505,0.0306117944419384,0.019096681848168373,-0.12414447963237762,0.07047899067401886,0.001977793872356415,0.001235596020705998,-2,14,-1004,71,2,0,-31,-50,-150,0.0,90.0,1500.0
12:15:51.119,GUIDED,-35.3632627,149.1652362,8505,0.0306117944419384,0.019096681848168373,-0.12414447963237762,0.07047899067401886,0.001977793872356415,0.001235596020705998,-2,14,-1004,71,2,0,-31,-50,-150,0.0,90.0,1500.0
12:15:51.321,GUIDED,-35.3632627,149.1652362,8505,0.0306117944419384,0.019096681848168373,-0.12414447963237762,0.07047899067401886,0.001977793872356415,0.001235596020705998,-2,14,-1004,71,2,0,-31,-50,-150,0.0,90.0,1500.0
12:15:51.523,GUIDED,-35.3632627,149.1652362,8505,0.0306117944419384,0.019096681848168373,-0.12414447963237762,0.07047899067401886,0.001977793872356415,0.001235596020705998,-2,14,-1004,71,2,0,-31,-50,-150,0.0,90.0,1500.0
12:15:51.725,GUIDED,-35.3632627,149.1652362,8505,0.0306117944419384,0.019096681848168373,-0.12414447963237762,0.07047899067401886,0.001977793872356415,0.001235596020705998,-2,14,-1004,71,2,0,-31,-50,-150,0.0,90.0,1500.0
12:15:51.928,GUIDED,-35.3632627,149.1652362,8505,0.0306117944419384,0.019096681848168373,-0.12414447963237762,0.07047899067401886,0.001977793872356415,0.001235596020705998,-2,14,-1004,71,2,0,-31,-50,-150,0.0,90.0,1500.0
12:15:52.130,GUIDED,-35.3632659,149.1652347,11081,0.05240144208073616,-0.08473239839076996,-0.012814952060580254,0.0318806953728199,-0.024761013686656952,0.07820547372102737,1,-5,-999,32,-24,77,22,32,-148,0.0,90.0,1500.0
12:15:52.332,GUIDED,-35.3632652,149.1652357,11462,0.03575108200311661,-0.0765286460518837,-0.011027541942894459,-0.13440817594528198,0.09763630479574203,-0.048609886318445206,-3,-11,-988,-133,98,-49,42,40,-145,0.0,90.0,1500.0
12:15:52.534,GUIDED,-35.3632652,149.1652357,11462,0.03575108200311661,-0.0765286460518837,-0.011027541942894459,-0.13440817594528198,0.09763630479574203,-0.048609886318445206,-3,-11,-988,-133,98,-49,42,40,-145,0.0,90.0,1500.0
12:15:52.735,GUIDED,-35.3632652,149.1652357,11462,0.03575108200311661,-0.0765286460518837,-0.011027541942894459,-0.13440817594528198,0.09763630479574203,-0.048609886318445206,-3,-11,-988,-133,98,-49,42,40,-145,0.0,90.0,1500.0
12:15:52.936,GUIDED,-35.3632652,149.1652357,11462,0.03575108200311661,-0.0765286460518837,-0.011027541942894459,-0.13440817594528198,0.09763630479574203,-0.048609886318445206,-3,-11,-988,-133,98,-49,42,40,-145,0.0,90.0,1500.0
12:15:53.142,GUIDED,-35.3632652,149.1652357,11462,0.03575108200311661,-0.0765286460518837,-0.011027541942894459,-0.13440817594528198,0.09763630479574203,-0.048609886318445206,-3,-11,-988,-133,98,-49,42,40,-145,0.0,90.0,1500.0
12:15:53.345,GUIDED,-35.3632652,149.1652357,11462,0.03575108200311661,-0.0765286460518837,-0.011027541942894459,-0.13440817594528198,0.09763630479574203,-0.048609886318445206,-3,-11,-988,-133,98,-49,42,40,-145,0.0,90.0,1500.0
12:15:53.548,GUIDED,-35.3632652,149.1652357,11462,0.03575108200311661,-0.0765286460518837,-0.011027541942894459,-0.13440817594528198,0.09763630479574203,-0.048609886318445206,-3,-11,-988,-133,98,-49,42,40,-145,0.0,90.0,1500.0
12:15:53.750,GUIDED,-35.3632652,149.1652357,11462,0.03575108200311661,-0.0765286460518837,-0.011027541942894459,-0.13440817594528198,0.09763630479574203,-0.048609886318445206,-3,-11,-988,-133,98,-49,42,40,-145,0.0,90.0,1500.0
12:15:53.954,GUIDED,-35.3632614,149.1652384,12595,-0.04363540560007095,0.012580102309584618,-0.10557777434587479,-0.04042506217956543,0.07905932515859604,-0.12827973067760468,-3,-11,-988,-133,98,-49,58,18,-148,0.0,90.0,1500.0
12:15:54.156,GUIDED,-35.3632579,149.1652377,14162,-0.025437787175178528,0.04440455511212349,-0.19040991365909576,0.04692981019616127,0.015211778692901134,-0.042877696454524994,-7,0,-1001,47,15,-43,13,-24,-152,0.0,90.0,1500.0
12:15:54.357,GUIDED,-35.3632577,149.1652369,14556,-0.013593058101832867,0.04747447371482849,-0.19905903935432434,0.05126307159662247,0.011755920946598053,-0.030975403264164925,-6,2,-1000,51,12,-31,0,-27,-152,0.0,90.0,1500.0
12:15:54.559,GUIDED,-35.3632577,149.1652369,14556,-0.013593058101832867,0.04747447371482849,-0.19905903935432434,0.05126307159662247,0.011755920946598053,-0.030975403264164925,-6,2,-1000,51,12,-31,0,-27,-152,0.0,90.0,1500.0
12:15:54.761,GUIDED,-35.3632577,149.1652369,14556,-0.013593058101832867,0.04747447371482849,-0.19905903935432434,0.05126307159662247,0.011755920946598053,-0.030975403264164925,-6,2,-1000,51,12,-31,0,-27,-152,0.0,90.0,1500.0
12:15:54.963,GUIDED,-35.3632577,149.1652369,14556,-0.013593058101832867,0.04747447371482849,-0.19905903935432434,0.05126307159662247,0.011755920946598053,-0.030975403264164925,-6,2,-1000,51,12,-31,0,-27,-152,0.0,90.0,1500.0
12:15:55.165,GUIDED,-35.3632577,149.1652369,14556,-0.013593058101832867,0.04747447371482849,-0.19905903935432434,0.05126307159662247,0.011755920946598053,-0.030975403264164925,-6,2,-1000,51,12,-31,0,-27,-152,0.0,90.0,1500.0
12:15:55.367,GUIDED,-35.3632577,149.1652369,14556,-0.013593058101832867,0.04747447371482849,-0.19905903935432434,0.05126307159662247,0.011755920946598053,-0.030975403264164925,-6,2,-1000,51,12,-31,0,-27,-152,0.0,90.0,1500.0
12:15:55.569,GUIDED,-35.3632577,149.1652369,14556,-0.013593058101832867,0.04747447371482849,-0.19905903935432434,0.05126307159662247,0.011755920946598053,-0.030975403264164925,-6,2,-1000,51,12,-31,0,-27,-152,0.0,90.0,1500.0
12:15:55.771,GUIDED,-35.3632577,149.1652369,14556,-0.013593058101832867,0.04747447371482849,-0.19905903935432434,0.05126307159662247,0.011755920946598053,-0.030975403264164925,-6,2,-1000,51,12,-31,0,-27,-152,0.0,90.0,1500.0
12:15:55.975,GUIDED,-35.3632612,149.165235,16906,0.034131187945604324,-0.003909054212272167,-0.17318838834762573,-0.032486096024513245,-0.12548531591892242,0.11283881217241287,8,5,-998,-14,-95,69,-43,18,-150,0.0,90.0,1500.0
12:15:56.178,GUIDED,-35.363262,149.1652355,17295,0.02436702698469162,-0.037733498960733414,-0.14157366752624512,-0.035567812621593475,-0.13162201642990112,0.1358259916305542,9,1,-1004,-34,-130,134,-33,24,-150,0.0,90.0,1500.0
12:15:56.379,GUIDED,-35.3632626,149.1652361,17683,0.009047792293131351,-0.05427475646138191,-0.12220421433448792,-0.06629420071840286,0.0002581780427135527,0.029967021197080612,8,0,-1001,-65,0,29,-18,25,-150,0.0,90.0,1500.0
12:15:56.581,GUIDED,-35.3632626,149.1652361,17683,0.009047792293131351,-0.05427475646138191,-0.12220421433448792,-0.06629420071840286,0.0002581780427135527,0.029967021197080612,8,0,-1001,-65,0,29,-18,25,-150,0.0,90.0,1500.0
12:15:56.782,GUIDED,-35.3632626,149.1652361,17683,0.009047792293131351,-0.05427475646138191,-0.12220421433448792,-0.06629420071840286,0.0002581780427135527,0.029967021197080612,8,0,-1001,-65,0,29,-18,25,-150,0.0,90.0,1500.0
12:15:56.985,GUIDED,-35.3632626,149.1652361,17683,0.009047792293131351,-0.05427475646138191,-0.12220421433448792,-0.06629420071840286,0.0002581780427135527,0.029967021197080612,8,0,-1001,-65,0,29,-18,25,-150,0.0,90.0,1500.0
12:15:57.188,GUIDED,-35.3632626,149.1652361,17683,0.009047792293131351,-0.05427475646138191,-0.12220421433448792,-0.06629420071840286,0.0002581780427135527,0.029967021197080612,8,0,-1001,-65,0,29,-18,25,-150,0.0,90.0,1500.0
12:15:57.391,GUIDED,-35.3632626,149.1652361,17683,0.009047792293131351,-0.05427475646138191,-0.12220421433448792,-0.06629420071840286,0.0002581780427135527,0.029967021197080612,8,0,-1001,-65,0,29,-18,25,-150,0.0,90.0,1500.0
12:15:57.592,GUIDED,-35.3632626,149.1652361,17683,0.009047792293131351,-0.05427475646138191,-0.12220421433448792,-0.06629420071840286,0.0002581780427135527,0.029967021197080612,8,0,-1001,-65,0,29,-18,25,-150,0.0,90.0,1500.0
12:15:57.796,GUIDED,-35.3632626,149.1652361,17683,0.009047792293131351,-0.05427475646138191,-0.12220421433448792,-0.06629420071840286,0.0002581780427135527,0.029967021197080612,8,0,-1001,-65,0,29,-18,25,-150,0.0,90.0,1500.0
12:15:57.999,GUIDED,-35.3632624,149.1652375,19234,-0.020024986937642097,-0.006891092751175165,-0.17668454349040985,0.0062336004339158535,0.03310224041342735,-0.07455895841121674,0,-3,-1002,-10,45,-76,12,2,-151,0.0,90.0,1500.0
12:15:58.201,GUIDED,-35.3632616,149.165237,20411,-0.0042161475867033005,0.010252387262880802,-0.22449274361133575,0.02970878779888153,0.01690509542822838,-0.048475779592990875,-4,0,-1001,30,17,-49,7,-10,-152,0.0,90.0,1500.0
12:15:58.402,GUIDED,-35.3632614,149.1652366,20804,0.002493317937478423,0.013321815058588982,-0.23529081046581268,0.02560906857252121,0.008870447054505348,-0.036489516496658325,-3,1,-1000,26,9,-37,4,-10,-152,0.0,90.0,1500.0
12:15:58.604,GUIDED,-35.3632614,149.1652366,20804,0.002493317937478423,0.013321815058588982,-0.23529081046581268,0.02560906857252121,0.008870447054505348,-0.036489516496658325,-3,1,-1000,26,9,-37,4,-10,-152,0.0,90.0,1500.0
12:15:58.806,GUIDED,-35.3632614,149.1652366,20804,0.002493317937478423,0.013321815058588982,-0.23529081046581268,0.02560906857252121,0.008870447054505348,-0.036489516496658325,-3,1,-1000,26,9,-37,4,-10,-152,0.0,90.0,1500.0
12:15:59.007,GUIDED,-35.3632614,149.1652366,20804,0.002493317937478423,0.013321815058588982,-0.23529081046581268,0.02560906857252121,0.008870447054505348,-0.036489516496658325,-3,1,-1000,26,9,-37,4,-10,-152,0.0,90.0,1500.0
12:15:59.209,GUIDED,-35.3632614,149.1652366,20804,0.002493317937478423,0.013321815058588982,-0.23529081046581268,0.02560906857252121,0.008870447054505348,-0.036489516496658325,-3,1,-1000,26,9,-37,4,-10,-152,0.0,90.0,1500.0
12:15:59.414,GUIDED,-35.3632614,149.1652366,20804,0.002493317937478423,0.013321815058588982,-0.23529081046581268,0.02560906857252121,0.008870447054505348,-0.036489516496658325,-3,1,-1000,26,9,-37,4,-10,-152,0.0,90.0,1500.0
12:15:59.619,GUIDED,-35.3632614,149.1652366,20804,0.002493317937478423,0.013321815058588982,-0.23529081046581268,0.02560906857252121,0.008870447054505348,-0.036489516496658325,-3,1,-1000,26,9,-37,4,-10,-152,0.0,90.0,1500.0
12:15:59.820,GUIDED,-35.3632614,149.1652366,20804,0.002493317937478423,0.013321815058588982,-0.23529081046581268,0.02560906857252121,0.008870447054505348,-0.036489516496658325,-3,1,-1000,26,9,-37,4,-10,-152,0.0,90.0,1500.0
12:16:00.023,GUIDED,-35.3632613,149.1652358,21981,0.01283660251647234,0.014247608371078968,-0.2528398931026459,0.004912745673209429,-0.005232029594480991,-0.012411514297127724,-3,1,-1000,26,9,-37,-4,-3,-152,0.0,90.0,1500.0
12:16:00.227,GUIDED,-35.3632616,149.1652358,23544,0.00811902154237032,0.005968599114567041,-0.2606402635574341,-0.01048407331109047,-0.009237824007868767,-0.006849199999123812,1,0,-1000,-9,-8,-7,-8,6,-152,0.0,90.0,1500.0
12:16:00.428,GUIDED,-35.3632617,149.1652359,23935,0.006129557732492685,0.0038772516418248415,-0.26284554600715637,-0.006324798800051212,-0.007400138769298792,-0.010260646231472492,1,0,-1000,-5,-6,-11,-7,8,-152,0.0,90.0,1500.0
12:16:00.633,GUIDED,-35.3632617,149.1652359,23935,0.006129557732492685,0.0038772516418248415,-0.26284554600715637,-0.006324798800051212,-0.007400138769298792,-0.010260646231472492,1,0,-1000,-5,-6,-11,-7,8,-152,0.0,90.0,1500.0
12:16:00.838,GUIDED,-35.3632617,149.1652359,23935,0.006129557732492685,0.0038772516418248415,-0.26284554600715637,-0.006324798800051212,-0.007400138769298792,-0.010260646231472492,1,0,-1000,-5,-6,-11,-7,8,-152,0.0,90.0,1500.0
12:16:01.040,GUIDED,-35.3632617,149.1652359,23935,0.006129557732492685,0.0038772516418248415,-0.26284554600715637,-0.006324798800051212,-0.007400138769298792,-0.010260646231472492,1,0,-1000,-5,-6,-11,-7,8,-152,0.0,90.0,1500.0
12:16:01.242,GUIDED,-35.3632617,149.1652359,23935,0.006129557732492685,0.0038772516418248415,-0.26284554600715637,-0.006324798800051212,-0.007400138769298792,-0.010260646231472492,1,0,-1000,-5,-6,-11,-7,8,-152,0.0,90.0,1500.0
12:16:01.445,GUIDED,-35.3632617,149.1652359,23935,0.006129557732492685,0.0038772516418248415,-0.26284554600715637,-0.006324798800051212,-0.007400138769298792,-0.010260646231472492,1,0,-1000,-5,-6,-11,-7,8,-152,0.0,90.0,1500.0
12:16:01.648,GUIDED,-35.3632617,149.1652359,23935,0.006129557732492685,0.0038772516418248415,-0.26284554600715637,-0.006324798800051212,-0.007400138769298792,-0.010260646231472492,1,0,-1000,-5,-6,-11,-7,8,-152,0.0,90.0,1500.0
12:16:01.858,GUIDED,-35.3632617,149.1652359,23935,0.006129557732492685,0.0038772516418248415,-0.26284554600715637,-0.006324798800051212,-0.007400138769298792,-0.010260646231472492,1,0,-1000,-5,-6,-11,-7,8,-152,0.0,90.0,1500.0
12:16:02.061,GUIDED,-35.3632622,149.1652364,25887,-0.008198155090212822,-0.0003150097618345171,-0.28430473804473877,0.036122240126132965,0.0004226801684126258,-0.02132340334355831,0,0,-1003,36,1,-21,-6,0,-152,0.0,90.0,1500.0
12:16:02.262,GUIDED,-35.3632624,149.1652363,26671,0.008245148696005344,0.0015245822723954916,-0.28887152671813965,0.021312188357114792,0.0034767622128129005,0.005285412073135376,0,0,-998,22,3,4,-5,-1,-152,0.0,90.0,1500.0
12:16:02.464,GUIDED,-35.3632625,149.1652363,27061,0.012351016514003277,0.0023179061245173216,-0.28673669695854187,0.013546645641326904,0.0026398999616503716,0.014610683545470238,0,1,-999,14,3,13,-4,0,-152,0.0,90.0,1500.0
12:16:02.666,GUIDED,-35.3632625,149.1652363,27061,0.012351016514003277,0.0023179061245173216,-0.28673669695854187,0.013546645641326904,0.0026398999616503716,0.014610683545470238,0,1,-999,14,3,13,-4,0,-152,0.0,90.0,1500.0
12:16:02.871,GUIDED,-35.3632625,149.1652363,27061,0.012351016514003277,0.0023179061245173216,-0.28673669695854187,0.013546645641326904,0.0026398999616503716,0.014610683545470238,0,1,-999,14,3,13,-4,0,-152,0.0,90.0,1500.0
12:16:03.073,GUIDED,-35.3632625,149.1652363,27061,0.012351016514003277,0.0023179061245173216,-0.28673669695854187,0.013546645641326904,0.0026398999616503716,0.014610683545470238,0,1,-999,14,3,13,-4,0,-152,0.0,90.0,1500.0
12:16:03.276,GUIDED,-35.3632625,149.1652363,27061,0.012351016514003277,0.0023179061245173216,-0.28673669695854187,0.013546645641326904,0.0026398999616503716,0.014610683545470238,0,1,-999,14,3,13,-4,0,-152,0.0,90.0,1500.0
12:16:03.480,GUIDED,-35.3632625,149.1652363,27061,0.012351016514003277,0.0023179061245173216,-0.28673669695854187,0.013546645641326904,0.0026398999616503716,0.014610683545470238,0,1,-999,14,3,13,-4,0,-152,0.0,90.0,1500.0
12:16:03.684,GUIDED,-35.3632625,149.1652363,27061,0.012351016514003277,0.0023179061245173216,-0.28673669695854187,0.013546645641326904,0.0026398999616503716,0.014610683545470238,0,1,-999,14,3,13,-4,0,-152,0.0,90.0,1500.0
12:16:03.886,GUIDED,-35.3632625,149.1652363,27061,0.012351016514003277,0.0023179061245173216,-0.28673669695854187,0.013546645641326904,0.0026398999616503716,0.014610683545470238,0,1,-999,14,3,13,-4,0,-152,0.0,90.0,1500.0
12:16:04.091,GUIDED,-35.3632626,149.1652364,28231,0.009025286883115768,0.0021534268744289875,-0.2658693194389343,-0.010957776568830013,-0.00027181333280168474,0.02287067472934723,0,0,-999,-9,0,22,-1,8,-151,0.0,90.0,1500.0
12:16:04.293,GUIDED,-35.3632626,149.1652375,30176,0.0008407581481151283,0.0020098600070923567,-0.24278074502944946,-0.0032274010591208935,0.0001624319120310247,0.024171754717826843,1,-1,-1000,-7,0,24,0,9,-152,0.0,90.0,1500.0
12:16:04.496,GUIDED,-35.3632626,149.1652375,30176,0.0008407581481151283,0.0020098600070923567,-0.24278074502944946,-0.0032274010591208935,0.0001624319120310247,0.024171754717826843,0,-1,-1001,-2,0,23,0,9,-152,0.0,90.0,1500.0
12:16:04.697,GUIDED,-35.3632626,149.1652375,30176,0.0008407581481151283,0.0020098600070923567,-0.24278074502944946,-0.0032274010591208935,0.0001624319120310247,0.024171754717826843,0,-1,-1001,-2,0,23,0,9,-152,0.0,90.0,1500.0
12:16:04.899,GUIDED,-35.3632626,149.1652375,30176,0.0008407581481151283,0.0020098600070923567,-0.24278074502944946,-0.0032274010591208935,0.0001624319120310247,0.024171754717826843,0,-1,-1001,-2,0,23,0,9,-152,0.0,90.0,1500.0
12:16:05.104,GUIDED,-35.3632626,149.1652375,30176,0.0008407581481151283,0.0020098600070923567,-0.24278074502944946,-0.0032274010591208935,0.0001624319120310247,0.024171754717826843,0,-1,-1001,-2,0,23,0,9,-152,0.0,90.0,1500.0
12:16:05.310,GUIDED,-35.3632626,149.1652375,30176,0.0008407581481151283,0.0020098600070923567,-0.24278074502944946,-0.0032274010591208935,0.0001624319120310247,0.024171754717826843,0,-1,-1001,-2,0,23,0,9,-152,0.0,90.0,1500.0
12:16:05.514,GUIDED,-35.3632626,149.1652375,30176,0.0008407581481151283,0.0020098600070923567,-0.24278074502944946,-0.0032274010591208935,0.0001624319120310247,0.024171754717826843,0,-1,-1001,-2,0,23,0,9,-152,0.0,90.0,1500.0
12:16:05.716,GUIDED,-35.3632626,149.1652375,30176,0.0008407581481151283,0.0020098600070923567,-0.24278074502944946,-0.0032274010591208935,0.0001624319120310247,0.024171754717826843,0,-1,-1001,-2,0,23,0,9,-152,0.0,90.0,1500.0
12:16:05.918,GUIDED,-35.3632626,149.1652375,30176,0.0008407581481151283,0.0020098600070923567,-0.24278074502944946,-0.0032274010591208935,0.0001624319120310247,0.024171754717826843,0,-1,-1001,-2,0,23,0,9,-152,0.0,90.0,1500.0
12:16:06.122,GUIDED,-35.3632625,149.1652382,32125,-0.0009884890168905258,0.0011731054401025176,-0.21870313584804535,-0.0014352642465382814,0.001026646699756384,0.017771799117326736,0,-1,-999,0,1,17,0,3,-152,0.0,90.0,1500.0
12:16:06.326,GUIDED,-35.3632624,149.1652382,33302,0.00041515895281918347,0.001876907772384584,-0.2068156749010086,0.0015710439765825868,0.0009850853821262717,0.01632506027817726,0,0,-1000,2,1,15,0,1,-152,0.0,90.0,1500.0
12:16:06.530,GUIDED,-35.3632624,149.1652382,33302,0.00041515895281918347,0.001876907772384584,-0.2068156749010086,0.0015710439765825868,0.0009850853821262717,0.01632506027817726,0,0,-1000,2,1,15,0,1,-152,0.0,90.0,1500.0
12:16:06.731,GUIDED,-35.3632624,149.1652382,33302,0.00041515895281918347,0.001876907772384584,-0.2068156749010086,0.0015710439765825868,0.0009850853821262717,0.01632506027817726,0,0,-1000,2,1,15,0,1,-152,0.0,90.0,1500.0
12:16:06.935,GUIDED,-35.3632624,149.1652382,33302,0.00041515895281918347,0.001876907772384584,-0.2068156749010086,0.0015710439765825868,0.0009850853821262717,0.01632506027817726,0,0,-1000,2,1,15,0,1,-152,0.0,90.0,1500.0
12:16:07.137,GUIDED,-35.3632624,149.1652382,33302,0.00041515895281918347,0.001876907772384584,-0.2068156749010086,0.0015710439765825868,0.0009850853821262717,0.01632506027817726,0,0,-1000,2,1,15,0,1,-152,0.0,90.0,1500.0
12:16:07.340,GUIDED,-35.3632624,149.1652382,33302,0.00041515895281918347,0.001876907772384584,-0.2068156749010086,0.0015710439765825868,0.0009850853821262717,0.01632506027817726,0,0,-1000,2,1,15,0,1,-152,0.0,90.0,1500.0
12:16:07.543,GUIDED,-35.3632624,149.1652382,33302,0.00041515895281918347,0.001876907772384584,-0.2068156749010086,0.0015710439765825868,0.0009850853821262717,0.01632506027817726,0,0,-1000,2,1,15,0,1,-152,0.0,90.0,1500.0
12:16:07.749,GUIDED,-35.3632624,149.1652382,33302,0.00041515895281918347,0.001876907772384584,-0.2068156749010086,0.0015710439765825868,0.0009850853821262717,0.01632506027817726,0,0,-1000,2,1,15,0,1,-152,0.0,90.0,1500.0
12:16:07.952,GUIDED,-35.3632624,149.1652382,33302,0.00041515895281918347,0.001876907772384584,-0.2068156749010086,0.0015710439765825868,0.0009850853821262717,0.01632506027817726,0,0,-1000,2,1,15,0,1,-152,0.0,90.0,1500.0
12:16:08.155,GUIDED,-35.3632623,149.1652381,35479,0.002152998698875308,0.001216179458424449,-0.18782584369182587,0.0012021810980513692,-0.0013300334103405476,0.015232914127409458,0,0,-999,1,0,14,0,0,-152,0.0,90.0,1500.0
12:16:08.357,GUIDED,-35.3632623,149.165238,36259,0.0022149565629661083,0.0009021873702295125,-0.18187066912651062,0.004842670168727636,0.00017935957293957472,0.013060495257377625,0,0,-1000,5,0,12,0,0,-152,0.0,90.0,1500.0
12:16:08.559,GUIDED,-35.3632623,149.165238,36259,0.0022149565629661083,0.0009021873702295125,-0.18187066912651062,0.004842670168727636,0.00017935957293957472,0.013060495257377625,0,0,-1000,5,0,12,0,0,-152,0.0,90.0,1500.0
12:16:08.762,GUIDED,-35.3632623,149.165238,36259,0.0022149565629661083,0.0009021873702295125,-0.18187066912651062,0.004842670168727636,0.00017935957293957472,0.013060495257377625,0,0,-1000,5,0,12,0,0,-152,0.0,90.0,1500.0
12:16:08.964,GUIDED,-35.3632623,149.165238,36259,0.0022149565629661083,0.0009021873702295125,-0.18187066912651062,0.004842670168727636,0.00017935957293957472,0.013060495257377625,0,0,-1000,5,0,12,0,0,-152,0.0,90.0,1500.0
12:16:09.168,GUIDED,-35.3632623,149.165238,36259,0.0022149565629661083,0.0009021873702295125,-0.18187066912651062,0.004842670168727636,0.00017935957293957472,0.013060495257377625,0,0,-1000,5,0,12,0,0,-152,0.0,90.0,1500.0
12:16:09.370,GUIDED,-35.3632623,149.165238,36259,0.0022149565629661083,0.0009021873702295125,-0.18187066912651062,0.004842670168727636,0.00017935957293957472,0.013060495257377625,0,0,-1000,5,0,12,0,0,-152,0.0,90.0,1500.0
12:16:09.576,GUIDED,-35.3632623,149.165238,36259,0.0022149565629661083,0.0009021873702295125,-0.18187066912651062,0.004842670168727636,0.00017935957293957472,0.013060495257377625,0,0,-1000,5,0,12,0,0,-152,0.0,90.0,1500.0
12:16:09.777,GUIDED,-35.3632623,149.165238,36259,0.0022149565629661083,0.0009021873702295125,-0.18187066912651062,0.004842670168727636,0.00017935957293957472,0.013060495257377625,0,0,-1000,5,0,12,0,0,-152,0.0,90.0,1500.0
12:16:09.979,GUIDED,-35.3632623,149.165238,36259,0.0022149565629661083,0.0009021873702295125,-0.18187066912651062,0.004842670168727636,0.00017935957293957472,0.013060495257377625,0,0,-1000,5,0,12,0,0,-152,0.0,90.0,1500.0
12:16:10.181,GUIDED,-35.3632622,149.1652378,38215,0.002624226501211524,0.000767907069530338,-0.1686364710330963,0.0022555573377758265,0.0009597467142157257,0.010675093159079552,0,0,-999,-1,1,10,0,0,-152,0.0,90.0,1500.0
12:16:10.383,GUIDED,-35.3632622,149.1652377,39384,0.0032654267270118,0.0012747934088110924,-0.16184347867965698,0.0016866972437128425,0.001542415819130838,0.010275784879922867,0,0,-1000,2,2,10,0,0,-152,0.0,90.0,1500.0
12:16:10.586,GUIDED,-35.3632622,149.1652377,39384,0.0032654267270118,0.0012747934088110924,-0.16184347867965698,0.0016866972437128425,0.001542415819130838,0.010275784879922867,0,0,-1000,2,2,10,0,0,-152,0.0,90.0,1500.0
12:16:10.787,GUIDED,-35.3632622,149.1652377,39384,0.0032654267270118,0.0012747934088110924,-0.16184347867965698,0.0016866972437128425,0.001542415819130838,0.010275784879922867,0,0,-1000,2,2,10,0,0,-152,0.0,90.0,1500.0
12:16:10.990,GUIDED,-35.3632622,149.1652377,39384,0.0032654267270118,0.0012747934088110924,-0.16184347867965698,0.0016866972437128425,0.001542415819130838,0.010275784879922867,0,0,-1000,2,2,10,0,0,-152,0.0,90.0,1500.0
12:16:11.193,GUIDED,-35.3632622,149.1652377,39384,0.0032654267270118,0.0012747934088110924,-0.16184347867965698,0.0016866972437128425,0.001542415819130838,0.010275784879922867,0,0,-1000,2,2,10,0,0,-152,0.0,90.0,1500.0
12:16:11.398,GUIDED,-35.3632622,149.1652377,39384,0.0032654267270118,0.0012747934088110924,-0.16184347867965698,0.0016866972437128425,0.001542415819130838,0.010275784879922867,0,0,-1000,2,2,10,0,0,-152,0.0,90.0,1500.0
12:16:11.602,GUIDED,-35.3632622,149.1652377,39384,0.0032654267270118,0.0012747934088110924,-0.16184347867965698,0.0016866972437128425,0.001542415819130838,0.010275784879922867,0,0,-1000,2,2,10,0,0,-152,0.0,90.0,1500.0
12:16:11.807,GUIDED,-35.3632622,149.1652377,39384,0.0032654267270118,0.0012747934088110924,-0.16184347867965698,0.0016866972437128425,0.001542415819130838,0.010275784879922867,0,0,-1000,2,2,10,0,0,-152,0.0,90.0,1500.0
12:16:12.009,GUIDED,-35.3632622,149.1652377,39384,0.0032654267270118,0.0012747934088110924,-0.16184347867965698,0.0016866972437128425,0.001542415819130838,0.010275784879922867,0,0,-1000,2,2,10,0,0,-152,0.0,90.0,1500.0
12:16:12.212,GUIDED,-35.3632621,149.1652375,41723,0.0026159388944506645,0.0014908063458278775,-0.15013490617275238,-0.0019364578183740377,-0.0003345146542415023,0.006772804073989391,0,0,-1000,0,0,6,0,0,-152,0.0,90.0,1500.0
12:16:12.414,GUIDED,-35.3632621,149.1652375,42506,0.0025672861374914646,0.0013572515454143286,-0.14662513136863708,0.0014756660675629973,0.0004062681691721082,0.007435322739183903,0,0,-1000,2,1,7,0,1,-152,0.0,90.0,1500.0
12:16:12.617,GUIDED,-35.3632621,149.1652375,42506,0.0025672861374914646,0.0013572515454143286,-0.14662513136863708,0.0014756660675629973,0.0004062681691721082,0.007435322739183903,0,0,-1000,2,1,7,0,1,-152,0.0,90.0,1500.0
12:16:12.819,GUIDED,-35.3632621,149.1652375,42506,0.0025672861374914646,0.0013572515454143286,-0.14662513136863708,0.0014756660675629973,0.0004062681691721082,0.007435322739183903,0,0,-1000,2,1,7,0,1,-152,0.0,90.0,1500.0
12:16:13.022,GUIDED,-35.3632621,149.1652375,42506,0.0025672861374914646,0.0013572515454143286,-0.14662513136863708,0.0014756660675629973,0.0004062681691721082,0.007435322739183903,0,0,-1000,2,1,7,0,1,-152,0.0,90.0,1500.0
12:16:13.227,GUIDED,-35.3632621,149.1652375,42506,0.0025672861374914646,0.0013572515454143286,-0.14662513136863708,0.0014756660675629973,0.0004062681691721082,0.007435322739183903,0,0,-1000,2,1,7,0,1,-152,0.0,90.0,1500.0
12:16:13.429,GUIDED,-35.3632621,149.1652375,42506,0.0025672861374914646,0.0013572515454143286,-0.14662513136863708,0.0014756660675629973,0.0004062681691721082,0.007435322739183903,0,0,-1000,2,1,7,0,1,-152,0.0,90.0,1500.0
12:16:13.630,GUIDED,-35.3632621,149.1652375,42506,0.0025672861374914646,0.0013572515454143286,-0.14662513136863708,0.0014756660675629973,0.0004062681691721082,0.007435322739183903,0,0,-1000,2,1,7,0,1,-152,0.0,90.0,1500.0
12:16:13.832,GUIDED,-35.3632621,149.1652375,42506,0.0025672861374914646,0.0013572515454143286,-0.14662513136863708,0.0014756660675629973,0.0004062681691721082,0.007435322739183903,0,0,-1000,2,1,7,0,1,-152,0.0,90.0,1500.0
12:16:14.034,GUIDED,-35.3632621,149.1652374,44061,0.0025330926291644573,0.0010421533370390534,-0.13994067907333374,0.0019780986476689577,0.0005423174006864429,0.008259694091975689,0,0,-1000,2,1,8,0,1,-152,0.0,90.0,1500.0
12:16:14.236,GUIDED,-35.3632621,149.1652374,45229,0.002669727196916938,0.0009874646784737706,-0.13557621836662292,0.007488725706934929,0.002424502745270729,0.007878443226218224,0,0,-1001,8,3,7,0,1,-152,0.0,90.0,1500.0
12:16:14.437,GUIDED,-35.3632621,149.1652374,45619,0.002770021790638566,0.001274398062378168,-0.13420429825782776,-0.00022948021069169044,0.001407346106134355,0.004504580050706863,0,0,-1000,0,2,4,0,1,-152,0.0,90.0,1500.0
12:16:14.639,GUIDED,-35.3632621,149.1652374,45619,0.002770021790638566,0.001274398062378168,-0.13420429825782776,-0.00022948021069169044,0.001407346106134355,0.004504580050706863,0,0,-1000,0,2,4,0,1,-152,0.0,90.0,1500.0
12:16:14.842,GUIDED,-35.3632621,149.1652374,45619,0.002770021790638566,0.001274398062378168,-0.13420429825782776,-0.00022948021069169044,0.001407346106134355,0.004504580050706863,0,0,-1000,0,2,4,0,1,-152,0.0,90.0,1500.0
12:16:15.046,GUIDED,-35.3632621,149.1652374,45619,0.002770021790638566,0.001274398062378168,-0.13420429825782776,-0.00022948021069169044,0.001407346106134355,0.004504580050706863,0,0,-1000,0,2,4,0,1,-152,0.0,90.0,1500.0
12:16:15.250,GUIDED,-35.3632621,149.1652374,45619,0.002770021790638566,0.001274398062378168,-0.13420429825782776,-0.00022948021069169044,0.001407346106134355,0.004504580050706863,0,0,-1000,0,2,4,0,1,-152,0.0,90.0,1500.0
12:16:15.453,GUIDED,-35.3632621,149.1652374,45619,0.002770021790638566,0.001274398062378168,-0.13420429825782776,-0.00022948021069169044,0.001407346106134355,0.004504580050706863,0,0,-1000,0,2,4,0,1,-152,0.0,90.0,1500.0
12:16:15.655,GUIDED,-35.3632621,149.1652374,45619,0.002770021790638566,0.001274398062378168,-0.13420429825782776,-0.00022948021069169044,0.001407346106134355,0.004504580050706863,0,0,-1000,0,2,4,0,1,-152,0.0,90.0,1500.0
12:16:15.858,GUIDED,-35.3632621,149.1652374,45619,0.002770021790638566,0.001274398062378168,-0.13420429825782776,-0.00022948021069169044,0.001407346106134355,0.004504580050706863,0,0,-1000,0,2,4,0,1,-152,0.0,90.0,1500.0
12:16:16.060,GUIDED,-35.363262,149.1652374,47955,0.002303819404914975,0.0012589491670951247,-0.12567274272441864,-0.0009513829718343914,0.0009966730140149593,0.0072592454962432384,0,0,-999,0,2,7,-1,1,-152,0.0,90.0,1500.0
12:16:16.261,GUIDED,-35.363262,149.1652374,48345,0.0022363439202308655,0.0011168847559019923,-0.12449895590543747,-0.0006612613797187805,-0.0002686046645976603,0.006394336000084877,0,0,-1000,0,0,6,-1,1,-152,90.0,90.0,1500.0
12:16:16.463,GUIDED,-35.363262,149.1652374,48735,0.0023161412682384253,0.001049129175953567,-0.12288013845682144,0.003758468898013234,0.001340043032541871,0.007314642891287804,0,0,-1000,4,2,7,-1,1,-152,90.0,90.0,1500.0
12:16:16.665,GUIDED,-35.363262,149.1652374,48735,0.0023161412682384253,0.001049129175953567,-0.12288013845682144,0.003758468898013234,0.001340043032541871,0.007314642891287804,0,0,-1000,4,2,7,-1,1,-152,90.0,90.0,1500.0
12:16:16.867,GUIDED,-35.363262,149.1652374,48735,0.0023161412682384253,0.001049129175953567,-0.12288013845682144,0.003758468898013234,0.001340043032541871,0.007314642891287804,0,0,-1000,4,2,7,-1,1,-152,90.0,90.0,1500.0
12:16:17.069,GUIDED,-35.363262,149.1652374,48735,0.0023161412682384253,0.001049129175953567,-0.12288013845682144,0.003758468898013234,0.001340043032541871,0.007314642891287804,0,0,-1000,4,2,7,-1,1,-152,90.0,90.0,1500.0
12:16:17.271,GUIDED,-35.363262,149.1652374,48735,0.0023161412682384253,0.001049129175953567,-0.12288013845682144,0.003758468898013234,0.001340043032541871,0.007314642891287804,0,0,-1000,4,2,7,-1,1,-152,90.0,90.0,1500.0
12:16:17.477,GUIDED,-35.363262,149.1652374,48735,0.0023161412682384253,0.001049129175953567,-0.12288013845682144,0.003758468898013234,0.001340043032541871,0.007314642891287804,0,0,-1000,4,2,7,-1,1,-152,90.0,90.0,1500.0
12:16:17.681,GUIDED,-35.363262,149.1652374,48735,0.0023161412682384253,0.001049129175953567,-0.12288013845682144,0.003758468898013234,0.001340043032541871,0.007314642891287804,0,0,-1000,4,2,7,-1,1,-152,90.0,90.0,1500.0
12:16:17.883,GUIDED,-35.363262,149.1652374,48735,0.0023161412682384253,0.001049129175953567,-0.12288013845682144,0.003758468898013234,0.001340043032541871,0.007314642891287804,0,0,-1000,4,2,7,-1,1,-152,90.0,90.0,1500.0
12:16:18.086,GUIDED,-35.363262,149.1652374,50682,0.0020340783521533012,0.0012286624405533075,-0.11633919179439545,-0.0019202010007575154,0.0009604201186448336,0.00990570429712534,0,0,-999,0,1,10,-1,1,-152,90.0,90.0,1500.0
12:16:18.288,GUIDED,-35.363262,149.1652374,51465,0.002221915405243635,0.0009974801214411855,-0.11396629363298416,0.001223565312102437,0.0009912655223160982,0.0057774740271270275,0,0,-1000,2,2,6,-1,1,-152,90.0,90.0,1500.0
12:16:18.491,LAND,-35.363262,149.1652373,51855,0.0023520009126514196,0.0009286016575060785,-0.11281651258468628,-0.0009021380683407187,-0.0005443213740363717,0.002626934554427862,0,0,-1000,0,0,2,-1,1,-152,90.0,90.0,1500.0
12:16:18.696,LAND,-35.363262,149.1652373,51855,0.0023520009126514196,0.0009286016575060785,-0.11281651258468628,-0.0009021380683407187,-0.0005443213740363717,0.002626934554427862,0,0,-1000,0,0,2,-1,1,-152,90.0,90.0,1500.0
12:16:18.899,LAND,-35.363262,149.1652373,51855,0.0023520009126514196,0.0009286016575060785,-0.11281651258468628,-0.0009021380683407187,-0.0005443213740363717,0.002626934554427862,0,0,-1000,0,0,2,-1,1,-152,90.0,90.0,1500.0
12:16:19.105,LAND,-35.363262,149.1652373,51855,0.0023520009126514196,0.0009286016575060785,-0.11281651258468628,-0.0009021380683407187,-0.0005443213740363717,0.002626934554427862,0,0,-1000,0,0,2,-1,1,-152,90.0,90.0,1500.0
12:16:19.309,LAND,-35.363262,149.1652373,51855,0.0023520009126514196,0.0009286016575060785,-0.11281651258468628,-0.0009021380683407187,-0.0005443213740363717,0.002626934554427862,0,0,-1000,0,0,2,-1,1,-152,90.0,90.0,1500.0
12:16:19.511,LAND,-35.363262,149.1652373,51855,0.0023520009126514196,0.0009286016575060785,-0.11281651258468628,-0.0009021380683407187,-0.0005443213740363717,0.002626934554427862,0,0,-1000,0,0,2,-1,1,-152,90.0,90.0,1500.0
12:16:19.714,LAND,-35.363262,149.1652373,51855,0.0023520009126514196,0.0009286016575060785,-0.11281651258468628,-0.0009021380683407187,-0.0005443213740363717,0.002626934554427862,0,0,-1000,0,0,2,-1,1,-152,90.0,90.0,1500.0
12:16:19.915,LAND,-35.363262,149.1652373,51855,0.0023520009126514196,0.0009286016575060785,-0.11281651258468628,-0.0009021380683407187,-0.0005443213740363717,0.002626934554427862,0,0,-1000,0,0,2,-1,1,-152,90.0,90.0,1500.0
12:16:20.118,LAND,-35.363262,149.1652373,53020,0.002241270849481225,0.0006754223722964525,-0.109628826379776,-0.00045097677502781153,0.0031170593574643135,0.006667593028396368,0,0,-999,0,4,7,-1,1,-152,90.0,90.0,1500.0
12:16:20.320,LAND,-35.363262,149.1652373,54933,-0.053670283406972885,0.06085760146379471,0.0368618480861187,-0.24648380279541016,0.21770675480365753,0.6995187997817993,-1,-1,-949,-120,118,249,-9,-6,-132,340.0,90.0,1500.0
12:16:20.524,LAND,-35.363262,149.1652373,54933,-0.053670283406972885,0.06085760146379471,0.0368618480861187,-0.24648380279541016,0.21770675480365753,0.6995187997817993,0,-1,-936,-245,218,699,-9,-6,-132,340.0,90.0,1500.0
12:16:20.726,LAND,-35.363262,149.1652373,54933,-0.053670283406972885,0.06085760146379471,0.0368618480861187,-0.24648380279541016,0.21770675480365753,0.6995187997817993,0,-1,-936,-245,218,699,-9,-6,-132,340.0,90.0,1500.0
12:16:20.931,LAND,-35.363262,149.1652373,54933,-0.053670283406972885,0.06085760146379471,0.0368618480861187,-0.24648380279541016,0.21770675480365753,0.6995187997817993,0,-1,-936,-245,218,699,-9,-6,-132,340.0,90.0,1500.0
12:16:21.133,LAND,-35.363262,149.1652373,54933,-0.053670283406972885,0.06085760146379471,0.0368618480861187,-0.24648380279541016,0.21770675480365753,0.6995187997817993,0,-1,-936,-245,218,699,-9,-6,-132,340.0,90.0,1500.0
12:16:21.336,LAND,-35.363262,149.1652373,54933,-0.053670283406972885,0.06085760146379471,0.0368618480861187,-0.24648380279541016,0.21770675480365753,0.6995187997817993,0,-1,-936,-245,218,699,-9,-6,-132,340.0,90.0,1500.0
12:16:21.538,LAND,-35.363262,149.1652373,54933,-0.053670283406972885,0.06085760146379471,0.0368618480861187,-0.24648380279541016,0.21770675480365753,0.6995187997817993,0,-1,-936,-245,218,699,-9,-6,-132,340.0,90.0,1500.0
12:16:21.740,LAND,-35.363262,149.1652373,54933,-0.053670283406972885,0.06085760146379471,0.0368618480861187,-0.24648380279541016,0.21770675480365753,0.6995187997817993,0,-1,-936,-245,218,699,-9,-6,-132,340.0,90.0,1500.0
12:16:21.943,LAND,-35.363262,149.1652373,54933,-0.053670283406972885,0.06085760146379471,0.0368618480861187,-0.24648380279541016,0.21770675480365753,0.6995187997817993,0,-1,-936,-245,218,699,-9,-6,-132,340.0,90.0,1500.0
12:16:22.145,LAND,-35.3632648,149.1652324,55716,0.029067624360322952,-0.05246974155306816,0.29045772552490234,-0.9789488911628723,0.03668713569641113,-0.0312044620513916,0,-30,-961,-977,37,-30,5,0,33,340.0,90.0,1500.0
12:16:22.348,LAND,-35.3632647,149.1652324,55620,0.026978204026818275,-0.04051033779978752,0.28108900785446167,-0.5923559665679932,0.0524306558072567,-0.029981153085827827,-1,-4,-958,-587,53,-29,13,11,43,340.0,90.0,1500.0
12:16:22.556,LAND,-35.3632647,149.1652324,55620,0.026978204026818275,-0.04051033779978752,0.28108900785446167,-0.5923559665679932,0.0524306558072567,-0.029981153085827827,-1,-4,-958,-587,53,-29,13,11,43,340.0,90.0,1500.0
12:16:22.777,LAND,-35.3632647,149.1652324,55620,0.026978204026818275,-0.04051033779978752,0.28108900785446167,-0.5923559665679932,0.0524306558072567,-0.029981153085827827,-1,-4,-958,-587,53,-29,13,11,43,340.0,90.0,1500.0
12:16:22.983,LAND,-35.3632647,149.1652324,55620,0.026978204026818275,-0.04051033779978752,0.28108900785446167,-0.5923559665679932,0.0524306558072567,-0.029981153085827827,-1,-4,-958,-587,53,-29,13,11,43,340.0,90.0,1500.0
12:16:23.186,LAND,-35.3632647,149.1652324,55620,0.026978204026818275,-0.04051033779978752,0.28108900785446167,-0.5923559665679932,0.0524306558072567,-0.029981153085827827,-1,-4,-958,-587,53,-29,13,11,43,340.0,90.0,1500.0
12:16:23.387,LAND,-35.3632647,149.1652324,55620,0.026978204026818275,-0.04051033779978752,0.28108900785446167,-0.5923559665679932,0.0524306558072567,-0.029981153085827827,-1,-4,-958,-587,53,-29,13,11,43,340.0,90.0,1500.0
12:16:23.589,LAND,-35.3632647,149.1652324,55620,0.026978204026818275,-0.04051033779978752,0.28108900785446167,-0.5923559665679932,0.0524306558072567,-0.029981153085827827,-1,-4,-958,-587,53,-29,13,11,43,340.0,90.0,1500.0
12:16:23.791,LAND,-35.3632647,149.1652324,55620,0.026978204026818275,-0.04051033779978752,0.28108900785446167,-0.5923559665679932,0.0524306558072567,-0.029981153085827827,-1,-4,-958,-587,53,-29,13,11,43,340.0,90.0,1500.0
12:16:23.996,LAND,-35.3632647,149.1652324,55620,0.026978204026818275,-0.04051033779978752,0.28108900785446167,-0.5923559665679932,0.0524306558072567,-0.029981153085827827,-1,-4,-958,-587,53,-29,13,11,43,340.0,90.0,1500.0
12:16:24.199,LAND,-35.363262,149.1652364,54512,-0.008249298669397831,0.013032169081270695,0.2247215360403061,-0.29569578170776367,0.016936933621764183,-0.01686169020831585,-1,31,-914,-286,17,-16,16,31,106,340.0,90.0,1500.0
12:16:24.400,LAND,-35.3632613,149.1652379,53792,-0.012586108408868313,0.019260721281170845,0.20995767414569855,-2.0098226070404053,0.0034868691582232714,-0.03293261677026749,-1,-90,-773,-2010,4,-32,11,24,182,480.0,90.0,1500.0
12:16:24.602,LAND,-35.3632613,149.1652379,53792,-0.012586108408868313,0.019260721281170845,0.20995767414569855,-2.0098226070404053,0.0034868691582232714,-0.03293261677026749,-1,-90,-773,-2010,4,-32,11,24,182,480.0,90.0,1500.0
12:16:24.805,LAND,-35.3632613,149.1652379,53792,-0.012586108408868313,0.019260721281170845,0.20995767414569855,-2.0098226070404053,0.0034868691582232714,-0.03293261677026749,-1,-90,-773,-2010,4,-32,11,24,182,480.0,90.0,1500.0
12:16:25.007,LAND,-35.3632613,149.1652379,53792,-0.012586108408868313,0.019260721281170845,0.20995767414569855,-2.0098226070404053,0.0034868691582232714,-0.03293261677026749,-1,-90,-773,-2010,4,-32,11,24,182,480.0,90.0,1500.0
12:16:25.209,LAND,-35.3632613,149.1652379,53792,-0.012586108408868313,0.019260721281170845,0.20995767414569855,-2.0098226070404053,0.0034868691582232714,-0.03293261677026749,-1,-90,-773,-2010,4,-32,11,24,182,480.0,90.0,1500.0
12:16:25.413,LAND,-35.3632613,149.1652379,53792,-0.012586108408868313,0.019260721281170845,0.20995767414569855,-2.0098226070404053,0.0034868691582232714,-0.03293261677026749,-1,-90,-773,-2010,4,-32,11,24,182,480.0,90.0,1500.0
12:16:25.618,LAND,-35.3632613,149.1652379,53792,-0.012586108408868313,0.019260721281170845,0.20995767414569855,-2.0098226070404053,0.0034868691582232714,-0.03293261677026749,-1,-90,-773,-2010,4,-32,11,24,182,480.0,90.0,1500.0
12:16:25.820,LAND,-35.3632613,149.1652379,53792,-0.012586108408868313,0.019260721281170845,0.20995767414569855,-2.0098226070404053,0.0034868691582232714,-0.03293261677026749,-1,-90,-773,-2010,4,-32,11,24,182,480.0,90.0,1500.0
12:16:26.024,LAND,-35.3632609,149.1652403,49139,-0.03188556432723999,0.0049470532685518265,0.1714278608560562,-1.9007960557937622,-0.0479438491165638,-0.002413702430203557,-1,-76,-1031,-1903,-46,-1,-3,8,364,480.0,90.0,1500.0
12:16:26.227,LAND,-35.363261,149.1652403,48200,-0.03470699116587639,0.0006844380986876786,0.16622638702392578,-1.5933266878128052,0.00518795195966959,-0.0071443673223257065,-5,-48,-1014,-1592,7,-6,-4,4,359,480.0,90.0,1500.0
12:16:26.430,LAND,-35.3632611,149.1652402,47274,-0.02697843126952648,-0.0009624636149965227,0.16392913460731506,-0.8708669543266296,0.050998665392398834,0.022299669682979584,-5,12,-1004,-863,52,23,-4,4,352,480.0,90.0,1500.0
12:16:26.641,LAND,-35.3632611,149.1652402,47274,-0.02697843126952648,-0.0009624636149965227,0.16392913460731506,-0.8708669543266296,0.050998665392398834,0.022299669682979584,-5,12,-1004,-863,52,23,-4,4,352,480.0,90.0,1500.0
12:16:26.853,LAND,-35.3632611,149.1652402,47274,-0.02697843126952648,-0.0009624636149965227,0.16392913460731506,-0.8708669543266296,0.050998665392398834,0.022299669682979584,-5,12,-1004,-863,52,23,-4,4,352,480.0,90.0,1500.0
12:16:27.067,LAND,-35.3632611,149.1652402,47274,-0.02697843126952648,-0.0009624636149965227,0.16392913460731506,-0.8708669543266296,0.050998665392398834,0.022299669682979584,-5,12,-1004,-863,52,23,-4,4,352,480.0,90.0,1500.0
12:16:27.270,LAND,-35.3632611,149.1652402,47274,-0.02697843126952648,-0.0009624636149965227,0.16392913460731506,-0.8708669543266296,0.050998665392398834,0.022299669682979584,-5,12,-1004,-863,52,23,-4,4,352,480.0,90.0,1500.0
12:16:27.474,LAND,-35.3632611,149.1652402,47274,-0.02697843126952648,-0.0009624636149965227,0.16392913460731506,-0.8708669543266296,0.050998665392398834,0.022299669682979584,-5,12,-1004,-863,52,23,-4,4,352,480.0,90.0,1500.0
12:16:27.676,LAND,-35.3632611,149.1652402,47274,-0.02697843126952648,-0.0009624636149965227,0.16392913460731506,-0.8708669543266296,0.050998665392398834,0.022299669682979584,-5,12,-1004,-863,52,23,-4,4,352,480.0,90.0,1500.0
12:16:27.879,LAND,-35.3632611,149.1652402,47274,-0.02697843126952648,-0.0009624636149965227,0.16392913460731506,-0.8708669543266296,0.050998665392398834,0.022299669682979584,-5,12,-1004,-863,52,23,-4,4,352,480.0,90.0,1500.0
12:16:28.082,LAND,-35.3632613,149.1652389,44581,0.003920887131243944,-0.0047290027141571045,0.14957855641841888,0.6536781787872314,0.10612800717353821,-0.039708420634269714,-6,82,-1023,665,107,-39,-3,1,336,480.0,90.0,1500.0
12:16:28.284,LAND,-35.3632616,149.165236,40414,0.0033237531315535307,-0.006383971776813269,0.14010286331176758,-0.8334752917289734,0.026681967079639435,-0.0645192563533783,-1,-4,-1708,-827,27,-64,-1,11,211,0.0,90.0,1500.0
12:16:28.488,LAND,-35.3632616,149.165236,40414,0.0033237531315535307,-0.006383971776813269,0.14010286331176758,-0.8334752917289734,0.026681967079639435,-0.0645192563533783,-1,-4,-1708,-827,27,-64,-1,11,211,0.0,90.0,1500.0
12:16:28.689,LAND,-35.3632616,149.165236,40414,0.0033237531315535307,-0.006383971776813269,0.14010286331176758,-0.8334752917289734,0.026681967079639435,-0.0645192563533783,-1,-4,-1708,-827,27,-64,-1,11,211,0.0,90.0,1500.0
12:16:28.891,LAND,-35.3632616,149.165236,40414,0.0033237531315535307,-0.006383971776813269,0.14010286331176758,-0.8334752917289734,0.026681967079639435,-0.0645192563533783,-1,-4,-1708,-827,27,-64,-1,11,211,0.0,90.0,1500.0
12:16:29.093,LAND,-35.3632616,149.165236,40414,0.0033237531315535307,-0.006383971776813269,0.14010286331176758,-0.8334752917289734,0.026681967079639435,-0.0645192563533783,-1,-4,-1708,-827,27,-64,-1,11,211,0.0,90.0,1500.0
12:16:29.294,LAND,-35.3632616,149.165236,40414,0.0033237531315535307,-0.006383971776813269,0.14010286331176758,-0.8334752917289734,0.026681967079639435,-0.0645192563533783,-1,-4,-1708,-827,27,-64,-1,11,211,0.0,90.0,1500.0
12:16:29.496,LAND,-35.3632616,149.165236,40414,0.0033237531315535307,-0.006383971776813269,0.14010286331176758,-0.8334752917289734,0.026681967079639435,-0.0645192563533783,-1,-4,-1708,-827,27,-64,-1,11,211,0.0,90.0,1500.0
12:16:29.700,LAND,-35.3632616,149.165236,40414,0.0033237531315535307,-0.006383971776813269,0.14010286331176758,-0.8334752917289734,0.026681967079639435,-0.0645192563533783,-1,-4,-1708,-827,27,-64,-1,11,211,0.0,90.0,1500.0
12:16:29.905,LAND,-35.3632616,149.165236,40414,0.0033237531315535307,-0.006383971776813269,0.14010286331176758,-0.8334752917289734,0.026681967079639435,-0.0645192563533783,-1,-4,-1708,-827,27,-64,-1,11,211,0.0,90.0,1500.0
12:16:30.106,LAND,-35.3632616,149.165236,40414,0.0033237531315535307,-0.006383971776813269,0.14010286331176758,-0.8334752917289734,0.026681967079639435,-0.0645192563533783,-1,-4,-1708,-827,27,-64,-1,11,211,0.0,90.0,1500.0
12:16:30.313,LAND,-35.3632618,149.1652352,39946,0.01633215695619583,0.0005406206473708153,0.09780970960855484,0.8422713875770569,0.006844669580459595,-0.006924524903297424,3,39,-958,733,6,-11,1,22,24,0.0,90.0,1500.0
12:16:30.522,LAND,-35.3632618,149.1652352,39946,0.01633215695619583,0.0005406206473708153,0.09780970960855484,0.8422713875770569,0.006844669580459595,-0.006924524903297424,5,33,-940,844,7,-6,1,22,24,0.0,90.0,1500.0
12:16:30.753,LAND,-35.3632618,149.1652352,39946,0.01633215695619583,0.0005406206473708153,0.09780970960855484,0.8422713875770569,0.006844669580459595,-0.006924524903297424,5,33,-940,844,7,-6,1,22,24,0.0,90.0,1500.0
12:16:30.972,LAND,-35.3632618,149.1652352,39946,0.01633215695619583,0.0005406206473708153,0.09780970960855484,0.8422713875770569,0.006844669580459595,-0.006924524903297424,5,33,-940,844,7,-6,1,22,24,0.0,90.0,1500.0
12:16:31.175,LAND,-35.3632618,149.1652352,39946,0.01633215695619583,0.0005406206473708153,0.09780970960855484,0.8422713875770569,0.006844669580459595,-0.006924524903297424,5,33,-940,844,7,-6,1,22,24,0.0,90.0,1500.0
12:16:31.387,LAND,-35.3632618,149.1652352,39946,0.01633215695619583,0.0005406206473708153,0.09780970960855484,0.8422713875770569,0.006844669580459595,-0.006924524903297424,5,33,-940,844,7,-6,1,22,24,0.0,90.0,1500.0
12:16:31.591,LAND,-35.3632618,149.1652352,39946,0.01633215695619583,0.0005406206473708153,0.09780970960855484,0.8422713875770569,0.006844669580459595,-0.006924524903297424,5,33,-940,844,7,-6,1,22,24,0.0,90.0,1500.0
12:16:31.796,LAND,-35.3632618,149.1652352,39946,0.01633215695619583,0.0005406206473708153,0.09780970960855484,0.8422713875770569,0.006844669580459595,-0.006924524903297424,5,33,-940,844,7,-6,1,22,24,0.0,90.0,1500.0
12:16:31.998,LAND,-35.3632618,149.1652352,39946,0.01633215695619583,0.0005406206473708153,0.09780970960855484,0.8422713875770569,0.006844669580459595,-0.006924524903297424,5,33,-940,844,7,-6,1,22,24,0.0,90.0,1500.0
12:16:32.205,LAND,-35.3632622,149.1652383,39110,-0.02591104805469513,9.478547144681215e-05,0.07804745435714722,-0.96640944480896,-0.006038895808160305,-0.016234584152698517,3,-63,-958,-938,-8,-14,3,0,57,0.0,90.0,1500.0
12:16:32.407,LAND,-35.3632623,149.1652386,38960,-0.034048546105623245,-0.0009294956689700484,0.07539688050746918,-1.2243497371673584,-0.006305536720901728,-0.011500905267894268,2,-40,-913,-1221,-5,-11,3,-1,67,350.0,90.0,1500.0
12:16:32.610,LAND,-35.3632623,149.1652386,38960,-0.034048546105623245,-0.0009294956689700484,0.07539688050746918,-1.2243497371673584,-0.006305536720901728,-0.011500905267894268,2,-40,-913,-1221,-5,-11,3,-1,67,350.0,90.0,1500.0
12:16:32.816,LAND,-35.3632623,149.1652386,38960,-0.034048546105623245,-0.0009294956689700484,0.07539688050746918,-1.2243497371673584,-0.006305536720901728,-0.011500905267894268,2,-40,-913,-1221,-5,-11,3,-1,67,350.0,90.0,1500.0
