time_stamp,MODE,lat,lon,relative_alt,roll,pitch,yaw,rollspeed,pitchspeed,yawspeed,xacc,yacc,zacc,xgyro,ygyro,zgyro,vx,vy,vz,RTL_ALT
23:22:49.743,STABILIZE,-35.3632622,149.1652376,0,-0.00042483260040171444,0.0013898235047236085,0.026387302204966545,0.00013277158723212779,0.00022258004173636436,0.002063422929495573,0,1,-1000,0,0,0,-2,2,1,1500.0
23:22:49.956,STABILIZE,-35.3632622,149.1652376,0,-0.00042483260040171444,0.0013898235047236085,0.026387302204966545,0.00013277158723212779,0.00022258004173636436,0.002063422929495573,0,1,-1000,0,0,0,-2,2,1,1500.0
23:22:50.157,STABILIZE,-35.3632622,149.1652376,0,-0.00042483260040171444,0.0013898235047236085,0.026387302204966545,0.00013277158723212779,0.00022258004173636436,0.002063422929495573,0,1,-1000,0,0,0,-2,2,1,1500.0
23:22:50.359,STABILIZE,-35.3632622,149.1652376,0,-0.00042483260040171444,0.0013898235047236085,0.026387302204966545,0.00013277158723212779,0.00022258004173636436,0.002063422929495573,0,1,-1000,0,0,0,-2,2,1,1500.0
23:22:50.560,STABILIZE,-35.3632622,149.1652376,0,-0.00042483260040171444,0.0013898235047236085,0.026387302204966545,0.00013277158723212779,0.00022258004173636436,0.002063422929495573,0,1,-1000,0,0,0,-2,2,1,1500.0
23:22:50.761,STABILIZE,-35.3632622,149.1652376,0,-0.00042483260040171444,0.0013898235047236085,0.026387302204966545,0.00013277158723212779,0.00022258004173636436,0.002063422929495573,0,1,-1000,0,0,0,-2,2,1,1500.0
23:22:50.962,STABILIZE,-35.3632622,149.1652376,0,-0.00042483260040171444,0.0013898235047236085,0.026387302204966545,0.00013277158723212779,0.00022258004173636436,0.002063422929495573,0,1,-1000,0,0,0,-2,2,1,1500.0
23:22:51.163,STABILIZE,-35.3632622,149.1652376,0,-0.00042483260040171444,0.0013898235047236085,0.026387302204966545,0.00013277158723212779,0.00022258004173636436,0.002063422929495573,0,1,-1000,0,0,0,-2,2,1,1500.0
23:22:51.365,STABILIZE,-35.3632622,149.1652376,0,-0.00042483260040171444,0.0013898235047236085,0.026387302204966545,0.00013277158723212779,0.00022258004173636436,0.002063422929495573,0,1,-1000,0,0,0,-2,2,1,1500.0
23:22:51.566,STABILIZE,-35.3632622,149.1652375,0,-0.0011215473059564829,0.0010598538210615516,0.02549012377858162,0.00025696679949760437,0.0003852618974633515,0.0021597028244286776,0,1,-1000,0,0,0,-1,0,1,1500.0
23:22:51.767,STABILIZE,-35.3632622,149.1652375,0,-0.0011215473059564829,0.0010598538210615516,0.02549012377858162,0.00025696679949760437,0.0003852618974633515,0.0021597028244286776,0,1,-1000,0,0,0,-1,0,1,1500.0
23:22:51.968,STABILIZE,-35.3632622,149.1652375,0,-0.0011215473059564829,0.0010598538210615516,0.02549012377858162,0.00025696679949760437,0.0003852618974633515,0.0021597028244286776,0,1,-1000,0,0,0,-1,0,1,1500.0
23:22:52.170,STABILIZE,-35.3632622,149.1652375,0,-0.0011215473059564829,0.0010598538210615516,0.02549012377858162,0.00025696679949760437,0.0003852618974633515,0.0021597028244286776,0,1,-1000,0,0,0,-1,0,1,1500.0
23:22:52.371,STABILIZE,-35.3632622,149.1652375,0,-0.0011215473059564829,0.0010598538210615516,0.02549012377858162,0.00025696679949760437,0.0003852618974633515,0.0021597028244286776,0,1,-1000,0,0,0,-1,0,1,1500.0
23:22:52.572,STABILIZE,-35.3632621,149.1652375,0,-0.00101070839446038,0.0009836392709985375,0.025129450485110283,0.00028778042178601027,0.00019037933088839054,0.001879382412880659,0,1,-1000,0,0,0,-1,0,0,1500.0
23:22:52.773,STABILIZE,-35.3632621,149.1652375,0,-0.00101070839446038,0.0009836392709985375,0.025129450485110283,0.00028778042178601027,0.00019037933088839054,0.001879382412880659,0,1,-1000,0,0,0,-1,0,0,1500.0
23:22:52.975,STABILIZE,-35.3632621,149.1652375,0,-0.00101070839446038,0.0009836392709985375,0.025129450485110283,0.00028778042178601027,0.00019037933088839054,0.001879382412880659,0,1,-1000,0,0,0,-1,0,0,1500.0
23:22:53.176,STABILIZE,-35.3632621,149.1652375,0,-0.00101070839446038,0.0009836392709985375,0.025129450485110283,0.00028778042178601027,0.00019037933088839054,0.001879382412880659,0,1,-1000,0,0,0,-1,0,0,1500.0
23:22:53.377,STABILIZE,-35.3632621,149.1652375,0,-0.0009646879625506699,0.0009499085135757923,0.02488710545003414,0.00021866813767701387,0.00035500945523381233,0.0019353367388248444,0,1,-1000,0,0,0,-1,0,0,1500.0
23:22:53.578,STABILIZE,-35.3632621,149.1652375,0,-0.000961737590841949,0.0009462023735977709,0.024813899770379066,0.00015335361240431666,0.0001772064424585551,0.00187661312520504,0,1,-1000,0,0,0,-1,0,0,1500.0
23:22:53.780,STABILIZE,-35.3632621,149.1652375,0,-0.000961737590841949,0.0009462023735977709,0.024813899770379066,0.00015335361240431666,0.0001772064424585551,0.00187661312520504,0,1,-1000,0,0,0,-1,0,0,1500.0
23:22:53.981,STABILIZE,-35.3632621,149.1652375,0,-0.000961737590841949,0.0009462023735977709,0.024813899770379066,0.00015335361240431666,0.0001772064424585551,0.00187661312520504,0,1,-1000,0,0,0,-1,0,0,1500.0
23:22:54.183,STABILIZE,-35.3632621,149.1652375,0,-0.000961737590841949,0.0009462023735977709,0.024813899770379066,0.00015335361240431666,0.0001772064424585551,0.00187661312520504,0,1,-1000,0,0,0,-1,0,0,1500.0
23:22:54.384,STABILIZE,-35.3632621,149.1652375,0,-0.000961737590841949,0.0009462023735977709,0.024813899770379066,0.00015335361240431666,0.0001772064424585551,0.00187661312520504,0,1,-1000,0,0,0,-1,0,0,1500.0
23:22:54.586,STABILIZE,-35.3632621,149.1652375,0,-0.0009422842413187027,0.0009295522468164563,0.024464037269353867,0.00023985881125554442,0.00021298875799402595,0.001865886035375297,0,1,-1000,1,0,0,-1,0,0,1500.0
23:22:54.786,STABILIZE,-35.3632621,149.1652375,0,-0.0009388827020302415,0.0009268803987652063,0.024376191198825836,0.00026856199838221073,0.00020324497018009424,0.0018270207801833749,0,1,-1000,0,0,0,-1,0,0,1500.0
23:22:54.988,STABILIZE,-35.3632621,149.1652375,0,-0.0009388827020302415,0.0009268803987652063,0.024376191198825836,0.00026856199838221073,0.00020324497018009424,0.0018270207801833749,0,1,-1000,0,0,0,-1,0,0,1500.0
23:22:55.189,STABILIZE,-35.3632621,149.1652375,0,-0.0009392076754011214,0.0009178886539302766,0.024283166974782944,0.00012178963515907526,0.000203037285245955,0.0019452923443168402,0,1,-1000,0,0,0,-1,0,0,1500.0
23:22:55.390,STABILIZE,-35.3632621,149.1652375,0,-0.000608071917667985,0.0009238093043677509,0.024208249524235725,0.00025199231458827853,0.00021319033112376928,0.0017674670089036226,0,0,-1002,0,0,0,-1,2,1,1500.0
23:22:55.592,STABILIZE,-35.3632621,149.1652375,0,-0.000608071917667985,0.0009238093043677509,0.024208249524235725,0.00025199231458827853,0.00021319033112376928,0.0017674670089036226,0,0,-1002,0,0,0,-1,2,1,1500.0
23:22:55.793,STABILIZE,-35.3632621,149.1652375,0,-0.000608071917667985,0.0009238093043677509,0.024208249524235725,0.00025199231458827853,0.00021319033112376928,0.0017674670089036226,0,0,-1002,0,0,0,-1,2,1,1500.0
23:22:55.994,STABILIZE,-35.3632621,149.1652375,0,-0.000608071917667985,0.0009238093043677509,0.024208249524235725,0.00025199231458827853,0.00021319033112376928,0.0017674670089036226,0,0,-1002,0,0,0,-1,2,1,1500.0
23:22:56.196,STABILIZE,-35.3632621,149.1652375,0,-0.000608071917667985,0.0009238093043677509,0.024208249524235725,0.00025199231458827853,0.00021319033112376928,0.0017674670089036226,0,0,-1002,0,0,0,-1,2,1,1500.0
23:22:56.397,STABILIZE,-35.3632621,149.1652375,0,-0.000608071917667985,0.0009238093043677509,0.024208249524235725,0.00025199231458827853,0.00021319033112376928,0.0017674670089036226,0,0,-1002,0,0,0,-1,2,1,1500.0
23:22:56.598,STABILIZE,-35.3632621,149.1652375,0,-0.0007425568765029311,0.0009348792373202741,0.02371741086244583,0.00023131532361730933,0.00023827533004805446,0.0016800191951915622,0,1,-1000,0,0,0,-1,1,1,1500.0
23:22:56.799,STABILIZE,-35.3632621,149.1652375,0,-0.0007425568765029311,0.0009348792373202741,0.02371741086244583,0.00023131532361730933,0.00023827533004805446,0.0016800191951915622,0,1,-1000,0,0,0,-1,1,1,1500.0
23:22:57.001,STABILIZE,-35.3632621,149.1652375,0,-0.0008167338091880083,0.0009285722044296563,0.023549344390630722,0.00016121211228892207,0.0003529809764586389,0.0016525422688573599,0,1,-1000,0,0,0,-1,1,1,1500.0
23:22:57.202,STABILIZE,-35.3632621,149.1652375,0,-0.0008167338091880083,0.0009285722044296563,0.023549344390630722,0.00016121211228892207,0.0003529809764586389,0.0016525422688573599,0,1,-1000,0,0,0,-1,1,1,1500.0
23:22:57.403,STABILIZE,-35.3632621,149.1652375,0,-0.0008167338091880083,0.0009285722044296563,0.023549344390630722,0.00016121211228892207,0.0003529809764586389,0.0016525422688573599,0,1,-1000,0,0,0,-1,1,1,1500.0
23:22:57.605,STABILIZE,-35.3632621,149.1652375,0,-0.0008167338091880083,0.0009285722044296563,0.023549344390630722,0.00016121211228892207,0.0003529809764586389,0.0016525422688573599,0,1,-1000,0,0,0,-1,1,1,1500.0
23:22:57.806,STABILIZE,-35.3632621,149.1652375,0,-0.0008167338091880083,0.0009285722044296563,0.023549344390630722,0.00016121211228892207,0.0003529809764586389,0.0016525422688573599,0,1,-1000,0,0,0,-1,1,1,1500.0
23:22:58.007,STABILIZE,-35.3632621,149.1652375,0,-0.0008167338091880083,0.0009285722044296563,0.023549344390630722,0.00016121211228892207,0.0003529809764586389,0.0016525422688573599,0,1,-1000,0,0,0,-1,1,1,1500.0
23:22:58.208,STABILIZE,-35.3632621,149.1652375,0,-0.0008167338091880083,0.0009285722044296563,0.023549344390630722,0.00016121211228892207,0.0003529809764586389,0.0016525422688573599,0,1,-1000,0,0,0,-1,1,1,1500.0
23:22:58.409,STABILIZE,-35.3632621,149.1652375,0,-0.0008167338091880083,0.0009285722044296563,0.023549344390630722,0.00016121211228892207,0.0003529809764586389,0.0016525422688573599,0,1,-1000,0,0,0,-1,1,1,1500.0
23:22:58.611,STABILIZE,-35.3632621,149.1652375,0,-0.0008167338091880083,0.0009285722044296563,0.023549344390630722,0.00016121211228892207,0.0003529809764586389,0.0016525422688573599,0,1,-1000,0,0,0,-1,1,1,1500.0
23:22:58.812,STABILIZE,-35.3632621,149.1652375,0,-0.0008167338091880083,0.0009285722044296563,0.023549344390630722,0.00016121211228892207,0.0003529809764586389,0.0016525422688573599,0,1,-1000,0,0,0,-1,1,1,1500.0
23:22:59.013,STABILIZE,-35.3632621,149.1652375,0,-0.0008167338091880083,0.0009285722044296563,0.023549344390630722,0.00016121211228892207,0.0003529809764586389,0.0016525422688573599,0,1,-1000,0,0,0,-1,1,1,1500.0
23:22:59.214,STABILIZE,-35.3632621,149.1652375,0,-0.0008167338091880083,0.0009285722044296563,0.023549344390630722,0.00016121211228892207,0.0003529809764586389,0.0016525422688573599,0,1,-1000,0,0,0,-1,1,1,1500.0
23:22:59.415,STABILIZE,-35.3632621,149.1652375,0,-0.0008167338091880083,0.0009285722044296563,0.023549344390630722,0.00016121211228892207,0.0003529809764586389,0.0016525422688573599,0,1,-1000,0,0,0,-1,1,1,1500.0
23:22:59.616,STABILIZE,-35.3632621,149.1652375,0,-0.0008167338091880083,0.0009285722044296563,0.023549344390630722,0.00016121211228892207,0.0003529809764586389,0.0016525422688573599,0,1,-1000,0,0,0,-1,1,1,1500.0
23:22:59.818,STABILIZE,-35.3632621,149.1652375,0,-0.0008167338091880083,0.0009285722044296563,0.023549344390630722,0.00016121211228892207,0.0003529809764586389,0.0016525422688573599,0,1,-1000,0,0,0,-1,1,1,1500.0
23:23:00.019,STABILIZE,-35.3632621,149.1652375,0,-0.0008167338091880083,0.0009285722044296563,0.023549344390630722,0.00016121211228892207,0.0003529809764586389,0.0016525422688573599,0,1,-1000,0,0,0,-1,1,1,1500.0
23:23:00.220,STABILIZE,-35.3632621,149.1652375,0,-0.0008167338091880083,0.0009285722044296563,0.023549344390630722,0.00016121211228892207,0.0003529809764586389,0.0016525422688573599,0,1,-1000,0,0,0,-1,1,1,1500.0
23:23:00.421,STABILIZE,-35.3632621,149.1652375,0,-0.0008167338091880083,0.0009285722044296563,0.023549344390630722,0.00016121211228892207,0.0003529809764586389,0.0016525422688573599,0,1,-1000,0,0,0,-1,1,1,1500.0
23:23:00.622,STABILIZE,-35.3632621,149.1652375,0,-0.0008167338091880083,0.0009285722044296563,0.023549344390630722,0.00016121211228892207,0.0003529809764586389,0.0016525422688573599,0,1,-1000,0,0,0,-1,1,1,1500.0
23:23:00.824,STABILIZE,-35.3632622,149.1652375,0,-0.0011105418670922518,0.0009620655328035355,0.02249949984252453,0.00024602573830634356,0.00028124969685450196,0.0017089694738388062,0,1,-1000,0,1,0,-1,1,0,1500.0
23:23:01.025,STABILIZE,-35.3632622,149.1652375,0,-0.0011136424727737904,0.0009632679866626859,0.022449756041169167,0.0003170359996147454,0.00027905928436666727,0.001601681113243103,0,1,-1000,1,0,0,-1,1,0,1500.0
23:23:01.226,STABILIZE,-35.3632622,149.1652375,0,-0.0011136424727737904,0.0009632679866626859,0.022449756041169167,0.0003170359996147454,0.00027905928436666727,0.001601681113243103,0,1,-1000,1,0,0,-1,1,0,1500.0
23:23:01.427,STABILIZE,-35.3632622,149.1652375,0,-0.0011136424727737904,0.0009632679866626859,0.022449756041169167,0.0003170359996147454,0.00027905928436666727,0.001601681113243103,0,1,-1000,1,0,0,-1,1,0,1500.0
23:23:01.628,STABILIZE,-35.3632622,149.1652375,0,-0.0011178423883393407,0.0009666215628385544,0.022332074120640755,0.0001765587949194014,0.00030614458955824375,0.0015619941987097263,0,1,-1000,1,0,0,-1,1,0,1500.0
23:23:01.830,STABILIZE,-35.3632622,149.1652375,0,-0.0011178423883393407,0.0009666215628385544,0.022332074120640755,0.0001765587949194014,0.00030614458955824375,0.0015619941987097263,0,1,-1000,1,0,0,-1,1,0,1500.0
23:23:02.031,STABILIZE,-35.3632622,149.1652375,0,-0.0011178423883393407,0.0009666215628385544,0.022332074120640755,0.0001765587949194014,0.00030614458955824375,0.0015619941987097263,0,1,-1000,1,0,0,-1,1,0,1500.0
23:23:02.232,STABILIZE,-35.3632622,149.1652375,0,-0.0011178423883393407,0.0009666215628385544,0.022332074120640755,0.0001765587949194014,0.00030614458955824375,0.0015619941987097263,0,1,-1000,1,0,0,-1,1,0,1500.0
23:23:02.434,STABILIZE,-35.3632622,149.1652375,0,-0.0007952307933010161,0.0009858451085165143,0.022163622081279755,0.00012760463869199157,0.0002851021126843989,0.0015438501723110676,0,2,-1000,1,1,0,-1,3,2,1500.0
23:23:02.635,STABILIZE,-35.3632622,149.1652375,0,-0.0008396483026444912,0.0009888153290376067,0.022087223827838898,0.0001318755093961954,0.00027835305081680417,0.0015194641891866922,0,2,-1000,1,1,0,-1,3,2,1500.0
23:23:02.836,STABILIZE,-35.3632622,149.1652375,0,-0.0008396483026444912,0.0009888153290376067,0.022087223827838898,0.0001318755093961954,0.00027835305081680417,0.0015194641891866922,0,2,-1000,1,1,0,-1,3,2,1500.0
23:23:03.037,STABILIZE,-35.3632622,149.1652375,0,-0.0009671135921962559,0.000984877347946167,0.021972864866256714,0.000301685300655663,0.0001677986583672464,0.0015914745163172483,0,2,-1000,1,1,0,-1,2,2,1500.0
23:23:03.239,STABILIZE,-35.3632622,149.1652375,0,-0.0009671135921962559,0.000984877347946167,0.021972864866256714,0.000301685300655663,0.0001677986583672464,0.0015914745163172483,0,2,-1000,1,1,0,-1,2,2,1500.0
23:23:03.440,STABILIZE,-35.3632622,149.1652375,0,-0.0009671135921962559,0.000984877347946167,0.021972864866256714,0.000301685300655663,0.0001677986583672464,0.0015914745163172483,0,2,-1000,1,1,0,-1,2,2,1500.0
23:23:03.641,STABILIZE,-35.3632622,149.1652375,0,-0.0009671135921962559,0.000984877347946167,0.021972864866256714,0.000301685300655663,0.0001677986583672464,0.0015914745163172483,0,2,-1000,1,1,0,-1,2,2,1500.0
23:23:03.842,STABILIZE,-35.3632622,149.1652375,0,-0.0009671135921962559,0.000984877347946167,0.021972864866256714,0.000301685300655663,0.0001677986583672464,0.0015914745163172483,0,2,-1000,1,1,0,-1,2,2,1500.0
23:23:04.044,STABILIZE,-35.3632622,149.1652375,0,-0.0009671135921962559,0.000984877347946167,0.021972864866256714,0.000301685300655663,0.0001677986583672464,0.0015914745163172483,0,2,-1000,1,1,0,-1,2,2,1500.0
23:23:04.251,STABILIZE,-35.3632622,149.1652375,0,-0.0009671135921962559,0.000984877347946167,0.021972864866256714,0.000301685300655663,0.0001677986583672464,0.0015914745163172483,0,2,-1000,1,1,0,-1,2,2,1500.0
23:23:04.452,STABILIZE,-35.3632622,149.1652375,0,-0.0012052495731040835,0.000994888599961996,0.021708035841584206,0.00030843273270875216,0.00019559822976589203,0.0015038911951705813,0,2,-1000,1,1,1,-1,1,1,1500.0
23:23:04.654,STABILIZE,-35.3632622,149.1652375,0,-0.0012345858849585056,0.000999891897663474,0.021658319979906082,0.0002492799540050328,0.0002922058920376003,0.001468114322051406,0,1,-1000,0,0,1,-1,1,1,1500.0
23:23:04.855,STABILIZE,-35.3632622,149.1652375,0,-0.0012345858849585056,0.000999891897663474,0.021658319979906082,0.0002492799540050328,0.0002922058920376003,0.001468114322051406,0,2,-1000,0,0,1,-1,1,1,1500.0
23:23:05.057,STABILIZE,-35.3632622,149.1652375,0,-0.0012345858849585056,0.000999891897663474,0.021658319979906082,0.0002492799540050328,0.0002922058920376003,0.001468114322051406,0,2,-1000,0,0,1,-1,1,1,1500.0
23:23:05.258,STABILIZE,-35.3632622,149.1652375,0,-0.0012997303856536746,0.0009999526664614677,0.021515270695090294,0.00017770304111763835,0.00015170825645327568,0.0014044310664758086,0,1,-1000,0,0,1,-1,1,0,1500.0
23:23:05.459,STABILIZE,-35.3632622,149.1652375,0,-0.0012997303856536746,0.0009999526664614677,0.021515270695090294,0.00017770304111763835,0.00015170825645327568,0.0014044310664758086,0,1,-1000,0,0,1,-1,1,0,1500.0
23:23:05.660,STABILIZE,-35.3632622,149.1652375,0,-0.0012997303856536746,0.0009999526664614677,0.021515270695090294,0.00017770304111763835,0.00015170825645327568,0.0014044310664758086,0,1,-1000,0,0,1,-1,1,0,1500.0
23:23:05.862,STABILIZE,-35.3632622,149.1652375,0,-0.0012997303856536746,0.0009999526664614677,0.021515270695090294,0.00017770304111763835,0.00015170825645327568,0.0014044310664758086,0,1,-1000,0,0,1,-1,1,0,1500.0
23:23:06.063,STABILIZE,-35.3632622,149.1652375,0,-0.0012997303856536746,0.0009999526664614677,0.021515270695090294,0.00017770304111763835,0.00015170825645327568,0.0014044310664758086,0,1,-1000,0,0,1,-1,1,0,1500.0
23:23:06.265,STABILIZE,-35.3632622,149.1652375,0,-0.0013375955168157816,0.0009813871001824737,0.021387018263339996,0.0003266125568188727,0.0001561250537633896,0.0015990070533007383,0,1,-1000,0,0,0,-1,0,0,1500.0
23:23:06.466,STABILIZE,-35.3632622,149.1652375,0,-0.0013375955168157816,0.0009813871001824737,0.021387018263339996,0.0003266125568188727,0.0001561250537633896,0.0015990070533007383,0,1,-1000,0,0,0,-1,0,0,1500.0
23:23:06.667,STABILIZE,-35.3632622,149.1652375,0,-0.0013375955168157816,0.0009813871001824737,0.021387018263339996,0.0003266125568188727,0.0001561250537633896,0.0015990070533007383,0,1,-1000,0,0,0,-1,0,0,1500.0
23:23:06.869,STABILIZE,-35.3632622,149.1652375,0,-0.0013354809489101171,0.000974551250692457,0.021318791434168816,0.00029043707763776183,0.00014344352530315518,0.0014326985692605376,0,1,-1000,1,1,1,-1,0,0,1500.0
23:23:07.071,AUTO,-35.3632622,149.1652375,0,-0.0013319446006789804,0.0009753191261552274,0.02129226364195347,0.00024363340344280005,0.00028284796280786395,0.0013677326496690512,0,2,-1000,1,0,1,-1,0,0,1500.0
23:23:07.273,AUTO,-35.3632622,149.1652375,6,-0.0013174893101677299,0.0009798543760553002,0.02126982808113098,0.0002748657134361565,0.0003224253305234015,0.00139717198908329,0,1,-1000,0,1,0,-1,0,0,1500.0
23:23:07.474,AUTO,-35.3632622,149.1652375,6,-0.0013174893101677299,0.0009798543760553002,0.02126982808113098,0.0002748657134361565,0.0003224253305234015,0.00139717198908329,0,1,-1000,0,1,0,-1,0,0,1500.0
23:23:07.676,AUTO,-35.3632622,149.1652375,7,-0.0012971889227628708,0.000990191474556923,0.021244678646326065,0.0002561015426181257,0.00030222261557355523,0.001426119008101523,0,1,-1000,0,0,0,-1,0,0,1500.0
23:23:07.878,AUTO,-35.3632622,149.1652375,7,-0.0012971889227628708,0.000990191474556923,0.021244678646326065,0.0002561015426181257,0.00030222261557355523,0.001426119008101523,0,1,-1000,0,0,0,-1,0,0,1500.0
23:23:08.098,AUTO,-35.3632622,149.1652375,7,-0.0012971889227628708,0.000990191474556923,0.021244678646326065,0.0002561015426181257,0.00030222261557355523,0.001426119008101523,0,1,-1000,0,0,0,-1,0,0,1500.0
23:23:08.305,AUTO,-35.3632621,149.1652375,8,-0.0012004669988527894,0.0010439757024869323,0.021144932135939598,0.00035129045136272907,0.00027118343859910965,0.001369532197713852,0,1,-1000,1,1,0,0,0,0,1500.0
23:23:08.538,AUTO,-35.3632621,149.1652375,8,-0.0011676320573315024,0.0010923726949840784,0.02110561914741993,0.0002131895744241774,0.0002526362659409642,0.0013542717788368464,0,1,-1000,1,0,0,0,0,0,1500.0
23:23:08.817,AUTO,-35.3632621,149.1652375,9,-0.0011260935571044683,0.001149145420640707,0.021068602800369263,0.0001567384460940957,0.00036596698919311166,0.001434381934814155,0,1,-1000,1,0,0,0,0,0,1500.0
23:23:09.110,AUTO,-35.3632621,149.1652375,9,-0.0010774319525808096,0.0012091489043086767,0.02101598121225834,0.0001862143399193883,0.00028059363830834627,0.0013556430349126458,0,2,-1000,1,1,0,0,0,0,1500.0
23:23:09.314,AUTO,-35.3632621,149.1652375,10,-0.001021076343022287,0.0012756373034790158,0.02096903696656227,0.00014099793042987585,0.0003477819846011698,0.001335534150712192,0,1,-1000,0,1,0,0,0,0,1500.0
23:23:09.516,AUTO,-35.3632621,149.1652375,10,-0.0009664628305472434,0.0013453951105475426,0.02093413658440113,0.000251486140768975,0.00021412689238786697,0.001426222501322627,0,1,-1000,0,0,1,0,0,0,1500.0
23:23:09.718,AUTO,-35.3632621,149.1652375,10,-0.0009664628305472434,0.0013453951105475426,0.02093413658440113,0.000251486140768975,0.00021412689238786697,0.001426222501322627,0,1,-1000,0,0,1,0,0,0,1500.0
23:23:09.920,AUTO,-35.3632621,149.1652375,10,-0.0009664628305472434,0.0013453951105475426,0.02093413658440113,0.000251486140768975,0.00021412689238786697,0.001426222501322627,0,1,-1000,0,0,1,0,0,0,34225.0
23:23:10.122,AUTO,-35.3632621,149.1652375,10,-0.0009664628305472434,0.0013453951105475426,0.02093413658440113,0.000251486140768975,0.00021412689238786697,0.001426222501322627,0,1,-1000,0,0,1,0,0,0,34225.0
23:23:10.324,AUTO,-35.3632621,149.1652375,12,-0.0007937455666251481,0.0015663374215364456,0.020803648978471756,0.0003440591972321272,0.0002178202848881483,0.0013801280874758959,0,1,-1000,1,0,1,0,0,0,34225.0
23:23:10.525,AUTO,-35.3632621,149.1652375,13,-0.0007255316013470292,0.0016420097090303898,0.02075439691543579,0.00041866651736199856,0.0003851789515465498,0.0012869295896962285,0,1,-1000,1,1,0,0,0,0,34225.0
23:23:10.726,AUTO,-35.3632621,149.1652375,13,-0.0007255316013470292,0.0016420097090303898,0.02075439691543579,0.00041866651736199856,0.0003851789515465498,0.0012869295896962285,0,1,-1000,1,1,0,0,0,0,34225.0
23:23:10.928,AUTO,-35.3632621,149.1652375,13,-0.0006527613149955869,0.0017164060845971107,0.020694052800536156,0.000291388772893697,0.0003599736373871565,0.0013118484057486057,0,1,-1000,0,1,1,0,0,0,34225.0
23:23:11.129,AUTO,-35.3632621,149.1652375,15,0.0005365002434700727,0.0011531878262758255,0.0207588542252779,0.008265946991741657,-0.010602999478578568,0.003375394269824028,0,0,-1085,9,-10,2,0,0,-5,34225.0
23:23:11.331,AUTO,-35.3632621,149.1652375,71,0.0032168878242373466,-0.0005069301114417613,0.020698631182312965,0.004216859582811594,-0.001028569764457643,0.0016490139532834291,0,0,-1140,5,0,1,0,0,-39,34225.0
23:23:11.533,AUTO,-35.3632621,149.1652375,209,0.0027411477640271187,0.00018642150098457932,0.020534172654151917,0.005309661850333214,0.004496218170970678,0.0030551895033568144,0,0,-1130,6,5,2,0,0,-72,34225.0
23:23:11.734,AUTO,-35.3632621,149.1652375,209,0.0027411477640271187,0.00018642150098457932,0.020534172654151917,0.005309661850333214,0.004496218170970678,0.0030551895033568144,0,0,-1130,6,5,2,0,0,-72,34225.0
23:23:11.936,AUTO,-35.3632621,149.1652375,209,0.0027411477640271187,0.00018642150098457932,0.020534172654151917,0.005309661850333214,0.004496218170970678,0.0030551895033568144,0,0,-1130,6,5,2,0,0,-72,34225.0
23:23:12.138,AUTO,-35.3632621,149.1652375,209,0.0027411477640271187,0.00018642150098457932,0.020534172654151917,0.005309661850333214,0.004496218170970678,0.0030551895033568144,0,0,-1130,6,5,2,0,0,-72,34225.0
23:23:12.340,AUTO,-35.3632621,149.1652375,1044,0.010427050292491913,0.0006188179831951857,0.019771184772253036,0.047501008957624435,-0.006157315336167812,0.0007088659331202507,0,0,-1041,48,-5,0,0,1,-139,34225.0
23:23:12.542,AUTO,-35.3632621,149.1652375,1409,0.022271176800131798,-0.0011402202071622014,0.01967308297753334,0.046956948935985565,-0.007174698635935783,0.00172962446231395,0,0,-1017,47,-6,1,1,5,-145,34225.0
23:23:12.743,AUTO,-35.3632621,149.1652375,1409,0.022271176800131798,-0.0011402202071622014,0.01967308297753334,0.046956948935985565,-0.007174698635935783,0.00172962446231395,0,0,-1017,47,-6,1,1,5,-145,34225.0
23:23:12.956,AUTO,-35.363262,149.1652377,1787,0.03368811681866646,-0.00303704384714365,0.019745569676160812,0.0449536107480526,-0.008313886821269989,0.0024670292623341084,0,-1,-1007,45,-7,2,1,11,-148,34225.0
23:23:13.163,AUTO,-35.3632619,149.1652381,2171,0.04452665522694588,-0.005205934401601553,0.01993335410952568,0.04223174601793289,-0.009508412331342697,0.0029875137843191624,0,-2,-1002,43,-8,2,3,20,-149,34225.0
23:23:13.423,AUTO,-35.3632618,149.1652388,2557,0.054662615060806274,-0.00783670786768198,0.020176896825432777,0.038814444094896317,-0.010913599282503128,0.0034016226418316364,1,-4,-1000,39,-10,3,5,31,-149,34225.0
23:23:13.725,AUTO,-35.3632616,149.1652397,2942,0.06137538328766823,-0.008900277316570282,-0.008125033229589462,-0.008669726550579071,0.022183619439601898,-0.031731754541397095,1,-8,-993,-8,22,-31,8,43,-148,34225.0
23:23:13.963,AUTO,-35.3632616,149.1652397,2942,0.06137538328766823,-0.008900277316570282,-0.008125033229589462,-0.008669726550579071,0.022183619439601898,-0.031731754541397095,1,-8,-993,-8,22,-31,8,43,-148,34225.0
23:23:14.174,AUTO,-35.3632616,149.1652397,2942,0.06137538328766823,-0.008900277316570282,-0.008125033229589462,-0.008669726550579071,0.022183619439601898,-0.031731754541397095,1,-8,-993,-8,22,-31,8,43,-148,34225.0
23:23:14.391,AUTO,-35.363261,149.1652439,4078,-0.026712723076343536,0.0308085884898901,-0.07601014524698257,-0.052265945822000504,-0.008959297090768814,-0.07195516675710678,5,-10,-1010,-51,-8,-72,1,47,-148,34225.0
23:23:14.592,AUTO,-35.363261,149.165245,4462,-0.037160664796829224,0.0235415268689394,-0.087956503033638,-0.05001009255647659,-0.032101429998874664,-0.04533892497420311,5,-7,-1003,-49,-31,-45,-4,36,-149,161678.0
23:23:14.794,AUTO,-35.363261,149.1652458,4846,-0.0541936494410038,0.015283177606761456,-0.09579695761203766,-0.08125192672014236,-0.02583841234445572,-0.03417695313692093,5,-4,-1000,-80,-24,-34,-7,23,-149,161678.0
23:23:14.997,AUTO,-35.363261,149.1652458,4846,-0.0541936494410038,0.015283177606761456,-0.09579695761203766,-0.08125192672014236,-0.02583841234445572,-0.03417695313692093,5,-4,-1000,-80,-24,-34,-7,23,-149,161678.0
23:23:15.199,AUTO,-35.3632612,149.1652462,5234,-0.07605046033859253,0.007023117039352655,-0.09870781004428864,-0.05343898758292198,-0.06077522411942482,0.01535528339445591,4,-1,-1005,-52,-59,14,-10,6,-149,161678.0
23:23:15.401,AUTO,-35.3632614,149.1652462,5619,-0.07543756812810898,-0.006992901675403118,-0.09438972920179367,0.03673792630434036,-0.03778928890824318,0.007029657252132893,2,1,-1004,37,-37,6,-11,-13,-150,161678.0
23:23:15.603,AUTO,-35.3632616,149.1652456,6005,-0.06307746469974518,-0.011777938343584538,-0.09297731518745422,0.05389737710356712,-0.0107788797467947,0.00628597242757678,-1,6,-1001,54,-9,6,-9,-29,-150,161678.0
23:23:15.805,AUTO,-35.3632616,149.1652456,6005,-0.06307746469974518,-0.011777938343584538,-0.09297731518745422,0.05389737710356712,-0.0107788797467947,0.00628597242757678,-1,6,-1001,54,-9,6,-9,-29,-150,161678.0
23:23:16.007,AUTO,-35.3632616,149.1652456,6005,-0.06307746469974518,-0.011777938343584538,-0.09297731518745422,0.05389737710356712,-0.0107788797467947,0.00628597242757678,-1,6,-1001,54,-9,6,-9,-29,-150,161678.0
23:23:16.209,AUTO,-35.3632616,149.1652456,6005,-0.06307746469974518,-0.011777938343584538,-0.09297731518745422,0.05389737710356712,-0.0107788797467947,0.00628597242757678,-1,6,-1001,54,-9,6,-9,-29,-150,161678.0
23:23:16.411,AUTO,-35.3632622,149.1652419,7157,-0.018029307946562767,-0.01074784155935049,-0.09093873202800751,0.06419955939054489,0.008560385555028915,0.00629765959456563,-6,13,-1002,64,9,6,-5,-54,-151,161678.0
23:23:16.612,AUTO,-35.3632623,149.1652403,7544,-0.001954517560079694,-0.008226828649640083,-0.08982980251312256,0.06463734805583954,0.010808928869664669,0.006211950909346342,-6,11,-1003,65,11,6,-3,-55,-151,161678.0
23:23:16.814,AUTO,-35.3632624,149.1652388,7933,0.014313483610749245,-0.005281371995806694,-0.08858797699213028,0.06378650665283203,0.011704053729772568,0.006237844005227089,-7,12,-1004,64,12,5,-3,-51,-152,161678.0
23:23:17.016,AUTO,-35.3632624,149.1652374,8324,0.030363840982317924,-0.00242034369148314,-0.0872708335518837,0.06396117061376572,0.011362218298017979,0.005865579470992088,-6,13,-1004,64,11,5,-2,-44,-153,161678.0
23:23:17.218,AUTO,-35.3632624,149.1652374,8324,0.030363840982317924,-0.00242034369148314,-0.0872708335518837,0.06396117061376572,0.011362218298017979,0.005865579470992088,-6,13,-1004,64,11,5,-2,-44,-153,161678.0
23:23:17.420,AUTO,-35.3632625,149.1652362,8717,0.045770104974508286,-4.8433510528411716e-05,-0.08598097413778305,0.06175367906689644,0.008549449034035206,0.005719972308725119,-4,6,-1003,62,9,5,-2,-33,-153,161678.0
23:23:17.622,AUTO,-35.3632625,149.1652354,9110,0.05746123939752579,-0.0009121017646975815,-0.08196540921926498,0.01803215965628624,-0.02595517784357071,0.03983579948544502,-3,4,-998,18,-25,39,-1,-19,-153,161678.0
23:23:17.823,AUTO,-35.3632625,149.1652354,9110,0.05746123939752579,-0.0009121017646975815,-0.08196540921926498,0.01803215965628624,-0.02595517784357071,0.03983579948544502,-3,4,-998,18,-25,39,-1,-19,-153,161678.0
23:23:18.025,AUTO,-35.3632625,149.1652354,9110,0.05746123939752579,-0.0009121017646975815,-0.08196540921926498,0.01803215965628624,-0.02595517784357071,0.03983579948544502,-3,4,-998,18,-25,39,-1,-19,-153,161678.0
23:23:18.227,AUTO,-35.3632625,149.1652354,9110,0.05746123939752579,-0.0009121017646975815,-0.08196540921926498,0.01803215965628624,-0.02595517784357071,0.03983579948544502,-3,4,-998,18,-25,39,-1,-19,-153,161678.0
23:23:18.428,AUTO,-35.3632624,149.1652349,10271,0.017004292458295822,-0.011422536335885525,-0.06622808426618576,-0.06272020936012268,0.03746061772108078,-0.02364012412726879,-1,-2,-999,-62,38,-23,10,8,-150,161678.0
23:23:18.645,AUTO,-35.3632621,149.1652351,10655,0.004612619988620281,-0.0029978014063090086,-0.07414769381284714,-0.03905355557799339,0.02956128865480423,-0.035971637815237045,0,-3,-1002,-38,30,-36,12,9,-150,161678.0
23:23:18.878,AUTO,-35.3632618,149.1652353,11040,-0.003003358840942383,0.0027240400668233633,-0.08346612006425858,-0.023297026753425598,0.017872272059321404,-0.034871309995651245,-2,-3,-1002,-22,18,-35,12,8,-151,161678.0
23:23:19.131,AUTO,-35.3632616,149.1652355,11426,-0.006799149792641401,0.006372966803610325,-0.09308838844299316,-0.008652404882013798,0.013558657839894295,-0.03578154742717743,-2,-3,-1002,-7,14,-36,11,5,-151,161678.0
23:23:19.377,AUTO,-35.3632613,149.1652355,11814,-0.00757589191198349,0.009055842645466328,-0.10221059620380402,0.0032342697959393263,0.009848876856267452,-0.03107910044491291,-1,-2,-1002,4,10,-31,9,2,-152,161678.0
23:23:19.632,AUTO,-35.3632612,149.1652356,12203,-0.005910104140639305,0.010503911413252354,-0.10985370725393295,0.009124470874667168,0.003433478530496359,-0.022592874243855476,-1,-1,-1000,9,4,-23,6,0,-152,161678.0
23:23:19.834,AUTO,-35.3632612,149.1652356,12203,-0.005910104140639305,0.010503911413252354,-0.10985370725393295,0.009124470874667168,0.003433478530496359,-0.022592874243855476,-1,-1,-1000,9,4,-23,6,0,-152,161678.0
23:23:20.036,AUTO,-35.3632612,149.1652356,12203,-0.005910104140639305,0.010503911413252354,-0.10985370725393295,0.009124470874667168,0.003433478530496359,-0.022592874243855476,-1,-1,-1000,9,4,-23,6,0,-152,161678.0
23:23:20.239,AUTO,-35.3632612,149.1652356,12203,-0.005910104140639305,0.010503911413252354,-0.10985370725393295,0.009124470874667168,0.003433478530496359,-0.022592874243855476,-1,-1,-1000,9,4,-23,6,0,-152,77111.0
23:23:20.441,AUTO,-35.3632609,149.1652354,13371,0.002497851848602295,0.010937887243926525,-0.12589097023010254,0.010463109239935875,-0.0003416842664591968,-0.015108822844922543,-1,0,-1000,11,0,-15,-1,-2,-152,77111.0
23:23:20.642,AUTO,-35.3632609,149.1652353,13761,0.004871875513345003,0.010218258947134018,-0.12920105457305908,0.008060651831328869,-0.0030083321034908295,-0.010002372786402702,0,0,-999,8,-2,-9,-3,-1,-152,77111.0
23:23:20.844,AUTO,-35.3632609,149.1652353,14150,0.006642330903559923,0.009367479011416435,-0.13213354349136353,0.006529808044433594,-0.0036028220783919096,-0.008417035453021526,0,1,-1000,7,-2,-8,-4,0,-152,77111.0
23:23:21.046,AUTO,-35.3632609,149.1652352,14543,0.007475342135876417,0.008141977712512016,-0.13476121425628662,0.0016893513966351748,-0.004373028874397278,-0.010369230061769485,0,0,-1000,2,-3,-10,-5,1,-152,77111.0
23:23:21.247,AUTO,-35.3632609,149.1652352,14543,0.007475342135876417,0.008141977712512016,-0.13476121425628662,0.0016893513966351748,-0.004373028874397278,-0.010369230061769485,0,0,-1000,2,-3,-10,-5,1,-152,77111.0
23:23:21.449,AUTO,-35.363261,149.1652352,14932,0.007470499724149704,0.007045655976980925,-0.13744883239269257,-0.00028980246861465275,-0.004916861653327942,-0.011118438094854355,0,0,-1000,0,-4,-11,-6,2,-152,77111.0
23:23:21.652,AUTO,-35.3632612,149.1652352,15322,0.0069341761991381645,0.005761430598795414,-0.14017009735107422,-0.001010060659609735,-0.003978334367275238,-0.010142900981009007,0,0,-1000,0,-2,-10,-7,3,-152,77111.0
23:23:21.853,AUTO,-35.3632612,149.1652352,15322,0.0069341761991381645,0.005761430598795414,-0.14017009735107422,-0.001010060659609735,-0.003978334367275238,-0.010142900981009007,0,0,-1000,0,-2,-10,-7,3,-152,77111.0
23:23:22.064,AUTO,-35.3632612,149.1652352,15322,0.0069341761991381645,0.005761430598795414,-0.14017009735107422,-0.001010060659609735,-0.003978334367275238,-0.010142900981009007,0,0,-1000,0,-2,-10,-7,3,-152,77111.0
23:23:22.265,AUTO,-35.3632615,149.1652354,16488,0.004334530793130398,0.003091612132266164,-0.15085142850875854,0.0006970317335799336,-0.001420748420059681,-0.016201665624976158,1,0,-1001,1,0,-16,-6,5,-152,77111.0
23:23:22.467,AUTO,-35.3632615,149.1652354,16488,0.004334530793130398,0.003091612132266164,-0.15085142850875854,0.0006970317335799336,-0.001420748420059681,-0.016201665624976158,1,0,-1001,1,0,-16,-6,5,-152,77111.0
23:23:22.668,AUTO,-35.3632616,149.1652355,16886,0.003805211279541254,0.002459403360262513,-0.1552523374557495,-0.0009365858277305961,-0.0018783255945891142,-0.01690494641661644,1,0,-1000,0,0,-17,-6,6,-153,77111.0
23:23:22.869,AUTO,-35.3632616,149.1652356,17275,0.003255904186517,0.001974488142877817,-0.1598660796880722,-0.0036632297560572624,-0.0028367636259645224,-0.016985829919576645,1,0,-1000,-2,-1,-17,-5,6,-153,77111.0
23:23:23.071,AUTO,-35.3632617,149.1652357,17664,0.0027565485797822475,0.001475661643780768,-0.1647363305091858,-0.0021565305069088936,-0.0009920232696458697,-0.02055036462843418,1,0,-1000,-1,0,-20,-4,6,-153,77111.0
23:23:23.272,AUTO,-35.3632618,149.1652358,18053,0.00262065208517015,0.00134782784152776,-0.16992737352848053,0.0005854056216776371,0.00042894057696685195,-0.020281117409467697,1,0,-1000,1,1,-20,-4,5,-153,77111.0
23:23:23.474,AUTO,-35.3632618,149.1652358,18053,0.00262065208517015,0.00134782784152776,-0.16992737352848053,0.0005854056216776371,0.00042894057696685195,-0.020281117409467697,1,0,-1000,1,1,-20,-4,5,-153,77111.0
23:23:23.677,AUTO,-35.3632618,149.1652359,18443,0.0025039813481271267,0.0014819058123975992,-0.1754325032234192,0.0008803851087577641,0.0009259533253498375,-0.021189820021390915,0,0,-1000,1,1,-21,-3,5,-153,77111.0
23:23:23.878,AUTO,-35.3632618,149.1652359,18443,0.0025039813481271267,0.0014819058123975992,-0.1754325032234192,0.0008803851087577641,0.0009259533253498375,-0.021189820021390915,0,0,-1000,1,1,-21,-3,5,-153,77111.0
23:23:24.080,AUTO,-35.3632618,149.1652359,18443,0.0025039813481271267,0.0014819058123975992,-0.1754325032234192,0.0008803851087577641,0.0009259533253498375,-0.021189820021390915,0,0,-1000,1,1,-21,-3,5,-153,77111.0
23:23:24.299,AUTO,-35.3632619,149.1652361,19603,0.002010119380429387,0.0022535244934260845,-0.19276435673236847,0.0029514101333916187,0.0026450599543750286,-0.023678956553339958,0,0,-1000,3,3,-23,-2,4,-153,77111.0
23:23:24.503,AUTO,-35.3632619,149.1652361,19603,0.002010119380429387,0.0022535244934260845,-0.19276435673236847,0.0029514101333916187,0.0026450599543750286,-0.023678956553339958,0,0,-1000,3,3,-23,-2,4,-153,77111.0
23:23:24.732,AUTO,-35.3632619,149.1652362,19993,0.0023177508264780045,0.0023815289605408907,-0.1984005868434906,-0.00035071378806605935,0.001598723349161446,-0.0239357128739357,0,0,-1000,0,2,-23,-2,4,-153,77111.0
23:23:24.987,AUTO,-35.3632619,149.1652362,20382,0.0024605810176581144,0.002434765687212348,-0.20380917191505432,-0.0007171462057158351,0.0005121394642628729,-0.01998082548379898,0,0,-1000,0,1,-19,-2,4,-153,77111.0
23:23:25.189,AUTO,-35.3632619,149.1652363,20772,0.002579781925305724,0.0025795018300414085,-0.20923329889774323,0.0006174421869218349,0.00021512096282094717,-0.021706856787204742,0,0,-1000,1,0,-21,-1,4,-153,77111.0
23:23:25.390,AUTO,-35.3632619,149.1652363,21161,0.0025712656788527966,0.0028009312227368355,-0.21464960277080536,0.0036970744840800762,0.00233306922018528,-0.02205757051706314,0,0,-1000,4,3,-21,-1,3,-153,77111.0
23:23:25.593,AUTO,-35.3632619,149.1652364,21558,0.00270491442643106,0.0030495210085064173,-0.2200491577386856,-0.0033196231815963984,0.0011937376111745834,-0.02081107534468174,0,0,-999,-2,2,-21,-1,3,-153,77111.0
23:23:25.794,AUTO,-35.3632619,149.1652364,21558,0.00270491442643106,0.0030495210085064173,-0.2200491577386856,-0.0033196231815963984,0.0011937376111745834,-0.02081107534468174,0,0,-999,-2,2,-21,-1,3,-153,62117.0
23:23:25.996,AUTO,-35.3632619,149.1652364,21558,0.00270491442643106,0.0030495210085064173,-0.2200491577386856,-0.0033196231815963984,0.0011937376111745834,-0.02081107534468174,0,0,-999,-2,2,-21,-1,3,-153,62117.0
23:23:26.198,AUTO,-35.3632619,149.1652364,21558,0.00270491442643106,0.0030495210085064173,-0.2200491577386856,-0.0033196231815963984,0.0011937376111745834,-0.02081107534468174,0,0,-999,-2,2,-21,-1,3,-153,62117.0
23:23:26.400,AUTO,-35.3632619,149.1652365,22719,0.0024630173575133085,0.003064929274842143,-0.23508049547672272,-0.0008904705755412579,0.0013308031484484673,-0.023009583353996277,0,0,-1000,0,2,-23,-1,3,-153,62117.0
23:23:26.601,AUTO,-35.363262,149.1652366,23109,0.0024543118197470903,0.0031506726518273354,-0.24000152945518494,0.0005875588394701481,0.0015445307362824678,-0.020603597164154053,0,0,-1000,1,2,-20,-1,3,-153,62117.0
23:23:26.803,AUTO,-35.363262,149.1652366,23498,0.002262108726426959,0.003055211389437318,-0.2446490079164505,2.2726599127054214e-06,-0.0011430514277890325,-0.01776174083352089,0,0,-1000,1,0,-17,-1,3,-153,62117.0
23:23:27.004,AUTO,-35.363262,149.1652366,23498,0.002262108726426959,0.003055211389437318,-0.2446490079164505,2.2726599127054214e-06,-0.0011430514277890325,-0.01776174083352089,0,0,-1000,1,0,-17,-1,3,-153,62117.0
23:23:27.206,AUTO,-35.363262,149.1652367,23887,0.001970324432477355,0.00285944901406765,-0.24934859573841095,-5.0890492275357246e-05,0.00014669279335066676,-0.021967362612485886,0,0,-1000,0,0,-22,-1,3,-153,62117.0
23:23:27.407,AUTO,-35.363262,149.1652367,24276,0.0018597864545881748,0.0029749725945293903,-0.2541671097278595,-0.00024454493541270494,0.0010901211062446237,-0.019919849932193756,0,0,-1000,0,2,-20,-1,3,-153,62117.0
23:23:27.609,AUTO,-35.363262,149.1652368,24666,0.0018838851246982813,0.003032340668141842,-0.25892573595046997,0.00041777186561375856,0.000615050783380866,-0.019373808056116104,0,0,-1000,1,1,-19,-1,3,-153,62117.0
23:23:27.811,AUTO,-35.363262,149.1652368,24666,0.0018838851246982813,0.003032340668141842,-0.25892573595046997,0.00041777186561375856,0.000615050783380866,-0.019373808056116104,0,0,-1000,1,1,-19,-1,3,-153,62117.0
23:23:28.013,AUTO,-35.363262,149.1652368,24666,0.0018838851246982813,0.003032340668141842,-0.25892573595046997,0.00041777186561375856,0.000615050783380866,-0.019373808056116104,0,0,-1000,1,1,-19,-1,3,-153,62117.0
23:23:28.214,AUTO,-35.363262,149.1652368,24666,0.0018838851246982813,0.003032340668141842,-0.25892573595046997,0.00041777186561375856,0.000615050783380866,-0.019373808056116104,0,0,-1000,1,1,-19,-1,3,-153,62117.0
23:23:28.416,AUTO,-35.363262,149.1652368,25827,-0.006143227685242891,0.008809351362287998,-0.25016286969184875,0.021891223266720772,-0.005595795810222626,0.038454461842775345,0,0,-1004,22,-4,38,-4,0,-152,62117.0
23:23:28.617,AUTO,-35.3632621,149.1652368,26222,0.0008877309737727046,0.0063039883971214294,-0.24018260836601257,0.02782144956290722,-0.008256906643509865,0.03894129768013954,0,0,-1002,28,-6,38,-5,0,-153,62117.0
23:23:28.829,AUTO,-35.3632622,149.1652368,26611,0.006160836201161146,0.004011413548141718,-0.2306346893310547,0.013721841387450695,-0.010070467367768288,0.036785759031772614,0,0,-1000,14,-9,36,-6,0,-153,62117.0
23:23:29.218,AUTO,-35.3632623,149.1652368,27000,0.008542006835341454,0.002171497093513608,-0.22221867740154266,0.0064478786662220955,-0.006519372574985027,0.03230341896414757,0,1,-999,7,-5,32,-5,2,-153,62117.0
23:23:29.459,AUTO,-35.3632624,149.1652368,27389,0.00915224477648735,0.0008900755783542991,-0.2149638682603836,0.0051542469300329685,-0.0010925289243459702,0.027395617216825485,0,0,-1000,6,0,27,-4,4,-153,62117.0
23:23:29.762,AUTO,-35.3632624,149.1652368,27778,0.008552244864404202,0.00027787438011728227,-0.2084597796201706,-0.006562345661222935,-0.00030939606949687004,0.025627922266721725,0,0,-999,-5,0,25,-3,5,-153,62117.0
23:23:29.979,AUTO,-35.3632624,149.1652368,27778,0.008552244864404202,0.00027787438011728227,-0.2084597796201706,-0.006562345661222935,-0.00030939606949687004,0.025627922266721725,0,0,-999,-5,0,25,-3,5,-153,62117.0
23:23:30.190,AUTO,-35.3632624,149.1652368,27778,0.008552244864404202,0.00027787438011728227,-0.2084597796201706,-0.006562345661222935,-0.00030939606949687004,0.025627922266721725,0,0,-999,-5,0,25,-3,5,-153,62117.0
23:23:30.392,AUTO,-35.3632625,149.1652372,28940,0.003118672175332904,0.0006184960948303342,-0.19262874126434326,-0.008218859322369099,0.0025146121624857187,0.019716398790478706,0,-1,-999,-7,3,19,-1,7,-152,62117.0
23:23:30.595,AUTO,-35.3632624,149.1652374,29328,0.0016441054176539183,0.0010547006968408823,-0.1878354698419571,-0.0061685615219175816,0.0023840628564357758,0.019840175285935402,1,-1,-1000,-5,3,19,0,7,-152,251705.0
23:23:30.798,AUTO,-35.3632624,149.1652376,29715,0.000499515444971621,0.0014218332944437861,-0.18325676023960114,-0.0039266855455935,0.00017363071674481034,0.018243731930851936,0,-1,-1001,-3,1,18,0,6,-152,251705.0
23:23:30.999,AUTO,-35.3632624,149.1652376,29715,0.000499515444971621,0.0014218332944437861,-0.18325676023960114,-0.0039266855455935,0.00017363071674481034,0.018243731930851936,0,-1,-1001,-3,1,18,0,6,-152,251705.0
23:23:31.201,AUTO,-35.3632624,149.1652377,30103,-0.0004142606339883059,0.0016202141996473074,-0.17890723049640656,-0.004566055256873369,-0.0006997868185862899,0.017619039863348007,0,-1,-1000,-3,0,17,0,6,-153,251705.0
23:23:31.402,AUTO,-35.3632624,149.1652378,30491,-0.0008437171927653253,0.001552785630337894,-0.17453508079051971,0.0007338699651882052,0.0007045702077448368,0.01942993700504303,0,0,-1000,1,1,19,0,5,-153,251705.0
23:23:31.604,AUTO,-35.3632624,149.1652379,30883,-0.0009101716568693519,0.0014890074962750077,-0.17029690742492676,0.0016108480049297214,-0.0005613741814158857,0.0167249646037817,0,0,-1001,2,0,16,0,4,-153,251705.0
23:23:31.805,AUTO,-35.3632624,149.1652379,30883,-0.0009101716568693519,0.0014890074962750077,-0.17029690742492676,0.0016108480049297214,-0.0005613741814158857,0.0167249646037817,0,0,-1001,2,0,16,0,4,-153,251705.0
23:23:32.007,AUTO,-35.3632624,149.1652379,30883,-0.0009101716568693519,0.0014890074962750077,-0.17029690742492676,0.0016108480049297214,-0.0005613741814158857,0.0167249646037817,0,0,-1001,2,0,16,0,4,-153,251705.0
23:23:32.209,AUTO,-35.3632624,149.1652379,30883,-0.0009101716568693519,0.0014890074962750077,-0.17029690742492676,0.0016108480049297214,-0.0005613741814158857,0.0167249646037817,0,0,-1001,2,0,16,0,4,-153,251705.0
23:23:32.410,AUTO,-35.3632624,149.165238,32043,-0.0006813781219534576,0.0010535604087635875,-0.15826565027236938,0.0014392078155651689,0.00012294226326048374,0.015314172953367233,0,0,-1000,2,1,15,0,2,-153,251705.0
23:23:32.612,AUTO,-35.3632623,149.165238,32432,-0.00019791058730334044,0.0012151944683864713,-0.15474794805049896,0.0030659958720207214,0.0017286097863689065,0.014420357532799244,0,0,-1000,4,2,14,0,1,-153,251705.0
23:23:32.813,AUTO,-35.3632623,149.165238,32820,0.00025659438688308,0.0011312287533655763,-0.15143997967243195,-0.00031169160502031446,-0.001325072254985571,0.01261353213340044,0,0,-1000,0,0,12,0,1,-153,251705.0
23:23:33.015,AUTO,-35.3632623,149.165238,33208,0.0005254708230495453,0.0010546629782766104,-0.14823366701602936,0.0020296683069318533,-0.0007545489352196455,0.012520941905677319,0,0,-1001,3,0,12,0,0,-153,251705.0
23:23:33.216,AUTO,-35.3632623,149.165238,33208,0.0005254708230495453,0.0010546629782766104,-0.14823366701602936,0.0020296683069318533,-0.0007545489352196455,0.012520941905677319,0,0,-1001,3,0,12,0,0,-153,251705.0
23:23:33.418,AUTO,-35.3632623,149.165238,33597,0.0008215557900257409,0.0010552083840593696,-0.14495013654232025,-0.00017594313248991966,0.001001544063910842,0.01271640881896019,0,0,-999,1,2,12,0,0,-153,251705.0
23:23:33.620,AUTO,-35.3632623,149.165238,33985,0.00115756515879184,0.0010279148118570447,-0.14169634878635406,0.003356105647981167,0.001201279228553176,0.012737531214952469,0,0,-1000,4,2,12,0,0,-153,251705.0
23:23:33.821,AUTO,-35.3632623,149.165238,33985,0.00115756515879184,0.0010279148118570447,-0.14169634878635406,0.003356105647981167,0.001201279228553176,0.012737531214952469,0,0,-1000,4,2,12,0,0,-153,251705.0
23:23:34.023,AUTO,-35.3632623,149.165238,33985,0.00115756515879184,0.0010279148118570447,-0.14169634878635406,0.003356105647981167,0.001201279228553176,0.012737531214952469,0,0,-1000,4,2,12,0,0,-153,251705.0
23:23:34.225,AUTO,-35.3632623,149.165238,33985,0.00115756515879184,0.0010279148118570447,-0.14169634878635406,0.003356105647981167,0.001201279228553176,0.012737531214952469,0,0,-1000,4,2,12,0,0,-153,251705.0
23:23:34.426,AUTO,-35.3632622,149.1652379,35150,0.001149049843661487,0.0013141353847458959,-0.13288083672523499,0.0016144722467288375,0.0006904101464897394,0.011270116083323956,0,0,-1000,2,1,11,0,0,-153,251705.0
23:23:34.635,AUTO,-35.3632622,149.1652379,35542,0.0011433452600613236,0.0012760874815285206,-0.13014619052410126,0.0027714513707906008,0.0009914464317262173,0.013015360571444035,0,0,-999,3,2,13,0,0,-153,251705.0
23:23:34.846,AUTO,-35.3632622,149.1652379,35930,0.0010521651711314917,0.0011890316382050514,-0.12744422256946564,-0.0031396588310599327,0.0007631537737324834,0.011200587265193462,0,0,-999,-2,2,11,0,0,-153,251705.0
23:23:35.147,AUTO,-35.3632622,149.1652379,36318,0.0010468368418514729,0.0010502494405955076,-0.12493108958005905,0.00046232854947447777,-0.0007760641165077686,0.013223113492131233,0,0,-1000,1,0,13,0,0,-153,251705.0
23:23:35.397,AUTO,-35.3632622,149.1652378,36706,0.001206879853270948,0.0013166165444999933,-0.12220919132232666,0.00333494134247303,0.004298817366361618,0.0105776097625494,0,0,-1000,4,5,10,0,0,-153,251705.0
23:23:35.605,AUTO,-35.3632622,149.1652378,37095,0.0014769750414416194,0.0016202728729695082,-0.12001511454582214,0.0017055420903488994,0.0019977623596787453,0.009365594014525414,0,0,-1000,2,3,9,0,0,-153,251705.0
23:23:35.808,AUTO,-35.3632622,149.1652378,37095,0.0014769750414416194,0.0016202728729695082,-0.12001511454582214,0.0017055420903488994,0.0019977623596787453,0.009365594014525414,0,0,-1000,2,3,9,0,0,-153,251705.0
23:23:36.010,AUTO,-35.3632622,149.1652378,37095,0.0014769750414416194,0.0016202728729695082,-0.12001511454582214,0.0017055420903488994,0.0019977623596787453,0.009365594014525414,0,0,-1000,2,3,9,0,0,-153,251705.0
23:23:36.213,AUTO,-35.3632622,149.1652378,37095,0.0014769750414416194,0.0016202728729695082,-0.12001511454582214,0.0017055420903488994,0.0019977623596787453,0.009365594014525414,0,0,-1000,2,3,9,0,0,-153,40505.0
23:23:36.414,AUTO,-35.3632621,149.1652375,38386,-0.039129626005887985,0.047086216509342194,0.0016381749883294106,-0.1471797525882721,0.1284053772687912,0.4883308708667755,0,0,-973,-146,129,488,-8,-7,-140,40505.0
23:23:36.616,AUTO,-35.3632624,149.1652371,38734,-0.06107041984796524,0.07102172076702118,0.13485458493232727,-0.03968055918812752,-0.05610234662890434,0.4479632079601288,2,3,-944,-38,-55,448,-22,-20,-131,40505.0
23:23:36.817,AUTO,-35.3632624,149.1652371,38734,-0.06107041984796524,0.07102172076702118,0.13485458493232727,-0.03968055918812752,-0.05610234662890434,0.4479632079601288,2,3,-944,-38,-55,448,-22,-20,-131,40505.0
23:23:37.018,AUTO,-35.363263,149.1652363,39049,-0.04369696229696274,0.03423392027616501,0.21444793045520782,0.09595829993486404,-0.20832863450050354,0.21383793652057648,4,8,-942,97,-207,213,-31,-33,-116,40505.0
23:23:37.220,AUTO,-35.3632637,149.1652353,39327,-0.014578621834516525,-0.012093187309801579,0.24949568510055542,0.11916524171829224,-0.15734031796455383,0.08367850631475449,3,10,-948,120,-156,83,-31,-38,-102,40505.0
23:23:37.422,AUTO,-35.3632643,149.1652343,39573,0.011074996553361416,-0.04077450558543205,0.2593076229095459,0.09314602613449097,-0.07832261919975281,0.012415592558681965,3,10,-955,94,-77,12,-24,-34,-90,40505.0
23:23:37.625,AUTO,-35.3632647,149.1652334,39790,0.028897060081362724,-0.05232327803969383,0.2568189799785614,0.04656720533967018,-0.02451886609196663,-0.01864931546151638,1,7,-962,47,-23,-18,-14,-24,-80,40505.0
23:23:37.826,AUTO,-35.3632647,149.1652334,39790,0.028897060081362724,-0.05232327803969383,0.2568189799785614,0.04656720533967018,-0.02451886609196663,-0.01864931546151638,1,7,-962,47,-23,-18,-14,-24,-80,40505.0
23:23:38.028,AUTO,-35.3632647,149.1652334,39790,0.028897060081362724,-0.05232327803969383,0.2568189799785614,0.04656720533967018,-0.02451886609196663,-0.01864931546151638,1,7,-962,47,-23,-18,-14,-24,-80,40505.0
23:23:38.230,AUTO,-35.3632647,149.1652334,39790,0.028897060081362724,-0.05232327803969383,0.2568189799785614,0.04656720533967018,-0.02451886609196663,-0.01864931546151638,1,7,-962,47,-23,-18,-14,-24,-80,40505.0
23:23:38.432,AUTO,-35.3632647,149.1652325,40302,0.03943946585059166,-0.036910273134708405,0.23178572952747345,-0.06457918137311935,0.04168771952390671,-0.03150441125035286,-2,-4,-975,-63,42,-31,11,10,-56,40505.0
23:23:38.633,AUTO,-35.3632644,149.1652329,40435,0.035473063588142395,-0.02544020302593708,0.22366490960121155,0.0469457283616066,0.04603580757975578,-0.02973298355937004,-2,0,-978,48,46,-29,17,19,-50,40505.0
23:23:38.835,AUTO,-35.3632644,149.1652329,40435,0.035473063588142395,-0.02544020302593708,0.22366490960121155,0.0469457283616066,0.04603580757975578,-0.02973298355937004,-2,0,-978,48,46,-29,17,19,-50,40505.0
23:23:39.036,AUTO,-35.363264,149.1652334,40555,0.03052118606865406,-0.014644283801317215,0.21636854112148285,-0.02664160169661045,0.038724273443222046,-0.027004485949873924,-2,-13,-979,-25,39,-26,20,25,-44,40505.0
23:23:39.238,AUTO,-35.3632635,149.1652341,40660,0.01609659753739834,-0.006340972613543272,0.2094956636428833,-0.5120907425880432,0.0361839234828949,-0.02494274079799652,-2,-33,-965,-511,37,-24,21,29,-38,40505.0
23:23:39.440,AUTO,-35.363263,149.1652349,40746,0.012375135906040668,0.0017593391239643097,0.2029956877231598,0.0033360966481268406,0.03217171132564545,-0.017226027324795723,-1,6,-979,5,33,-17,20,31,-32,40505.0
23:23:39.642,AUTO,-35.3632625,149.1652356,40818,0.0134345181286335,0.00817514955997467,0.1974211484193802,0.5422509908676147,0.014539385214447975,-0.01702812872827053,-1,17,-986,543,15,-16,19,31,-26,40505.0
23:23:39.844,AUTO,-35.3632625,149.1652356,40818,0.0134345181286335,0.00817514955997467,0.1974211484193802,0.5422509908676147,0.014539385214447975,-0.01702812872827053,-1,17,-986,543,15,-16,19,31,-26,40505.0
23:23:40.045,AUTO,-35.3632625,149.1652356,40818,0.0134345181286335,0.00817514955997467,0.1974211484193802,0.5422509908676147,0.014539385214447975,-0.01702812872827053,-1,17,-986,543,15,-16,19,31,-26,40505.0
23:23:40.271,AUTO,-35.3632625,149.1652356,40818,0.0134345181286335,0.00817514955997467,0.1974211484193802,0.5422509908676147,0.014539385214447975,-0.01702812872827053,-1,17,-986,543,15,-16,19,31,-26,40505.0
23:23:40.489,AUTO,-35.3632614,149.1652377,40956,-0.004425080958753824,0.015972480177879333,0.18321456015110016,-0.6909086108207703,0.004698496311903,-0.015460247173905373,0,-37,-956,-690,5,-15,11,21,-10,40505.0
23:23:40.815,AUTO,-35.3632611,149.1652382,40967,-0.018013421446084976,0.01584549807012081,0.17875297367572784,-0.7844399213790894,-0.0003356475499458611,-0.01599668338894844,-1,-23,-966,-782,0,-15,7,20,-1,40505.0
23:23:41.071,AUTO,-35.363261,149.1652386,40946,-0.04681055620312691,0.040819693356752396,0.16745729744434357,-0.35091015696525574,0.01326642744243145,-0.012662009336054325,-1,13,-980,-348,14,-12,1,11,12,40505.0
23:23:41.285,AUTO,-35.363261,149.1652386,40905,-0.032537177205085754,0.021332038566470146,0.16656523942947388,-0.10565757751464844,-0.11540474742650986,-0.023232722654938698,1,10,-1007,-103,-114,-22,-4,2,17,40505.0
23:23:41.487,AUTO,-35.3632611,149.1652383,40866,0.008862710557878017,-0.009115934371948242,0.16645026206970215,0.7071178555488586,-0.10761776566505432,-0.010535974986851215,0,37,-1032,709,-106,-10,-5,-1,12,40505.0
23:23:41.690,AUTO,-35.363261,149.1652382,40835,0.0350886732339859,-0.032138947397470474,0.1649932712316513,0.9344652891159058,-0.07638445496559143,-0.01369885541498661,-2,38,-1012,936,-75,-13,-1,2,10,40505.0
23:23:41.895,AUTO,-35.363261,149.1652382,40835,0.0350886732339859,-0.032138947397470474,0.1649932712316513,0.9344652891159058,-0.07638445496559143,-0.01369885541498661,-2,38,-1012,936,-75,-13,-1,2,10,40505.0
23:23:42.101,AUTO,-35.363261,149.1652382,40835,0.0350886732339859,-0.032138947397470474,0.1649932712316513,0.9344652891159058,-0.07638445496559143,-0.01369885541498661,-2,38,-1012,936,-75,-13,-1,2,10,267204.0
23:23:42.303,AUTO,-35.363261,149.1652382,40835,0.0350886732339859,-0.032138947397470474,0.1649932712316513,0.9344652891159058,-0.07638445496559143,-0.01369885541498661,-2,38,-1012,936,-75,-13,-1,2,10,267204.0
23:23:42.506,AUTO,-35.3632602,149.1652386,40779,0.0704701766371727,-0.0695122629404068,0.15120813250541687,0.518650472164154,-0.03765822574496269,-0.005651338025927544,-5,-4,-995,518,-36,-5,30,33,3,267204.0
23:23:42.708,AUTO,-35.3632593,149.1652393,40771,0.06507665663957596,-0.08001483976840973,0.19230309128761292,-0.1968318372964859,-0.04370522499084473,0.4029311239719391,-7,-34,-1018,-196,-42,403,45,45,0,267204.0
23:23:42.909,AUTO,-35.3632581,149.1652402,40770,0.049469441175460815,-0.09872991591691971,0.3592427968978882,-0.5693427324295044,-0.08111563324928284,0.8303371667861938,-10,-39,-999,-567,-80,830,60,59,0,267204.0
23:23:43.111,AUTO,-35.3632565,149.1652414,40768,0.039104025810956955,-0.12203405052423477,0.5678116679191589,-0.1926904171705246,-0.06852617859840393,0.8570069074630737,-10,-39,-999,-567,-80,830,76,75,1,267204.0
23:23:43.317,AUTO,-35.3632565,149.1652414,40768,0.039104025810956955,-0.12203405052423477,0.5678116679191589,-0.1926904171705246,-0.06852617859840393,0.8570069074630737,-18,-3,-993,-190,-67,857,76,75,1,267204.0
23:23:43.519,AUTO,-35.3632545,149.1652429,40766,0.036711592227220535,-0.14451812207698822,0.7695675492286682,0.5241656303405762,-0.03969894349575043,0.7908459305763245,-27,25,-1012,526,-38,791,93,93,1,267204.0
23:23:43.721,AUTO,-35.3632521,149.1652448,40763,0.030523275956511497,-0.16009220480918884,0.9058809876441956,0.5979984998703003,-0.047080446034669876,0.38463830947875977,-31,8,-1008,599,-45,385,111,112,2,267204.0
23:23:43.922,AUTO,-35.3632521,149.1652448,40763,0.030523275956511497,-0.16009220480918884,0.9058809876441956,0.5979984998703003,-0.047080446034669876,0.38463830947875977,-31,8,-1008,599,-45,385,111,112,2,267204.0
23:23:44.124,AUTO,-35.3632521,149.1652448,40763,0.030523275956511497,-0.16009220480918884,0.9058809876441956,0.5979984998703003,-0.047080446034669876,0.38463830947875977,-31,8,-1008,599,-45,385,111,112,2,267204.0
23:23:44.326,AUTO,-35.3632521,149.1652448,40763,0.030523275956511497,-0.16009220480918884,0.9058809876441956,0.5979984998703003,-0.047080446034669876,0.38463830947875977,-31,8,-1008,599,-45,385,111,112,2,267204.0
23:23:44.528,AUTO,-35.3632426,149.1652538,40749,0.02239593304693699,-0.20342721045017242,0.907823920249939,-0.4568893015384674,-0.05763104185461998,-0.07784949988126755,-47,-35,-994,-454,-56,-77,169,179,5,267204.0
23:23:44.730,AUTO,-35.3632386,149.1652581,40741,0.02604220062494278,-0.215823233127594,0.8826440572738647,0.01436126884073019,-0.03623272478580475,-0.08822721987962723,-54,-5,-997,17,-35,-87,190,205,5,267204.0
23:23:44.943,AUTO,-35.363234,149.1652631,40731,0.035175859928131104,-0.2186884731054306,0.8674955368041992,0.4094216227531433,-0.0009248474962078035,-0.04254140332341194,-58,-2,-1002,411,0,-42,214,229,6,267204.0
23:23:45.149,AUTO,-35.363229,149.1652689,40723,0.036343369632959366,-0.21469321846961975,0.8602266907691956,0.08027205616235733,-0.005256935954093933,0.0036841013934463263,-74,-37,-1005,82,-3,4,237,251,4,267204.0
23:23:45.357,AUTO,-35.363229,149.1652689,40723,0.036343369632959366,-0.21469321846961975,0.8602266907691956,0.08027205616235733,-0.005256935954093933,0.0036841013934463263,-74,-37,-1005,82,-3,4,237,251,4,267204.0
23:23:45.563,AUTO,-35.3632236,149.1652751,40717,0.02916128560900688,-0.21424251794815063,0.8573813438415527,-0.3370895981788635,-0.01728193089365959,0.015168249607086182,-82,-48,-1004,-335,-16,15,258,271,5,267204.0
23:23:45.771,AUTO,-35.3632177,149.1652821,40709,0.02605988085269928,-0.21707770228385925,0.8561665415763855,-0.2869994342327118,0.006686082575470209,-0.0016145971603691578,-84,-35,-1006,-284,7,0,278,291,6,267204.0
23:23:46.002,AUTO,-35.3632177,149.1652821,40709,0.02605988085269928,-0.21707770228385925,0.8561665415763855,-0.2869994342327118,0.006686082575470209,-0.0016145971603691578,-84,-35,-1006,-284,7,0,278,291,6,267204.0
23:23:46.209,AUTO,-35.3632177,149.1652821,40709,0.02605988085269928,-0.21707770228385925,0.8561665415763855,-0.2869994342327118,0.006686082575470209,-0.0016145971603691578,-84,-35,-1006,-284,7,0,278,291,6,267204.0
23:23:46.412,AUTO,-35.3631976,149.1653065,40678,0.02224705182015896,-0.22716906666755676,0.8561373353004456,0.05968254804611206,-0.048729345202445984,0.003238341538235545,-88,-45,-992,61,-47,3,339,344,7,267204.0
23:23:46.618,AUTO,-35.36319,149.1653156,40663,0.019724741578102112,-0.23672698438167572,0.856540322303772,-0.15742596983909607,-0.03372281789779663,0.001917931716889143,-102,-59,-993,-155,-32,2,361,360,8,267204.0
23:23:46.820,AUTO,-35.36319,149.1653156,40663,0.019724741578102112,-0.23672698438167572,0.856540322303772,-0.15742596983909607,-0.03372281789779663,0.001917931716889143,-102,-59,-993,-155,-32,2,361,360,8,14850.0
23:23:47.022,AUTO,-35.3631819,149.1653253,40645,0.018754513934254646,-0.23967759311199188,0.853774905204773,-0.13797447085380554,-0.016276270151138306,-0.007433492690324783,-106,-53,-999,-135,-15,-6,384,377,9,14850.0
23:23:47.225,AUTO,-35.3631732,149.1653356,40627,0.02331869676709175,-0.23080632090568542,0.8493502736091614,0.07243066281080246,0.05749676749110222,-0.018484657630324364,-115,-44,-1007,74,58,-17,406,394,7,14850.0
23:23:47.426,AUTO,-35.3631641,149.1653464,40618,0.027658585458993912,-0.2218821495771408,0.8463661670684814,0.04194413870573044,0.013114484958350658,-0.013248722068965435,-122,-47,-996,43,13,-12,424,407,3,14850.0
23:23:47.628,AUTO,-35.3631546,149.1653574,40612,0.03022686019539833,-0.21387992799282074,0.8443784117698669,-0.04221273586153984,0.033644504845142365,-0.021982833743095398,-129,-53,-1000,-40,34,-21,441,418,2,14850.0
23:23:47.830,AUTO,-35.3631546,149.1653574,40612,0.03022686019539833,-0.21387992799282074,0.8443784117698669,-0.04221273586153984,0.033644504845142365,-0.021982833743095398,-129,-53,-1000,-40,34,-21,441,418,2,14850.0
23:23:48.032,AUTO,-35.3631546,149.1653574,40612,0.03022686019539833,-0.21387992799282074,0.8443784117698669,-0.04221273586153984,0.033644504845142365,-0.021982833743095398,-129,-53,-1000,-40,34,-21,441,418,2,14850.0
