time_stamp,MODE,lat,lon,relative_alt,roll,pitch,yaw,rollspeed,pitchspeed,yawspeed,xacc,yacc,zacc,xgyro,ygyro,zgyro,vx,vy,vz,RTL_ALT
14:59:29.293,STABILIZE,-35.3632621,149.1652374,38,0.00042976223630830646,0.001566307619214058,0.02883942611515522,0.00022446952061727643,0.00022521399660035968,0.00232036504894495,0,1,-1000,0,0,0,-1,1,0,1500.0
14:59:29.494,STABILIZE,-35.3632621,149.1652374,38,0.00042976223630830646,0.001566307619214058,0.02883942611515522,0.00022446952061727643,0.00022521399660035968,0.00232036504894495,0,1,-1000,0,0,0,-1,1,0,1500.0
14:59:29.696,STABILIZE,-35.3632621,149.1652374,38,0.00042976223630830646,0.001566307619214058,0.02883942611515522,0.00022446952061727643,0.00022521399660035968,0.00232036504894495,0,1,-1000,0,0,0,-1,1,0,1500.0
14:59:29.897,STABILIZE,-35.3632621,149.1652374,38,0.00042976223630830646,0.001566307619214058,0.02883942611515522,0.00022446952061727643,0.00022521399660035968,0.00232036504894495,0,1,-1000,0,0,0,-1,1,0,1500.0
14:59:30.098,STABILIZE,-35.3632621,149.1652374,38,0.00042976223630830646,0.001566307619214058,0.02883942611515522,0.00022446952061727643,0.00022521399660035968,0.00232036504894495,0,1,-1000,0,0,0,-1,1,0,1500.0
14:59:30.300,STABILIZE,-35.3632621,149.1652375,28,0.00042976223630830646,0.001566307619214058,0.02883942611515522,0.00022446952061727643,0.00022521399660035968,0.00232036504894495,0,1,-1000,0,0,0,-2,2,0,1500.0
14:59:30.502,STABILIZE,-35.3632621,149.1652375,28,0.00042976223630830646,0.001566307619214058,0.02883942611515522,0.00022446952061727643,0.00022521399660035968,0.00232036504894495,0,1,-1000,0,0,0,-2,2,0,1500.0
14:59:30.703,STABILIZE,-35.3632622,149.1652376,16,0.0008575434912927449,0.0014592420775443316,0.027724312618374825,0.00016065227100625634,0.000239885994233191,0.002338951686397195,0,1,-1000,0,0,0,-2,4,3,1500.0
14:59:30.905,STABILIZE,-35.3632622,149.1652376,16,0.0008575434912927449,0.0014592420775443316,0.027724312618374825,0.00016065227100625634,0.000239885994233191,0.002338951686397195,0,1,-1000,0,0,0,-2,4,3,1500.0
14:59:31.106,STABILIZE,-35.3632622,149.1652376,16,0.0008575434912927449,0.0014592420775443316,0.027724312618374825,0.00016065227100625634,0.000239885994233191,0.002338951686397195,0,1,-1000,0,0,0,-2,4,3,1500.0
14:59:31.307,STABILIZE,-35.3632622,149.1652376,6,0.00043101809569634497,0.0013562010135501623,0.027331437915563583,0.00022518064361065626,0.00027546408819034696,0.0022133865859359503,0,1,-1000,1,0,0,-2,4,3,1500.0
14:59:31.509,STABILIZE,-35.3632622,149.1652376,6,0.00043101809569634497,0.0013562010135501623,0.027331437915563583,0.00022518064361065626,0.00027546408819034696,0.0022133865859359503,0,1,-1000,1,0,0,-2,4,3,1500.0
14:59:31.710,STABILIZE,-35.3632622,149.1652376,6,0.00043101809569634497,0.0013562010135501623,0.027331437915563583,0.00022518064361065626,0.00027546408819034696,0.0022133865859359503,0,1,-1000,1,0,0,-2,4,3,1500.0
14:59:31.912,STABILIZE,-35.3632622,149.1652376,6,0.00043101809569634497,0.0013562010135501623,0.027331437915563583,0.00022518064361065626,0.00027546408819034696,0.0022133865859359503,0,1,-1000,1,0,0,-2,4,3,1500.0
14:59:32.113,STABILIZE,-35.3632622,149.1652376,0,-0.0001817876036511734,0.0011837957426905632,0.02677101083099842,0.00018917181296274066,0.00022305076709017158,0.0021294578909873962,0,1,-1000,0,0,1,-1,3,2,1500.0
14:59:32.314,STABILIZE,-35.3632622,149.1652376,0,-0.0001817876036511734,0.0011837957426905632,0.02677101083099842,0.00018917181296274066,0.00022305076709017158,0.0021294578909873962,0,1,-1000,0,0,0,-1,2,2,1500.0
14:59:32.515,STABILIZE,-35.3632622,149.1652376,0,-0.0004802449548151344,0.0011131968349218369,0.026519067585468292,0.00018765701679512858,0.0002152928791474551,0.0020716506987810135,0,1,-1000,0,1,1,-1,2,2,1500.0
14:59:32.717,STABILIZE,-35.3632622,149.1652376,0,-0.0004802449548151344,0.0011131968349218369,0.026519067585468292,0.00018765701679512858,0.0002152928791474551,0.0020716506987810135,0,1,-1000,0,1,0,-1,2,2,1500.0
14:59:32.918,STABILIZE,-35.3632622,149.1652376,0,-0.0004802449548151344,0.0011131968349218369,0.026519067585468292,0.00018765701679512858,0.0002152928791474551,0.0020716506987810135,0,1,-1000,0,1,0,-1,2,2,1500.0
14:59:33.119,STABILIZE,-35.3632622,149.1652376,0,-0.0004802449548151344,0.0011131968349218369,0.026519067585468292,0.00018765701679512858,0.0002152928791474551,0.0020716506987810135,0,1,-1000,0,1,0,-1,2,2,1500.0
14:59:33.321,STABILIZE,-35.3632622,149.1652375,0,-0.0004802449548151344,0.0011131968349218369,0.026519067585468292,0.00018765701679512858,0.0002152928791474551,0.0020716506987810135,0,1,-1000,0,0,0,-1,1,1,1500.0
14:59:33.522,STABILIZE,-35.3632622,149.1652375,0,-0.0004802449548151344,0.0011131968349218369,0.026519067585468292,0.00018765701679512858,0.0002152928791474551,0.0020716506987810135,0,1,-1000,0,0,0,-1,1,1,1500.0
14:59:33.723,STABILIZE,-35.3632622,149.1652375,0,-0.0004802449548151344,0.0011131968349218369,0.026519067585468292,0.00018765701679512858,0.0002152928791474551,0.0020716506987810135,0,1,-1000,0,0,0,-1,1,1,1500.0
14:59:33.924,STABILIZE,-35.3632622,149.1652375,0,-0.0004802449548151344,0.0011131968349218369,0.026519067585468292,0.00018765701679512858,0.0002152928791474551,0.0020716506987810135,0,1,-1000,0,0,0,-1,1,1,1500.0
14:59:34.125,STABILIZE,-35.3632621,149.1652375,0,-0.0007130718440748751,0.0009816738311201334,0.025837797671556473,0.00010247807949781418,0.00027190474793314934,0.0019143458921462297,0,1,-1000,0,0,0,-1,3,4,1500.0
14:59:34.327,STABILIZE,-35.3632621,149.1652375,0,-0.0008211575914174318,0.000969027925748378,0.025739511474967003,0.00011217297287657857,0.00019234869978390634,0.0019623269326984882,0,1,-1000,0,0,0,-1,2,4,1500.0
14:59:34.529,STABILIZE,-35.3632621,149.1652375,0,-0.0008211575914174318,0.000969027925748378,0.025739511474967003,0.00011217297287657857,0.00019234869978390634,0.0019623269326984882,0,1,-1000,0,0,0,-1,2,4,1500.0
14:59:34.730,STABILIZE,-35.3632621,149.1652375,0,-0.0010543647222220898,0.0009661223157308996,0.0255433339625597,8.897169027477503e-05,0.0003345245495438576,0.002054352080449462,0,1,-1000,0,0,0,-1,2,3,1500.0
14:59:34.932,STABILIZE,-35.3632621,149.1652375,0,-0.0010543647222220898,0.0009661223157308996,0.0255433339625597,8.897169027477503e-05,0.0003345245495438576,0.002054352080449462,0,1,-1000,0,0,0,-1,2,3,1500.0
14:59:35.133,STABILIZE,-35.3632621,149.1652375,0,-0.0011446480639278889,0.0009627850377000868,0.025470316410064697,0.00011961802374571562,0.00021382104023359716,0.0017901676474139094,0,1,-1000,0,0,0,-1,1,3,1500.0
14:59:35.335,STABILIZE,-35.3632621,149.1652375,0,-0.0012219020863994956,0.0009586659725755453,0.02537621557712555,0.00015981734031811357,0.00021023204317316413,0.0019933287985622883,0,1,-1000,0,0,0,-1,1,2,1500.0
14:59:35.536,STABILIZE,-35.3632621,149.1652375,0,-0.0012219020863994956,0.0009586659725755453,0.02537621557712555,0.00015981734031811357,0.00021023204317316413,0.0019933287985622883,0,1,-1000,0,0,0,-1,1,2,1500.0
14:59:35.738,STABILIZE,-35.3632621,149.1652375,0,-0.0012219020863994956,0.0009586659725755453,0.02537621557712555,0.00015981734031811357,0.00021023204317316413,0.0019933287985622883,0,1,-1000,0,0,0,-1,1,2,1500.0
14:59:35.939,STABILIZE,-35.3632621,149.1652375,0,-0.0012219020863994956,0.0009586659725755453,0.02537621557712555,0.00015981734031811357,0.00021023204317316413,0.0019933287985622883,0,1,-1000,0,0,0,-1,1,2,1500.0
14:59:36.141,STABILIZE,-35.3632621,149.1652375,0,-0.0012219020863994956,0.0009586659725755453,0.02537621557712555,0.00015981734031811357,0.00021023204317316413,0.0019933287985622883,0,1,-1000,0,0,0,-1,1,2,1500.0
14:59:36.342,STABILIZE,-35.3632621,149.1652375,0,-0.0012219020863994956,0.0009586659725755453,0.02537621557712555,0.00015981734031811357,0.00021023204317316413,0.0019933287985622883,0,1,-1000,0,0,0,-1,0,1,1500.0
14:59:36.543,STABILIZE,-35.3632621,149.1652375,0,-0.0012219020863994956,0.0009586659725755453,0.02537621557712555,0.00015981734031811357,0.00021023204317316413,0.0019933287985622883,0,1,-1000,0,0,0,-1,0,1,1500.0
14:59:36.744,STABILIZE,-35.3632621,149.1652375,0,-0.0015114961424842477,0.0009388868929818273,0.024978119879961014,7.388589438050985e-05,0.0002838975633494556,0.0018195461016148329,0,1,-1000,1,0,0,-1,0,1,1500.0
14:59:36.946,STABILIZE,-35.3632621,149.1652375,0,-0.0015114961424842477,0.0009388868929818273,0.024978119879961014,7.388589438050985e-05,0.0002838975633494556,0.0018195461016148329,0,1,-1000,1,0,0,-1,0,1,1500.0
14:59:37.147,STABILIZE,-35.3632621,149.1652375,0,-0.0015114961424842477,0.0009388868929818273,0.024978119879961014,7.388589438050985e-05,0.0002838975633494556,0.0018195461016148329,0,1,-1000,1,0,0,-1,0,1,1500.0
14:59:37.349,STABILIZE,-35.3632621,149.1652375,0,-0.0015285438857972622,0.0009374321671202779,0.02486046589910984,7.345329504460096e-05,0.000260811357293278,0.0018920896109193563,0,1,-1000,0,0,0,-1,0,0,1500.0
14:59:37.550,STABILIZE,-35.3632621,149.1652375,0,-0.0015285438857972622,0.0009374321671202779,0.02486046589910984,7.345329504460096e-05,0.000260811357293278,0.0018920896109193563,0,1,-1000,0,0,0,-1,0,0,1500.0
14:59:37.752,STABILIZE,-35.3632621,149.1652375,0,-0.0015285438857972622,0.0009374321671202779,0.02486046589910984,7.345329504460096e-05,0.000260811357293278,0.0018920896109193563,0,1,-1000,0,0,0,-1,0,0,1500.0
14:59:37.953,STABILIZE,-35.3632621,149.1652375,0,-0.0015285438857972622,0.0009374321671202779,0.02486046589910984,7.345329504460096e-05,0.000260811357293278,0.0018920896109193563,0,1,-1000,0,0,0,-1,0,0,1500.0
14:59:38.155,STABILIZE,-35.3632621,149.1652375,0,-0.0013292863732203841,0.0009466321207582951,0.02467411197721958,0.0002194336848333478,0.00029842060757800937,0.0019056749297305942,0,1,-1000,0,1,0,-1,0,0,1500.0
14:59:38.356,STABILIZE,-35.3632621,149.1652375,0,-0.0013292863732203841,0.0009466321207582951,0.02467411197721958,0.0002194336848333478,0.00029842060757800937,0.0019056749297305942,0,1,-1000,0,1,0,-1,0,0,1500.0
14:59:38.558,STABILIZE,-35.3632621,149.1652375,0,-0.0013292863732203841,0.0009466321207582951,0.02467411197721958,0.0002194336848333478,0.00029842060757800937,0.0019056749297305942,0,1,-1000,0,0,0,-1,0,0,1500.0
14:59:38.759,STABILIZE,-35.3632621,149.1652375,0,-0.0012410121271386743,0.0009496826096437871,0.02449752576649189,0.00017200136790052056,0.00033244333462789655,0.0017728633247315884,0,2,-1000,0,1,0,-1,0,-1,1500.0
14:59:38.960,STABILIZE,-35.3632621,149.1652375,0,-0.0012410121271386743,0.0009496826096437871,0.02449752576649189,0.00017200136790052056,0.00033244333462789655,0.0017728633247315884,0,2,-1000,0,1,0,-1,0,-1,1500.0
14:59:39.161,STABILIZE,-35.3632621,149.1652375,0,-0.0012410121271386743,0.0009496826096437871,0.02449752576649189,0.00017200136790052056,0.00033244333462789655,0.0017728633247315884,0,2,-1000,0,1,0,-1,0,-1,1500.0
14:59:39.363,STABILIZE,-35.3632621,149.1652375,0,-0.0012410121271386743,0.0009496826096437871,0.02449752576649189,0.00017200136790052056,0.00033244333462789655,0.0017728633247315884,0,2,-1000,0,1,0,-1,0,-1,1500.0
14:59:39.568,STABILIZE,-35.3632621,149.1652375,0,-0.0012410121271386743,0.0009496826096437871,0.02449752576649189,0.00017200136790052056,0.00033244333462789655,0.0017728633247315884,0,2,-1000,0,1,0,-1,0,-1,1500.0
14:59:39.773,STABILIZE,-35.3632621,149.1652375,0,-0.0012410121271386743,0.0009496826096437871,0.02449752576649189,0.00017200136790052056,0.00033244333462789655,0.0017728633247315884,0,2,-1000,0,1,0,-1,0,-1,1500.0
14:59:39.974,STABILIZE,-35.3632622,149.1652375,7,-0.0011379193747416139,0.0009561924380250275,0.024175995960831642,0.00032916670897975564,0.00033724651439115405,0.0017500148387625813,0,1,-1000,0,0,0,-1,0,-1,1500.0
14:59:40.176,STABILIZE,-35.3632622,149.1652375,7,-0.0011379193747416139,0.0009561924380250275,0.024175995960831642,0.00032916670897975564,0.00033724651439115405,0.0017500148387625813,0,1,-1000,0,0,0,-1,0,-1,1500.0
14:59:40.377,STABILIZE,-35.3632622,149.1652375,8,-0.001137753133662045,0.0009583969367668033,0.024086844176054,0.00010054308222606778,0.0003087303484790027,0.0017420579679310322,0,2,-1000,0,0,0,-1,0,-1,1500.0
14:59:40.579,STABILIZE,-35.3632621,149.1652375,10,-0.0011352738365530968,0.0009592779679223895,0.024026166647672653,0.00027254794258624315,0.0003201712970621884,0.001658234978094697,0,1,-1000,0,1,1,-1,0,-1,1500.0
14:59:40.780,STABILIZE,-35.3632622,149.1652375,11,-0.0011281160404905677,0.0009612083667889237,0.023953132331371307,0.00025197339709848166,0.00018602842465043068,0.0016912877326831222,0,1,-1000,1,0,1,-1,0,-1,1500.0
14:59:40.982,STABILIZE,-35.3632622,149.1652375,11,-0.0011281160404905677,0.0009612083667889237,0.023953132331371307,0.00025197339709848166,0.00018602842465043068,0.0016912877326831222,0,1,-1000,1,0,1,-1,0,-1,1500.0
14:59:41.183,STABILIZE,-35.3632622,149.1652375,11,-0.0011281160404905677,0.0009612083667889237,0.023953132331371307,0.00025197339709848166,0.00018602842465043068,0.0016912877326831222,0,1,-1000,1,0,1,-1,0,-1,1500.0
14:59:41.385,STABILIZE,-35.3632622,149.1652375,8,-0.0008172293310053647,0.0009621624485589564,0.023796485736966133,0.00028321408899500966,0.0002409453154541552,0.0017513681668788195,0,1,-1000,1,0,1,-1,2,0,1500.0
14:59:41.587,STABILIZE,-35.3632622,149.1652375,8,-0.0008172293310053647,0.0009621624485589564,0.023796485736966133,0.00028321408899500966,0.0002409453154541552,0.0017513681668788195,0,1,-1000,1,0,1,-1,2,0,1500.0
14:59:41.788,STABILIZE,-35.3632622,149.1652375,8,-0.0008172293310053647,0.0009621624485589564,0.023796485736966133,0.00028321408899500966,0.0002409453154541552,0.0017513681668788195,0,1,-1000,1,0,1,-1,2,0,1500.0
14:59:41.990,STABILIZE,-35.3632622,149.1652375,8,-0.0008172293310053647,0.0009621624485589564,0.023796485736966133,0.00028321408899500966,0.0002409453154541552,0.0017513681668788195,0,1,-1000,1,0,1,-1,2,0,1500.0
14:59:42.191,STABILIZE,-35.3632622,149.1652375,8,-0.0008172293310053647,0.0009621624485589564,0.023796485736966133,0.00028321408899500966,0.0002409453154541552,0.0017513681668788195,0,1,-1000,1,0,1,-1,2,0,1500.0
14:59:42.393,STABILIZE,-35.3632622,149.1652375,9,-0.0009472153033129871,0.0009590979316271842,0.023489687591791153,0.0001862696371972561,0.0002854843041859567,0.0016842000186443329,0,1,-1000,0,0,0,-1,1,0,1500.0
14:59:42.594,STABILIZE,-35.3632622,149.1652375,9,-0.0009472153033129871,0.0009590979316271842,0.023489687591791153,0.0001862696371972561,0.0002854843041859567,0.0016842000186443329,0,1,-1000,0,0,0,-1,1,0,1500.0
14:59:42.796,STABILIZE,-35.3632622,149.1652375,9,-0.0010113302851095796,0.000962055113632232,0.02333751879632473,0.0002845212584361434,0.0003755958750844002,0.0016781659796833992,0,1,-1000,0,0,0,-1,1,0,1500.0
14:59:42.997,STABILIZE,-35.3632622,149.1652375,10,-0.0010414262069389224,0.0009613600559532642,0.023276906460523605,0.0002633622498251498,0.00027588236844167113,0.001680531888268888,0,2,-1000,0,1,0,-1,1,0,1500.0
14:59:43.199,STABILIZE,-35.3632622,149.1652375,10,-0.0010414262069389224,0.0009613600559532642,0.023276906460523605,0.0002633622498251498,0.00027588236844167113,0.001680531888268888,0,2,-1000,0,1,0,-1,1,0,1500.0
14:59:43.400,STABILIZE,-35.3632622,149.1652375,10,-0.0010414262069389224,0.0009613600559532642,0.023276906460523605,0.0002633622498251498,0.00027588236844167113,0.001680531888268888,0,2,-1000,0,1,0,-1,1,0,1500.0
14:59:43.602,STABILIZE,-35.3632622,149.1652375,10,-0.0010414262069389224,0.0009613600559532642,0.023276906460523605,0.0002633622498251498,0.00027588236844167113,0.001680531888268888,0,2,-1000,0,1,0,-1,1,0,1500.0
14:59:43.803,STABILIZE,-35.3632622,149.1652375,10,-0.0010414262069389224,0.0009613600559532642,0.023276906460523605,0.0002633622498251498,0.00027588236844167113,0.001680531888268888,0,2,-1000,0,1,0,-1,1,0,1500.0
14:59:44.005,STABILIZE,-35.3632622,149.1652375,12,-0.001149505376815796,0.0009798456449061632,0.023013973608613014,0.00039621960604563355,0.00023886049166321754,0.001603452954441309,0,2,-1000,0,1,0,-1,1,0,1500.0
14:59:44.206,STABILIZE,-35.3632622,149.1652375,12,-0.001149505376815796,0.0009798456449061632,0.023013973608613014,0.00039621960604563355,0.00023886049166321754,0.001603452954441309,0,2,-1000,0,1,0,-1,1,0,1500.0
14:59:44.408,STABILIZE,-35.3632622,149.1652375,12,-0.001149505376815796,0.0009798456449061632,0.023013973608613014,0.00039621960604563355,0.00023886049166321754,0.001603452954441309,0,2,-1000,0,1,0,-1,1,0,1500.0
14:59:44.609,STABILIZE,-35.3632622,149.1652375,19,-0.001188146066851914,0.0009820008417591453,0.022891709581017494,7.19027011655271e-05,0.00024672067956998944,0.001539786346256733,0,2,-1000,0,0,0,-1,0,-3,1500.0
14:59:44.811,STABILIZE,-35.3632622,149.1652375,19,-0.001188146066851914,0.0009820008417591453,0.022891709581017494,7.19027011655271e-05,0.00024672067956998944,0.001539786346256733,0,2,-1000,0,0,0,-1,0,-3,1500.0
14:59:45.012,STABILIZE,-35.3632622,149.1652375,19,-0.001188146066851914,0.0009820008417591453,0.022891709581017494,7.19027011655271e-05,0.00024672067956998944,0.001539786346256733,0,2,-1000,0,0,0,-1,0,-3,1500.0
14:59:45.214,STABILIZE,-35.3632622,149.1652375,30,-0.0010535677429288626,0.0009819413535296917,0.022730670869350433,0.00029995443765074015,0.00027648493414744735,0.0016225151484832168,0,1,-1000,0,0,0,-1,0,-3,1500.0
14:59:45.415,STABILIZE,-35.3632622,149.1652375,30,-0.0010535677429288626,0.0009819413535296917,0.022730670869350433,0.00029995443765074015,0.00027648493414744735,0.0016225151484832168,0,1,-1000,0,0,0,-1,0,-3,1500.0
14:59:45.617,AUTO,-35.3632622,149.1652375,30,-0.0010535677429288626,0.0009819413535296917,0.022730670869350433,0.00029995443765074015,0.00027648493414744735,0.0016225151484832168,0,1,-1000,0,0,0,-1,0,-3,1500.0
14:59:45.819,AUTO,-35.3632622,149.1652375,30,-0.0010535677429288626,0.0009819413535296917,0.022730670869350433,0.00029995443765074015,0.00027648493414744735,0.0016225151484832168,0,1,-1000,0,0,0,-1,0,-3,1500.0
14:59:46.020,AUTO,-35.3632622,149.1652375,6,-0.0009281249367631972,0.0009983563795685768,0.022590607404708862,0.00028923433274030685,0.0002620237064547837,0.0014625424519181252,0,1,-1000,1,1,1,-1,0,-2,1500.0
14:59:46.222,AUTO,-35.3632622,149.1652375,8,-0.000892946554813534,0.0010057279141619802,0.02252253144979477,0.0003401892026886344,0.0002109935157932341,0.0014844270190224051,0,1,-1000,1,1,0,-1,0,-2,300000.0
14:59:46.423,AUTO,-35.3632622,149.1652375,8,-0.000892946554813534,0.0010057279141619802,0.02252253144979477,0.0003401892026886344,0.0002109935157932341,0.0014844270190224051,0,1,-1000,1,1,0,-1,0,-2,300000.0
14:59:46.625,AUTO,-35.3632621,149.1652375,9,-0.0008612457313574851,0.0010298953857272863,0.022473331540822983,0.00011841946979984641,0.00031414045952260494,0.0014424322871491313,0,1,-1000,0,0,0,0,0,-2,300000.0
14:59:46.826,AUTO,-35.3632621,149.1652375,10,-0.000824937189463526,0.0010653531644493341,0.022406889125704765,0.00015936821000650525,0.0003139627515338361,0.0014518860261887312,0,1,-1000,0,0,0,0,0,-2,300000.0
14:59:47.028,AUTO,-35.3632621,149.1652375,11,-0.0007839162135496736,0.0011161552974954247,0.022322723641991615,0.00026643689488992095,0.00029753113631159067,0.0014100710395723581,0,1,-1000,0,1,1,0,0,-2,300000.0
14:59:47.230,AUTO,-35.3632621,149.1652375,12,-0.0007494886522181332,0.0011749565601348877,0.02226433716714382,0.00017185037722811103,0.00026982318377122283,0.0014648004435002804,0,1,-1000,1,0,0,0,0,-2,300000.0
14:59:47.431,AUTO,-35.3632621,149.1652375,12,-0.0007494886522181332,0.0011749565601348877,0.02226433716714382,0.00017185037722811103,0.00026982318377122283,0.0014648004435002804,0,1,-1000,1,0,0,0,0,-2,300000.0
14:59:47.633,AUTO,-35.3632621,149.1652375,12,-0.0007494886522181332,0.0011749565601348877,0.02226433716714382,0.00017185037722811103,0.00026982318377122283,0.0014648004435002804,0,1,-1000,1,0,0,0,0,-2,300000.0
14:59:47.835,AUTO,-35.3632621,149.1652375,12,-0.0007494886522181332,0.0011749565601348877,0.02226433716714382,0.00017185037722811103,0.00026982318377122283,0.0014648004435002804,0,1,-1000,1,0,0,0,0,-2,300000.0
14:59:48.037,AUTO,-35.3632621,149.1652374,20,-0.0006011043442413211,0.0013584847329184413,0.022053658962249756,0.00029804831137880683,0.00031818944262340665,0.0014686275972053409,0,1,-1000,0,0,1,0,-1,-4,300000.0
14:59:48.238,AUTO,-35.3632621,149.1652374,25,-0.000547321978956461,0.0014277816517278552,0.022005483508110046,0.00029935286147519946,0.0002588643692433834,0.0015615092124789953,0,1,-1000,0,0,1,0,-1,-4,300000.0
14:59:48.441,AUTO,-35.3632621,149.1652374,25,-0.000547321978956461,0.0014277816517278552,0.022005483508110046,0.00029935286147519946,0.0002588643692433834,0.0015615092124789953,0,1,-1000,0,0,1,0,-1,-4,300000.0
14:59:48.642,AUTO,-35.3632621,149.1652374,26,-0.0004938729107379913,0.0015003271400928497,0.021933594718575478,0.0002950290800072253,0.00031607516575604677,0.001436865422874689,0,1,-1000,1,1,1,0,0,-4,300000.0
14:59:48.844,AUTO,-35.3632621,149.1652374,27,-0.00043987034587189555,0.0015775052597746253,0.021852929145097733,0.0002778474008664489,0.0002261476474814117,0.001403431175276637,0,1,-1000,0,0,1,0,0,-3,300000.0
14:59:49.045,AUTO,-35.3632621,149.1652374,27,-0.0003808702458627522,0.0016484471270814538,0.02179405465722084,0.0002873778576031327,0.000266179908066988,0.0014680058229714632,0,1,-1000,0,1,0,0,0,-3,300000.0
14:59:49.247,AUTO,-35.3632621,149.1652374,27,-0.0003119644243270159,0.0017240456072613597,0.021724238991737366,0.00035897811176255345,0.00034191273152828217,0.0014502689009532332,0,1,-1000,1,0,1,0,0,-3,300000.0
14:59:49.449,AUTO,-35.3632621,149.1652374,27,-0.0003119644243270159,0.0017240456072613597,0.021724238991737366,0.00035897811176255345,0.00034191273152828217,0.0014502689009532332,0,1,-1000,1,0,1,0,0,-3,300000.0
14:59:49.651,AUTO,-35.3632621,149.1652374,27,-0.0003119644243270159,0.0017240456072613597,0.021724238991737366,0.00035897811176255345,0.00034191273152828217,0.0014502689009532332,0,1,-1000,1,0,1,0,0,-3,300000.0
14:59:49.853,AUTO,-35.3632621,149.1652374,27,-0.0003119644243270159,0.0017240456072613597,0.021724238991737366,0.00035897811176255345,0.00034191273152828217,0.0014502689009532332,0,1,-1000,1,0,1,0,0,-3,300000.0
14:59:50.055,AUTO,-35.3632621,149.1652374,244,0.0007670471677556634,0.00035829300759360194,0.021385271102190018,-0.003616034286096692,0.004423585254698992,0.0011361384531483054,0,0,-1130,-2,5,0,0,0,-79,300000.0
14:59:50.256,AUTO,-35.3632621,149.1652374,472,0.0006334778154268861,0.0011446027783676982,0.0213946420699358,0.0019818656146526337,0.0026176089886575937,0.0028005745261907578,0,0,-1109,2,3,2,0,0,-107,172923.0
14:59:50.459,AUTO,-35.3632621,149.1652374,472,0.0006334778154268861,0.0011446027783676982,0.0213946420699358,0.0019818656146526337,0.0026176089886575937,0.0028005745261907578,0,0,-1109,2,3,2,0,0,-107,172923.0
14:59:50.660,AUTO,-35.3632621,149.1652374,764,0.0020619260612875223,0.0013918619370087981,0.021337606012821198,0.02908344194293022,-0.0016033172141760588,0.0006962948245927691,0,0,-1079,29,0,0,0,0,-130,172923.0
14:59:50.862,AUTO,-35.3632621,149.1652374,1103,0.013336101546883583,0.00015964570047799498,0.021290244534611702,0.04829809069633484,-0.005877251271158457,0.0019572265446186066,0,0,-1034,49,-5,1,0,1,-142,172923.0
14:59:51.064,AUTO,-35.363262,149.1652374,1468,0.025206677615642548,-0.0014900151873007417,0.021392256021499634,0.046750426292419434,-0.006411071866750717,0.0026007613632827997,0,0,-1014,47,-5,2,1,6,-147,172923.0
14:59:51.266,AUTO,-35.363262,149.1652376,1845,0.0366499088704586,-0.00338363298214972,0.021597063168883324,0.044744208455085754,-0.0075928024016320705,0.003129935823380947,0,-1,-1006,45,-6,2,2,13,-149,172923.0
14:59:51.469,AUTO,-35.363262,149.1652376,1845,0.0366499088704586,-0.00338363298214972,0.021597063168883324,0.044744208455085754,-0.0075928024016320705,0.003129935823380947,0,-1,-1006,45,-6,2,2,13,-149,172923.0
14:59:51.671,AUTO,-35.363262,149.1652376,1845,0.0366499088704586,-0.00338363298214972,0.021597063168883324,0.044744208455085754,-0.0075928024016320705,0.003129935823380947,0,-1,-1006,45,-6,2,2,13,-149,172923.0
14:59:51.873,AUTO,-35.363262,149.1652376,1845,0.0366499088704586,-0.00338363298214972,0.021597063168883324,0.044744208455085754,-0.0075928024016320705,0.003129935823380947,0,-1,-1006,45,-6,2,2,13,-149,172923.0
14:59:52.077,AUTO,-35.3632616,149.1652398,2990,0.06079907342791557,-0.006514322943985462,-0.009922362864017487,-0.04356125369668007,0.050064995884895325,-0.07327210158109665,0,-8,-990,-43,50,-73,8,46,-148,172923.0
14:59:52.278,AUTO,-35.3632613,149.1652411,3367,0.03366194665431976,0.01691148430109024,-0.033366188406944275,-0.16892224550247192,0.0761193260550499,-0.09228207916021347,3,-11,-991,-168,76,-92,9,55,-145,172923.0
14:59:52.480,AUTO,-35.3632611,149.1652425,3740,-0.005530646536499262,0.02328508161008358,-0.0513363741338253,-0.10337413847446442,-0.0032565195579081774,-0.06380271911621094,4,-11,-1009,-102,-2,-64,5,54,-146,172923.0
14:59:52.682,AUTO,-35.3632611,149.1652425,3740,-0.005530646536499262,0.02328508161008358,-0.0513363741338253,-0.10337413847446442,-0.0032565195579081774,-0.06380271911621094,4,-11,-1009,-102,-2,-64,5,54,-146,172923.0
14:59:52.884,AUTO,-35.363261,149.1652439,4122,-0.02129700407385826,0.018566306680440903,-0.06343249976634979,-0.0463048554956913,-0.018799832090735435,-0.05197647586464882,4,-11,-1007,-45,-18,-52,2,47,-148,172923.0
14:59:53.085,AUTO,-35.3632609,149.165245,4504,-0.03698141127824783,0.012306664139032364,-0.07197131216526031,-0.07801996916532516,-0.023160500451922417,-0.035191088914871216,5,-8,-1002,-77,-22,-35,0,37,-149,172923.0
14:59:53.288,AUTO,-35.3632609,149.1652458,4886,-0.06013714522123337,0.0053197662346065044,-0.07744655758142471,-0.10320676118135452,-0.02956695854663849,-0.01991073600947857,4,-7,-1000,-102,-28,-20,-1,23,-149,172923.0
14:59:53.490,AUTO,-35.3632609,149.1652458,4886,-0.06013714522123337,0.0053197662346065044,-0.07744655758142471,-0.10320676118135452,-0.02956695854663849,-0.01991073600947857,4,-7,-1000,-102,-28,-20,-1,23,-149,172923.0
14:59:53.692,AUTO,-35.3632609,149.1652458,4886,-0.06013714522123337,0.0053197662346065044,-0.07744655758142471,-0.10320676118135452,-0.02956695854663849,-0.01991073600947857,4,-7,-1000,-102,-28,-20,-1,23,-149,172923.0
14:59:53.893,AUTO,-35.3632609,149.1652458,4886,-0.06013714522123337,0.0053197662346065044,-0.07744655758142471,-0.10320676118135452,-0.02956695854663849,-0.01991073600947857,4,-7,-1000,-102,-28,-20,-1,23,-149,172923.0
14:59:54.095,AUTO,-35.363261,149.1652454,6029,-0.06572683900594711,-0.004386452026665211,-0.0914798229932785,0.05349302291870117,-0.0021464538294821978,-0.011052154935896397,-2,5,-1001,54,-1,-11,-2,-33,-149,172923.0
14:59:54.297,AUTO,-35.363261,149.1652443,6411,-0.051660723984241486,-0.004218084737658501,-0.09445653855800629,0.05939121171832085,0.0035309300292283297,-0.007349317893385887,-3,6,-1000,59,4,-7,-3,-46,-149,300000.0
14:59:54.499,AUTO,-35.3632611,149.1652429,6794,-0.03638531267642975,-0.0026840928476303816,-0.096522755920887,0.06214752048254013,0.00806481670588255,-0.0033702049404382706,-6,11,-1001,62,8,-3,-4,-55,-149,300000.0
14:59:54.701,AUTO,-35.3632611,149.1652429,6794,-0.03638531267642975,-0.0026840928476303816,-0.096522755920887,0.06214752048254013,0.00806481670588255,-0.0033702049404382706,-6,11,-1001,62,8,-3,-4,-55,-149,300000.0
14:59:54.903,AUTO,-35.3632613,149.1652413,7177,-0.02037717029452324,-0.00018837455718312413,-0.09764879196882248,0.06512169539928436,0.011186627671122551,-0.0007487548282369971,-6,11,-1002,65,11,-1,-5,-60,-149,300000.0
14:59:55.105,AUTO,-35.3632614,149.1652396,7562,-0.0038417153991758823,0.002830453682690859,-0.0980101078748703,0.06773505359888077,0.01268263440579176,0.0007009685505181551,-6,11,-1003,68,13,0,-7,-60,-150,300000.0
14:59:55.307,AUTO,-35.3632616,149.165238,7949,0.012839836068451405,0.005880286451429129,-0.0977185070514679,0.06684210896492004,0.011537662707269192,0.0027540691662579775,-5,10,-1004,67,12,2,-9,-56,-151,300000.0
14:59:55.509,AUTO,-35.3632616,149.165238,7949,0.012839836068451405,0.005880286451429129,-0.0977185070514679,0.06684210896492004,0.011537662707269192,0.0027540691662579775,-5,10,-1004,67,12,2,-9,-56,-151,300000.0
14:59:55.711,AUTO,-35.3632616,149.165238,7949,0.012839836068451405,0.005880286451429129,-0.0977185070514679,0.06684210896492004,0.011537662707269192,0.0027540691662579775,-5,10,-1004,67,12,2,-9,-56,-151,300000.0
14:59:55.913,AUTO,-35.3632616,149.165238,7949,0.012839836068451405,0.005880286451429129,-0.0977185070514679,0.06684210896492004,0.011537662707269192,0.0027540691662579775,-5,10,-1004,67,12,2,-9,-56,-151,300000.0
14:59:56.115,AUTO,-35.3632625,149.1652343,9125,0.06147101894021034,0.010777589865028858,-0.09413095563650131,0.06020908057689667,-0.0006001464789733291,0.005303974263370037,-2,9,-1002,60,0,4,-14,-22,-152,300000.0
14:59:56.316,AUTO,-35.3632628,149.1652339,9517,0.07179516553878784,0.006427012849599123,-0.08882755786180496,0.00538230873644352,-0.04695689678192139,0.0493137501180172,1,4,-995,6,-46,48,-15,-4,-152,300000.0
14:59:56.518,AUTO,-35.3632631,149.165234,9905,0.06241791322827339,-0.018177852034568787,-0.06850040704011917,-0.06551394611597061,-0.12044858932495117,0.10592090338468552,2,0,-993,-64,-119,105,-11,12,-150,300000.0
14:59:56.720,AUTO,-35.3632633,149.1652343,10287,0.03727966174483299,-0.03476526588201523,-0.0541866272687912,-0.11447062343358994,-0.009073921479284763,0.027608249336481094,3,-2,-995,-113,-8,27,-2,22,-148,300000.0
14:59:56.922,AUTO,-35.3632633,149.1652343,10287,0.03727966174483299,-0.03476526588201523,-0.0541866272687912,-0.11447062343358994,-0.009073921479284763,0.027608249336481094,3,-2,-995,-113,-8,27,-2,22,-148,300000.0
14:59:57.124,AUTO,-35.3632632,149.1652349,10668,0.010456539690494537,-0.028404291719198227,-0.055052075535058975,-0.09392301738262177,0.044123679399490356,-0.02507890574634075,3,-4,-1001,-93,44,-25,6,26,-147,300000.0
14:59:57.326,AUTO,-35.3632631,149.1652355,11052,-0.008498313836753368,-0.01672411896288395,-0.06527618318796158,-0.06000389903783798,0.04255310446023941,-0.047017935663461685,0,-5,-1004,-59,43,-47,12,23,-148,300000.0
14:59:57.528,AUTO,-35.3632631,149.1652355,11052,-0.008498313836753368,-0.01672411896288395,-0.06527618318796158,-0.06000389903783798,0.04255310446023941,-0.047017935663461685,0,-5,-1004,-59,43,-47,12,23,-148,300000.0
14:59:57.729,AUTO,-35.3632631,149.1652355,11052,-0.008498313836753368,-0.01672411896288395,-0.06527618318796158,-0.06000389903783798,0.04255310446023941,-0.047017935663461685,0,-5,-1004,-59,43,-47,12,23,-148,300000.0
14:59:57.931,AUTO,-35.3632631,149.1652355,11052,-0.008498313836753368,-0.01672411896288395,-0.06527618318796158,-0.06000389903783798,0.04255310446023941,-0.047017935663461685,0,-5,-1004,-59,43,-47,12,23,-148,300000.0
14:59:58.133,AUTO,-35.3632621,149.1652366,12202,-0.022586677223443985,0.003056636778637767,-0.10732300579547882,0.008487697690725327,0.019713308662176132,-0.04889519512653351,-2,-2,-1002,9,20,-49,15,3,-150,300000.0
14:59:58.336,AUTO,-35.3632617,149.1652366,12590,-0.018716804683208466,0.006503432057797909,-0.11922037601470947,0.020171059295535088,0.012972173281013966,-0.041078176349401474,-2,-2,-1001,20,13,-41,13,-2,-151,44336.0
14:59:58.537,AUTO,-35.3632614,149.1652365,12978,-0.012530965730547905,0.009315392933785915,-0.129290372133255,0.02783077582716942,0.01007387600839138,-0.03456062078475952,-3,0,-1001,28,10,-34,10,-7,-151,44336.0
14:59:58.739,AUTO,-35.3632612,149.1652363,13368,-0.0058213178999722,0.011351849883794785,-0.1372886449098587,0.022915320470929146,0.008249870501458645,-0.02815418690443039,-3,0,-1000,23,9,-28,7,-9,-151,44336.0
14:59:58.943,AUTO,-35.3632612,149.1652363,13368,-0.0058213178999722,0.011351849883794785,-0.1372886449098587,0.022915320470929146,0.008249870501458645,-0.02815418690443039,-3,0,-1000,23,9,-28,7,-9,-151,44336.0
14:59:59.144,AUTO,-35.363261,149.165236,13758,-4.636056928575272e-06,0.013099299743771553,-0.14376355707645416,0.021971646696329117,0.0058585526421666145,-0.02218746580183506,-3,1,-1000,22,6,-22,4,-9,-151,44336.0
14:59:59.346,AUTO,-35.3632609,149.1652357,14147,0.005344764795154333,0.013581538572907448,-0.1481400728225708,0.0203931275755167,0.0006378868711180985,-0.013988268561661243,-2,0,-1000,20,1,-14,1,-8,-151,44336.0
14:59:59.548,AUTO,-35.3632609,149.1652357,14147,0.005344764795154333,0.013581538572907448,-0.1481400728225708,0.0203931275755167,0.0006378868711180985,-0.013988268561661243,-2,0,-1000,20,1,-14,1,-8,-151,44336.0
14:59:59.750,AUTO,-35.3632609,149.1652357,14147,0.005344764795154333,0.013581538572907448,-0.1481400728225708,0.0203931275755167,0.0006378868711180985,-0.013988268561661243,-2,0,-1000,20,1,-14,1,-8,-151,44336.0
14:59:59.952,AUTO,-35.3632609,149.1652357,14147,0.005344764795154333,0.013581538572907448,-0.1481400728225708,0.0203931275755167,0.0006378868711180985,-0.013988268561661243,-2,0,-1000,20,1,-14,1,-8,-151,44336.0
15:00:00.154,AUTO,-35.3632609,149.1652351,15314,0.011891307309269905,0.010276857763528824,-0.1534714549779892,-0.00043271839967928827,-0.005545588210225105,-0.0039375536143779755,0,1,-999,0,-4,-4,-5,-1,-151,44336.0
15:00:00.355,AUTO,-35.363261,149.1652351,15708,0.011111235246062279,0.008569624274969101,-0.1544053554534912,-0.0037232632748782635,-0.007517571561038494,-0.004171287175267935,0,1,-1000,-3,-6,-4,-6,1,-151,44336.0
15:00:00.557,AUTO,-35.3632611,149.1652351,16096,0.009748339653015137,0.007169631775468588,-0.15592312812805176,-0.006941814906895161,-0.003794705728068948,-0.006172363180667162,0,0,-999,-6,-3,-6,-7,3,-151,44336.0
15:00:00.759,AUTO,-35.3632612,149.1652351,16485,0.008041758090257645,0.005843474995344877,-0.15788142383098602,-0.004370562266558409,-0.005167979281395674,-0.009532991796731949,1,0,-1000,-3,-4,-9,-7,5,-151,44336.0
15:00:00.961,AUTO,-35.3632612,149.1652351,16485,0.008041758090257645,0.005843474995344877,-0.15788142383098602,-0.004370562266558409,-0.005167979281395674,-0.009532991796731949,1,0,-1000,-3,-4,-9,-7,5,-151,44336.0
15:00:01.162,AUTO,-35.3632613,149.1652352,16872,0.006366145331412554,0.0045518530532717705,-0.16039051115512848,-0.006579529028385878,-0.004620583262294531,-0.01149090938270092,1,0,-1000,-6,-4,-11,-7,6,-151,44336.0
15:00:01.365,AUTO,-35.3632615,149.1652353,17261,0.004698246251791716,0.0033187747467309237,-0.1633688062429428,-0.005469278898090124,-0.003720202250406146,-0.013117124326527119,1,0,-1000,-4,-3,-13,-7,7,-151,44336.0
15:00:01.567,AUTO,-35.3632615,149.1652353,17261,0.004698246251791716,0.0033187747467309237,-0.1633688062429428,-0.005469278898090124,-0.003720202250406146,-0.013117124326527119,1,0,-1000,-4,-3,-13,-7,7,-151,44336.0
15:00:01.777,AUTO,-35.3632615,149.1652353,17261,0.004698246251791716,0.0033187747467309237,-0.1633688062429428,-0.005469278898090124,-0.003720202250406146,-0.013117124326527119,1,0,-1000,-4,-3,-13,-7,7,-151,44336.0
15:00:01.979,AUTO,-35.3632617,149.1652357,18422,0.0015413210494443774,0.0013075624592602253,-0.17579446732997894,-0.0007098008645698428,-7.857417222112417e-05,-0.01877179741859436,1,0,-1000,0,0,-19,-5,6,-151,44336.0
15:00:02.181,AUTO,-35.3632617,149.1652357,18422,0.0015413210494443774,0.0013075624592602253,-0.17579446732997894,-0.0007098008645698428,-7.857417222112417e-05,-0.01877179741859436,1,0,-1000,0,0,-19,-5,6,-151,44336.0
15:00:02.383,AUTO,-35.3632618,149.1652358,18811,0.0009787394665181637,0.0011728366371244192,-0.180950328707695,0.0007646533194929361,0.00035075796768069267,-0.020205063745379448,0,0,-1000,1,1,-20,-4,6,-151,300000.0
15:00:02.584,AUTO,-35.3632618,149.1652359,19199,3.0816499929642305e-05,0.0012142527848482132,-0.1864352524280548,-0.02074909396469593,0.0011415870394557714,-0.022696321830153465,0,0,-997,-20,1,-22,-4,5,-151,300000.0
15:00:02.786,AUTO,-35.3632619,149.165236,19586,-0.015777308493852615,0.001267352607101202,-0.19216877222061157,-0.09237682819366455,0.00017737410962581635,-0.02483636699616909,0,0,-994,-91,1,-25,-3,3,-150,300000.0
15:00:02.987,AUTO,-35.3632619,149.1652359,19971,-0.041887395083904266,0.002368419198319316,-0.1967257708311081,-0.09198826551437378,0.023894406855106354,0.019995184615254402,0,0,-990,-91,24,19,-4,-4,-149,300000.0
15:00:03.189,AUTO,-35.3632619,149.1652359,19971,-0.041887395083904266,0.002368419198319316,-0.1967257708311081,-0.09198826551437378,0.023894406855106354,0.019995184615254402,0,0,-990,-91,24,19,-4,-4,-149,300000.0
15:00:03.391,AUTO,-35.363262,149.1652357,20351,-0.05317944288253784,0.02349022589623928,-0.15912243723869324,-0.0185198113322258,0.10531263053417206,0.27261677384376526,-1,1,-980,-17,105,272,-9,-15,-144,300000.0
15:00:03.592,AUTO,-35.363262,149.1652357,20351,-0.05317944288253784,0.02349022589623928,-0.15912243723869324,-0.0185198113322258,0.10531263053417206,0.27261677384376526,-1,1,-980,-17,105,272,-9,-15,-144,300000.0
15:00:03.794,AUTO,-35.363262,149.1652357,20351,-0.05317944288253784,0.02349022589623928,-0.15912243723869324,-0.0185198113322258,0.10531263053417206,0.27261677384376526,-1,1,-980,-17,105,272,-9,-15,-144,300000.0
15:00:03.995,AUTO,-35.3632635,149.1652331,21370,0.0053252591751515865,-0.0045238458551466465,0.07866117358207703,0.1384466588497162,-0.15924237668514252,0.07267356663942337,2,11,-954,139,-158,72,-33,-36,-116,300000.0
15:00:04.197,AUTO,-35.3632635,149.1652331,21370,0.0053252591751515865,-0.0045238458551466465,0.07866117358207703,0.1384466588497162,-0.15924237668514252,0.07267356663942337,2,11,-954,139,-158,72,-33,-36,-116,300000.0
15:00:04.399,AUTO,-35.3632641,149.1652321,21655,0.0347125306725502,-0.03260338678956032,0.08170175552368164,0.09740947186946869,-0.07513716071844101,-0.025173787027597427,0,9,-958,98,-74,-25,-27,-29,-105,300000.0
15:00:04.601,AUTO,-35.3632646,149.1652314,21913,0.05261406674981117,-0.04246747866272926,0.07145410031080246,0.045268990099430084,-0.016999641433358192,-0.04771903529763222,1,7,-961,46,-15,-48,-18,-16,-95,300000.0
15:00:04.802,AUTO,-35.3632649,149.1652311,22150,0.059393350034952164,-0.04199293255805969,0.0605955608189106,0.009012570604681969,0.011603925377130508,-0.03652878850698471,1,3,-965,9,12,-36,-8,-1,-85,300000.0
15:00:05.004,AUTO,-35.363265,149.1652312,22358,0.0572856068611145,-0.036665499210357666,0.0539320670068264,-0.01974053867161274,0.02745840512216091,-0.018868261948227882,0,0,-969,-18,28,-19,0,12,-76,300000.0
15:00:05.206,AUTO,-35.363265,149.1652312,22358,0.0572856068611145,-0.036665499210357666,0.0539320670068264,-0.01974053867161274,0.02745840512216091,-0.018868261948227882,0,0,-969,-18,28,-19,0,12,-76,300000.0
15:00:05.408,AUTO,-35.3632648,149.1652316,22546,0.049385763704776764,-0.028273917734622955,0.05104199796915054,-0.034218959510326385,0.036426328122615814,-0.005239651072770357,0,-4,-973,-33,37,-5,8,24,-69,300000.0
15:00:05.610,AUTO,-35.3632648,149.1652316,22546,0.049385763704776764,-0.028273917734622955,0.05104199796915054,-0.034218959510326385,0.036426328122615814,-0.005239651072770357,0,-4,-973,-33,37,-5,8,24,-69,300000.0
15:00:05.812,AUTO,-35.3632648,149.1652316,22546,0.049385763704776764,-0.028273917734622955,0.05104199796915054,-0.034218959510326385,0.036426328122615814,-0.005239651072770357,0,-4,-973,-33,37,-5,8,24,-69,300000.0
15:00:06.013,AUTO,-35.3632638,149.165234,23005,0.01726941578090191,-0.0011525651207193732,0.049581874161958694,-0.036972757428884506,0.03022589348256588,0.00319285923615098,0,-9,-977,-36,30,2,19,39,-51,300000.0
15:00:06.215,AUTO,-35.3632638,149.165234,23005,0.01726941578090191,-0.0011525651207193732,0.049581874161958694,-0.036972757428884506,0.03022589348256588,0.00319285923615098,0,-9,-977,-36,30,2,19,39,-51,300000.0
15:00:06.417,AUTO,-35.3632634,149.165235,23129,0.008249472826719284,0.005148733966052532,0.04905121400952339,-0.0280250683426857,0.024910707026720047,0.0024379531387239695,0,-10,-978,-27,25,2,19,39,-45,114644.0
15:00:06.619,AUTO,-35.3632629,149.165236,23239,0.0006977872690185905,0.010286358185112476,0.048340268433094025,-0.03490126505494118,0.018157823011279106,0.0010029840050265193,0,-10,-978,-33,19,0,18,37,-40,114644.0
15:00:06.821,AUTO,-35.3632625,149.1652369,23333,-0.004892018623650074,0.013373819179832935,0.04754139110445976,-0.016384750604629517,0.009056594222784042,0.000920723017770797,0,-8,-976,-15,9,0,16,33,-34,114644.0
15:00:07.023,AUTO,-35.3632621,149.1652377,23413,-0.008446374908089638,0.015006419271230698,0.046827398240566254,0.0032875086180865765,0.005279188044369221,-0.0017128322506323457,0,-7,-976,4,6,-1,13,29,-28,114644.0
15:00:07.226,AUTO,-35.3632618,149.1652384,23477,-0.011541510932147503,0.015353473834693432,0.04607363045215607,-0.039411015808582306,-0.00021461129654198885,-0.0014538252726197243,0,-8,-974,-38,0,-1,10,24,-22,114644.0
15:00:07.428,AUTO,-35.3632618,149.1652384,23477,-0.011541510932147503,0.015353473834693432,0.04607363045215607,-0.039411015808582306,-0.00021461129654198885,-0.0014538252726197243,0,-8,-974,-38,0,-1,10,24,-22,114644.0
15:00:07.630,AUTO,-35.3632618,149.1652384,23477,-0.011541510932147503,0.015353473834693432,0.04607363045215607,-0.039411015808582306,-0.00021461129654198885,-0.0014538252726197243,0,-8,-974,-38,0,-1,10,24,-22,114644.0
15:00:07.832,AUTO,-35.3632618,149.1652384,23477,-0.011541510932147503,0.015353473834693432,0.04607363045215607,-0.039411015808582306,-0.00021461129654198885,-0.0014538252726197243,0,-8,-974,-38,0,-1,10,24,-22,114644.0
15:00:08.033,AUTO,-35.3632612,149.1652398,23562,-0.029240136966109276,0.01910148747265339,0.04292718321084976,-0.6060627102851868,0.1564963161945343,-0.00963064469397068,-2,-23,-934,-605,157,-9,2,9,2,114644.0
15:00:08.235,AUTO,-35.3632612,149.1652399,23532,-0.0500359870493412,0.02516603283584118,0.04123033583164215,0.013217901811003685,-0.04552830383181572,-0.011911331675946712,0,21,-947,15,-44,-12,-2,0,18,114644.0
15:00:08.437,AUTO,-35.3632612,149.1652399,23532,-0.0500359870493412,0.02516603283584118,0.04123033583164215,0.013217901811003685,-0.04552830383181572,-0.011911331675946712,0,21,-947,15,-44,-12,-2,0,18,114644.0
15:00:08.639,AUTO,-35.3632612,149.1652398,23477,-0.019974008202552795,0.0021723720710724592,0.0408632829785347,0.7715244293212891,-0.10835636407136917,-0.013182299211621284,0,47,-999,773,-107,-13,-4,-8,22,114644.0
15:00:08.841,AUTO,-35.3632612,149.1652395,23420,0.0038660343270748854,-0.02291758731007576,0.04024539142847061,0.6017507314682007,-0.08963479101657867,0.0014874357730150223,-1,11,-1024,602,-88,1,-1,-12,19,114644.0
15:00:09.043,AUTO,-35.3632612,149.1652391,23376,0.011209642514586449,-0.04188194498419762,0.03977220132946968,-0.3067859709262848,-0.06933537870645523,0.004794630222022533,-4,-29,-1001,-306,-68,4,6,-11,14,114644.0
15:00:09.245,AUTO,-35.3632609,149.1652388,23344,0.009000646881759167,-0.05742345005273819,0.037835754454135895,-0.693360447883606,-0.05317685380578041,-0.009052818641066551,-3,-25,-1015,-692,-52,-9,17,-7,8,114644.0
15:00:09.447,AUTO,-35.3632609,149.1652388,23344,0.009000646881759167,-0.05742345005273819,0.037835754454135895,-0.693360447883606,-0.05317685380578041,-0.009052818641066551,-3,-25,-1015,-692,-52,-9,17,-7,8,114644.0
15:00:09.649,AUTO,-35.3632609,149.1652388,23344,0.009000646881759167,-0.05742345005273819,0.037835754454135895,-0.693360447883606,-0.05317685380578041,-0.009052818641066551,-3,-25,-1015,-692,-52,-9,17,-7,8,114644.0
15:00:09.850,AUTO,-35.3632609,149.1652388,23344,0.009000646881759167,-0.05742345005273819,0.037835754454135895,-0.693360447883606,-0.05317685380578041,-0.009052818641066551,-3,-25,-1015,-692,-52,-9,17,-7,8,114644.0
15:00:10.052,AUTO,-35.3632582,149.1652388,23300,0.05059029906988144,-0.09151902049779892,0.047571588307619095,0.3713020384311676,-0.034163497388362885,0.07032141089439392,-12,-6,-1006,371,-33,70,66,12,1,114644.0
15:00:10.254,AUTO,-35.3632565,149.165239,23295,0.044782258570194244,-0.1004016250371933,0.06407257914543152,-0.4645153284072876,-0.03362472727894783,0.08162842690944672,-15,-41,-1014,-463,-32,81,86,20,0,114644.0
15:00:10.456,AUTO,-35.3632565,149.165239,23295,0.044782258570194244,-0.1004016250371933,0.06407257914543152,-0.4645153284072876,-0.03362472727894783,0.08162842690944672,-15,-41,-1014,-463,-32,81,86,20,0,108708.0
15:00:10.658,AUTO,-35.3632543,149.1652396,23293,0.0452432706952095,-0.11123495548963547,0.08500131219625473,-0.30719462037086487,-0.04515812546014786,0.1606108695268631,-21,-22,-1007,-305,-44,160,107,30,0,108708.0
15:00:10.860,AUTO,-35.3632516,149.1652404,23294,0.04581642895936966,-0.1269068866968155,0.19488653540611267,0.5397844314575195,-0.008956811390817165,0.6519798636436462,-26,0,-1007,541,-7,651,130,39,-1,108708.0
15:00:11.062,AUTO,-35.3632485,149.1652415,23294,0.030913157388567924,-0.14219453930854797,0.3377607762813568,0.07626926153898239,-0.03541933000087738,0.4425216615200043,-32,-33,-1003,76,-34,442,155,47,-1,108708.0
15:00:11.264,AUTO,-35.3632447,149.1652429,23294,0.018812112510204315,-0.15254156291484833,0.40099337697029114,-0.45128920674324036,-0.03233060985803604,0.1355762779712677,-37,-43,-1004,-450,-31,135,180,57,0,108708.0
15:00:11.466,AUTO,-35.3632447,149.1652429,23294,0.018812112510204315,-0.15254156291484833,0.40099337697029114,-0.45128920674324036,-0.03233060985803604,0.1355762779712677,-37,-43,-1004,-450,-31,135,180,57,0,108708.0
15:00:11.668,AUTO,-35.3632447,149.1652429,23294,0.018812112510204315,-0.15254156291484833,0.40099337697029114,-0.45128920674324036,-0.03233060985803604,0.1355762779712677,-37,-43,-1004,-450,-31,135,180,57,0,108708.0
15:00:11.881,AUTO,-35.3632447,149.1652429,23294,0.018812112510204315,-0.15254156291484833,0.40099337697029114,-0.45128920674324036,-0.03233060985803604,0.1355762779712677,-37,-43,-1004,-450,-31,135,180,57,0,108708.0
15:00:12.083,AUTO,-35.3632301,149.165249,23286,0.02164175920188427,-0.18674799799919128,0.37762030959129333,0.011974488385021687,-0.0210732314735651,-0.05360409617424011,-58,-45,-1008,12,-20,-53,264,89,0,108708.0
15:00:12.284,AUTO,-35.3632238,149.1652517,23283,0.017317241057753563,-0.18420106172561646,0.3673812448978424,-0.2733837068080902,0.0137589480727911,-0.03397444263100624,-63,-48,-1012,-272,14,-34,294,98,0,108708.0
15:00:12.486,AUTO,-35.3632169,149.1652546,23283,0.028104916214942932,-0.18057496845722198,0.36287567019462585,0.22868114709854126,0.003563766833394766,-0.02999689243733883,-69,-25,-1011,230,4,-30,323,105,-1,108708.0
15:00:12.688,AUTO,-35.3632169,149.1652546,23283,0.028104916214942932,-0.18057496845722198,0.36287567019462585,0.22868114709854126,0.003563766833394766,-0.02999689243733883,-69,-25,-1011,230,4,-30,323,105,-1,108708.0
15:00:12.890,AUTO,-35.3632095,149.1652577,23286,0.03219403326511383,-0.18468770384788513,0.36284714937210083,0.06792192161083221,-0.03610606864094734,-0.0026521619874984026,-68,-49,-1000,68,-35,-2,349,112,-1,108708.0
15:00:13.092,AUTO,-35.3632015,149.1652611,23288,0.027413416653871536,-0.19177186489105225,0.3639546036720276,-0.16573499143123627,-0.02100381813943386,-0.011615677736699581,-73,-57,-1000,-164,-20,-11,376,120,-1,108708.0
15:00:13.293,AUTO,-35.3631929,149.1652648,23290,0.03357699140906334,-0.1920170933008194,0.36354297399520874,0.0971057191491127,-0.013658616691827774,-0.01947246491909027,-83,-45,-1004,98,-12,-19,402,128,-1,108708.0
15:00:13.495,AUTO,-35.3631929,149.1652648,23290,0.03357699140906334,-0.1920170933008194,0.36354297399520874,0.0971057191491127,-0.013658616691827774,-0.01947246491909027,-83,-45,-1004,98,-12,-19,402,128,-1,108708.0
15:00:13.698,AUTO,-35.3631929,149.1652648,23290,0.03357699140906334,-0.1920170933008194,0.36354297399520874,0.0971057191491127,-0.013658616691827774,-0.01947246491909027,-83,-45,-1004,98,-12,-19,402,128,-1,108708.0
15:00:13.899,AUTO,-35.3631929,149.1652648,23290,0.03357699140906334,-0.1920170933008194,0.36354297399520874,0.0971057191491127,-0.013658616691827774,-0.01947246491909027,-83,-45,-1004,98,-12,-19,402,128,-1,108708.0
15:00:14.101,AUTO,-35.3631636,149.1652769,23293,0.04412636533379555,-0.21585702896118164,0.3587717115879059,0.04108971357345581,-0.035254206508398056,-0.021070703864097595,-109,-58,-1004,42,-34,-21,480,149,0,108708.0
15:00:14.303,AUTO,-35.3631526,149.1652813,23290,0.04887764900922775,-0.21829400956630707,0.35667407512664795,0.022585676982998848,0.02038305252790451,-0.022019779309630394,-105,-66,-1003,23,21,-22,508,157,0,108708.0
15:00:14.505,AUTO,-35.3631409,149.165286,23291,0.05474943295121193,-0.20526210963726044,0.3553192615509033,0.010565849021077156,0.05333796143531799,-0.016601063311100006,-96,-54,-1010,11,54,-16,533,165,-2,192074.0
15:00:14.707,AUTO,-35.3631409,149.165286,23291,0.05474943295121193,-0.20526210963726044,0.3553192615509033,0.010565849021077156,0.05333796143531799,-0.016601063311100006,-96,-54,-1010,11,54,-16,533,165,-2,192074.0
15:00:14.908,AUTO,-35.3631287,149.1652909,23301,0.0575009286403656,-0.19241970777511597,0.35452234745025635,0.016745755448937416,0.03857872262597084,-0.012599495239555836,-112,-61,-1009,17,39,-12,554,173,-6,192074.0
15:00:15.110,AUTO,-35.3631162,149.1652959,23318,0.06283886730670929,-0.1873336285352707,0.3532303273677826,0.01518983393907547,0.003033812390640378,-0.005294852890074253,-117,-75,-1000,15,3,-5,572,178,-8,192074.0
15:00:15.312,AUTO,-35.3631033,149.1653011,23337,0.06480187922716141,-0.18555137515068054,0.3518747091293335,0.003930193372070789,0.024289483204483986,-0.0015913497190922499,-117,-88,-995,4,25,-1,588,184,-8,192074.0
15:00:15.514,AUTO,-35.3631033,149.1653011,23337,0.06480187922716141,-0.18555137515068054,0.3518747091293335,0.003930193372070789,0.024289483204483986,-0.0015913497190922499,-117,-88,-995,4,25,-1,588,184,-8,192074.0
15:00:15.716,AUTO,-35.3631033,149.1653011,23337,0.06480187922716141,-0.18555137515068054,0.3518747091293335,0.003930193372070789,0.024289483204483986,-0.0015913497190922499,-117,-88,-995,4,25,-1,588,184,-8,192074.0
15:00:15.918,AUTO,-35.3631033,149.1653011,23337,0.06480187922716141,-0.18555137515068054,0.3518747091293335,0.003930193372070789,0.024289483204483986,-0.0015913497190922499,-117,-88,-995,4,25,-1,588,184,-8,192074.0
15:00:16.120,AUTO,-35.3630624,149.1653176,23408,0.0712580755352974,-0.16557835042476654,0.3502770662307739,0.0228959359228611,0.0031815706752240658,-0.01001136377453804,-124,-87,-991,23,4,-10,623,199,-10,192074.0
15:00:16.322,AUTO,-35.3630483,149.1653234,23433,0.07339057326316833,-0.16461335122585297,0.34958791732788086,0.02278858982026577,0.02408142387866974,-0.0005181791493669152,-105,-101,-980,23,24,0,633,201,-9,192074.0
15:00:16.524,AUTO,-35.3630338,149.1653292,23456,0.07791971415281296,-0.15267902612686157,0.34767892956733704,0.017392467707395554,0.03732673078775406,-0.009978508576750755,-122,-72,-990,18,38,-10,641,205,-9,192074.0
15:00:16.726,AUTO,-35.3630194,149.1653352,23482,0.07396996766328812,-0.14626121520996094,0.3463780879974365,-0.030204059556126595,-0.004158089403063059,0.0013950065476819873,-124,-74,-981,-29,-3,1,644,209,-10,192074.0
15:00:16.928,AUTO,-35.3630194,149.1653352,23482,0.07396996766328812,-0.14626121520996094,0.3463780879974365,-0.030204059556126595,-0.004158089403063059,0.0013950065476819873,-124,-74,-981,-29,-3,1,644,209,-10,192074.0
15:00:17.130,AUTO,-35.3630049,149.1653412,23507,0.07350845634937286,-0.14427535235881805,0.34665578603744507,0.015842245891690254,0.015819329768419266,0.0033070475328713655,-120,-76,-979,16,16,3,647,210,-8,192074.0
15:00:17.334,AUTO,-35.3629904,149.1653472,23529,0.07590302079916,-0.1387401968240738,0.3460335433483124,0.032837383449077606,0.008681636303663254,0.007553003262728453,-122,-80,-984,33,9,7,650,211,-7,192074.0
15:00:17.536,AUTO,-35.3629904,149.1653472,23529,0.07590302079916,-0.1387401968240738,0.3460335433483124,0.032837383449077606,0.008681636303663254,0.007553003262728453,-122,-80,-984,33,9,7,650,211,-7,192074.0
15:00:17.739,AUTO,-35.3629904,149.1653472,23529,0.07590302079916,-0.1387401968240738,0.3460335433483124,0.032837383449077606,0.008681636303663254,0.007553003262728453,-122,-80,-984,33,9,7,650,211,-7,192074.0
15:00:17.941,AUTO,-35.3629904,149.1653472,23529,0.07590302079916,-0.1387401968240738,0.3460335433483124,0.032837383449077606,0.008681636303663254,0.007553003262728453,-122,-80,-984,33,9,7,650,211,-7,192074.0
15:00:18.143,AUTO,-35.3629468,149.1653652,23593,0.07608731091022491,-0.12268266826868057,0.3438243269920349,-0.023933717980980873,-0.028086816892027855,0.008546210825443268,-136,-70,-973,-23,-27,8,648,211,-5,192074.0
15:00:18.354,AUTO,-35.3629323,149.1653712,23609,0.07612017542123795,-0.133376806974411,0.34298059344291687,-0.015890303999185562,-0.06342103332281113,0.01116909272968769,-154,-85,-976,-15,-62,11,645,209,-3,192074.0
15:00:18.556,AUTO,-35.3629178,149.1653772,23613,0.07774560898542404,-0.1400524526834488,0.3422854542732239,0.03364933282136917,0.01179303415119648,-0.00032275854027830064,-121,-76,-978,34,12,0,648,210,2,171733.0
15:00:18.759,AUTO,-35.3629031,149.1653832,23613,0.07735387980937958,-0.1313941329717636,0.3422870934009552,-0.010409519076347351,0.009463977999985218,0.011097108945250511,-129,-80,-991,-9,10,11,650,211,0,171733.0
15:00:18.964,AUTO,-35.3629031,149.1653832,23613,0.07735387980937958,-0.1313941329717636,0.3422870934009552,-0.010409519076347351,0.009463977999985218,0.011097108945250511,-129,-80,-991,-9,10,11,650,211,0,171733.0
15:00:19.167,AUTO,-35.3628885,149.1653892,23616,0.07565656304359436,-0.13500045239925385,0.342108815908432,-0.012963821180164814,-0.023565148934721947,0.006101502571254969,-133,-79,-983,-12,-22,6,650,211,0,171733.0
15:00:19.369,AUTO,-35.362874,149.1653952,23618,0.07880838215351105,-0.14036764204502106,0.34153276681900024,0.016595182940363884,-0.03190287947654724,0.009008132852613926,-144,-83,-986,17,-31,9,651,210,1,171733.0
15:00:19.574,AUTO,-35.362874,149.1653952,23618,0.07880838215351105,-0.14036764204502106,0.34153276681900024,0.016595182940363884,-0.03190287947654724,0.009008132852613926,-144,-83,-986,17,-31,9,651,210,1,171733.0
15:00:19.786,AUTO,-35.362874,149.1653952,23618,0.07880838215351105,-0.14036764204502106,0.34153276681900024,0.016595182940363884,-0.03190287947654724,0.009008132852613926,-144,-83,-986,17,-31,9,651,210,1,171733.0
15:00:19.988,AUTO,-35.3628299,149.1654133,23626,0.07735003530979156,-0.13282212615013123,0.3398951590061188,0.007278598845005035,-0.02120242640376091,0.0035255043767392635,-135,-70,-987,7,-19,3,655,212,-1,171733.0
15:00:20.189,AUTO,-35.3628299,149.1654133,23626,0.07735003530979156,-0.13282212615013123,0.3398951590061188,0.007278598845005035,-0.02120242640376091,0.0035255043767392635,-135,-70,-987,7,-19,3,655,212,-1,171733.0
15:00:20.391,AUTO,-35.3628152,149.1654193,23633,0.07572035491466522,-0.1361178159713745,0.34009218215942383,-0.013715081848204136,0.004429980181157589,0.013506807386875153,-131,-73,-980,-13,5,13,655,213,0,171733.0
15:00:20.593,AUTO,-35.3628005,149.1654254,23640,0.07771044969558716,-0.13254714012145996,0.3403002917766571,0.018424611538648605,0.023829864338040352,-0.01106364093720913,-133,-78,-990,19,24,-10,656,212,-1,171733.0
15:00:20.794,AUTO,-35.3627856,149.1654314,23648,0.07543811947107315,-0.12858743965625763,0.3403998911380768,0.007849366404116154,0.016637081280350685,-0.000515233725309372,-130,-78,-992,8,17,0,655,214,-2,171733.0
15:00:20.996,AUTO,-35.3627709,149.1654374,23659,0.07726830244064331,-0.12756076455116272,0.3397400677204132,0.014439542777836323,-0.005207219161093235,-0.0022967071272432804,-134,-79,-987,14,-4,-2,655,213,-2,171733.0
15:00:21.198,AUTO,-35.3627709,149.1654374,23659,0.07726830244064331,-0.12756076455116272,0.3397400677204132,0.014439542777836323,-0.005207219161093235,-0.0022967071272432804,-134,-79,-987,14,-4,-2,655,213,-2,171733.0
15:00:21.400,AUTO,-35.3627562,149.1654434,23670,0.07924725860357285,-0.12671247124671936,0.3390139937400818,0.006631828844547272,0.016443343833088875,0.0027522360906004906,-131,-82,-989,6,17,3,655,212,-2,171733.0
15:00:21.602,AUTO,-35.3627562,149.1654434,23670,0.07924725860357285,-0.12671247124671936,0.3390139937400818,0.006631828844547272,0.016443343833088875,0.0027522360906004906,-131,-82,-989,6,17,3,655,212,-2,171733.0
15:00:21.804,AUTO,-35.3627562,149.1654434,23670,0.07924725860357285,-0.12671247124671936,0.3390139937400818,0.006631828844547272,0.016443343833088875,0.0027522360906004906,-131,-82,-989,6,17,3,655,212,-2,171733.0
15:00:22.006,AUTO,-35.3627121,149.1654612,23704,0.0837220847606659,-0.1300448328256607,0.33769387006759644,0.04106037691235542,-0.002299145795404911,0.0005272433045320213,-136,-85,-987,41,-1,0,652,212,-1,171733.0
15:00:22.208,AUTO,-35.3627121,149.1654612,23704,0.0837220847606659,-0.1300448328256607,0.33769387006759644,0.04106037691235542,-0.002299145795404911,0.0005272433045320213,-136,-85,-987,41,-1,0,652,212,-1,171733.0
15:00:22.409,AUTO,-35.3626975,149.1654671,23713,0.08250309526920319,-0.12775270640850067,0.33730849623680115,-0.016878459602594376,-0.005656990222632885,-0.0009451690129935741,-137,-81,-989,-16,-4,0,652,212,-1,261197.0
15:00:22.611,AUTO,-35.3626827,149.1654731,23721,0.08166107535362244,-0.1298460066318512,0.33693137764930725,0.025043094530701637,0.001756056328304112,-0.004802591633051634,-137,-68,-985,25,2,-4,651,213,0,261197.0
15:00:22.813,AUTO,-35.3626681,149.1654791,23729,0.0795808807015419,-0.1309444010257721,0.33682939410209656,-0.01876537688076496,-0.004389469977468252,0.010292277671396732,-124,-83,-984,-18,-3,10,650,213,0,261197.0
15:00:23.015,AUTO,-35.3626535,149.1654851,23735,0.07768422365188599,-0.12855231761932373,0.3376699984073639,-0.022939687594771385,0.0065671540796756744,0.018450181931257248,-131,-82,-992,-22,7,18,650,214,0,261197.0
15:00:23.217,AUTO,-35.3626535,149.1654851,23735,0.07768422365188599,-0.12855231761932373,0.3376699984073639,-0.022939687594771385,0.0065671540796756744,0.018450181931257248,-131,-82,-992,-22,7,18,650,214,0,261197.0
15:00:23.419,AUTO,-35.3626389,149.165491,23744,0.07855202257633209,-0.12896379828453064,0.3373669981956482,-0.01783112622797489,-0.003300019772723317,0.0015151920961216092,-139,-79,-993,-17,-2,2,649,213,0,261197.0
15:00:23.621,AUTO,-35.3626389,149.165491,23744,0.07855202257633209,-0.12896379828453064,0.3373669981956482,-0.01783112622797489,-0.003300019772723317,0.0015151920961216092,-139,-79,-993,-17,-2,2,649,213,0,261197.0
15:00:23.823,AUTO,-35.3626389,149.165491,23744,0.07855202257633209,-0.12896379828453064,0.3373669981956482,-0.01783112622797489,-0.003300019772723317,0.0015151920961216092,-139,-79,-993,-17,-2,2,649,213,0,261197.0
15:00:24.025,AUTO,-35.3625952,149.1655087,23776,0.07880906015634537,-0.12633644044399261,0.33480948209762573,-0.046770382672548294,0.005320419557392597,-0.0016398641746491194,-142,-73,-995,-46,6,-1,645,214,-1,261197.0
15:00:24.228,AUTO,-35.3625807,149.1655146,23790,0.0788472592830658,-0.11474718898534775,0.3358474373817444,0.015423708595335484,0.06276661157608032,-0.004168437793850899,-138,-82,-1002,15,63,-3,643,212,-3,261197.0
15:00:24.430,AUTO,-35.3625807,149.1655146,23790,0.0788472592830658,-0.11474718898534775,0.3358474373817444,0.015423708595335484,0.06276661157608032,-0.004168437793850899,-138,-82,-1002,15,63,-3,643,212,-3,261197.0
15:00:24.632,AUTO,-35.3625662,149.1655204,23811,0.08518357574939728,-0.09862671047449112,0.33617332577705383,0.03917255625128746,0.06987134367227554,-0.01019418053328991,-124,-73,-994,39,70,-9,638,210,-6,261197.0
15:00:24.834,AUTO,-35.362552,149.1655261,23838,0.08703208714723587,-0.08368164300918579,0.3359290063381195,-0.007518063299357891,0.04784584790468216,-0.0017392798326909542,-127,-83,-992,-7,48,-1,628,207,-8,261197.0
15:00:25.036,AUTO,-35.3625379,149.1655317,23866,0.08753674477338791,-0.06936215609312057,0.3356247842311859,-0.009395185858011246,0.049107518047094345,0.002210992155596614,-133,-74,-991,-8,50,2,616,204,-8,261197.0
15:00:25.237,AUTO,-35.3625241,149.1655373,23893,0.08830615878105164,-0.054536785930395126,0.33603817224502563,0.04415101930499077,0.06967639178037643,0.0006019746069796383,-136,-88,-996,44,70,0,602,199,-8,261197.0
15:00:25.439,AUTO,-35.3625241,149.1655373,23893,0.08830615878105164,-0.054536785930395126,0.33603817224502563,0.04415101930499077,0.06967639178037643,0.0006019746069796383,-136,-88,-996,44,70,0,602,199,-8,261197.0
15:00:25.642,AUTO,-35.3625241,149.1655373,23893,0.08830615878105164,-0.054536785930395126,0.33603817224502563,0.04415101930499077,0.06967639178037643,0.0006019746069796383,-136,-88,-996,44,70,0,602,199,-8,261197.0
15:00:25.844,AUTO,-35.3625241,149.1655373,23893,0.08830615878105164,-0.054536785930395126,0.33603817224502563,0.04415101930499077,0.06967639178037643,0.0006019746069796383,-136,-88,-996,44,70,0,602,199,-8,261197.0
