time_stamp,MODE,lat,lon,relative_alt,roll,pitch,yaw,rollspeed,pitchspeed,yawspeed,xacc,yacc,zacc,xgyro,ygyro,zgyro,vx,vy,vz,RTL_ALT
11:52:46.118,STABILIZE,-35.3632621,149.1652375,0,-0.00020491835311986506,0.0012963456101715565,0.026534080505371094,0.00022089897538535297,0.0003535398282110691,0.002078111283481121,0,1,-1000,1,0,0,-2,2,1,1500.0
11:52:46.319,STABILIZE,-35.3632621,149.1652375,0,-0.00020491835311986506,0.0012963456101715565,0.026534080505371094,0.00022089897538535297,0.0003535398282110691,0.002078111283481121,0,1,-1000,1,0,0,-2,2,1,1500.0
11:52:46.520,STABILIZE,-35.3632621,149.1652375,0,-0.00020491835311986506,0.0012963456101715565,0.026534080505371094,0.00022089897538535297,0.0003535398282110691,0.002078111283481121,0,1,-1000,0,0,0,-2,2,1,1500.0
11:52:46.721,STABILIZE,-35.3632622,149.1652375,0,-0.00029207070474512875,0.001204834203235805,0.02624632976949215,0.00025228734011761844,0.0002133611706085503,0.002137050498276949,0,1,-1000,0,0,0,-1,1,0,1500.0
11:52:46.922,STABILIZE,-35.3632622,149.1652375,0,-0.00034254841739311814,0.001154338475316763,0.026101402938365936,0.00020772975403815508,0.00025104021187871695,0.0021295424085110426,0,1,-1000,0,0,0,-1,1,0,1500.0
11:52:47.123,STABILIZE,-35.3632622,149.1652375,0,-0.00039016097434796393,0.0011106128804385662,0.02596476674079895,0.0002566008479334414,0.0002161104348488152,0.0021639480255544186,0,1,-1000,0,0,0,-1,1,0,1500.0
11:52:47.324,STABILIZE,-35.3632622,149.1652375,0,-0.00039016097434796393,0.0011106128804385662,0.02596476674079895,0.0002566008479334414,0.0002161104348488152,0.0021639480255544186,0,1,-1000,0,0,0,-1,1,0,1500.0
11:52:47.525,STABILIZE,-35.3632622,149.1652375,0,-0.00039016097434796393,0.0011106128804385662,0.02596476674079895,0.0002566008479334414,0.0002161104348488152,0.0021639480255544186,0,1,-1000,0,0,0,-1,1,0,1500.0
11:52:47.728,STABILIZE,-35.3632622,149.1652375,0,-0.00039016097434796393,0.0011106128804385662,0.02596476674079895,0.0002566008479334414,0.0002161104348488152,0.0021639480255544186,0,1,-1000,0,0,0,-1,1,0,1500.0
11:52:47.929,STABILIZE,-35.3632622,149.1652375,0,-0.00039016097434796393,0.0011106128804385662,0.02596476674079895,0.0002566008479334414,0.0002161104348488152,0.0021639480255544186,0,1,-1000,0,0,0,-1,1,0,1500.0
11:52:48.130,STABILIZE,-35.3632621,149.1652375,0,-0.00039016097434796393,0.0011106128804385662,0.02596476674079895,0.0002566008479334414,0.0002161104348488152,0.0021639480255544186,0,1,-1000,0,0,0,-1,1,0,1500.0
11:52:48.331,STABILIZE,-35.3632621,149.1652375,0,-0.00039016097434796393,0.0011106128804385662,0.02596476674079895,0.0002566008479334414,0.0002161104348488152,0.0021639480255544186,0,1,-1000,0,0,0,-1,1,0,1500.0
11:52:48.533,STABILIZE,-35.3632621,149.1652375,0,-0.00039016097434796393,0.0011106128804385662,0.02596476674079895,0.0002566008479334414,0.0002161104348488152,0.0021639480255544186,0,1,-1000,0,0,0,-1,1,0,1500.0
11:52:48.733,STABILIZE,-35.3632621,149.1652375,0,-0.00039016097434796393,0.0011106128804385662,0.02596476674079895,0.0002566008479334414,0.0002161104348488152,0.0021639480255544186,0,1,-1000,0,0,0,-1,1,0,1500.0
11:52:48.935,STABILIZE,-35.3632621,149.1652375,0,-0.0007092030718922615,0.0009407713077962399,0.025133850052952766,0.00030919123673811555,0.00023516884539276361,0.0019846970681101084,0,2,-1000,1,0,0,-1,1,0,1500.0
11:52:49.135,STABILIZE,-35.3632621,149.1652374,9,-0.0006829138146713376,0.0009334786445833743,0.025045618414878845,0.00033552548848092556,0.000293298508040607,0.001944042043760419,0,1,-1000,0,0,0,-1,0,-2,1500.0
11:52:49.337,STABILIZE,-35.3632621,149.1652374,9,-0.0006829138146713376,0.0009334786445833743,0.025045618414878845,0.00033552548848092556,0.000293298508040607,0.001944042043760419,0,1,-1000,0,0,0,-1,0,-2,1500.0
11:52:49.537,STABILIZE,-35.3632621,149.1652374,9,-0.0006829138146713376,0.0009334786445833743,0.025045618414878845,0.00033552548848092556,0.000293298508040607,0.001944042043760419,0,1,-1000,0,0,0,-1,0,-2,1500.0
11:52:49.738,STABILIZE,-35.3632621,149.1652374,9,-0.0006829138146713376,0.0009334786445833743,0.025045618414878845,0.00033552548848092556,0.000293298508040607,0.001944042043760419,0,1,-1000,0,0,0,-1,0,-2,1500.0
11:52:49.940,STABILIZE,-35.3632621,149.1652374,15,-0.0005702318740077317,0.0009268563590012491,0.024741005152463913,0.00014172313967719674,0.00023069680901244283,0.0019274025689810514,0,1,-1000,0,0,0,-1,0,-2,1500.0
11:52:50.141,STABILIZE,-35.3632621,149.1652374,16,-0.0005702318740077317,0.0009268563590012491,0.024741005152463913,0.00014172313967719674,0.00023069680901244283,0.0019274025689810514,0,1,-1000,0,0,0,-1,0,-2,1500.0
11:52:50.343,STABILIZE,-35.3632621,149.1652374,16,-0.0005702318740077317,0.0009268563590012491,0.024741005152463913,0.00014172313967719674,0.00023069680901244283,0.0019274025689810514,0,1,-1000,0,0,0,-1,0,-2,1500.0
11:52:50.544,STABILIZE,-35.3632621,149.1652374,17,-0.0005301878554746509,0.000928998168092221,0.02452891133725643,0.00033645215444266796,0.0001798993325792253,0.0018490751972422004,0,2,-1000,0,0,0,-1,1,-1,1500.0
11:52:50.745,STABILIZE,-35.3632621,149.1652374,18,-0.0005301878554746509,0.000928998168092221,0.02452891133725643,0.00033645215444266796,0.0001798993325792253,0.0018490751972422004,0,1,-1000,0,0,0,-1,1,-1,1500.0
11:52:50.946,STABILIZE,-35.3632621,149.1652374,18,-0.0005200619343668222,0.0009262525709345937,0.024335050955414772,0.00032800837652757764,0.000170707528013736,0.0018291267333552241,0,1,-1000,0,0,0,-1,1,-1,1500.0
11:52:51.148,STABILIZE,-35.3632621,149.1652374,18,-0.0005168089410290122,0.0009290137677453458,0.0242234505712986,0.00039679696783423424,0.00027791201137006283,0.001905068289488554,0,1,-1000,0,0,0,-1,1,-1,1500.0
11:52:51.349,STABILIZE,-35.3632621,149.1652374,18,-0.0005168089410290122,0.0009290137677453458,0.0242234505712986,0.00039679696783423424,0.00027791201137006283,0.001905068289488554,0,1,-1000,0,0,0,-1,1,-1,1500.0
11:52:51.550,STABILIZE,-35.3632621,149.1652374,18,-0.0005168089410290122,0.0009290137677453458,0.0242234505712986,0.00039679696783423424,0.00027791201137006283,0.001905068289488554,0,1,-1000,0,0,0,-1,1,-1,1500.0
11:52:51.751,STABILIZE,-35.3632621,149.1652374,18,-0.0005168089410290122,0.0009290137677453458,0.0242234505712986,0.00039679696783423424,0.00027791201137006283,0.001905068289488554,0,1,-1000,0,0,0,-1,1,-1,1500.0
11:52:51.952,STABILIZE,-35.3632621,149.1652374,18,-0.0005168089410290122,0.0009290137677453458,0.0242234505712986,0.00039679696783423424,0.00027791201137006283,0.001905068289488554,0,1,-1000,0,0,0,-1,1,-1,1500.0
11:52:52.153,STABILIZE,-35.3632621,149.1652374,18,-0.0005335143650881946,0.0009528057998977602,0.023812077939510345,0.00021346955327317119,0.00023894297191873193,0.0018329236190766096,0,1,-1000,0,0,0,-1,1,-1,1500.0
11:52:52.355,STABILIZE,-35.3632621,149.1652374,18,-0.0005335143650881946,0.0009528057998977602,0.023812077939510345,0.00021346955327317119,0.00023894297191873193,0.0018329236190766096,0,1,-1000,0,0,0,-1,1,-1,1500.0
11:52:52.558,STABILIZE,-35.3632621,149.1652374,18,-0.0005335143650881946,0.0009528057998977602,0.023812077939510345,0.00021346955327317119,0.00023894297191873193,0.0018329236190766096,0,1,-1000,0,0,0,-1,1,-1,1500.0
11:52:52.759,STABILIZE,-35.3632621,149.1652374,18,-0.0004312799428589642,0.0009634899906814098,0.023618193343281746,0.00021585088688880205,0.0003602455835789442,0.0018371017649769783,0,1,-1000,0,0,0,-1,1,-1,1500.0
11:52:52.960,STABILIZE,-35.3632621,149.1652374,18,-0.0004899424384348094,0.0009655519970692694,0.023515459150075912,0.00033180834725499153,0.0002898119855672121,0.0017423563404008746,0,1,-1000,0,0,0,-1,1,-1,1500.0
11:52:53.161,STABILIZE,-35.3632621,149.1652374,18,-0.0005434533231891692,0.00097823073156178,0.02341175638139248,0.00030922231962904334,0.0004494470194913447,0.0016687316820025444,0,1,-1000,0,0,0,-1,1,-1,1500.0
11:52:53.362,STABILIZE,-35.3632621,149.1652374,18,-0.0005434533231891692,0.00097823073156178,0.02341175638139248,0.00030922231962904334,0.0004494470194913447,0.0016687316820025444,0,1,-1000,0,0,0,-1,1,-1,1500.0
11:52:53.562,STABILIZE,-35.3632621,149.1652374,18,-0.0005434533231891692,0.00097823073156178,0.02341175638139248,0.00030922231962904334,0.0004494470194913447,0.0016687316820025444,0,1,-1000,0,0,0,-1,1,-1,1500.0
11:52:53.764,STABILIZE,-35.3632621,149.1652374,18,-0.0005434533231891692,0.00097823073156178,0.02341175638139248,0.00030922231962904334,0.0004494470194913447,0.0016687316820025444,0,1,-1000,0,0,0,-1,1,-1,1500.0
11:52:53.965,STABILIZE,-35.3632622,149.1652375,2,-0.0007006099913269281,0.000981333781965077,0.023153031244874,0.0002812447492033243,0.00024200539337471128,0.0016443674685433507,0,1,-1000,0,0,0,-1,2,0,1500.0
11:52:54.166,STABILIZE,-35.3632622,149.1652375,1,-0.0007443398353643715,0.0009886807529255748,0.023075629025697708,0.0003294145571999252,0.0003559220349416137,0.0017693284898996353,0,1,-1000,0,0,0,-1,2,0,1500.0
11:52:54.367,STABILIZE,-35.3632622,149.1652375,1,-0.0007794282282702625,0.0009936685673892498,0.022993680089712143,0.0001747828209772706,0.00017795042367652059,0.0017677159048616886,0,1,-1000,0,0,0,-1,2,0,1500.0
11:52:54.568,STABILIZE,-35.3632622,149.1652375,1,-0.0007794282282702625,0.0009936685673892498,0.022993680089712143,0.0001747828209772706,0.00017795042367652059,0.0017677159048616886,0,1,-1000,0,0,0,-1,2,0,1500.0
11:52:54.768,STABILIZE,-35.3632622,149.1652375,0,-0.0008151494548656046,0.0009878092678263783,0.022910861298441887,0.0003176925238221884,0.000236749358009547,0.0016559767536818981,0,1,-1000,0,0,0,-1,1,0,1500.0
11:52:54.969,STABILIZE,-35.3632622,149.1652375,0,-0.0008151494548656046,0.0009878092678263783,0.022910861298441887,0.0003176925238221884,0.000236749358009547,0.0016559767536818981,0,2,-1000,0,1,0,-1,1,0,1500.0
11:52:55.170,STABILIZE,-35.3632622,149.1652375,0,-0.0008151494548656046,0.0009878092678263783,0.022910861298441887,0.0003176925238221884,0.000236749358009547,0.0016559767536818981,0,2,-1000,0,1,0,-1,1,0,1500.0
11:52:55.371,STABILIZE,-35.3632622,149.1652375,0,-0.0008151494548656046,0.0009878092678263783,0.022910861298441887,0.0003176925238221884,0.000236749358009547,0.0016559767536818981,0,2,-1000,0,1,0,-1,1,0,1500.0
11:52:55.573,STABILIZE,-35.3632622,149.1652375,0,-0.0008151494548656046,0.0009878092678263783,0.022910861298441887,0.0003176925238221884,0.000236749358009547,0.0016559767536818981,0,2,-1000,0,1,0,-1,1,0,1500.0
11:52:55.775,STABILIZE,-35.3632622,149.1652375,0,-0.0008151494548656046,0.0009878092678263783,0.022910861298441887,0.0003176925238221884,0.000236749358009547,0.0016559767536818981,0,2,-1000,0,1,0,-1,1,0,1500.0
11:52:55.976,STABILIZE,-35.3632622,149.1652375,0,-0.0008151494548656046,0.0009878092678263783,0.022910861298441887,0.0003176925238221884,0.000236749358009547,0.0016559767536818981,0,2,-1000,0,1,0,-1,1,0,1500.0
11:52:56.177,STABILIZE,-35.3632622,149.1652375,0,-0.0008151494548656046,0.0009878092678263783,0.022910861298441887,0.0003176925238221884,0.000236749358009547,0.0016559767536818981,0,2,-1000,0,1,0,-1,1,0,1500.0
11:52:56.378,STABILIZE,-35.3632622,149.1652375,0,-0.0009938179282471538,0.0009873075177893043,0.022433459758758545,0.0003525983775034547,0.00021215260494500399,0.0015980324242264032,0,2,-1000,0,1,0,-1,1,0,1500.0
11:52:56.579,AUTO,-35.3632622,149.1652375,0,-0.0009938179282471538,0.0009873075177893043,0.022433459758758545,0.0003525983775034547,0.00021215260494500399,0.0015980324242264032,0,2,-1000,0,1,0,-1,1,0,1500.0
11:52:56.780,AUTO,-35.3632622,149.1652375,3,-0.0009938179282471538,0.0009873075177893043,0.022433459758758545,0.0003525983775034547,0.00021215260494500399,0.0015980324242264032,0,2,-1000,0,1,0,-1,1,0,1500.0
11:52:56.981,AUTO,-35.3632622,149.1652375,3,-0.0009938179282471538,0.0009873075177893043,0.022433459758758545,0.0003525983775034547,0.00021215260494500399,0.0015980324242264032,0,1,-1000,0,0,1,-1,1,0,1500.0
11:52:57.182,AUTO,-35.3632622,149.1652375,2,-0.0010295300744473934,0.0009958002483472228,0.02228948287665844,0.00031879835296422243,0.00020608108025044203,0.0016716504469513893,0,1,-1000,1,0,1,-1,0,0,1500.0
11:52:57.383,AUTO,-35.3632622,149.1652375,2,-0.0010295300744473934,0.0009958002483472228,0.02228948287665844,0.00031879835296422243,0.00020608108025044203,0.0016716504469513893,0,1,-1000,1,0,1,-1,0,0,1500.0
11:52:57.584,AUTO,-35.3632622,149.1652375,2,-0.0010295300744473934,0.0009958002483472228,0.02228948287665844,0.00031879835296422243,0.00020608108025044203,0.0016716504469513893,0,1,-1000,1,0,1,-1,0,0,1500.0
11:52:57.785,AUTO,-35.3632622,149.1652375,2,-0.0010295300744473934,0.0009958002483472228,0.02228948287665844,0.00031879835296422243,0.00020608108025044203,0.0016716504469513893,0,1,-1000,1,0,1,-1,0,0,1500.0
11:52:57.986,AUTO,-35.3632621,149.1652375,1,-0.0009698085486888885,0.0010914703598245978,0.022137809544801712,0.00030788080766797066,0.0003536603762768209,0.0015940908342599869,0,1,-1000,1,0,1,0,0,0,1500.0
11:52:58.187,AUTO,-35.3632621,149.1652375,0,-0.0009302549296990037,0.0011541512794792652,0.022090760990977287,0.00011299859033897519,0.0002799762296490371,0.0016036925371736288,0,1,-1000,1,0,1,0,0,0,1500.0
11:52:58.388,AUTO,-35.3632621,149.1652375,0,-0.0008752651046961546,0.0012092089746147394,0.022054869681596756,0.000336413795594126,0.0001530404551886022,0.0015852332580834627,0,2,-1000,1,0,0,0,0,0,1500.0
11:52:58.589,AUTO,-35.3632621,149.1652375,0,-0.0008752651046961546,0.0012092089746147394,0.022054869681596756,0.000336413795594126,0.0001530404551886022,0.0015852332580834627,0,2,-1000,1,0,0,0,0,0,1500.0
11:52:58.789,AUTO,-35.3632621,149.1652375,0,-0.0008298329194076359,0.0012693399330601096,0.0219894852489233,0.00029114901553839445,0.0002900146646425128,0.0015855140518397093,0,1,-1000,1,0,0,0,0,0,1500.0
11:52:58.990,AUTO,-35.3632621,149.1652375,0,-0.0007836294826120138,0.001345018856227398,0.021927528083324432,0.0003298277733847499,0.00024771649623289704,0.0015382478013634682,0,1,-1000,1,1,0,0,0,0,1500.0
11:52:59.191,AUTO,-35.3632621,149.1652375,0,-0.0007253004005178809,0.0014135760720819235,0.02187737636268139,0.00035087106516584754,0.00028456695144996047,0.00155822210945189,0,2,-1000,1,0,0,0,0,0,1500.0
11:52:59.392,AUTO,-35.3632621,149.1652375,0,-0.0007253004005178809,0.0014135760720819235,0.02187737636268139,0.00035087106516584754,0.00028456695144996047,0.00155822210945189,0,2,-1000,1,0,0,0,0,0,1500.0
11:52:59.594,AUTO,-35.3632621,149.1652375,0,-0.0007253004005178809,0.0014135760720819235,0.02187737636268139,0.00035087106516584754,0.00028456695144996047,0.00155822210945189,0,2,-1000,1,0,0,0,0,0,1500.0
11:52:59.795,AUTO,-35.3632621,149.1652375,0,-0.0007253004005178809,0.0014135760720819235,0.02187737636268139,0.00035087106516584754,0.00028456695144996047,0.00155822210945189,0,2,-1000,1,0,0,0,0,0,1500.0
11:52:59.997,AUTO,-35.3632621,149.1652374,0,-0.0005395225598476827,0.0016287711914628744,0.021663391962647438,0.0003003074671141803,0.0003042987082153559,0.001416837447322905,0,2,-1000,0,0,1,0,0,0,1500.0
11:53:00.197,AUTO,-35.3632621,149.1652374,0,-0.0004660022386815399,0.0017058887751773,0.02160319685935974,0.00035114464117214084,0.00024353887420147657,0.0015282172244042158,0,1,-1000,0,0,0,0,0,0,1500.0
11:53:00.398,AUTO,-35.3632621,149.1652375,0,0.0005772679578512907,0.001391341327689588,0.02162356488406658,0.02048455737531185,-0.01129329763352871,0.00434319069609046,0,0,-1055,21,-10,3,0,0,-2,1500.0
11:53:00.599,AUTO,-35.3632621,149.1652375,0,0.0005772679578512907,0.001391341327689588,0.02162356488406658,0.02048455737531185,-0.01129329763352871,0.00434319069609046,0,0,-1055,21,-10,3,0,0,-2,1500.0
11:53:00.801,AUTO,-35.3632621,149.1652375,49,0.003451267024502158,-0.0005186298512853682,0.021633904427289963,-0.008178407326340675,-0.00306110386736691,0.0018915666732937098,0,0,-1140,-7,-2,1,0,0,-34,1500.0
11:53:01.002,AUTO,-35.3632621,149.1652375,182,0.002910710871219635,9.713151666801423e-05,0.021627729758620262,0.00013723951997235417,0.004675327800214291,0.0016880759503692389,0,0,-1131,0,5,1,0,0,-68,1500.0
11:53:01.203,AUTO,-35.3632621,149.1652375,391,0.0019273656653240323,0.0010789885418489575,0.02135402522981167,0.001842611120082438,0.00349816819652915,0.0006641667569056153,0,0,-1109,2,4,0,0,1,-97,1500.0
11:53:01.405,AUTO,-35.3632621,149.1652375,391,0.0019273656653240323,0.0010789885418489575,0.02135402522981167,0.001842611120082438,0.00349816819652915,0.0006641667569056153,0,0,-1109,2,4,0,0,1,-97,1500.0
11:53:01.607,AUTO,-35.3632621,149.1652375,391,0.0019273656653240323,0.0010789885418489575,0.02135402522981167,0.001842611120082438,0.00349816819652915,0.0006641667569056153,0,0,-1109,2,4,0,0,1,-97,1500.0
11:53:01.808,AUTO,-35.3632621,149.1652375,391,0.0019273656653240323,0.0010789885418489575,0.02135402522981167,0.001842611120082438,0.00349816819652915,0.0006641667569056153,0,0,-1109,2,4,0,0,1,-97,1500.0
11:53:02.010,AUTO,-35.3632621,149.1652375,391,0.0019273656653240323,0.0010789885418489575,0.02135402522981167,0.001842611120082438,0.00349816819652915,0.0006641667569056153,0,0,-1109,2,4,0,0,1,-97,1500.0
11:53:02.210,AUTO,-35.363262,149.1652377,1740,0.03185615316033363,-0.0025986814871430397,0.02107163332402706,0.04545522481203079,-0.008125688880681992,0.002801115158945322,0,-1,-1008,46,-7,2,1,10,-147,1500.0
11:53:02.412,AUTO,-35.3632619,149.165238,2126,0.04293009266257286,-0.0048019904643297195,0.021297451108694077,0.04266383498907089,-0.009092441760003567,0.0032665610779076815,0,-2,-1003,43,-8,2,3,18,-148,1500.0
11:53:02.612,AUTO,-35.3632618,149.1652387,2511,0.05315902456641197,-0.007416585460305214,0.02153964340686798,0.040312305092811584,-0.011052128858864307,0.00391049450263381,1,-5,-1000,40,-10,3,5,29,-148,1500.0
11:53:02.814,AUTO,-35.3632618,149.1652387,2511,0.05315902456641197,-0.007416585460305214,0.02153964340686798,0.040312305092811584,-0.011052128858864307,0.00391049450263381,1,-5,-1000,40,-10,3,5,29,-148,1500.0
11:53:03.014,AUTO,-35.3632617,149.1652396,2898,0.061974700540304184,-0.010030324570834637,-0.006148208398371935,0.016480980440974236,-0.002109393710270524,-0.028278164565563202,0,-8,-995,17,-1,-28,8,41,-147,1500.0
11:53:03.216,AUTO,-35.3632614,149.1652408,3279,0.04606304317712784,0.008861233480274677,-0.026269666850566864,-0.1197764128446579,0.11078256368637085,-0.10727272182703018,2,-10,-991,-118,111,-107,10,52,-145,1500.0
11:53:03.417,AUTO,-35.3632614,149.1652408,3279,0.04606304317712784,0.008861233480274677,-0.026269666850566864,-0.1197764128446579,0.11078256368637085,-0.10727272182703018,2,-10,-991,-118,111,-107,10,52,-145,1500.0
11:53:03.618,AUTO,-35.3632614,149.1652408,3279,0.04606304317712784,0.008861233480274677,-0.026269666850566864,-0.1197764128446579,0.11078256368637085,-0.10727272182703018,2,-10,-991,-118,111,-107,10,52,-145,1500.0
11:53:03.819,AUTO,-35.3632614,149.1652408,3279,0.04606304317712784,0.008861233480274677,-0.026269666850566864,-0.1197764128446579,0.11078256368637085,-0.10727272182703018,2,-10,-991,-118,111,-107,10,52,-145,1500.0
11:53:04.020,AUTO,-35.363261,149.1652448,4412,-0.034370582550764084,0.030569832772016525,-0.0899822860956192,-0.019382497295737267,0.006348515395075083,-0.07749418169260025,5,-8,-1007,-18,6,-78,-3,38,-148,1500.0
11:53:04.221,AUTO,-35.3632611,149.1652457,4797,-0.041134063154459,0.025880102068185806,-0.10323194414377213,-0.0401608943939209,-0.04216502979397774,-0.027631543576717377,4,-6,-1001,-39,-41,-28,-8,27,-149,1500.0
11:53:04.422,AUTO,-35.3632612,149.1652463,5183,-0.05462440848350525,0.006379642058163881,-0.09940287470817566,-0.06206628680229187,-0.09486036747694016,0.033191945403814316,5,-3,-1000,-61,-94,32,-12,14,-149,1500.0
11:53:04.624,AUTO,-35.3632614,149.1652465,5568,-0.0704171359539032,-0.01754201203584671,-0.0844680666923523,-0.05022494122385979,-0.09210050106048584,0.048781637102365494,2,-1,-1002,-49,-91,48,-10,-1,-148,1500.0
11:53:04.825,AUTO,-35.3632614,149.1652465,5568,-0.0704171359539032,-0.01754201203584671,-0.0844680666923523,-0.05022494122385979,-0.09210050106048584,0.048781637102365494,2,-1,-1002,-49,-91,48,-10,-1,-148,1500.0
11:53:05.026,AUTO,-35.3632616,149.1652463,5952,-0.07097320258617401,-0.025005072355270386,-0.0782943144440651,0.02460799552500248,0.0023793361615389585,0.008006311021745205,0,3,-1003,25,3,7,-5,-20,-148,1500.0
11:53:05.227,AUTO,-35.3632617,149.1652455,6340,-0.06114828214049339,-0.02309533581137657,-0.07701907306909561,0.049377936869859695,0.0058237044140696526,0.007947884500026703,-2,4,-1001,49,6,7,0,-36,-148,1500.0
11:53:05.429,AUTO,-35.3632617,149.1652455,6340,-0.06114828214049339,-0.02309533581137657,-0.07701907306909561,0.049377936869859695,0.0058237044140696526,0.007947884500026703,-2,4,-1001,49,6,7,0,-36,-148,1500.0
11:53:05.630,AUTO,-35.3632617,149.1652455,6340,-0.06114828214049339,-0.02309533581137657,-0.07701907306909561,0.049377936869859695,0.0058237044140696526,0.007947884500026703,-2,4,-1001,49,6,7,0,-36,-148,1500.0
11:53:05.832,AUTO,-35.3632617,149.1652455,6340,-0.06114828214049339,-0.02309533581137657,-0.07701907306909561,0.049377936869859695,0.0058237044140696526,0.007947884500026703,-2,4,-1001,49,6,7,0,-36,-148,1500.0
11:53:06.033,AUTO,-35.3632616,149.1652414,7492,-0.016382623463869095,-0.015597506426274776,-0.07514334470033646,0.06503865122795105,0.016678301617503166,0.006731085944920778,-8,11,-1002,65,17,6,7,-60,-149,1500.0
11:53:06.240,AUTO,-35.3632614,149.1652397,7879,-0.0005581838195212185,-0.010914692655205727,-0.07434961199760437,0.06325630843639374,0.019683897495269775,0.006162091623991728,-9,9,-1003,63,20,5,9,-60,-150,1500.0
11:53:06.441,AUTO,-35.3632612,149.165238,8269,0.015492657199501991,-0.0058504254557192326,-0.07344583421945572,0.06447982043027878,0.020598692819476128,0.005140725523233414,-9,14,-1004,65,21,4,9,-56,-151,1500.0
11:53:06.643,AUTO,-35.363261,149.1652366,8661,0.029782241210341454,0.0005045588477514684,-0.07392791658639908,0.05535580590367317,0.027925077825784683,-0.00428002281114459,-9,8,-1003,55,28,-4,8,-48,-152,1500.0
11:53:06.844,AUTO,-35.363261,149.1652366,8661,0.029782241210341454,0.0005045588477514684,-0.07392791658639908,0.05535580590367317,0.027925077825784683,-0.00428002281114459,-9,8,-1003,55,28,-4,8,-48,-152,1500.0
11:53:07.045,AUTO,-35.3632608,149.1652353,9053,0.040624987334012985,0.009541874751448631,-0.07778026163578033,0.034334927797317505,0.04239818453788757,-0.022841479629278183,-7,7,-1001,34,42,-23,6,-38,-152,1500.0
11:53:07.246,AUTO,-35.3632607,149.1652343,9447,0.04860701039433479,0.020505236461758614,-0.08490335196256638,0.031279873102903366,0.041767366230487823,-0.03388969972729683,-6,5,-1001,32,41,-34,2,-26,-152,1500.0
11:53:07.447,AUTO,-35.3632607,149.1652343,9447,0.04860701039433479,0.020505236461758614,-0.08490335196256638,0.031279873102903366,0.041767366230487823,-0.03388969972729683,-6,5,-1001,32,41,-34,2,-26,-152,1500.0
11:53:07.648,AUTO,-35.3632607,149.1652343,9447,0.04860701039433479,0.020505236461758614,-0.08490335196256638,0.031279873102903366,0.041767366230487823,-0.03388969972729683,-6,5,-1001,32,41,-34,2,-26,-152,1500.0
11:53:07.851,AUTO,-35.3632607,149.1652343,9447,0.04860701039433479,0.020505236461758614,-0.08490335196256638,0.031279873102903366,0.041767366230487823,-0.03388969972729683,-6,5,-1001,32,41,-34,2,-26,-152,1500.0
11:53:08.052,AUTO,-35.3632611,149.1652336,10620,0.05032039061188698,0.03578542172908783,-0.11069681495428085,-0.06434305012226105,-0.0516747385263443,0.009724780917167664,2,0,-994,-63,-51,9,-17,16,-149,1500.0
11:53:08.253,AUTO,-35.3632615,149.1652342,11008,0.030027523636817932,0.019285986199975014,-0.1058257594704628,-0.08985929936170578,-0.06545842438936234,0.027242887765169144,6,0,-997,-89,-64,27,-21,26,-148,1500.0
11:53:08.454,AUTO,-35.3632619,149.1652349,11390,0.010157033801078796,0.004631638061255217,-0.09937089681625366,-0.06611058115959167,-0.04943247511982918,0.024575935676693916,8,-2,-1003,-65,-48,24,-21,29,-148,1500.0
11:53:08.655,AUTO,-35.3632624,149.1652356,11775,-0.004166148137301207,-0.0051989867351949215,-0.09463784098625183,-0.044619519263505936,-0.03280170261859894,0.015649016946554184,7,-4,-1004,-44,-32,15,-18,28,-149,1500.0
11:53:08.857,AUTO,-35.3632624,149.1652356,11775,-0.004166148137301207,-0.0051989867351949215,-0.09463784098625183,-0.044619519263505936,-0.03280170261859894,0.015649016946554184,7,-4,-1004,-44,-32,15,-18,28,-149,1500.0
11:53:09.058,AUTO,-35.3632627,149.1652363,12162,-0.013984971679747105,-0.011128685437142849,-0.09305287897586823,-0.03326384350657463,-0.016926955431699753,0.0005504707805812359,6,-2,-1003,-32,-16,0,-14,24,-150,1500.0
11:53:09.260,AUTO,-35.363263,149.1652368,12550,-0.018848977982997894,-0.01418607123196125,-0.0944240391254425,-0.011690356768667698,-0.008422325365245342,-0.010502667166292667,4,-2,-1003,-11,-7,-11,-10,18,-151,1500.0
11:53:09.461,AUTO,-35.363263,149.1652368,12550,-0.018848977982997894,-0.01418607123196125,-0.0944240391254425,-0.011690356768667698,-0.008422325365245342,-0.010502667166292667,4,-2,-1003,-11,-7,-11,-10,18,-151,1500.0
11:53:09.663,AUTO,-35.363263,149.1652368,12550,-0.018848977982997894,-0.01418607123196125,-0.0944240391254425,-0.011690356768667698,-0.008422325365245342,-0.010502667166292667,4,-2,-1003,-11,-7,-11,-10,18,-151,1500.0
11:53:09.864,AUTO,-35.363263,149.1652368,12550,-0.018848977982997894,-0.01418607123196125,-0.0944240391254425,-0.011690356768667698,-0.008422325365245342,-0.010502667166292667,4,-2,-1003,-11,-7,-11,-10,18,-151,1500.0
11:53:10.065,AUTO,-35.3632632,149.1652374,13717,-0.01593637466430664,-0.013094509020447731,-0.11128927022218704,0.017450258135795593,0.007933279499411583,-0.02788122370839119,0,0,-1001,18,8,-28,2,0,-152,1500.0
11:53:10.267,AUTO,-35.3632631,149.1652374,14108,-0.01156669482588768,-0.010800658725202084,-0.11880418658256531,0.020272357389330864,0.011233236640691757,-0.03037784807384014,-1,0,-1000,20,12,-30,4,-4,-152,1500.0
11:53:10.468,AUTO,-35.363263,149.1652372,14500,-0.006673360243439674,-0.007842953316867352,-0.1264398992061615,0.020264985039830208,0.012340324930846691,-0.026963971555233,-2,0,-1000,20,13,-27,6,-7,-152,1500.0
11:53:10.670,AUTO,-35.3632628,149.165237,14892,-0.001969732344150543,-0.004856465384364128,-0.1337447166442871,0.016455281525850296,0.014209656044840813,-0.029516685754060745,-3,1,-1000,16,14,-29,8,-9,-152,1500.0
11:53:10.870,AUTO,-35.3632626,149.1652367,15283,0.0019170735031366348,-0.0015101589960977435,-0.14082558453083038,0.015494015999138355,0.014617099426686764,-0.02649633027613163,-3,0,-1000,16,15,-27,8,-9,-152,1500.0
11:53:11.072,AUTO,-35.3632626,149.1652367,15283,0.0019170735031366348,-0.0015101589960977435,-0.14082558453083038,0.015494015999138355,0.014617099426686764,-0.02649633027613163,-3,0,-1000,16,15,-27,8,-9,-152,1500.0
11:53:11.274,AUTO,-35.3632624,149.1652364,15677,0.005582289304584265,0.0018854859517887235,-0.1476370096206665,0.014989991672337055,0.012416339479386806,-0.024551277980208397,-3,0,-1000,15,13,-24,8,-9,-152,1500.0
11:53:11.476,AUTO,-35.3632624,149.1652364,15677,0.005582289304584265,0.0018854859517887235,-0.1476370096206665,0.014989991672337055,0.012416339479386806,-0.024551277980208397,-3,0,-1000,15,13,-24,8,-9,-152,1500.0
11:53:11.676,AUTO,-35.3632624,149.1652364,15677,0.005582289304584265,0.0018854859517887235,-0.1476370096206665,0.014989991672337055,0.012416339479386806,-0.024551277980208397,-3,0,-1000,15,13,-24,8,-9,-152,1500.0
11:53:11.877,AUTO,-35.3632624,149.1652364,15677,0.005582289304584265,0.0018854859517887235,-0.1476370096206665,0.014989991672337055,0.012416339479386806,-0.024551277980208397,-3,0,-1000,15,13,-24,8,-9,-152,1500.0
11:53:12.079,AUTO,-35.3632619,149.1652357,16847,0.010847746394574642,0.008272466249763966,-0.16322541236877441,0.004174215253442526,0.003634732449427247,-0.014376447536051273,-2,0,-1000,4,4,-14,4,-3,-152,1500.0
11:53:12.280,AUTO,-35.3632617,149.1652356,17238,0.010907731018960476,0.008853771723806858,-0.16699281334877014,-0.000550453900359571,0.003330774372443557,-0.013210347853600979,-2,0,-1000,0,3,-13,3,-1,-152,1500.0
11:53:12.481,AUTO,-35.3632616,149.1652355,17629,0.010420503094792366,0.00932359416037798,-0.17047832906246185,-0.002399270888417959,0.0008273620624095201,-0.013519184663891792,-1,0,-1000,-1,1,-13,1,0,-152,1500.0
11:53:12.681,AUTO,-35.3632615,149.1652354,18020,0.00952137727290392,0.009042305871844292,-0.1733037382364273,-0.003651577979326248,-0.0018691456643864512,-0.00925025437027216,0,0,-999,-3,-1,-9,0,2,-152,1500.0
11:53:12.882,AUTO,-35.3632615,149.1652354,18411,0.008134767413139343,0.00838608667254448,-0.17598316073417664,-0.005848720669746399,-0.000921285361982882,-0.01157158613204956,0,0,-1000,-5,0,-12,0,4,-152,1500.0
11:53:13.083,AUTO,-35.3632615,149.1652354,18411,0.008134767413139343,0.00838608667254448,-0.17598316073417664,-0.005848720669746399,-0.000921285361982882,-0.01157158613204956,0,0,-1000,-5,0,-12,0,4,-152,1500.0
11:53:13.284,AUTO,-35.3632615,149.1652355,18802,0.0068975468166172504,0.0077311028726398945,-0.17858776450157166,-0.004346637055277824,-0.00457075797021389,-0.010732083581387997,0,0,-1000,-3,-3,-11,-1,5,-152,1500.0
11:53:13.487,AUTO,-35.3632615,149.1652355,18802,0.0068975468166172504,0.0077311028726398945,-0.17858776450157166,-0.004346637055277824,-0.00457075797021389,-0.010732083581387997,0,0,-1000,-3,-3,-11,-1,5,-152,1500.0
11:53:13.688,AUTO,-35.3632615,149.1652355,18802,0.0068975468166172504,0.0077311028726398945,-0.17858776450157166,-0.004346637055277824,-0.00457075797021389,-0.010732083581387997,0,0,-1000,-3,-3,-11,-1,5,-152,1500.0
11:53:13.890,AUTO,-35.3632615,149.1652355,18802,0.0068975468166172504,0.0077311028726398945,-0.17858776450157166,-0.004346637055277824,-0.00457075797021389,-0.010732083581387997,0,0,-1000,-3,-3,-11,-1,5,-152,1500.0
11:53:14.152,AUTO,-35.3632614,149.1652359,20369,0.002911543706431985,0.0047230846248567104,-0.1913108229637146,-0.002220122143626213,-0.0034032342955470085,-0.017636744305491447,0,0,-1000,-2,-1,-14,-3,6,-153,1500.0
11:53:14.353,AUTO,-35.3632614,149.1652359,20369,0.002911543706431985,0.0047230846248567104,-0.1913108229637146,-0.002220122143626213,-0.0034032342955470085,-0.017636744305491447,0,0,-1000,-1,-2,-17,-3,6,-153,1500.0
11:53:14.554,AUTO,-35.3632615,149.165236,20760,0.0021507577039301395,0.004323217086493969,-0.19535452127456665,-0.003594598500058055,-0.000190252554602921,-0.01700541377067566,1,0,-999,-2,0,-17,-3,6,-153,1500.0
11:53:14.755,AUTO,-35.3632615,149.1652361,21151,0.0015674171736463904,0.003942563198506832,-0.1996154636144638,-0.0002893945202231407,-0.00011681794421747327,-0.0178030077368021,0,-1,-1000,0,0,-18,-3,6,-153,1500.0
11:53:14.957,AUTO,-35.3632615,149.1652362,21542,0.001109896693378687,0.0035560003016144037,-0.20401713252067566,-7.017608731985092e-05,-0.0006570244440808892,-0.017445851117372513,0,0,-1000,0,0,-17,-3,5,-153,1500.0
11:53:15.158,AUTO,-35.3632616,149.1652363,21932,0.0006992174312472343,0.0031828340142965317,-0.20860211551189423,0.001384049654006958,-0.0009881925070658326,-0.019009863957762718,0,0,-1000,2,0,-19,-3,5,-153,1500.0
11:53:15.359,AUTO,-35.3632616,149.1652363,21932,0.0006992174312472343,0.0031828340142965317,-0.20860211551189423,0.001384049654006958,-0.0009881925070658326,-0.019009863957762718,0,0,-1000,2,0,-19,-3,5,-153,1500.0
11:53:15.559,AUTO,-35.3632616,149.1652363,21932,0.0006992174312472343,0.0031828340142965317,-0.20860211551189423,0.001384049654006958,-0.0009881925070658326,-0.019009863957762718,0,0,-1000,2,0,-19,-3,5,-153,1500.0
11:53:15.761,AUTO,-35.3632616,149.1652363,21932,0.0006992174312472343,0.0031828340142965317,-0.20860211551189423,0.001384049654006958,-0.0009881925070658326,-0.019009863957762718,0,0,-1000,2,0,-19,-3,5,-153,1500.0
11:53:15.962,AUTO,-35.3632616,149.1652363,21932,0.0006992174312472343,0.0031828340142965317,-0.20860211551189423,0.001384049654006958,-0.0009881925070658326,-0.019009863957762718,0,0,-1000,2,0,-19,-3,5,-153,1500.0
11:53:16.163,AUTO,-35.3632617,149.1652366,23497,0.001025191624648869,0.002299696207046509,-0.2279689610004425,0.0026110473554581404,-0.0005951732164248824,-0.01971123181283474,0,0,-1000,3,0,-20,-3,3,-153,1500.0
11:53:16.365,AUTO,-35.3632617,149.1652367,23889,0.0010734356474131346,0.002057594945654273,-0.23278483748435974,-0.00023231474915519357,0.00033326155971735716,-0.01978154666721821,0,0,-1000,0,1,-20,-3,3,-153,1500.0
11:53:16.566,AUTO,-35.3632617,149.1652367,23889,0.0010734356474131346,0.002057594945654273,-0.23278483748435974,-0.00023231474915519357,0.00033326155971735716,-0.01978154666721821,0,0,-1000,0,1,-20,-3,3,-153,1500.0
11:53:16.767,AUTO,-35.3632618,149.1652367,24280,0.001074044848792255,0.00223521632142365,-0.23786431550979614,0.001968189375475049,0.001148764044046402,-0.020271331071853638,0,0,-1000,2,2,-20,-2,3,-153,1500.0
11:53:16.968,AUTO,-35.3632618,149.1652367,24670,0.0015797136584296823,0.002198573434725404,-0.2427830845117569,0.0026948763988912106,2.701475750654936e-05,-0.020082391798496246,0,0,-1000,3,0,-20,-2,2,-153,1500.0
11:53:17.169,AUTO,-35.3632618,149.1652367,25062,0.0014267679071053863,0.002524104667827487,-0.2480810284614563,-0.00018349889433011413,0.0014889909652993083,-0.022999845445156097,0,0,-1000,0,2,-23,-2,2,-153,1500.0
11:53:17.370,AUTO,-35.3632618,149.1652367,25062,0.0014267679071053863,0.002524104667827487,-0.2480810284614563,-0.00018349889433011413,0.0014889909652993083,-0.022999845445156097,0,0,-1000,0,2,-23,-2,2,-153,1500.0
11:53:17.571,AUTO,-35.3632618,149.1652367,25062,0.0014267679071053863,0.002524104667827487,-0.2480810284614563,-0.00018349889433011413,0.0014889909652993083,-0.022999845445156097,0,0,-1000,0,2,-23,-2,2,-153,1500.0
11:53:17.773,AUTO,-35.3632618,149.1652367,25062,0.0014267679071053863,0.002524104667827487,-0.2480810284614563,-0.00018349889433011413,0.0014889909652993083,-0.022999845445156097,0,0,-1000,0,2,-23,-2,2,-153,1500.0
11:53:17.974,AUTO,-35.3632619,149.1652366,26230,0.0007802745094522834,0.005242341198027134,-0.2493658810853958,0.03543927147984505,-0.0012350892648100853,0.014618394896388054,0,1,-1001,36,0,14,-5,-3,-153,1500.0
11:53:18.175,AUTO,-35.363262,149.1652365,26621,0.007881498895585537,0.00452831806614995,-0.24460195004940033,0.0238519124686718,-0.003592567052692175,0.022190775722265244,0,1,-1000,24,-3,21,-5,-2,-153,1500.0
11:53:18.376,AUTO,-35.3632621,149.1652364,27012,0.011506184935569763,0.003356354543939233,-0.2386697381734848,0.009185691364109516,-0.004649890121072531,0.02394292503595352,0,1,-999,10,-3,23,-5,0,-153,1500.0
11:53:18.578,AUTO,-35.3632621,149.1652364,27012,0.011506184935569763,0.003356354543939233,-0.2386697381734848,0.009185691364109516,-0.004649890121072531,0.02394292503595352,0,1,-999,10,-3,23,-5,0,-153,1500.0
11:53:18.780,AUTO,-35.3632622,149.1652364,27407,0.012463667429983616,0.0023095509968698025,-0.2326318323612213,0.0020523383282124996,-0.0026455328334122896,0.025489307940006256,0,0,-999,2,-1,25,-4,2,-153,1500.0
11:53:18.982,AUTO,-35.3632623,149.1652364,27797,0.011602452956140041,0.001429581781849265,-0.22631599009037018,-0.007212825119495392,-0.0021188610699027777,0.024910274893045425,0,0,-999,-6,-1,24,-3,5,-153,1500.0
11:53:19.183,AUTO,-35.3632623,149.1652365,28186,0.009726178832352161,0.001036298112012446,-0.22013872861862183,-0.008615135215222836,-0.0005222263862378895,0.02185148559510708,0,0,-1000,-7,0,21,-3,7,-152,1500.0
11:53:19.386,AUTO,-35.3632623,149.1652365,28186,0.009726178832352161,0.001036298112012446,-0.22013872861862183,-0.008615135215222836,-0.0005222263862378895,0.02185148559510708,0,0,-1000,-7,0,21,-3,7,-152,1500.0
11:53:19.588,AUTO,-35.3632623,149.1652365,28186,0.009726178832352161,0.001036298112012446,-0.22013872861862183,-0.008615135215222836,-0.0005222263862378895,0.02185148559510708,0,0,-1000,-7,0,21,-3,7,-152,1500.0
11:53:19.790,AUTO,-35.3632623,149.1652365,28186,0.009726178832352161,0.001036298112012446,-0.22013872861862183,-0.008615135215222836,-0.0005222263862378895,0.02185148559510708,0,0,-1000,-7,0,21,-3,7,-152,1500.0
11:53:19.991,AUTO,-35.3632623,149.1652365,28186,0.009726178832352161,0.001036298112012446,-0.22013872861862183,-0.008615135215222836,-0.0005222263862378895,0.02185148559510708,0,0,-1000,-7,0,21,-3,7,-152,1500.0
11:53:20.192,AUTO,-35.3632623,149.1652371,29504,0.002873482648283243,0.0015179249458014965,-0.2015846073627472,-0.004665945190936327,0.0012357744853943586,0.021833309903740883,0,-1,-1000,-3,2,21,0,9,-152,1500.0
11:53:20.393,AUTO,-35.3632623,149.1652373,29894,0.0013298059348016977,0.001720126369036734,-0.1965164840221405,-0.0073823705315589905,0.0013217838713899255,0.020799238234758377,0,-1,-1000,-6,2,20,0,8,-152,1500.0
11:53:20.594,AUTO,-35.3632623,149.1652375,30284,3.68570581485983e-05,0.001814441755414009,-0.19170668721199036,-0.004453119356185198,0.0002859716769307852,0.01817420870065689,0,-1,-1001,-3,1,17,0,8,-153,1500.0
11:53:20.795,AUTO,-35.3632623,149.1652377,30672,-0.0006452242960222065,0.0018653078004717827,-0.18747593462467194,-0.0015846312744542956,0.0019154936308041215,0.018436403945088387,0,-1,-1000,0,2,18,0,7,-153,1500.0
11:53:20.997,AUTO,-35.3632623,149.1652378,31062,-0.0010165338171646,0.0017589718336239457,-0.18309997022151947,-0.001142985187470913,-0.000428794592153281,0.017824234440922737,0,-1,-1000,0,0,17,0,6,-153,1500.0
11:53:21.198,AUTO,-35.3632623,149.1652378,31062,-0.0010165338171646,0.0017589718336239457,-0.18309997022151947,-0.001142985187470913,-0.000428794592153281,0.017824234440922737,0,-1,-1000,0,0,17,0,6,-153,1500.0
11:53:21.399,AUTO,-35.3632623,149.1652379,31452,-0.0014781925128772855,0.001524113118648529,-0.17877893149852753,0.000112668436486274,-0.0005344240926206112,0.018338212743401527,0,0,-1000,0,0,18,0,5,-153,1500.0
11:53:21.600,AUTO,-35.3632623,149.1652379,31452,-0.0014781925128772855,0.001524113118648529,-0.17877893149852753,0.000112668436486274,-0.0005344240926206112,0.018338212743401527,0,0,-1000,0,0,18,0,5,-153,1500.0
11:53:21.801,AUTO,-35.3632623,149.1652379,31452,-0.0014781925128772855,0.001524113118648529,-0.17877893149852753,0.000112668436486274,-0.0005344240926206112,0.018338212743401527,0,0,-1000,0,0,18,0,5,-153,1500.0
11:53:22.002,AUTO,-35.3632623,149.1652381,32625,-0.0007244096486829221,0.0015162511263042688,-0.16643908619880676,0.003170704934746027,0.002720093820244074,0.015980709344148636,0,0,-1000,4,3,15,0,2,-153,1500.0
11:53:22.203,AUTO,-35.3632623,149.1652381,32625,-0.0007244096486829221,0.0015162511263042688,-0.16643908619880676,0.003170704934746027,0.002720093820244074,0.015980709344148636,0,0,-1000,4,3,15,0,2,-153,1500.0
11:53:22.404,AUTO,-35.3632623,149.1652381,33015,-0.0003249396977480501,0.001723132561892271,-0.16292424499988556,0.0033399027306586504,0.0016185813583433628,0.014050845988094807,0,0,-1000,4,2,13,0,1,-153,1500.0
11:53:22.622,AUTO,-35.3632623,149.165238,33404,0.00010676613601390272,0.00165757373906672,-0.15924441814422607,0.0008119746926240623,-0.0006006573676131666,0.01410792488604784,0,0,-1000,1,0,14,0,1,-153,1500.0
11:53:22.824,AUTO,-35.3632623,149.165238,33794,0.0006167547544464469,0.0014452746836468577,-0.15591709315776825,0.003935931716114283,-0.0003855752875097096,0.014088825322687626,0,0,-1000,4,0,14,0,0,-153,1500.0
11:53:23.025,AUTO,-35.3632623,149.165238,34192,0.0009532688418403268,0.0014529228210449219,-0.15231364965438843,-0.0007709962665103376,-0.00011527858441695571,0.013695916160941124,0,0,-1000,0,1,13,0,0,-153,1500.0
11:53:23.226,AUTO,-35.3632622,149.165238,34582,0.0011905948631465435,0.0012895220424979925,-0.14899633824825287,0.003073306754231453,-0.0009019429562613368,0.01199121493846178,0,0,-1001,3,0,11,0,0,-153,1500.0
11:53:23.428,AUTO,-35.3632622,149.165238,34582,0.0011905948631465435,0.0012895220424979925,-0.14899633824825287,0.003073306754231453,-0.0009019429562613368,0.01199121493846178,0,0,-1001,3,0,11,0,0,-153,1500.0
11:53:23.629,AUTO,-35.3632622,149.165238,34582,0.0011905948631465435,0.0012895220424979925,-0.14899633824825287,0.003073306754231453,-0.0009019429562613368,0.01199121493846178,0,0,-1001,3,0,11,0,0,-153,1500.0
11:53:23.831,AUTO,-35.3632622,149.165238,34582,0.0011905948631465435,0.0012895220424979925,-0.14899633824825287,0.003073306754231453,-0.0009019429562613368,0.01199121493846178,0,0,-1001,3,0,11,0,0,-153,1500.0
11:53:24.032,AUTO,-35.3632622,149.165238,34582,0.0011905948631465435,0.0012895220424979925,-0.14899633824825287,0.003073306754231453,-0.0009019429562613368,0.01199121493846178,0,0,-1001,3,0,11,0,0,-153,1500.0
11:53:24.234,AUTO,-35.3632622,149.1652379,36133,0.0012173192808404565,0.0013912206050008535,-0.13741111755371094,0.0012041670270264149,0.0014186392072588205,0.009592665359377861,0,0,-1001,2,2,9,0,0,-153,1500.0
11:53:24.435,AUTO,-35.3632622,149.1652379,36133,0.0012173192808404565,0.0013912206050008535,-0.13741111755371094,0.0012041670270264149,0.0014186392072588205,0.009592665359377861,0,0,-1001,2,2,9,0,0,-153,1500.0
11:53:24.637,AUTO,-35.3632622,149.1652379,36523,0.0010207874001935124,0.0013804227346554399,-0.13481920957565308,-0.0032206824980676174,0.0009167471434921026,0.010725156404078007,0,0,-999,-2,2,10,0,0,-153,1500.0
11:53:24.838,AUTO,-35.3632622,149.1652378,36913,0.001275054644793272,0.0014932124176993966,-0.1322529911994934,0.0019751964136958122,-0.00034194858744740486,0.008921723812818527,0,0,-1001,3,0,8,0,0,-153,1500.0
11:53:25.039,AUTO,-35.3632622,149.1652378,37302,0.001765033113770187,0.0015665917890146375,-0.12975306808948517,0.002286025555804372,0.0003630794817581773,0.00861981138586998,0,0,-1000,3,1,8,0,0,-153,1500.0
11:53:25.240,AUTO,-35.3632622,149.1652377,37692,0.0018495232798159122,0.0015848013572394848,-0.12726718187332153,-0.0004436618182808161,0.0018240083009004593,0.010312181897461414,0,0,-1000,0,2,10,0,0,-153,1500.0
11:53:25.440,AUTO,-35.3632622,149.1652377,37692,0.0018495232798159122,0.0015848013572394848,-0.12726718187332153,-0.0004436618182808161,0.0018240083009004593,0.010312181897461414,0,0,-1000,0,2,10,0,0,-153,1500.0
11:53:25.641,AUTO,-35.3632622,149.1652377,37692,0.0018495232798159122,0.0015848013572394848,-0.12726718187332153,-0.0004436618182808161,0.0018240083009004593,0.010312181897461414,0,0,-1000,0,2,10,0,0,-153,1500.0
11:53:25.843,AUTO,-35.3632622,149.1652377,37692,0.0018495232798159122,0.0015848013572394848,-0.12726718187332153,-0.0004436618182808161,0.0018240083009004593,0.010312181897461414,0,0,-1000,0,2,10,0,0,-153,1500.0
11:53:26.045,AUTO,-35.3632621,149.1652376,38861,0.0022346896585077047,0.0017398206982761621,-0.1204492375254631,0.0026743877679109573,0.0004279657732695341,0.008193342946469784,0,0,-1001,3,1,8,0,0,-153,1500.0
11:53:26.246,AUTO,-35.3632621,149.1652376,39251,0.002312732394784689,0.0016336337430402637,-0.11824435740709305,0.0027043470181524754,-0.0005267981323413551,0.00819571502506733,0,0,-1001,3,0,7,0,0,-153,1500.0
11:53:26.447,AUTO,-35.3632621,149.1652376,39251,0.002312732394784689,0.0016336337430402637,-0.11824435740709305,0.0027043470181524754,-0.0005267981323413551,0.00819571502506733,0,0,-1001,3,0,7,0,0,-153,1500.0
11:53:26.648,AUTO,-35.3632621,149.1652376,39641,0.0020591462962329388,0.0014565091114491224,-0.11628919839859009,-0.003344709752127528,-0.00018925120821222663,0.008622190915048122,0,0,-999,-2,0,8,-1,0,-153,1500.0
11:53:26.849,AUTO,-35.3632621,149.1652375,40030,0.0019607082940638065,0.0013014868600293994,-0.11436633765697479,0.00073765660636127,-6.9231027737259865e-06,0.008386226370930672,0,0,-1000,1,1,8,-1,0,-153,1500.0
11:53:27.050,AUTO,-35.3632621,149.1652375,40421,0.001967666670680046,0.0012484821490943432,-0.11246126145124435,0.0009203237714245915,-0.00033552886452525854,0.009170872159302235,0,0,-1000,1,0,9,-1,0,-153,1500.0
11:53:27.251,AUTO,-35.3632621,149.1652375,40810,0.002002173336222768,0.0013115046313032508,-0.11056503653526306,0.0014308393001556396,0.003103220369666815,0.006024026311933994,0,0,-1000,2,4,6,0,0,-153,1500.0
11:53:27.452,AUTO,-35.3632621,149.1652375,40810,0.002002173336222768,0.0013115046313032508,-0.11056503653526306,0.0014308393001556396,0.003103220369666815,0.006024026311933994,0,0,-1000,2,4,6,0,0,-153,1500.0
11:53:27.653,AUTO,-35.3632621,149.1652375,40810,0.002002173336222768,0.0013115046313032508,-0.11056503653526306,0.0014308393001556396,0.003103220369666815,0.006024026311933994,0,0,-1000,2,4,6,0,0,-153,1500.0
11:53:27.855,AUTO,-35.3632621,149.1652375,40810,0.002002173336222768,0.0013115046313032508,-0.11056503653526306,0.0014308393001556396,0.003103220369666815,0.006024026311933994,0,0,-1000,2,4,6,0,0,-153,1500.0
11:53:28.056,AUTO,-35.3632621,149.1652374,41979,0.0018551308894529939,0.0017079185927286744,-0.10555914044380188,0.0016713300719857216,0.0009992195991799235,0.007431706879287958,0,0,-1000,2,1,7,-1,1,-153,1500.0
11:53:28.257,AUTO,-35.363262,149.1652374,42368,0.0017583229346200824,0.0016621570102870464,-0.10382189601659775,0.001027143793180585,0.000707711442373693,0.009464838542044163,0,0,-1000,2,1,9,-1,1,-153,1500.0
11:53:28.458,AUTO,-35.363262,149.1652374,42368,0.0017583229346200824,0.0016621570102870464,-0.10382189601659775,0.001027143793180585,0.000707711442373693,0.009464838542044163,0,0,-1000,2,1,9,-1,1,-153,1500.0
11:53:28.660,AUTO,-35.363262,149.1652374,42758,0.0015253699384629726,0.001624508062377572,-0.10231508314609528,-0.0026585767045617104,0.000952345784753561,0.008386978879570961,0,0,-999,-1,2,8,-1,1,-153,1500.0
11:53:28.861,AUTO,-35.363262,149.1652374,43147,0.001426064409315586,0.0015285523841157556,-0.10071007907390594,0.0016635857755318284,-0.0020105340518057346,0.005800832062959671,0,0,-1001,2,0,5,-1,1,-153,1500.0
11:53:29.063,AUTO,-35.363262,149.1652374,43544,0.0016187517903745174,0.0013886248925700784,-0.09921003878116608,0.0034878167789429426,0.0016237591626122594,0.006674991454929113,0,0,-1000,4,2,6,-1,1,-153,1500.0
11:53:29.264,AUTO,-35.363262,149.1652374,43934,0.0019128430867567658,0.0013774200342595577,-0.09757456183433533,0.002197703579440713,0.0001179906539618969,0.005754851270467043,0,0,-1000,3,1,6,-1,1,-153,1500.0
11:53:29.465,AUTO,-35.363262,149.1652374,43934,0.0019128430867567658,0.0013774200342595577,-0.09757456183433533,0.002197703579440713,0.0001179906539618969,0.005754851270467043,0,0,-1000,3,1,6,-1,1,-153,1500.0
11:53:29.669,AUTO,-35.363262,149.1652374,43934,0.0019128430867567658,0.0013774200342595577,-0.09757456183433533,0.002197703579440713,0.0001179906539618969,0.005754851270467043,0,0,-1000,3,1,6,-1,1,-153,1500.0
11:53:29.871,AUTO,-35.363262,149.1652374,43934,0.0019128430867567658,0.0013774200342595577,-0.09757456183433533,0.002197703579440713,0.0001179906539618969,0.005754851270467043,0,0,-1000,3,1,6,-1,1,-153,1500.0
11:53:30.072,AUTO,-35.363262,149.1652374,45102,0.0016625261632725596,0.0011475359788164496,-0.0931146889925003,-0.002271147444844246,0.00010466703679412603,0.0064923628233373165,0,0,-999,-1,1,6,-1,1,-153,1500.0
11:53:30.274,AUTO,-35.363262,149.1652374,45492,0.0016614937921985984,0.001301331096328795,-0.09148797392845154,-0.001283109886571765,0.0006500581512227654,0.0077532436698675156,0,0,-1000,0,1,7,-1,1,-153,1500.0
11:53:30.475,AUTO,-35.363262,149.1652374,45882,0.0016384086338803172,0.0012738018995150924,-0.09012352675199509,3.409862983971834e-05,0.0002922504208981991,0.006634390447288752,0,0,-999,1,1,6,-1,1,-153,1500.0
11:53:30.676,AUTO,-35.363262,149.1652374,45882,0.0016384086338803172,0.0012738018995150924,-0.09012352675199509,3.409862983971834e-05,0.0002922504208981991,0.006634390447288752,0,0,-999,1,1,6,-1,1,-153,1500.0
11:53:30.877,AUTO,-35.363262,149.1652374,46271,0.0014349895063787699,0.0012137416051700711,-0.08883775025606155,-0.0020562249701470137,0.0004683419829234481,0.005958533845841885,0,0,-1000,0,1,6,-1,1,-153,1500.0
11:53:31.078,AUTO,-35.363262,149.1652374,46661,0.0014287091325968504,0.0012127041118219495,-0.08743790537118912,0.0017536396626383066,0.00020823499653488398,0.008198428899049759,0,0,-1000,2,1,8,-1,1,-153,1500.0
11:53:31.279,AUTO,-35.363262,149.1652373,47050,-0.002909323200583458,0.004998010117560625,-0.07766913622617722,-0.05790669471025467,0.05686236545443535,0.12057195603847504,0,0,-975,-56,58,120,-1,0,-150,1500.0
11:53:31.480,AUTO,-35.363262,149.1652373,47050,-0.002909323200583458,0.004998010117560625,-0.07766913622617722,-0.05790669471025467,0.05686236545443535,0.12057195603847504,0,0,-975,-56,58,120,-1,0,-150,1500.0
11:53:31.682,AUTO,-35.363262,149.1652373,47050,-0.002909323200583458,0.004998010117560625,-0.07766913622617722,-0.05790669471025467,0.05686236545443535,0.12057195603847504,0,0,-975,-56,58,120,-1,0,-150,1500.0
11:53:31.882,AUTO,-35.363262,149.1652373,47050,-0.002909323200583458,0.004998010117560625,-0.07766913622617722,-0.05790669471025467,0.05686236545443535,0.12057195603847504,0,0,-975,-56,58,120,-1,0,-150,1500.0
11:53:32.142,AUTO,-35.3632626,149.1652364,48115,-0.05484796315431595,0.054499898105859756,0.2143295258283615,0.06408078223466873,-0.17764127254486084,0.3181648552417755,3,6,-942,65,-176,318,-28,-28,-123,1500.0
11:53:32.343,AUTO,-35.3632633,149.1652355,48411,-0.027750834822654724,0.006002920679748058,0.27311331033706665,0.11464130878448486,-0.19308316707611084,0.16366711258888245,3,10,-945,115,-191,163,-31,-37,-108,1500.0
11:53:32.544,AUTO,-35.3632639,149.1652344,48672,-0.0009144058567471802,-0.03128238767385483,0.2994951903820038,0.10006359219551086,-0.11412344872951508,0.06831316649913788,4,9,-952,101,-112,68,-26,-37,-96,1500.0
11:53:32.746,AUTO,-35.3632644,149.1652335,48904,0.019650856032967567,-0.05017160251736641,0.30767008662223816,0.0659085214138031,-0.04594536870718002,0.014508737251162529,2,8,-958,66,-45,14,-17,-29,-85,1500.0
11:53:32.947,AUTO,-35.3632644,149.1652335,48904,0.019650856032967567,-0.05017160251736641,0.30767008662223816,0.0659085214138031,-0.04594536870718002,0.014508737251162529,2,8,-958,66,-45,14,-17,-29,-85,1500.0
11:53:33.149,AUTO,-35.3632647,149.1652328,49109,0.032660000026226044,-0.05517088994383812,0.30597615242004395,0.04427795857191086,-0.0005877382354810834,-0.01439141295850277,0,6,-964,45,0,-13,-7,-18,-75,1500.0
11:53:33.350,AUTO,-35.3632647,149.1652324,49291,0.03909536078572273,-0.05140108987689018,0.29963600635528564,0.013097099028527737,0.022460978478193283,-0.02910410426557064,0,2,-968,14,23,-28,1,-5,-66,1500.0
11:53:33.551,AUTO,-35.3632647,149.1652324,49291,0.03909536078572273,-0.05140108987689018,0.29963600635528564,0.013097099028527737,0.022460978478193283,-0.02910410426557064,0,2,-968,14,23,-28,1,-5,-66,1500.0
11:53:33.753,AUTO,-35.3632647,149.1652324,49291,0.03909536078572273,-0.05140108987689018,0.29963600635528564,0.013097099028527737,0.022460978478193283,-0.02910410426557064,0,2,-968,14,23,-28,1,-5,-66,1500.0
11:53:33.954,AUTO,-35.3632647,149.1652324,49291,0.03909536078572273,-0.05140108987689018,0.29963600635528564,0.013097099028527737,0.022460978478193283,-0.02910410426557064,0,2,-968,14,23,-28,1,-5,-66,1500.0
11:53:34.157,AUTO,-35.363264,149.165233,49718,0.03007778897881508,-0.019817538559436798,0.2726198434829712,-0.04938393831253052,0.04301739111542702,-0.03434542566537857,-3,-7,-979,-48,44,-33,18,23,-47,1500.0
11:53:34.358,AUTO,-35.3632636,149.1652337,49830,0.02319628745317459,-0.009601802565157413,0.26386138796806335,-0.028709111735224724,0.036899104714393616,-0.031105084344744682,-2,-4,-980,-26,38,-30,20,28,-42,1500.0
11:53:34.559,AUTO,-35.3632631,149.1652344,49928,0.019939424470067024,-0.0009344593854621053,0.2557428479194641,0.1402728259563446,0.03256040811538696,-0.02742437832057476,-2,-4,-980,140,33,-26,20,30,-36,1500.0
11:53:34.760,AUTO,-35.3632626,149.1652352,50012,0.006755097769200802,0.005647401325404644,0.2478262335062027,-0.5344417095184326,0.026489242911338806,-0.031064080074429512,-3,-37,-968,-535,27,-30,19,30,-30,1500.0
11:53:34.961,AUTO,-35.3632626,149.1652352,50012,0.006755097769200802,0.005647401325404644,0.2478262335062027,-0.5344417095184326,0.026489242911338806,-0.031064080074429512,-3,-37,-968,-535,27,-30,19,30,-30,1500.0
11:53:35.162,AUTO,-35.3632622,149.165236,50077,-0.0025245409924536943,0.010526437312364578,0.23996120691299438,-0.3018409311771393,0.01725665107369423,-0.02916017174720764,-2,-7,-981,-297,18,-28,16,30,-22,1500.0
11:53:35.363,AUTO,-35.3632618,149.1652368,50126,0.0009284225525334477,0.013970858417451382,0.23271815478801727,0.3568483889102936,0.014980346895754337,-0.023124342784285545,-1,24,-979,362,16,-23,14,28,-17,1500.0
11:53:35.564,AUTO,-35.3632618,149.1652368,50126,0.0009284225525334477,0.013970858417451382,0.23271815478801727,0.3568483889102936,0.014980346895754337,-0.023124342784285545,-1,24,-979,362,16,-23,14,28,-17,1500.0
11:53:35.765,AUTO,-35.3632618,149.1652368,50126,0.0009284225525334477,0.013970858417451382,0.23271815478801727,0.3568483889102936,0.014980346895754337,-0.023124342784285545,-1,24,-979,362,16,-23,14,28,-17,1500.0
11:53:35.966,AUTO,-35.3632618,149.1652368,50126,0.0009284225525334477,0.013970858417451382,0.23271815478801727,0.3568483889102936,0.014980346895754337,-0.023124342784285545,-1,24,-979,362,16,-23,14,28,-17,1500.0
11:53:36.167,AUTO,-35.363261,149.1652385,50170,-0.026349101215600967,0.03647540509700775,0.20540614426136017,-0.5540226697921753,0.10760004818439484,-0.050119947642087936,3,-45,-911,-558,108,-49,4,14,8,1500.0
11:53:36.368,AUTO,-35.363261,149.1652388,50132,-0.03365415707230568,0.036030352115631104,0.20275938510894775,-0.704128086566925,-0.09201303869485855,0.000248147378442809,1,-49,-990,-708,-91,0,-2,3,15,1500.0
11:53:36.568,AUTO,-35.363261,149.1652388,50088,-0.025501463562250137,0.004431366454809904,0.19998669624328613,-0.8153010010719299,-0.1267235428094864,-0.007867900654673576,0,-37,-1022,-816,-125,-7,-5,-2,14,1500.0
11:53:36.769,AUTO,-35.3632611,149.1652387,50050,-0.01607643999159336,-0.01942252367734909,0.196773499250412,-0.6544384360313416,-0.06825881451368332,-0.01548672839999199,0,-19,-1026,-652,-67,-14,-3,-4,11,1500.0
11:53:36.970,AUTO,-35.3632611,149.1652385,50020,-0.006113309878855944,-0.03273608162999153,0.19270098209381104,-0.342618852853775,-0.0396876223385334,-0.022546522319316864,0,5,-1016,-336,-38,-22,2,-2,8,1500.0
11:53:37.171,AUTO,-35.3632611,149.1652385,50020,-0.006113309878855944,-0.03273608162999153,0.19270098209381104,-0.342618852853775,-0.0396876223385334,-0.022546522319316864,0,5,-1016,-336,-38,-22,2,-2,8,1500.0
11:53:37.372,AUTO,-35.3632609,149.1652384,49999,0.008126405067741871,-0.04288848489522934,0.1879746913909912,0.2902246415615082,-0.03610949218273163,-0.026862574741244316,-3,32,-1006,297,-34,-26,11,0,4,1500.0
11:53:37.574,AUTO,-35.3632609,149.1652384,49999,0.008126405067741871,-0.04288848489522934,0.1879746913909912,0.2902246415615082,-0.03610949218273163,-0.026862574741244316,-3,32,-1006,297,-34,-26,11,0,4,1500.0
11:53:37.775,AUTO,-35.3632609,149.1652384,49999,0.008126405067741871,-0.04288848489522934,0.1879746913909912,0.2902246415615082,-0.03610949218273163,-0.026862574741244316,-3,32,-1006,297,-34,-26,11,0,4,1500.0
11:53:37.976,AUTO,-35.3632609,149.1652384,49999,0.008126405067741871,-0.04288848489522934,0.1879746913909912,0.2902246415615082,-0.03610949218273163,-0.026862574741244316,-3,32,-1006,297,-34,-26,11,0,4,1500.0
11:53:38.181,AUTO,-35.3632591,149.1652383,49967,0.03835858032107353,-0.08234787732362747,0.18201380968093872,-0.021596455946564674,-0.08286894857883453,0.1500668078660965,-8,-25,-1002,-25,-81,150,48,16,0,1500.0
11:53:38.417,AUTO,-35.3632578,149.1652386,49964,0.023688213899731636,-0.10238897055387497,0.2882536053657532,-0.5922092795372009,-0.09590309858322144,0.6841081380844116,-10,-43,-1010,-593,-94,685,66,24,-1,1500.0
11:53:38.618,AUTO,-35.3632562,149.1652391,49964,0.004853640682995319,-0.11859967559576035,0.4720611274242401,-0.39559540152549744,-0.059425242245197296,0.6484986543655396,-19,-11,-1002,-391,-58,648,86,35,-1,1500.0
11:53:38.819,AUTO,-35.363254,149.1652398,49963,0.006603016052395105,-0.13001376390457153,0.5754014849662781,0.36699673533439636,-0.04147042706608772,0.2463056892156601,-23,22,-1002,372,-40,246,107,46,-1,1500.0
11:53:39.020,AUTO,-35.3632514,149.1652408,49961,0.011966479010879993,-0.14007194340229034,0.603247344493866,0.6479622721672058,-0.05257674306631088,0.03298753499984741,-29,20,-1010,651,-51,33,129,57,0,1500.0
11:53:39.223,AUTO,-35.3632482,149.1652422,49957,0.012393137440085411,-0.1501939296722412,0.5945444703102112,0.20239731669425964,-0.05213319510221481,-0.03420956805348396,-38,-13,-1009,200,-50,-33,152,68,-1,1500.0
11:53:39.424,AUTO,-35.3632482,149.1652422,49957,0.012393137440085411,-0.1501939296722412,0.5945444703102112,0.20239731669425964,-0.05213319510221481,-0.03420956805348396,-38,-13,-1009,200,-50,-33,152,68,-1,1500.0
11:53:39.626,AUTO,-35.3632482,149.1652422,49957,0.012393137440085411,-0.1501939296722412,0.5945444703102112,0.20239731669425964,-0.05213319510221481,-0.03420956805348396,-38,-13,-1009,200,-50,-33,152,68,-1,1500.0
11:53:39.827,AUTO,-35.3632482,149.1652422,49957,0.012393137440085411,-0.1501939296722412,0.5945444703102112,0.20239731669425964,-0.05213319510221481,-0.03420956805348396,-38,-13,-1009,200,-50,-33,152,68,-1,1500.0
11:53:40.028,AUTO,-35.3632482,149.1652422,49957,0.012393137440085411,-0.1501939296722412,0.5945444703102112,0.20239731669425964,-0.05213319510221481,-0.03420956805348396,-38,-13,-1009,200,-50,-33,152,68,-1,1500.0
11:53:40.229,AUTO,-35.36323,149.1652508,49943,0.02965017408132553,-0.1618589460849762,0.5284194946289062,0.420798659324646,0.1375044584274292,-0.025275828316807747,-53,-11,-1013,421,138,-24,256,116,0,1500.0
11:53:40.430,AUTO,-35.36323,149.1652508,49943,0.02965017408132553,-0.1618589460849762,0.5284194946289062,0.420798659324646,0.1375044584274292,-0.025275828316807747,-53,-11,-1013,421,138,-24,256,116,0,1500.0
11:53:40.631,AUTO,-35.363224,149.1652537,49947,0.0311326514929533,-0.12326943129301071,0.5248807072639465,-0.2001659870147705,0.09909886121749878,0.023209914565086365,-63,-48,-1006,-202,100,24,274,123,-4,1500.0
11:53:40.832,AUTO,-35.3632179,149.1652568,49955,0.024140343070030212,-0.13480958342552185,0.521460771560669,-0.4799720346927643,-0.1427990049123764,0.0037718573585152626,-67,-43,-985,-478,-141,4,285,129,-3,1500.0
11:53:41.034,AUTO,-35.3632113,149.1652603,49957,0.024222644045948982,-0.17874687910079956,0.5196310877799988,0.14886145293712616,-0.18503053486347198,-0.03076985292136669,-71,-20,-987,153,-184,-30,303,137,0,1500.0
11:53:41.235,AUTO,-35.3632042,149.165264,49946,0.0247513260692358,-0.2259337306022644,0.5196115970611572,0.33109259605407715,-0.16486871242523193,0.0011712945997714996,-77,-21,-990,332,-164,2,331,149,5,1500.0
11:53:41.436,AUTO,-35.3632042,149.165264,49946,0.0247513260692358,-0.2259337306022644,0.5196115970611572,0.33109259605407715,-0.16486871242523193,0.0011712945997714996,-77,-21,-990,332,-164,2,331,149,5,1500.0
11:53:41.638,AUTO,-35.3632042,149.165264,49946,0.0247513260692358,-0.2259337306022644,0.5196115970611572,0.33109259605407715,-0.16486871242523193,0.0011712945997714996,-77,-21,-990,332,-164,2,331,149,5,1500.0
11:53:41.839,AUTO,-35.3632042,149.165264,49946,0.0247513260692358,-0.2259337306022644,0.5196115970611572,0.33109259605407715,-0.16486871242523193,0.0011712945997714996,-77,-21,-990,332,-164,2,331,149,5,1500.0
11:53:42.039,AUTO,-35.3631794,149.1652772,49930,0.034541379660367966,-0.11806783825159073,0.5155295729637146,0.24957217276096344,0.23191241919994354,-0.024438446387648582,-95,-21,-1028,253,232,-23,402,177,-9,1500.0
11:53:42.261,AUTO,-35.3631794,149.1652772,49930,0.034541379660367966,-0.11806783825159073,0.5155295729637146,0.24957217276096344,0.23191241919994354,-0.024438446387648582,-95,-21,-1028,253,232,-23,402,177,-9,1500.0
11:53:42.462,AUTO,-35.3631704,149.165282,49960,0.04661482200026512,-0.06844223290681839,0.5145848393440247,0.3590056598186493,0.05920834466814995,0.0203799307346344,-90,-39,-1001,358,60,21,402,174,-14,1500.0
11:53:42.663,AUTO,-35.3631615,149.1652868,49990,0.033911872655153275,-0.10612381249666214,0.5115746259689331,-0.38799330592155457,-0.27196624875068665,0.05793314799666405,-93,-57,-956,-389,-271,58,399,172,-9,1500.0
11:53:42.865,AUTO,-35.3631526,149.1652916,49996,0.019562605768442154,-0.17713873088359833,0.5083262324333191,-0.286173015832901,-0.27599239349365234,-0.04544426500797272,-96,-44,-950,-282,-275,-45,409,175,2,1500.0
11:53:43.066,AUTO,-35.3631433,149.1652966,49975,0.017373010516166687,-0.24484923481941223,0.5069351196289062,0.15947674214839935,-0.24230794608592987,-0.0488407276570797,-94,-27,-962,163,-241,-48,434,184,13,1500.0
11:53:43.267,AUTO,-35.3631332,149.165302,49929,0.012431192211806774,-0.29860877990722656,0.5066792368888855,0.07979331165552139,-0.1525326818227768,0.004960052669048309,-108,-34,-986,80,-151,5,472,198,21,1500.0
