time_stamp,RTL_ALT,MODE,roll,pitch,yaw,rollspeed,pitchspeed,yawspeed,lat,lon,relative_alt,vx,vy,vz,xacc,yacc,zacc,xgyro,ygyro,zgyro
23:02:28,1500.0,STABILIZE,-0.0011562738800421357,0.0009662218508310616,0.02361849509179592,0.00021132658002898097,0.00026635907124727964,0.001620924100279808,-35.3632622,149.1652374,0.0,-1.0,1.0,0.0,0.0,1.0,-1000.0,0.0,0.0,0.0
23:02:34,1500.0,STABILIZE,-0.0009974431595765054,0.000990861328318715,0.022134073078632355,0.000276269594905898,0.00021948240464553237,0.0014676391147077084,-35.3632622,149.1652375,2.0,-1.0,0.0,-1.0,0.0,2.0,-1000.0,0.0,0.0,0.0
23:02:40,1500.0,AUTO,-0.0005375942273531109,0.0009959531598724425,0.020851867273449898,0.0003244857653044164,0.0002979817509185523,0.0013382691540755332,-35.36326215,149.1652375,8.0,-1.0,0.0,-3.0,0.0,1.5,-1000.0,0.0,0.5,0.0
23:02:42,28860.0,AUTO,-0.00010840084360097535,0.0014177130651660264,0.020388228818774223,0.0003420436114538461,0.0003031778906006366,0.001257088442798704,-35.3632621,149.1652375,12.5,0.0,0.0,-1.0,0.0,2.0,-1000.0,1.0,1.0,0.5
23:02:44,56220.0,AUTO,0.002336472040042281,0.0008615180413471535,0.020069717429578304,-0.0010969904251396656,0.0033755680778995156,0.001612832274986431,-35.3632621,149.1652375,346.0,0.0,0.5,-92.0,0.0,0.0,-1116.5,0.0,4.0,1.0
23:02:46,56220.0,AUTO,0.046756990253925323,0.005744875175878406,-0.024465656373649836,-0.10734632983803749,0.06584877707064152,-0.08263273164629936,-35.363261449999996,149.16524070000003,3171.5,9.0,50.5,-145.0,1.0,-8.0,-991.0,-44.0,55.0,-67.0
23:02:47,42107.0,AUTO,-0.030312981689348817,0.01147047069389373,-0.06512641627341509,-0.07261493150144815,-0.019224232295528054,-0.039196535013616085,-35.363260950000004,149.1652446,4301.0,2.75,39.75,-146.75,4.2,-9.6,-1002.8,-90.8,1.2,-50.4
23:02:48,42107.0,AUTO,-0.058386920019984245,0.0007393115665763617,-0.09990439936518669,0.05624189041554928,0.0012908867793157697,-0.014956584200263023,-35.36326085,149.165245,6210.5,-4.0,-39.5,-148.0,-3.5,6.0,-1000.5,56.5,2.0,-15.0
23:02:50,42107.0,AUTO,0.0676923580467701,0.009471837664023042,-0.10117722302675247,0.0282002124004066,-0.03196458634920418,0.03049081191420555,-35.36326325,149.1652343,9306.0,-21.0,-12.0,-151.5,0.5,7.0,-998.5,29.0,-30.5,30.0
23:02:52,44871.5,AUTO,-0.02594946976751089,0.009583779843524098,-0.12179487198591232,0.017741426825523376,0.030503008514642715,-0.0675774198025465,-35.3632616,149.1652372,12381.5,27.0,-1.5,-150.5,-6.0,-5.0,-1003.5,18.0,31.0,-67.0
23:02:54,47636.0,AUTO,0.016438115388154984,0.014145711902529001,-0.1670234501361847,-0.004086678731255233,-0.012755195144563913,0.0045304864179342985,-35.3632603,149.16523495,15504.5,-11.0,1.5,-151.0,0.5,1.0,-999.0,-3.0,-11.5,4.0
23:02:56,47636.0,AUTO,0.0003972730064560892,-0.002361600287258625,-0.18201173096895218,-0.0007125277770683169,0.0004358475562185049,-0.02276467066258192,-35.363261949999995,149.16523610000002,18610.5,-6.0,7.5,-151.0,2.0,0.0,-1000.5,0.0,1.0,-22.5
23:02:57,58161.0,AUTO,0.0010476137194928015,-0.0008579491295677144,-0.2011224813759327,0.0028801811567973346,0.0028988608974032104,-0.02585804695263505,-35.363262150000004,149.16523635000001,19779.0,-2.5,3.75,-152.0,0.25,0.0,-1000.0,3.25,3.5,-25.25
23:02:58,58161.0,AUTO,0.003856512834317982,0.0030102706514298916,-0.2333875373005867,0.003595815855078399,0.003542734426446259,-0.024017048068344593,-35.3632622,149.1652364,21727.0,0.0,2.0,-152.0,0.0,0.0,-1000.0,4.5,4.0,-24.0
23:03:00,58161.0,AUTO,0.0019594741461332887,0.0037420886801555753,-0.2732153683900833,-0.03979124908801168,0.004313224810175598,-0.010471110173966736,-35.3632621,149.1652367,24850.5,-1.0,3.0,-151.5,0.0,-1.5,-991.5,-38.5,5.0,-10.0
23:03:02,58161.0,AUTO,0.008911390323191881,0.0022091780556365848,-0.23332475870847702,-0.005025828722864389,-0.0010090492432937026,0.023709346540272236,-35.3632624,149.1652368,27959.0,-2.5,6.5,-152.0,1.0,0.0,-1000.0,-3.5,0.0,23.0
23:03:03,28673.0,AUTO,0.003207276327884756,0.0018474783864803612,-0.2172769270837307,-0.006566602503880858,0.0003252356837037951,0.02031839033588767,-35.363262375000005,149.1652373,29122.75,-1.0,7.75,-152.0,0.5,-1.0,-1000.0,-5.25,1.25,19.75
23:03:04,28673.0,AUTO,-0.0008001085952855647,0.001762961852364242,-0.1939970925450325,-0.0015148798120208085,-0.0005284447106532753,0.017437773756682873,-35.3632623,149.16523805,31063.0,0.0,4.5,-152.0,0.0,0.0,-1000.0,0.0,0.5,16.5
23:03:06,28673.0,AUTO,0.0018966657808050513,0.001055381668265909,-0.1642887219786644,0.0034255841746926308,0.0005586522165685892,0.013713531661778688,-35.3632623,149.1652381,34169.5,0.0,0.0,-152.0,0.0,0.0,-1000.0,4.0,1.0,13.0
23:03:08,21170.0,AUTO,0.0023260860859105983,0.001117462175898254,-0.1451582113901774,0.00046689649267743033,0.0009628810609380404,0.009815615291396776,-35.3632622,149.16523786666667,36823.333333333336,0.0,0.0,-152.0,0.0,0.0,-1000.0,1.3333333333333333,1.6666666666666667,9.666666666666666
23:03:10,13667.0,AUTO,-0.04877519607543945,0.058425575494766235,0.045111365616321564,-0.09521956741809845,0.05273911077529192,0.46999526023864746,-35.363262250000005,149.1652373,40337.5,-14.0,-11.5,-135.0,1.0,1.0,-957.5,-93.5,54.0,469.5
23:03:12,13667.0,AUTO,0.034129283080498375,-0.03903948391477267,0.2280054489771525,-0.07675500462452571,0.018633796523014706,-0.02548802550882101,-35.36326463333334,149.16523306666667,41952.0,4.333333333333333,0.6666666666666666,-61.0,-0.6666666666666666,-3.3333333333333335,-971.0,-75.66666666666667,19.666666666666668,-25.0
23:03:13,125108.0,AUTO,0.022086624521762133,-0.0035454660828690976,0.19683607667684555,0.1721312114968896,0.0320905284024775,-0.02303518308326602,-35.363263325,149.1652345,42463.25,20.75,28.0,-34.25,-1.5,-1.75,-979.0,173.5,32.75,-22.25
23:03:14,125108.0,AUTO,-0.005198313156142831,0.017082258127629757,0.1698959320783615,0.5161669850349426,-0.0023538352688774467,-0.016956995241343975,-35.3632613,149.16523840000002,42738.5,9.5,19.5,-5.5,0.0,30.0,-982.0,648.0,3.0,-14.0
23:03:16,125108.0,AUTO,0.02411956508876756,-0.046891638077795506,0.14341624081134796,0.36295412108302116,-0.05492816120386124,-0.01594620430842042,-35.36326085,149.1652402,42556.0,16.0,8.0,10.0,0.0,14.5,-990.5,364.0,-53.0,-15.5
23:03:18,125108.0,AUTO,-0.0024718626712759337,-0.16861231128374735,0.9331724445025126,0.274625522394975,-0.043374707301457725,0.049974863727887474,-35.363245066666664,149.16525786666668,42153.333333333336,166.0,136.66666666666666,28.666666666666668,-48.666666666666664,-8.333333333333334,-990.3333333333334,275.6666666666667,-42.0,50.333333333333336
23:03:19,12069.0,AUTO,0.015054588089697063,-0.19251003861427307,0.8815328478813171,-0.27154234051704407,-0.00423284707358107,-0.040261692367494106,-35.363225925,149.165278875,41742.25,259.0,224.0,45.5,-75.0,-41.75,-995.25,-270.5,-3.0,-39.5
23:03:20,12069.0,AUTO,0.04717496782541275,-0.21872663497924805,0.860771119594574,-0.3522043824195862,-0.028324474580585957,-0.0016503110527992249,-35.363191400000005,149.16531659999998,41018.5,355.5,324.5,67.0,-103.5,-60.5,-984.5,-351.0,-27.0,-1.5
23:03:22,12069.0,AUTO,0.08189590275287628,-0.17922048270702362,0.8455660939216614,-0.23114359378814697,0.0027950070798397064,0.04789150506258011,-35.3631201,149.1653974,39523.0,461.0,442.0,85.0,-132.0,-104.0,-980.0,-231.0,3.0,48.0
23:03:24,9132.5,AUTO,0.08604669570922852,-0.14261169731616974,0.8371706306934357,-0.29443150758743286,0.03134378738468513,0.03889111056923866,-35.363049000000004,149.1654805,38011.5,488.5,475.0,91.0,-132.5,-98.5,-991.5,-294.0,32.5,38.5
23:03:26,6196.0,AUTO,0.07216281816363335,-0.14439254254102707,0.8269238173961639,-0.2335263192653656,-0.00014293426647782326,-0.007436715066432953,-35.3629607,149.16558535000001,36086.5,496.5,471.5,93.5,-141.0,-98.0,-982.5,-232.5,1.0,-7.5
23:03:28,6196.0,AUTO,0.07127542048692703,-0.09888487681746483,0.8162225782871246,0.11717039346694946,0.07490987330675125,-0.0012667477130889893,-35.3628717,149.16569035,34229.5,495.0,457.5,87.0,-131.0,-96.0,-996.5,118.0,75.5,-1.0
23:03:29,100855.0,AUTO,0.07342992909252644,-0.04663464426994324,0.814523920416832,0.02826027199625969,0.04485304746776819,0.05794595065526664,-35.36282932500001,149.165740675,33363.0,455.5,414.75,83.75,-126.0,-98.75,-981.5,27.5,45.5,58.25
23:03:30,100855.0,AUTO,0.045804137364029884,-0.00012261420488357544,0.8128589689731598,-1.1393931210041046,0.036743734031915665,0.08423444256186485,-35.362792299999995,149.16578479999998,32562.5,394.0,347.5,73.0,-112.5,-117.5,-997.0,-1139.5,38.0,84.5
23:03:32,100855.0,AUTO,0.014060630928725004,0.051966430619359016,0.8034138381481171,0.8506609797477722,0.002925063483417034,-0.013544844929128885,-35.36273945,149.16584895,31400.5,230.5,188.0,40.0,-54.5,0.5,-1032.5,851.0,4.0,-12.0
23:03:34,69380.5,AUTO,-0.018456509336829185,0.05756870098412037,0.7992247641086578,-0.5600075423717499,-0.02874142210930586,0.02631351910531521,-35.362715800000004,149.16587905,30883.0,97.5,29.0,12.5,-23.5,-36.0,-1006.0,-560.5,-27.0,28.0
23:03:36,37906.0,AUTO,0.0276577090844512,0.011574988631764427,0.7955549955368042,-0.3087853081524372,-0.024440286681056023,0.005045477708335966,-35.362707099999994,149.1658799,30827.0,9.0,-10.5,0.0,-4.0,-18.0,-1005.5,-309.5,-22.0,6.5
23:03:38,37906.0,RTL,0.039756761863827705,-0.00762303511146456,0.7876198291778564,0.6628550589084625,-0.01184229925274849,0.008773721754550934,-35.3627049,149.1658768,30853.0,-9.5,19.5,-2.0,-3.0,21.0,-1002.5,662.5,-10.5,11.0
23:03:39,76714.0,RTL,0.03242043685168028,0.007655334426090121,0.7856397181749344,-0.1737103946506977,0.00035022461088374257,0.012380706844851375,-35.3627037,149.1658767,30933.5,-14.0,25.25,-16.25,-2.5,-9.25,-1029.25,-173.5,2.0,14.75
23:03:40,76714.0,RTL,0.029497504234313965,0.0063742713537067175,0.7843939960002899,0.12111826986074448,-0.001728645758703351,0.007423685397952795,-35.362703249999996,149.1658766,31334.0,-23.5,25.0,-59.0,0.0,9.5,-1049.5,122.0,0.0,10.0
23:03:42,76714.0,RTL,0.03888557851314545,0.0003379478584975004,0.7814810872077942,0.028888914734125137,-0.007116688298992813,0.0017438478535041213,-35.3627036,149.16587675,33526.0,-29.5,29.5,-142.5,0.5,-1.5,-1021.5,30.0,-5.0,4.5
23:03:44,79378.5,RTL,-0.03787575333262794,0.01601946516893804,0.7148764133453369,-0.10243983450345695,-0.010408989619463682,-0.04613680113106966,-35.36270775,149.16588289999999,36563.0,-35.0,39.5,-147.0,3.5,-9.5,-1003.5,-100.5,-8.5,-42.5
23:03:46,82043.0,RTL,0.0013363361358642578,0.009452630067244172,0.6862791776657104,0.06217321939766407,0.011131152510643005,-0.003374085295945406,-35.3627049,149.16588005,39658.0,27.0,-35.5,-151.0,-6.0,9.5,-1002.5,64.0,12.5,-0.5
23:03:48,82043.0,RTL,0.023098912555724382,0.01009388524107635,0.6732558012008667,-0.06849348545074463,-0.033823237754404545,-0.004039640713017434,-35.3627037,149.16587625,42779.0,-31.5,9.0,-149.5,6.5,-2.0,-998.5,-66.0,-31.5,-1.0
23:03:49,7353.0,RTL,-0.020862841047346592,-0.014935207553207874,0.6666517108678818,-0.01161605678498745,-0.001753373770043254,-0.027965158689767122,-35.362706225,149.165877,44317.5,-14.0,9.75,-151.5,4.0,-3.0,-1002.5,-9.5,0.0,-24.75
23:03:50,7353.0,RTL,-0.014018002897500992,-0.0052575901499949396,0.6302522122859955,0.013697260059416294,0.01657393667846918,-0.04273206554353237,-35.36270655,149.16587765,45886.0,10.0,2.0,-152.0,-1.0,-1.0,-1000.0,15.0,18.0,-39.5
23:03:52,7353.0,RTL,0.0075389540288597345,0.01260485127568245,0.5761933922767639,-0.00028953258879482746,-0.0013741807779297233,-0.014495577197521925,-35.3627048,149.16587815,49011.0,3.0,-1.5,-152.0,-1.0,0.0,-999.5,2.0,0.5,-11.5
23:03:54,60154.0,RTL,0.0014362636429723352,0.004141425364650786,0.5547761023044586,-0.0013197797816246748,-0.0019638215308077633,-0.017103733029216528,-35.362705250000005,149.16587825,52127.5,-4.5,0.5,-152.0,0.5,0.0,-1000.0,0.5,0.0,-14.0
23:03:56,112955.0,RTL,0.0007720378489466384,0.004221870913170278,0.5162298083305359,0.0014152119401842356,0.0009492156677879393,-0.02281793300062418,-35.3627057,149.16587855,55245.5,-0.5,0.5,-152.0,0.0,0.0,-1000.0,3.0,2.0,-20.0
23:03:58,112955.0,RTL,0.0034346283646300435,0.007663550321012735,0.5166579782962799,-0.0018581814365461469,-0.0019307454349473119,0.02112851571291685,-35.3627059,149.1658788,58353.5,-4.0,0.5,-152.0,0.0,0.0,-1000.0,0.0,0.0,23.0
23:03:59,1807.0,RTL,0.0010752092930488288,0.004982387064956129,0.5417260080575943,-0.0012422847794368863,-0.002413301990600303,0.022765150293707848,-35.362706249999995,149.16587895,59904.75,-4.5,1.0,-152.0,0.0,0.0,-1000.25,0.25,-0.5,24.5
23:04:00,1807.0,RTL,0.000257269071880728,0.00365191709715873,0.5632982850074768,0.0005526110762730241,-0.0007810411043465137,0.018349451944231987,-35.362706450000005,149.165879,61458.0,-2.0,0.0,-152.0,0.0,0.0,-1000.5,2.0,1.0,20.0
23:04:02,1807.0,RTL,0.001616582798305899,0.004325193352997303,0.5979654490947723,0.0018725123954936862,0.0010289726196788251,0.013759470079094172,-35.3627065,149.165879,64566.0,0.0,0.0,-152.0,0.0,0.0,-1000.0,3.5,2.5,15.5
23:04:04,23995.0,RTL,0.002646197099238634,0.004966075997799635,0.6233983337879181,-0.0008455634815618396,0.0018238802440464497,0.011041127145290375,-35.36270625,149.165879,67672.5,0.0,0.0,-152.0,0.0,0.0,-999.5,1.0,3.5,12.5
23:04:06,46183.0,RTL,0.0029163204599171877,0.004822535673156381,0.6428024470806122,-0.0005913241766393185,-0.00023866223637014627,0.008033673744648695,-35.3627061,149.16587894999998,70782.5,-1.0,0.0,-152.0,0.0,0.0,-999.5,1.0,1.5,9.5
23:04:08,46183.0,RTL,0.002311788033694029,0.004495900822803378,0.6574782729148865,-1.551309833303094e-05,-7.7576725743711e-05,0.005539053352549672,-35.362706,149.1658789,73888.0,-1.0,0.5,-152.0,0.0,0.0,-1000.0,1.5,1.5,7.0
23:04:09,64640.0,RTL,0.0022044574143365026,0.004758445429615676,0.6640815585851669,0.0004203934804536402,0.0008294768631458282,0.006619583466090262,-35.362706,149.1658789,75436.25,-1.0,0.0,-152.0,0.0,0.0,-999.75,2.0,2.5,7.75
23:04:10,64640.0,RTL,0.0022498907055705786,0.004604680929332972,0.6703186333179474,0.00042260694317519665,0.00028151727747172117,0.004212135216221213,-35.362706,149.1658789,76993.5,-1.0,0.0,-152.0,0.0,0.0,-1000.0,1.5,2.0,6.0
23:04:12,64640.0,RTL,0.0022589844884350896,0.004583790432661772,0.6809520125389099,0.001359285437501967,-2.3432017769664526e-05,0.004963826620951295,-35.362706,149.1658789,80102.0,-1.0,0.0,-152.0,0.0,0.0,-1000.0,3.0,1.5,6.0
23:04:14,64640.0,RTL,0.002110595814883709,0.004958667326718569,0.6904375851154327,-0.0001389378448948264,0.00013662467245012522,0.002934566349722445,-35.362706,149.1658789,83209.0,-1.0,0.0,-152.0,0.0,0.0,-1000.5,1.5,2.0,4.5
23:04:15,34480.0,RTL,0.0018865068850573152,0.004878793261013925,0.6947375684976578,0.00048754733870737255,0.0003382643044460565,0.003651575156254694,-35.362706,149.1658789,84760.25,-1.0,0.0,-152.0,0.0,0.0,-1000.25,2.0,2.0,5.0
23:04:16,34480.0,RTL,0.001979219785425812,0.004829314770177007,0.6986657083034515,0.0008175121620297432,-0.0005110895144753158,0.003692961414344609,-35.362706,149.1658789,86315.0,-1.0,0.0,-152.0,0.0,0.0,-1000.0,3.0,1.0,5.0
23:04:18,34480.0,RTL,0.0023437889758497477,0.0042655388824641705,0.7057534754276276,0.0015674507012590766,0.0008148050401359797,0.0032859676284715533,-35.362706,149.1658789,89419.0,-1.0,0.0,-152.0,0.0,0.0,-999.5,3.0,2.5,5.0
23:04:20,122338.0,RTL,0.002407784922979772,0.004862014902755618,0.7116831243038177,-0.001414575264789164,-6.83654798194766e-05,0.0012788677122443914,-35.362706,149.1658789,92525.0,-1.0,0.0,-152.0,0.0,0.0,-1000.0,0.5,1.5,2.5
23:04:22,210196.0,RTL,0.002231771359220147,0.004835094092413783,0.7172421514987946,0.00027470989152789116,0.0003923269687220454,0.0021339176455512643,-35.362706,149.1658789,95632.5,-1.0,0.0,-152.0,0.0,0.0,-1000.0,2.0,2.5,3.0
23:04:24,210196.0,RTL,0.0022698366083204746,0.00460885395295918,0.7219163775444031,-0.00010396493598818779,0.0006720800884068012,0.0033147865906357765,-35.362706,149.1658789,98741.5,-1.0,0.0,-152.0,0.0,0.0,-999.5,2.5,2.5,4.5
23:04:25,117250.0,RTL,0.001758027239702642,0.0044593168422579765,0.7242688089609146,-0.001086986856535077,-6.153422873467207e-05,0.0030680960626341403,-35.362706,149.1658789,100299.5,-1.0,0.0,-152.0,0.0,0.0,-999.75,1.0,1.75,4.5
23:04:26,117250.0,RTL,0.0018227911787107587,0.004855531733483076,0.7268587946891785,-0.00012692023301497102,-0.00046323006972670555,0.0013478990877047181,-35.362706,149.1658789,101930.0,-1.0,0.0,-152.0,0.0,0.0,-1000.0,1.5,1.5,3.0
23:04:28,117250.0,RTL,0.002168807666748762,0.004649657057598233,0.7302610576152802,0.0002752490108832717,-0.0006041380111128092,0.0016871312982402742,-35.362706,149.1658789,105113.0,-1.0,0.0,-152.0,0.0,0.0,-1000.0,2.0,1.0,3.0
23:04:30,90476.5,RTL,0.0024711007717996836,0.004850188735872507,0.7331238090991974,-0.002168886363506317,-0.0006668139831162989,-0.00031776627292856574,-35.362705950000006,149.1658789,108219.5,-1.0,0.0,-152.0,0.0,0.0,-1000.0,0.0,1.0,1.0
23:04:32,63703.0,RTL,0.0024339931551367044,0.004621550440788269,0.7359344959259033,0.0027457006508484483,0.0007536381017416716,0.0032546291477046907,-35.3627059,149.1658789,111332.0,-1.0,0.0,-152.0,0.0,0.0,-1000.0,4.5,2.5,4.5
23:04:34,63703.0,RTL,0.002219843678176403,0.004688546527177095,0.7379084825515747,0.0029238658025860786,0.0011579827405512333,0.0016638850793242455,-35.3627059,149.1658789,113852.0,-1.0,0.0,-152.0,0.0,0.0,-1000.0,5.0,3.0,3.0
23:04:35,80670.0,RTL,0.002291253861039877,0.004746751487255096,0.7391369700431824,0.001397694693878293,0.0007913444191217422,0.0013881611404940486,-35.3627059,149.1658789,115793.6,-1.0,0.0,-152.0,0.0,0.0,-1000.0,3.2,2.8,3.0
23:04:36,80670.0,RTL,0.002213086700066924,0.004734870046377182,0.7402676045894623,-0.0020058067748323083,-0.0005509988404810429,8.926319424062967e-06,-35.3627059,149.1658789,117541.5,-1.0,0.0,-152.0,0.0,0.0,-1000.0,0.5,1.0,1.5
23:04:38,80670.0,RTL,0.002155728987418115,0.004777576774358749,0.7419909834861755,0.0004100928781554103,-0.0007774095283821225,5.492300260812044e-05,-35.3627059,149.1658789,120655.5,-1.0,0.0,-152.0,0.0,0.0,-1000.0,2.5,1.0,1.5
23:04:40,83167.0,RTL,0.0022395632695406675,0.004736224189400673,0.7434300482273102,0.0016236486844718456,0.0009820535778999329,0.001750655472278595,-35.3627059,149.1658789,123761.0,-1.0,0.0,-152.0,0.0,0.0,-1000.0,4.0,3.0,3.0
23:04:42,85664.0,RTL,0.001918868685606867,0.004481989657506347,0.7456018328666687,0.002568538999184966,0.0002664661733433604,0.0017958158859983087,-35.3627059,149.1658789,126868.0,-1.0,0.0,-152.0,0.0,0.0,-1000.0,5.0,2.5,3.5
23:04:44,85664.0,RTL,0.002295948099344969,0.0048079092521220446,0.7467343211174011,-0.00036823388654738665,-0.00047740963054820895,-0.0002630692906677723,-35.3627059,149.1658789,129976.0,-1.0,0.0,-152.0,0.0,0.0,-1000.0,1.5,1.5,1.0
23:04:45,36270.0,RTL,0.0023847341653890908,0.005037402966991067,0.7471137493848801,0.0005250242247711867,-0.00015805693692527711,0.0011976558598689735,-35.3627059,149.1658789,131528.5,-1.0,0.0,-152.0,0.0,0.0,-1000.25,2.75,2.0,2.75
23:04:46,36270.0,RTL,0.00241113209631294,0.00451715337112546,0.7475175857543945,0.0007910752901807427,-0.0011541462736204267,-0.00022997159976512194,-35.3627059,149.1658789,133083.5,-1.0,0.0,-152.0,0.0,0.0,-1000.0,3.0,1.0,1.5
23:04:48,36270.0,RTL,0.0022419499000534415,0.004614460747689009,0.7483315467834473,-0.000257485662586987,-0.00114892004057765,0.0019747241167351604,-35.3627059,149.1658789,136188.5,-1.0,0.0,-152.0,0.0,0.0,-999.5,2.0,1.0,3.5
23:04:50,45997.0,RTL,0.002100942307151854,0.004724672297015786,0.749048262834549,0.00023818702902644873,-0.00016110262367874384,0.00016779929865151644,-35.3627059,149.1658789,139294.5,-1.0,0.0,-152.0,0.0,0.0,-1000.0,2.5,2.0,2.0
23:04:52,55724.0,RTL,0.002185991033911705,0.004761087475344539,0.7495754659175873,2.5463756173849106e-05,0.0002819101791828871,0.001305970479734242,-35.3627059,149.1658789,142405.5,-1.0,0.0,-152.0,0.0,0.0,-999.5,2.0,2.5,3.0
23:04:54,55724.0,RTL,0.0021304222755134106,0.004413227550685406,0.75045245885849,0.0017623710446059704,-0.00010871957056224346,0.0016339072026312351,-35.3627059,149.1658789,144929.0,-1.0,0.0,-152.0,0.0,0.0,-1000.0,4.0,2.0,3.0
23:04:55,82176.0,RTL,0.0020848057698458432,0.004668908193707466,0.7505709648132324,0.00031417408026754854,0.00015301525127142668,0.0005690397694706917,-35.3627059,149.1658789,146875.4,-1.0,0.0,-152.0,0.0,0.0,-1000.0,2.4,2.4,2.4
23:04:56,82176.0,RTL,0.002085882704705,0.0045824069529771805,0.7508236169815063,0.000980263575911522,-0.0008969488553702831,-7.39924143999815e-05,-35.3627059,149.1658789,148043.0,-1.0,0.0,-152.0,0.0,0.0,-1000.0,3.0,1.0,2.0
23:04:58,82176.0,RTL,0.0015877167461439967,0.0045777796767652035,0.752073347568512,0.0023353365249931812,0.0014323426876217127,0.0017190673388540745,-35.3627059,149.1658789,151150.0,-1.0,0.0,-152.0,0.0,0.0,-1000.0,5.0,3.0,4.0
23:05:00,59926.5,RTL,0.0022724821465089917,0.004383993800729513,0.7520244419574738,-0.00023178051924332976,9.502517059445381e-05,-2.09402060136199e-05,-35.3627059,149.1658789,154450.5,-1.0,0.0,-152.0,0.0,0.0,-1000.0,2.3333333333333335,2.3333333333333335,2.3333333333333335
23:05:02,37677.0,RTL,0.0022912678541615605,0.00461914180777967,0.7523373663425446,0.001644435804337263,0.0015027951449155807,0.0018112830584868789,-35.3627059,149.1658789,157324.0,-1.0,0.0,-152.0,0.0,0.0,-999.5,3.5,4.0,3.5
23:05:04,37677.0,RTL,0.0023218722781166434,0.004273799946531653,0.7526190280914307,0.0011756744934245944,-0.00015973241534084082,0.0013188698794692755,-35.3627059,149.1658789,160427.0,-1.0,0.0,-152.0,0.0,0.0,-1000.0,3.5,2.5,3.0
23:05:05,56829.0,RTL,0.0024552230606786907,0.004403147497214377,0.752613976597786,-0.0005236670258454978,0.0004368282970972359,0.001238738012034446,-35.3627059,149.1658789,162376.0,-1.0,0.0,-152.0,0.0,0.0,-1000.0,1.75,2.75,3.0
23:05:06,56829.0,RTL,0.0021610636031255126,0.004343090811744332,0.7527409791946411,0.0005296514136716723,0.00047041772631928325,0.002080668928101659,-35.3627059,149.1658789,163542.0,-1.0,0.0,-152.0,0.0,0.0,-1000.0,3.0,3.0,4.0
23:05:08,56829.0,RTL,0.0018412652425467968,0.004770475206896663,0.7529319524765015,0.002272342680953443,0.0007256995886564255,0.0021789423190057278,-35.3627059,149.1658789,166651.0,-1.0,0.0,-152.0,0.0,0.0,-999.5,4.5,3.0,4.0
23:05:10,33136.0,RTL,0.002154446323402226,0.004369005095213652,0.7529875636100769,0.0005082049174234271,0.001007998245768249,0.0011968978215008974,-35.3627059,149.1658789,169755.5,-1.0,0.0,-152.0,0.0,0.0,-1000.0,3.0,3.0,3.0
23:05:12,9443.0,RTL,0.00209187064319849,0.004339111736044288,0.7531211972236633,0.0006378652760758996,-0.0001058792695403099,0.0018090959638357162,-35.3627059,149.1658789,172860.0,-1.0,0.0,-152.0,0.0,0.0,-1000.0,3.0,2.5,4.0
23:05:14,9443.0,RTL,0.0020133929792791605,0.004651992581784725,0.7536704242229462,-0.0005041118711233139,0.0009223808301612735,0.003520503407344222,-35.3627059,149.1658789,175966.5,-1.0,0.0,-152.0,0.0,0.0,-999.0,2.0,3.5,5.5
23:05:15,116746.0,RTL,0.002200239570811391,0.004389545181766152,0.7539891451597214,-0.001132313278503716,-2.721406053751707e-05,-0.000983345351414755,-35.3627059,149.1658789,177908.75,-1.0,0.0,-152.0,0.0,0.0,-1000.0,1.25,2.75,1.0
23:05:16,116746.0,RTL,0.0018250765861012042,0.004119319608435035,0.7539200484752655,-0.0006082174368202686,0.000210620928555727,-0.0009568643290549517,-35.3627059,149.1658789,179077.0,-1.0,0.0,-152.0,0.0,0.0,-1000.0,2.0,2.5,1.5
23:05:18,116746.0,RTL,0.0020713788690045476,0.004371743416413665,0.7538658380508423,0.0013962783850729465,0.0006685655098408461,0.0012443076120689511,-35.3627059,149.1658789,182180.0,-1.0,0.0,-152.0,0.0,0.0,-1000.0,4.0,3.0,3.5
23:05:20,188220.5,RTL,0.002224609605036676,0.004532910650596023,0.7540908753871918,-0.0015278729842975736,-0.001073626452125609,0.00022909417748451233,-35.3627059,149.1658789,185299.0,-1.0,0.0,-152.0,0.0,0.0,-1000.0,1.5,1.5,2.0
23:05:22,259695.0,RTL,0.0021084159379824996,0.004314693855121732,0.7539768218994141,-0.0008235123241320252,-0.001119743857998401,0.0010803709737956524,-35.3627059,149.1658789,188397.0,-1.0,0.0,-152.0,0.0,0.0,-1000.0,2.0,1.5,3.0
23:05:24,259695.0,RTL,0.0023644614266231656,0.004343197215348482,0.7541532218456268,-0.0005102957366034389,-0.0010646217269822955,0.00115381577052176,-35.3627059,149.1658789,191504.5,-1.0,0.0,-152.0,0.0,0.0,-1000.0,2.5,1.5,3.5
23:05:25,50556.0,RTL,0.0021192943677306175,0.004460175638087094,0.7538893222808838,-0.0008157627889886498,-5.83351356908679e-06,-0.0004649099719244987,-35.3627059,149.1658789,193452.0,-1.0,0.0,-152.0,0.0,0.0,-999.75,1.75,2.5,1.75
23:05:26,50556.0,RTL,0.0020983085269108415,0.004585785558447242,0.7538363635540009,0.0008595061954110861,0.00016826298087835312,0.002259095781482756,-35.3627059,149.1658789,194619.0,-1.0,0.0,-152.0,0.0,0.0,-999.5,3.5,3.0,4.5
23:05:28,50556.0,RTL,0.0021673899609595537,0.004556417465209961,0.7538135945796967,0.0006043111206963658,0.0014074494829401374,0.000537889776751399,-35.3627059,149.1658789,197730.0,-1.0,0.0,-152.0,0.0,0.0,-1000.0,3.5,4.0,3.0
23:05:30,50556.0,RTL,0.002038276637904346,0.004789193859323859,0.7541334331035614,0.0008782660588622093,0.001464237691834569,0.0019649361493065953,-35.3627059,149.1658789,200832.0,-1.0,0.0,-152.0,0.0,0.0,-1000.0,3.5,4.0,4.5
23:05:31,48120.0,RTL,0.002156827016733587,0.004276727791875601,0.7547569125890732,0.0013056037132628262,6.451708031818271e-05,0.0010484378435648978,-35.3627059,149.1658789,202773.5,-1.0,0.0,-152.0,0.0,0.0,-1000.0,4.25,2.75,3.25
23:05:32,48120.0,RTL,0.002107710111886263,0.004236187553033233,0.7544624209403992,0.0017364447703585029,0.0006565579678863287,0.0012182891368865967,-35.3627059,149.1658789,203938.0,-1.0,0.0,-152.0,0.0,0.0,-999.5,4.5,3.5,3.5
23:05:34,48120.0,RTL,0.0017441225936636329,0.004144422942772508,0.7546681761741638,-0.000967365805990994,-0.0009511789539828897,0.0011395536130294204,-35.3627059,149.1658789,207049.0,-1.0,0.0,-152.0,0.0,0.0,-999.5,1.5,2.0,3.5
23:05:36,49783.0,RTL,0.00236939056776464,0.003971127327531576,0.7543472945690155,0.0013719515409320593,0.000682002049870789,0.00041251396760344505,-35.3627059,149.1658789,210155.5,-1.0,0.0,-152.0,0.0,0.0,-999.5,4.5,3.5,3.0
23:05:38,51446.0,RTL,0.0023388557601720095,0.0045431810431182384,0.7541786134243011,-0.0012488458305597305,0.0008354960009455681,-0.0007167228613980114,-35.3627059,149.1658789,213259.0,-1.0,0.0,-152.0,0.0,0.0,-1000.0,1.5,3.5,1.5
23:05:40,51446.0,RTL,0.002123620710335672,0.004445311846211553,0.7542268931865692,-0.0008456904906779528,-1.2255040928721428e-05,0.0003934113774448633,-35.3627059,149.1658789,216373.5,-1.0,0.0,-152.0,0.0,0.0,-1000.0,2.5,3.0,2.5
23:05:41,100287.0,RTL,0.002382346137892455,0.004993298789486289,0.7542659640312195,-0.000995711947325617,0.0007966198609210551,-0.0005943049036432058,-35.3627059,149.1658789,218311.5,-1.75,0.0,-152.0,0.0,0.0,-1000.0,2.25,3.75,1.75
23:05:42,100287.0,RTL,0.002401878940872848,0.004668837180361152,0.7542887032032013,0.0007737671257928014,-0.0009942493634298444,0.0012276767520233989,-35.3627059,149.1658789,219476.0,-2.0,0.0,-152.0,0.0,0.0,-1000.0,3.5,1.5,3.5
23:05:44,100287.0,RTL,0.0022277742391452193,0.004707092186436057,0.75442835688591,0.0011521688429638743,-0.00023903814144432545,0.002047007204964757,-35.3627059,149.1658789,222582.0,-2.0,0.0,-152.0,0.0,0.0,-1000.5,4.0,2.5,5.0
23:05:46,60478.5,RTL,0.0020797960460186005,0.004346348810940981,0.7543002367019653,3.860192373394966e-05,-1.1764117516577244e-05,-0.0004592323675751686,-35.3627059,149.1658789,225695.0,-1.0,0.0,-152.0,0.0,0.0,-1000.0,3.0,2.5,2.5
23:05:48,20670.0,RTL,0.0023380040656775236,0.0042158495634794235,0.7547783255577087,4.3172272853553295e-05,0.0004468495026230812,-9.575276635587215e-06,-35.3627059,149.1658789,228804.5,-1.0,0.0,-152.0,0.0,0.0,-1000.0,3.5,3.5,2.5
23:05:50,20670.0,RTL,0.0020893269684165716,0.004192174877971411,0.7548510730266571,-0.00026541732950136065,0.0007333932444453239,0.0005666273646056652,-35.3627059,149.1658789,231909.5,-1.0,0.0,-152.0,0.0,0.0,-1000.5,2.5,3.5,3.0
23:05:51,35849.0,RTL,0.0022996639600023627,0.004506705212406814,0.7546298801898956,0.00018448918126523495,0.0015917063574306667,0.001078767963917926,-35.3627059,149.1658789,233851.0,-1.0,0.0,-152.0,0.0,0.0,-999.5,3.25,4.25,3.75
23:05:52,35849.0,RTL,0.0021609606919810176,0.0048003047704696655,0.7545218169689178,0.0004056470934301615,2.227176446467638e-05,-4.134560003876686e-05,-35.3627059,149.1658789,235016.0,-1.0,0.0,-152.0,0.0,0.0,-1000.0,3.5,3.0,2.5
23:05:54,35849.0,RTL,0.002107269363477826,0.0043929575476795435,0.7545706927776337,0.0006385991582646966,0.0002029228489845991,0.0014228721847757697,-35.3627059,149.1658789,238282.5,-2.0,0.0,-152.0,0.0,0.0,-999.5,4.0,3.5,4.0
23:05:56,35849.0,RTL,0.002271268400363624,0.00446296064183116,0.7545041739940643,0.0013451928971335292,0.0010260565904900432,-0.0007883532671257854,-35.3627059,149.1658789,241389.0,-1.0,0.0,-152.0,0.0,0.0,-999.5,4.0,4.0,2.0
23:05:57,133801.0,RTL,0.0024461987195536494,0.004630421637557447,0.7544455826282501,0.0002844636910595,0.0004291642690077424,-0.0001736290578264743,-35.3627059,149.1658789,243327.25,-1.75,0.0,-152.0,0.0,0.0,-1000.0,3.5,3.75,2.5
23:05:58,133801.0,RTL,0.0024823728017508984,0.004735714057460427,0.7543905675411224,0.0020285367500036955,0.0002990743378177285,0.001442044973373413,-35.3627059,149.1658789,244492.0,-2.0,0.0,-152.0,0.0,0.0,-1000.0,5.0,4.0,4.5
23:06:00,133801.0,RTL,0.0022961932700127363,0.0044000588823109865,0.7543541193008423,9.211944416165352e-07,-0.00036700034979730844,0.0014435348566621542,-35.3627059,149.1658789,247607.0,-2.0,0.0,-152.0,0.0,0.0,-1000.0,3.0,3.0,4.0
23:06:02,36311.0,RTL,0.002151419990696013,0.03872312605381012,0.7544918358325958,-0.0004863686626777053,0.048920512199401855,0.0005784947425127029,-35.3627061,149.1658787,250701.0,-10.0,-7.5,-150.5,1.0,0.5,-998.5,3.0,52.5,3.5
23:06:04,36311.0,RTL,-0.006858266890048981,0.11542706936597824,0.7622977197170258,-0.04019250301644206,0.08064146898686886,0.07158043165691197,-35.362714100000005,149.16586940000002,253696.0,-96.5,-85.0,-137.0,21.5,12.5,-975.0,-36.0,84.0,74.5
23:06:06,36311.0,RTL,0.10525087639689445,0.11615575477480888,1.3148310780525208,0.012655764818191528,0.027888794895261526,0.07825449109077454,-35.3627422,149.16582979999998,255314.5,-239.0,-230.0,-15.0,74.5,0.0,-942.0,16.5,31.0,81.0
23:06:07,248701.0,RTL,0.09684141911566257,0.19347629696130753,1.3553328812122345,-0.020512981340289116,0.05383740598335862,-0.017094953451305628,-35.362775525,149.1657949,255156.0,-356.25,-277.25,25.0,111.25,-16.25,-998.0,-16.75,57.0,-13.75
23:06:08,248701.0,RTL,0.06830532476305962,0.21920277923345566,1.3342798948287964,-0.05807386338710785,0.0011905307183042169,-0.03642055578529835,-35.362801250000004,149.1657695,254958.5,-416.5,-337.5,17.0,123.5,-14.0,-1022.5,-54.0,4.5,-32.5
23:06:10,248701.0,RTL,0.005933628650382161,0.1892293617129326,1.2429646849632263,0.002318060025572777,-0.012732415925711393,-0.03786413185298443,-35.36288365,149.16567995000003,254887.5,-484.5,-455.5,-5.5,150.0,-9.0,-994.0,6.0,-8.5,-34.0
23:06:12,75622.0,RTL,-0.011618003249168396,0.16543497890233994,1.1690369248390198,0.08606621995568275,0.013664502650499344,-0.028654873371124268,-35.3629719,149.16557675,254969.5,-487.5,-475.5,-0.5,149.0,6.0,-977.0,90.0,17.0,-25.0
23:06:14,75622.0,RTL,-0.020537490025162697,0.15872252732515335,1.1111329793930054,-0.034247709438204765,-0.02829395467415452,-0.027560604736208916,-35.36306075,149.16547194999998,254932.0,-500.0,-479.0,0.0,141.5,36.0,-982.0,-29.5,-23.5,-24.0
23:06:16,75622.0,RTL,-0.053352003917098045,0.07067215070128441,1.0703733563423157,0.09581836313009262,-0.04166390048339963,-0.022238405188545585,-35.3631473,149.1653709,255037.5,-446.0,-423.0,-4.5,139.0,35.0,-983.5,99.0,-37.5,-18.0
23:06:17,53811.0,RTL,-0.06030446756631136,0.013311601476743817,1.053241342306137,0.23382438346743584,-0.05562554486095905,-0.014778944663703442,-35.363192624999996,149.1653183,255031.25,-357.75,-343.5,2.5,120.5,31.0,-998.75,237.25,-51.25,-11.5
23:06:18,53811.0,RTL,-0.07840598374605179,-0.02226525265723467,1.0454034805297852,-0.8201763927936554,-0.035616240464150906,-0.03799506276845932,-35.36321515,149.16529225,255006.5,-291.5,-285.5,3.5,97.5,-11.0,-996.0,-816.0,-31.0,-34.5
23:06:20,53811.0,RTL,-0.057214152067899704,-0.06263255700469017,1.0218086242675781,-0.5473886281251907,-0.027508892118930817,-0.012634123209863901,-35.36325325,149.16524755,254943.0,-122.5,-133.0,0.5,43.0,3.5,-1006.0,-542.5,-23.0,-9.0
23:06:22,39670.0,RTL,-0.02185890916734934,-0.032912930473685265,1.0042235851287842,-0.16166692227125168,0.013884434010833502,0.0011804495006799698,-35.363264799999996,149.16523355,254925.5,-13.5,-25.0,0.0,5.0,9.5,-998.5,-157.0,18.0,4.0
23:06:24,39670.0,RTL,-0.004810487735085189,0.013170652091503143,0.9902812838554382,0.13976190984249115,-0.00414767861366272,0.0007368663791567087,-35.363265150000004,149.16523360000002,254944.0,2.0,0.0,-1.0,0.5,12.5,-1004.5,144.0,0.5,3.5
23:06:26,29674.0,RTL,-0.02533547766506672,0.00174789282027632,0.9766438901424408,0.2925852369517088,0.0015694040339440107,0.006156771793030202,-35.3632667,149.1652368,254948.5,23.5,-8.0,0.0,-0.5,-6.0,-1000.0,295.0,5.0,9.5
23:06:28,19678.0,RTL,-0.02258507627993822,0.0036104265600442886,0.9679825901985168,-0.4445062354207039,-0.001434163423255086,0.0015420562122017145,-35.363265999999996,149.1652387,254956.5,32.5,-18.0,0.0,-1.5,-29.0,-993.5,-442.5,3.0,5.0
23:06:30,19678.0,RTL,-0.005262179533019662,0.002156785747501999,0.959872841835022,-0.25008809193968773,-0.004178115865215659,6.409711204469204e-05,-35.3632645,149.1652389,254616.0,24.5,-18.0,65.5,-3.0,-43.0,-980.0,-250.0,0.5,4.0
23:06:31,6165.0,RTL,-0.004883473739027977,0.002974290866404772,0.9562728852033615,1.0699067786335945,0.004151350120082498,-0.006928469869308174,-35.363263825,149.1652386,253364.75,16.25,-11.75,111.0,2.75,73.0,-1031.75,1072.75,8.25,-2.5
23:06:32,6165.0,RTL,-0.03796065412461758,0.0025947379181161523,0.9542322158813477,0.32677776645869017,-0.0008886940777301788,0.0014910288155078888,-35.36326445,149.16523915,252520.0,15.5,-10.5,104.5,2.5,53.0,-989.0,330.0,3.5,5.5
23:06:34,6165.0,RTL,-0.041554633527994156,-0.0013554424804169685,0.9469447731971741,-0.7270920872688293,0.001697286730632186,-0.007168384385295212,-35.36326525,149.1652401,250438.5,31.5,-25.0,98.0,-3.5,6.5,-974.5,-724.0,5.5,-3.0
23:06:36,54373.0,RTL,0.03427733946591616,-0.0007384172349702567,0.9414585530757904,1.4916030764579773,-0.0011093602515757084,-0.0009792393539100885,-35.36326215,149.16523755,248380.0,9.5,-8.5,97.0,-0.5,53.0,-1024.0,1491.5,3.0,2.5
23:06:38,54373.0,RTL,-0.02526833675801754,0.0004583984482451342,0.9378409683704376,0.3348061323631555,-0.0014342311769723892,-0.00862146494910121,-35.363262950000006,149.16523815,246354.0,3.5,-2.5,96.0,-2.0,48.0,-1047.5,337.0,3.0,-4.0
23:06:40,54373.0,RTL,-0.023420867510139942,0.00045062519347993657,0.9326434433460236,-1.324257105588913,0.007231760770082474,0.001351935788989067,-35.36326255,149.16523795,244299.5,6.5,-6.5,98.0,-4.5,-40.5,-976.0,-1323.0,11.5,5.0
23:06:41,25449.0,RTL,0.007681884104385972,-0.0007269909983733669,0.9298192709684372,-0.6814957894384861,-0.006791093852370977,0.0012810458429157734,-35.363261925,149.165237425,243018.75,1.25,-3.0,94.75,-2.5,-54.25,-1008.25,-682.5,-1.5,5.25
23:06:42,25449.0,RTL,0.015387848485261202,-0.0021718813804909587,0.927470326423645,-1.1600935459136963,0.002181391231715679,-0.005527716828510165,-35.3632612,149.16523669999998,242254.0,-1.5,-1.0,98.5,-1.5,-69.5,-950.0,-1161.0,6.5,-1.5
23:06:44,25449.0,RTL,0.0605744943022728,-0.0024199601029977202,0.926591545343399,0.7633556425571442,0.005642354488372803,0.0009387051686644554,-35.3632586,149.16523415,240240.5,-26.5,20.0,99.0,0.5,7.0,-970.5,762.0,10.0,4.5
23:06:46,105499.0,RTL,-0.023442949168384075,0.0045666254591196775,0.9234738051891327,-1.4760446548461914,0.005210526520386338,-0.01338162925094366,-35.3632611,149.16523625,238197.5,-20.0,20.0,100.0,8.0,-82.5,-977.5,-1475.0,9.5,-9.0
23:06:48,105499.0,RTL,-0.06511406973004341,0.0080984216183424,0.9202577173709869,1.467471718788147,-0.0007935869507491589,-0.0036200458416715264,-35.363267199999996,149.16524205000002,236219.5,27.5,-17.0,104.5,6.5,56.0,-996.5,1468.0,3.0,0.5
23:06:50,105499.0,RTL,-0.08663235232234001,0.0005730932753067464,0.9192635715007782,-0.8805368691682816,-0.006300144363194704,-0.004103211802430451,-35.3632698,149.16524455,234204.0,69.5,-55.0,107.5,-2.0,-8.0,-1034.5,-880.5,-1.0,-0.5
23:06:51,70716.0,RTL,-0.03228214645059779,-0.004696552408859134,0.9175882637500763,-0.9253741428256035,-0.0003523218911141157,0.00917250569909811,-35.3632679,149.16524272499998,232922.0,67.75,-55.5,106.5,-5.75,-58.0,-984.5,-928.75,4.25,13.25
23:06:52,70716.0,RTL,0.004150482127442956,-0.0062755506951361895,0.9169056117534637,-0.4179559499025345,-0.00013849930837750435,0.004119964316487312,-35.3632659,149.1652408,232144.5,54.5,-44.5,104.5,-5.5,-45.0,-999.5,-421.5,4.5,7.5
23:06:54,70716.0,RTL,0.03531535342335701,-0.008655739948153496,0.9152894020080566,1.5327367782592773,0.0017514906357973814,-0.0009768488816916943,-35.3632621,149.16523695,230058.5,12.0,-8.0,104.5,-7.0,78.0,-1006.5,1530.5,6.0,2.5
23:06:56,51125.0,RTL,0.04254500816265742,-0.006622469363113244,0.9139555295308431,-1.1844508647918701,0.011862724088132381,-0.005213541444391012,-35.36325883333333,149.16523376666666,228142.66666666666,-20.0,19.666666666666668,101.33333333333333,-6.333333333333333,-47.666666666666664,-951.6666666666666,-1186.3333333333333,16.0,-1.3333333333333333
23:06:58,31534.0,RTL,0.05468130670487881,-0.0002822506139636971,0.9144258797168732,1.4628469347953796,0.007912121713161469,-0.000892327050678432,-35.36325765,149.1652328,226003.0,-45.0,41.0,104.5,2.5,49.5,-971.0,1462.0,12.0,2.5
23:07:00,31534.0,RTL,-0.012315498820195595,0.0070119745408495264,0.9139214555422465,1.1676943898200989,0.003677365370094776,0.014184822405998906,-35.36326123333333,149.1652365333333,223957.66666666666,-23.666666666666668,23.333333333333332,104.66666666666667,6.0,52.0,-997.3333333333334,1167.6666666666667,8.0,17.666666666666668
23:07:01,947.0,RTL,-0.05645286043485006,0.005023916872839133,0.9126835266749064,-0.958742082118988,-0.003862501122057438,0.0033780092683931193,-35.363263933333336,149.16523916666668,222650.0,0.6666666666666666,0.6666666666666666,98.33333333333333,2.0,-12.666666666666666,-1001.6666666666666,-957.6666666666666,0.6666666666666666,6.666666666666667
23:07:02,947.0,RTL,-0.05767722552021345,0.0029160119981194534,0.9110649029413859,-0.9664684931437174,-0.003915034079303344,0.001104947878047824,-35.36326476666667,149.16524,221894.33333333334,14.0,-12.0,96.33333333333333,-0.6666666666666666,-15.666666666666666,-995.3333333333334,-965.3333333333334,0.3333333333333333,4.333333333333333
23:07:04,947.0,RTL,-0.026110853378971417,0.00016865501917588213,0.911568264166514,-1.3589377005894978,-0.0013520028442144394,-0.0033330577425658703,-35.36326403333333,149.16523933333332,219851.0,19.333333333333332,-16.666666666666668,97.33333333333333,0.3333333333333333,-49.333333333333336,-978.0,-1359.3333333333333,2.6666666666666665,1.0
23:07:06,130633.0,RTL,0.00307274516671896,-0.0010052222351077944,0.9099766214688619,1.4450347026189168,-0.0035248699132353067,-0.0016800941278537114,-35.363264333333326,149.1652393,217830.66666666666,20.666666666666668,-15.0,97.33333333333333,1.3333333333333333,57.333333333333336,-1038.6666666666667,1443.6666666666667,0.6666666666666666,2.3333333333333335
23:07:08,130633.0,RTL,-0.006343256876183053,-0.004037001170217991,0.9098116358121237,1.1507205565770466,0.0038828326699634395,-0.003913880558684468,-35.36326423333333,149.165239,215824.33333333334,22.0,-15.333333333333334,104.33333333333333,-4.0,84.33333333333333,-1010.6666666666666,1149.6666666666667,8.0,0.0
23:07:10,130633.0,RTL,0.011064431009193262,-0.00379270330692331,0.9094825983047485,-1.4254393974939983,0.0009492631070315838,-0.0011250075573722522,-35.363261333333334,149.16523636666668,213771.33333333334,2.3333333333333335,0.3333333333333333,103.33333333333333,-1.6666666666666667,-65.33333333333333,-952.6666666666666,-1427.3333333333333,5.0,3.0
23:07:11,28140.0,RTL,0.02303258640070756,-0.0010817709068457286,0.9087568918863932,0.08421497046947479,0.0013934702922900517,-0.018191189505159855,-35.363261099999995,149.1652361333333,212488.33333333334,-6.333333333333333,9.0,100.66666666666667,1.3333333333333333,-40.333333333333336,-971.3333333333334,80.0,5.666666666666667,-13.666666666666666
23:07:12,28140.0,RTL,0.01324118518580993,0.0009227459862207373,0.9092563589413961,0.8456989725430807,-0.0010491867239276569,0.0029525693195561566,-35.3632618,149.16523686666667,211708.66666666666,-6.333333333333333,9.333333333333334,102.66666666666667,2.0,-3.0,-1006.6666666666666,842.0,3.3333333333333335,6.333333333333333
23:07:14,28140.0,RTL,-0.010290440870448947,0.00016718644959231219,0.9084420204162598,1.106675664583842,-0.0010116652896006901,-0.0014298026605198781,-35.36326303333333,149.1652381,209654.66666666666,3.6666666666666665,-1.0,96.33333333333333,-1.0,74.0,-1024.6666666666667,1105.6666666666667,3.3333333333333335,2.0
23:07:16,75157.0,RTL,0.018814168870449066,-0.0037295589378724494,0.9072818160057068,-0.8422540922959646,-0.005673446537305911,-0.0022077028018732867,-35.363261599999994,149.1652367,207589.0,0.3333333333333333,0.3333333333333333,101.0,-1.0,-62.0,-1000.3333333333334,-845.3333333333334,-1.0,1.6666666666666667
23:07:18,75157.0,RTL,0.03083408810198307,-0.0019540119295318923,0.9076866110165914,-0.005169224459677935,-0.0029514549920956292,0.0014894922108699877,-35.36326053333334,149.1652356,205564.0,-12.333333333333334,12.666666666666666,99.0,0.3333333333333333,-40.666666666666664,-974.0,-8.666666666666666,2.0,5.333333333333333
23:07:20,75157.0,RTL,0.03637997495631377,-0.0010689430637285113,0.9075764417648315,1.4809327125549316,0.0014064422187705834,0.008488099866857132,-35.363260233333335,149.16523533333336,203518.33333333334,-20.666666666666668,18.666666666666668,100.33333333333333,-0.6666666666666666,61.333333333333336,-958.6666666666666,1479.3333333333333,5.333333333333333,12.0
23:07:21,99523.0,RTL,0.007231881997237603,-0.002790947134296099,0.9070313771565756,-1.1432908773422241,0.0026844188881417117,-0.0018875808455049992,-35.36325983333333,149.1652349666667,202257.0,-20.333333333333332,17.333333333333332,96.0,-3.3333333333333335,-26.333333333333332,-972.3333333333334,-1143.0,6.666666666666667,2.0
23:07:22,99523.0,RTL,0.024693725630640984,-0.0022846702486276627,0.9076336224873861,-1.427711288134257,-0.005510592445110281,-0.001455294123540322,-35.363259033333335,149.16523429999998,201506.0,-25.666666666666668,21.333333333333332,99.66666666666667,-2.3333333333333335,-57.333333333333336,-1017.6666666666666,-1428.0,-1.3333333333333333,2.6666666666666665
23:07:24,99523.0,RTL,0.017083406758805115,0.00193176146907111,0.9083326657613119,-0.7257843812306722,0.004667435151835282,-0.010430496341238419,-35.363259533333334,149.16523473333334,199471.33333333334,-30.0,27.0,102.33333333333333,5.0,-77.66666666666667,-954.6666666666666,-727.0,8.666666666666666,-5.666666666666667
23:07:26,99523.0,RTL,-0.02093380969017744,0.004644188253829877,0.907863974571228,0.08476923902829488,0.00026991621901591617,0.005519901867955923,-35.3632634,149.1652385,197442.33333333334,-3.0,5.333333333333333,104.0,5.333333333333333,-41.666666666666664,-946.3333333333334,83.0,4.0,9.0
23:07:27,122536.0,RTL,-0.012040039834876856,0.0011351539675767224,0.9078414440155029,1.3731577396392822,0.0035176215848575034,-0.002565705062200626,-35.36326483333334,149.1652399,196152.66666666666,17.666666666666668,-13.333333333333334,97.0,0.3333333333333333,50.666666666666664,-1025.0,1372.6666666666667,7.333333333333333,1.3333333333333333
23:07:28,122536.0,RTL,-0.006106466210136811,3.454896796029061e-05,0.906744639078776,1.4826853275299072,-0.0007585746546586355,-0.002028742106631398,-35.36326486666667,149.1652399,195401.0,21.333333333333332,-17.0,101.66666666666667,-0.3333333333333333,66.66666666666667,-1011.6666666666666,1482.6666666666667,3.3333333333333335,1.6666666666666667
23:07:30,122536.0,RTL,0.00654449372086674,-0.007353071744243304,0.9060093959172567,0.40704532464345294,-0.003390291162456075,-0.002614729106426239,-35.36326283333333,149.16523776666668,193365.33333333334,11.666666666666666,-10.333333333333334,102.33333333333333,-7.666666666666667,61.0,-1007.0,408.0,0.6666666666666666,1.3333333333333333
23:07:32,16661.0,RTL,0.07523007939259212,-0.005236941544959943,0.9083590110143026,0.8367384672164917,0.007518839401503404,0.0039057559333741665,-35.363258666666674,149.16523356666664,191330.0,-23.333333333333332,22.666666666666668,97.33333333333333,2.0,2.6666666666666665,-1027.3333333333333,835.3333333333334,11.333333333333334,7.333333333333333
23:07:34,16661.0,RTL,0.010159334478278955,0.0012529950278500717,0.907876988252004,1.44372562567393,-0.0019440169756611188,0.005371600777531664,-35.363261,149.16523586666668,189262.33333333334,-23.0,25.0,99.33333333333333,3.0,52.666666666666664,-1001.6666666666666,1444.0,1.6666666666666667,8.666666666666666
23:07:36,16661.0,RTL,0.010521219422419867,-0.0018415250815451145,0.9067075451215109,-0.29115059475104016,-0.0026442527305334806,0.013064670686920484,-35.36326106666667,149.16523626666665,187207.33333333334,-11.0,9.0,101.33333333333333,-4.333333333333333,35.333333333333336,-952.3333333333334,-287.6666666666667,1.3333333333333333,16.666666666666668
23:07:37,175223.0,RTL,0.044923161466916404,-0.005658039823174477,0.9058434367179871,-1.2998666763305664,-0.003426299119989077,0.009356807063644132,-35.3632589,149.1652342,185943.33333333334,-21.0,15.0,101.0,-5.0,-66.33333333333333,-975.0,-1298.6666666666667,1.0,12.666666666666666
23:07:38,175223.0,RTL,0.05346121142307917,-0.00544958949709932,0.9067804416020712,-1.377809762954712,-0.004975934745743871,0.0018822699785232544,-35.36325746666667,149.1652328,185197.66666666666,-36.0,28.0,103.33333333333333,-2.6666666666666665,-49.666666666666664,-1002.6666666666666,-1375.6666666666667,-1.0,5.333333333333333
23:07:40,175223.0,RTL,0.04516181473930677,-0.0029279973823577166,0.9078628619511923,-1.0877972443898518,0.0021786512807011604,-0.0007181550996998946,-35.36325673333334,149.16523183333334,183181.66666666666,-53.333333333333336,46.333333333333336,106.33333333333333,1.0,-78.66666666666667,-979.0,-1085.3333333333333,6.0,3.3333333333333335
23:07:42,16042.0,RTL,0.0021268504982193313,0.004069201027353604,0.9083427588144938,0.6156661827117205,0.0038918600572894015,0.0022190206994613013,-35.3632595,149.1652346,181118.0,-42.333333333333336,39.0,103.33333333333333,5.0,52.333333333333336,-980.6666666666666,621.0,7.666666666666667,5.333333333333333
23:07:44,16042.0,RTL,-0.048002333690722786,0.004255644511431456,0.9079141020774841,-1.5063021580378215,0.0027051138070722422,-0.006828582690407832,-35.36326353333333,149.1652385333333,179074.66666666666,-0.6666666666666666,3.3333333333333335,103.33333333333333,3.3333333333333335,-70.33333333333333,-985.6666666666666,-1502.3333333333333,6.666666666666667,-3.3333333333333335
23:07:46,16042.0,RTL,-0.026491614058613777,0.0023093430791050196,0.9081284999847412,0.5747784773508707,0.000653440443178018,-0.0007041419545809428,-35.36326583333334,149.16524076666667,177012.0,27.666666666666668,-20.0,104.33333333333333,2.6666666666666665,-19.666666666666668,-1028.6666666666667,576.3333333333334,4.333333333333333,2.3333333333333335
23:07:47,16262.0,RTL,-0.05516523867845535,0.003909188865994413,0.9082062045733134,0.1135168777157863,0.000533749737466375,0.003862594487145543,-35.3632668,149.16524176666667,175747.33333333334,39.666666666666664,-28.666666666666668,100.66666666666667,4.333333333333333,36.666666666666664,-1001.3333333333334,118.0,4.333333333333333,7.0
23:07:48,16262.0,RTL,-0.08805057406425476,0.004735201441993316,0.9091899792353312,-1.3539608319600422,0.003741856043537458,-0.0018888597842305899,-35.363267900000004,149.16524283333334,174997.33333333334,47.666666666666664,-34.666666666666664,100.66666666666667,4.333333333333333,-48.0,-999.6666666666666,-1350.6666666666667,7.666666666666667,1.3333333333333333
23:07:50,16262.0,RTL,-0.08803255359331767,0.0017380914650857449,0.9074511329332987,-0.19822229941685995,-0.0032361509123196206,-0.00032145452375213307,-35.36327163333333,149.16524636666668,172975.33333333334,87.0,-68.0,102.0,0.3333333333333333,-48.666666666666664,-986.3333333333334,-200.0,0.6666666666666666,3.0
23:07:52,18932.0,RTL,-0.03710956126451492,-0.0053619394699732465,0.9078105290730795,1.4350087642669678,0.0012765767363210518,0.0028258093322316804,-35.36327,149.16524470000002,170924.0,88.33333333333333,-70.66666666666667,103.33333333333333,-5.0,74.66666666666667,-993.3333333333334,1434.0,5.0,6.0
23:07:54,21602.0,RTL,-0.02237537984425823,-0.011032784978548685,0.9069454868634542,-1.4660591681798298,0.0006342426252861818,0.007425599421064059,-35.363265766666665,149.16524036666667,168844.66666666666,56.0,-43.333333333333336,101.0,-9.666666666666666,-40.333333333333336,-988.6666666666666,-1468.6666666666667,4.0,11.0
23:07:56,21602.0,RTL,0.05360188086827596,-0.00958920456469059,0.9091209570566813,1.196530858675639,0.0031159589998424053,-0.003979645514239867,-35.3632603,149.1652349,166773.66666666666,1.3333333333333333,4.666666666666667,99.0,-3.6666666666666665,58.666666666666664,-991.0,1193.3333333333333,6.333333333333333,-0.3333333333333333
23:07:57,11264.0,RTL,-0.005527652877693375,-0.0034124390998234353,0.9102421800295512,-1.2079564134279888,0.006009687591965,-0.00782807543873787,-35.3632601,149.1652346333333,165515.33333333334,-13.666666666666666,20.666666666666668,97.33333333333333,2.0,-32.333333333333336,-1010.3333333333334,-1209.0,9.666666666666666,-4.0
23:07:58,11264.0,RTL,-0.02557214784125487,0.0005839282821398228,0.9102518359820048,-1.0472351710001628,0.005603550622860591,-0.00790566042996943,-35.36326106666667,149.16523573333333,164775.33333333334,-12.666666666666666,20.0,101.66666666666667,2.6666666666666665,-19.666666666666668,-969.3333333333334,-1048.0,9.0,-4.333333333333333
23:08:00,11264.0,RTL,-0.03349455508093039,0.00048602403451999027,0.9091129501660665,-1.4142423073450725,-0.00519661574314038,0.004080469176794092,-35.3632633,149.1652384,162737.33333333334,7.666666666666667,-3.6666666666666665,100.0,-1.0,-49.0,-1009.0,-1416.3333333333333,-1.0,7.333333333333333
23:08:02,65324.0,RTL,0.036104682832956314,-0.004119514022022486,0.908297081788381,0.9156158814827601,-0.002797327935695648,0.0028645081911236048,-35.363261599999994,149.16523686666665,160675.0,-1.0,0.0,100.0,-2.0,14.0,-1036.0,911.3333333333334,0.6666666666666666,6.0
23:08:04,65324.0,RTL,0.039901373287041984,-0.008743643760681152,0.9081609646479288,0.009650145967801413,0.00033430273955066997,0.0024348193934808173,-35.363258833333326,149.1652339,158637.0,-24.0,18.666666666666668,100.66666666666667,-5.666666666666667,51.333333333333336,-1023.6666666666666,9.666666666666666,3.6666666666666665,5.666666666666667
23:08:06,62630.0,RTL,0.06905089815457661,-0.007719109300523996,0.9091958204905192,-1.4349931875864665,-0.0024985178218533597,-0.006946304502586524,-35.363255,149.16522983333334,156623.0,-61.333333333333336,54.333333333333336,101.33333333333333,-0.3333333333333333,-65.0,-961.3333333333334,-1435.3333333333333,1.3333333333333333,-3.3333333333333335
23:08:08,59936.0,RTL,0.07332289963960648,0.00029787163172538084,0.9106931686401367,-0.04887162148952484,0.004521512232410411,-0.001448958336065213,-35.363255366666664,149.1652305,154614.0,-70.33333333333333,63.0,103.33333333333333,2.0,-45.333333333333336,-988.3333333333334,-49.333333333333336,7.666666666666667,1.6666666666666667
23:08:10,59936.0,RTL,0.05151779825488726,0.0047567916723589105,0.9095074137051901,0.8689735134442648,-0.002868539265667399,-0.00021854679410656294,-35.36325753333333,149.16523306666667,152531.66666666666,-57.333333333333336,48.333333333333336,104.0,2.0,-0.6666666666666666,-968.6666666666666,869.3333333333334,0.6666666666666666,3.0
23:08:11,46901.0,RTL,0.021011605858802795,0.00349637547818323,0.9109337131182352,1.0446111758550007,0.0012382222339510918,-0.00178193145742019,-35.363258800000004,149.16523443333335,151126.66666666666,-46.666666666666664,36.333333333333336,100.0,0.3333333333333333,70.33333333333333,-999.6666666666666,1049.0,4.666666666666667,1.6666666666666667
23:08:12,46901.0,RTL,0.011755881831049919,0.0028711026534438133,0.9100683927536011,0.2041850487391154,0.0006417477658639351,0.00319008924998343,-35.36325933333333,149.16523493333332,150361.66666666666,-39.333333333333336,29.666666666666668,99.0,1.6666666666666667,45.0,-986.6666666666666,209.66666666666666,3.6666666666666665,6.333333333333333
23:08:14,46901.0,RTL,0.026553984731435776,-0.00012505540992909422,0.9089624087015787,-0.639064610004425,-0.004720919726726909,-0.004857378080487251,-35.36325996666667,149.16523546666667,148410.66666666666,-25.666666666666668,18.0,98.0,0.0,-65.33333333333333,-1005.6666666666666,-636.3333333333334,-1.3333333333333333,-1.0
23:08:16,174410.0,RTL,0.02637646161019802,-0.0008079605856134245,0.9093566735585531,0.23867916812499365,-0.002571505649636189,-0.0015540605721374352,-35.363260266666664,149.1652356,146252.66666666666,-24.0,18.333333333333332,93.0,0.0,-27.0,-985.6666666666666,241.66666666666666,1.0,1.6666666666666667
23:08:18,174410.0,RTL,0.038185302168130875,-0.0005487269736477174,0.9100830753644308,0.7397405902544657,0.004180034079278509,-0.0005865415247778097,-35.363260233333335,149.16523533333336,144238.66666666666,-21.0,18.666666666666668,97.66666666666667,1.6666666666666667,-0.3333333333333333,-1019.0,743.0,7.333333333333333,2.6666666666666665
23:08:20,174410.0,RTL,0.0032039633952081203,0.0030532112965981164,0.9093489050865173,1.199734091758728,-0.0004526748477170865,0.0006876017432659864,-35.3632617,149.16523686666667,142215.33333333334,-13.333333333333334,13.0,98.0,2.0,69.33333333333333,-1008.3333333333334,1206.0,2.3333333333333335,3.6666666666666665
23:08:21,56120.0,RTL,-0.02948558113227288,-0.0007920034210352848,0.9098779360453287,-1.0473087628682454,-0.003271206747740507,0.004911667046447595,-35.36326256666666,149.1652377,140945.66666666666,-1.3333333333333333,1.0,96.66666666666667,-2.3333333333333335,-25.666666666666668,-1023.0,-1040.6666666666667,0.3333333333333333,8.0
23:08:22,56120.0,RTL,-0.008246205747127533,-0.001194626073508213,0.9102848569552103,-0.5962551434834799,0.0015255364899833996,0.001365628947193424,-35.3632622,149.16523736666667,140191.33333333334,-0.3333333333333333,0.0,102.66666666666667,-1.3333333333333333,10.666666666666666,-980.3333333333334,-588.3333333333334,5.0,4.666666666666667
23:08:24,56120.0,RTL,-0.015453441068530083,-0.0008299744222313166,0.9103954633076986,-0.3870885297656059,0.0012325434945523739,-0.00028943402382234734,-35.363261933333334,149.16523703333334,138153.66666666666,-5.0,5.666666666666667,102.33333333333333,1.0,23.0,-1009.6666666666666,-378.6666666666667,4.333333333333333,3.3333333333333335
23:08:26,220732.0,RTL,0.012313281030704578,-0.0015033268524954717,0.9100841283798218,1.1857788562774658,0.0021806897905965648,-0.001696410666530331,-35.3632631,149.1652379,136088.0,5.333333333333333,-0.6666666666666666,99.0,0.0,19.666666666666668,-974.3333333333334,1190.6666666666667,5.333333333333333,1.3333333333333333
23:08:28,220732.0,RTL,-0.0006726836630453666,-0.0005409786147841563,0.9092029929161072,1.3029773632685344,0.002324489178135991,-0.005690503865480423,-35.36326333333333,149.16523813333333,134070.0,7.666666666666667,-2.3333333333333335,101.66666666666667,0.6666666666666666,67.0,-1015.3333333333334,1309.3333333333333,5.0,-2.3333333333333335
23:08:30,220732.0,RTL,-0.03397578342507283,0.0008177397103281692,0.909839908281962,-0.17510345578193665,0.0040393846575170755,-0.0027528388115266957,-35.3632641,149.1652391,132010.33333333334,15.333333333333334,-8.666666666666666,101.33333333333333,-0.25,36.0,-985.0,114.25,4.75,4.75
23:08:31,180463.0,RTL,-0.001077844489676257,-0.0007081156654749066,0.9095725615819296,0.7994065384070078,-0.005637855579455693,-0.007849472730110088,-35.36326436666666,149.16523936666667,130738.66666666667,20.666666666666668,-14.666666666666666,101.66666666666667,-1.0,18.0,-997.3333333333334,802.6666666666666,-1.6666666666666667,-4.666666666666667
23:08:32,180463.0,RTL,0.010798666160553694,-0.0037930183267841735,0.9090193311373392,0.9040999809900919,-0.007379444316029549,-0.005700656833748023,-35.3632639,149.16523886666667,129990.66666666667,20.333333333333332,-15.333333333333334,101.66666666666667,-1.3333333333333333,11.666666666666666,-955.3333333333334,907.3333333333334,-3.3333333333333335,-2.3333333333333335
23:08:34,180463.0,RTL,0.039504176626602806,-0.006019471989323695,0.9097619454065958,1.1281585693359375,-0.0007427885041882595,0.0007723739060262839,-35.363261466666664,149.16523636666668,127957.33333333333,1.0,1.3333333333333333,104.66666666666667,-1.6666666666666667,38.0,-994.3333333333334,1132.0,2.0,3.3333333333333335
23:08:36,31916.0,RTL,-0.0047970181331038475,-0.0004457523367212464,0.9099814494450887,-0.3830631872018178,0.012483575381338596,-0.027897126351793606,-35.363260700000005,149.16523553333334,125886.33333333333,-15.0,18.333333333333332,101.0,2.3333333333333335,17.666666666666668,-1032.0,-376.0,15.333333333333334,-24.333333333333332
23:08:38,31916.0,RTL,-0.0036556130119909844,0.0014944411426161726,0.9108566045761108,0.5525940259297689,5.975745928784212e-05,-0.0035546330424646535,-35.363263133333334,149.16523803333334,123826.66666666667,3.0,2.0,98.0,1.6666666666666667,-23.0,-979.6666666666666,555.3333333333334,3.3333333333333335,-1.0
23:08:40,31916.0,RTL,-0.01631179607162873,0.0009550358518026769,0.9101143081982931,1.168738345305125,-0.0006740891064206759,0.0007775572594255209,-35.36326513333333,149.16524,121784.33333333333,24.333333333333332,-15.333333333333334,97.33333333333333,1.6666666666666667,29.0,-1018.0,1172.0,1.6666666666666667,3.0
23:08:41,44466.0,RTL,-0.04700943579276403,0.0012225769751239568,0.9093623558680216,0.4914896587530772,0.0018854415975511074,0.0041959467343986034,-35.3632661,149.165241,120501.0,31.666666666666668,-22.0,97.66666666666667,0.6666666666666666,48.333333333333336,-1008.0,497.0,4.333333333333333,6.333333333333333
23:08:42,44466.0,RTL,-0.05488105614980062,-0.0016223437851294875,0.9091164072354635,-0.3121841847896576,-0.004227087522546451,0.00599012275536855,-35.3632664,149.1652412,119731.33333333333,37.666666666666664,-27.666666666666668,99.33333333333333,-1.6666666666666667,21.333333333333332,-1052.6666666666667,-307.0,-1.3333333333333333,8.333333333333334
23:08:44,44466.0,RTL,-0.003358613234013319,-0.0070419626620908575,0.9093217452367147,-0.06475977102915446,0.00449441388870279,-0.0011817030608654022,-35.3632639,149.1652387,117702.33333333333,28.0,-21.0,98.0,-6.0,43.666666666666664,-996.0,-59.333333333333336,7.0,2.0
23:08:46,165488.0,RTL,0.05606551095843315,-0.006986844042936961,0.9103617668151855,1.1976512670516968,-0.0010462063364684582,0.0012941813717285793,-35.36326043333333,149.16523526666666,115669.66666666667,-5.666666666666667,7.666666666666667,96.66666666666667,-2.3333333333333335,40.666666666666664,-1065.0,1200.0,2.0,4.0
23:08:48,165488.0,RTL,0.02374277077615261,-0.0015757816460488054,0.9110022385915121,0.4221107214689255,0.00735305086709559,-0.0026335055784632764,-35.36325883333333,149.16523383333333,113664.66666666667,-31.666666666666668,31.0,101.33333333333333,1.3333333333333333,61.666666666666664,-990.3333333333334,427.6666666666667,10.333333333333334,0.3333333333333333
23:08:50,165488.0,RTL,-0.019116688054054976,0.0028765659080818295,0.9111709296703339,-1.056892141699791,-0.00028295718948356807,0.0006822676514275372,-35.363260525,149.1652358,111739.0,-22.75,21.75,103.75,1.5,-18.5,-985.5,-1050.75,2.5,3.25
23:08:51,52210.0,RTL,0.017994846527775128,0.0015106222126632929,0.910881757736206,1.003168523311615,-0.0011853699882825215,-0.003095824271440506,-35.3632615,149.1652369,110296.33333333333,-10.666666666666666,9.0,99.33333333333333,0.6666666666666666,13.666666666666666,-1001.6666666666666,1006.3333333333334,1.6666666666666667,-1.0
23:08:52,52210.0,RTL,0.023426441475749016,0.001431101195824643,0.911390999952952,1.021887977917989,1.0611722245812416e-05,0.009298579767346382,-35.3632616,149.16523706666666,109544.33333333333,-6.333333333333333,5.0,96.66666666666667,-0.6666666666666666,14.333333333333334,-1002.3333333333334,1025.0,2.6666666666666665,11.666666666666666
