time_stamp,roll,pitch,yaw,rollspeed,pitchspeed,yawspeed,lat,lon,relative_alt,vx,vy,vz,xacc,yacc,zacc,xgyro,ygyro,zgyro,RTL_ALT,MODE
13:30:14,0.00018433619698043913,0.001436324673704803,0.027532280422747135,0.00022679635731037706,0.00032373337307944894,0.002275282982736826,-35.3632622,149.1652375,0.0,-2.0,2.5,2.0,0.0,1.0,-1000.0,0.0,0.0,0.0,1500.0,STABILIZE
13:30:26,-0.0010218796087428927,0.000972180045209825,0.02329471583167712,0.00029421603539958596,0.0002960858594936629,0.0016452445415779948,-35.3632622,149.1652375,7.333333333333333,-1.0,1.0,0.0,0.0,1.3333333333333333,-1000.0,0.3333333333333333,0.3333333333333333,0.3333333333333333,99302.0,AUTO
13:30:28,-0.00046797763206996024,0.0013151244881252448,0.022787853454550106,0.0003159306749391059,0.00030155142303556204,0.0015320696014290054,-35.3632621,149.1652375,3.3333333333333335,0.0,0.0,1.0,0.0,1.3333333333333333,-1000.0,0.3333333333333333,0.6666666666666666,0.0,99302.0,AUTO
13:30:29,-0.00015552769036730751,0.0016869757479677598,0.022393609086672466,0.00032315771871556837,0.00035844527883455157,0.0015212294723217685,-35.3632621,149.1652375,2.0,0.0,0.0,0.0,0.0,1.0,-1000.0,0.0,0.6666666666666666,0.0,10076.0,AUTO
13:30:30,0.003467350577314695,7.862102817549992e-05,0.02221047381560008,0.0036518145352602005,-0.00036594155244529247,0.002213297955070933,-35.3632621,149.1652375,141.33333333333334,0.0,0.3333333333333333,-52.0,0.0,-0.3333333333333333,-1132.0,4.333333333333333,0.3333333333333333,1.0,10076.0,AUTO
13:30:32,0.05506752555569013,-0.006023468216881156,0.0098226231833299,0.002542549123366674,0.019871830940246582,-0.028698898386210203,-35.3632617,149.1652393,2712.3333333333335,6.333333333333333,36.0,-147.33333333333334,1.0,-5.666666666666667,-996.6666666666666,3.3333333333333335,21.0,-29.333333333333332,260421.0,AUTO
13:30:34,-0.07293930898110072,0.003051979544882973,-0.09437865018844604,-0.01142467993001143,0.002906974443855385,-0.03270488294462363,-35.3632607,149.16524633333333,5768.0,0.0,-13.333333333333334,-148.33333333333334,-0.3333333333333333,0.0,-1001.6666666666666,-11.0,3.3333333333333335,-32.666666666666664,260421.0,AUTO
13:30:35,-0.008576535309354464,0.009128701873123646,-0.11288507282733917,0.06812022626399994,0.010578198047975699,-0.0020636377157643437,-35.3632613,149.1652401,7685.333333333333,-13.666666666666666,-61.666666666666664,-150.0,-5.333333333333333,13.0,-1003.0,68.33333333333333,10.666666666666666,-2.0,152185.0,AUTO
13:30:36,0.042648070181409516,0.01469684268037478,-0.11095879226922989,0.06723432242870331,0.002300694352015853,0.0037389254042257867,-35.363262533333334,149.16523543333332,8856.666666666666,-22.666666666666668,-40.333333333333336,-152.66666666666666,-2.0,11.666666666666666,-1003.6666666666666,67.33333333333333,3.0,2.6666666666666665,152185.0,AUTO
13:30:38,-0.02792255176852147,-0.02032660039064164,-0.0714091844856739,-0.05810814971725146,0.08788370589415233,-0.09804087380568187,-35.36326326666667,149.1652374,11942.333333333334,37.666666666666664,24.333333333333332,-149.0,-2.6666666666666665,-9.666666666666666,-1006.3333333333334,-56.666666666666664,88.0,-97.66666666666667,118307.0,AUTO
13:30:40,0.01907344472905,0.029843514785170555,-0.1835665206114451,0.030619618482887745,-0.010967913083732128,0.00037378290047248203,-35.36325936666667,149.16523553333332,15065.333333333334,-7.333333333333333,-13.0,-153.33333333333334,-2.3333333333333335,3.3333333333333335,-999.0,30.666666666666668,-10.0,-0.3333333333333333,118307.0,AUTO
13:30:41,0.009797417869170507,0.00461418426129967,-0.1673633207877477,-0.017910243943333626,-0.011889257157842318,0.00021528186819826564,-35.363260733333334,149.16523523333333,17012.0,-17.0,10.666666666666666,-152.0,3.3333333333333335,0.3333333333333333,-1000.3333333333334,-16.666666666666668,-10.333333333333334,0.3333333333333333,136472.0,AUTO
13:30:42,-0.0005586702997485796,-0.0027907633145029345,-0.17265122632185617,-0.006439025824268659,-0.005455802970876296,-0.016509096138179302,-35.363261599999994,149.16523596666664,18176.666666666668,-12.0,10.666666666666666,-152.0,3.0,0.0,-1001.0,-5.333333333333333,-4.333333333333333,-16.666666666666668,136472.0,AUTO
13:30:44,0.010098603864510855,-0.0073518818244338036,0.049163419753313065,0.14248363176981607,-0.1258036494255066,0.06705944985151291,-35.3632638,149.1652331,21062.0,-29.0,-39.0,-106.0,0.0,11.666666666666666,-947.6666666666666,142.66666666666666,-124.33333333333333,66.66666666666667,252583.0,AUTO
13:30:46,0.01925882666061322,-0.000331913644913584,0.02866667074461778,-0.04161068983376026,0.030480853592356045,0.002691187876431892,-35.363263866666664,149.16523393333333,22402.333333333332,19.333333333333332,40.333333333333336,-36.666666666666664,0.0,-10.0,-978.0,-40.333333333333336,30.666666666666668,2.0,252583.0,AUTO
13:30:47,-0.018628868584831555,0.01927314978092909,0.02511408117910226,-0.06308891267205279,0.02574321082405125,-0.001360074549059694,-35.3632618,149.16523856666666,22677.0,10.0,24.333333333333332,-5.0,1.0,-6.333333333333333,-954.6666666666666,-62.666666666666664,26.0,-1.3333333333333333,90688.0,AUTO
13:30:48,-0.042739285777012505,0.033505748957395554,0.02195740242799123,0.3841586510340373,-0.0018386435500967007,-0.0026478144282009453,-35.3632615,149.16523940000002,22597.666666666668,-6.666666666666667,-3.6666666666666665,19.0,0.3333333333333333,28.0,-987.3333333333334,385.3333333333333,-1.0,-2.3333333333333335,90688.0,AUTO
13:30:50,-0.06328549360235532,0.038416365161538124,-0.36092200378576916,0.07091044386227925,0.008512879333769282,-1.0560920238494873,-35.363268500000004,149.16523346666665,22419.0,-80.66666666666667,-47.666666666666664,-3.0,2.3333333333333335,18.0,-1006.3333333333334,71.33333333333333,9.333333333333334,-1056.0,141515.0,AUTO
13:30:52,0.05416547879576683,-0.17269178852438927,-2.664671540260315,0.004373690113425255,-0.03194564860314131,0.0986110270023346,-35.36329465,149.165216325,22438.25,-230.0,-138.5,-0.75,-52.25,-36.5,-1007.0,5.25,-31.0,98.25,141515.0,AUTO
13:30:53,0.04862529784440994,-0.1933448389172554,-2.57637882232666,-0.043983643874526024,-0.0028597910422831774,-0.018281150609254837,-35.3633265,149.16519275000002,22445.5,-346.5,-214.5,-2.0,-81.5,-50.5,-1005.0,-43.0,-1.0,-18.0,58415.0,AUTO
13:30:54,0.055453481152653694,-0.18881858885288239,-2.583196461200714,0.010203483048826456,0.012307655531913042,-0.0044323496586002875,-35.3633524,149.1651733,22462.25,-411.75,-251.75,-5.0,-91.75,-54.75,-1002.5,10.5,13.25,-4.25,58415.0,AUTO
13:30:56,0.0738514568656683,-0.1494036577641964,-2.586351215839386,0.009772201650775969,0.017778275767341256,-0.0019313055672682822,-35.363437025,149.165110725,22617.0,-509.5,-307.0,-9.75,-115.0,-70.0,-989.5,10.0,18.5,-2.25,130638.0,AUTO
13:30:57,0.0766470730304718,-0.1226600669324398,-2.585973620414734,0.02174906781874597,0.024168393574655056,-0.007577967131510377,-35.363495799999995,149.1650676,22733.5,-524.0,-320.5,-8.0,-117.0,-71.0,-985.5,22.5,24.5,-7.5,130638.0,AUTO
13:30:59,0.0771394819021225,-0.061352191492915154,-2.5870758295059204,-0.004866521805524826,0.047510161995887756,-0.0038853922742418945,-35.3635891,149.1649984,22880.0,-490.5,-300.0,-8.5,-119.5,-71.5,-987.5,-4.0,48.0,-4.0,158944.0,AUTO
13:31:01,0.052146924659609795,0.04611579701304436,-2.5882692337036133,-0.7957674860954285,0.042883701622486115,0.025799398310482502,-35.3636661,149.16494075,22963.0,-336.5,-208.0,0.5,-76.5,-95.5,-998.0,-795.5,43.5,24.5,187250.0,AUTO
13:31:02,0.052312105894088745,0.06342839077115059,-2.588497757911682,0.2827029153704643,0.009560964535921812,-0.012645394424907863,-35.363685974999996,149.16492565,22945.75,-256.75,-161.5,0.75,-60.75,-27.0,-1011.5,283.5,10.75,-12.5,223719.0,AUTO
13:31:05,-0.004459418938495219,0.037593020126223564,-2.5897719860076904,0.06361676752567291,-0.021635735407471657,0.0017539370601298288,-35.363720400000005,149.1648968,22909.5,-24.5,-0.5,-1.5,-5.5,-14.0,-1003.5,63.5,-20.0,1.5,120745.0,AUTO
13:31:07,-0.006236951594473794,-0.00737845036201179,-2.5897395610809326,0.2775509161874652,-0.006141815334558487,-0.003738457686267793,-35.36372095,149.164897,22928.0,-5.5,18.0,-1.0,-0.5,29.0,-1003.0,278.5,-5.0,-3.5,17771.0,AUTO
13:31:08,0.007161173300119117,-0.007265080919751199,-2.59067040681839,-0.02655816823244095,0.018378357402980328,-0.006718558492138982,-35.36372145,149.16489744999998,22934.5,-9.75,10.5,-2.25,-3.0,0.5,-1003.5,-26.5,19.25,-6.5,42915.0,RTL
13:31:09,0.009025064297020435,0.006982896011322737,-2.5932719707489014,-0.14464396983385086,0.003448603907600045,0.002735474263317883,-35.3637226,149.164898,23084.0,-1.0,5.5,-32.0,-2.0,4.0,-1051.0,-144.5,4.5,2.0,42915.0,RTL
13:31:11,0.012675999663770199,0.0036310352152213454,-2.593712091445923,0.0012932985555380583,0.00015668966807425022,0.0026338453171774745,-35.3637232,149.16489905,24737.5,9.5,-1.5,-128.0,0.0,0.5,-1045.0,1.5,1.5,2.0,94327.0,RTL
13:31:13,0.027395789977163076,0.017371372785419226,-2.633580446243286,-0.16021659970283508,0.052828993764705956,-0.08709748461842537,-35.3637218,149.16489539999998,27714.5,28.0,-54.0,-144.5,5.5,-10.0,-995.0,-159.0,53.5,-86.5,145739.0,RTL
13:31:14,-0.05768335051834583,0.006565668896655552,-2.6707355976104736,-0.04396776529029012,-0.02015711786225438,-0.03432060917839408,-35.363720675,149.164892675,28847.5,16.0,-19.5,-147.75,3.5,-4.75,-1006.5,-43.75,-18.0,-33.75,164241.0,RTL
13:31:15,-0.017887567169964314,-0.0027708885027095675,-2.69428288936615,0.061854658648371696,0.003806776483543217,-0.005134193459525704,-35.36372115,149.16489515,30773.5,-12.5,39.0,-149.5,-4.5,9.5,-1001.5,62.0,4.5,-4.0,164241.0,RTL
13:31:17,0.022840031422674656,-0.010792197193950415,-2.674757242202759,-0.018870411440730095,0.01625896245241165,-0.014937683939933777,-35.363722749999994,149.16490215,33895.5,-1.0,-2.0,-150.0,-0.5,1.0,-999.5,-18.0,17.0,-14.0,125309.0,RTL
13:31:19,0.011203990783542395,0.003472471027635038,-2.7203540802001953,0.002986366511322558,0.0012554601416923106,-0.01813350711017847,-35.3637236,149.16490184999998,37002.5,1.0,-8.0,-151.0,0.0,-0.5,-1000.0,3.0,2.0,-17.0,86377.0,RTL
13:31:20,0.011282429564744234,0.0036976892733946443,-2.7348429560661316,0.000612788979196921,-0.0004639698308892548,-0.017819806933403015,-35.3637237,149.164901625,38171.0,4.25,-8.0,-151.0,0.0,0.0,-1000.0,1.5,0.75,-17.0,192944.0,RTL
13:31:21,0.008717109449207783,0.0020500042592175305,-2.7593274116516113,0.00022726910538040102,-0.0018079904257319868,-0.019305537454783916,-35.363723449999995,149.16490105,40119.0,7.0,-8.0,-152.0,0.5,-0.5,-1000.0,1.0,0.0,-18.5,192944.0,RTL
13:31:23,0.007273833034560084,-0.0001723759160086047,-2.8035271167755127,0.0015639173798263073,0.00013655226211994886,-0.023249471560120583,-35.3637228,149.1649004,43238.0,5.0,-6.5,-152.0,0.0,0.0,-999.5,2.0,1.0,-22.5,167002.0,RTL
13:31:25,0.007532068528234959,0.0001470455463277176,-2.849056363105774,0.00018163531785830855,0.00026883563259616494,-0.02095695398747921,-35.36372245,149.1649,46356.5,3.5,-5.5,-152.0,0.0,0.0,-999.5,1.5,1.0,-19.5,141060.0,RTL
13:31:26,0.007808039430528879,0.00015641106983821373,-2.864624321460724,0.0015892323572188616,0.001334893866442144,-0.017420007614418864,-35.363722375,149.16489992500001,47525.5,3.0,-5.0,-152.0,0.0,0.0,-999.5,2.5,2.25,-16.5,163577.0,RTL
13:31:27,0.010923754423856735,0.003584800404496491,-2.8632105588912964,-0.0005216158460825682,0.0007403247291222215,0.023429766297340393,-35.363722249999995,149.16489975000002,49469.0,5.0,-6.5,-152.0,0.0,0.0,-999.5,0.5,2.0,23.5,163577.0,RTL
13:31:29,0.005073826527222991,-0.0012287290301173925,-2.8096253871917725,0.003097741981036961,-0.0003913820255547762,0.024702706374228,-35.36372165,149.1648991,52571.0,4.5,-5.0,-152.0,0.0,0.0,-1000.0,4.0,0.5,25.0,220696.5,RTL
13:31:31,0.006410158239305019,-0.0013131684972904623,-2.770971179008484,-0.0005643392505589873,0.0004061437794007361,0.017450864426791668,-35.3637215,149.1648991,55681.5,0.0,-3.0,-152.0,0.0,0.0,-999.5,0.0,1.5,18.0,277816.0,RTL
13:31:32,0.006587053299881518,-0.001225034153321758,-2.7592851519584656,-0.0006689784640911967,9.509622759651393e-05,0.015936056384816766,-35.36372157499999,149.1648991,56845.25,0.0,-3.0,-152.0,0.0,0.0,-999.75,0.75,1.25,16.25,22533.0,RTL
13:31:33,0.006407036213204265,-0.001273064292035997,-2.7417982816696167,0.000799180765170604,0.0011660079471766949,0.014510059729218483,-35.3637217,149.1648991,58786.0,0.0,-3.0,-152.0,0.0,0.0,-1000.0,2.0,2.0,15.0,22533.0,RTL
13:31:35,0.0071088464464992285,-0.0005742367648053914,-2.7202290296554565,0.0009998618043027818,-8.200644515454769e-06,0.010640199761837721,-35.3637219,149.1648992,61895.0,0.0,-3.0,-152.0,0.0,0.0,-1000.0,2.0,1.0,11.0,76612.5,RTL
13:31:37,0.006926117232069373,-0.00016329468780895695,-2.703917384147644,0.0016993939061649144,0.0009778738021850586,0.009238389320671558,-35.363722,149.1648992,64995.5,1.0,-2.0,-152.0,0.0,0.0,-1000.0,2.5,2.0,10.0,130692.0,RTL
13:31:38,0.006675396463833749,-9.679497179604368e-05,-2.698678135871887,0.00045456207590177655,-0.0003478801518213004,0.008047337410971522,-35.3637221,149.1648992,66165.25,1.75,-2.0,-152.0,0.0,0.0,-1000.0,1.75,1.0,8.75,48977.0,RTL
13:31:39,0.00643842201679945,-0.00021929018112132326,-2.6907331943511963,0.00034835917176678777,0.0008629054646007717,0.006715753814205527,-35.3637221,149.1648992,68109.0,2.0,-2.0,-152.0,0.0,0.0,-1000.0,1.0,2.0,7.0,48977.0,RTL
13:31:41,0.0064488009084016085,-0.0002417741561657749,-2.6793848276138306,0.0003790164482779801,-0.0009382468415424228,0.008317672647535801,-35.3637221,149.1648992,71213.5,2.0,-2.0,-152.0,0.0,0.0,-1000.0,1.5,0.5,9.0,57190.0,RTL
13:31:43,0.006118385121226311,5.144237547938246e-05,-2.669508695602417,0.0011660400195978582,-0.0003241074737161398,0.00669311685487628,-35.3637221,149.1648992,74321.0,2.0,-2.0,-152.0,0.0,0.0,-1000.5,2.0,1.0,7.5,65403.0,RTL
13:31:44,0.005895169102586806,-7.275274037965573e-05,-2.6658066511154175,0.0004829671233892441,-0.0001662553841015324,0.007734902901574969,-35.3637221,149.1648992,75487.0,2.0,-1.5,-152.0,0.0,0.0,-1000.0,2.0,1.0,8.5,224931.0,RTL
13:31:45,0.005923710763454437,-0.0005100090784253553,-2.659923553466797,0.0023462145472876728,0.0011203777394257486,0.005901990924030542,-35.3637221,149.1648992,77424.0,1.0,-1.0,-152.0,0.0,0.0,-1000.0,3.5,2.0,6.5,224931.0,RTL
13:31:47,0.00621725432574749,-2.7949547074967995e-05,-2.652714729309082,0.0013747253688052297,0.001543974387459457,0.0055778720416128635,-35.3637221,149.1648992,80529.0,1.0,-1.0,-152.0,0.0,0.0,-1000.0,2.5,3.0,6.5,245397.0,RTL
13:31:49,0.006062466884031892,-9.628905021941137e-05,-2.646000862121582,0.002191143110394478,0.00014683185145258904,0.0059121965896338224,-35.3637221,149.1648992,83636.0,2.0,-1.0,-152.0,0.0,0.0,-1000.0,3.5,1.5,7.0,265863.0,RTL
13:31:50,0.006210315623320639,0.00021931612991465954,-2.643736779689789,0.0007843934290576726,0.001025904988637194,0.003406481468118727,-35.36372215,149.1648992,84800.0,2.0,-1.0,-152.0,0.0,0.0,-1000.0,2.5,2.5,4.25,7112.0,RTL
13:31:51,0.006170250242576003,0.0003575348964659497,-2.640317440032959,0.0012022549053654075,0.0009300130186602473,0.0034386019688099623,-35.3637222,149.1648992,86741.0,2.0,-1.0,-152.0,0.0,0.0,-1000.0,2.5,2.5,4.0,7112.0,RTL
13:31:53,0.0060256533324718475,1.81830132532923e-05,-2.635343074798584,0.0010612259502522647,0.0009220711071975529,0.0020202395389787853,-35.3637222,149.1648992,89850.5,2.0,-1.0,-152.0,0.0,0.0,-1000.0,2.0,2.5,3.0,43835.0,RTL
13:31:55,0.005857799900695682,1.0909727279795334e-05,-2.631117343902588,0.0002863820409402251,0.0012229976709932089,0.0031373410020023584,-35.3637222,149.1648992,92955.5,2.0,-1.0,-152.0,0.0,0.0,-1000.0,1.5,2.5,4.0,80558.0,RTL
13:31:56,0.005989813129417598,7.052677938190755e-05,-2.629553258419037,0.0002567888586781919,0.0003157812461722642,0.0022888355888426304,-35.3637222,149.1648992,94129.25,2.0,-1.0,-152.0,0.0,0.0,-1000.0,1.5,1.75,3.25,118552.0,RTL
13:31:57,0.0059587848372757435,-4.3415855543571524e-05,-2.6273099184036255,-0.00018368370365351439,0.0011998266563750803,0.003240144927985966,-35.3637222,149.1648992,96062.5,2.0,-1.0,-152.0,0.0,0.0,-999.5,1.0,2.5,4.5,118552.0,RTL
13:31:59,0.005468049552291632,0.0003180928833899088,-2.624011516571045,-0.0003641436342149973,-0.0005340855568647385,0.0009698396897874773,-35.3637222,149.1648991,99177.0,2.0,0.0,-152.0,0.0,0.0,-999.5,1.5,1.0,2.5,160968.5,RTL
13:32:01,0.006154545582830906,-0.00017283558190683834,-2.6205769777297974,0.002449618303216994,0.0005386038101278245,0.001051742525305599,-35.3637222,149.1648991,102282.5,2.0,0.0,-152.0,0.0,0.0,-1000.0,4.0,2.0,2.0,203385.0,RTL
13:32:02,0.006470984313637018,-0.0003050536270166049,-2.619463264942169,0.0003846477484330535,0.0010042830544989556,0.0023596412502229214,-35.3637222,149.1648991,103448.0,2.0,-1.0,-152.0,0.0,0.0,-999.75,2.0,2.25,3.5,115495.0,RTL
13:32:03,0.005900483345612884,6.792065869376529e-05,-2.617940664291382,0.0007481372449547052,0.0009750174358487129,0.0019399016164243221,-35.3637222,149.1648991,105389.0,2.0,-1.0,-152.0,0.0,0.0,-1000.5,2.5,2.5,3.0,115495.0,RTL
13:32:05,0.005807097069919109,0.000260319808148779,-2.6157087087631226,0.0011967854807153344,0.0010356332641094923,0.002188936516176909,-35.3637222,149.1648991,108494.5,2.0,-1.0,-152.0,0.0,0.0,-999.5,2.5,2.5,3.5,90192.5,RTL
13:32:07,0.005428061354905367,0.00015668661944800988,-2.6139928102493286,-0.0005277113523334265,0.00015364750288426876,0.0007591195753775537,-35.3637222,149.1648991,111601.0,2.0,0.0,-152.0,0.0,0.0,-1000.0,1.5,2.0,2.0,64890.0,RTL
13:32:08,0.005399423185735941,-0.00020628294805646874,-2.6130950450897217,-0.0007955003529787064,-0.0015863131266087294,0.0014117949758656323,-35.363722175,149.1648991,112765.75,2.0,0.0,-152.0,0.0,0.0,-1000.25,1.0,0.5,2.75,283480.0,RTL
13:32:09,0.005313927074894309,-9.346198589810228e-05,-2.61249041557312,-6.209791172295809e-05,0.0009448637720197439,0.00041126174619421363,-35.3637221,149.1648991,114708.0,1.0,0.0,-152.0,0.0,0.0,-999.5,2.0,2.5,1.5,283480.0,RTL
13:32:11,0.00544638792052865,5.5438667914131656e-05,-2.610891103744507,0.0006999853067100048,-0.00028885283973068,0.001977813371922821,-35.3637221,149.1648991,117815.0,1.0,0.0,-152.0,0.0,0.0,-1000.0,2.0,1.0,3.0,143244.0,RTL
13:32:13,0.006331939483061433,9.84868711384479e-06,-2.6094731092453003,0.00014812697190791368,0.0007753618410788476,0.002304024761542678,-35.3637221,149.1648991,120929.0,2.0,-1.0,-152.0,0.0,0.0,-1000.0,2.0,2.5,3.5,3008.0,RTL
13:32:14,0.005849334294907749,0.00018270075634063687,-2.609421491622925,-0.00036799104418605566,-0.00043401517905294895,0.00031326294993050396,-35.3637221,149.1648991,122097.5,2.0,-1.0,-152.0,0.0,0.0,-1000.5,1.75,1.25,1.5,149527.0,RTL
13:32:15,0.00553516298532486,0.00048575895198155195,-2.6087071895599365,-0.0009140094043686986,0.001239518285728991,0.003062561387196183,-35.3637221,149.1648991,124031.0,2.0,-1.0,-152.0,0.0,0.0,-999.0,1.0,3.0,4.5,149527.0,RTL
13:32:17,0.005457174498587847,0.00022903510398464277,-2.607040047645569,0.0014476930955424905,-6.837252294644713e-05,0.0011775927268899977,-35.3637221,149.1648991,127137.5,2.0,0.0,-152.0,0.0,0.0,-1000.5,3.0,1.5,2.5,133544.5,RTL
13:32:19,0.005458019906654954,0.00018086560885421932,-2.606412410736084,-0.000994103669654578,0.0006082791369408369,0.0006351503543555737,-35.3637221,149.1648991,130253.0,2.0,0.0,-152.0,0.0,0.0,-1000.0,1.0,2.5,2.0,117562.0,RTL
13:32:20,0.005563516751863062,0.00023621981199539732,-2.6060264110565186,-0.001132358709583059,0.00041910773143172264,0.0010745368781499565,-35.3637221,149.1648991,131417.75,2.0,0.0,-152.0,0.0,0.0,-999.75,0.75,2.0,2.5,173176.0,RTL
13:32:21,0.005599317140877247,4.727244777313899e-05,-2.605665683746338,0.00175777223194018,-0.0004440858028829098,0.00026773399440571666,-35.3637221,149.1648991,133362.0,2.0,0.0,-152.0,0.0,0.0,-1000.5,3.5,1.0,1.5,173176.0,RTL
13:32:23,0.005631357664242387,-0.00022826006897957996,-2.605218768119812,-0.0007768527138978243,0.0003468464710749686,0.0008693456184118986,-35.3637221,149.1648991,136468.0,2.0,-1.0,-152.0,0.0,0.0,-1000.0,1.0,2.0,2.5,148059.0,RTL
13:32:25,0.005019317148253322,0.0004152784968027845,-2.604738235473633,-0.0001933060702867806,-0.0014437735662795603,0.0012613028520718217,-35.3637221,149.1648991,139574.0,2.0,-0.5,-152.0,0.0,0.0,-1000.0,1.5,0.5,2.5,122942.0,RTL
13:32:26,0.005359417176805437,0.0004984431216144003,-2.6046329140663147,0.0008245537173934281,0.0007405689684674144,0.0009845180029515177,-35.3637221,149.1648991,140739.5,2.0,0.0,-152.0,0.0,0.0,-999.75,2.5,2.5,2.25,89451.0,RTL
13:32:27,0.005830846261233091,0.0005146349722053856,-2.6041345596313477,0.0017770007252693176,-0.0004108967259526253,0.0009386411402374506,-35.3637221,149.1648991,142680.0,2.0,0.0,-152.0,0.0,0.0,-1000.0,4.0,1.5,2.5,89451.0,RTL
13:32:29,0.005481181666254997,0.00021945790649624541,-2.603584408760071,-0.0009715452324599028,-0.0013332731323316693,0.002954746945761144,-35.3637221,149.1648991,145787.5,2.0,0.0,-152.0,0.0,0.0,-1000.0,1.0,1.0,4.5,136348.5,RTL
13:32:31,0.005556303774937987,0.00021010894852224737,-2.603626251220703,0.0009133389103226364,-0.0006686401320621371,0.0005675427382811904,-35.3637221,149.1648991,148894.0,2.0,0.0,-152.0,0.0,0.0,-1000.5,3.0,1.0,2.0,183246.0,RTL
13:32:32,0.0061654020100831985,-0.00015871158575464506,-2.6035330295562744,0.00012595090083777905,0.00032278004800900817,0.0005922615819144994,-35.3637221,149.1648991,150059.5,2.0,-0.25,-152.0,0.0,0.0,-999.75,2.25,2.0,2.0,114288.0,RTL
13:32:33,0.005792345618829131,2.807067085086601e-05,-2.6024547815322876,0.002368602203205228,0.00019792804960161448,0.0005247562658041716,-35.3637221,149.1648991,152003.0,2.0,-1.0,-152.0,0.0,0.0,-1000.0,4.5,2.5,2.5,114288.0,RTL
13:32:35,0.004689672961831093,0.0002264793947688304,-2.6025431156158447,-0.0016416047001257539,0.00029926642309874296,0.0011053432244807482,-35.3637221,149.1648991,155109.0,2.0,-0.5,-152.0,0.0,0.0,-1000.0,0.5,2.0,3.0,118615.5,RTL
13:32:37,0.005504898726940155,-4.070279828738421e-06,-2.602240800857544,-0.001998938445467502,-0.00026160216657444835,0.0013114074245095253,-35.3637221,149.1648991,158215.0,1.0,0.0,-152.0,0.0,0.0,-999.5,0.5,1.5,3.0,122943.0,RTL
13:32:38,0.005445393617264926,9.154687450063648e-05,-2.602244734764099,0.000563058303669095,0.00022018159506842494,0.0008312418358400464,-35.3637221,149.1648991,159380.5,1.0,0.0,-152.0,0.0,0.0,-1000.25,2.5,2.0,2.5,41971.0,RTL
13:32:39,0.005390331847593188,9.337039159618143e-05,-2.602173686027527,-0.0005884559359401464,-0.0006744411075487733,0.001777007943019271,-35.3637221,149.1648991,161327.0,1.5,0.0,-152.0,0.0,0.0,-1000.0,2.0,1.5,3.5,41971.0,RTL
13:32:41,0.00569720403291285,0.0004653821961255744,-2.6020950078964233,-0.0013733783271163702,-0.002123881713487208,4.428689135238528e-05,-35.3637221,149.1648991,164433.0,2.0,0.0,-152.0,0.0,0.0,-1000.0,0.5,0.0,1.5,84352.0,RTL
13:32:43,0.005753208417445421,0.00010238645154458936,-2.602217435836792,-0.00041671888902783394,-0.0005257898010313511,-0.0009059868170879781,-35.3637221,149.1648991,167540.0,2.0,-1.0,-152.0,0.0,0.0,-1000.5,1.5,1.5,0.5,126733.0,RTL
13:32:44,0.0056443726643919945,0.00028893032140331343,-2.6020106077194214,0.0006559732719324529,-0.0001460321363992989,0.0009106040524784476,-35.3637221,149.1648991,168704.75,2.0,-1.0,-152.0,0.0,0.0,-1000.0,2.5,1.75,2.75,28111.0,RTL
13:32:45,0.004968520952388644,0.0006681092781946063,-2.6018296480178833,-0.0004086619592271745,-0.000771893304772675,0.001275735325179994,-35.3637221,149.1648991,170645.0,2.0,0.0,-152.0,0.0,0.0,-1000.0,1.5,1.5,3.5,28111.0,RTL
13:32:47,0.0046254906337708235,0.04283878579735756,-2.6015411615371704,-0.002599590690806508,0.04078465513885021,-0.00015790382167324424,-35.3637217,149.1648993,173748.5,17.5,8.5,-150.0,2.0,0.5,-999.0,0.0,43.0,1.5,76582.0,RTL
13:32:49,-0.01546427607536316,0.12430281564593315,-2.582595705986023,-0.06556911580264568,0.10937896929681301,0.13201293058227748,-35.36371025,149.16490725,176712.5,125.0,72.5,-131.5,25.5,12.0,-968.0,-62.0,111.5,134.0,125053.0,RTL
13:32:50,-0.01335716515313834,0.1891673058271408,-2.2908374071121216,0.005821884609758854,-0.03476705081993714,0.3983836732804775,-35.36369955,149.16491625,177534.75,188.25,143.25,-83.75,46.75,14.5,-936.5,8.75,-32.25,400.25,145637.0,RTL
13:32:51,0.09474563971161842,0.12033689394593239,-2.0471450090408325,0.06952150166034698,0.058631936088204384,0.05822261422872543,-35.36367275,149.16494025,178113.5,295.5,181.5,-5.0,84.0,6.5,-945.5,71.5,61.0,60.0,145637.0,RTL
13:32:53,0.03477690555155277,0.19356631487607956,-2.0620718002319336,0.15223734453320503,-0.005212957737967372,-0.04371898528188467,-35.3636025,149.16498535,177716.5,474.0,247.0,11.0,127.5,-1.0,-1019.5,154.5,-3.0,-41.0,79255.5,RTL
13:32:55,-0.012897198088467121,0.15368802100419998,-2.1523772478103638,-0.17207037657499313,-0.023962782695889473,-0.04979859106242657,-35.3635106,149.16505035,177682.5,534.5,320.0,-6.0,146.5,18.0,-991.5,-169.0,-20.5,-47.0,12874.0,RTL
13:32:56,-0.021113973343744874,0.14022113755345345,-2.18139386177063,-0.019414728158153594,-0.007783199427649379,-0.0336692476994358,-35.363474724999996,149.1650773,177717.0,532.75,324.0,-4.0,142.0,18.75,-985.25,-16.5,-5.0,-31.0,269391.0,RTL
13:32:57,-0.03781255520880222,0.09791838750243187,-2.222472906112671,-0.07247565686702728,-0.057537831366062164,-0.010072256438434124,-35.36341545,149.16512225,177741.0,517.5,316.5,-4.0,143.0,28.5,-995.0,-69.5,-54.5,-7.5,269391.0,RTL
13:32:59,-0.03638036362826824,0.001997206825762987,-2.276563048362732,0.25225870264694095,-0.05939581245183945,-0.037944840267300606,-35.36333245,149.165186,177767.0,391.5,239.5,2.5,108.0,25.0,-989.5,254.0,-56.0,-35.0,234806.0,RTL
13:33:01,0.004260370973497629,-0.05737614631652832,-2.317988395690918,0.6512359827756882,-0.01700057415291667,0.0009171604178845882,-35.3632822,149.16522795,177696.0,204.5,105.0,1.0,50.0,28.5,-1022.0,653.5,-14.0,3.5,200221.0,RTL
13:33:02,-0.00987028272356838,-0.06175881624221802,-2.3294172286987305,-0.6395058110356331,0.01383866323158145,-0.018205807369668037,-35.363272375,149.165235925,177679.0,141.75,57.25,0.0,33.25,-21.0,-993.0,-635.75,16.5,-15.0,14471.0,RTL
13:33:03,0.011628091800957918,-0.03576337359845638,-2.3446446657180786,0.4601934999227524,0.01251117535866797,-0.011739839799702168,-35.3632633,149.16524195,177673.0,65.5,6.0,-1.0,12.0,7.0,-987.5,463.0,14.5,-8.5,14471.0,RTL
13:33:05,0.024139653891324997,0.004369214526377618,-2.3629465103149414,0.1439412385225296,0.027031540870666504,-0.014132947660982609,-35.3632607,149.1652425,177691.0,16.5,-16.0,-1.5,0.0,-13.0,-995.5,147.5,29.5,-10.5,106174.0,RTL
13:33:07,-0.001338440808467567,-0.003764328663237393,-2.3787782192230225,-0.5273390412330627,0.006376371369697154,-0.006022552493959665,-35.36326015,149.1652406,177701.5,5.0,-12.0,-1.0,-0.5,-26.5,-1009.5,-522.5,8.5,-2.5,197877.0,RTL
13:33:08,0.009252625633962452,-0.0007949299506435636,-2.3838109970092773,0.26458985079079866,0.004718872252851725,-0.009612423600628972,-35.36326042499999,149.165239925,177710.25,0.75,-10.25,0.0,-1.0,10.5,-995.25,269.25,7.0,-6.25,11222.0,RTL
13:33:09,0.0112613660749048,0.0032991726184263825,-2.392636775970459,0.10289016366004944,0.0027336168568581343,-0.008314856328070164,-35.363261249999994,149.1652392,177715.0,0.0,-8.0,-0.5,-2.0,16.5,-1000.5,108.5,5.0,-4.5,11222.0,RTL
13:33:11,0.0054654430714435875,0.006664138752967119,-2.4033180475234985,0.4658854678273201,-0.003587941639125347,-0.004108019056729972,-35.3632614,149.1652372,177604.5,-1.5,1.0,37.5,1.5,-3.5,-949.5,469.0,-1.0,-1.0,62547.0,RTL
13:33:13,-0.0016412484110333025,0.0032610497437417507,-2.413713216781616,0.1907600350677967,-0.002252178033813834,-0.001225030398927629,-35.363261,149.165236,175778.5,-7.5,10.5,111.5,2.0,-28.5,-1041.0,192.5,0.5,1.5,113872.0,RTL
13:33:14,-0.008495287911500782,0.003475397126749158,-2.416873276233673,-0.04066622722893953,0.0014276283327490091,-0.003732344601303339,-35.363260575,149.16523537499998,174959.75,-11.25,15.0,108.0,2.25,-51.0,-958.75,-38.5,3.75,-1.0,98800.0,RTL
13:33:15,-0.011307525914162397,0.0036165366182103753,-2.4215633869171143,1.3234515190124512,0.004597282037138939,0.013890620321035385,-35.36325995,149.1652344,173652.5,-17.5,22.0,97.0,-0.5,36.5,-1008.5,1326.0,7.5,16.5,98800.0,RTL
13:33:17,-0.02691068686544895,-3.307207953184843e-05,-2.429089069366455,0.8520907163619995,-0.0049790110206231475,-0.017980444245040417,-35.3632595,149.16523365,171642.0,-23.5,31.0,101.0,-4.0,76.0,-1016.5,856.0,-2.0,-14.0,128009.5,RTL
13:33:19,-0.0009809743496589363,-0.0019591492018662393,-2.4343708753585815,-1.3733600974082947,0.006096863187849522,-0.009256201388780028,-35.363261800000004,149.1652368,169585.0,-12.5,17.5,100.5,-3.0,-40.5,-996.0,-1369.5,8.5,-6.0,157219.0,RTL
13:33:20,0.0013566281595558394,-0.0006106942746555433,-2.4375391602516174,-0.918011263012886,0.005319517164025456,-0.009605410741642118,-35.3632626,149.165237725,168832.5,-3.5,7.0,100.75,-3.0,-5.75,-978.75,-913.0,7.75,-6.0,94826.0,RTL
13:33:21,0.006175302201882005,0.001910434802994132,-2.44095242023468,-0.7675853818655014,0.002214964129962027,-0.008236234076321125,-35.36326325,149.1652385,167559.0,5.5,-3.0,106.5,-1.0,-5.0,-1019.0,-763.0,5.5,-5.0,94826.0,RTL
13:33:23,-0.03455348126590252,0.007106139790266752,-2.4462465047836304,-1.2784826755523682,0.008528653997927904,-0.005610489286482334,-35.36326235,149.16523669999998,165501.5,3.0,0.5,100.0,4.0,-47.5,-1020.0,-1274.5,11.5,-2.0,162910.0,RTL
13:33:25,-0.05912744998931885,0.003700197208672762,-2.4490015506744385,-0.9289754331111908,-0.00805138424038887,-0.006374852964654565,-35.3632598,149.1652332,163471.0,-18.5,30.0,98.5,2.0,-12.0,-1026.0,-925.5,-4.0,-3.0,230994.0,RTL
13:33:26,-0.04767030477523804,0.0007900644777691923,-2.450961172580719,-0.9662618339061737,-0.002126218576449901,-0.010485305916517973,-35.363259549999995,149.165233125,162701.75,-23.25,35.25,102.25,-0.75,-10.75,-1011.0,-962.75,1.25,-7.0,234028.0,RTL
13:33:27,-0.03999805264174938,-0.0020327482488937676,-2.4530222415924072,-0.9524357318878174,0.0004157264484092593,0.0011109682964161038,-35.36325975,149.1652338,161418.5,-24.0,34.0,101.0,-1.0,-0.5,-953.0,-949.0,3.0,3.5,234028.0,RTL
13:33:29,-0.011067386309150606,-0.0052188183180987835,-2.4553967714309692,-0.7434008568525314,-0.003176717087626457,0.004765691002830863,-35.3632612,149.16523619999998,159371.0,-17.0,23.5,100.5,-6.0,7.0,-1019.5,-740.5,0.0,7.5,210656.0,RTL
13:33:31,0.016162030398845673,-0.0013524743262678385,-2.4591448307037354,-0.19431327283382416,0.010830274317413568,-0.0013810941018164158,-35.3632635,149.16523940000002,157327.0,5.5,-7.0,100.5,-2.0,27.0,-960.0,-190.5,14.0,0.5,187284.0,RTL
13:33:32,0.0072751230909489095,0.002120947086950764,-2.4600775837898254,-0.362367894500494,0.003173838136717677,0.002790037833619863,-35.363263874999994,149.165239525,156556.75,11.5,-13.75,99.25,-0.5,14.5,-1017.75,-358.75,6.25,5.25,188558.0,RTL
13:33:33,-0.0006362552521750331,0.001102627138607204,-2.461385130882263,-0.5752070546150208,-0.004283968708477914,-0.005748667987063527,-35.363263950000004,149.16523945,155294.5,15.0,-14.5,99.0,-2.0,10.5,-1008.5,-572.0,-1.0,-2.5,188558.0,RTL
13:33:35,0.029119549319148064,-0.001624179887585342,-2.463775396347046,-0.46378669142723083,0.0038162226555868983,-0.0030261629726737738,-35.36326495,149.1652413,153267.5,24.0,-25.5,103.0,-1.0,21.5,-957.5,-459.0,7.0,0.0,181348.0,RTL
13:33:37,0.023878750391304493,0.003275043098255992,-2.466417670249939,-0.26815723441541195,0.006114388350397348,-0.0017840624786913395,-35.3632654,149.16524195,151239.0,32.5,-38.5,101.0,0.5,16.0,-1033.0,-263.0,9.0,1.0,174138.0,RTL
13:33:38,0.016997583443298936,0.004633539996575564,-2.466354727745056,0.20452667027711868,0.004250866710208356,0.005011414526961744,-35.363265075,149.16524132499998,150476.75,32.0,-38.0,102.5,0.75,47.75,-980.75,209.75,7.25,7.5,60773.0,RTL
13:33:39,-0.005011704983189702,0.005755903432145715,-2.467322826385498,-1.3809179663658142,-0.0043950004037469625,-0.0019817068241536617,-35.3632642,149.16523975,149177.5,24.0,-26.0,99.5,3.0,-56.0,-1041.0,-1377.0,-1.0,1.0,60773.0,RTL
13:33:41,-0.020391065627336502,0.0038132595364004374,-2.468756675720215,-0.7245029509067535,-0.0004272647202014923,0.005494678975082934,-35.363262750000004,149.1652377,147156.5,10.5,-8.0,103.0,2.0,1.5,-978.0,-718.5,3.0,8.0,40592.5,RTL
13:33:43,-0.013748181518167257,0.001490376889705658,-2.469110369682312,-0.09336017444729805,-0.0022561425575986505,0.003634837339632213,-35.3632618,149.16523645,145122.0,0.5,4.0,102.0,-1.5,30.5,-1031.5,-87.0,1.5,6.5,20412.0,RTL
13:33:44,-0.0022780816652812064,-0.0011031383328372613,-2.4695584774017334,0.19756699306890368,-0.0009812262724153697,0.0016213218332268298,-35.363262074999994,149.165236975,144359.5,0.5,4.25,103.75,-3.25,52.0,-995.5,203.0,2.25,4.75,58473.0,RTL
13:33:45,0.015649801585823298,-0.006374178687110543,-2.4696462154388428,-0.4272365868091583,-0.001829033251851797,0.0023689931258559227,-35.36326315,149.16523905,143079.0,7.0,-4.5,100.5,-5.0,22.5,-1019.0,-420.5,2.0,5.5,58473.0,RTL
13:33:47,0.028400992043316364,-0.002187809266615659,-2.4712605476379395,-0.7744006514549255,0.005218647769652307,0.019030372495763004,-35.3632654,149.16524255000002,141027.5,26.0,-34.5,101.5,-2.5,6.5,-996.5,-767.5,8.5,21.5,103870.0,RTL
13:33:49,0.025252931751310825,0.002969613065943122,-2.4727563858032227,-0.874252051115036,-0.0020960660185664892,0.011974969878792763,-35.36326595,149.1652428,139004.0,36.0,-45.5,104.5,1.5,-13.5,-1001.0,-866.0,2.0,15.0,149267.0,RTL
13:33:50,0.014909415389411151,0.0060586134204640985,-2.4731183648109436,-1.0976897180080414,4.338356666266918e-05,0.0077415863634087145,-35.363265549999994,149.165242,138228.5,34.25,-42.75,105.75,4.0,-31.0,-973.75,-1090.0,3.5,10.25,124292.0,RTL
13:33:51,-0.02075219340622425,0.011750931851565838,-2.4746294021606445,-1.4587389826774597,0.0031355542596429586,-0.010997469420544803,-35.36326385,149.16523895,136953.5,24.0,-28.5,101.0,9.0,-72.5,-984.5,-1452.0,6.5,-8.0,124292.0,RTL
13:33:53,-0.07870612293481827,0.00992391724139452,-2.472541332244873,-1.599666953086853,-0.008322117617353797,0.007905221544206142,-35.3632592,149.16523180000002,134908.5,-15.5,27.5,102.5,8.0,-74.0,-1023.5,-1594.0,-4.0,11.0,86860.5,RTL
13:33:55,-0.07860573753714561,0.0008334341400768608,-2.472040891647339,-1.4965651035308838,-0.00393254985101521,-0.006512428401038051,-35.3632569,149.165229,132885.5,-46.0,66.5,107.5,1.0,-71.0,-1011.5,-1492.5,0.0,-2.5,49429.0,RTL
13:33:56,-0.06850011460483074,-0.00036030311457579955,-2.4732282161712646,-1.3841645419597626,-0.0014230156666599214,-0.0024092993699014187,-35.3632569,149.16522925,132134.0,-50.25,70.0,103.75,-0.25,-56.5,-1006.75,-1380.0,2.5,1.25,179692.0,RTL
13:33:57,-0.06842782348394394,-0.0004742608653032221,-2.472874164581299,-1.485040307044983,-0.002572029596194625,-0.005993842496536672,-35.36325705,149.1652296,130873.5,-52.0,69.0,106.5,-1.0,-71.0,-996.5,-1483.0,1.5,-3.0,179692.0,RTL
13:33:59,-0.006486265629064292,-0.006797980749979615,-2.473526358604431,-0.20771697908639908,8.62334854900837e-05,0.0006649531424045563,-35.363258450000004,149.1652321,128808.0,-45.5,59.5,107.0,-5.0,-29.5,-1047.5,-208.0,3.5,4.0,133666.5,RTL
13:34:01,0.014045325573533773,-0.003798616584390402,-2.4727662801742554,0.05308838980272412,0.0028211823664605618,0.011969207553192973,-35.36326085,149.1652354,126741.5,-22.5,29.5,103.0,-5.5,-31.5,-938.5,52.0,6.5,14.5,87641.0,RTL
13:34:02,0.025301449932157993,-0.006034103920683265,-2.4736413955688477,-0.159867936745286,-0.0026484382688067853,0.0017098609823733568,-35.363261924999996,149.1652371,125969.5,-14.5,20.5,103.75,-6.0,-40.75,-962.25,-160.75,1.5,4.5,40538.0,RTL
13:34:03,0.06446852535009384,-0.004676524782553315,-2.474359154701233,0.6383434236049652,0.005332257365807891,0.005430096527561545,-35.363263849999996,149.16524005,124675.0,4.0,-5.0,99.0,-4.0,-1.0,-989.5,637.5,8.5,8.0,40538.0,RTL
13:34:05,0.07919071614742279,-0.0029585568699985743,-2.47444748878479,0.8773416578769684,-0.0015375998336821795,-0.0005844024708494544,-35.36326605,149.16524320000002,122648.0,28.5,-34.0,101.5,-2.5,3.0,-990.0,877.5,1.5,2.5,100870.5,RTL
13:34:07,0.08780637010931969,0.0012340673711150885,-2.4747049808502197,1.0465847253799438,0.0037633650936186314,2.5604967959225178e-05,-35.3632671,149.1652446,120629.0,44.5,-55.5,101.0,0.0,15.5,-980.0,1048.5,7.5,3.0,161203.0,RTL
13:34:08,0.07356506958603859,0.0033264350495301187,-2.474258303642273,1.351149171590805,0.0006041727028787136,0.0019173422479070723,-35.36326695,149.165244275,119861.75,48.5,-60.25,104.25,0.5,45.0,-998.5,1354.75,4.5,4.75,138763.0,RTL
13:34:09,0.04661102034151554,0.0016042068018577993,-2.4741073846817017,0.8999538719654083,-0.00037661544047296047,0.0015783741837367415,-35.36326665,149.16524375,118596.5,47.5,-56.0,101.5,-1.0,70.5,-995.5,906.0,3.5,4.0,138763.0,RTL
13:34:11,0.027829057537019253,0.0033726191613823175,-2.4752371311187744,-1.451745092868805,0.0030332355527207255,-0.00142504065297544,-35.363266550000006,149.16524379999998,116560.0,46.5,-56.5,99.0,2.0,-65.5,-981.0,-1445.5,6.5,2.0,85062.5,RTL
13:34:13,0.00928409956395626,0.007906074868515134,-2.474137544631958,-0.12700031697750092,-0.002992726629599929,-0.004103289218619466,-35.36326445,149.16524015,114496.5,32.0,-37.0,106.0,5.0,-52.0,-1076.0,-122.0,1.0,-1.0,31362.0,RTL
13:34:14,0.005956844601314515,0.0077338641276583076,-2.4741342663764954,-0.5801252350211143,0.0009541679173707962,-0.00684228609316051,-35.363263475,149.16523869999997,113738.75,22.75,-24.0,100.5,4.25,-61.0,-992.75,-574.5,4.75,-3.0,248962.0,RTL
13:34:15,-0.008433852810412645,0.005272742127999663,-2.4746333360671997,-0.5376333668828011,-0.007887892425060272,-0.009664550656452775,-35.36326205,149.16523660000001,112443.5,6.5,-3.5,106.0,5.5,-59.0,-1045.5,-532.0,-3.5,-5.5,248962.0,RTL
13:34:17,-0.031776621006429195,0.004546506563201547,-2.473867893218994,-0.2267599105834961,-0.0003207937115803361,-0.003618569578975439,-35.363260049999994,149.1652338,110410.5,-13.0,20.5,101.0,2.5,-42.0,-1044.0,-222.0,3.5,0.0,146751.5,RTL
13:34:19,-0.015381269622594118,0.002493132371455431,-2.474884867668152,0.4651223123073578,-0.0011334446026012301,-0.004627442569471896,-35.363259150000005,149.1652326,108353.0,-27.5,38.0,99.5,0.5,-13.0,-1002.0,468.5,2.5,-1.0,44541.0,RTL
13:34:20,-0.019869965501129627,0.0018150483374483883,-2.4742892384529114,0.19208137691020966,0.0012547762598842382,0.0017998029361478984,-35.363259125,149.16523254999998,107592.75,-29.0,40.75,98.75,-0.5,-23.75,-981.0,195.25,5.0,5.25,240288.0,RTL
13:34:21,0.003064517688471824,-0.0015265265246853232,-2.474033832550049,1.1840060949325562,-0.005096304230391979,0.0022460154723376036,-35.3632595,149.1652332,106303.0,-27.5,39.5,102.0,-1.5,42.5,-1018.0,1188.0,-1.0,6.0,240288.0,RTL
13:34:23,0.04033009894192219,-0.004414307069964707,-2.4740692377090454,1.2916846871376038,-0.0033955262042582035,-0.014275244437158108,-35.3632616,149.16523655,104246.0,-14.5,21.5,101.5,-3.0,36.5,-1019.5,1295.0,0.5,-10.5,160499.5,RTL
13:34:25,0.013199752662330866,0.004312299657613039,-2.4754958152770996,1.114047646522522,0.0034755996894091368,0.00033971841912716627,-35.3632627,149.1652377,102206.5,1.5,-0.5,95.5,0.5,65.5,-1036.5,1119.5,7.0,3.5,80711.0,RTL
13:34:26,0.008539806003682315,0.005595077993348241,-2.474432587623596,1.3595968782901764,0.0018866038881242275,0.0023961144033819437,-35.36326245,149.165237075,101449.25,1.5,0.25,96.25,2.0,60.75,-1011.0,1364.5,5.75,5.75,197251.0,RTL
13:34:27,-0.00653174938634038,0.004650898976251483,-2.474877119064331,1.0242039859294891,0.0012280801311135292,0.0044964844128116965,-35.36326175,149.16523595,100170.0,-2.0,8.0,101.0,1.5,65.0,-1020.5,1029.5,6.0,8.0,197251.0,RTL
13:34:29,0.009554647374898195,-0.0035214979434385896,-2.475780963897705,1.3000933527946472,-0.0045902126003056765,-0.007995837135240436,-35.363261449999996,149.16523635,98157.5,-5.0,12.5,99.0,-3.0,64.5,-1031.0,1304.5,0.0,-4.0,152026.0,RTL
13:34:31,0.047030435875058174,-0.0063398596830666065,-2.47384250164032,1.365914225578308,0.004801098955795169,-0.005544640123844147,-35.3632635,149.1652398,96143.5,6.5,-7.5,103.5,-6.0,75.5,-1021.0,1371.0,8.5,-2.0,106801.0,RTL
13:34:32,0.05876104347407818,-0.004894419631455094,-2.474116623401642,1.2289320975542068,0.005068330676294863,-0.005529246001970023,-35.36326455,149.16524139999999,95385.25,14.75,-18.75,104.0,-6.5,76.0,-1007.0,1234.5,9.0,-1.75,64933.0,RTL
13:34:33,0.07681796699762344,0.0036992599489167333,-2.474223017692566,1.2778857350349426,0.011032564798370004,0.002267929376102984,-35.363266,149.165243,94021.0,31.5,-41.5,100.5,1.0,42.0,-1025.0,1282.5,15.0,5.5,64933.0,RTL
13:34:35,0.02217864990234375,0.006253934232518077,-2.4749592542648315,1.43526953458786,-0.0014320407062768936,-0.006045960821211338,-35.36326435,149.16523985,91967.0,29.0,-31.5,107.0,4.0,73.0,-979.0,1441.5,2.5,-2.0,176671.0,RTL
13:34:37,0.01677285274490714,0.002314102544914931,-2.4742281436920166,1.3372657895088196,-0.004141167504712939,0.000907879788428545,-35.3632628,149.1652382,89903.0,11.0,-12.0,102.5,4.0,44.0,-1042.0,1343.0,0.0,5.0,288409.0,RTL
13:34:38,0.013966529630124569,0.0028096245077904314,-2.4744685888290405,1.2299662232398987,0.0030011701164767146,0.01008600031491369,-35.363262125,149.16523734999998,89130.0,5.25,-6.5,102.25,3.5,30.5,-1008.25,1235.25,7.0,13.5,42535.0,RTL
13:34:39,-0.012378898682072759,0.002087359200231731,-2.472946286201477,1.4907383918762207,-0.005438270512968302,0.001546465209685266,-35.3632609,149.16523554999998,87853.0,-5.0,6.5,104.0,1.0,70.5,-995.5,1497.0,-1.0,5.0,42535.0,RTL
13:34:41,-0.008556195301935077,-0.00394220685120672,-2.4732308387756348,0.6724813282489777,-0.0029313762206584215,-0.001608937163837254,-35.363260749999995,149.1652358,85807.5,-10.0,12.5,101.5,-3.5,72.5,-996.0,679.5,1.5,2.5,55360.5,RTL
13:34:43,0.03944941610097885,-0.009613857138901949,-2.4734100103378296,-0.0015845447778701782,0.004412234062328935,-0.0036998974392190576,-35.36326375,149.1652408,83776.5,6.5,-11.5,98.5,-7.5,44.0,-994.5,6.5,8.0,0.5,68186.0,RTL
13:34:44,0.05132896453142166,-0.005382948729675263,-2.4731961488723755,0.22322742827236652,0.008391685085371137,-0.00015885429456830025,-35.36326495,149.16524247499999,83018.75,18.0,-27.75,101.25,-4.5,52.25,-1008.5,231.25,12.25,3.5,116481.0,RTL
13:34:45,0.02262117061764002,0.0007300435972865671,-2.471866250038147,-0.8583411872386932,0.0008820982184261084,0.010955811245366931,-35.3632658,149.1652431,81741.5,32.5,-46.5,101.5,-1.5,6.0,-955.5,-849.0,5.0,14.0,116481.0,RTL
13:34:47,0.014848017133772373,0.003580996533855796,-2.4734004735946655,-1.579595685005188,0.005544045707210898,-0.006548536010086536,-35.3632652,149.1652419,79694.0,33.0,-44.0,103.5,1.0,-73.5,-928.0,-1572.0,9.5,-2.0,206927.0,RTL
13:34:49,0.02900822553783655,-0.0013282966101542115,-2.4738892316818237,-1.0153765082359314,0.0010554075706750154,-0.006784245138987899,-35.363264349999994,149.1652412,77653.0,23.0,-32.5,98.0,1.5,-72.5,-1013.0,-1008.0,5.0,-2.5,297373.0,RTL
13:34:50,0.020426242612302303,0.0009796541489777155,-2.473655581474304,-0.8613582402467728,0.0025800869334489107,-0.005983222974464297,-35.3632639,149.165240575,76886.5,20.0,-30.0,102.5,3.0,-76.25,-978.75,-853.75,6.5,-2.0,149854.0,RTL
13:34:51,0.009494490455836058,0.005393876926973462,-2.4721759557724,0.19115623831748962,-9.886897169053555e-05,0.0028776812832802534,-35.363262649999996,149.16523835,75608.5,11.5,-19.5,104.5,4.5,-38.0,-973.5,197.5,3.5,7.0,149854.0,RTL
13:34:53,0.013199032749980688,-0.0029883127426728606,-2.4724128246307373,0.3313866928219795,-0.007315451977774501,0.002210139064118266,-35.3632613,149.16523665,73563.0,-5.0,5.5,102.0,1.0,-26.5,-1017.0,338.5,-3.0,6.0,175705.5,RTL
13:34:55,0.008405222499277443,1.945486292243004e-05,-2.471810817718506,1.229234516620636,-0.001528468681499362,-0.0005383646348491311,-35.36326115,149.16523645,71521.0,-5.5,2.5,100.0,-1.5,34.0,-1069.0,1237.0,2.5,3.0,201557.0,RTL
13:34:56,0.0207313341088593,-0.002703990350710228,-2.4721744060516357,1.2919850647449493,-0.006920522951986641,-0.0059114438481628895,-35.3632614,149.165236725,70764.75,-7.75,7.25,100.25,-1.75,36.75,-988.0,1299.75,-2.0,-1.75,233343.0,RTL
13:34:57,0.04783249646425247,-0.005114905536174774,-2.4724926948547363,1.3822906613349915,0.006801578216254711,0.009917711606249213,-35.36326255,149.16523855,69486.0,0.5,-2.0,100.0,-1.5,52.0,-1004.0,1390.0,10.5,13.0,233343.0,RTL
13:34:59,0.05355275236070156,-0.00043091620682389475,-2.472448468208313,1.5213437676429749,0.0016831886023283005,0.0019593002507463098,-35.3632643,149.16524084999998,67447.0,15.5,-22.0,105.0,-0.5,66.0,-999.5,1530.5,5.5,5.0,249163.5,RTL
13:35:01,0.020848119631409645,-7.14003253960982e-05,-2.472068428993225,0.4507550597190857,-0.004523620009422302,0.002068365574814379,-35.3632645,149.16524084999998,65412.0,26.0,-32.5,98.5,-1.5,59.5,-1000.0,463.0,0.0,5.5,264984.0,RTL
13:35:02,0.03510129125788808,-0.0051536838873289526,-2.471914529800415,0.371028714813292,-0.008183075813576579,-0.004248584096785635,-35.363264775000005,149.16524157499998,64666.0,25.0,-30.0,102.0,-4.75,53.25,-986.5,383.0,-3.5,-0.75,114949.0,RTL
13:35:03,0.06429699994623661,-0.006288059987127781,-2.473127603530884,0.318121999502182,0.007078903028741479,0.009763356763869524,-35.363266100000004,149.16524415,63418.0,33.5,-45.5,102.0,-2.5,49.0,-966.0,331.0,11.0,13.5,114949.0,RTL
13:35:05,0.027313867583870888,0.006066852482035756,-2.4720269441604614,-0.7874764502048492,0.005698494613170624,0.005984719144180417,-35.363266249999995,149.16524370000002,61375.0,42.5,-60.0,106.5,5.0,-13.0,-1002.5,-773.0,9.5,9.5,69963.0,RTL
13:35:07,-0.03427722863852978,0.006069604307413101,-2.472638964653015,-1.2611223459243774,-0.004779103212058544,-0.003785101231187582,-35.363262899999995,149.16523819999998,59311.5,18.5,-23.0,102.5,4.5,-44.0,-1064.5,-1247.5,-0.5,0.0,24977.0,RTL
13:35:08,-0.0348209859803319,0.00395978381857276,-2.4719038605690002,-0.8373377919197083,-0.004189219034742564,0.00286364508792758,-35.363261824999995,149.16523677499998,58539.75,7.5,-9.0,102.5,3.5,-9.25,-997.0,-822.75,0.0,6.5,210606.0,RTL
13:35:09,-0.0333945881575346,0.0010345885530114174,-2.4718886613845825,-1.4350445866584778,-0.001159745384939015,-0.002019922132603824,-35.363260749999995,149.16523545,57231.5,-7.0,9.0,100.5,1.5,-64.0,-999.5,-1421.5,2.5,1.5,210606.0,RTL
13:35:11,-0.040742067620158195,-0.0009611854038666934,-2.4716206789016724,-1.0160543322563171,0.0034840753069147468,-0.007861311547458172,-35.3632601,149.16523465,55204.5,-17.5,21.0,101.0,0.0,-10.0,-988.0,-1002.0,7.0,-3.5,132220.0,RTL
13:35:13,-0.05504479818046093,0.0016768684145063162,-2.4723026752471924,-1.2780996561050415,-0.0036273954901844263,-0.0017508681630715728,-35.3632596,149.16523365,53170.5,-22.5,27.0,102.0,0.0,-31.0,-990.0,-1265.0,0.0,2.0,53834.0,RTL
13:35:14,-0.043727449141442776,-0.00035611434213933535,-2.4712936878204346,-0.8134357929229736,-0.0038000285858288407,0.0001815788564272225,-35.363259575,149.165233675,52410.25,-25.25,31.75,102.75,0.25,-7.0,-985.25,-800.5,0.25,3.75,186817.0,RTL
13:35:15,-0.04027386009693146,-0.002772691543214023,-2.4715161323547363,-1.3337018489837646,-0.004928230307996273,0.0008708779932931066,-35.363259850000006,149.16523425,51128.5,-25.0,30.5,105.5,0.5,-39.5,-1017.5,-1322.0,-1.0,4.5,186817.0,RTL
13:35:17,-0.03518511541187763,-0.0008437794604105875,-2.472146987915039,-1.4604285955429077,0.0009362476412206888,-0.008081806590780616,-35.3632603,149.16523485,49073.5,-22.0,25.0,104.0,-0.5,-50.0,-1020.5,-1449.0,4.5,-3.5,130027.5,RTL
13:35:19,-0.04962007701396942,0.004344448912888765,-2.4721767902374268,-1.3013688325881958,0.002481279894709587,-0.00036165816709399223,-35.363259850000006,149.16523375,47049.5,-23.5,27.0,100.5,3.0,-47.5,-1004.0,-1291.0,6.5,4.0,73238.0,RTL
13:35:20,-0.06690348871052265,0.00562571978662163,-2.4722824096679688,-1.4521348476409912,-0.0005418149521574378,0.0001359395682811737,-35.363259225,149.1652326,46287.0,-27.25,33.0,103.25,3.25,-56.75,-990.5,-1442.25,3.0,3.75,23556.0,RTL
13:35:21,-0.06668543815612793,0.0031796767143532634,-2.471778154373169,-1.2304338812828064,-0.00746704381890595,-0.004290045239031315,-35.363257950000005,149.16523065,45003.5,-38.5,50.0,104.0,2.0,-76.0,-1001.0,-1223.0,-3.0,0.0,23556.0,RTL
13:35:23,-0.0078005988616496325,-0.004034821409732103,-2.4715157747268677,0.5548861622810364,-0.0006004853639751673,0.002341471379622817,-35.363258099999996,149.16523155,42965.5,-46.5,59.5,99.0,-0.5,-13.5,-946.0,559.5,3.5,6.5,23556.0,RTL
13:35:24,-0.02078460482880473,-0.001339233247563243,-2.4713209867477417,-0.015787797048687935,0.0033920721616595984,-0.0012673332821577787,-35.363258349999995,149.165232,42211.5,-43.25,52.5,103.5,1.0,-42.25,-959.25,-11.25,6.75,2.75,238417.0,RTL
13:35:25,-0.03158171661198139,0.0023542862036265433,-2.47211492061615,1.0269967317581177,0.005429735174402595,0.008237485541030765,-35.3632579,149.16523115,40916.5,-44.0,51.5,97.5,2.5,19.5,-1035.0,1031.0,9.0,12.0,238417.0,RTL
13:35:27,-0.034961944445967674,-0.0018968461663462222,-2.4708601236343384,0.21565615013241768,-0.006199543830007315,0.0027579604648053646,-35.363257250000004,149.16523015,38883.5,-52.5,66.0,104.0,-1.0,-26.5,-959.5,218.0,-1.5,7.0,15393.0,RTL
13:35:29,-0.003425512695685029,-0.006976643111556768,-2.471014976501465,-0.002901911735534668,0.001694403006695211,-0.0020644243340939283,-35.363259049999996,149.1652333,36827.5,-41.0,50.0,100.5,-4.0,-35.0,-992.0,-1.5,5.0,1.5,15393.0,RTL
13:35:30,0.004908644827082753,-0.004185309575404972,-2.4712867736816406,1.1840551793575287,0.005538589786738157,0.0038243442540988326,-35.36325965,149.165234225,36052.25,-34.25,38.75,100.5,-1.25,36.75,-978.75,1186.0,9.25,7.5,216032.0,RTL
13:35:31,-0.007463764166459441,0.001099079061532393,-2.470923662185669,1.4032849073410034,0.0033276687609031796,0.0015290299197658896,-35.36326,149.16523435,34771.5,-27.0,28.5,98.0,0.5,54.0,-1051.0,1405.5,6.5,5.0,216032.0,RTL
13:35:33,-0.016409107949584723,9.493541438132524e-05,-2.4692808389663696,1.2350828051567078,-0.006811437662690878,-0.008775481022894382,-35.3632592,149.1652329,32743.5,-30.5,38.0,100.5,-1.0,39.0,-998.5,1235.5,-2.5,-4.5,264525.0,RTL
13:35:35,0.025535132735967636,-0.009451320394873619,-2.469814419746399,1.0963367819786072,-0.0015606001252308488,-0.007123000454157591,-35.36326085,149.1652363,30698.0,-21.5,25.0,98.5,-5.5,33.0,-1025.0,1096.0,2.0,-3.0,264525.0,RTL
13:35:36,0.04516112245619297,-0.007739532622508705,-2.4701530933380127,0.5845380499958992,0.004373095987830311,0.0022959625930525362,-35.363262000000006,149.165238,29937.75,-13.5,12.75,101.0,-4.75,-11.0,-970.5,583.25,7.75,5.75,101052.0,RTL
13:35:37,0.03985600359737873,-0.0035562580451369286,-2.4697185754776,1.0421537160873413,-0.0030151517130434513,-0.0036058846162632108,-35.36326325,149.16523965,28659.5,3.0,-9.0,99.0,-2.0,29.5,-1035.0,1042.0,0.5,0.5,101052.0,RTL
13:35:39,0.06802600994706154,-0.004234757157973945,-2.4704262018203735,0.24469160288572311,-0.0005886025028303266,-0.015532082412391901,-35.363265150000004,149.1652424,26641.5,21.0,-30.0,103.5,-1.0,-20.0,-999.5,244.0,3.0,-11.5,232986.0,RTL
13:35:41,0.05958179943263531,0.0021113890688866377,-2.4712189435958862,0.3932652920484543,0.0043171849101781845,-0.0008088449249044061,-35.36326575,149.1652428,24614.5,32.5,-44.5,99.5,1.5,-22.0,-1012.0,394.0,7.5,2.5,232986.0,RTL
13:35:42,0.044658493250608444,0.004825302574317902,-2.470302939414978,0.36965062096714973,0.0016115712351165712,-0.004074858734384179,-35.363265299999995,149.16524195,23855.25,32.0,-42.75,104.25,3.5,-28.25,-970.0,370.5,4.75,-0.25,152843.0,RTL
13:35:43,0.02847465220838785,0.00728697469457984,-2.470545172691345,0.5646501779556274,0.0018168719252571464,-0.0011446105781942606,-35.363264,149.1652398,22562.0,24.5,-31.5,105.0,6.5,-20.0,-949.5,566.0,5.0,2.5,152843.0,RTL
13:35:45,-0.013659820891916752,0.003688383148983121,-2.4702610969543457,-0.3203883618116379,-0.006565451389178634,0.001703122048638761,-35.3632611,149.16523565,20504.0,-2.5,4.0,100.5,5.0,-61.0,-943.0,-318.5,-3.0,5.0,44583.0,RTL
13:35:47,-0.02083277888596058,-0.00041795427387114614,-2.4689128398895264,-0.5250744000077248,0.0028140454087406397,-0.0005485134897753596,-35.36325975,149.16523415,18450.0,-19.0,23.0,98.5,0.5,-57.5,-966.5,-523.5,6.0,2.5,44583.0,RTL
13:35:48,-0.029331696685403585,-0.003706319665070623,-2.4680564403533936,-1.3622046411037445,-0.009170169301796705,0.0001970365410670638,-35.363259875,149.16523444999999,17681.25,-21.5,27.25,100.0,-2.25,-61.5,-982.75,-1360.0,-5.5,3.75,129022.0,RTL
13:35:49,0.014914188999682665,-0.007787426235154271,-2.469722032546997,-0.8606058359146118,-0.0019238597014918923,-0.0011234497651457787,-35.3632612,149.1652368,16401.0,-16.5,19.5,99.0,-5.0,-59.0,-1016.5,-859.0,2.0,2.5,129022.0,RTL
13:35:51,0.02996362652629614,0.0022235441429074854,-2.469691276550293,-0.05847136024385691,0.014240944292396307,-0.005051864311099052,-35.3632631,149.16523905,14357.0,3.0,-10.0,100.0,1.5,-37.0,-1023.5,-57.5,17.5,-1.5,289031.0,RTL
13:35:53,0.003607109421864152,0.004692844348028302,-2.469033718109131,1.25834321975708,-0.0016868984093889594,-0.001334644854068756,-35.363261449999996,149.16523595,12317.5,-3.0,5.0,97.0,3.0,30.5,-1076.0,1260.0,1.5,2.0,289031.0,RTL
13:35:54,-0.003602662771299947,0.0018361022703174967,-2.4687161445617676,0.5917277447879314,-0.005418228625785559,-0.00039305578684434295,-35.363260975,149.165235325,11654.75,-7.0,11.25,72.0,0.5,4.0,-1044.75,592.25,-1.25,3.0,106019.0,RTL
13:35:55,-0.008887545205652714,-0.004358282312750816,-2.468916893005371,-0.31975221214815974,-0.003556670853868127,-0.0034184581600129604,-35.363261050000006,149.16523595,11132.0,-10.5,16.0,21.0,-2.0,6.5,-993.0,-317.0,0.0,0.0,106019.0,RTL
13:35:57,0.017050348687916994,-0.002187162928748876,-2.4693573713302612,0.403277438133955,0.003830023226328194,0.0009886421030387282,-35.3632626,149.1652386,10579.5,0.5,-3.5,35.5,-0.5,39.5,-998.5,406.0,7.0,4.0,52691.0,RTL
13:35:59,0.010314078768715262,0.0005389224970713258,-2.4691810607910156,0.5839797556400299,0.0008933143690228462,0.0031704214634373784,-35.3632627,149.16523834999998,9896.0,4.0,-8.0,36.0,0.0,39.0,-1017.0,587.0,3.5,6.0,52691.0,RTL
13:36:00,0.01097755937371403,0.0008842951647238806,-2.468439817428589,-0.13544269278645515,0.0025719853583723307,-0.0021063641179353,-35.363262625,149.16523815,9638.5,2.75,-5.75,35.75,0.0,-20.0,-999.5,-133.75,5.5,1.0,90663.0,RTL
13:36:01,0.005652067018672824,-0.0019526865216903389,-2.4690206050872803,0.08867734670639038,-0.001264371327124536,-0.0019374217372387648,-35.3632627,149.16523834999998,9200.5,3.5,-4.5,36.0,-0.5,29.0,-984.0,92.5,1.5,1.0,90663.0,RTL
13:36:03,0.012179150711745024,-0.0015075424162205309,-2.4689751863479614,0.04462088644504547,0.004464538651518524,0.0009828830370679498,-35.3632631,149.1652392,8669.0,8.0,-12.5,-3.5,0.0,14.0,-1029.5,48.0,7.5,4.0,157562.0,RTL
13:36:05,0.018639380112290382,0.00018614466534927487,-2.468939423561096,0.4857169985771179,-0.0026488903677091002,0.0016743054147809744,-35.3632632,149.1652391,8768.5,10.0,-13.5,-0.5,0.5,31.0,-985.0,489.5,0.5,4.5,157562.0,RTL
13:36:06,0.01372369093587622,0.0011075517832068726,-2.4690645337104797,-0.13437686301767826,-0.0007275738171301782,0.0002553496160544455,-35.363263175,149.16523895,8778.0,9.5,-12.75,-0.75,0.0,-15.0,-992.0,-131.5,2.25,3.25,262645.0,RTL
13:36:07,0.022837691009044647,0.0003599720585043542,-2.46871817111969,0.402181513607502,-0.0013619904057122767,0.001740390551276505,-35.36326305,149.1652388,8782.5,8.5,-11.0,0.0,0.0,10.0,-1004.5,405.0,1.5,4.5,262645.0,RTL
13:36:09,-0.007689671358093619,0.0019137011258862913,-2.469362497329712,-0.45829204469919205,0.0010475233430042863,6.923777982592583e-05,-35.36326235,149.1652378,8785.0,4.0,-6.5,0.0,1.0,-13.0,-993.0,-454.0,4.0,3.5,31617.0,RTL
13:36:11,-0.019063033163547516,-0.0010888767428696156,-2.4686473608016968,-0.7791368365287781,-0.001513995579443872,-0.0014472045004367828,-35.3632614,149.1652365,8208.5,-5.0,5.0,39.0,-1.0,-18.0,-1003.5,-775.0,1.0,1.5,31617.0,RTL
13:36:12,-0.0010592895559966564,-0.002595879981527105,-2.468513011932373,0.40392060950398445,0.0003411072539165616,0.00033187796361744404,-35.363261375,149.165236725,7926.5,-5.75,6.25,35.5,-1.25,37.25,-999.0,408.25,3.25,3.25,270175.0,RTL
13:36:13,0.017881362233310938,-0.0054393052123487,-2.4685704708099365,-0.36043546348810196,-0.0008752187713980675,-0.003447852679528296,-35.363262,149.16523795,7497.0,-3.5,1.5,34.5,-3.0,-28.5,-993.0,-358.0,2.5,0.0,270175.0,RTL
13:36:15,0.05100247263908386,-0.004261280409991741,-2.468492269515991,0.5450044870376587,0.0010162291582673788,0.00048780860379338264,-35.3632638,149.16524065,6814.5,10.5,-19.0,34.5,-1.0,4.5,-982.5,547.5,4.0,3.0,90447.0,RTL
13:36:17,0.036125803366303444,0.0020292121334932745,-2.46866238117218,0.7302937209606171,-0.0009306627325713634,-0.00019503745716065168,-35.3632643,149.16524075,6146.0,20.5,-29.5,34.0,0.0,21.5,-1017.5,734.5,2.0,2.5,90447.0,RTL
13:36:18,0.021427670493721962,0.0009267267814720981,-2.468378245830536,-0.3940034694969654,-0.0010372366814408451,-0.001626020879484713,-35.363264225,149.165240525,5887.75,19.75,-26.75,34.75,0.0,-22.5,-996.75,-389.25,1.75,1.25,135074.0,RTL
13:36:19,0.033721622079610825,-0.0004204380529699847,-2.468497395515442,0.8349144160747528,-7.825344800949097e-05,0.0009323892882093787,-35.363263950000004,149.1652403,5458.0,19.0,-25.5,34.0,0.5,22.5,-1003.5,839.0,2.5,3.5,135074.0,RTL
13:36:21,0.02720712311565876,-0.0004507741250563413,-2.4688425064086914,0.72826087474823,-0.0013081978540867567,0.0014839480863884091,-35.3632636,149.1652399,4773.5,15.0,-22.0,32.5,0.5,40.0,-1013.5,734.0,1.5,4.0,119145.0,RTL
13:36:23,0.008213708410039544,0.0022197042126208544,-2.4686044454574585,0.7445075213909149,-0.00014994351658970118,-0.0006437782431021333,-35.363262649999996,149.1652383,4082.5,8.0,-13.5,33.0,2.0,39.5,-1015.0,750.5,2.5,1.5,119145.0,RTL
13:36:24,-0.002558563253842294,0.002171119151171297,-2.468767762184143,-0.2896927217952907,-0.002672317554242909,-0.0018469169735908508,-35.36326215,149.1652376,3825.5,3.25,-7.0,33.0,2.25,-25.5,-997.75,-284.5,0.5,1.5,55506.0,RTL
13:36:25,-0.010687990812584758,0.0010898977634496987,-2.4688920974731445,0.5662796646356583,0.0005859179655089974,0.005397313507273793,-35.3632614,149.1652365,3402.5,-2.5,1.0,33.0,1.0,35.5,-1005.0,572.5,3.0,8.0,55506.0,RTL
13:36:27,-0.011105364421382546,-0.001425180584192276,-2.4686814546585083,0.4403967335820198,0.0006122878985479474,0.0021416170056909323,-35.3632608,149.16523585,2727.5,-12.0,12.0,32.0,0.0,35.0,-1013.5,446.5,3.5,4.5,159148.0,RTL
13:36:29,-0.0037669960875064135,-0.0013638455420732498,-2.4683759212493896,0.4921010583639145,0.0017938355449587107,0.0017248705262318254,-35.363261,149.16523625000002,2036.5,-11.0,10.0,31.0,0.0,33.5,-1009.0,497.5,4.0,4.5,159148.0,RTL
13:36:30,0.004441059504946073,-0.0010708013821082811,-2.468502998352051,0.3221975266933441,-0.0023637712777902684,-0.0009272186240802208,-35.3632611,149.1652363,1822.3333333333333,-11.333333333333334,10.333333333333334,32.666666666666664,-0.6666666666666666,-3.6666666666666665,-995.3333333333334,326.0,0.6666666666666666,1.6666666666666667,26591.0,RTL
13:36:31,-0.010942658564696709,-0.00153456205346932,-2.468194564183553,-0.32728227227926254,0.0003662606080373128,-0.0018793138830612104,-35.36326126666666,149.1652365,1452.3333333333333,-10.0,9.333333333333334,33.0,-2.0,5.666666666666667,-982.3333333333334,-321.0,3.0,1.0,26591.0,RTL
13:36:33,0.009366714029965806,-0.0015013789234217256,-2.468722343444824,-0.4608043394982815,0.0027230289997532964,-0.0021464450983330607,-35.3632621,149.1652377,834.0,-3.5,2.0,30.5,0.0,-31.0,-1001.0,-456.0,5.5,0.5,151631.0,RTL
13:36:35,-0.002078660763800144,0.0011708296369761229,-2.471278667449951,-0.002458172384649515,-0.0005089356563985348,-0.000523911789059639,-35.3632622,149.1652375,160.0,-4.0,3.0,-17.0,0.0,0.0,-1000.0,2.0,2.0,2.0,151631.0,RTL
13:36:36,-0.0031143281143158675,0.0009173120139166713,-2.4717217445373536,-0.002351701119914651,-0.0005018310155719518,-0.0005892608314752579,-35.36326224,149.16523750000002,216.2,-5.0,5.2,-15.6,0.0,0.0,-1000.0,2.0,2.0,2.0,247351.0,RTL
13:36:37,-0.004284958355128765,0.0003811857313849032,-2.4721720218658447,-0.002297211205586791,-0.0004921415820717812,-0.0006435399409383535,-35.3632624,149.1652377,246.0,-7.0,9.0,-12.0,0.0,0.0,-1000.0,2.0,2.0,2.0,247351.0,RTL
13:36:39,-0.004485832992941141,-0.0005455704522319138,-2.472447633743286,-0.0020663144532591105,-0.0004892656579613686,-0.0004921711515635252,-35.3632626,149.165238,198.0,-9.0,10.0,-7.0,0.0,0.0,-1000.0,2.0,2.0,2.0,247351.0,RTL
