time_stamp,MODE,lat,lon,relative_alt,roll,pitch,yaw,rollspeed,pitchspeed,yawspeed,xacc,yacc,zacc,xgyro,ygyro,zgyro,vx,vy,vz,RTL_ALT
17:44:23.096,STABILIZE,-35.3632621,149.1652374,29,-0.0003833518421743065,0.0014563949080184102,0.027584651485085487,0.00025531332357786596,0.0002296777965966612,0.002207451267167926,0,1,-1000,0,0,0,-2,1,-1,1500.0
17:44:23.297,STABILIZE,-35.3632621,149.1652374,29,-0.0003833518421743065,0.0014563949080184102,0.027584651485085487,0.00025531332357786596,0.0002296777965966612,0.002207451267167926,0,1,-1000,0,0,0,-2,1,-1,1500.0
17:44:23.499,STABILIZE,-35.3632621,149.1652374,29,-0.0003833518421743065,0.0014563949080184102,0.027584651485085487,0.00025531332357786596,0.0002296777965966612,0.002207451267167926,0,1,-1000,0,0,0,-2,1,-1,1500.0
17:44:23.700,STABILIZE,-35.3632621,149.1652374,29,-0.0003833518421743065,0.0014563949080184102,0.027584651485085487,0.00025531332357786596,0.0002296777965966612,0.002207451267167926,0,1,-1000,0,0,0,-2,1,-1,1500.0
17:44:23.903,STABILIZE,-35.3632621,149.1652374,29,-0.0003833518421743065,0.0014563949080184102,0.027584651485085487,0.00025531332357786596,0.0002296777965966612,0.002207451267167926,0,1,-1000,0,0,0,-2,1,-1,1500.0
17:44:24.104,STABILIZE,-35.3632621,149.1652374,29,-0.0003833518421743065,0.0014563949080184102,0.027584651485085487,0.00025531332357786596,0.0002296777965966612,0.002207451267167926,0,1,-1000,0,0,0,-2,1,-1,1500.0
17:44:24.305,STABILIZE,-35.3632621,149.1652374,29,-0.0003833518421743065,0.0014563949080184102,0.027584651485085487,0.00025531332357786596,0.0002296777965966612,0.002207451267167926,0,1,-1000,0,0,0,-2,1,-1,1500.0
17:44:24.509,STABILIZE,-35.3632621,149.1652374,29,-0.0003833518421743065,0.0014563949080184102,0.027584651485085487,0.00025531332357786596,0.0002296777965966612,0.002207451267167926,0,1,-1000,0,0,0,-2,1,-1,1500.0
17:44:24.713,STABILIZE,-35.3632621,149.1652374,29,-0.0003833518421743065,0.0014563949080184102,0.027584651485085487,0.00025531332357786596,0.0002296777965966612,0.002207451267167926,0,1,-1000,0,0,0,-2,1,-1,1500.0
17:44:24.918,STABILIZE,-35.3632622,149.1652374,37,-0.0002250664692837745,0.0011332690482959151,0.026613309979438782,0.00015165351214818656,0.000151769258081913,0.00196542264893651,0,1,-1000,0,0,0,-1,1,-2,1500.0
17:44:25.120,STABILIZE,-35.3632622,149.1652375,38,-0.0003423193411435932,0.0010373316472396255,0.026153545826673508,0.000328013178659603,0.0002056619559880346,0.00211353600025177,0,1,-1000,0,0,0,-1,1,-1,1500.0
17:44:25.321,STABILIZE,-35.3632622,149.1652375,38,-0.0003423193411435932,0.0010373316472396255,0.026153545826673508,0.000328013178659603,0.0002056619559880346,0.00211353600025177,0,1,-1000,0,0,0,-1,1,-1,1500.0
17:44:25.523,STABILIZE,-35.3632622,149.1652375,38,-0.0003423193411435932,0.0010373316472396255,0.026153545826673508,0.000328013178659603,0.0002056619559880346,0.00211353600025177,0,1,-1000,0,0,0,-1,1,-1,1500.0
17:44:25.725,STABILIZE,-35.3632622,149.1652375,38,-0.0003423193411435932,0.0010373316472396255,0.026153545826673508,0.000328013178659603,0.0002056619559880346,0.00211353600025177,0,1,-1000,0,0,0,-1,1,-1,1500.0
17:44:25.927,STABILIZE,-35.3632622,149.1652375,38,-0.0003423193411435932,0.0010373316472396255,0.026153545826673508,0.000328013178659603,0.0002056619559880346,0.00211353600025177,0,1,-1000,0,0,0,-1,1,-1,1500.0
17:44:26.130,STABILIZE,-35.3632622,149.1652375,38,-0.0003423193411435932,0.0010373316472396255,0.026153545826673508,0.000328013178659603,0.0002056619559880346,0.00211353600025177,0,1,-1000,0,0,0,-1,1,-1,1500.0
17:44:26.337,STABILIZE,-35.3632622,149.1652375,38,-0.0003423193411435932,0.0010373316472396255,0.026153545826673508,0.000328013178659603,0.0002056619559880346,0.00211353600025177,0,1,-1000,0,0,0,-1,1,-1,1500.0
17:44:26.539,STABILIZE,-35.3632622,149.1652375,38,-0.0003423193411435932,0.0010373316472396255,0.026153545826673508,0.000328013178659603,0.0002056619559880346,0.00211353600025177,0,1,-1000,0,0,0,-1,1,-1,1500.0
17:44:26.754,STABILIZE,-35.3632622,149.1652375,38,-0.0003423193411435932,0.0010373316472396255,0.026153545826673508,0.000328013178659603,0.0002056619559880346,0.00211353600025177,0,1,-1000,0,0,0,-1,1,-1,1500.0
17:44:26.956,STABILIZE,-35.3632622,149.1652375,35,-0.0005558126140385866,0.0009644108358770609,0.025536401197314262,0.00019666284788399935,0.00025326473405584693,0.0019458699971437454,0,1,-1000,0,0,0,-1,1,0,1500.0
17:44:27.157,STABILIZE,-35.3632622,149.1652375,35,-0.0005558126140385866,0.0009644108358770609,0.025536401197314262,0.00019666284788399935,0.00025326473405584693,0.0019458699971437454,0,1,-1000,0,0,0,-1,1,0,1500.0
17:44:27.363,STABILIZE,-35.3632622,149.1652375,35,-0.0005558126140385866,0.0009644108358770609,0.025536401197314262,0.00019666284788399935,0.00025326473405584693,0.0019458699971437454,0,1,-1000,0,0,0,-1,1,0,1500.0
17:44:27.567,STABILIZE,-35.3632622,149.1652375,35,-0.0005558126140385866,0.0009644108358770609,0.025536401197314262,0.00019666284788399935,0.00025326473405584693,0.0019458699971437454,0,1,-1000,0,0,0,-1,1,0,1500.0
17:44:27.770,STABILIZE,-35.3632622,149.1652375,35,-0.0005558126140385866,0.0009644108358770609,0.025536401197314262,0.00019666284788399935,0.00025326473405584693,0.0019458699971437454,0,1,-1000,0,0,0,-1,1,0,1500.0
17:44:27.971,STABILIZE,-35.3632622,149.1652375,35,-0.0005558126140385866,0.0009644108358770609,0.025536401197314262,0.00019666284788399935,0.00025326473405584693,0.0019458699971437454,0,1,-1000,0,0,0,-1,1,0,1500.0
17:44:28.173,STABILIZE,-35.3632622,149.1652375,35,-0.0005558126140385866,0.0009644108358770609,0.025536401197314262,0.00019666284788399935,0.00025326473405584693,0.0019458699971437454,0,1,-1000,0,0,0,-1,1,0,1500.0
17:44:28.375,STABILIZE,-35.3632622,149.1652375,35,-0.0005558126140385866,0.0009644108358770609,0.025536401197314262,0.00019666284788399935,0.00025326473405584693,0.0019458699971437454,0,1,-1000,0,0,0,-1,1,0,1500.0
17:44:28.578,STABILIZE,-35.3632622,149.1652375,35,-0.0005558126140385866,0.0009644108358770609,0.025536401197314262,0.00019666284788399935,0.00025326473405584693,0.0019458699971437454,0,1,-1000,0,0,0,-1,1,0,1500.0
17:44:28.779,STABILIZE,-35.3632622,149.1652375,35,-0.0005558126140385866,0.0009644108358770609,0.025536401197314262,0.00019666284788399935,0.00025326473405584693,0.0019458699971437454,0,1,-1000,0,0,0,-1,1,0,1500.0
17:44:28.987,STABILIZE,-35.3632622,149.1652375,28,-0.0005908386083319783,0.0009241871302947402,0.024827204644680023,0.00027559290174394846,8.238665759563446e-05,0.001813025795854628,0,1,-1000,0,0,0,-1,1,0,1500.0
17:44:29.190,STABILIZE,-35.3632622,149.1652375,28,-0.0005908386083319783,0.0009241871302947402,0.024827204644680023,0.00027559290174394846,8.238665759563446e-05,0.001813025795854628,0,1,-1000,0,0,0,-1,1,0,1500.0
17:44:29.393,STABILIZE,-35.3632622,149.1652375,28,-0.0005908386083319783,0.0009241871302947402,0.024827204644680023,0.00027559290174394846,8.238665759563446e-05,0.001813025795854628,0,1,-1000,0,0,0,-1,1,0,1500.0
17:44:29.594,STABILIZE,-35.3632622,149.1652375,28,-0.0005908386083319783,0.0009241871302947402,0.024827204644680023,0.00027559290174394846,8.238665759563446e-05,0.001813025795854628,0,1,-1000,0,0,0,-1,1,0,1500.0
17:44:29.796,STABILIZE,-35.3632622,149.1652375,28,-0.0005908386083319783,0.0009241871302947402,0.024827204644680023,0.00027559290174394846,8.238665759563446e-05,0.001813025795854628,0,1,-1000,0,0,0,-1,1,0,1500.0
17:44:29.998,STABILIZE,-35.3632622,149.1652375,28,-0.0005908386083319783,0.0009241871302947402,0.024827204644680023,0.00027559290174394846,8.238665759563446e-05,0.001813025795854628,0,1,-1000,0,0,0,-1,1,0,1500.0
17:44:30.199,STABILIZE,-35.3632622,149.1652375,28,-0.0005908386083319783,0.0009241871302947402,0.024827204644680023,0.00027559290174394846,8.238665759563446e-05,0.001813025795854628,0,1,-1000,0,0,0,-1,1,0,1500.0
17:44:30.400,STABILIZE,-35.3632622,149.1652375,28,-0.0005908386083319783,0.0009241871302947402,0.024827204644680023,0.00027559290174394846,8.238665759563446e-05,0.001813025795854628,0,1,-1000,0,0,0,-1,1,0,1500.0
17:44:30.602,STABILIZE,-35.3632622,149.1652375,28,-0.0005908386083319783,0.0009241871302947402,0.024827204644680023,0.00027559290174394846,8.238665759563446e-05,0.001813025795854628,0,1,-1000,0,0,0,-1,1,0,1500.0
17:44:30.804,STABILIZE,-35.3632622,149.1652375,28,-0.0005908386083319783,0.0009241871302947402,0.024827204644680023,0.00027559290174394846,8.238665759563446e-05,0.001813025795854628,0,1,-1000,0,0,0,-1,1,0,1500.0
17:44:31.005,STABILIZE,-35.3632622,149.1652375,28,-0.0005908386083319783,0.0009241871302947402,0.024827204644680023,0.00027559290174394846,8.238665759563446e-05,0.001813025795854628,0,1,-1000,0,0,0,-1,1,0,1500.0
17:44:31.207,STABILIZE,-35.3632622,149.1652375,28,-0.0005908386083319783,0.0009241871302947402,0.024827204644680023,0.00027559290174394846,8.238665759563446e-05,0.001813025795854628,0,1,-1000,0,0,0,-1,1,0,1500.0
17:44:31.410,STABILIZE,-35.3632622,149.1652375,28,-0.0005908386083319783,0.0009241871302947402,0.024827204644680023,0.00027559290174394846,8.238665759563446e-05,0.001813025795854628,0,1,-1000,0,0,0,-1,1,0,1500.0
17:44:31.615,STABILIZE,-35.3632622,149.1652375,28,-0.0005908386083319783,0.0009241871302947402,0.024827204644680023,0.00027559290174394846,8.238665759563446e-05,0.001813025795854628,0,1,-1000,0,0,0,-1,1,0,1500.0
17:44:31.816,STABILIZE,-35.3632622,149.1652375,28,-0.0005908386083319783,0.0009241871302947402,0.024827204644680023,0.00027559290174394846,8.238665759563446e-05,0.001813025795854628,0,1,-1000,0,0,0,-1,1,0,1500.0
17:44:32.018,STABILIZE,-35.3632622,149.1652375,28,-0.0005908386083319783,0.0009241871302947402,0.024827204644680023,0.00027559290174394846,8.238665759563446e-05,0.001813025795854628,0,1,-1000,0,0,0,-1,1,0,1500.0
17:44:32.219,STABILIZE,-35.3632622,149.1652375,28,-0.0005908386083319783,0.0009241871302947402,0.024827204644680023,0.00027559290174394846,8.238665759563446e-05,0.001813025795854628,0,1,-1000,0,0,0,-1,1,0,1500.0
17:44:32.421,STABILIZE,-35.3632622,149.1652375,28,-0.0005908386083319783,0.0009241871302947402,0.024827204644680023,0.00027559290174394846,8.238665759563446e-05,0.001813025795854628,0,1,-1000,0,0,0,-1,1,0,1500.0
17:44:32.622,STABILIZE,-35.3632622,149.1652375,28,-0.0005908386083319783,0.0009241871302947402,0.024827204644680023,0.00027559290174394846,8.238665759563446e-05,0.001813025795854628,0,1,-1000,0,0,0,-1,1,0,1500.0
17:44:32.824,STABILIZE,-35.3632622,149.1652375,28,-0.0005908386083319783,0.0009241871302947402,0.024827204644680023,0.00027559290174394846,8.238665759563446e-05,0.001813025795854628,0,1,-1000,0,0,0,-1,1,0,1500.0
17:44:33.025,STABILIZE,-35.3632622,149.1652375,28,-0.0005908386083319783,0.0009241871302947402,0.024827204644680023,0.00027559290174394846,8.238665759563446e-05,0.001813025795854628,0,1,-1000,0,0,0,-1,1,0,1500.0
17:44:33.226,STABILIZE,-35.3632622,149.1652375,28,-0.0005908386083319783,0.0009241871302947402,0.024827204644680023,0.00027559290174394846,8.238665759563446e-05,0.001813025795854628,0,1,-1000,0,0,0,-1,1,0,1500.0
17:44:33.428,STABILIZE,-35.3632622,149.1652375,28,-0.0005908386083319783,0.0009241871302947402,0.024827204644680023,0.00027559290174394846,8.238665759563446e-05,0.001813025795854628,0,1,-1000,0,0,0,-1,1,0,1500.0
17:44:33.630,STABILIZE,-35.3632622,149.1652375,28,-0.0005908386083319783,0.0009241871302947402,0.024827204644680023,0.00027559290174394846,8.238665759563446e-05,0.001813025795854628,0,1,-1000,0,0,0,-1,1,0,1500.0
17:44:33.832,STABILIZE,-35.3632622,149.1652375,28,-0.0005908386083319783,0.0009241871302947402,0.024827204644680023,0.00027559290174394846,8.238665759563446e-05,0.001813025795854628,0,1,-1000,0,0,0,-1,1,0,1500.0
17:44:34.033,AUTO,-35.3632622,149.1652375,5,-0.0006991609116084874,0.0009153690771199763,0.024307165294885635,0.00028833525720983744,0.00022721599088981748,0.0018472279189154506,0,2,-1000,0,0,0,-1,1,0,1500.0
17:44:34.235,AUTO,-35.3632622,149.1652375,5,-0.0006991609116084874,0.0009153690771199763,0.024307165294885635,0.00028833525720983744,0.00022721599088981748,0.0018472279189154506,0,2,-1000,0,0,0,-1,1,0,1500.0
17:44:34.439,AUTO,-35.3632622,149.1652375,5,-0.0006991609116084874,0.0009153690771199763,0.024307165294885635,0.00028833525720983744,0.00022721599088981748,0.0018472279189154506,0,2,-1000,0,0,0,-1,1,0,1500.0
17:44:34.641,AUTO,-35.3632622,149.1652375,5,-0.0006991609116084874,0.0009153690771199763,0.024307165294885635,0.00028833525720983744,0.00022721599088981748,0.0018472279189154506,0,2,-1000,0,0,0,-1,1,0,1500.0
17:44:34.844,AUTO,-35.3632621,149.1652375,724,0.0022346654441207647,0.0015984916826710105,0.022672919556498528,0.013270013965666294,0.0007824019412510097,-0.0005249938694760203,0,0,-1075,14,1,-1,0,0,-127,1500.0
17:44:35.046,AUTO,-35.3632619,149.1652382,2199,0.04595433920621872,-0.005521694198250771,0.02265581488609314,0.042544249445199966,-0.009589227847754955,0.0036707711406052113,0,-2,-1002,43,-8,2,3,21,-147,1500.0
17:44:35.248,AUTO,-35.3632618,149.1652389,2585,0.05596183240413666,-0.008212466724216938,0.022866468876600266,0.03889305144548416,-0.011312765069305897,0.0040558818727731705,1,-5,-1000,39,-10,3,5,31,-147,1500.0
17:44:35.451,AUTO,-35.3632618,149.1652389,2585,0.05596183240413666,-0.008212466724216938,0.022866468876600266,0.03889305144548416,-0.011312765069305897,0.0040558818727731705,1,-5,-1000,39,-10,3,5,31,-147,1500.0
17:44:35.653,AUTO,-35.3632618,149.1652389,2585,0.05596183240413666,-0.008212466724216938,0.022866468876600266,0.03889305144548416,-0.011312765069305897,0.0040558818727731705,1,-5,-1000,39,-10,3,5,31,-147,1500.0
17:44:35.854,AUTO,-35.3632618,149.1652389,2585,0.05596183240413666,-0.008212466724216938,0.022866468876600266,0.03889305144548416,-0.011312765069305897,0.0040558818727731705,1,-5,-1000,39,-10,3,5,31,-147,1500.0
17:44:36.056,AUTO,-35.3632618,149.1652389,2585,0.05596183240413666,-0.008212466724216938,0.022866468876600266,0.03889305144548416,-0.011312765069305897,0.0040558818727731705,1,-5,-1000,39,-10,3,5,31,-147,1500.0
17:44:36.258,AUTO,-35.3632618,149.1652389,2585,0.05596183240413666,-0.008212466724216938,0.022866468876600266,0.03889305144548416,-0.011312765069305897,0.0040558818727731705,1,-5,-1000,39,-10,3,5,31,-147,1500.0
17:44:36.459,AUTO,-35.3632618,149.1652389,2585,0.05596183240413666,-0.008212466724216938,0.022866468876600266,0.03889305144548416,-0.011312765069305897,0.0040558818727731705,1,-5,-1000,39,-10,3,5,31,-147,1500.0
17:44:36.661,AUTO,-35.3632618,149.1652389,2585,0.05596183240413666,-0.008212466724216938,0.022866468876600266,0.03889305144548416,-0.011312765069305897,0.0040558818727731705,1,-5,-1000,39,-10,3,5,31,-147,1500.0
17:44:36.863,AUTO,-35.3632609,149.1652449,4482,-0.054974593222141266,0.012273646891117096,-0.07608282566070557,-0.02193869650363922,-0.016312744468450546,-0.044428713619709015,4,-7,-1009,-21,-15,-45,0,27,-148,1500.0
17:44:37.065,AUTO,-35.3632609,149.1652456,5255,-0.06342947483062744,-0.00025033118436113,-0.08658014237880707,-0.019641095772385597,-0.029235998168587685,-0.01056862622499466,1,-1,-1000,-19,-28,-11,-3,-3,-148,1500.0
17:44:37.266,AUTO,-35.3632609,149.1652454,5640,-0.06136752665042877,-0.0037075390573590994,-0.09020024538040161,0.030959943309426308,-0.002528168261051178,-0.015398123301565647,0,2,-1002,31,-1,-16,-3,-19,-148,1500.0
17:44:37.470,AUTO,-35.3632609,149.1652454,5640,-0.06136752665042877,-0.0037075390573590994,-0.09020024538040161,0.030959943309426308,-0.002528168261051178,-0.015398123301565647,0,2,-1002,31,-1,-16,-3,-19,-148,1500.0
17:44:37.672,AUTO,-35.3632609,149.1652454,5640,-0.06136752665042877,-0.0037075390573590994,-0.09020024538040161,0.030959943309426308,-0.002528168261051178,-0.015398123301565647,0,2,-1002,31,-1,-16,-3,-19,-148,1500.0
17:44:37.874,AUTO,-35.3632609,149.1652454,5640,-0.06136752665042877,-0.0037075390573590994,-0.09020024538040161,0.030959943309426308,-0.002528168261051178,-0.015398123301565647,0,2,-1002,31,-1,-16,-3,-19,-148,1500.0
17:44:38.076,AUTO,-35.3632609,149.1652454,5640,-0.06136752665042877,-0.0037075390573590994,-0.09020024538040161,0.030959943309426308,-0.002528168261051178,-0.015398123301565647,0,2,-1002,31,-1,-16,-3,-19,-148,1500.0
17:44:38.280,AUTO,-35.3632609,149.1652454,5640,-0.06136752665042877,-0.0037075390573590994,-0.09020024538040161,0.030959943309426308,-0.002528168261051178,-0.015398123301565647,0,2,-1002,31,-1,-16,-3,-19,-148,1500.0
17:44:38.482,AUTO,-35.3632609,149.1652454,5640,-0.06136752665042877,-0.0037075390573590994,-0.09020024538040161,0.030959943309426308,-0.002528168261051178,-0.015398123301565647,0,2,-1002,31,-1,-16,-3,-19,-148,1500.0
17:44:38.684,AUTO,-35.3632609,149.1652454,5640,-0.06136752665042877,-0.0037075390573590994,-0.09020024538040161,0.030959943309426308,-0.002528168261051178,-0.015398123301565647,0,2,-1002,31,-1,-16,-3,-19,-148,1500.0
17:44:38.889,AUTO,-35.3632613,149.165241,7187,-0.00580558693036437,4.0260325476992875e-05,-0.09910616278648376,0.06291862577199936,0.008421404287219048,-0.00102808082010597,-6,10,-1002,63,8,-1,-6,-49,-150,1500.0
17:44:39.091,AUTO,-35.3632618,149.1652374,8363,0.031429048627614975,-0.0022006500512361526,-0.09062734991312027,0.011740236543118954,-0.022616876289248466,0.02828933857381344,-3,9,-999,12,-22,27,-8,-32,-151,1500.0
17:44:39.293,AUTO,-35.363262,149.1652366,8753,0.029948346316814423,-0.005563234444707632,-0.08491072058677673,-0.029660703614354134,-0.004964054096490145,0.01660752110183239,-3,7,-995,-29,-4,15,-6,-23,-151,1500.0
17:44:39.496,AUTO,-35.363262,149.1652366,8753,0.029948346316814423,-0.005563234444707632,-0.08491072058677673,-0.029660703614354134,-0.004964054096490145,0.01660752110183239,-3,7,-995,-29,-4,15,-6,-23,-151,1500.0
17:44:39.698,AUTO,-35.363262,149.1652366,8753,0.029948346316814423,-0.005563234444707632,-0.08491072058677673,-0.029660703614354134,-0.004964054096490145,0.01660752110183239,-3,7,-995,-29,-4,15,-6,-23,-151,1500.0
17:44:39.899,AUTO,-35.363262,149.1652366,8753,0.029948346316814423,-0.005563234444707632,-0.08491072058677673,-0.029660703614354134,-0.004964054096490145,0.01660752110183239,-3,7,-995,-29,-4,15,-6,-23,-151,1500.0
17:44:40.100,AUTO,-35.363262,149.1652366,8753,0.029948346316814423,-0.005563234444707632,-0.08491072058677673,-0.029660703614354134,-0.004964054096490145,0.01660752110183239,-3,7,-995,-29,-4,15,-6,-23,-151,1500.0
17:44:40.303,AUTO,-35.363262,149.1652366,8753,0.029948346316814423,-0.005563234444707632,-0.08491072058677673,-0.029660703614354134,-0.004964054096490145,0.01660752110183239,-3,7,-995,-29,-4,15,-6,-23,-151,1500.0
17:44:40.504,AUTO,-35.363262,149.1652366,8753,0.029948346316814423,-0.005563234444707632,-0.08491072058677673,-0.029660703614354134,-0.004964054096490145,0.01660752110183239,-3,7,-995,-29,-4,15,-6,-23,-151,1500.0
17:44:40.707,AUTO,-35.363262,149.1652366,8753,0.029948346316814423,-0.005563234444707632,-0.08491072058677673,-0.029660703614354134,-0.004964054096490145,0.01660752110183239,-3,7,-995,-29,-4,15,-6,-23,-151,1500.0
17:44:40.908,AUTO,-35.3632623,149.1652349,9918,0.024036811664700508,-0.004499392583966255,-0.08081909269094467,0.0528535321354866,-0.002594189951196313,0.0037791356444358826,-1,2,-1003,53,-1,2,-2,-12,-151,1500.0
17:44:41.109,AUTO,-35.3632623,149.1652346,11475,0.010024652816355228,0.0005211833631619811,-0.09404521435499191,-0.022910121828317642,0.0017383837839588523,-0.01669573411345482,0,-1,-1001,-22,2,-17,2,7,-150,1500.0
17:44:41.310,AUTO,-35.3632623,149.1652347,11865,0.004983199760317802,0.000841109489556402,-0.09905829280614853,-0.014550663530826569,0.0014268697705119848,-0.018637260422110558,0,-1,-1001,-14,1,-19,2,8,-150,1500.0
17:44:44.616,AUTO,-35.3632623,149.1652347,11865,0.004983199760317802,0.000841109489556402,-0.09905829280614853,-0.014550663530826569,0.0014268697705119848,-0.018637260422110558,0,-1,-1001,-14,1,-19,2,8,-150,1500.0
17:44:44.819,AUTO,-35.3632623,149.1652347,11865,0.004983199760317802,0.000841109489556402,-0.09905829280614853,-0.014550663530826569,0.0014268697705119848,-0.018637260422110558,0,-1,-1001,-14,1,-19,2,8,-150,1500.0
17:44:45.021,AUTO,-35.3632623,149.1652347,11865,0.004983199760317802,0.000841109489556402,-0.09905829280614853,-0.014550663530826569,0.0014268697705119848,-0.018637260422110558,0,-1,-1001,-14,1,-19,2,8,-150,1500.0
17:44:45.223,AUTO,-35.3632623,149.1652347,11865,0.004983199760317802,0.000841109489556402,-0.09905829280614853,-0.014550663530826569,0.0014268697705119848,-0.018637260422110558,0,-1,-1001,-14,1,-19,2,8,-150,1500.0
17:44:45.428,AUTO,-35.3632623,149.1652347,11865,0.004983199760317802,0.000841109489556402,-0.09905829280614853,-0.014550663530826569,0.0014268697705119848,-0.018637260422110558,0,-1,-1001,-14,1,-19,2,8,-150,1500.0
17:44:45.634,AUTO,-35.3632623,149.1652347,11865,0.004983199760317802,0.000841109489556402,-0.09905829280614853,-0.014550663530826569,0.0014268697705119848,-0.018637260422110558,0,-1,-1001,-14,1,-19,2,8,-150,1500.0
17:44:45.837,AUTO,-35.3632623,149.1652347,11865,0.004983199760317802,0.000841109489556402,-0.09905829280614853,-0.014550663530826569,0.0014268697705119848,-0.018637260422110558,0,-1,-1001,-14,1,-19,2,8,-150,1500.0
17:44:46.039,AUTO,-35.363262,149.1652352,13422,-0.0005693082930520177,0.0022448187228292227,-0.12069178372621536,0.0018008379265666008,0.0025879356544464827,-0.01968933269381523,0,-1,-1000,2,3,-20,2,3,-152,1500.0
17:44:46.243,AUTO,-35.3632618,149.1652353,14602,0.0032277232967317104,0.004333215765655041,-0.13703109323978424,0.00476863281801343,0.002897073980420828,-0.016987379640340805,0,0,-1000,5,3,-17,1,1,-152,1500.0
17:44:46.448,AUTO,-35.3632618,149.1652353,14602,0.0032277232967317104,0.004333215765655041,-0.13703109323978424,0.00476863281801343,0.002897073980420828,-0.016987379640340805,0,0,-1000,5,3,-17,1,1,-152,1500.0
17:44:46.651,AUTO,-35.3632618,149.1652353,14602,0.0032277232967317104,0.004333215765655041,-0.13703109323978424,0.00476863281801343,0.002897073980420828,-0.016987379640340805,0,0,-1000,5,3,-17,1,1,-152,1500.0
17:44:46.853,AUTO,-35.3632618,149.1652353,14602,0.0032277232967317104,0.004333215765655041,-0.13703109323978424,0.00476863281801343,0.002897073980420828,-0.016987379640340805,0,0,-1000,5,3,-17,1,1,-152,1500.0
17:44:47.056,AUTO,-35.3632618,149.1652353,14602,0.0032277232967317104,0.004333215765655041,-0.13703109323978424,0.00476863281801343,0.002897073980420828,-0.016987379640340805,0,0,-1000,5,3,-17,1,1,-152,1500.0
17:44:47.259,AUTO,-35.3632618,149.1652353,14602,0.0032277232967317104,0.004333215765655041,-0.13703109323978424,0.00476863281801343,0.002897073980420828,-0.016987379640340805,0,0,-1000,5,3,-17,1,1,-152,1500.0
17:44:47.464,AUTO,-35.3632618,149.1652353,14602,0.0032277232967317104,0.004333215765655041,-0.13703109323978424,0.00476863281801343,0.002897073980420828,-0.016987379640340805,0,0,-1000,5,3,-17,1,1,-152,1500.0
17:44:47.667,AUTO,-35.3632618,149.1652353,14602,0.0032277232967317104,0.004333215765655041,-0.13703109323978424,0.00476863281801343,0.002897073980420828,-0.016987379640340805,0,0,-1000,5,3,-17,1,1,-152,1500.0
17:44:47.869,AUTO,-35.3632618,149.1652353,14602,0.0032277232967317104,0.004333215765655041,-0.13703109323978424,0.00476863281801343,0.002897073980420828,-0.016987379640340805,0,0,-1000,5,3,-17,1,1,-152,1500.0
17:44:48.072,AUTO,-35.3632617,149.1652354,16082,0.005970245227217674,0.005714453291147947,-0.155220165848732,0.002258658641949296,0.0011060319375246763,-0.0176754929125309,0,0,-1000,2,1,-18,-1,3,-152,1500.0
17:44:48.275,AUTO,-35.3632617,149.1652357,17651,0.005283193662762642,0.0042183054611086845,-0.1711297631263733,-0.002318717073649168,0.0009866496548056602,-0.019230427220463753,0,0,-1000,-1,1,-19,-2,5,-152,1500.0
17:44:48.478,AUTO,-35.3632617,149.1652357,17651,0.005283193662762642,0.0042183054611086845,-0.1711297631263733,-0.002318717073649168,0.0009866496548056602,-0.019230427220463753,0,0,-1000,-1,1,-19,-2,5,-152,1500.0
17:44:48.681,AUTO,-35.3632617,149.1652357,17651,0.005283193662762642,0.0042183054611086845,-0.1711297631263733,-0.002318717073649168,0.0009866496548056602,-0.019230427220463753,0,0,-1000,-1,1,-19,-2,5,-152,1500.0
17:44:48.886,AUTO,-35.3632617,149.1652357,17651,0.005283193662762642,0.0042183054611086845,-0.1711297631263733,-0.002318717073649168,0.0009866496548056602,-0.019230427220463753,0,0,-1000,-1,1,-19,-2,5,-152,1500.0
17:44:49.089,AUTO,-35.3632617,149.1652357,17651,0.005283193662762642,0.0042183054611086845,-0.1711297631263733,-0.002318717073649168,0.0009866496548056602,-0.019230427220463753,0,0,-1000,-1,1,-19,-2,5,-152,1500.0
17:44:49.293,AUTO,-35.3632617,149.1652357,17651,0.005283193662762642,0.0042183054611086845,-0.1711297631263733,-0.002318717073649168,0.0009866496548056602,-0.019230427220463753,0,0,-1000,-1,1,-19,-2,5,-152,1500.0
17:44:49.497,AUTO,-35.3632617,149.1652361,19758,0.0029883526731282473,0.0036964500322937965,-0.19535256922245026,0.000961942074354738,-0.00037833870737813413,-0.01822044886648655,0,0,-1000,1,0,-18,-2,5,-153,1500.0
17:44:49.699,AUTO,-35.3632617,149.1652361,19758,0.0029883526731282473,0.0036964500322937965,-0.19535256922245026,0.000961942074354738,-0.00037833870737813413,-0.01822044886648655,0,0,-1000,1,0,-18,-2,5,-153,1500.0
17:44:49.900,AUTO,-35.3632617,149.1652361,19758,0.0029883526731282473,0.0036964500322937965,-0.19535256922245026,0.000961942074354738,-0.00037833870737813413,-0.01822044886648655,0,0,-1000,1,0,-18,-2,5,-153,1500.0
17:44:50.102,AUTO,-35.3632617,149.1652361,19758,0.0029883526731282473,0.0036964500322937965,-0.19535256922245026,0.000961942074354738,-0.00037833870737813413,-0.01822044886648655,0,0,-1000,1,0,-18,-2,5,-153,1500.0
17:44:50.303,AUTO,-35.3632617,149.1652361,19758,0.0029883526731282473,0.0036964500322937965,-0.19535256922245026,0.000961942074354738,-0.00037833870737813413,-0.01822044886648655,0,0,-1000,1,0,-18,-2,5,-153,1500.0
17:44:50.507,AUTO,-35.3632617,149.1652361,19758,0.0029883526731282473,0.0036964500322937965,-0.19535256922245026,0.000961942074354738,-0.00037833870737813413,-0.01822044886648655,0,0,-1000,1,0,-18,-2,5,-153,1500.0
17:44:50.708,AUTO,-35.3632618,149.1652365,21638,0.0027523573953658342,0.003484825138002634,-0.21857868134975433,0.0016756088007241488,-0.0002516160311643034,-0.0188128799200058,0,0,-1000,2,0,-19,-2,4,-153,1500.0
17:44:50.911,AUTO,-35.3632618,149.1652365,22030,0.0024359917733818293,0.003239759709686041,-0.22329801321029663,-0.000345038715749979,-0.00216466560959816,-0.01819375343620777,0,0,-1000,0,-1,-19,-2,3,-153,1500.0
17:44:51.114,AUTO,-35.3632618,149.1652366,22422,0.0023782211355865,0.0030398922972381115,-0.22808486223220825,-0.0003168649272993207,0.0009023375459946692,-0.02030225843191147,0,0,-1000,0,1,-20,-2,3,-153,1500.0
17:44:51.316,AUTO,-35.3632618,149.1652366,22422,0.0023782211355865,0.0030398922972381115,-0.22808486223220825,-0.0003168649272993207,0.0009023375459946692,-0.02030225843191147,0,0,-1000,0,1,-20,-2,3,-153,1500.0
17:44:51.519,AUTO,-35.3632618,149.1652366,22812,0.002380554098635912,0.003126411000266671,-0.23296353220939636,0.0016187282744795084,0.0008366524707525969,-0.020828910171985626,0,0,-1000,2,1,-21,-2,3,-153,1500.0
17:44:51.728,AUTO,-35.3632618,149.1652366,22812,0.002380554098635912,0.003126411000266671,-0.23296353220939636,0.0016187282744795084,0.0008366524707525969,-0.020828910171985626,0,0,-1000,2,1,-21,-2,3,-153,1500.0
17:44:51.930,AUTO,-35.3632618,149.1652366,22812,0.002380554098635912,0.003126411000266671,-0.23296353220939636,0.0016187282744795084,0.0008366524707525969,-0.020828910171985626,0,0,-1000,2,1,-21,-2,3,-153,1500.0
17:44:52.132,AUTO,-35.3632618,149.1652366,22812,0.002380554098635912,0.003126411000266671,-0.23296353220939636,0.0016187282744795084,0.0008366524707525969,-0.020828910171985626,0,0,-1000,2,1,-21,-2,3,-153,1500.0
17:44:52.334,AUTO,-35.3632618,149.1652366,22812,0.002380554098635912,0.003126411000266671,-0.23296353220939636,0.0016187282744795084,0.0008366524707525969,-0.020828910171985626,0,0,-1000,2,1,-21,-2,3,-153,1500.0
17:44:52.535,AUTO,-35.3632618,149.1652366,22812,0.002380554098635912,0.003126411000266671,-0.23296353220939636,0.0016187282744795084,0.0008366524707525969,-0.020828910171985626,0,0,-1000,2,1,-21,-2,3,-153,1500.0
17:44:52.738,AUTO,-35.3632618,149.1652366,22812,0.002380554098635912,0.003126411000266671,-0.23296353220939636,0.0016187282744795084,0.0008366524707525969,-0.020828910171985626,0,0,-1000,2,1,-21,-2,3,-153,1500.0
17:44:52.939,AUTO,-35.3632619,149.1652367,24376,0.0030554188415408134,0.0028281244449317455,-0.2522926330566406,-0.0026855014730244875,0.0004542475217022002,-0.018625309690833092,0,0,-1000,2,0,-19,-2,3,-153,1500.0
17:44:53.141,AUTO,-35.363262,149.1652368,25544,-0.009423037059605122,0.006091446615755558,-0.2544025480747223,0.012241601012647152,0.003989309538155794,0.02290770225226879,0,0,-1004,12,4,22,-3,0,-152,1500.0
17:44:53.343,AUTO,-35.363262,149.1652368,25544,-0.009423037059605122,0.006091446615755558,-0.2544025480747223,0.012241601012647152,0.003989309538155794,0.02290770225226879,0,0,-1004,12,4,22,-3,0,-152,1500.0
17:44:53.545,AUTO,-35.363262,149.1652368,25934,-0.002483200980350375,0.005572842434048653,-0.247653067111969,0.033014435321092606,-0.005036564078181982,0.028517914935946465,0,0,-1003,33,-4,28,-5,-1,-153,1500.0
17:44:53.746,AUTO,-35.363262,149.1652368,25934,-0.002483200980350375,0.005572842434048653,-0.247653067111969,0.033014435321092606,-0.005036564078181982,0.028517914935946465,0,0,-1003,33,-4,28,-5,-1,-153,1500.0
17:44:53.948,AUTO,-35.363262,149.1652368,25934,-0.002483200980350375,0.005572842434048653,-0.247653067111969,0.033014435321092606,-0.005036564078181982,0.028517914935946465,0,0,-1003,33,-4,28,-5,-1,-153,1500.0
17:44:54.149,AUTO,-35.363262,149.1652368,25934,-0.002483200980350375,0.005572842434048653,-0.247653067111969,0.033014435321092606,-0.005036564078181982,0.028517914935946465,0,0,-1003,33,-4,28,-5,-1,-153,1500.0
17:44:54.351,AUTO,-35.363262,149.1652368,25934,-0.002483200980350375,0.005572842434048653,-0.247653067111969,0.033014435321092606,-0.005036564078181982,0.028517914935946465,0,0,-1003,33,-4,28,-5,-1,-153,1500.0
17:44:54.553,AUTO,-35.363262,149.1652368,25934,-0.002483200980350375,0.005572842434048653,-0.247653067111969,0.033014435321092606,-0.005036564078181982,0.028517914935946465,0,0,-1003,33,-4,28,-5,-1,-153,1500.0
17:44:54.755,AUTO,-35.363262,149.1652368,25934,-0.002483200980350375,0.005572842434048653,-0.247653067111969,0.033014435321092606,-0.005036564078181982,0.028517914935946465,0,0,-1003,33,-4,28,-5,-1,-153,1500.0
17:44:54.956,AUTO,-35.363262,149.1652368,25934,-0.002483200980350375,0.005572842434048653,-0.247653067111969,0.033014435321092606,-0.005036564078181982,0.028517914935946465,0,0,-1003,33,-4,28,-5,-1,-153,1500.0
17:44:55.157,AUTO,-35.3632625,149.1652369,28511,0.007105275988578796,0.0006054472178220749,-0.20381413400173187,-0.006224862765520811,1.6659789253026247e-05,0.02237953245639801,0,0,-1000,-6,3,21,-1,7,-152,1500.0
17:44:55.360,AUTO,-35.3632625,149.1652371,28901,0.005114967003464699,0.00047538219951093197,-0.1987532079219818,-0.010718296281993389,-0.002202466828748584,0.021113844588398933,0,-1,-1000,-9,-1,20,0,8,-152,1500.0
17:44:55.563,AUTO,-35.3632625,149.1652371,28901,0.005114967003464699,0.00047538219951093197,-0.1987532079219818,-0.010718296281993389,-0.002202466828748584,0.021113844588398933,0,-1,-1000,-9,-1,20,0,8,-152,1500.0
17:44:55.766,AUTO,-35.3632625,149.1652371,28901,0.005114967003464699,0.00047538219951093197,-0.1987532079219818,-0.010718296281993389,-0.002202466828748584,0.021113844588398933,0,-1,-1000,-9,-1,20,0,8,-152,1500.0
17:44:55.968,AUTO,-35.3632625,149.1652371,28901,0.005114967003464699,0.00047538219951093197,-0.1987532079219818,-0.010718296281993389,-0.002202466828748584,0.021113844588398933,0,-1,-1000,-9,-1,20,0,8,-152,1500.0
17:44:56.173,AUTO,-35.3632625,149.1652371,28901,0.005114967003464699,0.00047538219951093197,-0.1987532079219818,-0.010718296281993389,-0.002202466828748584,0.021113844588398933,0,-1,-1000,-9,-1,20,0,8,-152,1500.0
17:44:56.374,AUTO,-35.3632625,149.1652371,28901,0.005114967003464699,0.00047538219951093197,-0.1987532079219818,-0.010718296281993389,-0.002202466828748584,0.021113844588398933,0,-1,-1000,-9,-1,20,0,8,-152,1500.0
17:44:56.575,AUTO,-35.3632625,149.1652371,28901,0.005114967003464699,0.00047538219951093197,-0.1987532079219818,-0.010718296281993389,-0.002202466828748584,0.021113844588398933,0,-1,-1000,-9,-1,20,0,8,-152,1500.0
17:44:56.777,AUTO,-35.3632625,149.1652371,28901,0.005114967003464699,0.00047538219951093197,-0.1987532079219818,-0.010718296281993389,-0.002202466828748584,0.021113844588398933,0,-1,-1000,-9,-1,20,0,8,-152,1500.0
17:44:56.979,AUTO,-35.3632625,149.1652377,30453,0.000670120120048523,0.0011533456854522228,-0.18052774667739868,-1.0264746379107237e-05,0.00014756189193576574,0.018034134060144424,0,-1,-1000,0,1,17,0,6,-153,1500.0
17:44:57.181,AUTO,-35.3632624,149.1652379,31622,-9.671740554040298e-05,0.001986071700230241,-0.1679975986480713,-0.0023472756147384644,0.0014947040472179651,0.017282171174883842,0,0,-1000,-1,2,16,0,3,-153,1500.0
17:44:57.383,AUTO,-35.3632623,149.165238,32011,0.00017117300012614578,0.0019592938479036093,-0.16408605873584747,0.004795052111148834,-0.0006004733731970191,0.017378831282258034,0,0,-1001,5,0,17,0,2,-153,1500.0
17:44:57.586,AUTO,-35.3632623,149.165238,32011,0.00017117300012614578,0.0019592938479036093,-0.16408605873584747,0.004795052111148834,-0.0006004733731970191,0.017378831282258034,0,0,-1001,5,0,17,0,2,-153,1500.0
17:44:57.787,AUTO,-35.3632623,149.165238,32011,0.00017117300012614578,0.0019592938479036093,-0.16408605873584747,0.004795052111148834,-0.0006004733731970191,0.017378831282258034,0,0,-1001,5,0,17,0,2,-153,1500.0
17:44:57.990,AUTO,-35.3632623,149.165238,32011,0.00017117300012614578,0.0019592938479036093,-0.16408605873584747,0.004795052111148834,-0.0006004733731970191,0.017378831282258034,0,0,-1001,5,0,17,0,2,-153,1500.0
17:44:58.192,AUTO,-35.3632623,149.165238,32011,0.00017117300012614578,0.0019592938479036093,-0.16408605873584747,0.004795052111148834,-0.0006004733731970191,0.017378831282258034,0,0,-1001,5,0,17,0,2,-153,1500.0
17:44:58.394,AUTO,-35.3632623,149.165238,32011,0.00017117300012614578,0.0019592938479036093,-0.16408605873584747,0.004795052111148834,-0.0006004733731970191,0.017378831282258034,0,0,-1001,5,0,17,0,2,-153,1500.0
17:44:58.596,AUTO,-35.3632623,149.165238,32011,0.00017117300012614578,0.0019592938479036093,-0.16408605873584747,0.004795052111148834,-0.0006004733731970191,0.017378831282258034,0,0,-1001,5,0,17,0,2,-153,1500.0
17:44:58.797,AUTO,-35.3632623,149.165238,32011,0.00017117300012614578,0.0019592938479036093,-0.16408605873584747,0.004795052111148834,-0.0006004733731970191,0.017378831282258034,0,0,-1001,5,0,17,0,2,-153,1500.0
17:44:58.999,AUTO,-35.3632623,149.165238,33181,0.0009165620431303978,0.0018746766727417707,-0.153403639793396,0.0019384261686354876,-0.001579701667651534,0.015667133033275604,0,0,-1000,2,0,15,0,1,-153,1500.0
17:44:59.201,AUTO,-35.3632622,149.165238,34740,0.0019891224801540375,0.000987235689535737,-0.14072056114673615,-0.0003947865916416049,-0.0010590527672320604,0.011040247045457363,0,0,-1000,0,0,10,0,0,-153,1500.0
17:44:59.402,AUTO,-35.3632622,149.1652379,35130,0.0019816611893475056,0.0008688416564837098,-0.13777251541614532,0.0028419189620763063,0.0011876552598550916,0.0124015212059021,0,0,-1000,3,1,12,0,0,-153,1500.0
17:44:59.606,AUTO,-35.3632622,149.1652379,35130,0.0019816611893475056,0.0008688416564837098,-0.13777251541614532,0.0028419189620763063,0.0011876552598550916,0.0124015212059021,0,0,-1000,3,1,12,0,0,-153,1500.0
17:44:59.808,AUTO,-35.3632622,149.1652379,35130,0.0019816611893475056,0.0008688416564837098,-0.13777251541614532,0.0028419189620763063,0.0011876552598550916,0.0124015212059021,0,0,-1000,3,1,12,0,0,-153,1500.0
17:45:00.009,AUTO,-35.3632622,149.1652379,35130,0.0019816611893475056,0.0008688416564837098,-0.13777251541614532,0.0028419189620763063,0.0011876552598550916,0.0124015212059021,0,0,-1000,3,1,12,0,0,-153,1500.0
17:45:00.211,AUTO,-35.3632622,149.1652379,35130,0.0019816611893475056,0.0008688416564837098,-0.13777251541614532,0.0028419189620763063,0.0011876552598550916,0.0124015212059021,0,0,-1000,3,1,12,0,0,-153,1500.0
17:45:00.412,AUTO,-35.3632622,149.1652379,35130,0.0019816611893475056,0.0008688416564837098,-0.13777251541614532,0.0028419189620763063,0.0011876552598550916,0.0124015212059021,0,0,-1000,3,1,12,0,0,-153,1500.0
17:45:00.616,AUTO,-35.3632622,149.1652379,35130,0.0019816611893475056,0.0008688416564837098,-0.13777251541614532,0.0028419189620763063,0.0011876552598550916,0.0124015212059021,0,0,-1000,3,1,12,0,0,-153,1500.0
17:45:00.819,AUTO,-35.3632622,149.1652379,35130,0.0019816611893475056,0.0008688416564837098,-0.13777251541614532,0.0028419189620763063,0.0011876552598550916,0.0124015212059021,0,0,-1000,3,1,12,0,0,-153,1500.0
17:45:01.021,AUTO,-35.3632622,149.1652379,35130,0.0019816611893475056,0.0008688416564837098,-0.13777251541614532,0.0028419189620763063,0.0011876552598550916,0.0124015212059021,0,0,-1000,3,1,12,0,0,-153,1500.0
17:45:01.227,AUTO,-35.3632621,149.1652376,37861,0.002995483810082078,0.0017328226240351796,-0.12042407691478729,-0.005097456742078066,-0.0011677436996251345,0.007610533386468887,0,0,-1000,-4,0,7,0,0,-153,1500.0
17:45:01.429,AUTO,-35.3632621,149.1652376,38250,0.0028203793335705996,0.0015125734498724341,-0.11833159625530243,0.0013302951119840145,-0.001680540619418025,0.009881824254989624,0,0,-1000,2,0,9,0,0,-153,1500.0
17:45:01.631,AUTO,-35.3632621,149.1652376,38250,0.0028203793335705996,0.0015125734498724341,-0.11833159625530243,0.0013302951119840145,-0.001680540619418025,0.009881824254989624,0,0,-1000,2,0,9,0,0,-153,1500.0
17:45:01.833,AUTO,-35.3632621,149.1652376,38250,0.0028203793335705996,0.0015125734498724341,-0.11833159625530243,0.0013302951119840145,-0.001680540619418025,0.009881824254989624,0,0,-1000,2,0,9,0,0,-153,1500.0
17:45:02.038,AUTO,-35.3632621,149.1652376,38250,0.0028203793335705996,0.0015125734498724341,-0.11833159625530243,0.0013302951119840145,-0.001680540619418025,0.009881824254989624,0,0,-1000,2,0,9,0,0,-153,1500.0
17:45:02.240,AUTO,-35.3632621,149.1652376,38250,0.0028203793335705996,0.0015125734498724341,-0.11833159625530243,0.0013302951119840145,-0.001680540619418025,0.009881824254989624,0,0,-1000,2,0,9,0,0,-153,1500.0
17:45:02.442,AUTO,-35.3632621,149.1652376,38250,0.0028203793335705996,0.0015125734498724341,-0.11833159625530243,0.0013302951119840145,-0.001680540619418025,0.009881824254989624,0,0,-1000,2,0,9,0,0,-153,1500.0
17:45:02.648,AUTO,-35.3632621,149.1652376,38250,0.0028203793335705996,0.0015125734498724341,-0.11833159625530243,0.0013302951119840145,-0.001680540619418025,0.009881824254989624,0,0,-1000,2,0,9,0,0,-153,1500.0
17:45:02.851,AUTO,-35.3632621,149.1652376,38250,0.0028203793335705996,0.0015125734498724341,-0.11833159625530243,0.0013302951119840145,-0.001680540619418025,0.009881824254989624,0,0,-1000,2,0,9,0,0,-153,1500.0
17:45:03.053,AUTO,-35.3632621,149.1652375,40584,0.002337713958695531,0.0010234098881483078,-0.10672987997531891,0.0009866547770798206,-0.0006139404140412807,0.006026737857609987,0,0,-1000,4,2,8,0,0,-153,1500.0
17:45:03.254,AUTO,-35.3632621,149.1652375,40974,0.002192980842664838,0.0009490185184404254,-0.1050603985786438,-0.0038435724563896656,-0.0003974009887315333,0.007171429228037596,0,0,-1000,-2,0,6,0,0,-153,1500.0
17:45:03.456,AUTO,-35.3632621,149.1652375,41363,0.0024618562310934067,0.001185026834718883,-0.10330799221992493,0.003077438101172447,-0.00017552718054503202,0.00796105619519949,0,0,-1000,3,0,7,0,0,-153,1500.0
17:45:03.657,AUTO,-35.3632621,149.1652375,41363,0.0024618562310934067,0.001185026834718883,-0.10330799221992493,0.003077438101172447,-0.00017552718054503202,0.00796105619519949,0,0,-1000,3,0,7,0,0,-153,1500.0
17:45:03.859,AUTO,-35.3632621,149.1652375,41363,0.0024618562310934067,0.001185026834718883,-0.10330799221992493,0.003077438101172447,-0.00017552718054503202,0.00796105619519949,0,0,-1000,3,0,7,0,0,-153,1500.0
17:45:04.060,AUTO,-35.3632621,149.1652375,41363,0.0024618562310934067,0.001185026834718883,-0.10330799221992493,0.003077438101172447,-0.00017552718054503202,0.00796105619519949,0,0,-1000,3,0,7,0,0,-153,1500.0
17:45:04.262,AUTO,-35.3632621,149.1652375,41363,0.0024618562310934067,0.001185026834718883,-0.10330799221992493,0.003077438101172447,-0.00017552718054503202,0.00796105619519949,0,0,-1000,3,0,7,0,0,-153,1500.0
17:45:04.464,AUTO,-35.3632621,149.1652375,41363,0.0024618562310934067,0.001185026834718883,-0.10330799221992493,0.003077438101172447,-0.00017552718054503202,0.00796105619519949,0,0,-1000,3,0,7,0,0,-153,1500.0
17:45:04.668,AUTO,-35.3632621,149.1652375,41363,0.0024618562310934067,0.001185026834718883,-0.10330799221992493,0.003077438101172447,-0.00017552718054503202,0.00796105619519949,0,0,-1000,3,0,7,0,0,-153,1500.0
17:45:04.869,AUTO,-35.3632621,149.1652375,41363,0.0024618562310934067,0.001185026834718883,-0.10330799221992493,0.003077438101172447,-0.00017552718054503202,0.00796105619519949,0,0,-1000,3,0,7,0,0,-153,1500.0
17:45:05.072,AUTO,-35.363262,149.1652374,42925,0.0021692507434636354,0.0015521043678745627,-0.09690679609775543,-0.0045888833701610565,-0.002153573790565133,0.006733092945069075,0,0,-1000,-3,-1,6,-1,1,-153,1500.0
17:45:05.273,AUTO,-35.363262,149.1652374,44094,0.002036279533058405,0.0011459117522463202,-0.09242676198482513,0.001455368590541184,-9.570876136422157e-05,0.008024887181818485,0,0,-999,2,1,8,-1,0,-153,1500.0
17:45:05.474,AUTO,-35.363262,149.1652374,44491,0.0021512529347091913,0.0011789605487138033,-0.0908600240945816,-0.0005558459088206291,0.001187122892588377,0.005328889470547438,0,0,-1000,0,2,5,-1,0,-153,1500.0
17:45:05.676,AUTO,-35.363262,149.1652374,44491,0.0021512529347091913,0.0011789605487138033,-0.0908600240945816,-0.0005558459088206291,0.001187122892588377,0.005328889470547438,0,0,-1000,0,2,5,-1,0,-153,1500.0
17:45:05.877,AUTO,-35.363262,149.1652374,44491,0.0021512529347091913,0.0011789605487138033,-0.0908600240945816,-0.0005558459088206291,0.001187122892588377,0.005328889470547438,0,0,-1000,0,2,5,-1,0,-153,1500.0
17:45:06.079,AUTO,-35.363262,149.1652374,44491,0.0021512529347091913,0.0011789605487138033,-0.0908600240945816,-0.0005558459088206291,0.001187122892588377,0.005328889470547438,0,0,-1000,0,2,5,-1,0,-153,1500.0
17:45:06.282,AUTO,-35.363262,149.1652374,44491,0.0021512529347091913,0.0011789605487138033,-0.0908600240945816,-0.0005558459088206291,0.001187122892588377,0.005328889470547438,0,0,-1000,0,2,5,-1,0,-153,1500.0
17:45:06.484,AUTO,-35.363262,149.1652374,44491,0.0021512529347091913,0.0011789605487138033,-0.0908600240945816,-0.0005558459088206291,0.001187122892588377,0.005328889470547438,0,0,-1000,0,2,5,-1,0,-153,1500.0
17:45:06.686,AUTO,-35.363262,149.1652374,44491,0.0021512529347091913,0.0011789605487138033,-0.0908600240945816,-0.0005558459088206291,0.001187122892588377,0.005328889470547438,0,0,-1000,0,2,5,-1,0,-153,1500.0
17:45:06.889,AUTO,-35.363262,149.1652374,44491,0.0021512529347091913,0.0011789605487138033,-0.0908600240945816,-0.0005558459088206291,0.001187122892588377,0.005328889470547438,0,0,-1000,0,2,5,-1,0,-153,1500.0
17:45:07.091,AUTO,-35.363262,149.1652373,46820,0.0023654839023947716,0.0010712102521210909,-0.08270129561424255,0.0012386474991217256,-0.0001558830263093114,0.009827486239373684,0,0,-999,1,0,10,-1,1,-153,1500.0
17:45:07.293,AUTO,-35.363262,149.1652373,47210,0.0023153331130743027,0.0008659480954520404,-0.08115608245134354,0.0005733048310503364,-0.0005455199861899018,0.007593460846692324,0,0,-1000,1,0,7,-1,1,-153,1500.0
17:45:07.494,AUTO,-35.363262,149.1652373,47599,0.0023745279759168625,0.0012685051187872887,-0.0799623429775238,0.0007063540397211909,0.00012082094326615334,0.004035198595374823,0,0,-1001,1,1,3,-1,1,-153,1500.0
17:45:07.696,AUTO,-35.363262,149.1652373,47599,0.0023745279759168625,0.0012685051187872887,-0.0799623429775238,0.0007063540397211909,0.00012082094326615334,0.004035198595374823,0,0,-1001,1,1,3,-1,1,-153,1500.0
17:45:07.899,AUTO,-35.363262,149.1652373,47599,0.0023745279759168625,0.0012685051187872887,-0.0799623429775238,0.0007063540397211909,0.00012082094326615334,0.004035198595374823,0,0,-1001,1,1,3,-1,1,-153,1500.0
17:45:08.100,AUTO,-35.363262,149.1652373,47599,0.0023745279759168625,0.0012685051187872887,-0.0799623429775238,0.0007063540397211909,0.00012082094326615334,0.004035198595374823,0,0,-1001,1,1,3,-1,1,-153,1500.0
17:45:08.302,AUTO,-35.363262,149.1652373,47599,0.0023745279759168625,0.0012685051187872887,-0.0799623429775238,0.0007063540397211909,0.00012082094326615334,0.004035198595374823,0,0,-1001,1,1,3,-1,1,-153,1500.0
17:45:08.506,AUTO,-35.363262,149.1652373,47599,0.0023745279759168625,0.0012685051187872887,-0.0799623429775238,0.0007063540397211909,0.00012082094326615334,0.004035198595374823,0,0,-1001,1,1,3,-1,1,-153,1500.0
17:45:08.708,AUTO,-35.363262,149.1652373,47599,0.0023745279759168625,0.0012685051187872887,-0.0799623429775238,0.0007063540397211909,0.00012082094326615334,0.004035198595374823,0,0,-1001,1,1,3,-1,1,-153,1500.0
17:45:08.909,AUTO,-35.363262,149.1652373,47599,0.0023745279759168625,0.0012685051187872887,-0.0799623429775238,0.0007063540397211909,0.00012082094326615334,0.004035198595374823,0,0,-1001,1,1,3,-1,1,-153,1500.0
17:45:09.111,AUTO,-35.3632642,149.1652339,49336,0.010488519445061684,-0.04507364705204964,0.3176502287387848,-0.015528661198914051,-0.07380607724189758,0.0303439199924469,2,5,-948,-14,-72,30,-22,-34,-62,1500.0
17:45:09.313,AUTO,-35.3632645,149.1652331,49481,0.027658401057124138,-0.05529606714844704,0.31814104318618774,0.12855447828769684,-0.017353372648358345,-0.007244793698191643,0,16,-961,131,-16,-7,-12,-23,-50,1500.0
17:45:09.515,AUTO,-35.3632647,149.1652325,49598,0.04440711438655853,-0.05529552698135376,0.3123834729194641,0.44950565695762634,0.009155412204563618,-0.03070705570280552,0,14,-942,449,10,-30,-2,-11,-39,1500.0
17:45:09.716,AUTO,-35.3632647,149.1652325,49598,0.04440711438655853,-0.05529552698135376,0.3123834729194641,0.44950565695762634,0.009155412204563618,-0.03070705570280552,0,14,-942,449,10,-30,-2,-11,-39,1500.0
17:45:09.917,AUTO,-35.3632647,149.1652325,49598,0.04440711438655853,-0.05529552698135376,0.3123834729194641,0.44950565695762634,0.009155412204563618,-0.03070705570280552,0,14,-942,449,10,-30,-2,-11,-39,1500.0
17:45:10.119,AUTO,-35.3632647,149.1652325,49598,0.04440711438655853,-0.05529552698135376,0.3123834729194641,0.44950565695762634,0.009155412204563618,-0.03070705570280552,0,14,-942,449,10,-30,-2,-11,-39,1500.0
17:45:10.323,AUTO,-35.3632647,149.1652325,49598,0.04440711438655853,-0.05529552698135376,0.3123834729194641,0.44950565695762634,0.009155412204563618,-0.03070705570280552,0,14,-942,449,10,-30,-2,-11,-39,1500.0
17:45:10.527,AUTO,-35.3632647,149.1652325,49598,0.04440711438655853,-0.05529552698135376,0.3123834729194641,0.44950565695762634,0.009155412204563618,-0.03070705570280552,0,14,-942,449,10,-30,-2,-11,-39,1500.0
17:45:10.729,AUTO,-35.3632647,149.1652325,49598,0.04440711438655853,-0.05529552698135376,0.3123834729194641,0.44950565695762634,0.009155412204563618,-0.03070705570280552,0,14,-942,449,10,-30,-2,-11,-39,1500.0
17:45:10.933,AUTO,-35.3632642,149.1652329,49796,0.02527082897722721,-0.02569025382399559,0.2850787043571472,-0.4366244375705719,0.046788427978754044,-0.029733581468462944,-2,-7,-999,-433,47,-29,17,20,-21,1500.0
17:45:11.136,AUTO,-35.3632625,149.1652359,50006,0.0029648577328771353,0.009172064252197742,0.25338485836982727,-0.4930849075317383,0.019017180427908897,-0.03379787504673004,0,-42,-959,-495,20,-33,19,29,-15,1500.0
17:45:11.338,AUTO,-35.3632625,149.1652359,50006,0.0029648577328771353,0.009172064252197742,0.25338485836982727,-0.4930849075317383,0.019017180427908897,-0.03379787504673004,0,-42,-959,-495,20,-33,19,29,-15,1500.0
17:45:11.540,AUTO,-35.3632621,149.1652369,50028,-0.028293393552303314,0.03688972443342209,0.2495357096195221,-0.5752590298652649,0.1280210316181183,-0.05693944916129112,3,-13,-933,-571,128,-56,15,26,-3,1500.0
17:45:11.742,AUTO,-35.3632621,149.1652369,50028,-0.028293393552303314,0.03688972443342209,0.2495357096195221,-0.5752590298652649,0.1280210316181183,-0.05693944916129112,3,-13,-933,-571,128,-56,15,26,-3,1500.0
17:45:11.944,AUTO,-35.3632621,149.1652369,50028,-0.028293393552303314,0.03688972443342209,0.2495357096195221,-0.5752590298652649,0.1280210316181183,-0.05693944916129112,3,-13,-933,-571,128,-56,15,26,-3,1500.0
17:45:12.146,AUTO,-35.3632621,149.1652369,50028,-0.028293393552303314,0.03688972443342209,0.2495357096195221,-0.5752590298652649,0.1280210316181183,-0.05693944916129112,3,-13,-933,-571,128,-56,15,26,-3,1500.0
17:45:12.347,AUTO,-35.3632621,149.1652369,50028,-0.028293393552303314,0.03688972443342209,0.2495357096195221,-0.5752590298652649,0.1280210316181183,-0.05693944916129112,3,-13,-933,-571,128,-56,15,26,-3,1500.0
17:45:12.550,AUTO,-35.3632621,149.1652369,50028,-0.028293393552303314,0.03688972443342209,0.2495357096195221,-0.5752590298652649,0.1280210316181183,-0.05693944916129112,3,-13,-933,-571,128,-56,15,26,-3,1500.0
17:45:12.751,AUTO,-35.3632621,149.1652369,50028,-0.028293393552303314,0.03688972443342209,0.2495357096195221,-0.5752590298652649,0.1280210316181183,-0.05693944916129112,3,-13,-933,-571,128,-56,15,26,-3,1500.0
17:45:12.952,AUTO,-35.3632621,149.1652369,50028,-0.028293393552303314,0.03688972443342209,0.2495357096195221,-0.5752590298652649,0.1280210316181183,-0.05693944916129112,3,-13,-933,-571,128,-56,15,26,-3,1500.0
17:45:13.157,AUTO,-35.3632611,149.1652369,49981,-0.06097283959388733,-0.03156633302569389,0.19956229627132416,0.23303839564323425,-0.02298254519701004,-0.022887203842401505,-7,32,-1010,237,-21,-22,25,-45,-3,1500.0
17:45:13.358,AUTO,-35.3632611,149.1652369,49981,-0.06097283959388733,-0.03156633302569389,0.19956229627132416,0.23303839564323425,-0.02298254519701004,-0.022887203842401505,-7,32,-1010,237,-21,-22,25,-45,-3,1500.0
17:45:13.560,AUTO,-35.3632606,149.1652359,49986,-0.052807681262493134,-0.0382724367082119,0.18529123067855835,0.6673087477684021,-0.0359964556992054,-0.15868650376796722,-8,35,-1005,669,-34,-158,34,-55,-3,1500.0
17:45:13.762,AUTO,-35.3632606,149.1652359,49986,-0.052807681262493134,-0.0382724367082119,0.18529123067855835,0.6673087477684021,-0.0359964556992054,-0.15868650376796722,-8,35,-1005,669,-34,-158,34,-55,-3,1500.0
17:45:13.965,AUTO,-35.3632606,149.1652359,49986,-0.052807681262493134,-0.0382724367082119,0.18529123067855835,0.6673087477684021,-0.0359964556992054,-0.15868650376796722,-8,35,-1005,669,-34,-158,34,-55,-3,1500.0
17:45:14.167,AUTO,-35.3632606,149.1652359,49986,-0.052807681262493134,-0.0382724367082119,0.18529123067855835,0.6673087477684021,-0.0359964556992054,-0.15868650376796722,-8,35,-1005,669,-34,-158,34,-55,-3,1500.0
17:45:14.368,AUTO,-35.3632606,149.1652359,49986,-0.052807681262493134,-0.0382724367082119,0.18529123067855835,0.6673087477684021,-0.0359964556992054,-0.15868650376796722,-8,35,-1005,669,-34,-158,34,-55,-3,1500.0
17:45:14.570,AUTO,-35.3632606,149.1652359,49986,-0.052807681262493134,-0.0382724367082119,0.18529123067855835,0.6673087477684021,-0.0359964556992054,-0.15868650376796722,-8,35,-1005,669,-34,-158,34,-55,-3,1500.0
17:45:14.774,AUTO,-35.3632606,149.1652359,49986,-0.052807681262493134,-0.0382724367082119,0.18529123067855835,0.6673087477684021,-0.0359964556992054,-0.15868650376796722,-8,35,-1005,669,-34,-158,34,-55,-3,1500.0
17:45:14.976,AUTO,-35.3632606,149.1652359,49986,-0.052807681262493134,-0.0382724367082119,0.18529123067855835,0.6673087477684021,-0.0359964556992054,-0.15868650376796722,-8,35,-1005,669,-34,-158,34,-55,-3,1500.0
17:45:15.178,AUTO,-35.3632578,149.1652308,49987,-0.04667878523468971,-0.08548711985349655,-0.33324047923088074,-0.6414015293121338,-0.00708600552752614,-0.8606183528900146,-8,35,-1005,669,-34,-158,62,-90,-1,1500.0
17:45:15.380,AUTO,-35.363253,149.1652225,49983,0.018380066379904747,-0.12147586792707443,-0.8126594424247742,0.5917476415634155,-0.026675216853618622,-0.12911996245384216,-37,5,-1004,592,-25,-128,96,-131,0,1500.0
17:45:15.581,AUTO,-35.3632484,149.1652146,49983,0.011550474911928177,-0.14167219400405884,-0.7922119498252869,-0.4155310094356537,-0.04656970873475075,0.10875784605741501,-44,-50,-991,-417,-45,109,122,-165,0,1500.0
17:45:15.784,AUTO,-35.3632484,149.1652146,49983,0.011550474911928177,-0.14167219400405884,-0.7922119498252869,-0.4155310094356537,-0.04656970873475075,0.10875784605741501,-44,-50,-991,-417,-45,109,122,-165,0,1500.0
17:45:15.985,AUTO,-35.3632484,149.1652146,49983,0.011550474911928177,-0.14167219400405884,-0.7922119498252869,-0.4155310094356537,-0.04656970873475075,0.10875784605741501,-44,-50,-991,-417,-45,109,122,-165,0,1500.0
17:45:16.187,AUTO,-35.3632484,149.1652146,49983,0.011550474911928177,-0.14167219400405884,-0.7922119498252869,-0.4155310094356537,-0.04656970873475075,0.10875784605741501,-44,-50,-991,-417,-45,109,122,-165,0,1500.0
17:45:16.388,AUTO,-35.3632484,149.1652146,49983,0.011550474911928177,-0.14167219400405884,-0.7922119498252869,-0.4155310094356537,-0.04656970873475075,0.10875784605741501,-44,-50,-991,-417,-45,109,122,-165,0,1500.0
17:45:16.591,AUTO,-35.3632484,149.1652146,49983,0.011550474911928177,-0.14167219400405884,-0.7922119498252869,-0.4155310094356537,-0.04656970873475075,0.10875784605741501,-44,-50,-991,-417,-45,109,122,-165,0,1500.0
17:45:19.955,AUTO,-35.3632484,149.1652146,49983,0.011550474911928177,-0.14167219400405884,-0.7922119498252869,-0.4155310094356537,-0.04656970873475075,0.10875784605741501,-44,-50,-991,-417,-45,109,122,-165,0,1500.0
17:45:20.157,AUTO,-35.3632484,149.1652146,49983,0.011550474911928177,-0.14167219400405884,-0.7922119498252869,-0.4155310094356537,-0.04656970873475075,0.10875784605741501,-44,-50,-991,-417,-45,109,122,-165,0,1500.0
17:45:20.359,AUTO,-35.3632334,149.1651899,49971,0.023080671206116676,-0.1681920886039734,-0.7671839594841003,-0.4300037920475006,-0.010562513023614883,0.007243941072374582,-69,-49,-1009,-430,-9,7,194,-248,0,1500.0
17:45:20.561,AUTO,-35.3632188,149.1651674,49966,0.029865214601159096,-0.17862258851528168,-0.7769345045089722,0.04870188981294632,-0.022532278671860695,0.015003117732703686,-76,-41,-995,47,-21,15,241,-303,0,1500.0
17:45:20.763,AUTO,-35.3632188,149.1651674,49966,0.029865214601159096,-0.17862258851528168,-0.7769345045089722,0.04870188981294632,-0.022532278671860695,0.015003117732703686,-76,-41,-995,47,-21,15,241,-303,0,1500.0
17:45:20.964,AUTO,-35.3632188,149.1651674,49966,0.029865214601159096,-0.17862258851528168,-0.7769345045089722,0.04870188981294632,-0.022532278671860695,0.015003117732703686,-76,-41,-995,47,-21,15,241,-303,0,1500.0
17:45:21.167,AUTO,-35.3632188,149.1651674,49966,0.029865214601159096,-0.17862258851528168,-0.7769345045089722,0.04870188981294632,-0.022532278671860695,0.015003117732703686,-76,-41,-995,47,-21,15,241,-303,0,1500.0
17:45:21.369,AUTO,-35.3632188,149.1651674,49966,0.029865214601159096,-0.17862258851528168,-0.7769345045089722,0.04870188981294632,-0.022532278671860695,0.015003117732703686,-76,-41,-995,47,-21,15,241,-303,0,1500.0
17:45:21.571,AUTO,-35.3632188,149.1651674,49966,0.029865214601159096,-0.17862258851528168,-0.7769345045089722,0.04870188981294632,-0.022532278671860695,0.015003117732703686,-76,-41,-995,47,-21,15,241,-303,0,1500.0
17:45:21.775,AUTO,-35.3632188,149.1651674,49966,0.029865214601159096,-0.17862258851528168,-0.7769345045089722,0.04870188981294632,-0.022532278671860695,0.015003117732703686,-76,-41,-995,47,-21,15,241,-303,0,1500.0
17:45:21.976,AUTO,-35.3632188,149.1651674,49966,0.029865214601159096,-0.17862258851528168,-0.7769345045089722,0.04870188981294632,-0.022532278671860695,0.015003117732703686,-76,-41,-995,47,-21,15,241,-303,0,1500.0
17:45:22.177,AUTO,-35.3631997,149.1651381,49952,0.02984394133090973,-0.20627933740615845,-0.7858421206474304,-0.02338040992617607,-0.010259341448545456,-0.040102481842041016,-76,-41,-995,47,-21,15,288,-367,2,1500.0
17:45:22.378,AUTO,-35.3631708,149.1650931,49937,0.04152800515294075,-0.1932775229215622,-0.7960237860679626,0.12750215828418732,0.048363637179136276,-0.011655311100184917,-119,-46,-1004,128,49,-11,346,-443,-3,1500.0
17:45:22.580,AUTO,-35.3631629,149.1650807,49944,0.0495399571955204,-0.18554489314556122,-0.7989136576652527,0.06228504329919815,-0.0028453839477151632,-0.011457952670753002,-118,-62,-996,62,-2,-10,356,-457,-5,1500.0
17:45:22.782,AUTO,-35.3631629,149.1650807,49944,0.0495399571955204,-0.18554489314556122,-0.7989136576652527,0.06228504329919815,-0.0028453839477151632,-0.011457952670753002,-118,-62,-996,62,-2,-10,356,-457,-5,1500.0
17:45:22.986,AUTO,-35.3631629,149.1650807,49944,0.0495399571955204,-0.18554489314556122,-0.7989136576652527,0.06228504329919815,-0.0028453839477151632,-0.011457952670753002,-118,-62,-996,62,-2,-10,356,-457,-5,1500.0
17:45:23.191,AUTO,-35.3631629,149.1650807,49944,0.0495399571955204,-0.18554489314556122,-0.7989136576652527,0.06228504329919815,-0.0028453839477151632,-0.011457952670753002,-118,-62,-996,62,-2,-10,356,-457,-5,1500.0
17:45:23.396,AUTO,-35.3631629,149.1650807,49944,0.0495399571955204,-0.18554489314556122,-0.7989136576652527,0.06228504329919815,-0.0028453839477151632,-0.011457952670753002,-118,-62,-996,62,-2,-10,356,-457,-5,1500.0
17:45:23.600,AUTO,-35.3631629,149.1650807,49944,0.0495399571955204,-0.18554489314556122,-0.7989136576652527,0.06228504329919815,-0.0028453839477151632,-0.011457952670753002,-118,-62,-996,62,-2,-10,356,-457,-5,1500.0
17:45:23.807,AUTO,-35.3631629,149.1650807,49944,0.0495399571955204,-0.18554489314556122,-0.7989136576652527,0.06228504329919815,-0.0028453839477151632,-0.011457952670753002,-118,-62,-996,62,-2,-10,356,-457,-5,1500.0
17:45:24.015,AUTO,-35.3631629,149.1650807,49944,0.0495399571955204,-0.18554489314556122,-0.7989136576652527,0.06228504329919815,-0.0028453839477151632,-0.011457952670753002,-118,-62,-996,62,-2,-10,356,-457,-5,1500.0
17:45:24.217,AUTO,-35.3631629,149.1650807,49944,0.0495399571955204,-0.18554489314556122,-0.7989136576652527,0.06228504329919815,-0.0028453839477151632,-0.011457952670753002,-118,-62,-996,62,-2,-10,356,-457,-5,1500.0
17:45:24.418,AUTO,-35.3631289,149.1650275,49973,0.06137113645672798,-0.17375804483890533,-0.8072322607040405,-0.029249029234051704,0.022263601422309875,-0.0053985705599188805,-127,-43,-990,-28,23,-4,392,-500,-3,1500.0
17:45:24.622,AUTO,-35.3630925,149.1649709,50003,0.0665140375494957,-0.15047141909599304,-0.8143689632415771,0.039484526962041855,0.03838396444916725,-0.0002539281267672777,-139,-64,-997,40,39,0,412,-523,-3,1500.0
17:45:24.826,AUTO,-35.3630925,149.1649709,50003,0.0665140375494957,-0.15047141909599304,-0.8143689632415771,0.039484526962041855,0.03838396444916725,-0.0002539281267672777,-139,-64,-997,40,39,0,412,-523,-3,1500.0
17:45:25.028,AUTO,-35.3630925,149.1649709,50003,0.0665140375494957,-0.15047141909599304,-0.8143689632415771,0.039484526962041855,0.03838396444916725,-0.0002539281267672777,-139,-64,-997,40,39,0,412,-523,-3,1500.0
17:45:25.231,AUTO,-35.3630925,149.1649709,50003,0.0665140375494957,-0.15047141909599304,-0.8143689632415771,0.039484526962041855,0.03838396444916725,-0.0002539281267672777,-139,-64,-997,40,39,0,412,-523,-3,1500.0
17:45:25.434,AUTO,-35.3630925,149.1649709,50003,0.0665140375494957,-0.15047141909599304,-0.8143689632415771,0.039484526962041855,0.03838396444916725,-0.0002539281267672777,-139,-64,-997,40,39,0,412,-523,-3,1500.0
17:45:25.638,AUTO,-35.3630925,149.1649709,50003,0.0665140375494957,-0.15047141909599304,-0.8143689632415771,0.039484526962041855,0.03838396444916725,-0.0002539281267672777,-139,-64,-997,40,39,0,412,-523,-3,1500.0
17:45:25.840,AUTO,-35.3630925,149.1649709,50003,0.0665140375494957,-0.15047141909599304,-0.8143689632415771,0.039484526962041855,0.03838396444916725,-0.0002539281267672777,-139,-64,-997,40,39,0,412,-523,-3,1500.0
17:45:26.042,AUTO,-35.3630925,149.1649709,50003,0.0665140375494957,-0.15047141909599304,-0.8143689632415771,0.039484526962041855,0.03838396444916725,-0.0002539281267672777,-139,-64,-997,40,39,0,412,-523,-3,1500.0
17:45:26.244,AUTO,-35.3630925,149.1649709,50003,0.0665140375494957,-0.15047141909599304,-0.8143689632415771,0.039484526962041855,0.03838396444916725,-0.0002539281267672777,-139,-64,-997,40,39,0,412,-523,-3,1500.0
