time_stamp,MODE,lat,lon,relative_alt,roll,pitch,yaw,rollspeed,pitchspeed,yawspeed,xacc,yacc,zacc,xgyro,ygyro,zgyro,vx,vy,vz,RTL_ALT
14:41:32.277,STABILIZE,-35.3632621,149.1652374,9,-3.678523353300989e-05,0.0014565952587872744,0.028433479368686676,0.00012925759074278176,0.00030693243024870753,0.0025413883849978447,0,1,-1000,0,0,0,0,0,-1,108187.0
14:41:32.478,STABILIZE,-35.3632621,149.1652374,9,-3.678523353300989e-05,0.0014565952587872744,0.028433479368686676,0.00012925759074278176,0.00030693243024870753,0.0025413883849978447,0,1,-1000,0,0,0,0,0,-1,108187.0
14:41:32.678,STABILIZE,-35.3632621,149.1652374,9,-3.678523353300989e-05,0.0014565952587872744,0.028433479368686676,0.00012925759074278176,0.00030693243024870753,0.0025413883849978447,0,1,-1000,0,0,0,0,0,-1,108187.0
14:41:32.879,STABILIZE,-35.3632621,149.1652374,9,-3.678523353300989e-05,0.0014565952587872744,0.028433479368686676,0.00012925759074278176,0.00030693243024870753,0.0025413883849978447,0,1,-1000,0,0,0,0,0,-1,108187.0
14:41:33.079,STABILIZE,-35.3632621,149.1652374,0,5.242065526545048e-05,0.0016071898862719536,0.027930760756134987,0.00038845051312819123,0.0002841366804204881,0.002324265195056796,0,1,-1000,0,0,1,-1,1,0,108187.0
14:41:33.280,STABILIZE,-35.3632621,149.1652374,0,5.242065526545048e-05,0.0016071898862719536,0.027930760756134987,0.00038845051312819123,0.0002841366804204881,0.002324265195056796,0,1,-1000,0,0,1,-1,1,0,108187.0
14:41:33.491,STABILIZE,-35.3632621,149.1652374,0,5.242065526545048e-05,0.0016071898862719536,0.027930760756134987,0.00038845051312819123,0.0002841366804204881,0.002324265195056796,0,1,-1000,0,0,1,-1,1,0,108187.0
14:41:33.692,STABILIZE,-35.3632621,149.1652374,0,5.242065526545048e-05,0.0016071898862719536,0.027930760756134987,0.00038845051312819123,0.0002841366804204881,0.002324265195056796,0,1,-1000,0,0,1,-1,1,0,108187.0
14:41:33.895,STABILIZE,-35.3632621,149.1652374,0,9.786431292013731e-06,0.0016061195638030767,0.027274271473288536,0.00032579744583927095,0.00024470663629472256,0.0022972216829657555,0,1,-1000,0,0,0,-1,1,0,108187.0
14:41:34.097,STABILIZE,-35.3632621,149.1652374,0,9.786431292013731e-06,0.0016061195638030767,0.027274271473288536,0.00032579744583927095,0.00024470663629472256,0.0022972216829657555,0,1,-1000,0,0,0,-1,1,0,108187.0
14:41:34.298,STABILIZE,-35.3632621,149.1652374,0,9.786431292013731e-06,0.0016061195638030767,0.027274271473288536,0.00032579744583927095,0.00024470663629472256,0.0022972216829657555,0,1,-1000,0,0,0,-1,1,0,108187.0
14:41:34.499,STABILIZE,-35.3632621,149.1652374,0,9.786431292013731e-06,0.0016061195638030767,0.027274271473288536,0.00032579744583927095,0.00024470663629472256,0.0022972216829657555,0,1,-1000,0,0,0,-1,1,0,108187.0
14:41:34.700,STABILIZE,-35.3632621,149.1652374,0,9.786431292013731e-06,0.0016061195638030767,0.027274271473288536,0.00032579744583927095,0.00024470663629472256,0.0022972216829657555,0,1,-1000,0,0,0,-1,1,0,108187.0
14:41:34.901,STABILIZE,-35.3632621,149.1652374,0,9.786431292013731e-06,0.0016061195638030767,0.027274271473288536,0.00032579744583927095,0.00024470663629472256,0.0022972216829657555,0,1,-1000,0,0,0,-1,1,0,108187.0
14:41:35.103,STABILIZE,-35.3632621,149.1652374,0,9.786431292013731e-06,0.0016061195638030767,0.027274271473288536,0.00032579744583927095,0.00024470663629472256,0.0022972216829657555,0,1,-1000,0,0,0,-1,1,0,108187.0
14:41:35.304,STABILIZE,-35.3632622,149.1652375,0,-1.6761795222919318e-06,0.0013894315343350172,0.02649231068789959,0.00019696875824593008,0.00025501352502033114,0.002293855417519808,0,1,-1000,0,0,0,-2,2,1,108187.0
14:41:35.505,STABILIZE,-35.3632622,149.1652375,0,-1.6761795222919318e-06,0.0013894315343350172,0.02649231068789959,0.00019696875824593008,0.00025501352502033114,0.002293855417519808,0,1,-1000,0,0,0,-2,2,1,108187.0
14:41:35.706,STABILIZE,-35.3632622,149.1652375,0,-1.6761795222919318e-06,0.0013894315343350172,0.02649231068789959,0.00019696875824593008,0.00025501352502033114,0.002293855417519808,0,1,-1000,0,0,0,-2,2,1,108187.0
14:41:35.907,STABILIZE,-35.3632622,149.1652375,0,-1.6761795222919318e-06,0.0013894315343350172,0.02649231068789959,0.00019696875824593008,0.00025501352502033114,0.002293855417519808,0,1,-1000,0,0,0,-2,2,1,108187.0
14:41:36.108,STABILIZE,-35.3632622,149.1652375,0,-1.6761795222919318e-06,0.0013894315343350172,0.02649231068789959,0.00019696875824593008,0.00025501352502033114,0.002293855417519808,0,1,-1000,0,0,0,-2,2,1,108187.0
14:41:36.309,STABILIZE,-35.3632622,149.1652375,0,-0.0003796907840296626,0.00117769546341151,0.025961993262171745,0.00010791455861181021,0.0002754695888143033,0.0020040813833475113,0,1,-1000,0,0,0,-1,1,1,108187.0
14:41:36.510,STABILIZE,-35.3632622,149.1652375,0,-0.0003796907840296626,0.00117769546341151,0.025961993262171745,0.00010791455861181021,0.0002754695888143033,0.0020040813833475113,0,1,-1000,0,0,0,-1,1,1,108187.0
14:41:36.712,STABILIZE,-35.3632622,149.1652375,0,-0.0005281812627799809,0.0011000233935192227,0.025725871324539185,0.0002263045171275735,0.00018817040836438537,0.0020108444150537252,0,1,-1000,0,0,0,-1,1,1,108187.0
14:41:36.913,STABILIZE,-35.3632622,149.1652375,0,-0.000598675396759063,0.0010650156764313579,0.025619853287935257,0.00010660989210009575,0.00019502575742080808,0.001989197451621294,0,1,-1000,0,0,0,-1,1,0,108187.0
14:41:37.114,STABILIZE,-35.3632622,149.1652375,0,-0.000598675396759063,0.0010650156764313579,0.025619853287935257,0.00010660989210009575,0.00019502575742080808,0.001989197451621294,0,1,-1000,0,0,0,-1,1,0,108187.0
14:41:37.316,STABILIZE,-35.3632622,149.1652375,0,-0.000598675396759063,0.0010650156764313579,0.025619853287935257,0.00010660989210009575,0.00019502575742080808,0.001989197451621294,0,1,-1000,0,0,0,-1,1,0,108187.0
14:41:37.518,STABILIZE,-35.3632622,149.1652375,0,-0.000598675396759063,0.0010650156764313579,0.025619853287935257,0.00010660989210009575,0.00019502575742080808,0.001989197451621294,0,1,-1000,0,0,0,-1,1,0,108187.0
14:41:37.719,STABILIZE,-35.3632622,149.1652375,0,-0.000598675396759063,0.0010650156764313579,0.025619853287935257,0.00010660989210009575,0.00019502575742080808,0.001989197451621294,0,1,-1000,0,0,0,-1,1,0,108187.0
14:41:37.921,STABILIZE,-35.3632621,149.1652375,0,-0.0008034875500015914,0.0009611922432668507,0.025225071236491203,0.00019589689327403903,0.00016290141502395272,0.0019193622283637524,0,1,-1000,0,0,1,-1,1,0,108187.0
14:41:38.122,STABILIZE,-35.3632621,149.1652375,0,-0.0008034875500015914,0.0009611922432668507,0.025225071236491203,0.00019589689327403903,0.00016290141502395272,0.0019193622283637524,0,1,-1000,0,0,1,-1,1,0,108187.0
14:41:38.324,STABILIZE,-35.3632621,149.1652375,0,-0.0008034875500015914,0.0009611922432668507,0.025225071236491203,0.00019589689327403903,0.00016290141502395272,0.0019193622283637524,0,1,-1000,0,0,1,-1,1,0,108187.0
14:41:38.525,STABILIZE,-35.3632621,149.1652375,0,-0.0008736392483115196,0.0009326188010163605,0.02504786290228367,0.00035920937079936266,0.0003963685594499111,0.001896764850243926,0,1,-1000,0,0,0,-1,1,0,108187.0
14:41:38.726,STABILIZE,-35.3632621,149.1652375,0,-0.0008736392483115196,0.0009326188010163605,0.02504786290228367,0.00035920937079936266,0.0003963685594499111,0.001896764850243926,0,1,-1000,0,0,0,-1,1,0,108187.0
14:41:38.927,STABILIZE,-35.3632621,149.1652375,0,-0.0009237685007974505,0.0009329044260084629,0.02490059658885002,0.00021324283443391323,0.0004516465123742819,0.001841966062784195,0,1,-1000,0,1,0,-1,1,0,108187.0
14:41:39.128,STABILIZE,-35.3632621,149.1652375,0,-0.0009237685007974505,0.0009329044260084629,0.02490059658885002,0.00021324283443391323,0.0004516465123742819,0.001841966062784195,0,1,-1000,0,1,0,-1,1,0,108187.0
14:41:39.330,STABILIZE,-35.3632621,149.1652375,0,-0.0009408160694874823,0.000929771107621491,0.02481759898364544,0.00023375061573460698,0.0003245397238060832,0.0019459412433207035,0,1,-1000,0,0,0,-1,1,0,108187.0
14:41:39.531,STABILIZE,-35.3632621,149.1652375,0,-0.0009408160694874823,0.000929771107621491,0.02481759898364544,0.00023375061573460698,0.0003245397238060832,0.0019459412433207035,0,1,-1000,0,0,0,-1,1,0,108187.0
14:41:39.732,STABILIZE,-35.3632621,149.1652375,0,-0.0009408160694874823,0.000929771107621491,0.02481759898364544,0.00023375061573460698,0.0003245397238060832,0.0019459412433207035,0,1,-1000,0,0,0,-1,1,0,108187.0
14:41:39.934,STABILIZE,-35.3632621,149.1652375,0,-0.0009408160694874823,0.000929771107621491,0.02481759898364544,0.00023375061573460698,0.0003245397238060832,0.0019459412433207035,0,1,-1000,0,0,0,-1,1,0,108187.0
14:41:40.136,STABILIZE,-35.3632621,149.1652375,0,-0.0009408160694874823,0.000929771107621491,0.02481759898364544,0.00023375061573460698,0.0003245397238060832,0.0019459412433207035,0,1,-1000,0,0,0,-1,1,0,108187.0
14:41:40.338,STABILIZE,-35.3632621,149.1652375,0,-0.0010027046082541347,0.0009223483502864838,0.02448520064353943,0.00023791048442944884,0.0003534347633831203,0.0019111551810055971,0,1,-1000,0,0,0,-1,1,0,108187.0
14:41:40.539,STABILIZE,-35.3632621,149.1652375,0,-0.001016541849821806,0.0009105756762437522,0.02441323734819889,0.0002733896253630519,0.00025205512065440416,0.0017130316700786352,0,1,-1000,0,0,0,-1,1,0,108187.0
14:41:40.741,STABILIZE,-35.3632621,149.1652375,0,-0.001027024700306356,0.0009166714153252542,0.024345913901925087,0.00024297588970512152,0.0002751275897026062,0.001959392335265875,0,1,-1000,0,0,0,-1,1,0,108187.0
14:41:40.942,STABILIZE,-35.3632621,149.1652375,0,-0.001027024700306356,0.0009166714153252542,0.024345913901925087,0.00024297588970512152,0.0002751275897026062,0.001959392335265875,0,1,-1000,0,0,0,-1,1,0,108187.0
14:41:41.144,STABILIZE,-35.3632621,149.1652375,0,-0.001027024700306356,0.0009166714153252542,0.024345913901925087,0.00024297588970512152,0.0002751275897026062,0.001959392335265875,0,1,-1000,0,0,0,-1,1,0,108187.0
14:41:41.345,STABILIZE,-35.3632621,149.1652375,0,-0.001027024700306356,0.0009166714153252542,0.024345913901925087,0.00024297588970512152,0.0002751275897026062,0.001959392335265875,0,1,-1000,0,0,0,-1,1,0,108187.0
14:41:41.546,STABILIZE,-35.3632621,149.1652375,0,-0.001027024700306356,0.0009166714153252542,0.024345913901925087,0.00024297588970512152,0.0002751275897026062,0.001959392335265875,0,1,-1000,0,0,0,-1,1,0,108187.0
14:41:41.748,STABILIZE,-35.3632621,149.1652375,0,-0.001027024700306356,0.0009166714153252542,0.024345913901925087,0.00024297588970512152,0.0002751275897026062,0.001959392335265875,0,1,-1000,0,0,0,-1,1,0,108187.0
14:41:41.949,STABILIZE,-35.3632621,149.1652375,0,-0.001027024700306356,0.0009166714153252542,0.024345913901925087,0.00024297588970512152,0.0002751275897026062,0.001959392335265875,0,1,-1000,0,0,0,-1,1,0,108187.0
14:41:42.150,STABILIZE,-35.3632621,149.1652375,0,-0.001027024700306356,0.0009166714153252542,0.024345913901925087,0.00024297588970512152,0.0002751275897026062,0.001959392335265875,0,1,-1000,0,0,1,-1,0,0,108187.0
14:41:42.351,STABILIZE,-35.3632621,149.1652375,0,-0.001027024700306356,0.0009166714153252542,0.024345913901925087,0.00024297588970512152,0.0002751275897026062,0.001959392335265875,0,1,-1000,0,0,1,-1,0,0,108187.0
14:41:42.552,STABILIZE,-35.3632621,149.1652375,0,-0.001027024700306356,0.0009166714153252542,0.024345913901925087,0.00024297588970512152,0.0002751275897026062,0.001959392335265875,0,1,-1000,0,0,1,-1,0,0,108187.0
14:41:42.754,STABILIZE,-35.3632621,149.1652375,0,-0.001027024700306356,0.0009166714153252542,0.024345913901925087,0.00024297588970512152,0.0002751275897026062,0.001959392335265875,0,1,-1000,0,0,1,-1,0,0,108187.0
14:41:42.955,STABILIZE,-35.3632621,149.1652375,0,-0.001027024700306356,0.0009166714153252542,0.024345913901925087,0.00024297588970512152,0.0002751275897026062,0.001959392335265875,0,1,-1000,0,0,1,-1,0,0,108187.0
14:41:43.156,STABILIZE,-35.3632622,149.1652375,0,-0.001069570891559124,0.000978514552116394,0.0236637182533741,0.00019461318152025342,0.00027730996953323483,0.0018395783845335245,0,2,-1000,0,0,0,-1,0,0,108187.0
14:41:43.357,STABILIZE,-35.3632622,149.1652375,0,-0.001069570891559124,0.000978514552116394,0.0236637182533741,0.00019461318152025342,0.00027730996953323483,0.0018395783845335245,0,2,-1000,0,0,0,-1,0,0,108187.0
14:41:43.558,STABILIZE,-35.3632622,149.1652375,0,-0.001069570891559124,0.000978514552116394,0.0236637182533741,0.00019461318152025342,0.00027730996953323483,0.0018395783845335245,0,2,-1000,0,0,0,-1,0,0,108187.0
14:41:43.760,STABILIZE,-35.3632622,149.1652375,0,-0.001069570891559124,0.000978514552116394,0.0236637182533741,0.00019461318152025342,0.00027730996953323483,0.0018395783845335245,0,2,-1000,0,0,0,-1,0,0,108187.0
14:41:43.961,STABILIZE,-35.3632622,149.1652375,0,-0.0010745518375188112,0.000986638362519443,0.023453883826732635,0.00027080433210358024,0.00017974787624552846,0.001739888684824109,0,2,-1000,0,0,0,-1,0,0,108187.0
14:41:44.162,STABILIZE,-35.3632622,149.1652375,0,-0.0010745518375188112,0.000986638362519443,0.023453883826732635,0.00027080433210358024,0.00017974787624552846,0.001739888684824109,0,2,-1000,0,0,0,-1,0,0,108187.0
14:41:44.363,STABILIZE,-35.3632622,149.1652375,0,-0.0010745518375188112,0.000986638362519443,0.023453883826732635,0.00027080433210358024,0.00017974787624552846,0.001739888684824109,0,2,-1000,0,0,0,-1,0,0,108187.0
14:41:44.564,STABILIZE,-35.3632622,149.1652375,0,-0.0010767764179036021,0.0009818051476031542,0.023318098857998848,0.00014670623932033777,0.0003091192338615656,0.0017615194665268064,0,1,-1000,0,0,0,-1,1,0,108187.0
14:41:44.765,STABILIZE,-35.3632622,149.1652375,0,-0.0010767764179036021,0.0009818051476031542,0.023318098857998848,0.00014670623932033777,0.0003091192338615656,0.0017615194665268064,0,1,-1000,0,0,0,-1,1,0,108187.0
14:41:44.967,STABILIZE,-35.3632622,149.1652375,0,-0.0010849081445485353,0.000983066507615149,0.023189987987279892,0.0002762045478448272,0.00021738832583650947,0.001771594281308353,0,1,-1000,0,0,0,-1,0,-1,108187.0
14:41:45.168,STABILIZE,-35.3632622,149.1652375,0,-0.0010579372756183147,0.0009885093895718455,0.023107904940843582,0.00027576490538194776,0.00031134020537137985,0.001687617739662528,0,1,-1000,0,0,0,-1,0,-1,108187.0
14:41:45.369,STABILIZE,-35.3632622,149.1652375,0,-0.0010579372756183147,0.0009885093895718455,0.023107904940843582,0.00027576490538194776,0.00031134020537137985,0.001687617739662528,0,1,-1000,0,0,0,-1,0,-1,108187.0
14:41:45.570,STABILIZE,-35.3632622,149.1652375,0,-0.0010579372756183147,0.0009885093895718455,0.023107904940843582,0.00027576490538194776,0.00031134020537137985,0.001687617739662528,0,1,-1000,0,0,0,-1,0,-1,108187.0
14:41:45.772,STABILIZE,-35.3632622,149.1652375,0,-0.0010579372756183147,0.0009885093895718455,0.023107904940843582,0.00027576490538194776,0.00031134020537137985,0.001687617739662528,0,1,-1000,0,0,0,-1,0,-1,108187.0
14:41:45.973,STABILIZE,-35.3632622,149.1652375,0,-0.0009401384158991277,0.0009899571305140853,0.022916343063116074,0.00038375676376745105,0.0003216420882381499,0.0016019619069993496,0,1,-1000,0,0,1,-1,0,0,108187.0
14:41:46.174,STABILIZE,-35.3632622,149.1652375,0,-0.0009401384158991277,0.0009899571305140853,0.022916343063116074,0.00038375676376745105,0.0003216420882381499,0.0016019619069993496,0,1,-1000,0,0,1,-1,0,0,108187.0
14:41:46.376,STABILIZE,-35.3632622,149.1652375,0,-0.0009401384158991277,0.0009899571305140853,0.022916343063116074,0.00038375676376745105,0.0003216420882381499,0.0016019619069993496,0,1,-1000,0,0,1,-1,0,0,108187.0
14:41:46.577,AUTO,-35.3632622,149.1652375,0,-0.0008847152930684388,0.0009776658844202757,0.02279786393046379,0.00024219125043600798,0.0002409046865068376,0.0016980969812721014,0,1,-1000,1,0,0,-1,0,0,108187.0
14:41:46.779,AUTO,-35.3632622,149.1652375,1,-0.0008667489164508879,0.000979281379841268,0.02274303510785103,0.0003627898986451328,0.00026845140382647514,0.0016728671034798026,0,2,-1000,1,0,0,-1,0,0,169742.0
14:41:46.980,AUTO,-35.3632622,149.1652375,1,-0.0008459808886982501,0.0009753700578585267,0.022662248462438583,0.00028795620892196894,0.00014538707910105586,0.0014201090671122074,0,2,-1000,0,0,1,-1,1,0,169742.0
14:41:47.182,AUTO,-35.3632622,149.1652375,2,-0.0008227661019191146,0.0009794270154088736,0.022600844502449036,0.0003192175063304603,0.00019469892140477896,0.0015878912527114153,0,1,-1000,1,0,1,-1,0,0,169742.0
14:41:47.383,AUTO,-35.3632622,149.1652375,2,-0.0008227661019191146,0.0009794270154088736,0.022600844502449036,0.0003192175063304603,0.00019469892140477896,0.0015878912527114153,0,1,-1000,1,0,1,-1,0,0,169742.0
14:41:47.586,AUTO,-35.3632622,149.1652375,2,-0.0008227661019191146,0.0009794270154088736,0.022600844502449036,0.0003192175063304603,0.00019469892140477896,0.0015878912527114153,0,1,-1000,1,0,1,-1,0,0,169742.0
14:41:47.788,AUTO,-35.3632622,149.1652375,2,-0.0008227661019191146,0.0009794270154088736,0.022600844502449036,0.0003192175063304603,0.00019469892140477896,0.0015878912527114153,0,1,-1000,1,0,1,-1,0,0,169742.0
14:41:47.989,AUTO,-35.3632621,149.1652375,2,-0.0007118824287317693,0.0010795273119583726,0.02240896411240101,0.00031847954960539937,0.00042040273547172546,0.0015202066861093044,0,2,-1000,0,1,1,0,0,0,169742.0
14:41:48.190,AUTO,-35.3632621,149.1652375,2,-0.0006515997811220586,0.0011339940829202533,0.02233305387198925,0.00024765898706391454,0.0002008715528063476,0.0015814646612852812,0,1,-1000,0,0,0,0,0,0,169742.0
14:41:48.392,AUTO,-35.3632621,149.1652375,2,-0.0005924188299104571,0.001185465487651527,0.022268803790211678,0.00022748357150703669,0.000267889816313982,0.0015081155579537153,0,1,-1000,0,0,1,0,0,0,169742.0
14:41:48.593,AUTO,-35.3632621,149.1652375,2,-0.0005924188299104571,0.001185465487651527,0.022268803790211678,0.00022748357150703669,0.000267889816313982,0.0015081155579537153,0,1,-1000,0,0,1,0,0,0,169742.0
14:41:48.795,AUTO,-35.3632621,149.1652375,2,-0.0005358185735531151,0.0012494731927290559,0.02219182439148426,0.00025505805388092995,0.00030255026649683714,0.0016436886508017778,0,1,-1000,0,0,1,0,0,0,169742.0
14:41:48.997,AUTO,-35.3632621,149.1652375,2,-0.00047538182116113603,0.0013213212369009852,0.022117970511317253,0.00020846130792051554,0.00042057986138388515,0.0015779021196067333,0,1,-1000,1,0,1,0,0,0,169742.0
14:41:49.199,AUTO,-35.3632621,149.1652375,2,-0.0004065349930897355,0.0013837781734764576,0.022045187652111053,0.00036734779132530093,0.00025699351681396365,0.0015698755159974098,0,1,-1000,0,0,0,0,0,0,169742.0
14:41:49.405,AUTO,-35.3632621,149.1652375,2,-0.0004065349930897355,0.0013837781734764576,0.022045187652111053,0.00036734779132530093,0.00025699351681396365,0.0015698755159974098,0,1,-1000,0,0,0,0,0,0,169742.0
14:41:49.610,AUTO,-35.3632621,149.1652375,2,-0.0004065349930897355,0.0013837781734764576,0.022045187652111053,0.00036734779132530093,0.00025699351681396365,0.0015698755159974098,0,1,-1000,0,0,0,0,0,0,139919.0
14:41:49.811,AUTO,-35.3632621,149.1652375,2,-0.0004065349930897355,0.0013837781734764576,0.022045187652111053,0.00036734779132530093,0.00025699351681396365,0.0015698755159974098,0,1,-1000,0,0,0,0,0,0,139919.0
14:41:50.013,AUTO,-35.3632621,149.1652375,1,-0.00019464014621917158,0.001605201861821115,0.021815244108438492,0.0003782259300351143,0.0003155202721245587,0.001477093668654561,0,1,-1000,1,0,0,0,0,0,139919.0
14:41:50.214,AUTO,-35.3632621,149.1652375,1,-0.00011637966963462532,0.0016778269782662392,0.021720094606280327,0.0003615196328610182,0.00033261015778407454,0.00163492769934237,0,1,-1000,1,1,0,0,0,0,139919.0
14:41:50.416,AUTO,-35.3632621,149.1652375,3,0.0009503982146270573,0.0010478736367076635,0.021755164489150047,0.009396287612617016,-0.008179300464689732,0.0014664094196632504,0,0,-1094,10,-7,0,0,0,-5,139919.0
14:41:50.618,AUTO,-35.3632621,149.1652375,3,0.0009503982146270573,0.0010478736367076635,0.021755164489150047,0.009396287612617016,-0.008179300464689732,0.0014664094196632504,0,0,-1094,10,-7,0,0,0,-5,139919.0
14:41:50.819,AUTO,-35.3632621,149.1652375,62,0.003515110583975911,-0.0005030190222896636,0.021825287491083145,0.012229783460497856,-0.0010133662726730108,0.0019485561642795801,0,0,-1140,12,0,1,0,0,-40,139919.0
14:41:51.021,AUTO,-35.3632621,149.1652375,204,0.0027468809857964516,0.0001887716498458758,0.021711980924010277,-0.005381117109209299,0.004617643542587757,0.0015403290744870901,0,0,-1129,-4,5,1,0,0,-73,139919.0
14:41:51.222,AUTO,-35.3632621,149.1652375,424,0.0017631223890930414,0.0012096569407731295,0.021575361490249634,-0.006854883395135403,0.0032975547946989536,0.0014096597442403436,0,0,-1108,-6,3,0,0,1,-101,139919.0
14:41:51.424,AUTO,-35.3632621,149.1652375,424,0.0017631223890930414,0.0012096569407731295,0.021575361490249634,-0.006854883395135403,0.0032975547946989536,0.0014096597442403436,0,0,-1108,-6,3,0,0,1,-101,139919.0
14:41:51.626,AUTO,-35.3632621,149.1652375,424,0.0017631223890930414,0.0012096569407731295,0.021575361490249634,-0.006854883395135403,0.0032975547946989536,0.0014096597442403436,0,0,-1108,-6,3,0,0,1,-101,139919.0
14:41:51.827,AUTO,-35.3632621,149.1652375,424,0.0017631223890930414,0.0012096569407731295,0.021575361490249634,-0.006854883395135403,0.0032975547946989536,0.0014096597442403436,0,0,-1108,-6,3,0,0,1,-101,139919.0
14:41:52.029,AUTO,-35.363262,149.1652375,1411,0.023452524095773697,-0.0009836704703047872,0.021280983462929726,0.046917933970689774,-0.007423337083309889,0.0023894435726106167,0,0,-1016,47,-6,1,0,5,-145,139919.0
14:41:52.231,AUTO,-35.363262,149.1652377,1789,0.034897685050964355,-0.002981997560709715,0.02143561653792858,0.04484965652227402,-0.00804781075567007,0.0029929489828646183,0,-1,-1006,45,-7,2,1,12,-147,139919.0
14:41:52.432,AUTO,-35.3632619,149.1652381,2172,0.04572639986872673,-0.005233115050941706,0.021643012762069702,0.042223669588565826,-0.009815352968871593,0.003353241365402937,0,-2,-1002,42,-9,3,3,21,-148,139919.0
14:41:52.633,AUTO,-35.3632619,149.1652381,2172,0.04572639986872673,-0.005233115050941706,0.021643012762069702,0.042223669588565826,-0.009815352968871593,0.003353241365402937,0,-2,-1002,42,-9,3,3,21,-148,93694.0
14:41:52.835,AUTO,-35.3632618,149.1652388,2558,0.05578618124127388,-0.007928489707410336,0.021837357431650162,0.03884996473789215,-0.011608490720391273,0.003564512124285102,0,-4,-1000,39,-11,3,5,31,-148,93694.0
14:41:53.037,AUTO,-35.3632616,149.1652398,2942,0.061987005174160004,-0.008663189597427845,-0.008903303183615208,-0.012441851198673248,0.02559269405901432,-0.037032436579465866,0,-7,-994,-11,26,-37,8,44,-147,93694.0
14:41:53.239,AUTO,-35.3632614,149.1652411,3321,0.04001617431640625,0.013286863453686237,-0.03137940913438797,-0.1469830572605133,0.09135614335536957,-0.09894493967294693,3,-13,-991,-146,91,-99,9,53,-145,93694.0
14:41:53.441,AUTO,-35.3632614,149.1652411,3321,0.04001617431640625,0.013286863453686237,-0.03137940913438797,-0.1469830572605133,0.09135614335536957,-0.09894493967294693,3,-13,-991,-146,91,-99,9,53,-145,93694.0
14:41:53.643,AUTO,-35.3632614,149.1652411,3321,0.04001617431640625,0.013286863453686237,-0.03137940913438797,-0.1469830572605133,0.09135614335536957,-0.09894493967294693,3,-13,-991,-146,91,-99,9,53,-145,93694.0
14:41:53.845,AUTO,-35.3632614,149.1652411,3321,0.04001617431640625,0.013286863453686237,-0.03137940913438797,-0.1469830572605133,0.09135614335536957,-0.09894493967294693,3,-13,-991,-146,91,-99,9,53,-145,93694.0
14:41:54.047,AUTO,-35.3632609,149.1652451,4456,-0.02960917353630066,-0.002125323051586747,-0.05449769273400307,-0.04178296774625778,-0.011014387011528015,-0.03251676633954048,4,-10,-1003,-41,-10,-32,5,38,-148,93694.0
14:41:54.249,AUTO,-35.3632607,149.165246,4840,-0.045680031180381775,0.0006208510603755713,-0.06572100520133972,-0.0832752212882042,0.026063663884997368,-0.05519671365618706,2,-7,-999,-82,26,-55,7,26,-148,93694.0
14:41:54.451,AUTO,-35.3632605,149.1652465,5223,-0.06985808163881302,0.007086201570928097,-0.08229406923055649,-0.11035566031932831,0.02975991927087307,-0.06697424501180649,1,-6,-998,-109,30,-67,5,10,-148,93694.0
14:41:54.653,AUTO,-35.3632604,149.1652465,5605,-0.08475595712661743,0.010530619882047176,-0.09733055531978607,0.007373195607215166,0.0010213437490165234,-0.043362606316804886,0,-1,-1007,7,1,-43,2,-10,-148,93694.0
14:41:54.855,AUTO,-35.3632604,149.1652465,5605,-0.08475595712661743,0.010530619882047176,-0.09733055531978607,0.007373195607215166,0.0010213437490165234,-0.043362606316804886,0,-1,-1007,7,1,-43,2,-10,-148,93694.0
14:41:55.057,AUTO,-35.3632605,149.1652459,5987,-0.07494251430034637,0.009195739403367043,-0.10701941698789597,0.05070400983095169,-0.001986247720196843,-0.031641460955142975,-2,3,-1002,51,-1,-32,-2,-29,-148,93694.0
14:41:55.260,AUTO,-35.3632605,149.165245,6371,-0.06135953962802887,0.008935840800404549,-0.11403573304414749,0.05792782083153725,0.0027267909608781338,-0.022424491122364998,-4,6,-1000,58,3,-22,-7,-45,-148,93694.0
14:41:55.461,AUTO,-35.3632605,149.165245,6371,-0.06135953962802887,0.008935840800404549,-0.11403573304414749,0.05792782083153725,0.0027267909608781338,-0.022424491122364998,-4,6,-1000,58,3,-22,-7,-45,-148,93694.0
14:41:55.663,AUTO,-35.3632605,149.165245,6371,-0.06135953962802887,0.008935840800404549,-0.11403573304414749,0.05792782083153725,0.0027267909608781338,-0.022424491122364998,-4,6,-1000,58,3,-22,-7,-45,-148,243531.0
14:41:55.865,AUTO,-35.3632605,149.165245,6371,-0.06135953962802887,0.008935840800404549,-0.11403573304414749,0.05792782083153725,0.0027267909608781338,-0.022424491122364998,-4,6,-1000,58,3,-22,-7,-45,-148,243531.0
14:41:56.067,AUTO,-35.3632614,149.1652402,7519,-0.013000545091927052,0.013896357268095016,-0.12350817024707794,0.06916806846857071,0.009210235439240932,-0.004946884233504534,-3,14,-1003,69,9,-5,-20,-64,-149,243531.0
14:41:56.268,AUTO,-35.3632619,149.1652384,7906,0.004586739465594292,0.016031472012400627,-0.12417050451040268,0.07147359102964401,0.007604291196912527,-0.0018241007346659899,-7,15,-1004,72,8,-2,-24,-62,-150,243531.0
14:41:56.470,AUTO,-35.3632625,149.1652367,8294,0.022272802889347076,0.017499813809990883,-0.12386111170053482,0.07109175622463226,0.004450288135558367,0.0008350315038114786,-2,14,-1004,71,4,0,-28,-55,-151,243531.0
14:41:56.672,AUTO,-35.3632631,149.1652353,8688,0.03989060968160629,0.017905505374073982,-0.12262207269668579,0.06974625587463379,-0.00038787443190813065,0.002821019385010004,0,12,-1004,70,0,2,-31,-44,-152,243531.0
14:41:56.873,AUTO,-35.3632631,149.1652353,8688,0.03989060968160629,0.017905505374073982,-0.12262207269668579,0.06974625587463379,-0.00038787443190813065,0.002821019385010004,0,12,-1004,70,0,2,-31,-44,-152,243531.0
14:41:57.075,AUTO,-35.3632638,149.1652342,9081,0.05686842277646065,0.016991587355732918,-0.12095794826745987,0.06717515736818314,-0.0061607928946614265,0.004692411050200462,-1,12,-1003,67,-5,4,-33,-29,-152,243531.0
14:41:57.277,AUTO,-35.3632646,149.1652336,9473,0.06319373100996017,0.006033180747181177,-0.11080770939588547,-0.015531004406511784,-0.08180257678031921,0.0736461654305458,3,8,-996,-15,-81,73,-33,-12,-151,243531.0
14:41:57.479,AUTO,-35.3632646,149.1652336,9473,0.06319373100996017,0.006033180747181177,-0.11080770939588547,-0.015531004406511784,-0.08180257678031921,0.0736461654305458,3,8,-996,-15,-81,73,-33,-12,-151,243531.0
14:41:57.681,AUTO,-35.3632646,149.1652336,9473,0.06319373100996017,0.006033180747181177,-0.11080770939588547,-0.015531004406511784,-0.08180257678031921,0.0736461654305458,3,8,-996,-15,-81,73,-33,-12,-151,243531.0
14:41:57.883,AUTO,-35.3632646,149.1652336,9473,0.06319373100996017,0.006033180747181177,-0.11080770939588547,-0.015531004406511784,-0.08180257678031921,0.0736461654305458,3,8,-996,-15,-81,73,-33,-12,-151,243531.0
14:41:58.085,AUTO,-35.3632661,149.1652339,10632,0.04724897816777229,-0.07280087471008301,-0.0332409031689167,0.016530627384781837,-0.06035293638706207,0.10147585719823837,4,-1,-1002,17,-59,101,0,23,-150,243531.0
14:41:58.286,AUTO,-35.3632659,149.1652346,11018,0.05167818441987038,-0.08454719930887222,-0.01279278565198183,0.030255122110247612,-0.028061775490641594,0.08105824142694473,1,-5,-999,30,-27,80,21,33,-149,243531.0
14:41:58.488,AUTO,-35.3632652,149.1652356,11398,0.03476519510149956,-0.07668986171483994,-0.011036472395062447,-0.1322629749774933,0.09650389105081558,-0.04881834238767624,-2,-11,-988,-131,97,-49,42,41,-146,243531.0
14:41:58.690,AUTO,-35.3632641,149.1652367,11772,-0.0014563747681677341,-0.04338151961565018,-0.03375117480754852,-0.14621514081954956,0.1427217721939087,-0.11494096368551254,-5,-14,-1002,-145,142,-115,56,41,-144,18774.0
14:41:58.892,AUTO,-35.3632641,149.1652367,11772,-0.0014563747681677341,-0.04338151961565018,-0.03375117480754852,-0.14621514081954956,0.1427217721939087,-0.11494096368551254,-5,-14,-1002,-145,142,-115,56,41,-144,18774.0
14:41:59.093,AUTO,-35.3632628,149.1652377,12147,-0.028992021456360817,-0.011636946350336075,-0.06800016760826111,-0.08730162680149078,0.11708807945251465,-0.138960063457489,-5,-14,-1012,-86,117,-139,61,32,-146,18774.0
14:41:59.295,AUTO,-35.3632615,149.1652384,12527,-0.04441310837864876,0.011345497332513332,-0.10387692600488663,-0.03618505597114563,0.07975316792726517,-0.12891823053359985,-7,-13,-1012,-35,80,-129,58,18,-149,18774.0
14:41:59.497,AUTO,-35.3632615,149.1652384,12527,-0.04441310837864876,0.011345497332513332,-0.10387692600488663,-0.03618505597114563,0.07975316792726517,-0.12891823053359985,-7,-13,-1012,-35,80,-129,58,18,-149,18774.0
14:41:59.698,AUTO,-35.3632615,149.1652384,12527,-0.04441310837864876,0.011345497332513332,-0.10387692600488663,-0.03618505597114563,0.07975316792726517,-0.12891823053359985,-7,-13,-1012,-35,80,-129,58,18,-149,18774.0
14:41:59.900,AUTO,-35.3632615,149.1652384,12527,-0.04441310837864876,0.011345497332513332,-0.10387692600488663,-0.03618505597114563,0.07975316792726517,-0.12891823053359985,-7,-13,-1012,-35,80,-129,58,18,-149,18774.0
14:42:00.102,AUTO,-35.3632584,149.1652382,13697,-0.03694617748260498,0.03940517455339432,-0.17642532289028168,0.04090505838394165,0.01918802782893181,-0.058268021792173386,-9,-3,-1002,41,19,-58,26,-18,-153,18774.0
14:42:00.305,AUTO,-35.3632579,149.1652377,14090,-0.026470303535461426,0.04318734258413315,-0.18892529606819153,0.046544045209884644,0.015882201492786407,-0.04294764623045921,-8,0,-1001,47,16,-43,13,-24,-153,18774.0
14:42:00.506,AUTO,-35.3632577,149.165237,14482,-0.014664518646895885,0.04635188356041908,-0.19779223203659058,0.051109492778778076,0.012223705649375916,-0.030806852504611015,-6,3,-1000,51,13,-31,0,-27,-153,18774.0
14:42:00.708,AUTO,-35.3632578,149.1652362,14873,-0.0017766456585377455,0.04851093888282776,-0.20369918644428253,0.05482995882630348,0.007124661933630705,-0.02199340984225273,-4,5,-1001,55,7,-22,-11,-26,-152,18774.0
14:42:00.910,AUTO,-35.3632581,149.1652355,15265,0.01194186881184578,0.04928361251950264,-0.20724685490131378,0.05717417970299721,0.0007151236641220748,-0.014944994822144508,-1,6,-1000,57,1,-15,-22,-21,-152,18774.0
14:42:01.112,AUTO,-35.3632581,149.1652355,15265,0.01194186881184578,0.04928361251950264,-0.20724685490131378,0.05717417970299721,0.0007151236641220748,-0.014944994822144508,-1,6,-1000,57,1,-15,-22,-21,-152,18774.0
14:42:01.314,AUTO,-35.3632586,149.1652349,15656,0.026181630790233612,0.04833289235830307,-0.2091861218214035,0.058563970029354095,-0.006793948821723461,-0.00888901762664318,0,7,-1000,59,-6,-9,-32,-13,-152,18774.0
14:42:01.516,AUTO,-35.3632586,149.1652349,15656,0.026181630790233612,0.04833289235830307,-0.2091861218214035,0.058563970029354095,-0.006793948821723461,-0.00888901762664318,0,7,-1000,59,-6,-9,-32,-13,-152,18774.0
14:42:01.718,AUTO,-35.3632586,149.1652349,15656,0.026181630790233612,0.04833289235830307,-0.2091861218214035,0.058563970029354095,-0.006793948821723461,-0.00888901762664318,0,7,-1000,59,-6,-9,-32,-13,-152,3566.0
14:42:01.919,AUTO,-35.3632611,149.1652349,16821,0.03373054414987564,-0.002792560728266835,-0.17338240146636963,-0.03187858313322067,-0.12351381033658981,0.10887910425662994,9,3,-1001,-31,-123,108,-42,18,-150,3566.0
14:42:02.121,AUTO,-35.3632611,149.1652349,16821,0.03373054414987564,-0.002792560728266835,-0.17338240146636963,-0.03187858313322067,-0.12351381033658981,0.10887910425662994,9,3,-1001,-31,-123,108,-42,18,-150,3566.0
14:42:02.323,AUTO,-35.3632619,149.1652353,17208,0.025305461138486862,-0.03520028665661812,-0.1429063379764557,-0.029374245554208755,-0.1245737299323082,0.13046157360076904,9,1,-1004,-28,-123,129,-33,23,-151,3566.0
14:42:02.524,AUTO,-35.3632625,149.1652359,17594,0.009687850251793861,-0.0512780025601387,-0.12438984215259552,-0.0759081169962883,-0.0010674517834559083,0.030545802786946297,7,0,-999,-75,0,30,-18,25,-151,3566.0
14:42:02.726,AUTO,-35.3632627,149.1652365,17984,-0.015923622995615005,-0.04165808483958244,-0.12684427201747894,-0.14951910078525543,0.0588977113366127,-0.0375320129096508,5,-2,-994,-148,59,-37,-5,22,-150,3566.0
14:42:02.927,AUTO,-35.3632627,149.1652369,18366,-0.06039628013968468,-0.027697503566741943,-0.14150546491146088,-0.18853363394737244,0.051594290882349014,-0.07177074998617172,3,-6,-996,-187,52,-72,2,9,-148,3566.0
14:42:03.129,AUTO,-35.3632627,149.1652369,18366,-0.06039628013968468,-0.027697503566741943,-0.14150546491146088,-0.18853363394737244,0.051594290882349014,-0.07177074998617172,3,-6,-996,-187,52,-72,2,9,-148,3566.0
14:42:03.331,AUTO,-35.3632627,149.165237,18743,-0.09860271960496902,-0.007403052877634764,-0.14490769803524017,-0.08645251393318176,0.14504732191562653,0.1334802657365799,-1,-1,-976,-85,145,133,5,-12,-144,3566.0
14:42:03.533,AUTO,-35.3632627,149.165237,18743,-0.09860271960496902,-0.007403052877634764,-0.14490769803524017,-0.08645251393318176,0.14504732191562653,0.1334802657365799,-1,-1,-976,-85,145,133,5,-12,-144,3566.0
14:42:03.735,AUTO,-35.3632627,149.165237,18743,-0.09860271960496902,-0.007403052877634764,-0.14490769803524017,-0.08645251393318176,0.14504732191562653,0.1334802657365799,-1,-1,-976,-85,145,133,5,-12,-144,3566.0
14:42:03.937,AUTO,-35.363263,149.1652335,19719,0.004083091858774424,0.005991549231112003,0.024159366264939308,0.20491771399974823,-0.11987236142158508,0.05661025643348694,-3,11,-944,205,-119,56,-18,-54,-106,3566.0
14:42:04.138,AUTO,-35.363263,149.1652335,19719,0.004083091858774424,0.005991549231112003,0.024159366264939308,0.20491771399974823,-0.11987236142158508,0.05661025643348694,-3,11,-944,205,-119,56,-18,-54,-106,3566.0
14:42:04.340,AUTO,-35.3632634,149.1652321,19977,0.047074802219867706,-0.014874405227601528,0.0270090252161026,0.13704831898212433,-0.05429808422923088,-0.01680113933980465,-3,11,-951,137,-53,-17,-17,-45,-93,3566.0
14:42:04.542,AUTO,-35.3632637,149.165231,20203,0.0711493194103241,-0.023313399404287338,0.019592897966504097,0.06472794711589813,-0.020299868658185005,-0.03282424062490463,-2,8,-956,65,-19,-33,-13,-29,-81,3566.0
14:42:04.744,AUTO,-35.3632639,149.1652304,20400,0.07827304303646088,-0.024924250319600105,0.011615822091698647,0.004583932925015688,-0.00045108937774784863,-0.026474960148334503,-1,4,-961,5,0,-26,-7,-10,-71,140340.0
14:42:04.946,AUTO,-35.363264,149.1652303,20569,0.07444796711206436,-0.022778024896979332,0.006287530995905399,-0.03012983128428459,0.013592168688774109,-0.014363577589392662,0,0,-966,-29,14,-14,-1,7,-61,140340.0
14:42:05.148,AUTO,-35.363264,149.1652305,20716,0.06386879831552505,-0.017727738246321678,0.003935269545763731,-0.05280791595578194,0.023883242160081863,-0.005007090978324413,0,-3,-971,-52,24,-5,3,22,-53,140340.0
14:42:05.350,AUTO,-35.363264,149.1652305,20716,0.06386879831552505,-0.017727738246321678,0.003935269545763731,-0.05280791595578194,0.023883242160081863,-0.005007090978324413,0,-3,-971,-52,24,-5,3,22,-53,140340.0
14:42:05.552,AUTO,-35.363264,149.1652305,20716,0.06386879831552505,-0.017727738246321678,0.003935269545763731,-0.05280791595578194,0.023883242160081863,-0.005007090978324413,0,-3,-971,-52,24,-5,3,22,-53,140340.0
14:42:05.754,AUTO,-35.363264,149.1652305,20716,0.06386879831552505,-0.017727738246321678,0.003935269545763731,-0.05280791595578194,0.023883242160081863,-0.005007090978324413,0,-3,-971,-52,24,-5,3,22,-53,140340.0
14:42:05.956,AUTO,-35.3632634,149.1652332,21050,0.020585566759109497,0.0007818857557140291,0.002681194804608822,-0.05795243754982948,0.022182676941156387,0.0016457217279821634,2,-10,-979,-57,22,1,12,44,-35,140340.0
14:42:06.158,AUTO,-35.3632631,149.1652343,21132,0.009529974311590195,0.005480412393808365,0.0020653989631682634,-0.048515770584344864,0.014581480994820595,0.0006068805232644081,2,-10,-979,-47,14,0,12,44,-30,140340.0
14:42:06.360,AUTO,-35.3632631,149.1652343,21132,0.009529974311590195,0.005480412393808365,0.0020653989631682634,-0.048515770584344864,0.014581480994820595,0.0006068805232644081,2,-10,-979,-47,14,0,12,44,-30,140340.0
14:42:06.561,AUTO,-35.3632628,149.1652355,21200,0.0013594339834526181,0.00904049351811409,0.0016743214800953865,0.013354799710214138,0.011513959616422653,0.00012294584303162992,3,-7,-978,14,12,0,12,42,-24,140340.0
14:42:06.763,AUTO,-35.3632625,149.1652365,21253,-0.005986498668789864,0.011184478178620338,0.0008812827873043716,-0.04247042164206505,0.006291497498750687,-0.0017376403557136655,3,-11,-976,-41,6,-1,11,38,-18,140340.0
14:42:06.965,AUTO,-35.3632622,149.1652375,21292,-0.012489981018006802,0.012187802232801914,0.00017141274292953312,-0.09459815919399261,0.0022281829733401537,-0.0011997256660833955,2,-8,-973,-93,3,-1,9,33,-12,140340.0
14:42:07.167,AUTO,-35.363262,149.1652383,21312,-0.010455303825438023,0.012274508364498615,-0.0005821514059789479,0.2803962230682373,0.0005176630220375955,-0.0020418274216353893,2,4,-968,281,1,-2,7,28,-4,140340.0
14:42:07.368,AUTO,-35.363262,149.1652383,21312,-0.010455303825438023,0.012274508364498615,-0.0005821514059789479,0.2803962230682373,0.0005176630220375955,-0.0020418274216353893,2,4,-968,281,1,-2,7,28,-4,140340.0
14:42:07.570,AUTO,-35.363262,149.1652383,21312,-0.010455303825438023,0.012274508364498615,-0.0005821514059789479,0.2803962230682373,0.0005176630220375955,-0.0020418274216353893,2,4,-968,281,1,-2,7,28,-4,140340.0
14:42:07.772,AUTO,-35.363262,149.1652383,21312,-0.010455303825438023,0.012274508364498615,-0.0005821514059789479,0.2803962230682373,0.0005176630220375955,-0.0020418274216353893,2,4,-968,281,1,-2,7,28,-4,198583.0
14:42:07.973,AUTO,-35.3632618,149.1652393,21202,-0.03681753948330879,-0.006799710914492607,-0.0024490011855959892,-0.7613415122032166,-0.09518522024154663,-0.00531957158818841,-2,-31,-996,-760,-94,-5,0,-3,22,198583.0
14:42:08.175,AUTO,-35.3632617,149.1652391,21149,-0.015281407162547112,-0.028931820765137672,-0.002952796407043934,-0.5054893493652344,-0.07278478890657425,-0.009510261937975883,-2,-6,-1029,-504,-71,-9,4,-7,17,198583.0
14:42:08.376,AUTO,-35.3632617,149.1652391,21149,-0.015281407162547112,-0.028931820765137672,-0.002952796407043934,-0.5054893493652344,-0.07278478890657425,-0.009510261937975883,-2,-6,-1029,-504,-71,-9,4,-7,17,198583.0
14:42:08.578,AUTO,-35.3632615,149.1652389,21112,0.007238627411425114,-0.04606287181377411,-0.00481919152662158,0.3956630825996399,-0.06139899790287018,-0.013403519988059998,-4,34,-1023,397,-60,-13,13,-6,10,198583.0
14:42:08.779,AUTO,-35.3632611,149.1652387,21087,0.02853519842028618,-0.06009659916162491,-0.006078495178371668,0.7615121603012085,-0.05229058489203453,-0.005115670617669821,-6,19,-1022,762,-51,-5,25,-5,6,198583.0
14:42:08.981,AUTO,-35.3632603,149.1652384,21070,0.03559808060526848,-0.07277826964855194,-0.00808988232165575,0.04961204156279564,-0.052340809255838394,0.005492840893566608,-8,-23,-1011,49,-51,5,39,-1,4,198583.0
14:42:09.182,AUTO,-35.3632593,149.1652383,21060,0.03207573667168617,-0.084517702460289,0.0021467485930770636,-0.6283608675003052,-0.059148382395505905,0.17771053314208984,-10,-39,-1010,-627,-58,177,56,4,1,198583.0
14:42:09.384,AUTO,-35.3632593,149.1652383,21060,0.03207573667168617,-0.084517702460289,0.0021467485930770636,-0.6283608675003052,-0.059148382395505905,0.17771053314208984,-10,-39,-1010,-627,-58,177,56,4,1,198583.0
14:42:09.586,AUTO,-35.3632593,149.1652383,21060,0.03207573667168617,-0.084517702460289,0.0021467485930770636,-0.6283608675003052,-0.059148382395505905,0.17771053314208984,-10,-39,-1010,-627,-58,177,56,4,1,198583.0
14:42:09.788,AUTO,-35.3632593,149.1652383,21060,0.03207573667168617,-0.084517702460289,0.0021467485930770636,-0.6283608675003052,-0.059148382395505905,0.17771053314208984,-10,-39,-1010,-627,-58,177,56,4,1,198583.0
14:42:09.990,AUTO,-35.3632536,149.1652388,21062,0.03144383803009987,-0.1240035891532898,0.3213992118835449,0.5494670867919922,-0.05156489834189415,0.1253308802843094,-24,4,-996,550,-51,125,117,27,-2,198583.0
14:42:10.192,AUTO,-35.3632507,149.1652394,21066,0.023500783368945122,-0.13495221734046936,0.32629045844078064,-0.33367785811424255,-0.039015863090753555,-0.012654105201363564,-29,-41,-998,-333,-38,-12,141,35,-3,198583.0
14:42:10.394,AUTO,-35.3632507,149.1652394,21066,0.023500783368945122,-0.13495221734046936,0.32629045844078064,-0.33367785811424255,-0.039015863090753555,-0.012654105201363564,-29,-41,-998,-333,-38,-12,141,35,-3,198583.0
14:42:10.595,AUTO,-35.3632473,149.1652403,21072,0.018581051379442215,-0.14604341983795166,0.30925872921943665,-0.4167959988117218,-0.04439660161733627,-0.05865788087248802,-36,-30,-1007,-415,-43,-58,165,43,-3,198583.0
14:42:10.797,AUTO,-35.3632434,149.1652414,21079,0.02684038318693638,-0.15925022959709167,0.2921004593372345,0.13295261561870575,-0.050407156348228455,-0.05747675150632858,-39,-7,-1010,134,-49,-57,191,52,-3,93503.0
14:42:10.999,AUTO,-35.3632388,149.1652427,21086,0.03705696761608124,-0.17051050066947937,0.28267085552215576,0.2866649925708771,-0.0495765246450901,-0.01072077825665474,-44,-22,-1004,287,-48,-10,220,59,-3,93503.0
14:42:11.201,AUTO,-35.3632336,149.1652442,21094,0.03151891380548477,-0.182817742228508,0.27938854694366455,-0.29023224115371704,-0.04727307707071304,0.014843471348285675,-53,-46,-1006,-289,-46,14,250,68,-3,93503.0
14:42:11.408,AUTO,-35.3632336,149.1652442,21094,0.03151891380548477,-0.182817742228508,0.27938854694366455,-0.29023224115371704,-0.04727307707071304,0.014843471348285675,-53,-46,-1006,-289,-46,14,250,68,-3,93503.0
14:42:11.610,AUTO,-35.3632336,149.1652442,21094,0.03151891380548477,-0.182817742228508,0.27938854694366455,-0.29023224115371704,-0.04727307707071304,0.014843471348285675,-53,-46,-1006,-289,-46,14,250,68,-3,93503.0
14:42:11.812,AUTO,-35.3632336,149.1652442,21094,0.03151891380548477,-0.182817742228508,0.27938854694366455,-0.29023224115371704,-0.04727307707071304,0.014843471348285675,-53,-46,-1006,-289,-46,14,250,68,-3,93503.0
14:42:12.014,AUTO,-35.3632141,149.1652503,21122,0.04246668517589569,-0.18522700667381287,0.28069233894348145,0.08404602855443954,0.0034944782964885235,0.008385620079934597,-71,-43,-1009,84,4,8,337,91,-6,93503.0
14:42:12.216,AUTO,-35.3632062,149.1652528,21138,0.040037110447883606,-0.18674810230731964,0.28148218989372253,-0.18514826893806458,-0.013552704825997353,0.013563985005021095,-72,-48,-1005,-184,-12,13,364,98,-7,93503.0
14:42:12.417,AUTO,-35.3631978,149.1652556,21156,0.040539100766181946,-0.1897670328617096,0.2812954783439636,-0.008305536583065987,-0.018828827887773514,0.00021777460642624646,-80,-41,-1004,-7,-18,0,391,105,-7,93503.0
14:42:12.619,AUTO,-35.3631978,149.1652556,21156,0.040539100766181946,-0.1897670328617096,0.2812954783439636,-0.008305536583065987,-0.018828827887773514,0.00021777460642624646,-80,-41,-1004,-7,-18,0,391,105,-7,93503.0
14:42:12.821,AUTO,-35.3631889,149.1652585,21176,0.04322243481874466,-0.1976126730442047,0.28055956959724426,0.12433580309152603,-0.04597434774041176,-0.006553034298121929,-86,-42,-999,125,-45,-6,416,111,-8,93503.0
14:42:13.023,AUTO,-35.3631793,149.1652616,21195,0.04424877464771271,-0.20448242127895355,0.27963322401046753,0.013938479125499725,-0.03196387737989426,0.0010134688345715404,-92,-47,-1002,15,-31,1,443,117,-7,93503.0
14:42:13.225,AUTO,-35.3631689,149.165265,21215,0.04527723789215088,-0.21008305251598358,0.27880844473838806,-0.027695978060364723,-0.03497431054711342,-0.0015462649753317237,-95,-54,-1001,-26,-34,-1,470,123,-8,93503.0
14:42:13.427,AUTO,-35.3631689,149.165265,21215,0.04527723789215088,-0.21008305251598358,0.27880844473838806,-0.027695978060364723,-0.03497431054711342,-0.0015462649753317237,-95,-54,-1001,-26,-34,-1,470,123,-8,93503.0
14:42:13.629,AUTO,-35.3631689,149.165265,21215,0.04527723789215088,-0.21008305251598358,0.27880844473838806,-0.027695978060364723,-0.03497431054711342,-0.0015462649753317237,-95,-54,-1001,-26,-34,-1,470,123,-8,93503.0
14:42:13.831,AUTO,-35.3631689,149.165265,21215,0.04527723789215088,-0.21008305251598358,0.27880844473838806,-0.027695978060364723,-0.03497431054711342,-0.0015462649753317237,-95,-54,-1001,-26,-34,-1,470,123,-8,287021.0
14:42:14.033,AUTO,-35.3631346,149.165276,21285,0.054205458611249924,-0.2041776478290558,0.2770475447177887,0.025458674877882004,0.04093138873577118,-0.0033405146095901728,-111,-65,-1013,26,41,-3,549,139,-13,287021.0
14:42:14.234,AUTO,-35.3631221,149.1652801,21320,0.055840715765953064,-0.19315381348133087,0.27625465393066406,0.004539831075817347,0.034741926938295364,-0.011667381040751934,-118,-51,-1006,5,35,-11,569,145,-16,287021.0
14:42:14.436,AUTO,-35.3631091,149.1652842,21364,0.05932898819446564,-0.1885177493095398,0.27618879079818726,0.009453250095248222,0.006890241522341967,0.0014416150515899062,-131,-70,-1004,10,7,1,586,147,-18,287021.0
14:42:14.638,AUTO,-35.3631091,149.1652842,21364,0.05932898819446564,-0.1885177493095398,0.27618879079818726,0.009453250095248222,0.006890241522341967,0.0014416150515899062,-131,-70,-1004,10,7,1,586,147,-18,287021.0
14:42:14.839,AUTO,-35.3630958,149.1652884,21412,0.06219879165291786,-0.18885940313339233,0.2756775915622711,0.008441738784313202,0.004174341913312674,-0.006226034369319677,-122,-64,-989,9,4,-6,600,150,-19,287021.0
14:42:15.041,AUTO,-35.3630823,149.1652927,21457,0.06098503991961479,-0.18590891361236572,0.27514517307281494,-0.033396072685718536,0.001172840129584074,-0.002169697778299451,-121,-68,-989,-32,1,-2,615,155,-19,287021.0
14:42:15.243,AUTO,-35.3630683,149.1652972,21502,0.06045848876237869,-0.17589055001735687,0.27500852942466736,0.018461868166923523,0.05691900849342346,-0.011722364462912083,-137,-60,-1002,19,57,-11,628,158,-19,287021.0
14:42:15.445,AUTO,-35.3630683,149.1652972,21502,0.06045848876237869,-0.17589055001735687,0.27500852942466736,0.018461868166923523,0.05691900849342346,-0.011722364462912083,-137,-60,-1002,19,57,-11,628,158,-19,287021.0
14:42:15.647,AUTO,-35.3630683,149.1652972,21502,0.06045848876237869,-0.17589055001735687,0.27500852942466736,0.018461868166923523,0.05691900849342346,-0.011722364462912083,-137,-60,-1002,19,57,-11,628,158,-19,287021.0
14:42:15.849,AUTO,-35.3630683,149.1652972,21502,0.06045848876237869,-0.17589055001735687,0.27500852942466736,0.018461868166923523,0.05691900849342346,-0.011722364462912083,-137,-60,-1002,19,57,-11,628,158,-19,287021.0
14:42:16.051,AUTO,-35.3630249,149.1653108,21659,0.06917833536863327,-0.15599960088729858,0.27204349637031555,0.0069040656089782715,0.019821038469672203,-0.0021680009085685015,-138,-74,-989,7,20,-2,655,165,-21,287021.0
14:42:16.253,AUTO,-35.36301,149.1653154,21713,0.07132016122341156,-0.15076684951782227,0.2725711464881897,0.03512568771839142,0.01818659156560898,-0.0031456113792955875,-121,-56,-978,36,19,-3,660,166,-20,287021.0
14:42:16.454,AUTO,-35.3629951,149.1653201,21768,0.0762345939874649,-0.14619168639183044,0.2717198133468628,-0.0035109957680106163,0.017992788925766945,0.0020565111190080643,-133,-68,-977,-2,18,2,662,166,-20,287021.0
14:42:16.656,AUTO,-35.3629802,149.1653247,21820,0.07661785930395126,-0.14121848344802856,0.27097564935684204,-0.03261794522404671,0.014528212137520313,-0.0027469289489090443,-143,-63,-988,-31,15,-3,664,167,-19,287021.0
14:42:16.859,AUTO,-35.3629802,149.1653247,21820,0.07661785930395126,-0.14121848344802856,0.27097564935684204,-0.03261794522404671,0.014528212137520313,-0.0027469289489090443,-143,-63,-988,-31,15,-3,664,167,-19,259053.0
14:42:17.061,AUTO,-35.3629653,149.1653294,21870,0.08000639081001282,-0.1322081834077835,0.27018648386001587,0.023195898160338402,0.045519594103097916,-0.01416576188057661,-136,-63,-986,24,46,-14,665,168,-19,259053.0
14:42:17.263,AUTO,-35.3629503,149.1653341,21922,0.0789419636130333,-0.12457403540611267,0.2701990306377411,-0.020735546946525574,0.022387877106666565,-0.0005007548024877906,-134,-73,-984,-19,23,0,663,168,-19,259053.0
14:42:17.466,AUTO,-35.3629503,149.1653341,21922,0.0789419636130333,-0.12457403540611267,0.2701990306377411,-0.020735546946525574,0.022387877106666565,-0.0005007548024877906,-134,-73,-984,-19,23,0,663,168,-19,259053.0
14:42:17.667,AUTO,-35.3629503,149.1653341,21922,0.0789419636130333,-0.12457403540611267,0.2701990306377411,-0.020735546946525574,0.022387877106666565,-0.0005007548024877906,-134,-73,-984,-19,23,0,663,168,-19,259053.0
14:42:17.869,AUTO,-35.3629503,149.1653341,21922,0.0789419636130333,-0.12457403540611267,0.2701990306377411,-0.020735546946525574,0.022387877106666565,-0.0005007548024877906,-134,-73,-984,-19,23,0,663,168,-19,259053.0
14:42:18.071,AUTO,-35.3629059,149.1653482,22042,0.07595790177583694,-0.14620986580848694,0.2693747580051422,-0.053315237164497375,-0.023715918883681297,0.004417920019477606,-133,-72,-976,-52,-23,4,659,169,-9,259053.0
14:42:18.273,AUTO,-35.3628911,149.1653528,22066,0.0782535970211029,-0.1442885845899582,0.26843664050102234,-0.03178614750504494,0.00510589312762022,0.005282217171043158,-134,-84,-993,-30,5,5,663,169,-8,259053.0
14:42:18.475,AUTO,-35.3628761,149.1653576,22091,0.07918649911880493,-0.1404476761817932,0.26725828647613525,-0.005965846590697765,0.010112151503562927,0.005144017748534679,-141,-77,-999,-5,10,5,665,170,-10,259053.0
14:42:18.676,AUTO,-35.3628612,149.1653624,22120,0.07548583298921585,-0.13877412676811218,0.2663275897502899,0.008140032179653645,-0.010540924966335297,-0.0005820351070724428,-120,-74,-985,9,-9,0,667,171,-10,259053.0
14:42:18.878,AUTO,-35.3628612,149.1653624,22120,0.07548583298921585,-0.13877412676811218,0.2663275897502899,0.008140032179653645,-0.010540924966335297,-0.0005820351070724428,-120,-74,-985,9,-9,0,667,171,-10,259053.0
14:42:19.080,AUTO,-35.3628461,149.1653672,22151,0.07574621587991714,-0.1410292536020279,0.26628488302230835,0.004733929876238108,-0.025561541318893433,0.008898260071873665,-138,-74,-984,5,-24,8,667,171,-11,259053.0
14:42:19.282,AUTO,-35.3628311,149.1653721,22181,0.07226581126451492,-0.14102937281131744,0.2668348550796509,0.0045443251729011536,0.016283463686704636,0.004590969067066908,-124,-77,-985,5,16,4,670,172,-10,259053.0
14:42:19.484,AUTO,-35.3628311,149.1653721,22181,0.07226581126451492,-0.14102937281131744,0.2668348550796509,0.0045443251729011536,0.016283463686704636,0.004590969067066908,-124,-77,-985,5,16,4,670,172,-10,259053.0
14:42:19.688,AUTO,-35.3628311,149.1653721,22181,0.07226581126451492,-0.14102937281131744,0.2668348550796509,0.0045443251729011536,0.016283463686704636,0.004590969067066908,-124,-77,-985,5,16,4,670,172,-10,259053.0
14:42:19.890,AUTO,-35.3628311,149.1653721,22181,0.07226581126451492,-0.14102937281131744,0.2668348550796509,0.0045443251729011536,0.016283463686704636,0.004590969067066908,-124,-77,-985,5,16,4,670,172,-10,46742.0
14:42:20.092,AUTO,-35.3627861,149.1653864,22291,0.07130693644285202,-0.13632453978061676,0.26622915267944336,0.0025423401966691017,-0.031310487538576126,-0.005515588913112879,-136,-69,-982,3,-30,-5,669,170,-13,46742.0
14:42:20.294,AUTO,-35.3627711,149.1653912,22329,0.07380454242229462,-0.1386360377073288,0.2656177580356598,0.004141840152442455,-0.006614122074097395,-0.003515355521813035,-132,-82,-983,5,-5,-3,669,168,-13,46742.0
14:42:20.496,AUTO,-35.362756,149.1653959,22365,0.07559382170438766,-0.1327906847000122,0.2648649513721466,-0.012434545904397964,0.0296099204570055,0.0007029257249087095,-143,-75,-1004,-11,30,0,670,169,-13,46742.0
14:42:20.697,AUTO,-35.3627409,149.1654005,22405,0.07574629783630371,-0.12974479794502258,0.2652517557144165,0.0018002311699092388,-0.0008257426670752466,0.0013184929266571999,-135,-76,-987,2,0,1,668,168,-15,46742.0
14:42:20.899,AUTO,-35.3627409,149.1654005,22405,0.07574629783630371,-0.12974479794502258,0.2652517557144165,0.0018002311699092388,-0.0008257426670752466,0.0013184929266571999,-135,-76,-987,2,0,1,668,168,-15,46742.0
14:42:21.101,AUTO,-35.3627259,149.1654052,22445,0.08059214800596237,-0.13460053503513336,0.26469868421554565,0.012424575164914131,-0.013414643704891205,0.004800130147486925,-134,-71,-977,13,-12,5,667,167,-13,46742.0
14:42:21.303,AUTO,-35.3627109,149.1654098,22481,0.07931823283433914,-0.1361759603023529,0.2648000419139862,-0.011764743365347385,0.0014759227633476257,0.0008979160338640213,-135,-81,-986,-10,2,1,666,168,-12,46742.0
14:42:21.513,AUTO,-35.3627109,149.1654098,22481,0.07931823283433914,-0.1361759603023529,0.2648000419139862,-0.011764743365347385,0.0014759227633476257,0.0008979160338640213,-135,-81,-986,-10,2,1,666,168,-12,46742.0
14:42:21.715,AUTO,-35.3627109,149.1654098,22481,0.07931823283433914,-0.1361759603023529,0.2648000419139862,-0.011764743365347385,0.0014759227633476257,0.0008979160338640213,-135,-81,-986,-10,2,1,666,168,-12,46742.0
14:42:21.917,AUTO,-35.3626658,149.1654238,22590,0.08056312799453735,-0.1258980631828308,0.263295441865921,-0.0027040813583880663,-0.010026236064732075,-0.0002938825055025518,-167,-79,-1004,-1,-9,0,664,169,-14,46742.0
14:42:22.118,AUTO,-35.3626658,149.1654238,22590,0.08056312799453735,-0.1258980631828308,0.263295441865921,-0.0027040813583880663,-0.010026236064732075,-0.0002938825055025518,-167,-79,-1004,-1,-9,0,664,169,-14,46742.0
14:42:22.320,AUTO,-35.3626508,149.1654285,22628,0.07719887793064117,-0.13057351112365723,0.2635754942893982,0.01696597784757614,0.001311893225647509,-0.0032043885439634323,-138,-91,-991,17,1,-2,664,169,-13,46742.0
14:42:22.522,AUTO,-35.3626358,149.1654332,22665,0.07856161147356033,-0.13085557520389557,0.2635837197303772,0.0020930315367877483,0.011506091803312302,-0.0034336044918745756,-139,-77,-988,2,11,-3,662,169,-13,46742.0
14:42:22.724,AUTO,-35.3626209,149.1654379,22702,0.07665479183197021,-0.13043344020843506,0.2635482847690582,-0.07105915248394012,-0.008841694332659245,0.004391487687826157,-139,-80,-987,-70,-7,4,661,169,-13,232695.0
14:42:22.926,AUTO,-35.362606,149.1654426,22738,0.07437187433242798,-0.1320132315158844,0.26308736205101013,0.01674669235944748,-0.006314283702522516,0.008215852081775665,-147,-77,-992,17,-5,8,660,169,-12,232695.0
14:42:23.129,AUTO,-35.362606,149.1654426,22738,0.07437187433242798,-0.1320132315158844,0.26308736205101013,0.01674669235944748,-0.006314283702522516,0.008215852081775665,-147,-77,-992,17,-5,8,660,169,-12,232695.0
14:42:23.331,AUTO,-35.3625911,149.1654473,22773,0.07790999859571457,-0.13189435005187988,0.2620612382888794,0.038290902972221375,-0.003832045244053006,-0.005656310822814703,-146,-76,-993,39,-3,-5,660,169,-12,232695.0
14:42:23.532,AUTO,-35.3625911,149.1654473,22773,0.07790999859571457,-0.13189435005187988,0.2620612382888794,0.038290902972221375,-0.003832045244053006,-0.005656310822814703,-146,-76,-993,39,-3,-5,660,169,-12,232695.0
14:42:23.734,AUTO,-35.3625911,149.1654473,22773,0.07790999859571457,-0.13189435005187988,0.2620612382888794,0.038290902972221375,-0.003832045244053006,-0.005656310822814703,-146,-76,-993,39,-3,-5,660,169,-12,232695.0
14:42:23.936,AUTO,-35.3625463,149.1654614,22883,0.07726199924945831,-0.12867704033851624,0.2616322338581085,0.0016441538464277983,-0.001557140494696796,-0.007295157294720411,-136,-75,-986,2,0,-7,658,168,-13,232695.0
14:42:24.138,AUTO,-35.3625463,149.1654614,22883,0.07726199924945831,-0.12867704033851624,0.2616322338581085,0.0016441538464277983,-0.001557140494696796,-0.007295157294720411,-136,-75,-986,2,0,-7,658,168,-13,232695.0
14:42:24.339,AUTO,-35.3625314,149.165466,22920,0.0785607323050499,-0.12609748542308807,0.2614116072654724,-0.03434642404317856,0.028491616249084473,0.006140277720987797,-138,-83,-994,-33,29,6,656,168,-13,232695.0
14:42:24.541,AUTO,-35.3625165,149.1654707,22959,0.07601660490036011,-0.10986024886369705,0.2615799605846405,-0.05221456661820412,0.08245779573917389,-0.0034430380910634995,-133,-74,-1006,-51,83,-2,654,168,-16,232695.0
14:42:24.743,AUTO,-35.3625017,149.1654753,23007,0.0766129195690155,-0.08788028359413147,0.2616938650608063,0.03434294834733009,0.07499414682388306,-0.00631351862102747,-166,-73,-1022,35,75,-6,647,166,-20,232695.0
14:42:24.945,AUTO,-35.3624871,149.1654799,23064,0.0778975710272789,-0.08118506520986557,0.26111820340156555,-0.0018497754354029894,0.01379624754190445,-0.007010011933743954,-151,-75,-994,0,14,-6,635,163,-21,232695.0
14:42:25.147,AUTO,-35.3624871,149.1654799,23064,0.0778975710272789,-0.08118506520986557,0.26111820340156555,-0.0018497754354029894,0.01379624754190445,-0.007010011933743954,-151,-75,-994,0,14,-6,635,163,-21,232695.0
14:42:25.348,AUTO,-35.3624728,149.1654844,23117,0.07694193720817566,-0.0679841935634613,0.2615974247455597,-0.046379122883081436,0.07177072018384933,-0.00029816804453730583,-124,-71,-990,-45,72,0,624,161,-19,232695.0
14:42:25.550,AUTO,-35.3624728,149.1654844,23117,0.07694193720817566,-0.0679841935634613,0.2615974247455597,-0.046379122883081436,0.07177072018384933,-0.00029816804453730583,-124,-71,-990,-45,72,0,624,161,-19,232695.0
14:42:25.752,AUTO,-35.3624728,149.1654844,23117,0.07694193720817566,-0.0679841935634613,0.2615974247455597,-0.046379122883081436,0.07177072018384933,-0.00029816804453730583,-124,-71,-990,-45,72,0,624,161,-19,233096.0
14:42:25.954,AUTO,-35.3624321,149.1654972,23270,0.07405507564544678,-0.03296735882759094,0.2624620497226715,-0.06486722081899643,0.026151547208428383,-0.002286416944116354,-119,-81,-983,-63,27,-2,573,148,-16,233096.0
14:42:26.156,AUTO,-35.3624193,149.1655013,23313,0.07428834587335587,-0.023405950516462326,0.2622927129268646,0.12341099977493286,0.01792607642710209,-0.012625879608094692,-112,-64,-986,124,18,-12,553,143,-14,233096.0
14:42:26.357,AUTO,-35.3624193,149.1655013,23313,0.07428834587335587,-0.023405950516462326,0.2622927129268646,0.12341099977493286,0.01792607642710209,-0.012625879608094692,-112,-64,-986,124,18,-12,553,143,-14,233096.0
14:42:26.559,AUTO,-35.3624071,149.1655052,23350,0.075079046189785,-0.011801641434431076,0.26250478625297546,0.08016905188560486,0.03844737261533737,0.001851232023909688,-106,-81,-989,80,39,2,532,137,-12,233096.0
14:42:26.761,AUTO,-35.3623952,149.165509,23382,0.06823806464672089,-0.00024428864708170295,0.2624039649963379,-0.36479219794273376,0.042125001549720764,0.016027217730879784,-110,-81,-991,-364,42,16,508,131,-10,233096.0
14:42:26.963,AUTO,-35.362384,149.1655126,23410,0.07118005305528641,0.009826318360865116,0.26168203353881836,0.2492675483226776,0.037793468683958054,-0.02688942663371563,-107,-48,-994,250,38,-26,483,125,-8,233096.0
14:42:27.165,AUTO,-35.3623733,149.165516,23430,0.07720156759023666,0.022380227223038673,0.26140424609184265,0.6318855285644531,0.06741849333047867,-0.021272238343954086,-96,-45,-987,632,68,-20,457,119,-4,233096.0
14:42:27.367,AUTO,-35.3623733,149.165516,23430,0.07720156759023666,0.022380227223038673,0.26140424609184265,0.6318855285644531,0.06741849333047867,-0.021272238343954086,-96,-45,-987,632,68,-20,457,119,-4,233096.0
14:42:27.569,AUTO,-35.3623733,149.165516,23430,0.07720156759023666,0.022380227223038673,0.26140424609184265,0.6318855285644531,0.06741849333047867,-0.021272238343954086,-96,-45,-987,632,68,-20,457,119,-4,233096.0
14:42:27.771,AUTO,-35.3623733,149.165516,23430,0.07720156759023666,0.022380227223038673,0.26140424609184265,0.6318855285644531,0.06741849333047867,-0.021272238343954086,-96,-45,-987,632,68,-20,457,119,-4,233096.0
14:42:27.972,AUTO,-35.3623451,149.1655253,23454,0.0480649508535862,0.052330538630485535,0.26153677701950073,-0.674445629119873,-0.007068231236189604,0.0423588827252388,-75,-91,-1010,-674,-6,42,368,97,-1,233096.0
14:42:28.174,AUTO,-35.362337,149.165528,23461,0.037012238055467606,0.048551954329013824,0.262084037065506,-0.7100226283073425,-0.01043761521577835,0.01668923906981945,-76,-76,-1007,-708,-9,17,339,89,-1,233096.0
14:42:28.376,AUTO,-35.362337,149.165528,23461,0.037012238055467606,0.048551954329013824,0.262084037065506,-0.7100226283073425,-0.01043761521577835,0.01668923906981945,-76,-76,-1007,-708,-9,17,339,89,-1,233096.0
14:42:28.577,AUTO,-35.3623297,149.1655304,23466,0.04380958527326584,0.04645220562815666,0.26192179322242737,0.16053998470306396,0.003535476280376315,-0.022251950576901436,-65,-19,-1008,162,4,-21,312,83,-1,233096.0
