time_stamp,RTL_ALT,lat,lon,relative_alt,vx,vy,vz,xacc,yacc,zacc,xgyro,ygyro,zgyro,roll,pitch,yaw,rollspeed,pitchspeed,yawspeed,MODE
21:45:16,1500.0,-35.3632622,149.1652375,5.5,-1.0,0.0,-1.5,0.0,1.0,-1000.0,1.0,0.0,0.5,-0.00037691608304157853,0.0009550381219014525,0.021402684040367603,0.00014263630146160722,0.00014142933650873601,0.0015799426473677158,AUTO
21:45:20,1500.0,-35.3632621,149.16523745,114.0,0.0,0.5,-51.0,0.0,-0.5,-1137.5,-4.5,1.0,1.5,0.0053003281354904175,-0.00034770849015330896,0.020378935150802135,-0.005377769470214844,0.0007714258972555399,0.002463119220919907,AUTO
21:45:22,1500.0,-35.363261699999995,149.1652393,2675.5,6.5,37.0,-147.5,1.0,-5.5,-996.0,17.5,2.5,-17.5,0.0581840593367815,-0.008420199854299426,0.00634792260825634,0.01693478529341519,0.00210037874057889,-0.01735822018235922,AUTO
21:45:24,1500.0,-35.3632607,149.16524615,5711.0,-1.0,-18.5,-147.0,-1.0,2.0,-1004.0,31.5,-1.5,-27.5,-0.07588561624288559,0.004018104984425008,-0.09506634622812271,0.0315091242082417,-0.002352436422370374,-0.027728453278541565,AUTO
21:45:26,1500.0,-35.36326285,149.1652352,8794.5,-24.0,-33.0,-150.5,-2.5,12.0,-1002.5,65.5,0.5,3.0,0.049316151067614555,0.01395746460184455,-0.10612849146127701,0.06537039950489998,1.9456958398222923e-05,0.003608121653087437,AUTO
21:45:28,1500.0,-35.3632626,149.1652371,11875.5,37.0,14.0,-147.5,-4.0,-7.5,-1006.5,-24.5,65.0,-95.5,-0.029009299352765083,-0.004736105329357088,-0.08551368862390518,-0.025484103709459305,0.06478191912174225,-0.09574628248810768,AUTO
21:45:30,1500.0,-35.3632596,149.16523525,14999.5,-10.0,-6.5,-150.0,-0.5,2.0,-998.0,8.0,-13.0,5.5,0.016867756843566895,0.021966278553009033,-0.17051056027412415,0.00812363950535655,-0.01427905960008502,0.006305540795437992,AUTO
21:45:32,1500.0,-35.363261800000004,149.16523595,18114.5,-10.0,8.5,-150.0,2.5,0.0,-1001.0,-2.0,-0.5,-19.0,0.0004371550530777313,-0.003108978387899697,-0.1704375445842743,-0.0032220673747360706,-0.0021641008788719773,-0.01911356672644615,AUTO
21:45:34,1500.0,-35.3632622,149.1652364,21242.5,0.0,1.0,-151.0,0.0,0.0,-1000.0,4.0,4.5,-24.5,0.0034776299726217985,0.0015443498268723488,-0.22216909378767014,0.0038168043829500675,0.004002824192866683,-0.02467567753046751,AUTO
21:45:36,1500.0,-35.3632621,149.16523654999997,24368.0,-1.0,4.0,-151.0,0.0,0.0,-1000.0,0.0,1.5,-19.5,0.0037910130340605974,0.0038584800204262137,-0.2642306983470917,-0.0006370161718223244,0.0012097416911274195,-0.019661715254187584,AUTO
21:45:38,1500.0,-35.3632623,149.1652365,27643.0,-3.5,6.0,-151.0,0.0,0.0,-999.5,-3.0,-0.5,25.0,0.011197112035006285,0.0026916267815977335,-0.24657730758190155,-0.004643742460757494,-0.0017932443879544735,0.025228111073374748,AUTO
21:45:40,1500.0,-35.3632624,149.16523784999998,30753.5,0.0,6.5,-151.0,0.0,-0.5,-1000.0,-1.0,-0.5,18.5,-0.000927586923353374,0.0018536642310209572,-0.20430026203393936,-0.002302844717632979,-0.0012544715718831867,0.01932412665337324,AUTO
21:45:42,1500.0,-35.3632623,149.1652381,33874.0,0.0,0.0,-152.0,0.0,0.0,-1000.0,1.5,1.0,13.5,0.001212235540151596,0.000952601432800293,-0.17290998250246048,0.0013052370632067323,-0.00011378672206774354,0.013884817250072956,AUTO
21:45:44,1500.0,-35.3632622,149.16523784999998,36990.5,0.0,0.0,-152.0,0.0,0.0,-1000.0,1.5,0.5,10.5,0.0020934150088578463,0.0008640503510832787,-0.14957882463932037,0.0008468553423881531,-2.544268500059843e-05,0.011362963356077671,AUTO
21:45:46,1500.0,-35.36326215,149.1652376,40106.0,0.0,0.0,-152.0,0.0,0.0,-1000.5,0.5,1.0,8.0,0.0025734846713021398,0.0014002019888721406,-0.13192210346460342,-0.00020244251936674118,8.490838808938861e-05,0.008123541250824928,AUTO
21:45:52,1500.0,-35.3632645,149.1652336,48943.0,-17.0,-28.0,-81.5,2.0,8.5,-959.5,77.5,-41.0,16.0,0.01991553930565715,-0.04987245239317417,0.28895504772663116,0.07655496522784233,-0.04257182125002146,0.015195478918030858,AUTO
21:46:00,1500.0,-35.36324765,149.16526735,49995.5,24.5,38.5,0.0,-7.5,-23.5,-1001.5,69.0,-30.5,-36.5,0.0010411259718239307,0.04287615418434143,0.9930578768253326,0.07070733606815338,-0.031797029078006744,-0.03718340862542391,BRAKE
21:46:04,1500.0,-35.36324345,149.16527165000002,48623.5,11.5,0.5,175.5,-2.0,-10.0,-937.0,1053.0,7.0,0.0,0.03337942250072956,-0.0006948753725737333,0.9534437358379364,1.0583921372890472,0.006600753404200077,-0.0007055756286717951,ALT_HOLD
21:46:08,1500.0,-35.36323965,149.16528855,46096.0,92.5,48.0,0.0,-21.0,-25.5,-1000.0,-427.0,-104.5,-52.0,-0.04454984329640865,-0.09963342547416687,1.0994506478309631,-0.427226260304451,-0.10644907876849174,-0.052943237125873566,AUTO
21:46:10,1500.0,-35.3632173,149.16532415,46215.0,158.0,161.0,-17.5,-49.0,-58.5,-1004.5,-470.0,130.0,15.5,0.04916059039533138,0.15403439104557037,1.0843725204467773,-0.466350294649601,0.12880834564566612,0.01641841698437929,BRAKE
21:46:14,1500.0,-35.36320105,149.16534315,46129.0,20.5,-8.0,51.0,-6.5,46.5,-841.0,1170.5,5.0,0.5,0.018949669785797596,-0.0034918506862595677,1.0643229484558105,1.1724127531051636,0.003790796792600304,-0.00011623790487647057,ALT_HOLD
21:46:16,1500.0,-35.3631948,149.16534009999998,43175.5,3.5,-2.0,122.0,-9.5,-57.5,-1158.0,-1409.5,-31.5,2.5,0.01946678338572383,-0.018604971934109926,1.055470883846283,-1.4073359370231628,-0.03411151468753815,0.002468179998686537,AUTO
21:46:20,1500.0,-35.363180549999996,149.16535885000002,42388.5,54.5,168.0,-4.5,-33.0,-11.0,-1009.0,360.0,-50.0,10.5,0.04823720268905163,-0.1573774591088295,1.0360957384109497,0.3597263917326927,-0.05267466604709625,0.008594813058152795,AUTO
21:46:22,1500.0,-35.363153249999996,149.165415,42608.5,187.5,357.0,-15.5,-83.0,-45.0,-1003.5,6.5,-34.5,17.5,0.05209244415163994,-0.1823812574148178,1.0307325720787048,0.006104916334152222,-0.03688694350421429,0.015952096320688725,AUTO
21:46:26,1500.0,-35.36311835,149.16549609999998,43035.5,13.5,40.5,-0.5,-6.0,-39.0,-1005.0,-662.0,-4.0,-1.0,-0.015524895396083593,0.013177844230085611,1.0502538084983826,-0.44930220395326614,-0.003979055676609278,-0.003879313822835684,BRAKE
21:46:28,1500.0,-35.363116000000005,149.16550385,41717.0,20.5,29.5,173.5,-7.0,13.5,-963.0,1405.5,6.0,2.0,0.03502371534705162,-0.0026734003331512213,1.0472302436828613,1.4091311693191528,0.003980902023613453,4.0289945900440216e-05,ALT_HOLD
21:46:32,1500.0,-35.3631071,149.16552074999998,39219.5,58.5,81.5,-6.5,-17.0,-32.0,-1005.0,-508.0,-101.0,-3.0,0.0049562035128474236,-0.10723299160599709,1.0215358138084412,-0.16505559533834457,-0.09068934246897697,-0.012163652805611491,AUTO
21:46:34,1500.0,-35.3630846,149.16556229999998,39479.5,193.5,295.5,-21.5,-70.0,-38.0,-1017.0,25.0,26.5,-5.5,0.03832070156931877,-0.18276091665029526,1.015525758266449,0.02330506592988968,0.024699454195797443,-0.0080130435526371,AUTO
21:46:36,1500.0,-35.3630428,149.1656422,40070.0,294.0,469.0,-37.0,-115.0,-56.0,-1014.0,-17.0,98.0,-27.0,0.0565795823931694,-0.18327704817056656,0.9984696209430695,-0.006757313618436456,0.06563277542591095,-0.055839402601122856,AUTO
21:46:38,1500.0,-35.362986199999995,149.1657519,41318.0,232.0,394.0,-35.0,-92.0,-53.0,-952.0,-10.5,-11.0,-6.5,0.06894958019256592,0.027228491380810738,1.0224027633666992,-0.01144184684380889,-0.013589994632638991,-0.008634618832729757,AUTO
21:46:44,1500.0,-35.362947000000005,149.16583465000002,40364.0,34.0,38.5,174.0,-12.5,-27.5,-938.5,-1285.0,4.5,-18.0,-0.020475598983466625,-0.003194719785824418,1.020169973373413,-1.2915513217449188,0.002348537091165781,-0.020490046590566635,ALT_HOLD
21:46:48,1500.0,-35.3629379,149.16585325,37885.5,63.0,70.0,-9.0,-19.0,7.0,-1010.0,397.5,-90.5,-0.5,0.006654942641034722,-0.10147933289408684,1.0129791498184204,0.396724134683609,-0.09296547248959541,-0.0020581213757395744,AUTO
21:46:50,1500.0,-35.362914849999996,149.1658922,38269.0,191.5,289.0,-32.5,-71.5,-28.5,-1021.0,79.5,12.0,3.5,0.05400630086660385,-0.1813715547323227,1.0047719478607178,0.07872520480304956,0.009480230277404189,0.0018804234568960965,AUTO
21:46:56,1500.0,-35.3628123,149.16609465,40733.0,54.5,107.0,-4.5,-22.0,-12.5,-993.5,455.0,32.0,-3.0,0.02496200241148472,0.09245423972606659,1.0122519731521606,0.4558117687702179,0.02998181711882353,-0.004326020804001018,AUTO
21:47:02,1500.0,-35.36275565,149.16620204999998,41897.5,58.0,102.0,-2.0,-22.0,17.0,-987.0,549.0,-138.0,-13.0,0.029395008459687233,0.10093521699309349,1.0205051898956299,0.5461290180683136,-0.14107917994260788,-0.014536706206854433,BRAKE
21:47:06,1500.0,-35.36274675,149.16622009999998,40685.0,23.5,18.5,173.0,-6.0,17.0,-917.0,1376.0,5.0,7.0,0.03285965509712696,-0.0024722989182919264,1.0201757550239563,1.5583724975585938,0.0036643105559051037,0.010421013692393899,ALT_HOLD
21:47:08,1500.0,-35.36274315,149.1662248,38272.0,20.0,23.5,27.5,-9.0,11.0,-1059.0,565.0,5.0,1.5,0.0174588430672884,-0.016894658096134663,1.0194799304008484,0.5659497231245041,0.0025850379606708884,0.0004828670062124729,AUTO
21:47:12,1500.0,-35.3627175,149.16627104999998,38790.0,173.0,280.5,-45.5,-68.5,-44.0,-1029.5,-39.0,23.5,2.0,0.04213850200176239,-0.17893151938915253,1.0045374035835266,-0.040467452723532915,0.02119369711726904,0.00033305317629128695,AUTO
21:47:18,1500.0,-35.362648050000004,149.16641105,41335.0,1.5,14.5,4.5,-3.0,-31.0,-989.0,-270.0,-225.0,30.0,0.0033194704446941614,0.03107509296387434,1.010382056236267,-0.5085296928882599,-0.1827484369277954,0.016606759978458285,AUTO
21:47:20,1500.0,-35.3626415,149.1664234,41393.0,113.0,169.0,-19.0,-26.0,-13.0,-1031.5,238.0,-30.0,8.0,0.025489887222647667,-0.15163223445415497,1.0076984167099,0.2038678303360939,0.09809421375393867,-0.005165356211364269,AUTO
21:47:22,1500.0,-35.36261175,149.16647925,42383.0,150.5,236.5,-64.5,-67.0,-49.0,-1003.0,-225.0,228.0,2.0,0.04197952337563038,0.08164488337934017,1.0105996131896973,-0.03695923089981079,0.21408619731664658,-0.003433785808738321,AUTO
21:47:26,1500.0,-35.362594400000006,149.1665145,43146.5,24.5,37.0,-4.0,-9.0,-13.0,-994.0,-534.0,15.0,1.0,0.0036803545444854535,0.0027136383578181267,1.0134367942810059,-0.11671680212020874,0.01077045314013958,-0.0006997457821853459,BRAKE
21:47:28,1500.0,-35.3625895,149.16652069999998,41937.5,25.0,22.0,171.0,-7.5,-83.0,-849.0,-1008.0,-2.5,7.0,0.013969830237329006,-0.0011487711453810334,1.01075279712677,-0.22036106884479523,-0.00035172910429537296,-0.0012701095547527075,ALT_HOLD
21:47:32,1500.0,-35.3625818,149.1665329,39494.0,30.0,55.0,-16.0,-10.5,-7.0,-1011.5,69.0,-56.0,0.5,-0.00023191886430140585,-0.06453053653240204,1.0171059370040894,-0.1274580955505371,-0.08758972585201263,-0.014869946986436844,AUTO
21:47:36,1500.0,-35.362545966666666,149.16660433333334,41526.333333333336,106.0,164.33333333333334,-57.666666666666664,-44.0,-41.0,-979.0,-239.0,12.5,4.5,0.022650550430019695,0.019358167424798012,1.0156350135803223,-0.1701543883730968,0.015424116048961878,0.0015846116002649069,AUTO
21:47:38,1500.0,-35.3625336,149.16662975000003,42271.5,50.5,80.0,-20.5,-17.5,-20.0,-979.0,-99.0,24.0,1.5,0.009558970729509989,0.0538756400346756,1.0172725121180217,-0.27297882239023846,0.019750055546561878,0.00019038701429963112,AUTO
21:47:42,1500.0,-35.36251995,149.1666524,42649.0,87.0,152.5,-36.5,-36.5,-11.0,-1028.5,116.0,122.0,3.5,0.034969769418239594,-0.08729645609855652,1.0130541920661926,0.112674530595541,0.11911932565271854,0.0008988641202449799,AUTO
21:47:44,1500.0,-35.3625062,149.1666783,43435.0,36.0,94.0,-37.0,-19.0,-10.0,-969.0,344.0,118.0,15.0,0.041393619030714035,0.14896975457668304,1.0182569026947021,0.3444823920726776,0.11555831134319305,0.012255883775651455,AUTO
21:47:46,1500.0,-35.3625067,149.1666817,43605.0,-15.0,0.0,5.0,3.0,5.0,-993.0,-298.0,5.0,8.0,-0.015648314729332924,-0.033511433750391006,1.0174193382263184,-0.30339059233665466,0.0025680435355752707,0.005530504509806633,AUTO
21:47:48,1500.0,-35.3625007,149.1666934,43750.0,51.0,79.0,-16.0,-20.0,-32.0,-984.0,-24.0,-23.0,11.0,0.02455298975110054,0.06836503744125366,1.0180494785308838,-0.024161236360669136,-0.026786239817738533,0.008355013094842434,BRAKE
21:47:50,1500.0,-35.3624978,149.1667021,43909.0,3.0,3.0,-3.0,-1.0,17.0,-993.0,82.0,-14.0,4.0,-0.01166526973247528,0.020670371130108833,1.0194709300994873,0.07735753804445267,-0.017762484028935432,0.0017240920569747686,BRAKE
21:47:52,1500.0,-35.3624978,149.1667024,43885.0,4.0,-6.0,37.0,0.0,-51.0,-847.0,-600.0,0.0,2.0,-5.1360257202759385e-05,-0.0012852768413722515,1.0186909437179565,-0.597883403301239,-0.002231743885204196,0.0004401570186018944,ALT_HOLD
21:47:54,1500.0,-35.3624984,149.1667042,41050.0,4.0,6.0,107.0,0.0,62.0,-1153.0,1044.0,-21.0,9.0,-0.010706870816648006,-0.007373894564807415,1.0190798044204712,1.0378116369247437,-0.024798378348350525,0.006438888609409332,AUTO
21:47:56,1500.0,-35.3624971,149.1667091,40407.0,31.0,13.0,-11.0,-6.0,-27.0,-1012.0,-154.0,-28.0,3.0,-0.0075149862095713615,-0.016443168744444847,1.0192997455596924,-0.1532847285270691,-0.03224014863371849,0.0009749545715749264,AUTO
21:47:58,1500.0,-35.3624882,149.1667217,40996.0,83.0,110.0,-54.0,-30.0,-17.0,-1027.0,116.0,50.0,-1.0,0.026846623048186302,-0.08531919866800308,1.0069806575775146,0.11607224494218826,0.04658764228224754,-0.0038645376916974783,AUTO
21:48:00,1500.0,-35.36247185,149.1667519,42505.5,45.0,87.0,-48.5,-19.5,-7.0,-979.5,-104.0,5.0,2.0,0.014164685970172286,0.02266815397888422,1.0083643198013306,-0.10707312822341919,0.001745066256262362,-0.00019249360775575042,AUTO
21:48:02,1500.0,-35.362467,149.1667634,43066.0,15.0,34.0,-14.0,-7.0,25.0,-982.0,520.0,20.0,2.0,0.008347655646502972,0.04020112007856369,1.009163737297058,0.5168079137802124,0.016857070848345757,-0.00030915718525648117,AUTO
21:48:04,1500.0,-35.3624663,149.16676595,43066.5,1.0,1.0,1.0,-1.0,-0.5,-1008.5,-17.0,2.5,4.0,-0.000669057248160243,0.0055276083294302225,1.0090705156326294,-0.018733948469161987,-0.0014177036937326193,0.001780750579200685,BRAKE
21:48:06,1500.0,-35.3624658,149.1667658,43074.0,-3.0,1.0,0.0,-1.0,16.0,-1005.0,-42.0,0.0,7.0,0.0012819201219826937,0.0016766226617619395,1.0087497234344482,-0.04714944213628769,-0.0038175873924046755,0.0050644464790821075,BRAKE
21:48:08,1500.0,-35.3624646,149.1667652,42984.0,0.0,0.0,53.0,-1.0,-17.0,-815.0,416.0,4.0,3.0,0.013319199904799461,7.966518023749813e-05,1.0080751180648804,0.4194026291370392,0.0008000901434570551,0.0007185558788478374,ALT_HOLD
21:48:10,1500.0,-35.36246245,149.1667651,39714.0,2.0,11.5,68.5,-4.5,36.5,-1138.0,685.5,-2.5,-4.0,0.011763390619307756,-0.011188099160790443,1.0077727437019348,0.6811515390872955,-0.006267539691179991,-0.0071724498411640525,AUTO
21:48:12,1500.0,-35.3624608,149.1667682,39369.0,6.0,22.0,-12.0,-4.0,22.0,-1022.0,569.0,-14.0,0.0,0.011452374048531055,-0.0036907123867422342,1.0094013214111328,0.5663279891014099,-0.01854797452688217,-0.002570163691416383,AUTO
21:48:14,1500.0,-35.3624577,149.1667765,39903.0,27.0,38.0,-35.0,-10.0,12.0,-1000.0,209.0,20.0,0.0,0.0013411741238087416,0.008252204395830631,1.026808500289917,0.20509055256843567,0.01700209081172943,-0.003159994026646018,BRAKE
21:48:16,1500.0,-35.3624549,149.1667817,40401.0,5.0,6.0,-11.0,-1.0,9.0,-993.0,-173.0,-11.0,3.0,-0.003453970653936267,0.007664910051971674,1.0264803171157837,-0.1775832623243332,-0.01537009235471487,0.0002088341861963272,BRAKE
21:48:18,1500.0,-35.3624537,149.1667827,40544.0,3.0,3.0,-2.0,-3.0,-15.0,-991.0,23.0,4.0,2.0,0.011100159026682377,0.0025865095667541027,1.0263181924819946,0.02432488463819027,0.00038741505704820156,-0.000861715991050005,ALT_HOLD
21:48:20,1500.0,-35.3624512,149.1667825,39301.0,4.0,1.0,174.0,-4.0,73.0,-926.0,121.0,7.0,-7.0,-0.008757558651268482,0.0005879176896996796,1.0247527360916138,0.11068884283304214,0.003853497328236699,-0.011024320498108864,AUTO
21:48:22,1500.0,-35.3624482,149.1667828,36977.0,-1.0,21.0,13.0,-3.0,-10.0,-1045.0,303.0,19.0,1.0,0.024481777101755142,-0.005399391520768404,1.0266202688217163,0.30324554443359375,0.015615509822964668,-0.0016857895534485579,AUTO
21:48:24,1500.0,-35.3624478,149.1667877,37181.0,2.0,13.0,-18.0,-1.0,15.0,-1002.0,213.0,9.0,5.0,-0.008643935434520245,0.011025781743228436,1.0264338254928589,0.20792634785175323,0.005450092721730471,0.0023813762236386538,AUTO
21:48:26,1500.0,-35.3624477,149.1667894,37414.0,3.0,-8.0,0.0,-1.0,-33.0,-993.0,-499.0,-27.0,4.0,-0.006270792335271835,0.008198127150535583,1.0263501405715942,-0.4987444281578064,-0.03147565573453903,0.0007566616404801607,AUTO
21:48:28,1500.0,-35.3624459,149.1667909,37560.0,16.0,25.0,-20.0,-8.0,10.0,-1024.0,443.0,20.0,4.0,0.01731046847999096,-0.022394748404622078,1.0261446237564087,0.44123581051826477,0.01616959273815155,0.001465056324377656,AUTO
21:48:30,1500.0,-35.3624424,149.1667953,38047.0,-10.0,7.0,-8.0,-1.0,19.0,-978.0,20.0,-7.0,1.0,0.012186959385871887,0.030286220833659172,1.0264123678207397,0.014102483168244362,-0.011256931349635124,-0.001444010529667139,AUTO
21:48:32,1500.0,-35.3624424,149.1667951,38069.0,-6.0,18.0,-5.0,-2.0,8.0,-1026.0,480.0,-30.0,7.0,0.021984409540891647,-0.03584784269332886,1.025427222251892,0.47932836413383484,-0.03425567224621773,0.003970728721469641,AUTO
21:48:34,1500.0,-35.3624393,149.1668021,38614.0,0.0,33.0,-29.0,-5.0,16.0,-983.0,562.0,53.0,4.0,0.020248964428901672,0.03679196164011955,1.0575047731399536,0.5585432052612305,0.0488724447786808,0.0009488353971391916,AUTO
21:48:36,1500.0,-35.3624399,149.1668032,38772.0,-10.0,0.0,4.0,0.0,-20.0,-999.0,-612.0,-5.0,-3.0,-0.008391567505896091,-0.006175952963531017,1.0545721054077148,-0.6167473196983337,-0.009821845218539238,-0.006500530056655407,AUTO
21:48:38,1500.0,-35.3624376,149.1668081,39102.0,23.0,45.0,-39.0,-13.0,-25.0,-1001.0,-104.0,86.0,-3.0,0.013662708923220634,0.001446090522222221,1.0529675483703613,-0.10601534694433212,0.08262445777654648,-0.007315351162105799,AUTO
21:48:40,1500.0,-35.3624362,149.166812,39550.0,-12.0,-9.0,2.0,2.0,29.0,-992.0,732.0,-42.0,2.0,0.007611270993947983,0.0025821002200245857,1.0535897016525269,0.7280563116073608,-0.04694977030158043,-0.0007569387089461088,BRAKE
21:48:42,1500.0,-35.3624372,149.1668115,39524.0,0.0,-6.0,0.0,0.0,-39.0,-1002.0,-631.0,0.0,0.0,-0.007133692968636751,0.005694798659533262,1.0542811155319214,-0.6335934400558472,-0.004948648624122143,-0.0031184256076812744,BRAKE
21:48:44,1500.0,-35.3624376,149.166811,39545.0,0.0,-4.0,-1.0,0.0,33.0,-1007.0,711.0,5.0,4.0,0.005116140469908714,0.003037905553355813,1.0543246269226074,0.707152247428894,0.001587927807122469,0.0009727536235004663,ALT_HOLD
21:48:46,1500.0,-35.3624374,149.1668107,37965.0,2.0,-1.0,178.0,-1.0,-108.0,-973.0,-1396.0,-2.0,-12.0,0.003252999857068062,0.0005187416099943221,1.0505976676940918,-1.3921340703964233,-0.006780547089874744,-0.01650916412472725,AUTO
21:48:48,1500.0,-35.3624369,149.1668121,35874.0,8.0,12.0,10.0,-1.0,-5.0,-1063.0,-313.0,15.0,3.0,-0.011959357187151909,-0.002826838754117489,1.05460786819458,-0.3186483383178711,0.010640250518918037,0.00040716794319450855,AUTO
21:48:50,1500.0,-35.3624363,149.1668156,36126.0,16.0,2.0,-19.0,-2.0,-26.0,-992.0,-374.0,5.0,5.0,-0.009348119609057903,0.007107580080628395,1.05354905128479,-0.37479519844055176,0.0009763166308403015,0.0015238106716424227,AUTO
21:48:52,1500.0,-35.3624356,149.1668165,36363.0,8.0,-8.0,0.0,0.0,31.0,-995.0,675.0,-18.0,2.0,0.0015841068234294653,0.005648956634104252,1.0539522171020508,0.6715256571769714,-0.023377835750579834,-0.0014641904272139072,AUTO
21:48:54,1500.0,-35.3624345,149.1668176,36479.0,20.0,14.0,-20.0,-8.0,-27.0,-1025.0,-405.0,7.0,4.0,-0.0006838173139840364,-0.016522815451025963,1.0538474321365356,-0.4063965380191803,0.0035410732962191105,0.0013733298983424902,AUTO
21:48:56,1500.0,-35.3624318,149.1668216,37013.0,1.0,2.0,-12.0,0.0,6.0,-979.0,326.0,-12.0,4.0,0.013037659227848053,0.027338558807969093,1.0537667274475098,0.3260812759399414,-0.01695980690419674,0.0011360913049429655,AUTO
21:48:58,1500.0,-35.3624317,149.1668214,37047.0,0.0,4.0,-2.0,-2.0,2.0,-1024.0,-250.0,-28.0,2.0,-0.003890000283718109,-0.02201986499130726,1.053047776222229,-0.25544625520706177,-0.03342793136835098,-0.0008569832425564528,AUTO
21:49:00,1500.0,-35.3624293,149.1668267,37592.0,13.0,27.0,-39.0,-7.0,-29.0,-991.0,-429.0,45.0,2.0,0.0031534109730273485,0.017949098721146584,1.0533218383789062,-0.4310358464717865,0.04074578359723091,-0.001368805067613721,BRAKE
21:49:02,1500.0,-35.3624285,149.1668296,38068.0,2.0,2.0,-9.0,0.0,-25.0,-980.0,-226.0,0.0,1.0,0.0036264993250370026,0.0018761990359053016,1.0537575483322144,-0.22652679681777954,-0.0047086854465305805,-0.0020555388182401657,BRAKE
21:49:04,1500.0,-35.3624279,149.1668307,38191.0,0.0,3.0,-3.0,0.0,18.0,-994.0,23.0,9.0,8.0,-0.004193182568997145,0.004661519080400467,1.0535954236984253,0.01805870607495308,0.004448485095053911,0.005054596811532974,ALT_HOLD
21:49:06,1500.0,-35.3624272,149.1668317,36674.0,5.0,3.0,180.0,0.0,-28.0,-947.0,808.0,-1.0,-8.0,0.03909483551979065,0.0004272596852388233,1.0519602298736572,0.8121502995491028,-0.006456955801695585,-0.011936319060623646,AUTO
21:49:08,1500.0,-35.3624255,149.1668328,34575.0,5.0,9.0,7.0,-8.0,-27.0,-1053.0,-447.0,5.0,9.0,0.01714857667684555,-0.005508576054126024,1.0530539751052856,-0.44734981656074524,0.001097444910556078,0.006213265471160412,AUTO
21:49:10,1500.0,-35.3624227,149.1668341,34845.0,-16.0,19.0,-20.0,-1.0,-2.0,-1002.0,302.0,9.0,1.0,0.029223546385765076,0.00731712905690074,1.0532516241073608,0.3010464906692505,0.005187562201172113,-0.002175156958401203,AUTO
21:49:12,1500.0,-35.3624232,149.1668355,35079.0,-20.0,7.0,0.0,2.0,28.0,-997.0,283.0,-15.0,1.0,0.006445721723139286,0.00702732102945447,1.0542000532150269,0.27623704075813293,-0.020129701122641563,-0.0019884093198925257,AUTO
21:49:14,1500.0,-35.3624234,149.166837,35201.0,-1.0,21.0,-22.0,-3.0,-28.0,-1020.0,-421.0,4.0,2.0,0.0053816488943994045,-0.012363421730697155,1.0535902976989746,-0.4234446585178375,-0.00019157538190484047,-0.0013732807710766792,AUTO
21:49:16,1500.0,-35.3624221,149.1668415,35863.0,0.0,11.0,-23.0,-2.0,-31.0,-980.0,-538.0,-18.0,5.0,-0.0010899781482294202,0.01477072760462761,1.0535862445831299,-0.5416195392608643,-0.023040488362312317,0.0011256900615990162,BRAKE
21:49:18,1500.0,-35.3624224,149.1668434,36125.0,0.0,2.0,-6.0,0.0,31.0,-1003.0,603.0,1.0,8.0,-0.00023331647389568388,0.00440541747957468,1.0539878606796265,0.5976268649101257,-0.0031371882651001215,0.004063712432980537,BRAKE
21:49:20,1500.0,-35.362422,149.1668438,36053.0,6.0,-1.0,62.0,-2.0,-69.0,-798.0,-1157.0,4.0,4.0,-0.009863121435046196,0.0003869784122798592,1.053297758102417,-1.1569650173187256,-1.904694363474846e-05,0.0009414509404450655,ALT_HOLD
21:49:22,1500.0,-35.3624214,149.1668446,32936.0,4.0,3.0,117.0,0.0,56.0,-1174.0,1365.0,-10.0,-4.0,0.009995262138545513,0.002035026904195547,1.0537538528442383,1.3591810464859009,-0.015784963965415955,-0.008539704605937004,AUTO
21:49:24,1500.0,-35.3624226,149.1668484,32352.0,26.0,-6.0,-17.0,-1.0,8.0,-1025.0,520.0,6.0,0.0,-0.023198405280709267,0.007142238784581423,1.054452896118164,0.5179702043533325,0.001876186579465866,-0.002795999404042959,AUTO
21:49:26,1500.0,-35.3624221,149.1668493,32765.0,30.0,-16.0,-12.0,0.0,22.0,-988.0,228.0,1.0,5.0,-0.020458579063415527,0.00462568923830986,1.0533560514450073,0.22269637882709503,-0.0035087806172668934,0.001277394127100706,AUTO
21:49:28,1500.0,-35.362421,149.1668486,32832.0,22.0,-11.0,0.0,-1.0,-26.0,-1009.0,-264.0,-8.0,3.0,-0.0062658898532390594,-0.007019493263214827,1.0537760257720947,-0.2635456323623657,-0.0130885299295187,-0.00023312517441809177,BRAKE
21:49:30,1500.0,-35.3624204,149.1668489,32900.0,20.0,-9.0,-1.0,0.0,33.0,-1006.0,538.0,2.0,5.0,-0.01174333319067955,0.0036728684790432453,1.053964614868164,0.5339916348457336,-0.0022790462244302034,0.0011942586861550808,BRAKE
21:49:32,1500.0,-35.3624195,149.1668483,32928.0,18.0,-11.0,0.0,-2.0,-22.0,-997.0,-221.0,1.0,4.0,-0.006807883270084858,0.0005520637496374547,1.0535441637039185,-0.2200319468975067,-0.003700702916830778,0.0009504007175564766,ALT_HOLD
21:49:34,1500.0,-35.3624189,149.1668477,31406.0,4.0,-1.0,181.0,-2.0,34.0,-964.0,-481.0,5.0,9.0,-0.017910674214363098,0.0005275320145301521,1.0520377159118652,-0.49126002192497253,0.0008448692969977856,0.005799132864922285,AUTO
21:49:36,1500.0,-35.3624175,149.1668473,29245.0,1.0,9.0,6.0,-4.0,34.0,-1057.0,706.0,11.0,3.0,0.027601640671491623,-0.008121028542518616,1.0531432628631592,0.703266441822052,0.0065529681742191315,-0.00025972863659262657,AUTO
21:49:38,1500.0,-35.3624153,149.1668478,29522.0,-15.0,18.0,-21.0,0.0,-4.0,-991.0,-341.0,9.0,5.0,0.015921398997306824,0.003635009052231908,1.054142951965332,-0.3447851240634918,0.004428074229508638,0.002031171228736639,AUTO
21:49:40,1500.0,-35.3624156,149.1668487,29760.0,-18.0,11.0,0.0,0.0,-33.0,-991.0,-345.0,-4.0,0.0,0.01132935006171465,0.004434903617948294,1.0540508031845093,-0.34504711627960205,-0.00895372498780489,-0.0035087859723716974,AUTO
21:49:42,1500.0,-35.3624162,149.1668501,29892.0,-5.0,18.0,-23.0,-1.0,21.0,-1024.0,301.0,9.0,4.0,0.003958237357437611,-0.0063096266239881516,1.0536718368530273,0.29657483100891113,0.004831832833588123,0.0005728108808398247,AUTO
21:49:44,1500.0,-35.3624157,149.1668534,30636.0,2.0,9.0,-30.0,-2.0,24.0,-974.0,513.0,10.0,5.0,0.0033252781722694635,0.013862047344446182,1.0536776781082153,0.5088332891464233,0.005368746351450682,0.0017804834060370922,AUTO
21:49:46,1500.0,-35.3624159,149.1668539,30823.0,1.0,0.0,3.0,0.0,-34.0,-1002.0,-652.0,3.0,5.0,-0.007663748227059841,-0.0009545850334689021,1.0541146993637085,-0.6525188684463501,-0.0008234516717493534,0.0018393276259303093,AUTO
21:49:48,1500.0,-35.362415,149.1668556,31161.0,12.0,16.0,-44.0,-5.0,1.0,-1021.0,319.0,25.0,1.0,0.008000671863555908,-0.008561421185731888,1.053137183189392,0.31735724210739136,0.02068859525024891,-0.0024599304888397455,AUTO
21:49:50,1500.0,-35.3624138,149.1668581,31957.0,0.0,0.0,-10.0,0.0,25.0,-976.0,688.0,-10.0,1.0,0.006952486000955105,0.014046461321413517,1.0540775060653687,0.6848012804985046,-0.01500571146607399,-0.0019048282410949469,BRAKE
21:49:52,1500.0,-35.3624142,149.1668581,32010.0,3.0,-2.0,-1.0,0.0,-34.0,-997.0,-652.0,-2.0,2.0,-0.010717131197452545,0.00024633933207951486,1.0536859035491943,-0.6537963151931763,-0.007515754550695419,-0.0016887909732758999,BRAKE
21:49:54,1500.0,-35.3624142,149.1668577,32045.0,3.0,0.0,-1.0,0.0,31.0,-1003.0,684.0,5.0,3.0,0.009911895729601383,0.0007414720603264868,1.054080605506897,0.6805932521820068,0.00027628103271126747,-0.0005840340163558722,ALT_HOLD
21:49:56,1500.0,-35.3624141,149.166858,30576.0,1.0,3.0,176.0,2.0,-111.0,-961.0,-1887.0,4.0,-3.0,-0.004121297504752874,0.00041545211570337415,1.0534101724624634,-1.8837834596633911,-0.0002652769908308983,-0.0075577739626169205,AUTO
21:49:58,1500.0,-35.3624165,149.1668612,28360.0,20.0,-1.0,5.0,0.0,-36.0,-1047.0,-703.0,13.0,2.0,-0.04427856579422951,0.004238780587911606,1.0543556213378906,-0.7045624256134033,0.008654292672872543,-0.0016164768021553755,AUTO
21:50:00,1500.0,-35.3624167,149.1668628,28661.0,35.0,-16.0,-23.0,-1.0,-15.0,-996.0,-61.0,1.0,5.0,-0.019639890640974045,0.001691975980065763,1.0531301498413086,-0.059757571667432785,-0.0027077696286141872,0.0017279647290706635,AUTO
21:50:02,1500.0,-35.3624146,149.1668614,28901.0,18.0,-9.0,-1.0,-2.0,21.0,-993.0,-61.0,-7.0,6.0,-0.0025707075837999582,-0.0016956304898485541,1.0542420148849487,-0.06546840071678162,-0.012176389805972576,0.002417427022010088,AUTO
21:50:04,1500.0,-35.3624132,149.1668614,29064.0,11.0,9.0,-25.0,-2.0,-24.0,-1011.0,-166.0,5.0,2.0,0.0053859553299844265,-0.00695681432262063,1.0545066595077515,-0.1645219624042511,0.0005136718973517418,-0.0015261382795870304,AUTO
21:50:06,1500.0,-35.3624122,149.1668643,29864.0,8.0,7.0,-34.0,0.0,-15.0,-970.0,19.0,6.0,6.0,0.0008703938801772892,0.012888104654848576,1.0533350706100464,0.02122795581817627,0.0016275011003017426,0.0022087490651756525,AUTO
21:50:08,1500.0,-35.3624123,149.1668647,30096.0,5.0,-1.0,2.0,0.0,36.0,-1001.0,525.0,1.0,5.0,0.0008310545235872269,-0.002281906083226204,1.0534944534301758,0.5220547914505005,-0.0028881956823170185,0.0019374811090528965,BRAKE
21:50:10,1500.0,-35.3624117,149.1668643,30073.0,2.0,1.0,0.0,-1.0,-17.0,-989.0,24.0,3.0,3.0,0.010623118840157986,-0.0005871724570170045,1.0536061525344849,0.0268852598965168,-0.00045594247058033943,-0.0006677818018943071,BRAKE
21:50:12,1500.0,-35.3624108,149.1668636,30083.0,-1.0,3.0,-1.0,0.0,-15.0,-1003.0,-562.0,6.0,7.0,-0.0038696532137691975,0.0006362536223605275,1.0539425611495972,-0.5649685859680176,0.0018834886141121387,0.0034619614016264677,ALT_HOLD
21:50:14,1500.0,-35.3624106,149.1668637,28797.0,1.0,3.0,175.0,0.0,-40.0,-913.0,571.0,2.0,13.0,0.03366808220744133,0.0006476062699221075,1.0523364543914795,0.5787507891654968,-0.0018919974099844694,0.009811272844672203,AUTO
21:50:16,1500.0,-35.3624112,149.1668652,26440.0,7.0,3.0,13.0,-2.0,-30.0,-1064.0,-402.0,3.0,3.0,-0.0035202146973460913,-0.0018996907165274024,1.0537890195846558,-0.4007375240325928,-0.0009973817504942417,-0.0004796660505235195,AUTO
21:50:18,1500.0,-35.3624095,149.16686545,26692.0,-0.5,5.0,-20.5,-1.0,-2.5,-1000.5,134.0,2.5,1.5,0.018050283193588257,0.002751076710410416,1.0539248585700989,0.1345715969800949,-0.0007631118642166257,-0.0022270107874646783,AUTO
21:50:20,1500.0,-35.36240825,149.16686495,26957.0,-14.5,9.0,-1.0,-1.5,29.5,-987.5,569.0,4.5,4.0,0.026800251565873623,0.0005452241966850124,1.0543633103370667,0.5666227638721466,0.0011916833464056253,0.0007716132095083594,AUTO
21:50:22,1500.0,-35.3624079,149.16686515,27033.0,-17.0,20.5,-17.0,-0.5,-22.0,-1018.0,-447.0,7.5,3.0,0.010961636202409863,-0.004612494958564639,1.05387544631958,-0.4491451680660248,0.003668572288006544,-0.0007391615072265267,AUTO
21:50:24,1500.0,-35.3624077,149.16686765,27712.0,-11.5,16.0,-32.5,-0.5,-22.5,-979.0,-382.0,11.5,1.5,0.007661341805942357,0.010202439036220312,1.0538960695266724,-0.3829224854707718,0.007613767171278596,-0.001987948315218091,AUTO
21:50:26,1500.0,-35.3624087,149.1668686,27945.5,-7.0,5.0,3.0,2.0,22.5,-1001.0,641.5,0.0,5.5,0.00430490798316896,0.00041301331657450646,1.054188847541809,0.6396849155426025,-0.0034279952524229884,0.0017470226157456636,AUTO
21:50:28,1500.0,-35.36240895,149.16687015,28253.5,8.5,11.5,-42.5,-1.5,-4.5,-1027.5,-154.5,8.5,2.0,-0.0036292735021561384,-0.0065733264200389385,1.0535199046134949,-0.15743493288755417,0.004672644543461502,-0.0011535178637132049,AUTO
21:50:30,1500.0,-35.36240805,149.16687215000002,29164.0,4.5,1.5,-25.5,-0.5,23.0,-981.0,203.0,-9.5,3.0,-0.0005101002752780914,0.006050859112292528,1.05378258228302,0.19864753261208534,-0.013964311219751835,-0.00015610200352966785,BRAKE
21:50:32,1500.0,-35.3624077,149.1668723,29448.5,4.5,1.0,-5.5,-0.5,-25.0,-994.0,-448.0,2.0,2.0,-0.0024504378670826554,-0.0004912859440082684,1.053972840309143,-0.44875191152095795,-0.0013553263852372766,-0.0016299196286126971,BRAKE
21:50:34,1500.0,-35.36240705,149.1668723,29473.0,2.5,2.5,30.5,-1.0,40.0,-884.0,956.0,5.5,0.0,0.01146504795178771,0.000403359743359033,1.053473711013794,0.9535745084285736,0.001721452921628952,-0.004100412130355835,ALT_HOLD
21:50:36,1500.0,-35.362405949999996,149.1668718,26719.5,-2.0,4.5,117.5,-1.5,-17.5,-1146.0,-1029.5,-5.0,4.0,-0.004924962762743235,-0.0030799919040873647,1.052195429801941,-1.0351435244083405,-0.00937717966735363,0.0002560981083661318,AUTO
21:50:38,1500.0,-35.3624052,149.16687224999998,26183.0,-5.0,12.0,-19.5,-1.0,21.5,-1015.0,406.5,9.5,5.0,0.012502357363700867,-0.00013439189933706075,1.0538163781166077,0.40334683656692505,0.006180641241371632,0.0017623924650251865,AUTO
21:50:40,1500.0,-35.362404350000006,149.1668726,26573.5,-11.0,10.0,-13.0,-1.0,7.5,-990.0,-119.5,5.0,2.5,0.012088666204363108,0.0026078856317326427,1.0538232326507568,-0.12495634704828262,0.0014101462438702583,-0.0005290285916998982,AUTO
21:50:42,1500.0,-35.3624046,149.16687295,26645.0,-11.5,10.5,-2.0,2.0,-13.0,-1009.5,141.0,-1.0,-1.5,0.012103551998734474,-0.0028636008501052856,1.0542508959770203,0.14047060161828995,-0.005191937554627657,-0.004989778157323599,AUTO
21:50:44,1500.0,-35.36240515,149.16687480000002,27105.0,1.5,12.0,-41.0,-2.0,11.0,-1010.0,130.0,11.5,2.5,0.0001524672843515873,-0.001049671956934617,1.0534892678260803,0.12591401487588882,0.008187026716768742,-0.00041970983147621155,AUTO
21:50:46,1500.0,-35.36240465,149.1668758,27748.0,-0.5,3.0,-7.5,0.0,22.0,-971.5,297.5,2.5,5.0,0.004640264844056219,0.0044991751201450825,1.0543543696403503,0.29198940843343735,-0.0011862916871905327,0.0021589749958366156,AUTO
21:50:48,1500.0,-35.3624048,149.1668763,27774.5,2.0,6.5,-11.0,0.0,-9.0,-1033.5,40.0,-0.5,1.5,0.0007718342822045088,-0.006318589439615607,1.0540095567703247,0.03885059058666229,-0.004005357041023672,-0.0018025399185717106,AUTO
21:50:50,1500.0,-35.362404749999996,149.16687885,28559.5,13.0,5.0,-49.0,-1.5,-15.0,-984.0,-156.5,11.5,1.5,-0.008472833782434464,0.007471832912415266,1.0533643960952759,-0.15815230831503868,0.008127245586365461,-0.0017395253526046872,AUTO
21:50:52,1500.0,-35.3624044,149.16687925000002,29007.0,7.0,-4.0,-1.5,0.0,-5.5,-986.0,190.0,1.0,0.0,0.0037351073733589146,5.240802784101106e-05,1.0543478727340698,0.18898752331733704,-0.002667889930307865,-0.003774191834963858,BRAKE
21:50:54,1500.0,-35.36240425,149.16687895,29052.0,8.0,-2.5,-2.0,0.0,-10.5,-996.0,-488.5,1.5,4.0,-0.013336331583559513,0.0007419734611175954,1.0545692443847656,-0.4931774437427521,-0.0017807016847655177,0.001075857668183744,BRAKE
21:50:56,1500.0,-35.3624048,149.1668794,29005.0,6.5,0.5,39.5,1.5,18.0,-854.0,958.5,4.0,1.5,0.016085385344922543,8.36531980894506e-05,1.0536897778511047,0.9579044580459595,0.0006204424425959587,-0.002013706136494875,ALT_HOLD
21:50:58,1500.0,-35.36240775,149.1668827,26124.0,0.5,6.5,126.0,-0.5,-56.0,-1155.0,-1397.5,-8.5,-1.0,-0.0419498011469841,0.004151507979258895,1.0528488159179688,-1.3999980092048645,-0.01246852707117796,-0.003978971973992884,AUTO
21:51:00,1500.0,-35.3624075,149.1668837,25501.0,11.5,-0.5,-16.0,-2.0,17.0,-1014.5,91.0,7.0,3.0,-0.0013659802498295903,0.0014995906385593116,1.0541988015174866,0.08681142330169678,0.0031245105201378465,0.0003950991667807102,AUTO
21:51:02,1500.0,-35.362406449999995,149.1668837,25896.0,3.0,0.0,-11.5,-1.0,-7.5,-987.0,-408.0,2.5,3.0,-0.002770097926259041,0.0025527478428557515,1.0541759729385376,-0.4112832024693489,-0.0008692513220012188,0.00021677743643522263,AUTO
21:51:04,1500.0,-35.362405949999996,149.1668833,25958.5,-1.5,3.5,2.0,0.0,2.0,-1006.0,331.5,0.5,3.0,0.011413014028221369,-0.002186960482504219,1.0541788935661316,0.3320704069919884,-0.002628172980621457,0.00033743970561772585,AUTO
21:51:06,1500.0,-35.362406,149.16688425,26292.0,2.5,9.0,-33.0,-1.0,14.0,-1012.0,237.5,11.5,4.0,0.0019623222178779542,-0.0004339920124039054,1.054147720336914,0.2338796118274331,0.008639805018901825,0.0011526159942150116,AUTO
21:51:08,1500.0,-35.3624061,149.1668854,26801.5,2.5,0.0,-3.0,0.0,-8.5,-994.0,-458.5,-6.0,2.0,-0.012989080511033535,0.004090855713002384,1.0539515018463135,-0.4616110143251717,-0.01035022223368287,-0.0006942721083760262,AUTO
21:51:10,1500.0,-35.3624057,149.16688525,26854.5,5.5,4.5,-17.5,-1.5,4.0,-1029.5,239.5,4.5,0.5,0.008341019041836262,-0.0076642995700240135,1.0540372133255005,0.23877326026558876,0.0014152874937281013,-0.0027662566280923784,BRAKE
21:51:12,1500.0,-35.3624043,149.16688564999998,27334.0,-2.5,7.0,-13.0,-2.0,27.5,-989.5,518.5,4.0,2.5,0.015478129498660564,0.0014043779228813946,1.0546614527702332,0.5154274553060532,0.0009610062697902322,-4.342501051723957e-05,BRAKE
21:51:14,1500.0,-35.3624041,149.16688605000002,27476.5,-4.0,5.5,-3.0,0.0,-33.0,-999.5,-514.5,1.0,-1.0,0.0005265830550342798,0.0024461623979732394,1.0543344020843506,-0.5144020766019821,-0.0021742526441812515,-0.004480053437873721,ALT_HOLD
21:51:16,1500.0,-35.3624043,149.16688664999998,26283.0,0.0,5.5,169.5,0.5,95.0,-951.5,1442.5,7.0,8.0,0.008455675677396357,0.0007051062711980194,1.0535008311271667,1.4342514276504517,0.004514051368460059,0.0055037313140928745,AUTO
21:51:18,1500.0,-35.362405949999996,149.16688875,23899.5,10.0,1.0,16.5,0.5,28.0,-1068.5,479.0,4.5,3.5,-0.021550576202571392,0.0029877311317250133,1.0543413758277893,0.47475840151309967,0.0019499424379318953,0.0011744583025574684,AUTO
21:51:20,1500.0,-35.3624071,149.1668904,24128.5,29.0,-12.5,-21.0,0.0,-21.0,-989.5,-512.5,-2.5,3.0,-0.031213409267365932,0.0032341433688998222,1.0533787608146667,-0.5140666514635086,-0.006146915489807725,0.0004654579097405076,AUTO
21:51:22,1500.0,-35.362405949999996,149.1668897,24391.5,24.5,-13.0,-1.0,-2.5,13.5,-993.5,465.5,4.0,1.5,0.002210721781011671,-0.0007894504815340042,1.053746521472931,0.46659253537654877,0.0005617202259600163,-0.0012142823543399572,AUTO
21:51:24,1500.0,-35.3624036,149.1668883,24478.5,7.5,2.5,-19.0,-3.0,7.0,-1024.0,-112.0,8.0,1.5,0.011661007069051266,-0.005440459819510579,1.0537276864051819,-0.11434729397296906,0.005044399295002222,-0.00160525634419173,AUTO
21:51:26,1500.0,-35.36240225,149.1668891,25205.5,-4.5,10.5,-36.5,-1.0,11.0,-982.0,235.5,9.0,2.0,0.011613923823460937,0.005054234992712736,1.0536417365074158,0.2345229685306549,0.005947535973973572,-0.0006851115031167865,AUTO
21:51:28,1500.0,-35.362402450000005,149.16688955,25490.0,-7.5,5.5,3.0,0.5,-0.5,-999.5,-332.5,-0.5,3.5,-0.0018391218327451497,0.0007840383623261005,1.0546262860298157,-0.33625525794923306,-0.003797321580350399,0.0009388952748849988,AUTO
21:51:30,1500.0,-35.36240275,149.1668904,25724.0,2.0,9.0,-38.5,-1.0,1.5,-1029.0,188.0,2.5,-0.5,0.005349897779524326,-0.004028392489999533,1.0534960627555847,0.18780529499053955,-0.00042883085552603006,-0.0033914322266355157,AUTO
21:51:32,1500.0,-35.3624017,149.1668913,26645.5,-2.0,5.0,-23.5,0.0,-20.0,-962.0,-440.0,-3.5,2.0,0.004855626582866535,0.006347493035718799,1.0538012981414795,-0.4402783364057541,-0.007067880593240261,-0.000466915313154459,AUTO
21:51:34,1500.0,-35.362402149999994,149.16689175,26709.0,-1.5,4.0,0.5,0.0,22.5,-1021.0,381.0,-3.0,3.0,-0.0005951256025582552,-0.0008275247091660276,1.054770052433014,0.3778933733701706,-0.006986125139519572,0.000588364782743156,BRAKE
21:51:36,1500.0,-35.3624026,149.16689265000002,26887.5,4.0,0.5,-5.5,0.0,-18.0,-995.0,-495.0,1.0,1.5,-0.01143026351928711,0.0025409767404198647,1.0539979338645935,-0.49671654403209686,-0.0016227870946750045,-0.0007303822785615921,BRAKE
21:51:38,1500.0,-35.3624019,149.1668924,26959.5,0.0,1.0,-1.5,-1.0,22.0,-1003.5,514.0,5.0,2.0,0.01491466537117958,6.96454371791333e-05,1.0540179014205933,0.5130962431430817,0.002107239211909473,-0.0006789462640881538,ALT_HOLD
21:51:40,1500.0,-35.36240085,149.16689165000003,25755.5,0.5,1.0,170.5,-1.0,37.5,-933.0,-516.5,3.5,3.5,-0.015996134374290705,0.0007839091413188726,1.0520755648612976,-0.5261374264955521,0.001036010216921568,0.0010135977063328028,ALT_HOLD
21:51:42,1500.0,-35.362399880000005,149.16689086000002,23073.0,-1.2,3.0,97.2,-1.0,-44.166666666666664,-1094.6666666666667,-414.5,0.0,7.5,0.019804795645177363,-0.0030309122754260897,1.0537324666976928,-0.0761283203959465,-0.002336527779698372,0.005603417940437794,AUTO
21:51:44,1500.0,-35.36239923333333,149.16689113333334,22693.0,-6.666666666666667,10.0,-21.333333333333332,0.0,-4.0,-1008.0,-15.5,5.5,0.25,0.006903321792682012,0.0029781384704013667,1.053855538368225,0.13892698287963867,0.003375499897326032,-0.0010458114168917139,AUTO
21:51:46,1500.0,-35.362400050000005,149.1668921,23066.0,-1.0,2.5,-6.0,0.0,15.0,-986.5,70.0,2.5,4.5,-0.007286833657417446,0.003356433822773397,1.054459273815155,0.06578333675861359,-0.00011803628876805305,0.0019472254207357764,AUTO
21:51:48,1500.0,-35.3624004,149.16689235,23112.5,4.5,1.0,-9.0,0.0,-20.0,-1013.5,-106.5,0.0,0.0,0.0003034556284546852,-0.0023271240061149,1.0541711449623108,-0.10587381571531296,-0.003652858082205057,-0.0019739061826840043,AUTO
21:51:50,1500.0,-35.36240015,149.16689325,23708.0,8.0,1.5,-36.0,0.0,-1.5,-991.0,168.0,7.5,1.5,0.002809415804222226,0.003028458566404879,1.053226351737976,0.16753001883625984,0.004974387818947434,-0.0008104123990051448,AUTO
21:51:52,1500.0,-35.362399466666666,149.1668932,24049.666666666668,1.6666666666666667,-0.3333333333333333,1.6666666666666667,-1.6666666666666667,16.666666666666668,-992.0,86.0,-2.3333333333333335,4.666666666666667,0.003729022185628613,-0.0007239808910526335,1.0543346405029297,0.0828448881705602,-0.005167326889932156,0.0024697980067382255,AUTO
21:51:54,1500.0,-35.362398400000004,149.1668929,24195.0,-3.5,9.5,-30.0,-2.0,-16.0,-1027.5,-271.5,2.5,1.0,0.008661968866363168,-0.003400658955797553,1.0535627603530884,-0.2728976532816887,0.0001222682185471058,-0.0008300053304992616,AUTO
21:51:56,1500.0,-35.3623978,149.16689390000002,25001.0,-7.333333333333333,8.333333333333334,-29.666666666666668,0.0,-9.333333333333334,-967.6666666666666,-115.33333333333333,4.0,1.0,0.008590878026249507,0.007596850705643495,1.053939978281657,-0.11693677306175232,0.001158589730039239,-0.0006510103897502025,AUTO
21:51:58,1500.0,-35.3623989,149.1668948,25131.5,-3.0,3.0,1.5,1.5,22.0,-1010.0,149.0,-6.0,4.0,-0.010685812216252089,0.0014017019857419655,1.0542178750038147,0.1441297084093094,-0.00943070650100708,0.0017765535740181804,AUTO
21:52:00,1500.0,-35.362399249999996,149.16689595,25699.0,12.0,2.0,-52.5,-2.0,-4.0,-1006.5,-169.0,8.0,2.5,-0.007252393756061792,0.000502316324855201,1.0535045266151428,-0.17156802117824554,0.0058401767164468765,0.00043805333552882075,AUTO
21:52:02,1500.0,-35.362398049999996,149.16689585,26421.0,1.5,0.5,-14.5,-0.5,-8.0,-987.0,-362.5,-0.5,3.5,-0.0015340721001848578,-0.0005372166124288924,1.0540251731872559,-0.36577416211366653,-0.003724166424944997,0.001067052478902042,BRAKE
21:52:04,1500.0,-35.362397725,149.166895775,26583.25,0.75,3.25,-4.25,0.4,-0.4,-997.0,21.2,4.6,0.6,0.0014368101983563974,0.0007478659572370816,1.0545113682746887,0.17531022429466248,0.0015371228219009936,-0.0005369652062654495,BRAKE
21:52:06,1500.0,-35.362399133333334,149.16689736666666,26202.0,3.3333333333333335,4.333333333333333,111.66666666666667,1.0,14.666666666666666,-853.6666666666666,1258.0,1.0,1.0,0.02365146391093731,0.0007449784510148069,1.052764654159546,1.2607818047205608,-0.0016751914129902918,-0.0008352200190226237,ALT_HOLD
21:52:08,1500.0,-35.3624018,149.16690045,23260.0,10.5,0.5,44.5,0.0,33.5,-1099.0,614.5,1.5,5.0,-0.018801661673933268,0.0024246086832135916,1.053297519683838,0.6108404994010925,-0.0008168473141267896,0.0030262445798143744,AUTO
21:52:10,1500.0,-35.3624013,149.16690075000002,23308.5,18.0,-6.0,-20.0,-2.5,-5.5,-998.5,-282.5,0.5,-0.5,-0.009791230782866478,0.00037093283026479185,1.0535814762115479,-0.2846044637262821,-0.0019802594906650484,-0.0024626461090520024,AUTO
21:52:12,1500.0,-35.36240015,149.1669002,23633.5,7.5,-1.0,-1.5,-0.5,-27.5,-975.0,-116.5,3.5,2.5,0.0073704898823052645,0.0017928877496160567,1.054449200630188,-0.11367379827424884,0.0012683741515502334,0.0005260268226265907,AUTO
21:53:56,1500.0,-35.3623918,149.1668954,19356.0,-25.0,18.0,-15.0,0.5,9.0,-991.0,-29.5,2.5,4.0,-0.006464905105531216,0.006107726134359837,1.0544573068618774,-0.09133294224739075,0.0013370660599321127,0.003019812051206827,AUTO
21:55:18,1500.0,-35.3624056,149.166909,14406.0,3.0,4.0,22.0,0.0,26.0,-1103.0,639.0,-4.0,5.0,-0.017652597278356552,0.005644559860229492,1.0537759065628052,0.6387149095535278,-0.006959766149520874,0.0033049588091671467,AUTO
21:55:19,1500.0,-35.3624057,149.16690936,14467.0,12.6,-3.4,-17.8,-0.2,8.2,-1013.4,190.4,1.6,1.4,-0.010155077977105974,0.0013924145488999784,1.054209327697754,0.1909137062728405,-0.0007903665537014604,-0.00048664032947272063,AUTO
21:55:20,1500.0,-35.362405700000004,149.16690955,14805.875,14.25,-5.25,-6.875,-0.375,0.125,-1000.75,23.875,1.0,0.625,-0.010931237105978653,0.0009919948297465453,1.053940936923027,0.024813038296997547,-0.0009118146699620411,-0.0009465291223023087,AUTO
21:55:21,1500.0,-35.36240504444444,149.16690960000003,15259.444444444445,13.555555555555555,-2.2222222222222223,-33.77777777777778,-1.0,1.5555555555555556,-1003.7777777777778,28.22222222222222,1.7777777777777777,0.0,-0.0047999219968914986,-0.00026620680000633,1.0538746515909831,0.029314867324299283,-0.00015194320844279396,-0.00147432844258017,BRAKE
21:55:22,1500.0,-35.36240402000001,149.16690947999996,15917.0,9.2,-1.5,10.7,-0.5,15.333333333333334,-948.3333333333334,187.83333333333334,2.8333333333333335,0.0,-0.005236810431233608,0.0004888062001555226,1.0541053414344788,-0.002676250785589218,-1.3309763744473457e-06,0.0003041574498638511,ALT_HOLD
21:55:23,1500.0,-35.36240388,149.16690954,13520.0,-9.0,7.6,198.0,-1.3333333333333333,-8.333333333333334,-978.0,381.0,8.666666666666666,6.333333333333333,0.01230011209845543,0.0006049818592146039,1.0518032312393188,0.5625325620174408,-0.00350731136277318,-0.00449404763057828,AUTO
21:55:24,1500.0,-35.36240255,149.16690845,11415.0,-11.0,7.5,66.5,-6.0,49.0,-1153.0,744.0,1.0,-1.0,0.041798198595643044,-0.006409941473975778,1.0528400540351868,0.7423163652420044,-0.0006604266818612814,-0.0026437832857482135,AUTO
21:55:25,1500.0,-35.362400459999996,149.16690716,11154.2,-31.8,23.6,-10.0,-1.2857142857142858,-3.142857142857143,-1023.4285714285714,-150.14285714285714,3.142857142857143,1.7142857142857142,0.03978564643434116,-0.0018261986676537032,1.0543303489685059,-0.15007475124938147,0.0015386684930750302,0.0007282565015235118,AUTO
21:55:26,1500.0,-35.36240045,149.166907675,11531.25,-41.25,27.5,-7.25,1.8,-0.8,-988.4,18.6,3.0,-0.4,0.02105868064487974,0.004064528484983991,1.0548250178496044,-0.03782431684279194,0.0015179479766326647,-0.0018612555092355858,AUTO
21:55:27,1500.0,-35.36240216666667,149.166909,11592.333333333334,-28.0,19.0,-9.666666666666666,1.25,-4.75,-1021.25,58.75,1.0,-1.0,0.0019316842226544395,0.0029614270121480026,1.054443101088206,0.04143927494684855,-0.0012106438807677478,-0.0020256159089816115,AUTO
21:55:28,1500.0,-35.362403125,149.16691004999998,12059.0,-10.25,10.25,-50.5,0.25,-4.5,-1025.0,18.5,4.5,-0.75,-0.0008260003087343648,0.0016317764238920063,1.0539082288742065,0.01783658377826214,0.002580493688583374,-0.0022902604105183855,AUTO
21:55:29,1500.0,-35.36240354,149.16691085999997,12993.4,-2.0,4.2,-38.8,0.2,0.4,-967.2,89.2,0.0,0.2,-0.0026389047619886697,0.003435167344287038,1.0534525156021117,0.08829250186681747,-0.0016411975026130675,-0.0006641080253757536,AUTO
21:55:30,1500.0,-35.36240392307692,149.1669112076923,13260.153846153846,4.3076923076923075,-0.15384615384615385,1.4615384615384615,-0.2857142857142857,-12.428571428571429,-995.5714285714286,-172.14285714285714,-0.8571428571428571,1.2857142857142858,-0.0059637744969642465,0.0007112399840619988,1.0540991929861216,-0.1946998324531775,-0.0013841496368583578,-0.0006150594428898051,BRAKE
21:55:31,1500.0,-35.36240191111111,149.16690986666669,13190.0,0.2222222222222222,0.5555555555555556,25.88888888888889,-1.8,6.8,-961.6,65.4,1.6,-0.8,-0.0016120539383134907,0.0003698354343618525,1.0537330044640436,-0.4449354410171509,0.00029384017559803196,-0.0024847378501565093,ALT_HOLD
21:55:32,1500.0,-35.362399812499994,149.166908075,9717.5,-1.125,2.875,153.125,1.3333333333333333,-7.222222222222222,-1064.2222222222222,-111.77777777777777,9.777777777777779,17.22222222222222,0.002285984189560016,0.0011515033648821474,1.0528577433692083,-0.11312966545422871,0.008653757058911853,0.016319634160026908,AUTO
21:55:33,1500.0,-35.362402325,149.16691012500002,8386.25,14.75,-3.5,-11.75,4.25,-6.0,-1025.25,91.75,0.25,0.5,-0.046356436982750895,0.0070018253289163114,1.0539595246315003,0.01852981112897396,-0.00013598419027402998,-0.0020327458332758397,AUTO
21:55:34,1500.0,-35.36240415,149.166911375,8704.5,40.75,-21.75,-16.5,0.25,-4.25,-990.5,-19.25,-2.0,1.0,-0.04230013266205788,0.001482524610219116,1.053937554359436,0.024043110245838762,-0.0032931058725807817,0.0009525733301416039,AUTO
21:55:35,1500.0,-35.36240308,149.16691035999997,8871.4,41.0,-20.2,3.6,-3.2,-14.8,-996.4,-279.2,1.6,0.6,-0.020488725509494543,-0.002729299769271165,1.0539894898732503,-0.07949001342058182,-0.002284741116454825,-0.000146608591118517,AUTO
21:55:36,1500.0,-35.36239996666666,149.16690940512822,10119.615384615385,13.102564102564102,-3.8205128205128207,-20.871794871794872,-0.8421052631578947,-0.3684210526315789,-1001.3157894736842,-49.078947368421055,0.6052631578947368,0.631578947368421,-0.0004889548821014234,0.00011411448647424495,1.0536965398646112,-0.01862135031017294,-0.0008913320219908744,-0.00011345387502476128,AUTO
21:55:45,1500.0,-35.36239795,149.1669105,12806.0,0.5,2.5,-22.0,-1.0,22.0,-934.0,172.0,0.0,0.0,0.007922401962180933,-7.084236434214593e-05,1.0535574754079182,0.1094825913508733,-0.0019361948361620307,-0.0015559417273228366,ALT_HOLD
21:55:48,1500.0,-35.3623964,149.1669098,12962.0,-6.0,8.0,-44.0,0.0,-14.0,-1025.0,-387.0,1.0,0.0,0.006015729159116745,-0.0005420788220362738,1.0537089109420776,-0.31621380895376205,-7.144233677536249e-06,-0.0016875073197297752,BRAKE
21:55:50,1500.0,-35.3623961,149.1669098,13292.0,-5.0,7.0,7.0,0.0,12.0,-1025.0,-64.0,0.0,4.0,-0.0032736984721850604,0.0001817317788663786,1.0536084175109863,-0.6281819045543671,-0.001783571729902178,-0.001942734932526946,BRAKE
21:55:53,1500.0,-35.3623956,149.1669098,13188.0,-5.0,7.0,-14.0,0.0,19.0,-1031.0,58.0,-6.0,1.0,0.0035032860469073057,-0.00041721147135831416,1.0544409155845642,-0.09993517398834229,-0.0002612760872580111,0.00022306927712634206,BRAKE
21:55:55,1500.0,-35.36239637368421,149.16691201578948,9110.0,-4.7368421052631575,13.105263157894736,172.0,1.5,57.642857142857146,-941.0714285714286,666.7857142857143,1.0714285714285714,4.642857142857143,0.004536755035885355,-0.00015797272262303027,1.0533399343490601,-0.054121764478358356,-0.0015193946987644515,-0.0014309893658554012,AUTO
21:55:57,1500.0,-35.362406647058826,149.16692675882354,1401.764705882353,29.823529411764707,-14.823529411764707,0.35294117647058826,-1.1818181818181819,-1.8181818181818181,-1019.0909090909091,-23.636363636363637,-2.6363636363636362,1.4545454545454546,-0.018109540939754382,0.001918149484977634,1.0535423278808593,0.005092728171836246,-0.004608373126988722,0.001213848747482354,AUTO
21:55:59,1500.0,-35.36240128666667,149.16692333999998,1896.8666666666666,-10.666666666666666,8.4,-2.6666666666666665,-0.46153846153846156,0.5384615384615384,-996.6153846153846,-34.76923076923077,0.46153846153846156,0.38461538461538464,0.012081968319535008,0.001141670294737196,1.0543127834796906,0.0006589967058971524,0.0005662636584020219,-0.0008443714010354597,BRAKE
21:56:00,1500.0,-35.362401350000006,149.166923475,1956.75,-7.0,5.5,0.25,1.25,1.75,-988.5,32.25,-0.5,0.0,0.0045069052755613535,0.002258334088871968,1.0542918864418478,-0.03907266193453003,-0.0021720060099409346,-0.0021628588318194754,AUTO
21:56:01,1500.0,-35.36240265,149.16692475999997,2072.7,6.9,-0.9,-45.1,-0.3333333333333333,-2.0,-1032.6666666666667,14.333333333333334,-1.1666666666666667,-0.8333333333333334,-0.007457844822541423,0.0014457950045349813,1.0534198999404907,-0.022573557496070863,-0.0020921227037130545,-0.0009399753325851634,AUTO
21:56:03,1500.0,-35.3624012,149.16692396666667,3888.0,5.0,-0.6666666666666666,-26.0,-1.0,2.0,-989.5,17.5,-3.5,0.5,0.008372939424589276,-0.0014817097107879817,1.0530009004804823,0.006525704792390267,-0.0034481616975325677,-4.0123577087393234e-05,AUTO
21:56:04,1500.0,-35.3624006,149.1669234,4181.0,0.0,3.0,-32.0,-0.5,5.5,-1011.0,37.5,-1.5,0.5,0.012722403509542346,-0.002789605932775885,1.0531626641750336,0.01089153764769435,-0.002159889554604888,0.0003232942908653058,AUTO
21:56:06,1500.0,-35.362399749999994,149.1669229,5174.5,-5.0,9.5,-64.0,0.0,-2.0,-1002.5,-85.5,0.5,0.0,0.011994784963982446,-0.0017723658654306615,1.0534273726599557,-0.007688618664230619,-0.00018095406371035745,-0.0002556670328236318,AUTO
21:56:08,1500.0,-35.3623993,149.1669229,6249.0,-7.0,10.0,-31.5,0.0,2.0,-971.5,52.0,-0.5,0.0,0.01258959931631883,-0.0006747075822204351,1.053505261739095,0.05823590668539206,-0.00266242865473032,-0.00020409325952641666,AUTO
21:56:10,1500.0,-35.362399350000004,149.16692295000001,6472.5,-8.0,10.5,-2.0,0.0,-15.0,-1003.0,-337.5,-2.5,1.5,0.009110238868743181,-0.001144261215813458,1.054661512374878,-0.3357848674058914,-0.003514190553687513,0.0012485503684729338,BRAKE
21:56:12,1500.0,-35.362400050000005,149.166924,6523.0,-7.0,8.5,-2.5,0.0,2.5,-997.5,-82.0,-1.5,-0.5,-0.0023336251615546644,0.003763878019526601,1.0545586943626404,-0.08192983269691467,-0.0014198954741004854,-0.001094235514756292,BRAKE
21:56:14,1500.0,-35.3624006,149.16692510000001,5678.5,0.5,4.0,162.0,0.0,91.5,-906.5,1531.5,0.0,0.0,0.012654704973101616,0.0007426583615597337,1.0528582334518433,1.5273498892784119,-0.000447278143838048,8.225563215091825e-05,ALT_HOLD
21:56:16,1500.0,-35.36240155,149.16692749999999,2668.0,5.0,-1.0,37.0,0.0,-7.5,-1107.5,185.5,3.5,2.0,-0.0032774426217656583,0.008220176212489605,1.0538813471794128,0.18942654132843018,0.0039492950309067965,0.0021112459944561124,AUTO
21:56:18,1500.0,-35.36240155,149.16692784999998,2767.0,9.5,-9.5,-24.0,-1.0,-10.5,-995.0,-274.5,-0.5,-1.0,-0.004267448792234063,0.003940328722819686,1.0539366006851196,-0.27184824645519257,-0.0014256052090786397,-0.0015392857021652162,AUTO
21:56:20,1500.0,-35.362400949999994,149.1669271,3027.5,3.5,-4.0,-1.5,0.0,7.5,-994.0,-71.5,2.0,1.0,-0.0007189578609541059,0.0019382581231184304,1.0543270111083984,-0.07153631746768951,0.0019440739415585995,0.000880396728462074,AUTO
21:56:22,1500.0,-35.3624009,149.1669271,3291.0,2.5,-2.0,-35.5,0.0,11.0,-1028.0,107.5,2.5,1.5,-0.003001972036145162,0.0029320920584723353,1.0539448857307434,0.1085042804479599,0.0022193028999026865,0.0015058959979796782,AUTO
21:56:24,1500.0,-35.36240035,149.16692695,4387.0,3.5,-2.0,-49.5,0.0,1.0,-972.0,-41.0,0.0,-1.0,0.0032957913354039192,0.0027316134655848145,1.0530405044555664,-0.03873077407479286,-0.0007763658795738593,-0.0016146922134794295,AUTO
21:56:26,1500.0,-35.3623998,149.1669265,4781.5,-2.0,1.0,3.5,0.0,16.5,-993.5,433.0,3.0,1.0,0.012670079711824656,0.0012337330845184624,1.0546629428863525,0.4363122209906578,0.0026017773197963834,0.0013703728909604251,AUTO
21:56:28,1500.0,-35.36239945,149.1669263,5020.5,-2.0,2.0,-45.5,-1.0,2.5,-1040.0,104.5,1.5,-0.5,0.00863298331387341,0.001030260929837823,1.0537076592445374,0.10703025385737419,0.0008720755577087402,-0.001208393252454698,AUTO
21:56:30,1500.0,-35.362398549999995,149.166926,6296.5,-7.5,4.5,-44.5,-1.0,2.0,-954.0,28.5,0.0,0.0,0.01652116421610117,0.0028878634329885244,1.0532085299491882,0.030845551751554012,-0.0011766389943659306,-2.7510683139553294e-05,AUTO
21:56:32,1500.0,-35.362398150000004,149.1669257,6510.0,-11.5,6.5,6.5,0.0,-6.0,-1002.5,-265.0,0.0,1.0,0.005943025811575353,0.001488789333961904,1.0545708537101746,-0.2641432173550129,-0.0012024963507428765,0.0016127211274579167,BRAKE
21:56:34,1500.0,-35.3623989,149.16692625000002,6477.5,-11.5,7.0,-1.0,1.0,-14.0,-1003.5,-371.5,0.0,0.0,-0.002211793093010783,0.004366070730611682,1.054543912410736,-0.37124840915203094,-0.0006529268284793943,-0.0002130784559994936,BRAKE
21:56:36,1500.0,-35.36239985,149.16692705,6464.5,-2.0,1.5,19.5,0.5,11.0,-905.5,-9.5,-5.0,-1.0,-0.004268109827535227,0.0006391151619027369,1.0547231435775757,-0.01061597466468811,-0.0064830840565264225,-0.001871087122708559,ALT_HOLD
21:56:38,1500.0,-35.36240015,149.16692825,3539.5,-2.5,4.0,153.0,-4.5,89.0,-1124.5,1531.5,11.0,-0.5,0.012295461259782314,0.004020316293463111,1.0519964694976807,1.5290514826774597,0.01048314303625375,-0.0009734954655868933,AUTO
21:56:40,1500.0,-35.36239845,149.1669278,2653.5,-12.0,4.5,-17.5,-0.5,-6.5,-1018.0,-237.5,0.5,-1.0,0.0180272301658988,0.004203279968351126,1.0545055270195007,-0.2371194390580058,0.0001370458339806646,-0.0010918630578089505,AUTO
21:56:42,1500.0,-35.36239875,149.1669281,3047.0,-16.5,6.5,-11.0,2.0,14.0,-982.5,289.0,0.5,-0.5,0.005449480144307017,0.006293199956417084,1.0540971755981445,0.2893633022904396,-0.00023672630777582526,-0.0010725796746555716,AUTO
21:56:44,1500.0,-35.362400199999996,149.16692905000002,3099.5,-3.5,-0.5,0.0,0.6666666666666666,10.0,-999.3333333333334,207.33333333333334,0.3333333333333333,0.0,0.0028785652248188853,0.0057764844968914986,1.0544995069503784,0.37381044775247574,0.0006942460313439369,-0.0007220968545880169,BRAKE
21:56:46,1500.0,-35.3624012,149.16692955000002,3123.5,0.0,-3.0,-0.5,0.3333333333333333,-0.3333333333333333,-1002.6666666666666,-176.0,-1.3333333333333333,0.3333333333333333,-0.008089266018941998,0.004370523849502206,1.0541813969612122,0.13091538846492767,-0.00018595228902995586,0.0007567903667222708,BRAKE
21:56:48,1500.0,-35.362402450000005,149.1669308,2374.5,3.5,0.5,157.0,1.0,-93.0,-844.3333333333334,-1640.3333333333333,-2.0,-4.333333333333333,-0.011252440512180328,0.0008212165848817676,1.0522858500480652,-1.7726253867149353,-0.007677765563130379,0.0013615802599815652,AUTO
21:56:50,1500.0,-35.36240265,149.16693175,509.5,43.5,-36.0,-78.0,0.0,0.0,-1000.0,0.0,0.0,0.0,0.00013227591989561915,0.00016109211719594896,1.0472518801689148,0.0021166299702599645,-0.00039984515751712024,0.0005059988907305524,AUTO
21:56:52,1500.0,-35.362404,149.16693335,918.0,-0.5,4.5,-54.5,0.0,0.0,-1000.0,0.0,0.0,0.0,0.015652664005756378,-0.002099664881825447,1.0424534678459167,0.0028380679432302713,-0.00041267508640885353,0.0004816686559934169,AUTO
21:56:54,1500.0,-35.362405550000005,149.166935,951.0,-18.5,18.0,-33.5,0.0,0.0,-1000.0,0.0,0.0,0.0,0.018770075403153896,-0.0015388638130389154,1.0412070155143738,0.002684252802282572,-0.00033520106808282435,0.00037455291021615267,AUTO
21:56:56,1500.0,-35.3624062,149.16693555,803.0,-20.5,17.5,-18.0,0.0,0.0,-1000.0,0.3333333333333333,0.0,0.0,0.016495833173394203,-0.00024590800603618845,1.0419089198112488,0.0023266548523679376,-0.00020534644136205316,0.0004371121322037652,AUTO
21:56:58,1500.0,-35.3624062,149.1669354,602.0,-16.333333333333332,12.0,-7.333333333333333,0.0,0.0,-1000.0,0.0,0.0,0.0,0.013169044318298498,0.0008520316332578659,1.043254295984904,0.0019449838437139988,-0.00011635208890462916,0.0004462495368594925,AUTO
21:57:00,1500.0,-35.3624059,149.16693505,406.0,-8.5,5.5,-4.5,0.0,20.333333333333332,-1007.0,-118.66666666666667,0.3333333333333333,0.0,-0.033676829654723406,0.001614608510863036,1.044666588306427,-0.1526661179959774,9.297823999077082e-05,0.0005662644980475307,BRAKE
21:57:02,1500.0,-35.36240519999999,149.16693439999997,314.6666666666667,-2.3333333333333335,0.3333333333333333,0.6666666666666666,-0.3333333333333333,465.3333333333333,-888.0,-301.6666666666667,0.0,0.0,-0.5010299682617188,0.0020009140328814587,1.0442264477411907,-0.30176636079947156,-0.0005927676102146506,1.2707091324652234e-05,BRAKE
21:57:04,1500.0,-35.3624041,149.16691456666666,274.6666666666667,-61.333333333333336,-173.66666666666666,-1.0,0.6666666666666666,-0.6666666666666666,1000.6666666666666,0.3333333333333333,0.0,0.3333333333333333,-3.134097178777059,0.019201961035529774,1.560103178024292,0.0013147999998182058,-0.0002673663354168336,0.000371084645545731,ALT_HOLD
21:57:06,1500.0,-35.36240296666667,149.16691303333334,327.3333333333333,-12.0,-43.666666666666664,-7.333333333333333,1.0,0.0,1000.0,0.0,0.0,0.0,3.1382669607798257,-0.009669223489860693,1.5334899028142293,0.0016380723488206665,-0.0013253256523360808,-0.0008831530964622895,AUTO
21:57:08,1500.0,-35.362401033333335,149.1669187,368.6666666666667,5.666666666666667,19.666666666666668,-7.333333333333333,1.0,0.0,1000.0,0.3333333333333333,0.3333333333333333,0.6666666666666666,3.139047145843506,-0.013570548656086126,1.529758056004842,0.0016345163652052481,-0.0013862662405396502,-0.0011367065987239282,AUTO
21:57:10,1500.0,-35.3624006,149.1669208666667,350.6666666666667,2.0,22.0,-5.333333333333333,1.0,0.0,1000.0,0.6666666666666666,0.3333333333333333,0.3333333333333333,-3.1400907834370932,-0.004631017334759235,1.533868670463562,0.0016583957088490326,-0.001582170642601947,-0.0010124085238203406,AUTO
