time_stamp,RTL_ALT,xacc,yacc,zacc,xgyro,ygyro,zgyro,MODE,roll,pitch,yaw,rollspeed,pitchspeed,yawspeed,lat,lon,relative_alt,vx,vy,vz
08:47:24,1500.0,0.0,2.0,-1000.0,0.0,1.0,0.0,STABILIZE,-0.0007012362475506961,0.0009807131718844175,0.022054139524698257,0.0003512896946631372,0.0002927766181528568,0.0015205882955342531,-35.3632622,149.1652375,0.0,-1.0,1.0,0.0
08:47:26,1500.0,0.0,1.5,-1000.0,1.0,0.5,0.0,AUTO,-0.00073070457438007,0.0010128555004484951,0.021594216115772724,0.0003169947594869882,0.00019889624672941864,0.00150390958879143,-35.3632622,149.1652375,4.5,-1.0,1.5,1.0
08:47:27,60886.0,0.0,1.5,-1000.0,0.5,0.5,0.25,AUTO,-0.000638941754004918,0.001222910883370787,0.02130619389936328,0.00030107043858151883,0.00030887816683389246,0.001463554217480123,-35.3632622,149.1652375,1.0,0.0,0.0,1.0
08:47:28,60886.0,0.0,1.0,-1000.0,1.0,0.5,1.0,AUTO,-0.0004762824537465349,0.001417281397152692,0.021115601062774658,0.00028298661345615983,0.00027966054040007293,0.0014523463905788958,-35.3632622,149.1652375,0.0,0.0,0.0,1.0
08:47:30,60886.0,0.0,0.0,-1116.5,-4.0,4.0,0.5,AUTO,0.0021755765192210674,0.0007547298009740189,0.02068768721073866,-0.0050931122386828065,0.0035007419064641,0.0013336818083189428,-35.3632621,149.1652375,310.5,0.0,0.0,-85.0
08:47:32,60886.0,2.5,-10.5,-991.5,-67.5,60.5,-73.0,AUTO,0.05291717313230038,0.0014001326635479927,-0.018937398213893175,-0.06813982035964727,0.060230376198887825,-0.07293848134577274,-35.3632615,149.16524025,3130.5,9.0,47.0,-145.5
08:47:33,60983.0,3.5,-4.5,-1002.25,-41.75,-29.25,-18.75,AUTO,-0.051836540922522545,0.005942913121543825,-0.08692341670393944,-0.04291266715154052,-0.030256784055382013,-0.01849490158201661,-35.363260925,149.16524577500002,5038.5,-2.75,16.5,-148.25
08:47:34,60983.0,-1.5,4.0,-1002.0,49.5,0.0,-2.0,AUTO,-0.06372721679508686,-0.011499937623739243,-0.08998646214604378,0.049246879294514656,-0.0008421143575105816,-0.0020129030162934214,-35.36326115,149.1652455,6195.5,-1.5,-31.5,-148.0
08:47:36,60983.0,-3.5,7.5,-1001.0,50.5,12.5,-5.5,AUTO,0.05936902016401291,0.009336542803794146,-0.08759575337171555,0.0503340158611536,0.012178015895187855,-0.005118808709084988,-35.363261449999996,149.16523469999998,9294.0,-5.0,-23.0,-153.0
08:47:38,60983.0,1.5,-1.5,-1001.5,2.0,2.0,-23.0,AUTO,-0.016025987453758717,-0.006750980392098427,-0.1052059605717659,0.0016225818544626236,0.0015098158619366586,-0.022980020381510258,-35.3632625,149.16523660000001,12394.5,-0.5,8.5,-151.0
08:47:39,52393.0,-1.75,0.0,-999.75,14.75,8.75,-22.25,AUTO,0.0008467960869893432,0.00038642861181870103,-0.13678931817412376,0.014644711278378963,0.008570183301344514,-0.02247311780229211,-35.363262250000005,149.16523637499998,14347.25,3.75,-5.25,-152.0
08:47:40,52393.0,-1.5,0.0,-999.0,5.5,5.5,-16.5,AUTO,0.008784230798482895,0.00520916492678225,-0.15259931981563568,0.005171691183932126,0.00501976499799639,-0.01672832714393735,-35.363261949999995,149.1652358,15518.0,2.5,-3.5,-152.0
08:47:42,52393.0,0.0,0.0,-1000.0,-2.0,0.5,-14.5,AUTO,0.005260175792500377,0.005144303664565086,-0.18143659085035324,-0.002863029658328742,-0.00036061537684872746,-0.014497465919703245,-35.36326165,149.16523565,18635.0,-2.0,5.5,-152.0
08:47:44,52393.0,2.0,11.5,-954.5,125.0,-156.0,127.5,AUTO,-0.004372430499643087,0.009025681298226118,0.07654412649571896,0.12466464191675186,-0.1574532836675644,0.12821901217103004,-35.36326305,149.1652335,21606.0,-32.5,-33.5,-121.5
08:47:45,8014.0,0.25,-2.75,-971.0,-23.25,28.5,-13.75,AUTO,0.048101519234478474,-0.030601605772972107,0.06193184293806553,-0.02436262695118785,0.028060417622327805,-0.01354613815783523,-35.36326472500001,149.165231825,22827.5,4.0,18.25,-74.75
08:47:46,8014.0,0.0,-9.5,-976.5,-38.0,33.5,2.5,AUTO,0.01991123938933015,-0.005477753409650177,0.05809612199664116,-0.03948145732283592,0.03306922037154436,0.002992287860251963,-35.3632639,149.165234,23329.0,18.0,37.5,-55.0
08:47:48,8014.0,-1.0,-5.0,-951.5,-222.0,79.0,-5.0,AUTO,-0.019317717757076025,0.016383963637053967,0.05079740844666958,-0.2236164202913642,0.07784997206181288,-0.0052432233933359385,-35.363261249999994,149.16523975,23958.5,3.5,11.0,-4.0
08:47:50,8014.0,-2.5,-18.0,-1011.0,188.5,-23.5,322.5,AUTO,0.08414940163493156,-0.05700216628611088,0.08364511281251907,0.1882612705230713,-0.02482125349342823,0.3233911283314228,-35.3632599,149.16524075,23703.5,35.0,42.0,0.5
08:47:51,68249.0,-35.75,-14.75,-1009.0,68.0,-54.0,163.0,AUTO,0.01523951767012477,-0.15438059717416763,1.0426615476608276,0.06690292432904243,-0.05526009760797024,0.16342218592762947,-35.363251925,149.16525224999998,23695.5,105.75,140.25,-1.75
08:47:52,68249.0,-50.0,-21.0,-1003.0,224.5,-26.0,-97.0,AUTO,0.020798624493181705,-0.19263065606355667,0.989463746547699,0.22352422773838043,-0.027075291465735063,-0.09718774445354939,-35.36324355,149.1652658,23697.5,157.0,213.0,0.0
08:47:54,68249.0,-94.5,-53.5,-995.0,0.5,-25.5,-3.5,AUTO,0.050250180065631866,-0.2120678350329399,0.9667745232582092,-0.0006568632088601589,-0.027006156742572784,-0.0038894788594916463,-35.36320255,149.1653323,23711.0,298.0,393.0,-1.5
08:47:56,68249.0,-130.0,-71.0,-985.0,3.0,5.5,-3.5,AUTO,0.0709383450448513,-0.17633982747793198,0.9599530398845673,0.002637384459376335,0.004748018574900925,-0.003314122761366889,-35.36313935,149.1654352,23830.5,387.0,517.5,-10.5
08:47:57,65773.0,-126.33333333333333,-75.33333333333333,-983.6666666666666,1.3333333333333333,19.666666666666668,-6.666666666666667,AUTO,0.07851861913998921,-0.14639323949813843,0.9584174156188965,0.00012187038858731587,0.019095414647987734,-0.006606467378636201,-35.363095200000004,149.16550733333332,23944.333333333332,405.3333333333333,548.0,-9.666666666666666
08:47:58,65773.0,-129.33333333333334,-70.66666666666667,-977.3333333333334,11.333333333333334,2.6666666666666665,-6.333333333333333,AUTO,0.07969021300474803,-0.12763971090316772,0.9575730164845785,0.010191069915890694,0.002036368784805139,-0.006649871900056799,-35.3630675,149.16555293333332,24015.666666666668,404.3333333333333,548.0,-8.666666666666666
08:48:00,65773.0,-143.33333333333334,-74.33333333333333,-992.3333333333334,-18.0,-13.333333333333334,1.3333333333333333,AUTO,0.07480241606632869,-0.13823695480823517,0.9521552522977194,-0.019569628561536472,-0.014975960832089186,0.0012373913389941056,-35.362993966666664,149.1656749,24071.0,407.3333333333333,548.6666666666666,-1.3333333333333333
08:48:02,65773.0,-132.66666666666666,-76.0,-983.6666666666666,-13.333333333333334,0.3333333333333333,0.6666666666666666,AUTO,0.0798243631919225,-0.13280713061491647,0.948361317316691,-0.01527230286349853,-0.000781944797684749,0.0009461541194468737,-35.362919999999995,149.1657965,24149.666666666668,410.6666666666667,546.6666666666666,-5.0
08:48:03,32430.0,-131.33333333333334,-62.666666666666664,-988.3333333333334,11.333333333333334,23.666666666666668,-4.333333333333333,AUTO,0.08026156326134999,-0.12060745805501938,0.9463332295417786,0.01084227099393805,0.022306826586524647,-0.004162672926516582,-35.3628735,149.16587223333332,24210.666666666668,406.0,544.3333333333334,-5.333333333333333
08:48:04,32430.0,-134.0,-71.0,-991.3333333333334,6.666666666666667,49.666666666666664,-4.0,AUTO,0.08349530150492986,-0.0821871707836787,0.9464478890101115,0.005388318561017513,0.04863129990796248,-0.003596837321917216,-35.362846133333335,149.16591663333335,24272.333333333332,392.6666666666667,527.6666666666666,-10.333333333333334
08:48:06,32430.0,-95.0,-71.33333333333333,-993.3333333333334,-40.666666666666664,51.0,-0.3333333333333333,AUTO,0.069346288839976,0.010778264530623952,0.94661945104599,-0.042399617532889046,0.05015341192483902,-0.000649706150094668,-35.36278240000001,149.1660214,24429.0,294.3333333333333,405.0,-1.0
08:48:08,32430.0,-53.666666666666664,-18.0,-1004.3333333333334,416.0,12.0,-11.333333333333334,AUTO,0.0422854982316494,0.05622728789846102,0.9454453786214193,0.4146324396133423,0.010978577348093191,-0.011175550520420074,-35.362741633333336,149.16609063333334,24385.666666666668,158.66666666666666,218.0,3.0
08:48:09,148850.0,-28.0,-5.0,-1009.3333333333334,293.6666666666667,-16.0,-4.666666666666667,AUTO,0.022072436287999153,0.07813460876544316,0.9448698163032532,0.2921556557218234,-0.017509344965219498,-0.004995561515291532,-35.362728133333334,149.16611343333332,24381.666666666668,79.0,107.66666666666667,1.0
08:48:10,148850.0,-14.0,-14.0,-999.6666666666666,-268.0,-19.0,-0.3333333333333333,AUTO,0.0054997100960463285,0.05764929081002871,0.9438366691271464,-0.27008675535519916,-0.021228504677613575,-0.00015056606692572436,-35.362724,149.16612036666666,24380.666666666668,41.0,56.666666666666664,1.6666666666666667
08:48:12,148850.0,0.6666666666666666,-13.333333333333334,-995.0,-218.0,-27.333333333333332,-3.0,AUTO,-0.012946934904903173,0.01504886414234837,0.94282333056132,-0.2190674344698588,-0.02931099198758602,-0.003136974584776908,-35.36272163333334,149.16612519999998,24390.333333333332,1.0,-11.333333333333334,1.0
08:48:14,148850.0,0.0,-5.333333333333333,-1009.0,127.33333333333333,45.0,-14.333333333333334,RTL,-0.01416535023599863,-0.0016480900812894106,0.944328765074412,0.12677285075187683,0.04413424773762623,-0.014081532756487528,-35.3627224,149.16612553333334,24395.666666666668,14.0,-3.0,-1.0
08:48:15,115893.0,0.0,-5.0,-1048.3333333333333,-52.666666666666664,-1.6666666666666667,-11.333333333333334,RTL,-0.017793239404757816,0.0067198990533749265,0.9415974617004395,-0.05332979063193003,-0.0032364760215083757,-0.010956540703773499,-35.3627225,149.1661265666667,24611.333333333332,14.333333333333334,-13.333333333333334,-38.333333333333336
08:48:16,115893.0,0.0,0.0,-1055.6666666666667,14.333333333333334,-3.0,-8.666666666666666,RTL,-0.015252639849980673,0.002076864844032874,0.9398758411407471,0.013851563135782877,-0.004888442577794194,-0.008213685980687538,-35.3627225,149.16612656666666,25062.0,14.0,-16.666666666666668,-79.0
08:48:18,115893.0,0.0,0.6666666666666666,-1005.0,49.666666666666664,-3.6666666666666665,0.3333333333333333,RTL,0.030642919863263767,-0.006647123334308465,0.9370722969373068,0.050024788826704025,-0.005899726413190365,0.0016496808966621757,-35.362722033333334,149.16612543333335,27599.0,0.0,-4.0,-148.0
08:48:20,115893.0,1.6666666666666667,-2.0,-1006.3333333333334,-12.0,-10.333333333333334,-26.666666666666668,RTL,-0.07537934432427089,0.003520654622964988,0.8657882809638977,-0.012224354936430851,-0.012733572473128637,-0.026807366559902828,-35.362725266666665,149.16612983333334,30639.666666666668,-5.666666666666667,0.0,-148.0
08:48:21,146735.0,-6.333333333333333,12.0,-1002.0,67.66666666666667,8.333333333333334,-1.3333333333333333,RTL,-0.015143674138622979,0.0012868064222857356,0.8484859863917033,0.06749659776687622,0.007439290328572194,-0.0009622372260006765,-35.3627228,149.1661263,32568.0,32.666666666666664,-41.333333333333336,-149.66666666666666
08:48:22,146735.0,-2.0,12.333333333333334,-1001.6666666666666,47.333333333333336,-13.333333333333334,21.666666666666668,RTL,0.032559044659137726,0.004094119954970665,0.8506661653518677,0.04725286674996217,-0.014808454240361849,0.0225924258120358,-35.36272076666666,149.16612233333333,33737.333333333336,15.666666666666666,-39.0,-151.66666666666666
08:48:24,146735.0,-5.333333333333333,-7.0,-1003.0,-31.0,63.0,-74.33333333333333,RTL,-0.0005593075572202603,-0.006635238882154226,0.8877923289934794,-0.03201916782806317,0.061942187448342644,-0.07488936434189479,-35.36271936666667,149.1661215,36845.333333333336,2.6666666666666665,34.666666666666664,-149.0
08:48:26,146735.0,1.0,0.0,-999.0,4.0,-10.333333333333334,-2.0,RTL,0.011080569277207056,0.015599604696035385,0.8095273772875468,0.0032157182383040586,-0.012791718045870462,-0.0018788045466256638,-35.3627175,149.16612416666666,39976.666666666664,-11.0,-1.0,-152.0
08:48:27,131654.0,3.0,0.0,-1000.3333333333334,-4.666666666666667,-7.0,-11.0,RTL,0.003699689987115562,-0.0004914764625330766,0.8013060688972473,-0.006027347718675931,-0.009464516925315062,-0.011594984835634628,-35.362718666666666,149.1661236,41916.666666666664,-19.666666666666668,-1.3333333333333333,-152.0
08:48:28,131654.0,2.3333333333333335,0.0,-1000.3333333333334,0.0,-2.0,-20.333333333333332,RTL,-0.0003905741759808734,-0.005831642386813958,0.7873478134473165,-0.00048521880914146703,-0.00365095065596203,-0.02109498841067155,-35.36271956666667,149.16612333333333,43087.0,-15.333333333333334,0.0,-152.0
08:48:30,131654.0,0.0,0.0,-1000.0,3.6666666666666665,4.666666666666667,-25.333333333333332,RTL,0.004866636513421933,-0.0030713765105853477,0.7303761045138041,0.0031183867055612304,0.0033441647343958416,-0.026030035689473152,-35.3627203,149.166123,46213.0,-5.0,4.0,-152.0
08:48:32,131654.0,0.0,0.0,-1000.0,0.6666666666666666,1.6666666666666667,-20.666666666666668,RTL,0.004442976942906777,-0.0001446189489797689,0.6789325873057047,0.0002794994118933876,0.00030936021357774734,-0.021667370572686195,-35.3627205,149.16612323333334,49336.0,-6.0,5.0,-152.0
08:48:33,8911.0,0.0,0.0,-999.6666666666666,3.6666666666666665,2.0,-16.666666666666668,RTL,0.0023357521276921034,-0.0003944467753171921,0.6503560741742452,0.0030362537363544106,0.0006434734677895904,-0.017957156524062157,-35.3627207,149.16612346666668,51280.666666666664,-6.0,4.0,-152.33333333333334
08:48:34,8911.0,0.0,0.0,-999.3333333333334,4.666666666666667,5.0,14.0,RTL,0.004464467676977317,0.0019393649611932535,0.6457076072692871,0.004171683705256631,0.0035892960149794817,0.013714073225855827,-35.36272086666667,149.16612356666667,52450.333333333336,-6.333333333333333,3.3333333333333335,-152.0
08:48:36,8911.0,0.3333333333333333,0.0,-1000.3333333333334,2.0,0.6666666666666666,29.333333333333332,RTL,0.00010568232513226879,-0.0022651098746185503,0.695068359375,0.0010973891476169229,-0.0010451249545440078,0.029066744570930798,-35.3627217,149.1661239,55552.0,-6.666666666666667,3.0,-152.0
08:48:38,8911.0,0.0,0.0,-1000.0,2.0,1.6666666666666667,21.0,RTL,0.0006788375127750138,-0.0026023505876461663,0.7392340501149496,0.0010520834863806765,0.000573360244743526,0.020557809621095657,-35.3627219,149.166124,58656.333333333336,-1.3333333333333333,1.0,-152.0
08:48:39,16173.0,0.0,0.0,-999.6666666666666,1.6666666666666667,1.0,17.666666666666668,RTL,0.0012493554192284744,-0.0023031236293415227,0.760307768980662,0.0002688787644729018,-0.00020316285857309899,0.017055065060655277,-35.3627218,149.166124,60599.666666666664,-0.3333333333333333,1.0,-152.0
08:48:40,16173.0,0.0,0.0,-1000.0,2.6666666666666665,2.0,16.0,RTL,0.0018628459268560011,-0.0018935880701368053,0.771431028842926,0.0015970756843065221,0.0009830285562202334,0.01582394726574421,-35.362721666666665,149.166124,61765.666666666664,-0.3333333333333333,1.0,-152.0
08:48:42,16173.0,0.0,0.0,-999.6666666666666,1.0,1.3333333333333333,11.666666666666666,RTL,0.002128871468206247,-0.0010165406468634803,0.7951920032501221,-0.00044550024904310703,1.729819147537152e-05,0.010960992115239302,-35.36272136666667,149.1661241,64869.666666666664,-2.0,1.0,-152.0
08:48:44,16173.0,0.0,0.0,-1000.0,2.3333333333333335,2.0,9.333333333333334,RTL,0.0010773353278636932,-0.0014133239552999537,0.8134723901748657,0.0012490847924103339,0.00048766855616122484,0.008957698320349058,-35.3627213,149.1661241,67984.66666666667,-2.0,0.0,-152.0
08:48:45,242729.0,0.0,0.0,-1000.0,1.6666666666666667,0.6666666666666666,8.666666666666666,RTL,0.00163950864225626,-0.0016774487836907308,0.8223735094070435,0.0004746917014320691,-0.0006660065846517682,0.007905005943030119,-35.3627212,149.1661241,69918.0,-2.0,0.0,-152.0
08:48:46,242729.0,0.0,0.0,-1000.0,2.0,1.3333333333333333,8.666666666666666,RTL,0.0013886261731386185,-0.0017858631908893585,0.8273025751113892,0.0006084530226265391,-0.0001989003891746203,0.007797350796560447,-35.3627212,149.1661241,71085.0,-2.0,0.0,-152.0
08:48:48,242729.0,0.0,0.0,-1000.0,1.6666666666666667,1.3333333333333333,8.666666666666666,RTL,0.0015313686259711783,-0.0014537878644963105,0.8391023675600687,0.0007507292320951819,-0.00017653106867025295,0.007861020974814892,-35.3627211,149.1661241,74188.0,-3.0,0.0,-152.0
08:48:50,242729.0,0.0,0.0,-1000.3333333333334,3.0,0.6666666666666666,6.666666666666667,RTL,0.000902901345398277,-0.0011705510939160983,0.8502896428108215,0.0017265288236861427,-0.0006893726143365105,0.005818571740140517,-35.3627211,149.1661242,77302.0,-3.0,0.0,-152.0
08:48:51,201888.0,0.0,0.0,-1000.3333333333334,3.3333333333333335,1.6666666666666667,6.333333333333333,RTL,0.0011006081476807594,-0.0016039504359165828,0.8559831778208414,0.00216457472803692,0.00035404278120646876,0.005495627876371145,-35.3627211,149.1661242,79244.0,-2.6666666666666665,0.0,-152.0
08:48:52,201888.0,0.0,0.0,-1000.0,3.0,1.3333333333333333,7.0,RTL,0.0014510858648767073,-0.0018496880074962974,0.8591814835866293,0.0018203711758057277,-0.00040094884267697733,0.006086386119325955,-35.3627211,149.1661242,80410.66666666667,-2.3333333333333335,0.0,-152.0
08:48:54,201888.0,0.0,0.0,-1000.0,3.6666666666666665,2.3333333333333335,5.666666666666667,RTL,0.001441214078416427,-0.001584138177956144,0.8669179677963257,0.002337334289525946,0.0009095293935388327,0.004900509336342414,-35.3627211,149.1661242,83514.0,-2.3333333333333335,0.0,-152.0
08:48:56,201888.0,0.0,0.0,-999.6666666666666,0.3333333333333333,3.3333333333333335,5.0,RTL,0.0006708050010881076,-0.0013646946754306555,0.8739553491274515,-0.0015247389674186707,0.0013873504164318244,0.00365300759828339,-35.3627211,149.1661242,86618.33333333333,-2.0,0.0,-152.0
08:48:57,97305.0,0.0,0.0,-999.3333333333334,1.3333333333333333,1.6666666666666667,4.666666666666667,RTL,0.0008310484505879382,-0.0013468936861803134,0.8776888449986776,-6.179728855689366e-05,0.000175111034574608,0.003592276480048895,-35.3627211,149.1661242,88559.33333333333,-2.0,0.0,-152.0
08:48:58,97305.0,0.0,0.0,-999.6666666666666,2.0,2.3333333333333335,5.666666666666667,RTL,0.0009742156641247371,-0.0015160814315701525,0.8798685471216837,0.0002729591603080432,0.0005997320792327324,0.0047228236217051744,-35.3627211,149.1661242,89725.0,-2.0,0.0,-152.0
08:49:00,97305.0,0.0,0.0,-1000.3333333333334,3.0,3.0,3.3333333333333335,RTL,0.0011808250177030761,-0.0012939097359776497,0.885285218556722,0.0014721036422997713,0.0010919318301603198,0.002264709871572753,-35.3627211,149.1661242,92835.66666666667,-2.0,0.0,-152.0
08:49:02,98714.5,0.0,0.0,-1000.0,3.3333333333333335,2.3333333333333335,4.0,RTL,0.000975999457295984,-0.0013675342003504436,0.8896804253260294,0.0014689015224575996,0.00036557278751085204,0.0030295017641037703,-35.3627211,149.1661242,95937.66666666667,-2.6666666666666665,0.0,-152.0
08:49:04,100124.0,0.0,0.0,-999.6666666666666,1.0,2.3333333333333335,3.6666666666666665,RTL,0.0009137413968952993,-0.0014716381750379999,0.8938752214113871,-0.0004753092071041465,0.0004432357382029295,0.002166355145163834,-35.3627211,149.1661242,99207.0,-2.0,0.0,-152.0
08:49:06,100124.0,0.0,0.0,-1000.3333333333334,3.0,1.3333333333333333,3.3333333333333335,RTL,0.0008241097287585338,-0.0019238754951705535,0.897977352142334,0.0015861841384321451,-0.0007986356116210421,0.0019264800939708948,-35.3627211,149.1661242,102309.33333333333,-2.0,0.0,-152.0
08:49:07,116950.0,0.0,0.0,-999.0,1.0,2.6666666666666665,5.333333333333333,RTL,0.0012482731447865565,-0.002101543553483983,0.900020182132721,-0.0006494341262926658,0.0008161311658720175,0.004212943526605765,-35.3627211,149.1661242,104251.66666666667,-2.0,0.0,-152.0
08:49:08,116950.0,0.0,0.0,-1000.0,2.6666666666666665,1.6666666666666667,3.0,RTL,0.0008919874477821091,-0.0016233663773164153,0.9007411003112793,0.0004454077376673619,0.0001500266371294856,0.001649200062577923,-35.3627211,149.1661242,105417.33333333333,-2.0,0.0,-152.0
08:49:10,116950.0,0.0,0.0,-1000.0,0.3333333333333333,0.6666666666666666,3.6666666666666665,RTL,0.0005372724360010276,-0.0013937777451549966,0.9034887353579203,-0.0016052956925705075,-0.0010429498894761007,0.002571786482197543,-35.3627211,149.16612423333333,108528.66666666667,-2.0,0.0,-152.0
08:49:12,116950.0,0.0,0.0,-1000.0,2.3333333333333335,1.6666666666666667,3.3333333333333335,RTL,0.0005823384659985701,-0.001424605919358631,0.9057691295941671,0.0007670263294130564,-0.00019838389319678149,0.00206395184310774,-35.3627211,149.1661243,111635.33333333333,-2.0,0.0,-152.0
08:49:13,50580.0,0.0,0.0,-1000.0,3.3333333333333335,1.6666666666666667,4.666666666666667,RTL,0.0007746183352234463,-0.0016297371281931798,0.9070382714271545,0.0015977018823226292,-0.0001071360893547535,0.0032486981557061276,-35.3627211,149.1661243,113583.33333333333,-2.0,0.0,-152.0
08:49:14,50580.0,0.0,0.0,-999.6666666666666,1.6666666666666667,1.3333333333333333,4.0,RTL,0.0009563196799717844,-0.001857249066233635,0.9076191186904907,-0.0006359422113746405,-0.0005595126034071048,0.0028119388734921813,-35.3627211,149.1661243,114751.0,-2.0,0.0,-152.0
08:49:16,50580.0,0.0,0.0,-1000.0,2.0,1.6666666666666667,3.0,RTL,0.0007766438066028059,-0.0014838074954847495,0.9093069831530253,0.00010638536574939887,-0.0002499853338425358,0.001487656884516279,-35.3627211,149.1661243,117854.33333333333,-2.0,0.0,-152.0
08:49:18,50580.0,0.0,0.0,-1000.0,2.0,1.6666666666666667,2.6666666666666665,RTL,0.0007342076860368252,-0.0015300698190306623,0.910694400469462,9.512136845539014e-05,-0.00026271988948186237,0.0012322361581027508,-35.3627211,149.1661243,120964.66666666667,-2.0,0.0,-152.0
08:49:19,4750.0,0.0,0.0,-999.6666666666666,1.6666666666666667,2.6666666666666665,2.3333333333333335,RTL,0.0007164209770659605,-0.0014600105738888185,0.9114871422449747,-0.00039654426897565526,0.0007651650812476873,0.0012037824684133132,-35.3627211,149.1661243,122907.0,-2.0,0.0,-152.0
08:49:20,4750.0,0.0,0.0,-1000.3333333333334,2.0,1.0,2.6666666666666665,RTL,0.0008983080430577198,-0.0016267862326155107,0.9122766057650248,8.939059140781562e-05,-0.000806157865251104,0.0014486064513524373,-35.3627211,149.1661243,124072.33333333333,-2.0,0.0,-152.0
08:49:22,4750.0,0.0,0.0,-1000.0,2.0,1.6666666666666667,1.6666666666666667,RTL,0.00039356394942539435,-0.0017982348799705505,0.9137596090634664,4.600384272634983e-06,-0.00027419207617640495,0.00033183923612038296,-35.3627212,149.1661243,127182.33333333333,-2.0,0.0,-152.0
08:49:24,4750.0,0.0,0.0,-1000.0,1.6666666666666667,2.0,2.0,RTL,0.0007175736827775836,-0.0016603650680432718,0.9147875507672628,-0.00044291528562704724,-0.00020185167280336222,0.0007993701146915555,-35.3627212,149.1661243,130287.66666666667,-2.0,0.0,-152.0
08:49:25,9079.0,0.0,0.0,-1000.0,2.3333333333333335,1.3333333333333333,4.0,RTL,0.0009231462609022856,-0.001298217490936319,0.9152693947156271,0.0006602421247710785,-0.0005342277775829037,0.0025404561311006546,-35.3627212,149.1661243,132227.66666666666,-2.0,0.0,-152.0
08:49:26,9079.0,0.0,0.0,-1000.3333333333334,2.3333333333333335,1.6666666666666667,3.6666666666666665,RTL,0.0008560992622127136,-0.0014216483493025105,0.9155506292978922,0.00026398532403012115,-0.00047163180230806273,0.002141248007925848,-35.3627212,149.1661243,133393.33333333334,-2.0,0.0,-152.0
08:49:28,9079.0,0.0,0.0,-1000.3333333333334,2.0,1.6666666666666667,2.0,RTL,0.0007825874878714482,-0.0013691283529624343,0.9162272016207377,-5.9297230715552964e-05,-0.000430845112229387,0.0006205991376191378,-35.3627212,149.1661243,136501.0,-2.0,0.0,-152.0
08:49:30,9079.0,0.0,0.0,-1000.3333333333334,1.3333333333333333,1.0,2.6666666666666665,RTL,0.00035168955218978226,-0.0011298157817994554,0.9168017109235128,-0.0006753548514097929,-0.000896961078979075,0.0007704030722379684,-35.3627212,149.1661243,139611.66666666666,-2.0,0.0,-152.0
08:49:31,134472.0,0.0,0.0,-1000.0,2.0,1.0,1.3333333333333333,RTL,0.0005782519777615865,-0.0015371524496003985,0.9170583287874857,-0.00012551209268470606,-0.0008326898872231444,-0.0003705334383994341,-35.3627212,149.1661243,141553.66666666666,-2.0,0.0,-152.0
08:49:32,134472.0,0.0,0.0,-999.6666666666666,3.0,2.6666666666666665,2.3333333333333335,RTL,0.0005174522035910437,-0.001371331241292258,0.9171916643778483,0.001097943711404999,0.000617202448969086,0.0006397746037691832,-35.3627212,149.1661243,142719.33333333334,-2.0,0.0,-152.0
08:49:34,134472.0,0.0,0.0,-1000.0,1.6666666666666667,2.3333333333333335,1.0,RTL,0.0005341235373634845,-0.0020492448238655925,0.9179064035415649,-0.0005895056140919527,0.00014594274883468947,-0.0005719251542662581,-35.3627212,149.1661243,145834.66666666666,-2.0,0.0,-152.0
08:49:36,134472.0,0.0,0.0,-1000.3333333333334,3.6666666666666665,2.0,2.6666666666666665,RTL,0.0005765954265370965,-0.001545001519843936,0.9180763165156046,0.0015993242462476094,-6.926424490908782e-05,0.0010643621596197288,-35.3627212,149.1661243,148936.33333333334,-2.0,0.0,-152.0
08:49:37,115923.0,0.0,0.0,-1000.0,2.6666666666666665,3.6666666666666665,3.3333333333333335,RTL,0.0006866370677016675,-0.0013460652553476393,0.9187080264091492,0.0005389919970184565,0.0014429765287786722,0.001615289831534028,-35.3627212,149.1661243,150883.0,-2.0,0.0,-152.0
08:49:38,115923.0,0.0,0.0,-1000.0,2.6666666666666665,2.0,3.0,RTL,0.0009445156125972668,-0.001170824165455997,0.9190411965052286,0.0004091800656169653,-0.00012644050487627587,0.0008715211103359858,-35.3627212,149.1661243,152048.0,-2.0,0.0,-152.0
08:49:40,115923.0,0.0,0.0,-1000.0,3.3333333333333335,3.3333333333333335,2.3333333333333335,RTL,0.0007023918248402575,-0.0012938866081337135,0.9192990859349569,0.000716175107906262,0.0008772092405706644,0.0004947306588292122,-35.3627212,149.1661243,155155.33333333334,-2.0,0.0,-152.0
08:49:42,115923.0,0.0,0.0,-1000.0,2.0,2.0,1.0,RTL,0.0005146873105938236,-0.0015085548317680757,0.9194085796674093,-5.677125106255213e-05,-9.470661946882804e-05,-0.0008689320723836621,-35.3627212,149.1661243,158266.0,-2.0,0.0,-152.0
08:49:43,24856.0,0.0,0.0,-1000.0,1.3333333333333333,1.3333333333333333,3.6666666666666665,RTL,0.0006886912354578575,-0.0014622958066562812,0.9195927381515503,-0.0006517429137602448,-0.0007497410988435149,0.0015117218717932701,-35.3627212,149.1661243,160203.33333333334,-2.0,0.0,-152.0
08:49:44,24856.0,0.0,0.0,-999.6666666666666,3.0,3.0,2.3333333333333335,RTL,0.0006965957096933076,-0.0014002748842661579,0.9197885394096375,0.00011656720501681168,0.0007746579746405283,0.00048616745819648105,-35.3627212,149.1661243,161368.33333333334,-2.0,0.0,-152.0
08:49:46,24856.0,0.0,0.0,-999.6666666666666,2.0,2.3333333333333335,2.3333333333333335,RTL,0.00043178315778883797,-0.001271699749243756,0.9198598464330038,-4.8344566797216736e-05,-0.00010383323145409425,0.0007143423038845261,-35.3627212,149.1661243,164475.66666666666,-2.0,0.0,-152.0
08:49:48,24856.0,0.0,0.0,-999.6666666666666,2.3333333333333335,3.0,2.0,RTL,0.00040439095270509523,-0.0016001780362178881,0.9198662241299947,-8.170811148981254e-05,0.0005229709204286337,0.00021179385172824064,-35.3627212,149.1661243,167587.33333333334,-1.0,0.0,-152.0
08:49:49,107015.0,0.0,0.0,-1000.0,2.6666666666666665,2.6666666666666665,2.0,RTL,0.000741888516737769,-0.0019090884209920962,0.9199920892715454,0.0004618693298349778,0.00046513357665389776,0.0003531335387378931,-35.3627212,149.1661243,169525.66666666666,-1.3333333333333333,0.0,-152.0
08:49:50,107015.0,0.0,0.0,-1000.0,2.0,3.3333333333333335,2.3333333333333335,RTL,0.0006434301224847635,-0.001649991104689737,0.919991652170817,-0.0002756276711200674,0.001220183524613579,0.00026143450910846394,-35.3627212,149.1661243,170693.33333333334,-2.0,0.0,-152.0
08:49:52,107015.0,0.0,0.0,-999.6666666666666,3.6666666666666665,2.6666666666666665,3.3333333333333335,RTL,0.001128396679026385,-0.0012675205168003838,0.9200932780901591,0.0011497237331544359,0.0005720125433678428,0.0014816916858156521,-35.3627212,149.1661243,173810.33333333334,-2.0,0.0,-152.0
08:49:54,107015.0,0.0,0.0,-999.6666666666666,3.0,2.3333333333333335,2.6666666666666665,RTL,0.000510840017038087,-0.001257099094800651,0.9208860596021017,0.0005720478172103564,-0.00017715198919177055,0.00024093889320890108,-35.3627212,149.1661243,176915.66666666666,-2.0,0.0,-152.0
08:49:55,49300.0,0.0,0.0,-1000.3333333333334,2.3333333333333335,2.6666666666666665,3.3333333333333335,RTL,0.0006729398155584931,-0.0016027907064805429,0.920979917049408,0.0001966909815867742,2.8268201276659966e-05,0.0011945708344380062,-35.3627212,149.1661243,178852.66666666666,-2.0,0.0,-152.0
08:49:56,49300.0,0.0,0.0,-1000.0,2.0,3.0,1.6666666666666667,RTL,0.0005817389561949918,-0.0013506804049635928,0.9209933479626974,-0.0006375556501249472,0.00047434897472461063,-0.0002852274337783456,-35.3627212,149.1661243,180017.33333333334,-2.0,0.0,-152.0
08:49:58,49300.0,0.0,0.0,-999.6666666666666,2.3333333333333335,4.0,3.0,RTL,0.00043932159314863384,-0.0010681401278513174,0.9210762977600098,-8.751304509739082e-05,0.0013620580236117046,0.0008194761661191782,-35.3627212,149.1661243,183132.33333333334,-2.0,0.0,-152.0
08:50:00,49300.0,0.0,0.0,-1000.0,2.6666666666666665,3.3333333333333335,2.0,RTL,0.0006046548175315062,-0.001467464064868788,0.9208648602167765,8.669286035001278e-05,0.0006596465439846119,0.0001884287145609657,-35.3627212,149.1661243,186243.66666666666,-2.0,0.0,-152.0
08:50:01,18161.0,0.0,0.0,-1000.0,2.6666666666666665,2.3333333333333335,2.6666666666666665,RTL,0.0005842384804661075,-0.001395119975010554,0.9209144314130148,0.0002131845491627852,-0.0003305132656047742,0.0006358004951228698,-35.3627212,149.1661243,188181.66666666666,-2.0,0.0,-152.0
08:50:02,18161.0,0.0,0.0,-1000.0,2.6666666666666665,1.6666666666666667,2.3333333333333335,RTL,0.00032907110289670527,-0.0015420926890025537,0.9206937352816263,0.0001185624860227108,-0.0007473908675213655,0.0004683015091965596,-35.3627212,149.1661243,189349.0,-2.0,0.0,-152.0
08:50:04,18161.0,0.0,0.0,-1000.0,3.3333333333333335,3.0,2.0,RTL,0.0005850571324117482,-0.0016747423602888982,0.9207117756207784,0.0006911572224150101,0.0006061094657828411,-5.081338652720054e-05,-35.3627212,149.1661243,192454.33333333334,-1.0,0.0,-152.0
08:50:07,33707.0,0.0,0.0,-1000.0,3.5,2.5,2.0,RTL,0.0009085317724384367,-0.0012445473694242537,0.9208353161811829,0.0013088532723486423,0.00012748735025525093,-1.6978825442492962e-05,-35.3627212,149.1661243,197469.5,-2.0,0.0,-152.0
08:50:09,49253.0,0.0,0.0,-999.5,3.0,4.0,2.5,RTL,0.00046727139852009714,-0.0014816365437582135,0.9207631051540375,0.00011189200449734926,0.0017143635777756572,0.00011664081830531359,-35.3627212,149.1661243,200578.0,-2.0,0.0,-152.0
08:50:11,49253.0,0.0,0.0,-1000.0,2.0,2.0,3.0,RTL,0.0006339167302940041,-0.001542256271932274,0.9214403927326202,-0.0007150949095375836,-0.0003297054208815098,0.000660110148601234,-35.3627212,149.1661243,203684.5,-2.0,0.0,-152.0
08:50:12,191316.0,0.0,0.0,-1000.0,3.25,2.75,3.0,RTL,0.0005086745586595498,-0.001490476104663685,0.9213724583387375,0.00034346262691542506,4.813671694137156e-05,0.0011910242319572717,-35.3627212,149.1661243,204853.25,-2.0,0.0,-152.0
08:50:13,191316.0,0.0,0.0,-1000.5,2.5,2.5,0.5,RTL,-2.6274730771547183e-05,-0.0015023950254544616,0.9215676486492157,-0.0006688109133392572,0.0002524227602407336,-0.0016352649545297027,-35.3627212,149.1661243,206791.0,-1.5,0.0,-152.0
08:50:15,191316.0,0.0,0.0,-1000.0,4.5,2.5,3.0,RTL,0.00038645448512397707,-0.0016680320259183645,0.9212521016597748,0.0016375520499423146,-0.00014917587395757437,0.0007098441710695624,-35.3627212,149.1661243,209899.0,-1.0,0.0,-152.0
08:50:17,191316.0,0.0,0.0,-1000.0,4.5,2.0,4.0,RTL,0.00036279043706599623,-0.001452369149774313,0.9213555157184601,0.001812948496080935,-0.0008481753757223487,0.0014985832385718822,-35.3627212,149.1661243,213008.5,-2.0,0.0,-152.0
08:50:18,83035.0,0.0,0.0,-999.75,3.5,3.0,3.5,RTL,0.0004091764858458191,-0.0016638048109598458,0.9213705211877823,0.0005787666304968297,9.165081428363919e-05,0.000945083680562675,-35.3627212,149.1661243,214175.75,-1.75,0.0,-152.0
08:50:19,83035.0,0.0,0.0,-1000.0,3.0,2.5,3.0,RTL,0.0010763416648842394,-0.0014316258020699024,0.9210385680198669,-8.184637408703566e-05,9.578245226293802e-05,0.000978077994659543,-35.3627212,149.1661243,216115.5,-2.0,0.0,-152.0
08:50:21,83035.0,0.0,0.0,-999.5,4.0,3.0,4.5,RTL,0.0005627600912703201,-0.0013964181998744607,0.921112447977066,0.001209275797009468,-0.00015837152022868395,0.0018514622934162617,-35.3627212,149.1661243,219222.5,-2.0,0.0,-152.0
08:50:23,83035.0,0.0,0.0,-1000.0,3.0,3.0,3.0,RTL,0.0004975898482371122,-0.0014448939473368227,0.9209780097007751,-0.0002186677884310484,0.0001469920389354229,0.0005737143801525235,-35.3627212,149.1661243,222330.0,-2.0,0.0,-152.0
08:50:24,149928.0,0.0,0.0,-1000.0,3.75,2.75,2.75,RTL,0.0005944265067228116,-0.0013993597822263837,0.9209900349378586,0.0008702321210876107,-8.911616168916225e-05,0.00036023877328261733,-35.3627212,149.1661243,223500.75,-2.0,0.0,-152.0
08:50:25,149928.0,0.0,0.0,-1000.0,2.0,4.0,3.0,RTL,0.0005447183939395472,-0.001464923785533756,0.9211660325527191,-0.0007555711781606078,0.0006648799171671271,0.0009553562849760056,-35.3627212,149.1661243,225444.5,-2.0,0.0,-152.0
08:50:27,149928.0,0.0,0.0,-1000.0,2.0,3.0,1.5,RTL,3.569434738892596e-05,-0.0015675451140850782,0.9216267168521881,-0.0007308776257559657,0.00022458750754594803,-0.000792268430814147,-35.3627212,149.1661243,228551.5,-1.5,0.0,-152.0
08:50:29,149928.0,0.0,0.0,-1000.5,5.0,2.5,3.0,RTL,0.00046419218415394425,-0.0015682876692153513,0.9216741323471069,0.0020636145491153,-0.0002253787824884057,0.0006855108076706529,-35.3627212,149.1661243,231661.0,-2.0,0.0,-152.0
08:50:30,1714.0,0.0,0.0,-1000.0,3.5,2.5,4.0,RTL,0.0007323501631617546,-0.00187576052849181,0.9215498119592667,0.0007394833955913782,-0.0002945521264337003,0.001383338705636561,-35.3627212,149.1661243,232828.5,-1.5,0.0,-152.0
08:50:31,1714.0,0.0,0.0,-1000.0,3.5,2.5,2.0,RTL,0.0009990188118536025,-0.001197473204229027,0.9212715923786163,0.0006702939281240106,-0.0004505622200667858,-0.0005485173314809799,-35.3627212,149.1661243,234767.0,-2.0,0.0,-152.0
08:50:33,1714.0,0.0,0.0,-1000.5,4.0,3.0,3.5,RTL,0.0006255581974983215,-0.0013229407486505806,0.921247273683548,0.0011523055145516992,-0.0004397892626002431,0.0008331794524565339,-35.3627212,149.1661243,237874.0,-2.0,0.0,-152.0
08:50:35,1714.0,0.0,0.0,-999.5,2.5,3.0,3.0,RTL,0.0004911668074782938,-0.0012919839937239885,0.9212574660778046,-0.0004049033159390092,0.0001347194192931056,0.00030169414822012186,-35.3627212,149.1661243,240981.5,-2.0,0.0,-152.0
08:50:36,13561.0,0.0,0.0,-1000.0,3.25,3.25,2.25,RTL,0.0006035730766598135,-0.0013308302441146225,0.9212606102228165,0.00034898947342298925,0.0003469663788564503,-0.0002846540592145175,-35.3627212,149.1661243,242147.25,-2.0,0.0,-152.0
08:50:37,13561.0,0.0,0.0,-1000.0,3.0,3.5,2.5,RTL,0.00031036624568514526,-0.0007870915287639946,0.9211936891078949,0.0002289393451064825,0.00029646907933056355,-0.00014334265142679214,-35.3627212,149.1661243,244090.5,-2.0,0.0,-152.0
08:50:39,13561.0,0.0,0.0,-1000.0,3.0,4.0,2.5,RTL,0.0002013116973103024,-0.0015583803760819137,0.9213435649871826,0.0001754013355821371,0.0009078880539163947,-0.0001766422064974904,-35.3627212,149.1661243,247199.5,-1.0,0.0,-152.0
08:50:41,13561.0,0.0,0.0,-999.5,4.5,4.5,4.0,RTL,0.000402731922804378,-0.0016571084852330387,0.9210256934165955,0.00116322364192456,0.0016321942675858736,0.001180759398266673,-35.3627212,149.1661243,250310.0,-1.0,0.0,-152.0
08:50:42,112740.0,0.0,0.0,-999.5,2.5,3.25,4.0,RTL,0.0004165847785770893,-0.0013789483346045017,0.9214866906404495,-0.0004636040539480746,0.00021782712428830564,0.001621230796445161,-35.3627212,149.1661243,251480.0,-1.5,0.0,-152.0
08:50:43,112740.0,0.0,0.0,-1000.0,1.0,2.0,2.5,RTL,0.0007199675310403109,-0.0019289468182250857,0.9218059480190277,-0.0017955716466531157,-0.0007542873499915004,-0.00011588202323764563,-35.3627212,149.1661243,253414.5,-2.0,0.0,-152.0
08:50:45,112740.0,0.0,0.0,-1000.0,4.0,3.0,3.0,RTL,0.00077214086195454,-0.0013431213446892798,0.9215317368507385,0.0007140669040381908,-0.00020771229173988104,0.0003870604559779167,-35.3627212,149.1661243,256528.5,-2.0,0.0,-152.0
08:50:47,112740.0,0.0,0.0,-1000.0,3.5,3.0,3.5,RTL,0.0005850339948665351,-0.0014130629133433104,0.9215485155582428,-5.6802527979016304e-05,-0.0003180756466463208,0.000980766722932458,-35.3627212,149.1661243,259636.5,-2.0,0.0,-152.0
08:50:48,12708.0,0.0,0.0,-1000.0,3.25,2.75,4.25,RTL,0.0006237053166842088,-0.0013746347685810179,0.9215965867042542,5.185918416827917e-05,-0.0005735604208894074,0.0016107734991237521,-35.3627212,149.1661243,260801.5,-2.0,0.0,-152.0
08:50:49,12708.0,0.0,0.0,-1000.0,2.0,4.5,3.0,RTL,0.0004350736999185756,-0.0011090903426520526,0.9214010238647461,-0.0010733833769336343,0.0011486441362649202,0.00028853886760771275,-35.3627212,149.1661243,262899.0,-2.0,0.0,-152.0
08:50:51,12708.0,0.0,0.0,-1000.0,3.5,3.5,4.0,RTL,5.8284156693844125e-05,-0.0014910930185578763,0.9211393892765045,0.00026121153496205807,4.937127232551575e-05,0.0012142303166911006,-35.3627212,149.1661243,266005.5,-1.0,0.0,-152.0
08:50:53,12708.0,0.0,0.0,-1000.0,3.0,4.0,2.5,RTL,0.0005302750505506992,-0.0014213548856787384,0.9213683009147644,-0.00031278282403945923,0.0006251430604606867,-0.00017802172806113958,-35.3627212,149.1661243,269111.5,-1.5,0.0,-152.0
08:50:54,65370.0,0.0,0.0,-1000.0,3.75,3.75,2.75,RTL,0.000453258995548822,-0.001531014684587717,0.9210626631975174,0.0004069400019943714,0.00033121672458946705,0.0002178967115469277,-35.3627212,149.1661243,270277.75,-2.0,0.0,-152.0
08:50:55,65370.0,0.0,0.0,-1000.0,3.0,4.0,3.0,RTL,0.0007164499838836491,-0.0017714464920572937,0.9212273955345154,-0.0001826158259063959,0.0010528676211833954,0.0003332236083224416,-35.3627212,149.1661243,272219.5,-2.0,0.0,-152.0
08:50:57,65370.0,0.0,0.0,-999.0,1.5,3.5,3.0,RTL,0.0008164926548488438,-0.001348748104646802,0.9212420284748077,-0.0018434016965329647,-0.0002997140400111675,0.00014839821960777044,-35.3627212,149.1661243,275331.0,-2.0,0.0,-152.0
08:50:59,73287.0,0.0,0.0,-999.5,3.0,3.0,3.0,RTL,0.0005098586989333853,-0.0015072792884893715,0.9218397438526154,-0.00036788685247302055,-0.0003005129983648658,-0.00038026156835258007,-35.3627212,149.1661243,278438.0,-2.0,0.0,-152.0
08:51:01,81204.0,0.0,0.0,-1000.5,4.5,3.0,3.5,RTL,0.00038256976404227316,-0.0013790990342386067,0.9214853644371033,0.0010301920119673014,-0.00035743601620197296,0.0006624921225011349,-35.3627212,149.1661243,281545.5,-2.0,0.0,-152.0
08:51:03,81204.0,0.0,0.0,-1000.0,3.5,3.5,3.5,RTL,5.605146270681871e-05,-0.0011417113710194826,0.9216907918453217,0.00043692172039300203,0.00013486470561474562,0.0005898295203223825,-35.3627212,149.1661243,284656.0,-2.0,0.0,-152.0
08:51:04,19195.0,0.0,0.0,-999.75,2.5,2.5,3.25,RTL,0.00016860896903381217,-0.0015340248064603657,0.9215211421251297,-0.0005667871446348727,-0.0009838215773925185,0.00036516826367005706,-35.3627212,149.1661243,285825.0,-1.25,0.0,-152.0
08:51:05,19195.0,0.0,0.0,-1000.0,3.5,3.0,3.0,RTL,0.00037086382508277893,-0.0014614596730098128,0.921433299779892,-0.00033063977025449276,-0.00011654151603579521,0.00039146794006228447,-35.3627212,149.1661243,287766.5,-1.0,0.0,-152.0
08:51:07,19195.0,0.0,0.0,-1000.0,5.0,4.0,3.0,RTL,0.0008223995973821729,-0.0018261490040458739,0.9212929010391235,0.0011556762037798762,0.000720876851119101,0.00016408751253038645,-35.3627212,149.1661243,290875.0,-1.5,0.0,-152.0
08:51:09,19195.0,0.0,0.0,-1000.0,5.5,4.0,3.0,RTL,0.0009144880750682205,-0.0012251795851625502,0.9213191270828247,0.0017938946839421988,0.00020776467863470316,0.0003983323695138097,-35.3627212,149.1661243,293981.0,-2.0,0.0,-152.0
08:51:10,123350.0,0.0,0.0,-1000.0,3.5,3.75,2.25,RTL,0.0007430972036672756,-0.0012500026205088943,0.9211062490940094,0.0002452376647852361,0.00027259369380772114,-0.0004993095062673092,-35.3627212,149.1661243,295146.75,-2.0,0.0,-152.0
08:51:11,123350.0,0.5,0.0,-999.5,3.5,57.0,2.0,RTL,0.00020732863777084276,0.0259564109146595,0.9212567508220673,-4.540535155683756e-05,0.05356256477534771,-0.0009576692245900631,-35.36272125,149.1661242,297083.5,-6.0,-5.5,-151.0
08:51:13,123350.0,18.5,10.0,-990.0,-8.5,49.0,4.5,RTL,-0.01353437639772892,0.09782933816313744,0.9212389588356018,-0.01274697482585907,0.04497688263654709,0.0015584140783175826,-35.3627273,149.16611495,300092.0,-73.5,-92.5,-139.5
08:51:15,123350.0,74.5,9.0,-942.0,40.5,11.0,79.0,RTL,0.06961315497756004,0.1155477985739708,1.435671865940094,0.037127112969756126,0.006972157396376133,0.07606740295886993,-35.3627489,149.16607340000002,301883.5,-176.5,-271.0,-24.5
08:51:16,49418.0,89.75,-2.25,-962.0,-26.0,78.25,6.0,RTL,0.07852214202284813,0.1565573662519455,1.4607806503772736,-0.02963997726328671,0.07478082086890936,0.0026485726702958345,-35.362763349999994,149.166050075,301903.75,-240.25,-299.0,12.5
08:51:17,49418.0,118.0,-7.0,-1023.0,-87.5,-12.0,-60.0,RTL,0.042094471864402294,0.2219068855047226,1.4304370880126953,-0.09125348553061485,-0.016659464687108994,-0.06444064155220985,-35.3627961,149.16600345,301589.0,-336.0,-400.0,21.5
08:51:19,49418.0,145.0,22.0,-992.5,34.5,-10.0,-29.0,RTL,-0.017779282294213772,0.18335501104593277,1.3420636057853699,0.030658751726150513,-0.014562760014086962,-0.03363340627402067,-35.3628633,149.165899,301494.0,-392.0,-531.0,-5.5
08:51:21,49418.0,145.0,32.0,-978.0,1.0,17.0,-46.0,RTL,-0.022505080327391624,0.14686472713947296,1.2721015214920044,-0.0024375561624765396,0.013513639569282532,-0.05015353858470917,-35.3629334,149.1657796,301578.0,-403.0,-548.0,-1.0
08:51:22,30763.0,151.25,41.5,-985.75,42.5,25.0,-19.25,RTL,-0.02322132373228669,0.15337954461574554,1.2520785331726074,0.03857843950390816,0.021519547677598894,-0.023663551546633244,-35.3629558,149.165741675,301566.5,-408.25,-547.25,1.0
08:51:23,30763.0,151.0,26.0,-994.0,-115.0,-15.0,-28.0,RTL,-0.03189568780362606,0.154630608856678,1.2241852283477783,-0.11968417465686798,-0.019454880617558956,-0.03240352123975754,-35.3629922,149.165681,301540.0,-415.5,-550.5,0.5
08:51:25,30763.0,145.0,51.333333333333336,-987.6666666666666,97.33333333333333,-4.333333333333333,-2.6666666666666665,RTL,-0.04209461808204651,0.1456086536248525,1.1783899863560994,0.09320409595966339,-0.008047448859239617,-0.006435912257681291,-35.36307143333334,149.16555026666666,301549.0,-416.0,-548.0,0.0
08:51:27,30763.0,154.0,29.0,-997.0,-347.0,8.0,-31.0,RTL,-0.07167097926139832,0.07752061635255814,1.1467695236206055,-0.350938081741333,0.003987054340541363,-0.03558573126792908,-35.3631526,149.1654174,301611.0,-385.0,-512.0,-7.0
08:51:28,29220.0,134.0,45.75,-985.25,-68.0,-55.5,-15.0,RTL,-0.07173236180096865,0.05078296922147274,1.1421911418437958,-0.07246183604001999,-0.06003950536251068,-0.019145252066664398,-35.363173325,149.165383425,301640.25,-356.75,-477.75,-2.0
08:51:29,29220.0,112.0,56.0,-1012.5,243.5,-37.5,-4.5,RTL,-0.07215399295091629,0.0012372815981507301,1.1352673172950745,0.23965466022491455,-0.04177848715335131,-0.008539792150259018,-35.36320295,149.16533495,301635.0,-296.5,-404.0,3.5
08:51:31,29220.0,61.0,38.0,-1005.5,149.5,-14.0,7.5,RTL,-0.05776495859026909,-0.047176020219922066,1.1198110580444336,0.14555238652974367,-0.018437148071825504,0.0038858503103256226,-35.363244699999996,149.16526664999998,301567.0,-151.0,-224.5,1.5
08:51:33,29220.0,15.5,12.5,-1013.5,-5.0,30.5,-2.0,RTL,-0.022023015655577183,-0.053158221766352654,1.1059911847114563,-0.008824855089187622,0.026996606029570103,-0.005308089777827263,-35.363261800000004,149.16523684999999,301536.5,-35.0,-67.5,0.0
08:51:34,213667.0,3.75,23.0,-1010.0,327.75,24.25,-0.25,RTL,-0.00981501815840602,-0.0329295489937067,1.0985087156295776,0.323172427713871,0.020551352761685848,-0.003917246882338077,-35.363264025,149.165232775,301534.75,-7.25,-22.0,0.0
08:51:35,213667.0,-1.5,-15.5,-984.5,-145.5,37.0,0.5,RTL,-0.0018220660276710987,-0.008253893116489053,1.0926274061203003,-0.1492553949356079,0.03316976875066757,-0.00320434826426208,-35.36326425,149.16523245,301537.5,3.5,-3.0,0.0
08:51:37,213667.0,0.0,-2.5,-986.5,173.0,4.0,7.5,RTL,-0.007286740932613611,-0.003268032451160252,1.0814383029937744,0.16965427994728088,-0.0001750101801007986,0.003784280503168702,-35.3632645,149.1652342,301557.0,4.5,-1.0,0.5
08:51:39,213667.0,-2.0,-0.5,-978.5,42.0,8.0,2.5,RTL,-0.012259864248335361,0.0002867911971407011,1.0732929706573486,0.03892761468887329,0.0040794124361127615,-0.0008781657088547945,-35.3632644,149.1652363,301564.5,13.0,-1.5,1.5
08:51:40,143051.0,-1.5,2.0,-998.5,0.75,4.5,2.25,RTL,-0.010939836167381145,0.0003102969676547218,1.0693394839763641,-0.003247097134590149,0.0003955014399252832,-0.001477758982218802,-35.363263975,149.165237,301564.0,14.0,-4.25,1.0
08:51:41,143051.0,0.0,-24.5,-954.0,-409.5,5.5,4.5,RTL,-0.012820452218875289,0.00039896287489682436,1.0656490921974182,-0.4116155505180359,0.0008120036218315363,0.0007070549763739109,-35.36326375,149.16523745,301519.5,12.5,-5.5,18.5
08:51:43,143051.0,-3.5,16.0,-878.0,-790.5,3.5,-3.5,RTL,-0.025931048206984997,-0.001992102712392807,1.0582151412963867,-0.7955630185315385,-0.0007246838649734855,-0.0076738279312849045,-35.36326315,149.1652378,300130.5,9.5,-7.0,114.0
08:51:45,143051.0,-3.0,-34.0,-941.5,-1372.5,6.0,-2.0,RTL,-0.011073189321905375,-0.003723591798916459,1.0541751384735107,-1.3765591979026794,0.001190320821478963,-0.006132429698482156,-35.363261699999995,149.165237,297963.5,-1.5,-0.5,104.0
08:51:46,212277.0,-2.25,-62.0,-1022.75,-1384.5,6.25,0.0,RTL,-0.0005645587807521224,-0.0036773987812921405,1.050598382949829,-1.3873196244239807,0.0015113921253941953,-0.004239460453391075,-35.36326105,149.1652366,296931.5,-6.25,2.75,98.5
08:51:47,212277.0,-2.0,-49.0,-1029.5,-1385.0,7.5,1.5,RTL,0.0050418338214512914,-0.0039964133175089955,1.0479562878608704,-1.388291597366333,0.0032745806965976954,-0.0025575103936716914,-35.3632603,149.16523615,295911.0,-13.5,6.5,101.0
08:51:49,212277.0,-0.5,-58.5,-1052.0,-1147.5,10.0,-5.5,RTL,0.01266055105952546,-0.0034986065002158284,1.0445265173912048,-1.150170087814331,0.005634634988382459,-0.00988188711926341,-35.3632595,149.16523554999998,293859.5,-24.5,13.5,94.0
08:51:51,231375.5,1.5,42.5,-1147.5,1145.0,9.5,0.5,RTL,0.044324206188321114,-0.002883899083826691,1.0406790971755981,1.1412716507911682,0.004871006356552243,-0.003223454114049673,-35.363259,149.1652352,291819.0,-31.5,19.0,93.5
08:51:53,250474.0,1.5,59.5,-1010.0,1366.0,4.5,13.5,RTL,0.018342424649745226,-0.0005162513989489526,1.0371235013008118,1.3613107800483704,7.194443605840206e-05,0.010163937462493777,-35.36326045,149.1652363,289799.0,-25.5,15.0,100.0
08:51:55,250474.0,-1.0,22.5,-1032.5,988.5,1.5,5.0,RTL,0.033854030072689056,-0.0025965339737012982,1.0342503786087036,0.9846825003623962,-0.003041632240638137,0.0010402812622487545,-35.36326065,149.16523645,287760.5,-16.0,8.5,102.5
08:51:57,71308.0,2.5,77.0,-922.5,1618.5,3.5,0.5,RTL,0.02893236093223095,-0.0015192978316918015,1.0317979454994202,1.6119464635849,-0.0013960013166069984,-0.003565035527572036,-35.3632604,149.16523625000002,285729.0,-20.0,12.0,107.5
08:51:59,71308.0,0.0,57.5,-1022.5,582.5,5.0,1.5,RTL,0.0071024742210283875,-0.003822165075689554,1.0292055010795593,0.5745727866888046,0.0004859516629949212,-0.0017311827978119254,-35.363261050000006,149.16523654999997,283680.5,-14.5,8.5,104.0
08:52:01,71308.0,1.5,21.5,-1033.0,-223.0,4.0,-2.5,RTL,-0.01938200043514371,-6.038259016349912e-05,1.0291656851768494,-0.23272442817687988,-0.0007617357186973095,-0.00661264848895371,-35.3632616,149.16523695,281575.5,-11.0,8.5,107.5
08:52:02,189766.0,3.0,70.25,-978.0,933.25,8.75,7.5,RTL,-0.02025620499625802,0.002062590850982815,1.027806669473648,0.9252061396837234,0.004724261350929737,0.0041420458583161235,-35.363263025,149.165238125,280508.5,-2.5,3.5,98.0
08:52:03,189766.0,3.5,61.0,-1014.5,925.0,-0.5,13.5,RTL,-0.03147153090685606,0.0013434964512271108,1.0272976756095886,0.9170536994934082,-0.00534751545637846,0.009923368459567428,-35.36326445,149.1652392,279476.5,11.5,-6.5,101.0
08:52:05,189766.0,0.0,72.0,-991.5,1000.5,5.0,4.0,RTL,-0.026834513060748577,-0.005086526274681091,1.0244092345237732,0.9936838150024414,0.000888739014044404,0.0006539793685078621,-35.3632655,149.16523965,277439.5,29.0,-16.5,100.5
08:52:07,189766.0,0.0,65.5,-980.5,939.0,5.0,14.0,RTL,-0.031045155599713326,-0.002778834546916187,1.0237488746643066,0.9320930540561676,0.00044434634037315845,0.010306794894859195,-35.3632658,149.16523984999998,275404.5,34.0,-18.5,103.0
08:52:08,150883.0,-0.75,60.75,-996.0,511.5,4.25,5.5,RTL,-0.03586326353251934,-0.004306800081394613,1.0229396522045135,0.5052354037761688,0.00020766037050634623,0.0017010471201501787,-35.3632658,149.16523995,274377.25,36.25,-20.0,100.0
08:52:09,150883.0,0.0,75.5,-989.5,1124.5,1.5,10.5,RTL,-0.024523290805518627,-0.004277125233784318,1.0229626297950745,1.1191962957382202,-0.003150762291625142,0.007132135680876672,-35.36326565,149.1652398,273358.0,35.0,-19.0,100.5
08:52:11,150883.0,-4.0,68.5,-1008.5,1348.5,0.5,7.5,RTL,0.0028546706453198567,-0.007326135179027915,1.020938515663147,1.3446131348609924,-0.0043101508636027575,0.0038584808353334665,-35.36326455,149.16523899999999,271307.5,29.5,-17.5,98.0
08:52:13,150883.0,-5.5,68.0,-970.0,615.5,7.0,3.5,RTL,0.022206567227840424,-0.011142694391310215,1.0197132229804993,0.6101364195346832,0.0026787801180034876,-0.00024396716617047787,-35.3632611,149.16523619999998,269271.5,2.5,0.5,101.0
08:52:14,14714.0,-2.5,28.0,-984.5,-336.0,12.25,9.5,RTL,0.027455028612166643,-0.00778867956250906,1.0207530856132507,-0.34245380014181137,0.008119665319100022,0.005651884130202234,-35.363259174999996,149.165234825,268258.25,-15.0,12.75,101.0
08:52:15,14714.0,1.0,20.5,-978.0,-290.5,11.0,9.5,RTL,0.0033427702728658915,0.0005207599606364965,1.0212119817733765,-0.29676686599850655,0.007096780464053154,0.006238504662178457,-35.3632592,149.16523515,267239.0,-26.5,21.0,98.5
08:52:17,14714.0,3.0,35.0,-979.5,3.5,3.0,2.0,RTL,-0.041022639721632004,0.004117173608392477,1.0198997855186462,-0.0026473701000213623,-0.0010604835115373135,-0.0013713085791096091,-35.36326285,149.16523845,265184.5,-5.5,3.0,95.0
08:52:19,14714.0,1.5,-39.5,-1035.0,-1228.5,-1.0,17.0,RTL,-0.04953816719353199,-0.004310261225327849,1.0203461050987244,-1.2331842184066772,-0.00504285772331059,0.013433458167128265,-35.3632647,149.1652393,263153.0,19.5,-12.5,94.5
08:52:20,6030.0,-0.25,-54.5,-992.25,-1396.25,-3.25,-4.25,RTL,-0.04277181066572666,-0.0065470997942611575,1.0190846025943756,-1.3993297815322876,-0.00793294224422425,-0.008339061867445707,-35.3632649,149.165239125,262133.5,25.25,-14.0,100.0
08:52:21,6030.0,1.0,-65.5,-1000.0,-1304.0,3.5,4.5,RTL,-0.025934256613254547,-0.00629006396047771,1.019302248954773,-1.3058102130889893,-0.00038429710548371077,0.0010401875479146838,-35.363264650000005,149.1652387,261106.0,27.5,-13.0,103.5
08:52:23,6030.0,1.5,-48.0,-1021.0,-207.0,1.0,-1.5,RTL,-0.029729602858424187,-0.0014282403863035142,1.018765389919281,-0.20738837402313948,-0.003582111094146967,-0.005342515069060028,-35.36326555,149.16523955,259073.0,32.0,-15.0,97.0
08:52:25,6030.0,-2.0,50.0,-1054.5,1228.0,3.5,3.5,RTL,-0.005407431977801025,-0.007234899094328284,1.017833650112152,1.2276423573493958,-0.0010507956612855196,-0.000287676346488297,-35.36326565,149.16523965,257026.0,38.0,-21.0,96.0
08:52:26,13669.0,-2.25,75.0,-1020.5,1379.75,6.5,5.0,RTL,0.004574784245050978,-0.008224963443353772,1.0183005630970001,1.3779744803905487,0.002759214141406119,0.0016591959283687174,-35.3632646,149.1652388,256009.0,30.75,-16.25,97.75
08:52:27,13669.0,-3.0,60.0,-1056.0,703.0,3.5,3.5,RTL,-0.0015950865927152336,-0.007614977424964309,1.0181567668914795,0.6999867334961891,-0.0009082390461117029,-0.00047153886407613754,-35.36326365,149.16523815,254984.0,22.0,-10.0,102.5
08:52:29,13669.0,0.5,70.5,-976.5,946.5,4.5,9.0,RTL,-0.008426058338955045,-0.002748096885625273,1.0185453295707703,0.9435310065746307,0.001137417508289218,0.005785989458672702,-35.36326305,149.1652378,252963.5,9.0,-1.0,99.0
08:52:31,13669.0,0.0,66.5,-969.0,700.5,-1.0,0.5,RTL,-0.015632420778274536,-0.0033009949838742614,1.0179532170295715,0.6981389820575714,-0.005257838638499379,-0.00332681299187243,-35.3632634,149.16523825000002,250925.0,11.5,-5.5,104.5
08:52:32,25047.0,-1.5,75.0,-983.25,902.5,1.25,2.25,RTL,-0.008155395878929994,-0.004864627728238702,1.017625331878662,0.9006548523902893,-0.00311963667627424,-0.0009667487465776503,-35.363263425,149.165238225,249909.5,11.5,-5.5,99.75
08:52:33,25047.0,-1.5,83.5,-955.5,1099.0,3.5,1.5,RTL,0.004524972755461931,-0.006399546284228563,1.0170204639434814,1.097337931394577,-0.0003553135320544243,-0.002035403624176979,-35.363262899999995,149.16523775,248903.5,9.0,-4.0,104.0
08:52:35,25047.0,-4.5,72.5,-1062.5,1179.0,5.5,5.0,RTL,0.03838178049772978,-0.008929820265620947,1.0170289874076843,1.1773682832717896,0.0015789212193340063,0.0019664288265630603,-35.363260600000004,149.1652358,246861.0,-8.0,7.5,101.0
08:52:37,25047.0,-2.0,49.0,-963.5,318.5,6.0,4.5,RTL,0.029820850118994713,-0.004838645225390792,1.0175469517707825,0.31488111801445484,0.00228080153465271,0.0015508249634876847,-35.3632585,149.1652344,244817.5,-31.0,22.5,105.5
08:52:38,15065.0,0.25,59.75,-988.25,337.25,6.5,3.75,RTL,0.0244526001624763,-0.0032234846148639917,1.01807901263237,0.33336295187473297,0.002746074227616191,0.0003778053796850145,-35.3632583,149.165234375,243798.75,-38.25,26.75,104.0
08:52:39,15065.0,0.5,50.0,-896.5,154.5,5.0,2.5,RTL,0.013542267959564924,-0.0015345417778007686,1.0177149176597595,0.1494082733988762,0.000682552345097065,-0.0016115386970341206,-35.363258599999995,149.16523475,242776.0,-38.5,26.5,105.5
08:52:41,15065.0,0.5,-22.5,-1030.5,-1002.0,-2.0,4.0,RTL,-0.0021239498164504766,-0.001827644882723689,1.0183302760124207,-1.0062456727027893,-0.006050662253983319,0.0010477827163413167,-35.36325965,149.16523555,240717.5,-30.5,19.5,102.0
08:52:43,67083.0,1.0,-8.5,-956.0,-934.0,-3.5,24.5,RTL,-0.006113085430115461,-0.0024603346246294677,1.017634630203247,-0.9390782415866852,-0.007591581670567393,0.021405056351795793,-35.363260249999996,149.16523585,238688.0,-23.0,16.0,105.5
08:52:45,67083.0,0.0,-22.0,-1020.0,-1040.0,1.0,3.0,RTL,-0.021083377301692963,-0.00039465189911425114,1.016780138015747,-1.0451089143753052,-0.002383291255682707,-0.00022596260532736778,-35.3632614,149.1652369,237032.0,-14.0,9.0,99.0
08:52:47,62003.0,2.5,-50.0,-1037.5,-1381.0,5.5,-9.5,RTL,-0.015440693590790033,-0.001740835839882493,1.0178679823875427,-1.3849997520446777,0.002087051165290177,-0.013371967943385243,-35.36326185,149.1652371,235015.0,-6.0,4.5,102.5
08:52:49,56923.0,4.5,-67.5,-1008.0,-1424.5,4.0,-0.5,RTL,-0.04669025167822838,0.0002504644726286642,1.017671287059784,-1.4279263615608215,0.0009833644144237041,-0.004259397042915225,-35.36326405,149.16523865,232976.5,12.0,-4.0,104.5
08:52:51,56923.0,1.5,-55.0,-1011.0,-1377.5,-2.5,-1.5,RTL,-0.0726156085729599,-0.0029025659896433353,1.0169755220413208,-1.3802610039710999,-0.00628197833430022,-0.004782228148542345,-35.363267,149.16524075,230936.0,41.5,-23.0,105.0
08:52:52,267258.0,-1.0,-51.5,-1027.0,-1460.0,-1.0,5.0,RTL,-0.06642425712198019,-0.005718973348848522,1.0167480409145355,-1.4617000818252563,-0.004895317601040006,0.0015994705609045923,-35.3632677,149.1652411,229671.5,51.75,-29.0,101.75
08:52:53,267258.0,-6.0,-49.5,-992.5,-1375.5,1.5,-2.0,RTL,-0.057731643319129944,-0.00847854558378458,1.0168989300727844,-1.377132773399353,-0.002047652262263,-0.005666610551998019,-35.3632674,149.1652408,228905.5,54.5,-31.0,103.0
08:52:55,267258.0,-1.5,-62.0,-996.0,-1452.0,11.5,0.0,RTL,0.0007201514672487974,-0.008991399314254522,1.0176931619644165,-1.4525098204612732,0.008563349721953273,-0.003261186880990863,-35.36326355,149.1652379,226829.0,31.0,-14.5,98.0
08:52:57,267258.0,-0.5,-63.5,-1039.5,-1140.0,1.5,7.5,RTL,-0.017327722162008286,-0.0029959360836073756,1.017692506313324,-1.1393011510372162,-0.0022760704159736633,0.00460303237196058,-35.363263,149.165238,224794.0,12.5,-5.0,100.5
08:52:58,29474.0,-1.25,-50.25,-1036.0,-342.75,1.0,10.25,RTL,0.006789765553548932,-0.003728788869921118,1.0179115235805511,-0.3411611393094063,-0.002738744718953967,0.007024134276434779,-35.36326245,149.1652377,223499.75,8.25,-4.0,99.0
08:52:59,29474.0,-1.0,-70.0,-993.5,-1069.0,-5.5,-4.0,RTL,0.000582533517444972,-0.005790337221696973,1.0181720852851868,-1.0681064128875732,-0.009093180764466524,-0.00762686925008893,-35.36326205,149.16523734999998,222741.5,4.0,-2.5,97.0
08:53:01,29474.0,-0.5,-75.5,-970.5,-1041.0,3.0,4.0,RTL,0.0026449578726897016,-0.0026992863276973367,1.0178824663162231,-1.0398059487342834,-0.0009458932327106595,0.0010032248683273792,-35.3632614,149.165237,220692.0,-2.0,1.0,99.5
08:53:03,29474.0,3.0,-51.5,-1002.0,-324.0,5.0,-4.0,RTL,0.0025750852655619383,0.0013390052481554449,1.0178056955337524,-0.3225722014904022,0.0010986302513629198,-0.00767787778750062,-35.363262,149.16523765,218651.5,-2.0,0.5,94.5
08:53:04,114480.0,1.5,-19.75,-966.5,488.75,1.25,6.25,RTL,-0.003420231892960146,-0.00015536225691903383,1.01706925034523,0.4912193790078163,-0.0023384306696243584,0.003242329112254083,-35.36326315,149.165238475,217393.75,4.75,-4.0,101.25
08:53:05,114480.0,0.5,14.0,-1016.0,1062.5,-1.0,-1.0,RTL,0.006416590651497245,-0.0032489243894815445,1.0167372822761536,1.0642855763435364,-0.004733494250103831,-0.004327587434090674,-35.3632634,149.1652385,216629.0,10.0,-7.5,100.5
08:53:07,114480.0,2.5,24.0,-1020.5,1049.5,8.0,5.5,RTL,-0.006642860593274236,-0.002067323192022741,1.0188347101211548,1.0509403944015503,0.0049497822765260935,0.002830631914548576,-35.3632641,149.16523865,214610.0,15.0,-6.5,100.0
08:53:09,114480.0,0.5,41.0,-1060.0,1270.5,0.5,1.0,RTL,-0.019731723703444004,-0.003876666771247983,1.0169984698295593,1.2723081707954407,-0.003010487766005099,-0.0016196435317397118,-35.3632656,149.1652398,212571.5,30.0,-16.0,105.5
08:53:10,118063.0,-3.25,71.0,-969.0,1554.0,-1.75,1.5,RTL,0.0008143345767166466,-0.00816551607567817,1.0169818997383118,1.5555729568004608,-0.005232236871961504,-0.0014704320346936584,-35.363265025000004,149.1652392,211305.75,29.5,-17.0,103.0
08:53:11,118063.0,-6.5,71.0,-1043.0,1383.0,5.5,4.0,RTL,0.015524112852290273,-0.010267964098602533,1.0168024897575378,1.3836761116981506,0.002294255653396249,0.0011918052332475781,-35.363263950000004,149.1652383,210537.0,24.5,-13.5,103.0
08:53:13,118063.0,-4.5,59.0,-1075.0,1386.0,9.0,3.0,RTL,0.0441411267966032,-0.008204682730138302,1.0181381106376648,1.386997640132904,0.005584494676440954,-4.89410012960434e-06,-35.363260350000004,149.16523569999998,208489.5,-6.0,7.0,104.0
08:53:15,118063.0,0.0,5.0,-949.5,1022.5,6.5,0.5,RTL,0.04326181299984455,-0.002627950278110802,1.018598198890686,1.025140792131424,0.0034334276570007205,-0.0019913510186597705,-35.3632595,149.1652353,206459.5,-24.0,18.0,107.0
08:53:16,36684.0,1.0,5.5,-991.75,994.75,2.0,2.5,RTL,0.037844560109078884,-0.002793476451188326,1.018020898103714,0.9970135688781738,-0.0016571078449487686,-0.0008089496404863894,-35.3632598,149.1652356,205170.0,-24.75,17.0,104.0
08:53:17,36684.0,-1.0,33.5,-1000.5,1312.5,-2.0,-4.0,RTL,0.03916657529771328,-0.003575709299184382,1.017160415649414,1.313466489315033,-0.006115430383943021,-0.007268496905453503,-35.3632599,149.16523565,204397.0,-24.0,16.0,103.0
08:53:19,36684.0,-5.5,62.5,-1016.5,1506.5,2.0,1.5,RTL,0.07397307083010674,-0.010999915190041065,1.017659306526184,1.5054365396499634,-0.00136828504037112,-0.0011297534219920635,-35.36325785,149.16523375,202358.5,-38.0,24.5,99.5
08:53:21,36684.0,1.5,61.0,-1018.5,1442.0,-1.0,5.0,RTL,0.07744630426168442,-0.0037566899554803967,1.0183212757110596,1.4393138885498047,-0.004367575165815651,0.0017474391497671604,-35.3632556,149.16523215,200318.5,-65.5,45.0,101.0
08:53:22,42178.0,2.0,59.5,-1029.5,1447.0,6.5,5.0,RTL,0.0686483196914196,-0.0023273717670235783,1.0190224945545197,1.4428881108760834,0.003071305516641587,0.002105687977746129,-35.363255699999996,149.1652324,199046.0,-68.0,45.75,101.75
08:53:23,42178.0,6.0,51.5,-1025.5,1462.5,6.5,1.0,RTL,0.05627122148871422,0.00032505355193279684,1.0197242498397827,1.458061397075653,0.003427008865401149,-0.001314510707743466,-35.3632564,149.165233,198272.0,-66.5,45.5,101.5
08:53:25,42178.0,7.5,41.5,-1009.5,1405.0,-2.0,1.0,RTL,0.013449606951326132,0.0030884883599355817,1.0197383165359497,1.4012139439582825,-0.005292396526783705,-0.001964292721822858,-35.363260600000004,149.1652363,196216.5,-33.5,23.5,99.5
08:53:27,42178.0,3.5,69.5,-1032.5,1370.0,3.0,0.0,RTL,-0.02284802868962288,-5.132357182446867e-05,1.018819510936737,1.3650938272476196,-0.0008889422751963139,-0.002895254408940673,-35.3632645,149.16523895,194155.5,5.5,-2.0,96.5
