time_stamp,MODE,lat,lon,relative_alt,roll,pitch,yaw,rollspeed,pitchspeed,yawspeed,xacc,yacc,zacc,xgyro,ygyro,zgyro,vx,vy,vz,RTL_ALT
18:12:30.727,STABILIZE,-35.3632622,149.1652375,0,-0.00047332094982266426,0.0010381104657426476,0.02555992640554905,0.00030744983814656734,0.00019993004389107227,0.0020200281869620085,0,1,-1000,0,0,0,-1,1,0,1500.0
18:12:30.929,STABILIZE,-35.3632622,149.1652375,0,-0.0004930670256726444,0.0010318889981135726,0.025512367486953735,0.00021325546549633145,0.00038044346729293466,0.0020678434520959854,0,1,-1000,0,0,0,-1,1,0,1500.0
18:12:31.133,STABILIZE,-35.3632622,149.1652375,0,-0.0004930670256726444,0.0010318889981135726,0.025512367486953735,0.00021325546549633145,0.00038044346729293466,0.0020678434520959854,0,1,-1000,0,0,0,-1,1,0,1500.0
18:12:31.337,STABILIZE,-35.3632622,149.1652375,0,-0.0004930670256726444,0.0010318889981135726,0.025512367486953735,0.00021325546549633145,0.00038044346729293466,0.0020678434520959854,0,1,-1000,0,0,0,-1,1,0,1500.0
18:12:31.538,STABILIZE,-35.3632622,149.1652375,0,-0.0004930670256726444,0.0010318889981135726,0.025512367486953735,0.00021325546549633145,0.00038044346729293466,0.0020678434520959854,0,1,-1000,0,0,0,-1,1,0,1500.0
18:12:31.739,STABILIZE,-35.3632622,149.1652375,0,-0.0004930670256726444,0.0010318889981135726,0.025512367486953735,0.00021325546549633145,0.00038044346729293466,0.0020678434520959854,0,1,-1000,0,0,0,-1,1,0,1500.0
18:12:31.944,STABILIZE,-35.3632622,149.1652375,0,-0.0004930670256726444,0.0010318889981135726,0.025512367486953735,0.00021325546549633145,0.00038044346729293466,0.0020678434520959854,0,1,-1000,0,0,0,-1,1,0,1500.0
18:12:32.148,STABILIZE,-35.3632622,149.1652375,0,-0.0004930670256726444,0.0010318889981135726,0.025512367486953735,0.00021325546549633145,0.00038044346729293466,0.0020678434520959854,0,1,-1000,0,0,0,-1,1,0,1500.0
18:12:32.349,STABILIZE,-35.3632622,149.1652375,0,-0.0004930670256726444,0.0010318889981135726,0.025512367486953735,0.00021325546549633145,0.00038044346729293466,0.0020678434520959854,0,1,-1000,0,0,0,-1,1,0,1500.0
18:12:32.558,STABILIZE,-35.3632622,149.1652375,0,-0.0004930670256726444,0.0010318889981135726,0.025512367486953735,0.00021325546549633145,0.00038044346729293466,0.0020678434520959854,0,1,-1000,0,0,0,-1,1,0,1500.0
18:12:32.759,STABILIZE,-35.3632621,149.1652375,0,-0.00046200223732739687,0.0009568186360411346,0.024993568658828735,0.00029411225114017725,0.00022464798530563712,0.002073423471301794,0,2,-1000,1,0,0,-1,1,-1,1500.0
18:12:32.970,STABILIZE,-35.3632621,149.1652375,0,-0.0005250059184618294,0.0009464355534873903,0.024641869589686394,0.0002270324621349573,0.00020456721540540457,0.0018587167141959071,0,1,-1000,1,0,0,-1,1,0,1500.0
18:12:33.172,STABILIZE,-35.3632621,149.1652375,0,-0.0005250059184618294,0.0009464355534873903,0.024641869589686394,0.0002270324621349573,0.00020456721540540457,0.0018587167141959071,0,1,-1000,1,0,0,-1,1,0,1500.0
18:12:33.374,STABILIZE,-35.3632621,149.1652375,0,-0.0005250059184618294,0.0009464355534873903,0.024641869589686394,0.0002270324621349573,0.00020456721540540457,0.0018587167141959071,0,1,-1000,1,0,0,-1,1,0,1500.0
18:12:33.588,STABILIZE,-35.3632621,149.1652375,0,-0.0005250059184618294,0.0009464355534873903,0.024641869589686394,0.0002270324621349573,0.00020456721540540457,0.0018587167141959071,0,1,-1000,1,0,0,-1,1,0,1500.0
18:12:33.790,STABILIZE,-35.3632621,149.1652375,0,-0.0005250059184618294,0.0009464355534873903,0.024641869589686394,0.0002270324621349573,0.00020456721540540457,0.0018587167141959071,0,1,-1000,1,0,0,-1,1,0,1500.0
18:12:33.991,STABILIZE,-35.3632621,149.1652375,0,-0.0005250059184618294,0.0009464355534873903,0.024641869589686394,0.0002270324621349573,0.00020456721540540457,0.0018587167141959071,0,1,-1000,1,0,0,-1,1,0,1500.0
18:12:34.194,STABILIZE,-35.3632621,149.1652375,0,-0.0005250059184618294,0.0009464355534873903,0.024641869589686394,0.0002270324621349573,0.00020456721540540457,0.0018587167141959071,0,1,-1000,1,0,0,-1,1,0,1500.0
18:12:34.397,STABILIZE,-35.3632621,149.1652375,0,-0.0005250059184618294,0.0009464355534873903,0.024641869589686394,0.0002270324621349573,0.00020456721540540457,0.0018587167141959071,0,1,-1000,1,0,0,-1,1,0,1500.0
18:12:34.604,STABILIZE,-35.3632621,149.1652375,0,-0.0006617471808567643,0.000947058666497469,0.024119915440678596,0.00023174367379397154,0.0002392090973444283,0.0018476203549653292,0,2,-1000,0,0,0,-1,1,0,1500.0
18:12:34.805,STABILIZE,-35.3632621,149.1652375,0,-0.0005478225066326559,0.0009725564159452915,0.023850437253713608,0.0002023181295953691,0.00029466376872733235,0.001748851966112852,0,2,-1000,0,0,0,-1,1,0,1500.0
18:12:35.016,STABILIZE,-35.3632621,149.1652375,0,-0.0005478225066326559,0.0009725564159452915,0.023850437253713608,0.0002023181295953691,0.00029466376872733235,0.001748851966112852,0,2,-1000,0,0,0,-1,1,0,1500.0
18:12:35.218,STABILIZE,-35.3632621,149.1652375,0,-0.0005478225066326559,0.0009725564159452915,0.023850437253713608,0.0002023181295953691,0.00029466376872733235,0.001748851966112852,0,2,-1000,0,0,0,-1,1,0,1500.0
18:12:35.420,STABILIZE,-35.3632621,149.1652375,0,-0.0005478225066326559,0.0009725564159452915,0.023850437253713608,0.0002023181295953691,0.00029466376872733235,0.001748851966112852,0,2,-1000,0,0,0,-1,1,0,1500.0
18:12:35.622,STABILIZE,-35.3632621,149.1652375,0,-0.0005478225066326559,0.0009725564159452915,0.023850437253713608,0.0002023181295953691,0.00029466376872733235,0.001748851966112852,0,2,-1000,0,0,0,-1,1,0,1500.0
18:12:35.825,STABILIZE,-35.3632621,149.1652375,0,-0.0005478225066326559,0.0009725564159452915,0.023850437253713608,0.0002023181295953691,0.00029466376872733235,0.001748851966112852,0,2,-1000,0,0,0,-1,1,0,1500.0
18:12:36.027,STABILIZE,-35.3632621,149.1652375,0,-0.0005478225066326559,0.0009725564159452915,0.023850437253713608,0.0002023181295953691,0.00029466376872733235,0.001748851966112852,0,2,-1000,0,0,0,-1,1,0,1500.0
18:12:36.228,STABILIZE,-35.3632621,149.1652375,0,-0.0005478225066326559,0.0009725564159452915,0.023850437253713608,0.0002023181295953691,0.00029466376872733235,0.001748851966112852,0,2,-1000,0,0,0,-1,1,0,1500.0
18:12:36.432,STABILIZE,-35.3632622,149.1652375,0,-0.0005910172476433218,0.0009861248545348644,0.02344515547156334,0.0002457282389514148,0.0003121192567050457,0.001735415542498231,0,1,-1000,1,1,0,-1,1,0,1500.0
18:12:36.634,STABILIZE,-35.3632622,149.1652375,0,-0.0006249835714697838,0.0009845129679888487,0.023269925266504288,0.00036664505023509264,0.00022964674280956388,0.0018129947129637003,0,1,-1000,1,0,1,-1,1,0,1500.0
18:12:36.837,STABILIZE,-35.3632622,149.1652375,0,-0.0006249835714697838,0.0009845129679888487,0.023269925266504288,0.00036664505023509264,0.00022964674280956388,0.0018129947129637003,0,1,-1000,1,0,1,-1,1,0,1500.0
18:12:37.042,STABILIZE,-35.3632622,149.1652375,0,-0.0006249835714697838,0.0009845129679888487,0.023269925266504288,0.00036664505023509264,0.00022964674280956388,0.0018129947129637003,0,1,-1000,1,0,1,-1,1,0,1500.0
18:12:37.251,STABILIZE,-35.3632622,149.1652375,0,-0.0006249835714697838,0.0009845129679888487,0.023269925266504288,0.00036664505023509264,0.00022964674280956388,0.0018129947129637003,0,1,-1000,1,0,1,-1,1,0,1500.0
18:12:37.458,STABILIZE,-35.3632622,149.1652375,0,-0.0006249835714697838,0.0009845129679888487,0.023269925266504288,0.00036664505023509264,0.00022964674280956388,0.0018129947129637003,0,1,-1000,1,0,1,-1,1,0,1500.0
18:12:37.663,STABILIZE,-35.3632622,149.1652375,0,-0.0006249835714697838,0.0009845129679888487,0.023269925266504288,0.00036664505023509264,0.00022964674280956388,0.0018129947129637003,0,1,-1000,1,0,1,-1,1,0,1500.0
18:12:37.866,STABILIZE,-35.3632622,149.1652375,0,-0.0006249835714697838,0.0009845129679888487,0.023269925266504288,0.00036664505023509264,0.00022964674280956388,0.0018129947129637003,0,1,-1000,1,0,1,-1,1,0,1500.0
18:12:38.075,STABILIZE,-35.3632622,149.1652375,0,-0.0006249835714697838,0.0009845129679888487,0.023269925266504288,0.00036664505023509264,0.00022964674280956388,0.0018129947129637003,0,1,-1000,1,0,1,-1,1,0,1500.0
18:12:38.278,STABILIZE,-35.3632622,149.1652375,0,-0.0006249835714697838,0.0009845129679888487,0.023269925266504288,0.00036664505023509264,0.00022964674280956388,0.0018129947129637003,0,1,-1000,1,0,1,-1,1,0,1500.0
18:12:38.480,STABILIZE,-35.3632622,149.1652375,0,-0.0006249835714697838,0.0009845129679888487,0.023269925266504288,0.00036664505023509264,0.00022964674280956388,0.0018129947129637003,0,1,-1000,1,0,1,-1,1,0,1500.0
18:12:38.681,STABILIZE,-35.3632622,149.1652375,0,-0.0005763817462138832,0.0010036613093689084,0.02277667634189129,0.0018744051922112703,0.0003839061828330159,0.0016095966566354036,0,2,-1000,0,0,1,-1,1,0,1500.0
18:12:38.882,STABILIZE,-35.3632622,149.1652375,0,-0.0006427040789276361,0.0009978647576645017,0.022467536851763725,0.00019241939298808575,0.00022058415925130248,0.0016366830095648766,0,1,-1000,0,0,1,-1,1,0,1500.0
18:12:39.089,STABILIZE,-35.3632622,149.1652375,0,-0.0006427040789276361,0.0009978647576645017,0.022467536851763725,0.00019241939298808575,0.00022058415925130248,0.0016366830095648766,0,2,-1000,0,0,1,-1,1,0,1500.0
18:12:39.290,STABILIZE,-35.3632622,149.1652375,0,-0.0006427040789276361,0.0009978647576645017,0.022467536851763725,0.00019241939298808575,0.00022058415925130248,0.0016366830095648766,0,2,-1000,0,0,1,-1,1,0,1500.0
18:12:39.491,STABILIZE,-35.3632622,149.1652375,0,-0.0006427040789276361,0.0009978647576645017,0.022467536851763725,0.00019241939298808575,0.00022058415925130248,0.0016366830095648766,0,2,-1000,0,0,1,-1,1,0,1500.0
18:12:39.692,STABILIZE,-35.3632622,149.1652375,0,-0.0006427040789276361,0.0009978647576645017,0.022467536851763725,0.00019241939298808575,0.00022058415925130248,0.0016366830095648766,0,2,-1000,0,0,1,-1,1,0,1500.0
18:12:39.894,STABILIZE,-35.3632622,149.1652375,0,-0.0006427040789276361,0.0009978647576645017,0.022467536851763725,0.00019241939298808575,0.00022058415925130248,0.0016366830095648766,0,2,-1000,0,0,1,-1,1,0,1500.0
18:12:40.095,STABILIZE,-35.3632622,149.1652375,0,-0.0006427040789276361,0.0009978647576645017,0.022467536851763725,0.00019241939298808575,0.00022058415925130248,0.0016366830095648766,0,2,-1000,0,0,1,-1,1,0,1500.0
18:12:40.297,STABILIZE,-35.3632622,149.1652375,0,-0.0006427040789276361,0.0009978647576645017,0.022467536851763725,0.00019241939298808575,0.00022058415925130248,0.0016366830095648766,0,2,-1000,0,0,1,-1,1,0,1500.0
18:12:40.500,STABILIZE,-35.3632622,149.1652375,0,-0.0006427040789276361,0.0009978647576645017,0.022467536851763725,0.00019241939298808575,0.00022058415925130248,0.0016366830095648766,0,2,-1000,0,0,1,-1,1,0,1500.0
18:12:40.707,STABILIZE,-35.3632622,149.1652375,0,-0.0006852661608718336,0.000990469241514802,0.022296112030744553,0.00027020141715183854,0.00028334627859294415,0.0015324698761105537,0,1,-1000,0,0,0,-1,1,0,1500.0
18:12:40.909,STABILIZE,-35.3632622,149.1652375,0,-0.000751914456486702,0.0009926562197506428,0.022029679268598557,0.00017637689597904682,0.00026012654416263103,0.0015912381932139397,0,2,-1000,1,0,0,-1,1,0,1500.0
18:12:41.110,STABILIZE,-35.3632622,149.1652375,0,-0.000751914456486702,0.0009926562197506428,0.022029679268598557,0.00017637689597904682,0.00026012654416263103,0.0015912381932139397,0,2,-1000,1,0,0,-1,1,0,1500.0
18:12:41.311,STABILIZE,-35.3632622,149.1652375,0,-0.000751914456486702,0.0009926562197506428,0.022029679268598557,0.00017637689597904682,0.00026012654416263103,0.0015912381932139397,0,2,-1000,1,0,0,-1,1,0,1500.0
18:12:41.513,STABILIZE,-35.3632622,149.1652375,0,-0.000751914456486702,0.0009926562197506428,0.022029679268598557,0.00017637689597904682,0.00026012654416263103,0.0015912381932139397,0,2,-1000,1,0,0,-1,1,0,1500.0
18:12:41.716,STABILIZE,-35.3632622,149.1652375,0,-0.000751914456486702,0.0009926562197506428,0.022029679268598557,0.00017637689597904682,0.00026012654416263103,0.0015912381932139397,0,2,-1000,1,0,0,-1,1,0,1500.0
18:12:41.919,STABILIZE,-35.3632622,149.1652375,0,-0.000751914456486702,0.0009926562197506428,0.022029679268598557,0.00017637689597904682,0.00026012654416263103,0.0015912381932139397,0,2,-1000,1,0,0,-1,1,0,1500.0
18:12:42.121,STABILIZE,-35.3632622,149.1652375,0,-0.000751914456486702,0.0009926562197506428,0.022029679268598557,0.00017637689597904682,0.00026012654416263103,0.0015912381932139397,0,2,-1000,1,0,0,-1,1,0,1500.0
18:12:42.324,STABILIZE,-35.3632622,149.1652375,0,-0.000751914456486702,0.0009926562197506428,0.022029679268598557,0.00017637689597904682,0.00026012654416263103,0.0015912381932139397,0,2,-1000,1,0,0,-1,1,0,1500.0
18:12:42.525,STABILIZE,-35.3632622,149.1652375,0,-0.0008274833671748638,0.0009873106610029936,0.021813610568642616,0.00020855391630902886,0.0001259667333215475,0.0014897689688950777,0,2,-1000,1,0,0,-1,1,0,1500.0
18:12:42.727,STABILIZE,-35.3632622,149.1652375,0,-0.0008825286640785635,0.0009869993664324284,0.02159026451408863,0.0004347613430581987,0.0002836005878634751,0.0014438058715313673,0,1,-1000,1,0,0,-1,1,0,1500.0
18:12:42.930,AUTO,-35.3632622,149.1652375,4,-0.0008990524220280349,0.0009888744680210948,0.0215468592941761,0.00018955854466184974,0.0002791325678117573,0.001490119961090386,0,2,-1000,0,1,1,-1,1,0,1500.0
18:12:43.134,AUTO,-35.3632622,149.1652375,4,-0.0008990524220280349,0.0009888744680210948,0.0215468592941761,0.00018955854466184974,0.0002791325678117573,0.001490119961090386,0,2,-1000,0,1,1,-1,1,0,1500.0
18:12:43.340,AUTO,-35.3632622,149.1652375,4,-0.0008990524220280349,0.0009888744680210948,0.0215468592941761,0.00018955854466184974,0.0002791325678117573,0.001490119961090386,0,2,-1000,0,1,1,-1,1,0,1500.0
18:12:43.543,AUTO,-35.3632622,149.1652375,4,-0.0008990524220280349,0.0009888744680210948,0.0215468592941761,0.00018955854466184974,0.0002791325678117573,0.001490119961090386,0,2,-1000,0,1,1,-1,1,0,1500.0
18:12:43.747,AUTO,-35.3632622,149.1652375,4,-0.0008990524220280349,0.0009888744680210948,0.0215468592941761,0.00018955854466184974,0.0002791325678117573,0.001490119961090386,0,2,-1000,0,1,1,-1,1,0,1500.0
18:12:43.950,AUTO,-35.3632622,149.1652375,4,-0.0008990524220280349,0.0009888744680210948,0.0215468592941761,0.00018955854466184974,0.0002791325678117573,0.001490119961090386,0,2,-1000,0,1,1,-1,1,0,1500.0
18:12:44.153,AUTO,-35.3632622,149.1652375,4,-0.0008990524220280349,0.0009888744680210948,0.0215468592941761,0.00018955854466184974,0.0002791325678117573,0.001490119961090386,0,2,-1000,0,1,1,-1,1,0,1500.0
18:12:44.356,AUTO,-35.3632622,149.1652375,4,-0.0008990524220280349,0.0009888744680210948,0.0215468592941761,0.00018955854466184974,0.0002791325678117573,0.001490119961090386,0,2,-1000,0,1,1,-1,1,0,1500.0
18:12:44.557,AUTO,-35.3632622,149.1652375,3,-0.0009256775374524295,0.000998366973362863,0.02144489623606205,0.00025580707006156445,0.0004063051310367882,0.0014026251155883074,0,1,-1000,0,0,0,-1,1,0,1500.0
18:12:44.759,AUTO,-35.3632621,149.1652375,1,-0.0007600067183375359,0.0012366982409730554,0.021189680323004723,0.0003664603573270142,0.0003384275478310883,0.001350155333057046,0,2,-1000,0,0,1,0,0,0,1500.0
18:12:44.963,AUTO,-35.3632621,149.1652375,1,-0.0007600067183375359,0.0012366982409730554,0.021189680323004723,0.0003664603573270142,0.0003384275478310883,0.001350155333057046,0,2,-1000,0,0,1,0,0,0,1500.0
18:12:45.167,AUTO,-35.3632621,149.1652375,1,-0.0007600067183375359,0.0012366982409730554,0.021189680323004723,0.0003664603573270142,0.0003384275478310883,0.001350155333057046,0,2,-1000,0,0,1,0,0,0,1500.0
18:12:45.369,AUTO,-35.3632621,149.1652375,1,-0.0007600067183375359,0.0012366982409730554,0.021189680323004723,0.0003664603573270142,0.0003384275478310883,0.001350155333057046,0,2,-1000,0,0,1,0,0,0,1500.0
18:12:45.573,AUTO,-35.3632621,149.1652375,1,-0.0007600067183375359,0.0012366982409730554,0.021189680323004723,0.0003664603573270142,0.0003384275478310883,0.001350155333057046,0,2,-1000,0,0,1,0,0,0,1500.0
18:12:45.784,AUTO,-35.3632621,149.1652375,1,-0.0007600067183375359,0.0012366982409730554,0.021189680323004723,0.0003664603573270142,0.0003384275478310883,0.001350155333057046,0,2,-1000,0,0,1,0,0,0,1500.0
18:12:45.985,AUTO,-35.3632621,149.1652375,1,-0.0007600067183375359,0.0012366982409730554,0.021189680323004723,0.0003664603573270142,0.0003384275478310883,0.001350155333057046,0,2,-1000,0,0,1,0,0,0,1500.0
18:12:46.189,AUTO,-35.3632621,149.1652375,1,-0.0007600067183375359,0.0012366982409730554,0.021189680323004723,0.0003664603573270142,0.0003384275478310883,0.001350155333057046,0,2,-1000,0,0,1,0,0,0,1500.0
18:12:46.393,AUTO,-35.3632621,149.1652375,1,-0.0007600067183375359,0.0012366982409730554,0.021189680323004723,0.0003664603573270142,0.0003384275478310883,0.001350155333057046,0,2,-1000,0,0,1,0,0,0,1500.0
18:12:46.600,AUTO,-35.3632621,149.1652375,0,-1.3826015674567316e-05,0.0017255668062716722,0.020720547065138817,0.00036602828186005354,0.00034783617593348026,0.0014075954677537084,0,1,-1000,0,1,0,0,0,1,1500.0
18:12:46.801,AUTO,-35.3632621,149.1652375,1,0.002491289982572198,0.000568554038181901,0.020706502720713615,0.023250829428434372,-0.011295337229967117,0.0010506312828511,0,0,-1129,23,-10,0,0,0,-10,1500.0
18:12:47.004,AUTO,-35.3632621,149.1652375,1,0.002491289982572198,0.000568554038181901,0.020706502720713615,0.023250829428434372,-0.011295337229967117,0.0010506312828511,0,0,-1129,23,-10,0,0,0,-10,1500.0
18:12:47.207,AUTO,-35.3632621,149.1652375,1,0.002491289982572198,0.000568554038181901,0.020706502720713615,0.023250829428434372,-0.011295337229967117,0.0010506312828511,0,0,-1129,23,-10,0,0,0,-10,1500.0
18:12:47.409,AUTO,-35.3632621,149.1652375,1,0.002491289982572198,0.000568554038181901,0.020706502720713615,0.023250829428434372,-0.011295337229967117,0.0010506312828511,0,0,-1129,23,-10,0,0,0,-10,1500.0
18:12:47.614,AUTO,-35.3632621,149.1652375,1,0.002491289982572198,0.000568554038181901,0.020706502720713615,0.023250829428434372,-0.011295337229967117,0.0010506312828511,0,0,-1129,23,-10,0,0,0,-10,1500.0
18:12:47.817,AUTO,-35.3632621,149.1652375,1,0.002491289982572198,0.000568554038181901,0.020706502720713615,0.023250829428434372,-0.011295337229967117,0.0010506312828511,0,0,-1129,23,-10,0,0,0,-10,1500.0
18:12:48.020,AUTO,-35.3632621,149.1652375,1,0.002491289982572198,0.000568554038181901,0.020706502720713615,0.023250829428434372,-0.011295337229967117,0.0010506312828511,0,0,-1129,23,-10,0,0,0,-10,1500.0
18:12:48.224,AUTO,-35.3632621,149.1652375,1,0.002491289982572198,0.000568554038181901,0.020706502720713615,0.023250829428434372,-0.011295337229967117,0.0010506312828511,0,0,-1129,23,-10,0,0,0,-10,1500.0
18:12:48.427,AUTO,-35.3632621,149.1652375,1,0.002491289982572198,0.000568554038181901,0.020706502720713615,0.023250829428434372,-0.011295337229967117,0.0010506312828511,0,0,-1129,23,-10,0,0,0,-10,1500.0
18:12:48.632,AUTO,-35.3632621,149.1652375,1,0.0022526271641254425,0.0014143544249236584,0.020554346963763237,0.0028240790124982595,0.0034955712035298347,0.0020671787206083536,0,0,-1129,23,-10,0,0,0,-10,1500.0
18:12:48.837,AUTO,-35.3632619,149.1652382,2257,0.045612502843141556,-0.005086458288133144,0.02070506103336811,0.042267221957445145,-0.00945265218615532,0.0034392320085316896,0,-1,-1006,45,-7,2,3,21,-148,1500.0
18:12:49.039,AUTO,-35.3632619,149.1652382,2257,0.045612502843141556,-0.005086458288133144,0.02070506103336811,0.042267221957445145,-0.00945265218615532,0.0034392320085316896,0,-3,-1002,42,-8,3,3,21,-148,1500.0
18:12:49.240,AUTO,-35.3632619,149.1652382,2257,0.045612502843141556,-0.005086458288133144,0.02070506103336811,0.042267221957445145,-0.00945265218615532,0.0034392320085316896,0,-3,-1002,42,-8,3,3,21,-148,1500.0
18:12:49.451,AUTO,-35.3632619,149.1652382,2257,0.045612502843141556,-0.005086458288133144,0.02070506103336811,0.042267221957445145,-0.00945265218615532,0.0034392320085316896,0,-3,-1002,42,-8,3,3,21,-148,1500.0
18:12:49.656,AUTO,-35.3632619,149.1652382,2257,0.045612502843141556,-0.005086458288133144,0.02070506103336811,0.042267221957445145,-0.00945265218615532,0.0034392320085316896,0,-3,-1002,42,-8,3,3,21,-148,1500.0
18:12:49.858,AUTO,-35.3632619,149.1652382,2257,0.045612502843141556,-0.005086458288133144,0.02070506103336811,0.042267221957445145,-0.00945265218615532,0.0034392320085316896,0,-3,-1002,42,-8,3,3,21,-148,1500.0
18:12:50.061,AUTO,-35.3632619,149.1652382,2257,0.045612502843141556,-0.005086458288133144,0.02070506103336811,0.042267221957445145,-0.00945265218615532,0.0034392320085316896,0,-3,-1002,42,-8,3,3,21,-148,1500.0
18:12:50.262,AUTO,-35.3632619,149.1652382,2257,0.045612502843141556,-0.005086458288133144,0.02070506103336811,0.042267221957445145,-0.00945265218615532,0.0034392320085316896,0,-3,-1002,42,-8,3,3,21,-148,1500.0
18:12:50.465,AUTO,-35.3632619,149.1652382,2257,0.045612502843141556,-0.005086458288133144,0.02070506103336811,0.042267221957445145,-0.00945265218615532,0.0034392320085316896,0,-3,-1002,42,-8,3,3,21,-148,1500.0
18:12:50.668,AUTO,-35.3632608,149.165246,4922,-0.03884295001626015,0.0026561189442873,-0.072401262819767,-0.03019525110721588,-0.005752268712967634,-0.03243769332766533,3,-7,-999,-29,-5,-32,1,23,-150,1500.0
18:12:50.872,AUTO,-35.3632608,149.1652464,5307,-0.053658369928598404,0.002146483398973942,-0.0799492821097374,-0.0697513148188591,0.0027878759428858757,-0.03540319949388504,1,-3,-998,-68,3,-35,1,9,-149,1500.0
18:12:51.079,AUTO,-35.3632608,149.1652464,5307,-0.053658369928598404,0.002146483398973942,-0.0799492821097374,-0.0697513148188591,0.0027878759428858757,-0.03540319949388504,1,-3,-998,-68,3,-35,1,9,-149,1500.0
18:12:51.280,AUTO,-35.3632608,149.1652464,5307,-0.053658369928598404,0.002146483398973942,-0.0799492821097374,-0.0697513148188591,0.0027878759428858757,-0.03540319949388504,1,-3,-998,-68,3,-35,1,9,-149,1500.0
18:12:51.485,AUTO,-35.3632608,149.1652464,5307,-0.053658369928598404,0.002146483398973942,-0.0799492821097374,-0.0697513148188591,0.0027878759428858757,-0.03540319949388504,1,-3,-998,-68,3,-35,1,9,-149,1500.0
18:12:51.688,AUTO,-35.3632608,149.1652464,5307,-0.053658369928598404,0.002146483398973942,-0.0799492821097374,-0.0697513148188591,0.0027878759428858757,-0.03540319949388504,1,-3,-998,-68,3,-35,1,9,-149,1500.0
18:12:51.889,AUTO,-35.3632608,149.1652464,5307,-0.053658369928598404,0.002146483398973942,-0.0799492821097374,-0.0697513148188591,0.0027878759428858757,-0.03540319949388504,1,-3,-998,-68,3,-35,1,9,-149,1500.0
18:12:52.092,AUTO,-35.3632608,149.1652464,5307,-0.053658369928598404,0.002146483398973942,-0.0799492821097374,-0.0697513148188591,0.0027878759428858757,-0.03540319949388504,1,-3,-998,-68,3,-35,1,9,-149,1500.0
18:12:52.294,AUTO,-35.3632608,149.1652464,5307,-0.053658369928598404,0.002146483398973942,-0.0799492821097374,-0.0697513148188591,0.0027878759428858757,-0.03540319949388504,1,-3,-998,-68,3,-35,1,9,-149,1500.0
18:12:52.508,AUTO,-35.3632609,149.1652451,6459,-0.05497604236006737,0.001765207969583571,-0.09974047541618347,0.05577496066689491,0.0011024621780961752,-0.015606206841766834,1,-3,-998,-68,3,-35,-4,-39,-149,1500.0
18:12:52.711,AUTO,-35.3632615,149.1652392,8005,0.007794972043484449,0.008671593852341175,-0.10760108381509781,0.06666267663240433,0.008755479007959366,-0.0002810503647197038,-7,12,-1003,66,9,-2,-13,-55,-151,1500.0
18:12:52.915,AUTO,-35.3632619,149.1652378,8395,0.02444814145565033,0.010605566203594208,-0.1076459214091301,0.06676462292671204,0.0069276802241802216,0.0013687692116945982,-4,12,-1003,67,7,0,-16,-48,-152,1500.0
18:12:53.117,AUTO,-35.3632619,149.1652378,8395,0.02444814145565033,0.010605566203594208,-0.1076459214091301,0.06676462292671204,0.0069276802241802216,0.0013687692116945982,-4,12,-1003,67,7,0,-16,-48,-152,1500.0
18:12:53.325,AUTO,-35.3632619,149.1652378,8395,0.02444814145565033,0.010605566203594208,-0.1076459214091301,0.06676462292671204,0.0069276802241802216,0.0013687692116945982,-4,12,-1003,67,7,0,-16,-48,-152,1500.0
18:12:53.532,AUTO,-35.3632619,149.1652378,8395,0.02444814145565033,0.010605566203594208,-0.1076459214091301,0.06676462292671204,0.0069276802241802216,0.0013687692116945982,-4,12,-1003,67,7,0,-16,-48,-152,1500.0
18:12:53.734,AUTO,-35.3632619,149.1652378,8395,0.02444814145565033,0.010605566203594208,-0.1076459214091301,0.06676462292671204,0.0069276802241802216,0.0013687692116945982,-4,12,-1003,67,7,0,-16,-48,-152,1500.0
18:12:53.936,AUTO,-35.3632619,149.1652378,8395,0.02444814145565033,0.010605566203594208,-0.1076459214091301,0.06676462292671204,0.0069276802241802216,0.0013687692116945982,-4,12,-1003,67,7,0,-16,-48,-152,1500.0
18:12:54.141,AUTO,-35.3632619,149.1652378,8395,0.02444814145565033,0.010605566203594208,-0.1076459214091301,0.06676462292671204,0.0069276802241802216,0.0013687692116945982,-4,12,-1003,67,7,0,-16,-48,-152,1500.0
18:12:54.345,AUTO,-35.3632619,149.1652378,8395,0.02444814145565033,0.010605566203594208,-0.1076459214091301,0.06676462292671204,0.0069276802241802216,0.0013687692116945982,-4,12,-1003,67,7,0,-16,-48,-152,1500.0
18:12:54.550,AUTO,-35.3632633,149.1652352,9809,0.054183728992938995,-0.016063854098320007,-0.08275074511766434,-0.04063647612929344,-0.10820892453193665,0.10665237903594971,0,7,-997,4,-50,51,-16,0,-151,1500.0
18:12:54.754,AUTO,-35.3632629,149.1652364,11357,-0.012655348517000675,-0.013038227334618568,-0.07886946201324463,-0.027489060536026955,0.052122633904218674,-0.06260430812835693,-2,-4,-1004,-26,53,-62,21,11,-150,1500.0
18:12:54.963,AUTO,-35.3632629,149.1652364,11357,-0.012655348517000675,-0.013038227334618568,-0.07886946201324463,-0.027489060536026955,0.052122633904218674,-0.06260430812835693,-2,-4,-1004,-26,53,-62,21,11,-150,1500.0
18:12:55.167,AUTO,-35.3632629,149.1652364,11357,-0.012655348517000675,-0.013038227334618568,-0.07886946201324463,-0.027489060536026955,0.052122633904218674,-0.06260430812835693,-2,-4,-1004,-26,53,-62,21,11,-150,1500.0
18:12:55.370,AUTO,-35.3632629,149.1652364,11357,-0.012655348517000675,-0.013038227334618568,-0.07886946201324463,-0.027489060536026955,0.052122633904218674,-0.06260430812835693,-2,-4,-1004,-26,53,-62,21,11,-150,1500.0
18:12:59.153,AUTO,-35.3632629,149.1652364,11357,-0.012655348517000675,-0.013038227334618568,-0.07886946201324463,-0.027489060536026955,0.052122633904218674,-0.06260430812835693,-2,-4,-1004,-26,53,-62,21,11,-150,1500.0
18:12:59.355,AUTO,-35.3632629,149.1652364,11357,-0.012655348517000675,-0.013038227334618568,-0.07886946201324463,-0.027489060536026955,0.052122633904218674,-0.06260430812835693,-2,-4,-1004,-26,53,-62,21,11,-150,1500.0
18:12:59.561,AUTO,-35.3632629,149.1652364,11357,-0.012655348517000675,-0.013038227334618568,-0.07886946201324463,-0.027489060536026955,0.052122633904218674,-0.06260430812835693,-2,-4,-1004,-26,53,-62,21,11,-150,1500.0
18:12:59.770,AUTO,-35.3632629,149.1652364,11357,-0.012655348517000675,-0.013038227334618568,-0.07886946201324463,-0.027489060536026955,0.052122633904218674,-0.06260430812835693,-2,-4,-1004,-26,53,-62,21,11,-150,1500.0
18:12:59.977,AUTO,-35.3632609,149.165236,13298,-0.0012083103647455573,0.015892228111624718,-0.14568088948726654,0.022664185613393784,0.008275661617517471,-0.0271858349442482,-4,0,-1000,23,13,-37,9,-9,-153,1500.0
18:13:00.182,AUTO,-35.3632607,149.1652357,13689,0.004393951967358589,0.017007531598210335,-0.1518612802028656,0.02187119796872139,0.0007987646386027336,-0.018863249570131302,-3,0,-1000,22,1,-19,5,-9,-153,1500.0
18:13:00.383,AUTO,-35.3632607,149.1652357,13689,0.004393951967358589,0.017007531598210335,-0.1518612802028656,0.02187119796872139,0.0007987646386027336,-0.018863249570131302,-3,0,-1000,22,1,-19,5,-9,-153,1500.0
18:13:00.589,AUTO,-35.3632607,149.1652357,13689,0.004393951967358589,0.017007531598210335,-0.1518612802028656,0.02187119796872139,0.0007987646386027336,-0.018863249570131302,-3,0,-1000,22,1,-19,5,-9,-153,1500.0
18:13:00.798,AUTO,-35.3632607,149.1652357,13689,0.004393951967358589,0.017007531598210335,-0.1518612802028656,0.02187119796872139,0.0007987646386027336,-0.018863249570131302,-3,0,-1000,22,1,-19,5,-9,-153,1500.0
18:13:01.002,AUTO,-35.3632607,149.1652357,13689,0.004393951967358589,0.017007531598210335,-0.1518612802028656,0.02187119796872139,0.0007987646386027336,-0.018863249570131302,-3,0,-1000,22,1,-19,5,-9,-153,1500.0
18:13:01.204,AUTO,-35.3632608,149.1652351,15655,0.012072744779288769,0.009888343513011932,-0.1608196645975113,-0.005102167371660471,-0.008230626583099365,-0.002523184986785054,0,0,-999,-4,-7,-2,-8,4,-152,1500.0
18:13:01.407,AUTO,-35.363261,149.1652351,16045,0.010114260949194431,0.0077269491739571095,-0.16176551580429077,-0.007084195502102375,-0.00838761031627655,-0.00610332889482379,1,0,-1000,-6,-7,-6,-9,6,-152,1500.0
18:13:01.612,AUTO,-35.363261,149.1652351,16045,0.010114260949194431,0.0077269491739571095,-0.16176551580429077,-0.007084195502102375,-0.00838761031627655,-0.00610332889482379,1,0,-1000,-6,-7,-6,-9,6,-152,1500.0
18:13:01.822,AUTO,-35.363261,149.1652351,16045,0.010114260949194431,0.0077269491739571095,-0.16176551580429077,-0.007084195502102375,-0.00838761031627655,-0.00610332889482379,1,0,-1000,-6,-7,-6,-9,6,-152,1500.0
18:13:02.025,AUTO,-35.363261,149.1652351,16045,0.010114260949194431,0.0077269491739571095,-0.16176551580429077,-0.007084195502102375,-0.00838761031627655,-0.00610332889482379,1,0,-1000,-6,-7,-6,-9,6,-152,1500.0
18:13:02.228,AUTO,-35.363261,149.1652351,16045,0.010114260949194431,0.0077269491739571095,-0.16176551580429077,-0.007084195502102375,-0.00838761031627655,-0.00610332889482379,1,0,-1000,-6,-7,-6,-9,6,-152,1500.0
18:13:02.431,AUTO,-35.363261,149.1652351,16045,0.010114260949194431,0.0077269491739571095,-0.16176551580429077,-0.007084195502102375,-0.00838761031627655,-0.00610332889482379,1,0,-1000,-6,-7,-6,-9,6,-152,1500.0
18:13:02.633,AUTO,-35.3632615,149.1652355,17216,0.004978606477379799,0.0024235539603978395,-0.16815023124217987,-0.0038185701705515385,-0.004519852809607983,-0.012980509549379349,1,0,-1000,-6,-7,-6,-8,8,-152,1500.0
18:13:02.836,AUTO,-35.3632618,149.165236,18388,0.0015911528607830405,0.00057658163132146,-0.18143142759799957,0.00031114043667912483,-0.00026143965078517795,-0.02261427231132984,1,0,-1000,1,0,-22,-5,7,-153,1500.0
18:13:03.037,AUTO,-35.3632619,149.1652361,18779,0.0013647247105836868,0.0005423494731076062,-0.1869986206293106,-0.0015144554199650884,0.0010250936029478908,-0.02363208867609501,1,0,-1000,0,1,-23,-4,6,-153,1500.0
18:13:03.240,AUTO,-35.3632619,149.1652362,19171,0.0011893963674083352,0.0006844872259534895,-0.19286952912807465,-0.0008878169464878738,0.0025261384434998035,-0.02386758103966713,1,0,-1000,0,3,-24,-4,5,-153,1500.0
18:13:03.441,AUTO,-35.3632619,149.1652362,19171,0.0011893963674083352,0.0006844872259534895,-0.19286952912807465,-0.0008878169464878738,0.0025261384434998035,-0.02386758103966713,1,0,-1000,0,3,-24,-4,5,-153,1500.0
18:13:03.645,AUTO,-35.3632619,149.1652362,19171,0.0011893963674083352,0.0006844872259534895,-0.19286952912807465,-0.0008878169464878738,0.0025261384434998035,-0.02386758103966713,1,0,-1000,0,3,-24,-4,5,-153,1500.0
18:13:03.846,AUTO,-35.3632619,149.1652362,19171,0.0011893963674083352,0.0006844872259534895,-0.19286952912807465,-0.0008878169464878738,0.0025261384434998035,-0.02386758103966713,1,0,-1000,0,3,-24,-4,5,-153,1500.0
18:13:04.048,AUTO,-35.3632619,149.1652362,19171,0.0011893963674083352,0.0006844872259534895,-0.19286952912807465,-0.0008878169464878738,0.0025261384434998035,-0.02386758103966713,1,0,-1000,0,3,-24,-4,5,-153,1500.0
18:13:04.250,AUTO,-35.3632619,149.1652362,19171,0.0011893963674083352,0.0006844872259534895,-0.19286952912807465,-0.0008878169464878738,0.0025261384434998035,-0.02386758103966713,1,0,-1000,0,3,-24,-4,5,-153,1500.0
18:13:04.453,AUTO,-35.3632619,149.1652362,19171,0.0011893963674083352,0.0006844872259534895,-0.19286952912807465,-0.0008878169464878738,0.0025261384434998035,-0.02386758103966713,1,0,-1000,0,3,-24,-4,5,-153,1500.0
18:13:04.656,AUTO,-35.3632619,149.1652362,19171,0.0011893963674083352,0.0006844872259534895,-0.19286952912807465,-0.0008878169464878738,0.0025261384434998035,-0.02386758103966713,1,0,-1000,0,3,-24,-4,5,-153,1500.0
18:13:04.858,AUTO,-35.3632619,149.1652362,19171,0.0011893963674083352,0.0006844872259534895,-0.19286952912807465,-0.0008878169464878738,0.0025261384434998035,-0.02386758103966713,1,0,-1000,0,3,-24,-4,5,-153,1500.0
18:13:05.060,AUTO,-35.363262,149.1652364,21128,0.0031389587093144655,0.0021955487318336964,-0.2221350371837616,-2.8556445613503456e-05,0.0022804641630500555,-0.02556733228266239,0,0,-1000,4,2,-22,-1,3,-153,1500.0
18:13:05.263,AUTO,-35.363262,149.1652365,22302,0.0036227451637387276,0.0032570662442594767,-0.23854424059391022,0.0020097382366657257,0.0009293087641708553,-0.021227983757853508,0,0,-1000,2,1,-21,-1,3,-153,1500.0
18:13:05.465,AUTO,-35.363262,149.1652365,22302,0.0036227451637387276,0.0032570662442594767,-0.23854424059391022,0.0020097382366657257,0.0009293087641708553,-0.021227983757853508,0,0,-1000,2,1,-21,-1,3,-153,1500.0
18:13:05.669,AUTO,-35.363262,149.1652365,22302,0.0036227451637387276,0.0032570662442594767,-0.23854424059391022,0.0020097382366657257,0.0009293087641708553,-0.021227983757853508,0,0,-1000,2,1,-21,-1,3,-153,1500.0
18:13:05.870,AUTO,-35.363262,149.1652365,22302,0.0036227451637387276,0.0032570662442594767,-0.23854424059391022,0.0020097382366657257,0.0009293087641708553,-0.021227983757853508,0,0,-1000,2,1,-21,-1,3,-153,1500.0
18:13:06.071,AUTO,-35.363262,149.1652365,22302,0.0036227451637387276,0.0032570662442594767,-0.23854424059391022,0.0020097382366657257,0.0009293087641708553,-0.021227983757853508,0,0,-1000,2,1,-21,-1,3,-153,1500.0
18:13:06.275,AUTO,-35.363262,149.1652365,22302,0.0036227451637387276,0.0032570662442594767,-0.23854424059391022,0.0020097382366657257,0.0009293087641708553,-0.021227983757853508,0,0,-1000,2,1,-21,-1,3,-153,1500.0
18:13:06.481,AUTO,-35.363262,149.1652365,22302,0.0036227451637387276,0.0032570662442594767,-0.23854424059391022,0.0020097382366657257,0.0009293087641708553,-0.021227983757853508,0,0,-1000,2,1,-21,-1,3,-153,1500.0
18:13:06.684,AUTO,-35.363262,149.1652365,22302,0.0036227451637387276,0.0032570662442594767,-0.23854424059391022,0.0020097382366657257,0.0009293087641708553,-0.021227983757853508,0,0,-1000,2,1,-21,-1,3,-153,1500.0
18:13:06.886,AUTO,-35.363262,149.1652365,22302,0.0036227451637387276,0.0032570662442594767,-0.23854424059391022,0.0020097382366657257,0.0009293087641708553,-0.021227983757853508,0,0,-1000,2,1,-21,-1,3,-153,1500.0
18:13:07.092,AUTO,-35.363262,149.1652365,22302,0.0036227451637387276,0.0032570662442594767,-0.23854424059391022,0.0020097382366657257,0.0009293087641708553,-0.021227983757853508,0,0,-1000,2,1,-21,-1,3,-153,1500.0
18:13:07.295,AUTO,-35.363262,149.1652368,24653,0.0028079827316105366,0.002901293570175767,-0.2668395936489105,0.00012191705172881484,-0.00043340492993593216,-0.018487783148884773,0,0,-1000,-1,1,-17,-1,3,-153,1500.0
18:13:07.501,AUTO,-35.363262,149.1652368,25431,-0.008124074898660183,0.007261720485985279,-0.2682318091392517,-0.04263409972190857,0.01760648377239704,0.027663003653287888,0,0,-997,-41,18,27,-2,2,-151,1500.0
18:13:07.704,AUTO,-35.363262,149.1652368,25431,-0.008124074898660183,0.007261720485985279,-0.2682318091392517,-0.04263409972190857,0.01760648377239704,0.027663003653287888,0,0,-997,-41,18,27,-2,2,-151,1500.0
18:13:07.908,AUTO,-35.363262,149.1652368,25431,-0.008124074898660183,0.007261720485985279,-0.2682318091392517,-0.04263409972190857,0.01760648377239704,0.027663003653287888,0,0,-997,-41,18,27,-2,2,-151,1500.0
18:13:08.112,AUTO,-35.363262,149.1652368,25431,-0.008124074898660183,0.007261720485985279,-0.2682318091392517,-0.04263409972190857,0.01760648377239704,0.027663003653287888,0,0,-997,-41,18,27,-2,2,-151,1500.0
18:13:08.320,AUTO,-35.363262,149.1652368,25431,-0.008124074898660183,0.007261720485985279,-0.2682318091392517,-0.04263409972190857,0.01760648377239704,0.027663003653287888,0,0,-997,-41,18,27,-2,2,-151,1500.0
18:13:08.528,AUTO,-35.363262,149.1652368,25431,-0.008124074898660183,0.007261720485985279,-0.2682318091392517,-0.04263409972190857,0.01760648377239704,0.027663003653287888,0,0,-997,-41,18,27,-2,2,-151,1500.0
18:13:08.733,AUTO,-35.363262,149.1652368,25431,-0.008124074898660183,0.007261720485985279,-0.2682318091392517,-0.04263409972190857,0.01760648377239704,0.027663003653287888,0,0,-997,-41,18,27,-2,2,-151,1500.0
18:13:08.939,AUTO,-35.363262,149.1652368,25431,-0.008124074898660183,0.007261720485985279,-0.2682318091392517,-0.04263409972190857,0.01760648377239704,0.027663003653287888,0,0,-997,-41,18,27,-2,2,-151,1500.0
18:13:09.142,AUTO,-35.3632624,149.1652368,27769,0.009536521509289742,0.0010832678526639938,-0.22220677137374878,-0.004078672267496586,-0.0011847475543618202,0.023455437272787094,0,0,-1000,-3,0,23,-3,5,-153,1500.0
18:13:09.344,AUTO,-35.3632624,149.1652371,28549,0.0061097657307982445,0.0013158179353922606,-0.21120072901248932,-0.007179168984293938,0.0032803574576973915,0.021288469433784485,0,0,-999,-6,4,21,-2,7,-153,1500.0
18:13:09.546,AUTO,-35.3632624,149.1652371,28549,0.0061097657307982445,0.0013158179353922606,-0.21120072901248932,-0.007179168984293938,0.0032803574576973915,0.021288469433784485,0,0,-999,-6,4,21,-2,7,-153,1500.0
18:13:09.748,AUTO,-35.3632624,149.1652371,28549,0.0061097657307982445,0.0013158179353922606,-0.21120072901248932,-0.007179168984293938,0.0032803574576973915,0.021288469433784485,0,0,-999,-6,4,21,-2,7,-153,1500.0
18:13:09.950,AUTO,-35.3632624,149.1652371,28549,0.0061097657307982445,0.0013158179353922606,-0.21120072901248932,-0.007179168984293938,0.0032803574576973915,0.021288469433784485,0,0,-999,-6,4,21,-2,7,-153,1500.0
18:13:10.155,AUTO,-35.3632624,149.1652371,28549,0.0061097657307982445,0.0013158179353922606,-0.21120072901248932,-0.007179168984293938,0.0032803574576973915,0.021288469433784485,0,0,-999,-6,4,21,-2,7,-153,1500.0
18:13:10.357,AUTO,-35.3632624,149.1652371,28549,0.0061097657307982445,0.0013158179353922606,-0.21120072901248932,-0.007179168984293938,0.0032803574576973915,0.021288469433784485,0,0,-999,-6,4,21,-2,7,-153,1500.0
18:13:10.561,AUTO,-35.3632624,149.1652371,28549,0.0061097657307982445,0.0013158179353922606,-0.21120072901248932,-0.007179168984293938,0.0032803574576973915,0.021288469433784485,0,0,-999,-6,4,21,-2,7,-153,1500.0
18:13:10.765,AUTO,-35.3632624,149.1652371,28549,0.0061097657307982445,0.0013158179353922606,-0.21120072901248932,-0.007179168984293938,0.0032803574576973915,0.021288469433784485,0,0,-999,-6,4,21,-2,7,-153,1500.0
18:13:10.969,AUTO,-35.3632624,149.1652371,28549,0.0061097657307982445,0.0013158179353922606,-0.21120072901248932,-0.007179168984293938,0.0032803574576973915,0.021288469433784485,0,0,-999,-6,4,21,-2,7,-153,1500.0
18:13:11.175,AUTO,-35.3632624,149.1652377,30105,0.0007761364104226232,0.0020763271022588015,-0.1924671232700348,-0.0015839800471439958,0.00017121603013947606,0.016744466498494148,0,0,-1000,0,2,18,0,6,-153,1500.0
18:13:11.383,AUTO,-35.3632623,149.165238,31665,-0.00017500696412753314,0.0012331733014434576,-0.17527039349079132,-0.0003248474095016718,0.0010445076040923595,0.016298117116093636,0,0,-1000,0,1,16,0,3,-153,1500.0
18:13:11.584,AUTO,-35.3632623,149.165238,31665,-0.00017500696412753314,0.0012331733014434576,-0.17527039349079132,-0.0003248474095016718,0.0010445076040923595,0.016298117116093636,0,0,-1000,0,1,16,0,3,-153,1500.0
18:13:11.788,AUTO,-35.3632623,149.165238,31665,-0.00017500696412753314,0.0012331733014434576,-0.17527039349079132,-0.0003248474095016718,0.0010445076040923595,0.016298117116093636,0,0,-1000,0,1,16,0,3,-153,1500.0
18:13:11.990,AUTO,-35.3632623,149.165238,31665,-0.00017500696412753314,0.0012331733014434576,-0.17527039349079132,-0.0003248474095016718,0.0010445076040923595,0.016298117116093636,0,0,-1000,0,1,16,0,3,-153,1500.0
18:13:12.195,AUTO,-35.3632623,149.165238,31665,-0.00017500696412753314,0.0012331733014434576,-0.17527039349079132,-0.0003248474095016718,0.0010445076040923595,0.016298117116093636,0,0,-1000,0,1,16,0,3,-153,1500.0
18:13:12.398,AUTO,-35.3632623,149.165238,31665,-0.00017500696412753314,0.0012331733014434576,-0.17527039349079132,-0.0003248474095016718,0.0010445076040923595,0.016298117116093636,0,0,-1000,0,1,16,0,3,-153,1500.0
18:13:12.601,AUTO,-35.3632623,149.165238,31665,-0.00017500696412753314,0.0012331733014434576,-0.17527039349079132,-0.0003248474095016718,0.0010445076040923595,0.016298117116093636,0,0,-1000,0,1,16,0,3,-153,1500.0
18:13:12.803,AUTO,-35.3632623,149.165238,31665,-0.00017500696412753314,0.0012331733014434576,-0.17527039349079132,-0.0003248474095016718,0.0010445076040923595,0.016298117116093636,0,0,-1000,0,1,16,0,3,-153,1500.0
18:13:13.004,AUTO,-35.3632623,149.165238,31665,-0.00017500696412753314,0.0012331733014434576,-0.17527039349079132,-0.0003248474095016718,0.0010445076040923595,0.016298117116093636,0,0,-1000,0,1,16,0,3,-153,1500.0
18:13:13.206,AUTO,-35.3632623,149.165238,31665,-0.00017500696412753314,0.0012331733014434576,-0.17527039349079132,-0.0003248474095016718,0.0010445076040923595,0.016298117116093636,0,0,-1000,0,1,16,0,3,-153,1500.0
18:13:13.408,AUTO,-35.3632623,149.1652381,34008,0.0013236437225714326,0.0009640780626796186,-0.1546965092420578,0.002384648658335209,-0.0006860368885099888,0.011963779106736183,0,0,-1001,3,0,11,0,0,-153,1500.0
18:13:13.613,AUTO,-35.3632623,149.1652381,34788,0.0015604505315423012,0.0007372891413979232,-0.14865578711032867,-0.000440348987467587,-0.0013148658908903599,0.01287330687046051,0,0,-1000,0,0,12,0,0,-153,1500.0
18:13:13.816,AUTO,-35.3632623,149.1652381,34788,0.0015604505315423012,0.0007372891413979232,-0.14865578711032867,-0.000440348987467587,-0.0013148658908903599,0.01287330687046051,0,0,-1000,0,0,12,0,0,-153,1500.0
18:13:14.019,AUTO,-35.3632623,149.1652381,34788,0.0015604505315423012,0.0007372891413979232,-0.14865578711032867,-0.000440348987467587,-0.0013148658908903599,0.01287330687046051,0,0,-1000,0,0,12,0,0,-153,1500.0
18:13:14.224,AUTO,-35.3632623,149.1652381,34788,0.0015604505315423012,0.0007372891413979232,-0.14865578711032867,-0.000440348987467587,-0.0013148658908903599,0.01287330687046051,0,0,-1000,0,0,12,0,0,-153,1500.0
18:13:14.426,AUTO,-35.3632623,149.1652381,34788,0.0015604505315423012,0.0007372891413979232,-0.14865578711032867,-0.000440348987467587,-0.0013148658908903599,0.01287330687046051,0,0,-1000,0,0,12,0,0,-153,1500.0
18:13:14.629,AUTO,-35.3632623,149.1652381,34788,0.0015604505315423012,0.0007372891413979232,-0.14865578711032867,-0.000440348987467587,-0.0013148658908903599,0.01287330687046051,0,0,-1000,0,0,12,0,0,-153,1500.0
18:13:14.832,AUTO,-35.3632623,149.1652381,34788,0.0015604505315423012,0.0007372891413979232,-0.14865578711032867,-0.000440348987467587,-0.0013148658908903599,0.01287330687046051,0,0,-1000,0,0,12,0,0,-153,1500.0
18:13:15.034,AUTO,-35.3632623,149.1652381,34788,0.0015604505315423012,0.0007372891413979232,-0.14865578711032867,-0.000440348987467587,-0.0013148658908903599,0.01287330687046051,0,0,-1000,0,0,12,0,0,-153,1500.0
18:13:15.236,AUTO,-35.3632622,149.1652379,36734,0.0022924933582544327,0.000991807202808559,-0.13518643379211426,0.000901548657566309,0.0005793118616566062,0.010433833114802837,0,0,-1000,1,1,10,0,0,-153,1500.0
18:13:15.438,AUTO,-35.3632622,149.1652377,37907,0.002766155870631337,0.0011509059695526958,-0.12877199053764343,0.0021103685721755028,-0.0003760989638976753,0.008602938614785671,0,0,-1000,3,0,9,0,0,-153,1500.0
18:13:15.641,AUTO,-35.3632622,149.1652377,37907,0.002766155870631337,0.0011509059695526958,-0.12877199053764343,0.0021103685721755028,-0.0003760989638976753,0.008602938614785671,0,0,-1000,3,0,9,0,0,-153,1500.0
18:13:15.844,AUTO,-35.3632622,149.1652377,37907,0.002766155870631337,0.0011509059695526958,-0.12877199053764343,0.0021103685721755028,-0.0003760989638976753,0.008602938614785671,0,0,-1000,3,0,9,0,0,-153,1500.0
18:13:16.047,AUTO,-35.3632622,149.1652377,37907,0.002766155870631337,0.0011509059695526958,-0.12877199053764343,0.0021103685721755028,-0.0003760989638976753,0.008602938614785671,0,0,-1000,3,0,9,0,0,-153,1500.0
18:13:16.252,AUTO,-35.3632622,149.1652377,37907,0.002766155870631337,0.0011509059695526958,-0.12877199053764343,0.0021103685721755028,-0.0003760989638976753,0.008602938614785671,0,0,-1000,3,0,9,0,0,-153,1500.0
18:13:16.458,AUTO,-35.3632622,149.1652377,37907,0.002766155870631337,0.0011509059695526958,-0.12877199053764343,0.0021103685721755028,-0.0003760989638976753,0.008602938614785671,0,0,-1000,3,0,9,0,0,-153,1500.0
18:13:16.660,AUTO,-35.3632622,149.1652377,37907,0.002766155870631337,0.0011509059695526958,-0.12877199053764343,0.0021103685721755028,-0.0003760989638976753,0.008602938614785671,0,0,-1000,3,0,9,0,0,-153,1500.0
18:13:16.864,AUTO,-35.3632622,149.1652377,37907,0.002766155870631337,0.0011509059695526958,-0.12877199053764343,0.0021103685721755028,-0.0003760989638976753,0.008602938614785671,0,0,-1000,3,0,9,0,0,-153,1500.0
18:13:17.069,AUTO,-35.3632621,149.1652376,40091,0.0025170412845909595,0.0018413204234093428,-0.11723698675632477,0.0005942259449511766,0.002531705889850855,0.0067366124130785465,0,0,-999,-1,3,9,0,0,-153,1500.0
18:13:17.272,AUTO,-35.3632621,149.1652375,40878,0.002404732396826148,0.0018497229320928454,-0.1138911023736,-0.004392892122268677,1.2389267794787884e-05,0.007461109664291143,0,0,-999,-3,1,7,0,0,-153,1500.0
18:13:17.475,AUTO,-35.3632621,149.1652375,40878,0.002404732396826148,0.0018497229320928454,-0.1138911023736,-0.004392892122268677,1.2389267794787884e-05,0.007461109664291143,0,0,-999,-3,1,7,0,0,-153,1500.0
18:13:17.684,AUTO,-35.3632621,149.1652375,40878,0.002404732396826148,0.0018497229320928454,-0.1138911023736,-0.004392892122268677,1.2389267794787884e-05,0.007461109664291143,0,0,-999,-3,1,7,0,0,-153,1500.0
18:13:17.889,AUTO,-35.3632621,149.1652375,40878,0.002404732396826148,0.0018497229320928454,-0.1138911023736,-0.004392892122268677,1.2389267794787884e-05,0.007461109664291143,0,0,-999,-3,1,7,0,0,-153,1500.0
18:13:18.092,AUTO,-35.3632621,149.1652375,40878,0.002404732396826148,0.0018497229320928454,-0.1138911023736,-0.004392892122268677,1.2389267794787884e-05,0.007461109664291143,0,0,-999,-3,1,7,0,0,-153,1500.0
18:13:18.294,AUTO,-35.3632621,149.1652375,40878,0.002404732396826148,0.0018497229320928454,-0.1138911023736,-0.004392892122268677,1.2389267794787884e-05,0.007461109664291143,0,0,-999,-3,1,7,0,0,-153,1500.0
18:13:18.496,AUTO,-35.3632621,149.1652375,40878,0.002404732396826148,0.0018497229320928454,-0.1138911023736,-0.004392892122268677,1.2389267794787884e-05,0.007461109664291143,0,0,-999,-3,1,7,0,0,-153,1500.0
18:13:18.700,AUTO,-35.3632621,149.1652375,40878,0.002404732396826148,0.0018497229320928454,-0.1138911023736,-0.004392892122268677,1.2389267794787884e-05,0.007461109664291143,0,0,-999,-3,1,7,0,0,-153,1500.0
18:13:18.902,AUTO,-35.3632621,149.1652375,40878,0.002404732396826148,0.0018497229320928454,-0.1138911023736,-0.004392892122268677,1.2389267794787884e-05,0.007461109664291143,0,0,-999,-3,1,7,0,0,-153,1500.0
18:13:19.103,AUTO,-35.363262,149.1652375,42819,0.0022851505782455206,0.001647257711738348,-0.1057998463511467,0.0016070471610873938,-8.26582545414567e-05,0.007666189223527908,0,0,-1000,2,0,7,-1,1,-153,1500.0
18:13:19.306,AUTO,-35.363262,149.1652374,43988,0.002404589205980301,0.00137198599986732,-0.10115238279104233,0.0007957079214975238,-0.0017714661080390215,0.00689212791621685,0,0,-1000,1,0,6,-1,1,-153,1500.0
18:13:19.517,AUTO,-35.363262,149.1652374,43988,0.002404589205980301,0.00137198599986732,-0.10115238279104233,0.0007957079214975238,-0.0017714661080390215,0.00689212791621685,0,0,-1000,1,0,6,-1,1,-153,1500.0
18:13:19.725,AUTO,-35.363262,149.1652374,43988,0.002404589205980301,0.00137198599986732,-0.10115238279104233,0.0007957079214975238,-0.0017714661080390215,0.00689212791621685,0,0,-1000,1,0,6,-1,1,-153,1500.0
18:13:19.931,AUTO,-35.363262,149.1652374,43988,0.002404589205980301,0.00137198599986732,-0.10115238279104233,0.0007957079214975238,-0.0017714661080390215,0.00689212791621685,0,0,-1000,1,0,6,-1,1,-153,1500.0
18:13:20.149,AUTO,-35.363262,149.1652374,43988,0.002404589205980301,0.00137198599986732,-0.10115238279104233,0.0007957079214975238,-0.0017714661080390215,0.00689212791621685,0,0,-1000,1,0,6,-1,1,-153,1500.0
18:13:20.382,AUTO,-35.363262,149.1652374,43988,0.002404589205980301,0.00137198599986732,-0.10115238279104233,0.0007957079214975238,-0.0017714661080390215,0.00689212791621685,0,0,-1000,1,0,6,-1,1,-153,1500.0
18:13:20.605,AUTO,-35.363262,149.1652374,43988,0.002404589205980301,0.00137198599986732,-0.10115238279104233,0.0007957079214975238,-0.0017714661080390215,0.00689212791621685,0,0,-1000,1,0,6,-1,1,-153,1500.0
18:13:20.809,AUTO,-35.363262,149.1652374,43988,0.002404589205980301,0.00137198599986732,-0.10115238279104233,0.0007957079214975238,-0.0017714661080390215,0.00689212791621685,0,0,-1000,1,0,6,-1,1,-153,1500.0
18:13:21.013,AUTO,-35.363262,149.1652374,43988,0.002404589205980301,0.00137198599986732,-0.10115238279104233,0.0007957079214975238,-0.0017714661080390215,0.00689212791621685,0,0,-1000,1,0,6,-1,1,-153,1500.0
18:13:21.219,AUTO,-35.363262,149.1652374,46716,0.0020067484583705664,0.001320920418947935,-0.0914483368396759,-0.001672358950600028,-0.00019585469271987677,0.004702727310359478,0,0,-1000,0,0,5,-1,1,-153,1500.0
18:13:21.421,AUTO,-35.363262,149.1652374,47105,0.000422783603426069,0.0024461618158966303,-0.08722341060638428,-0.03337757661938667,0.030217481777071953,0.07304014265537262,0,0,-982,-32,31,73,-1,1,-152,1500.0
18:13:21.630,AUTO,-35.363262,149.1652374,47105,0.000422783603426069,0.0024461618158966303,-0.08722341060638428,-0.03337757661938667,0.030217481777071953,0.07304014265537262,0,0,-982,-32,31,73,-1,1,-152,1500.0
18:13:21.832,AUTO,-35.363262,149.1652374,47105,0.000422783603426069,0.0024461618158966303,-0.08722341060638428,-0.03337757661938667,0.030217481777071953,0.07304014265537262,0,0,-982,-32,31,73,-1,1,-152,1500.0
18:13:22.035,AUTO,-35.363262,149.1652374,47105,0.000422783603426069,0.0024461618158966303,-0.08722341060638428,-0.03337757661938667,0.030217481777071953,0.07304014265537262,0,0,-982,-32,31,73,-1,1,-152,1500.0
18:13:22.237,AUTO,-35.363262,149.1652374,47105,0.000422783603426069,0.0024461618158966303,-0.08722341060638428,-0.03337757661938667,0.030217481777071953,0.07304014265537262,0,0,-982,-32,31,73,-1,1,-152,1500.0
18:13:22.440,AUTO,-35.363262,149.1652374,47105,0.000422783603426069,0.0024461618158966303,-0.08722341060638428,-0.03337757661938667,0.030217481777071953,0.07304014265537262,0,0,-982,-32,31,73,-1,1,-152,1500.0
18:13:22.641,AUTO,-35.363262,149.1652374,47105,0.000422783603426069,0.0024461618158966303,-0.08722341060638428,-0.03337757661938667,0.030217481777071953,0.07304014265537262,0,0,-982,-32,31,73,-1,1,-152,1500.0
18:13:22.843,AUTO,-35.363262,149.1652374,47105,0.000422783603426069,0.0024461618158966303,-0.08722341060638428,-0.03337757661938667,0.030217481777071953,0.07304014265537262,0,0,-982,-32,31,73,-1,1,-152,1500.0
18:13:23.045,AUTO,-35.363262,149.1652374,47105,0.000422783603426069,0.0024461618158966303,-0.08722341060638428,-0.03337757661938667,0.030217481777071953,0.07304014265537262,0,0,-982,-32,31,73,-1,1,-152,1500.0
18:13:23.247,AUTO,-35.3632632,149.1652356,48468,-0.03002692013978958,0.010685259476304054,0.26583191752433777,0.11956069618463516,-0.21023325622081757,0.18035557866096497,4,10,-943,120,-209,180,-32,-36,-108,1500.0
18:13:23.448,AUTO,-35.3632647,149.1652325,49335,0.0383082814514637,-0.0501980185508728,0.2995813488960266,-0.05137370526790619,0.027668146416544914,-0.029696468263864517,0,0,-968,-50,28,-29,0,-6,-65,1500.0
18:13:23.661,AUTO,-35.3632647,149.1652325,49335,0.0383082814514637,-0.0501980185508728,0.2995813488960266,-0.05137370526790619,0.027668146416544914,-0.029696468263864517,0,0,-968,-50,28,-29,0,-6,-65,1500.0
18:13:23.884,AUTO,-35.3632647,149.1652325,49335,0.0383082814514637,-0.0501980185508728,0.2995813488960266,-0.05137370526790619,0.027668146416544914,-0.029696468263864517,0,0,-968,-50,28,-29,0,-6,-65,1500.0
18:13:24.102,AUTO,-35.3632647,149.1652325,49335,0.0383082814514637,-0.0501980185508728,0.2995813488960266,-0.05137370526790619,0.027668146416544914,-0.029696468263864517,0,0,-968,-50,28,-29,0,-6,-65,1500.0
18:13:24.311,AUTO,-35.3632647,149.1652325,49335,0.0383082814514637,-0.0501980185508728,0.2995813488960266,-0.05137370526790619,0.027668146416544914,-0.029696468263864517,0,0,-968,-50,28,-29,0,-6,-65,1500.0
18:13:24.521,AUTO,-35.3632647,149.1652325,49335,0.0383082814514637,-0.0501980185508728,0.2995813488960266,-0.05137370526790619,0.027668146416544914,-0.029696468263864517,0,0,-968,-50,28,-29,0,-6,-65,1500.0
18:13:24.763,AUTO,-35.3632647,149.1652325,49335,0.0383082814514637,-0.0501980185508728,0.2995813488960266,-0.05137370526790619,0.027668146416544914,-0.029696468263864517,0,0,-968,-50,28,-29,0,-6,-65,1500.0
18:13:24.966,AUTO,-35.3632647,149.1652325,49335,0.0383082814514637,-0.0501980185508728,0.2995813488960266,-0.05137370526790619,0.027668146416544914,-0.029696468263864517,0,0,-968,-50,28,-29,0,-6,-65,1500.0
18:13:25.169,AUTO,-35.3632639,149.1652331,49747,0.039063774049282074,-0.0201406367123127,0.2715635299682617,0.3829682767391205,0.03633857145905495,-0.04300038143992424,-3,-1,-986,381,37,-42,17,22,-43,1500.0
18:13:25.371,AUTO,-35.3632618,149.165237,50133,-0.0017052190378308296,0.013510593213140965,0.2315201312303543,0.5160443782806396,0.00870327465236187,-0.02364020235836506,-1,0,-978,-88,16,-22,13,27,-18,1500.0
18:13:25.577,AUTO,-35.3632618,149.165237,50133,-0.0017052190378308296,0.013510593213140965,0.2315201312303543,0.5160443782806396,0.00870327465236187,-0.02364020235836506,-1,23,-969,522,9,-23,13,27,-18,1500.0
18:13:25.779,AUTO,-35.3632618,149.165237,50133,-0.0017052190378308296,0.013510593213140965,0.2315201312303543,0.5160443782806396,0.00870327465236187,-0.02364020235836506,-1,23,-969,522,9,-23,13,27,-18,1500.0
18:13:25.983,AUTO,-35.3632618,149.165237,50133,-0.0017052190378308296,0.013510593213140965,0.2315201312303543,0.5160443782806396,0.00870327465236187,-0.02364020235836506,-1,23,-969,522,9,-23,13,27,-18,1500.0
18:13:26.185,AUTO,-35.3632618,149.165237,50133,-0.0017052190378308296,0.013510593213140965,0.2315201312303543,0.5160443782806396,0.00870327465236187,-0.02364020235836506,-1,23,-969,522,9,-23,13,27,-18,1500.0
18:13:26.389,AUTO,-35.3632618,149.165237,50133,-0.0017052190378308296,0.013510593213140965,0.2315201312303543,0.5160443782806396,0.00870327465236187,-0.02364020235836506,-1,23,-969,522,9,-23,13,27,-18,1500.0
18:13:26.592,AUTO,-35.3632618,149.165237,50133,-0.0017052190378308296,0.013510593213140965,0.2315201312303543,0.5160443782806396,0.00870327465236187,-0.02364020235836506,-1,23,-969,522,9,-23,13,27,-18,1500.0
18:13:26.799,AUTO,-35.3632618,149.165237,50133,-0.0017052190378308296,0.013510593213140965,0.2315201312303543,0.5160443782806396,0.00870327465236187,-0.02364020235836506,-1,23,-969,522,9,-23,13,27,-18,1500.0
18:13:27.001,AUTO,-35.3632618,149.165237,50133,-0.0017052190378308296,0.013510593213140965,0.2315201312303543,0.5160443782806396,0.00870327465236187,-0.02364020235836506,-1,23,-969,522,9,-23,13,27,-18,1500.0
18:13:27.211,AUTO,-35.3632618,149.165237,50133,-0.0017052190378308296,0.013510593213140965,0.2315201312303543,0.5160443782806396,0.00870327465236187,-0.02364020235836506,-1,23,-969,522,9,-23,13,27,-18,1500.0
18:13:27.414,AUTO,-35.3632614,149.1652394,50040,-0.0013434886932373047,-0.014623722992837429,0.19451041519641876,-0.7238432765007019,-0.052301593124866486,-0.014412120915949345,1,-37,-1027,-461,-99,-10,-2,-2,11,1500.0
18:13:27.616,BRAKE,-35.3632613,149.1652401,49977,0.03680407255887985,-0.03929255157709122,0.17895053327083588,0.3922617733478546,-0.028512876480817795,-0.018084270879626274,0,23,-1021,398,-27,-17,14,18,2,1500.0
18:13:27.819,BRAKE,-35.3632613,149.1652401,49977,0.03680407255887985,-0.03929255157709122,0.17895053327083588,0.3922617733478546,-0.028512876480817795,-0.018084270879626274,0,23,-1021,398,-27,-17,14,18,2,1500.0
18:13:28.025,BRAKE,-35.3632613,149.1652401,49977,0.03680407255887985,-0.03929255157709122,0.17895053327083588,0.3922617733478546,-0.028512876480817795,-0.018084270879626274,0,23,-1021,398,-27,-17,14,18,2,1500.0
18:13:28.244,BRAKE,-35.3632613,149.1652401,49977,0.03680407255887985,-0.03929255157709122,0.17895053327083588,0.3922617733478546,-0.028512876480817795,-0.018084270879626274,0,23,-1021,398,-27,-17,14,18,2,1500.0
18:13:28.478,BRAKE,-35.3632613,149.1652401,49977,0.03680407255887985,-0.03929255157709122,0.17895053327083588,0.3922617733478546,-0.028512876480817795,-0.018084270879626274,0,23,-1021,398,-27,-17,14,18,2,1500.0
18:13:28.704,BRAKE,-35.3632613,149.1652401,49977,0.03680407255887985,-0.03929255157709122,0.17895053327083588,0.3922617733478546,-0.028512876480817795,-0.018084270879626274,0,23,-1021,398,-27,-17,14,18,2,1500.0
18:13:28.949,BRAKE,-35.3632613,149.1652401,49977,0.03680407255887985,-0.03929255157709122,0.17895053327083588,0.3922617733478546,-0.028512876480817795,-0.018084270879626274,0,23,-1021,398,-27,-17,14,18,2,1500.0
18:13:29.192,BRAKE,-35.3632613,149.1652401,49977,0.03680407255887985,-0.03929255157709122,0.17895053327083588,0.3922617733478546,-0.028512876480817795,-0.018084270879626274,0,23,-1021,398,-27,-17,14,18,2,1500.0
18:13:29.423,BRAKE,-35.3632599,149.1652431,49966,-0.013004722073674202,0.009888974018394947,0.16171705722808838,-0.20618171989917755,-0.006396911107003689,-0.012700017541646957,0,0,-1009,-200,-5,-12,13,20,-2,1500.0
18:13:29.650,BRAKE,-35.3632595,149.1652444,49960,-0.007397519424557686,0.005824808031320572,0.14952152967453003,0.48706313967704773,-0.008947355672717094,-0.018639180809259415,0,34,-1041,492,-7,-18,7,9,-1,1500.0
18:13:29.876,BRAKE,-35.3632595,149.1652444,49960,-0.007397519424557686,0.005824808031320572,0.14952152967453003,0.48706313967704773,-0.008947355672717094,-0.018639180809259415,0,34,-1041,492,-7,-18,7,9,-1,1500.0
18:13:30.124,BRAKE,-35.3632595,149.1652444,49960,-0.007397519424557686,0.005824808031320572,0.14952152967453003,0.48706313967704773,-0.008947355672717094,-0.018639180809259415,0,34,-1041,492,-7,-18,7,9,-1,1500.0
18:13:30.326,BRAKE,-35.3632595,149.1652444,49960,-0.007397519424557686,0.005824808031320572,0.14952152967453003,0.48706313967704773,-0.008947355672717094,-0.018639180809259415,0,34,-1041,492,-7,-18,7,9,-1,1500.0
18:13:30.528,BRAKE,-35.3632595,149.1652444,49960,-0.007397519424557686,0.005824808031320572,0.14952152967453003,0.48706313967704773,-0.008947355672717094,-0.018639180809259415,0,34,-1041,492,-7,-18,7,9,-1,1500.0
18:13:30.730,BRAKE,-35.3632595,149.1652444,49960,-0.007397519424557686,0.005824808031320572,0.14952152967453003,0.48706313967704773,-0.008947355672717094,-0.018639180809259415,0,34,-1041,492,-7,-18,7,9,-1,1500.0
18:13:30.933,BRAKE,-35.3632594,149.1652455,49973,-0.005705041345208883,-0.0010431170230731368,0.128166064620018,-0.2691452205181122,-0.0029948148876428604,-0.009603179059922695,0,-31,-998,-273,-1,-9,5,-5,-1,1500.0
18:13:31.136,BRAKE,-35.3632594,149.1652455,49972,-0.013420782051980495,-0.0020048958249390125,0.12545780837535858,-0.5608412623405457,-0.006701688282191753,-0.010652463883161545,-1,-34,-1013,-564,-5,-10,4,-6,-1,1500.0
18:13:31.339,BRAKE,-35.3632594,149.1652455,49973,-0.016257792711257935,-0.0028652113396674395,0.1228974312543869,-0.7152770757675171,-0.0033093243837356567,-0.00723573612049222,0,-22,-995,-714,-2,-6,4,-7,-2,1500.0
18:13:35.122,ALT_HOLD,-35.3632594,149.1652455,49973,-0.016257792711257935,-0.0028652113396674395,0.1228974312543869,-0.7152770757675171,-0.0033093243837356567,-0.00723573612049222,0,-22,-995,-714,-2,-6,4,-7,-2,1500.0
18:13:35.325,ALT_HOLD,-35.3632594,149.1652455,49973,-0.016257792711257935,-0.0028652113396674395,0.1228974312543869,-0.7152770757675171,-0.0033093243837356567,-0.00723573612049222,0,-22,-995,-714,-2,-6,4,-7,-2,1500.0
18:13:35.534,ALT_HOLD,-35.3632594,149.1652455,49973,-0.016257792711257935,-0.0028652113396674395,0.1228974312543869,-0.7152770757675171,-0.0033093243837356567,-0.00723573612049222,0,-22,-995,-714,-2,-6,4,-7,-2,1500.0
18:13:35.737,ALT_HOLD,-35.3632594,149.1652455,49973,-0.016257792711257935,-0.0028652113396674395,0.1228974312543869,-0.7152770757675171,-0.0033093243837356567,-0.00723573612049222,0,-22,-995,-714,-2,-6,4,-7,-2,1500.0
18:13:35.942,ALT_HOLD,-35.3632594,149.1652455,49973,-0.016257792711257935,-0.0028652113396674395,0.1228974312543869,-0.7152770757675171,-0.0033093243837356567,-0.00723573612049222,0,-22,-995,-714,-2,-6,4,-7,-2,1500.0
