time_stamp,MODE,lat,lon,relative_alt,roll,pitch,yaw,rollspeed,pitchspeed,yawspeed,xacc,yacc,zacc,xgyro,ygyro,zgyro,vx,vy,vz,RTL_ALT
23:26:33.087,STABILIZE,-35.3632622,149.1652374,0,-0.00044476374750956893,0.0013562347739934921,0.02754061110317707,0.000100275210570544,0.00027928108465857804,0.00212967861443758,0,1,-1000,0,0,0,-2,1,-1,114086.0
23:26:33.288,STABILIZE,-35.3632622,149.1652374,0,-0.00044476374750956893,0.0013562347739934921,0.02754061110317707,0.000100275210570544,0.00027928108465857804,0.00212967861443758,0,1,-1000,0,0,0,-2,1,-1,114086.0
23:26:33.495,STABILIZE,-35.3632622,149.1652374,0,-0.00044476374750956893,0.0013562347739934921,0.02754061110317707,0.000100275210570544,0.00027928108465857804,0.00212967861443758,0,1,-1000,0,0,0,-2,1,-1,114086.0
23:26:33.697,STABILIZE,-35.3632622,149.1652374,0,-0.00044476374750956893,0.0013562347739934921,0.02754061110317707,0.000100275210570544,0.00027928108465857804,0.00212967861443758,0,1,-1000,0,0,0,-2,1,-1,114086.0
23:26:33.899,STABILIZE,-35.3632622,149.1652374,0,-0.00044476374750956893,0.0013562347739934921,0.02754061110317707,0.000100275210570544,0.00027928108465857804,0.00212967861443758,0,1,-1000,0,0,0,-2,1,-1,114086.0
23:26:34.100,STABILIZE,-35.3632622,149.1652374,0,-0.00044476374750956893,0.0013562347739934921,0.02754061110317707,0.000100275210570544,0.00027928108465857804,0.00212967861443758,0,1,-1000,0,0,0,-2,1,-1,114086.0
23:26:34.301,STABILIZE,-35.3632622,149.1652374,0,-0.00044476374750956893,0.0013562347739934921,0.02754061110317707,0.000100275210570544,0.00027928108465857804,0.00212967861443758,0,1,-1000,0,0,0,-2,1,-1,114086.0
23:26:34.502,STABILIZE,-35.3632622,149.1652374,0,-0.00044476374750956893,0.0013562347739934921,0.02754061110317707,0.000100275210570544,0.00027928108465857804,0.00212967861443758,0,1,-1000,0,0,0,-2,1,-1,114086.0
23:26:34.703,STABILIZE,-35.3632622,149.1652374,0,-0.00044476374750956893,0.0013562347739934921,0.02754061110317707,0.000100275210570544,0.00027928108465857804,0.00212967861443758,0,1,-1000,0,0,0,-2,1,-1,114086.0
23:26:34.905,STABILIZE,-35.3632622,149.1652374,0,-0.0008156123803928494,0.0010301588336005807,0.026517177000641823,0.0003128013340756297,0.00034396551200188696,0.0021354088094085455,0,1,-1000,0,0,0,-1,1,0,114086.0
23:26:35.106,STABILIZE,-35.3632622,149.1652374,0,-0.0008156123803928494,0.0010301588336005807,0.026517177000641823,0.0003128013340756297,0.00034396551200188696,0.0021354088094085455,0,1,-1000,0,0,0,-1,1,0,114086.0
23:26:35.308,STABILIZE,-35.3632622,149.1652374,0,-0.0008156123803928494,0.0010301588336005807,0.026517177000641823,0.0003128013340756297,0.00034396551200188696,0.0021354088094085455,0,1,-1000,0,0,0,-1,1,0,114086.0
23:26:35.509,STABILIZE,-35.3632622,149.1652374,0,-0.0008156123803928494,0.0010301588336005807,0.026517177000641823,0.0003128013340756297,0.00034396551200188696,0.0021354088094085455,0,1,-1000,0,0,0,-1,1,0,114086.0
23:26:35.710,STABILIZE,-35.3632622,149.1652374,0,-0.0008156123803928494,0.0010301588336005807,0.026517177000641823,0.0003128013340756297,0.00034396551200188696,0.0021354088094085455,0,1,-1000,0,0,0,-1,1,0,114086.0
23:26:35.911,STABILIZE,-35.3632622,149.1652374,0,-0.0008156123803928494,0.0010301588336005807,0.026517177000641823,0.0003128013340756297,0.00034396551200188696,0.0021354088094085455,0,1,-1000,0,0,0,-1,1,0,114086.0
23:26:36.113,STABILIZE,-35.3632622,149.1652374,0,-0.0008156123803928494,0.0010301588336005807,0.026517177000641823,0.0003128013340756297,0.00034396551200188696,0.0021354088094085455,0,1,-1000,0,0,0,-1,1,0,114086.0
23:26:36.314,STABILIZE,-35.3632622,149.1652374,0,-0.0008156123803928494,0.0010301588336005807,0.026517177000641823,0.0003128013340756297,0.00034396551200188696,0.0021354088094085455,0,1,-1000,0,0,0,-1,1,0,114086.0
23:26:36.515,STABILIZE,-35.3632622,149.1652374,0,-0.0008156123803928494,0.0010301588336005807,0.026517177000641823,0.0003128013340756297,0.00034396551200188696,0.0021354088094085455,0,1,-1000,0,0,0,-1,1,0,114086.0
23:26:36.716,STABILIZE,-35.3632622,149.1652374,0,-0.0008156123803928494,0.0010301588336005807,0.026517177000641823,0.0003128013340756297,0.00034396551200188696,0.0021354088094085455,0,1,-1000,0,0,0,-1,1,0,114086.0
23:26:36.917,STABILIZE,-35.3632621,149.1652374,0,-0.0008583699818700552,0.0009403902222402394,0.0256876889616251,0.00014492234913632274,0.0001963990507647395,0.0019416611175984144,0,1,-1000,0,1,0,-1,1,0,114086.0
23:26:37.119,STABILIZE,-35.3632621,149.1652374,0,-0.0008583699818700552,0.0009403902222402394,0.0256876889616251,0.00014492234913632274,0.0001963990507647395,0.0019416611175984144,0,1,-1000,0,1,0,-1,1,0,114086.0
23:26:37.320,STABILIZE,-35.3632621,149.1652374,0,-0.0008583699818700552,0.0009403902222402394,0.0256876889616251,0.00014492234913632274,0.0001963990507647395,0.0019416611175984144,0,1,-1000,0,1,0,-1,1,0,114086.0
23:26:37.521,STABILIZE,-35.3632621,149.1652374,0,-0.0008583699818700552,0.0009403902222402394,0.0256876889616251,0.00014492234913632274,0.0001963990507647395,0.0019416611175984144,0,1,-1000,0,1,0,-1,1,0,114086.0
23:26:37.722,STABILIZE,-35.3632621,149.1652374,0,-0.0008583699818700552,0.0009403902222402394,0.0256876889616251,0.00014492234913632274,0.0001963990507647395,0.0019416611175984144,0,1,-1000,0,1,0,-1,1,0,114086.0
23:26:37.923,STABILIZE,-35.3632621,149.1652374,0,-0.0008583699818700552,0.0009403902222402394,0.0256876889616251,0.00014492234913632274,0.0001963990507647395,0.0019416611175984144,0,1,-1000,0,1,0,-1,1,0,114086.0
23:26:38.125,STABILIZE,-35.3632621,149.1652374,0,-0.0008583699818700552,0.0009403902222402394,0.0256876889616251,0.00014492234913632274,0.0001963990507647395,0.0019416611175984144,0,1,-1000,0,1,0,-1,1,0,114086.0
23:26:38.326,STABILIZE,-35.3632621,149.1652374,0,-0.0008583699818700552,0.0009403902222402394,0.0256876889616251,0.00014492234913632274,0.0001963990507647395,0.0019416611175984144,0,1,-1000,0,1,0,-1,1,0,114086.0
23:26:38.528,STABILIZE,-35.3632621,149.1652374,0,-0.0009688656427897513,0.0009267672430723906,0.025101857259869576,0.0003556378069333732,0.00021354813361540437,0.0017959679244086146,0,1,-1000,0,0,0,-1,1,0,114086.0
23:26:38.729,STABILIZE,-35.3632621,149.1652374,0,-0.0009688656427897513,0.0009267672430723906,0.025101857259869576,0.0003556378069333732,0.00021354813361540437,0.0017959679244086146,0,1,-1000,0,0,0,-1,1,0,114086.0
23:26:38.931,STABILIZE,-35.3632621,149.1652374,0,-0.0009688656427897513,0.0009267672430723906,0.025101857259869576,0.0003556378069333732,0.00021354813361540437,0.0017959679244086146,0,1,-1000,0,0,0,-1,1,0,114086.0
23:26:39.132,STABILIZE,-35.3632621,149.1652374,0,-0.0009688656427897513,0.0009267672430723906,0.025101857259869576,0.0003556378069333732,0.00021354813361540437,0.0017959679244086146,0,1,-1000,0,0,0,-1,1,0,114086.0
23:26:39.333,STABILIZE,-35.3632621,149.1652374,0,-0.0009688656427897513,0.0009267672430723906,0.025101857259869576,0.0003556378069333732,0.00021354813361540437,0.0017959679244086146,0,1,-1000,0,0,0,-1,1,0,114086.0
23:26:39.535,STABILIZE,-35.3632621,149.1652374,0,-0.0009688656427897513,0.0009267672430723906,0.025101857259869576,0.0003556378069333732,0.00021354813361540437,0.0017959679244086146,0,1,-1000,0,0,0,-1,1,0,114086.0
23:26:39.736,STABILIZE,-35.3632621,149.1652375,0,-0.0009660993819124997,0.000961949466727674,0.024653969332575798,0.00010540254879742861,0.0002932535717263818,0.0018128631636500359,0,1,-1000,0,1,0,-1,1,0,114086.0
23:26:39.937,STABILIZE,-35.3632621,149.1652375,0,-0.0009660993819124997,0.000961949466727674,0.024653969332575798,0.00010540254879742861,0.0002932535717263818,0.0018128631636500359,0,1,-1000,0,1,0,-1,1,0,114086.0
23:26:40.138,STABILIZE,-35.3632621,149.1652375,0,-0.0009660993819124997,0.000961949466727674,0.024653969332575798,0.00010540254879742861,0.0002932535717263818,0.0018128631636500359,0,1,-1000,0,1,0,-1,1,0,114086.0
23:26:40.339,STABILIZE,-35.3632621,149.1652375,0,-0.0009660993819124997,0.000961949466727674,0.024653969332575798,0.00010540254879742861,0.0002932535717263818,0.0018128631636500359,0,1,-1000,0,1,0,-1,1,0,114086.0
23:26:40.540,STABILIZE,-35.3632621,149.1652375,0,-0.001074334024451673,0.0009721333626657724,0.024405397474765778,0.00018340471433475614,0.00020790938287973404,0.0017915423959493637,0,2,-1000,0,0,0,-1,1,0,114086.0
23:26:40.741,STABILIZE,-35.3632622,149.1652375,0,-0.0011095707304775715,0.0009722663089632988,0.02433648519217968,0.00015874288510531187,0.00028186821145936847,0.0016520952340215445,0,1,-1000,1,0,0,-1,1,0,114086.0
23:26:40.943,STABILIZE,-35.3632622,149.1652375,0,-0.0011095707304775715,0.0009722663089632988,0.02433648519217968,0.00015874288510531187,0.00028186821145936847,0.0016520952340215445,0,1,-1000,0,0,0,-1,1,0,114086.0
23:26:41.145,STABILIZE,-35.3632622,149.1652375,0,-0.0011095707304775715,0.0009722663089632988,0.02433648519217968,0.00015874288510531187,0.00028186821145936847,0.0016520952340215445,0,1,-1000,0,0,0,-1,1,0,114086.0
23:26:41.346,STABILIZE,-35.3632622,149.1652375,0,-0.0011095707304775715,0.0009722663089632988,0.02433648519217968,0.00015874288510531187,0.00028186821145936847,0.0016520952340215445,0,1,-1000,0,0,0,-1,1,0,114086.0
23:26:41.547,STABILIZE,-35.3632622,149.1652375,0,-0.0011095707304775715,0.0009722663089632988,0.02433648519217968,0.00015874288510531187,0.00028186821145936847,0.0016520952340215445,0,1,-1000,0,0,0,-1,1,0,114086.0
23:26:41.748,STABILIZE,-35.3632622,149.1652375,0,-0.0011095707304775715,0.0009722663089632988,0.02433648519217968,0.00015874288510531187,0.00028186821145936847,0.0016520952340215445,0,1,-1000,0,0,0,-1,1,0,114086.0
23:26:41.949,STABILIZE,-35.3632622,149.1652375,0,-0.0011095707304775715,0.0009722663089632988,0.02433648519217968,0.00015874288510531187,0.00028186821145936847,0.0016520952340215445,0,1,-1000,0,0,0,-1,1,0,114086.0
23:26:42.151,STABILIZE,-35.3632622,149.1652375,0,-0.0011095707304775715,0.0009722663089632988,0.02433648519217968,0.00015874288510531187,0.00028186821145936847,0.0016520952340215445,0,1,-1000,0,0,0,-1,1,0,114086.0
23:26:42.352,STABILIZE,-35.3632622,149.1652375,0,-0.0012498985743150115,0.0009806271409615874,0.023912137374281883,0.00010842765914276242,0.0002465856960043311,0.0016992738237604499,0,1,-1000,0,0,0,-1,1,0,114086.0
23:26:42.553,STABILIZE,-35.3632622,149.1652375,0,-0.0012498985743150115,0.0009806271409615874,0.023912137374281883,0.00010842765914276242,0.0002465856960043311,0.0016992738237604499,0,1,-1000,0,0,0,-1,1,0,114086.0
23:26:42.754,STABILIZE,-35.3632622,149.1652375,0,-0.0012491184752434492,0.0009755010833032429,0.023761413991451263,0.0003174886805936694,0.0002670118701644242,0.0017455529887229204,0,2,-1000,0,0,0,-1,0,0,114086.0
23:26:42.955,STABILIZE,-35.3632622,149.1652375,0,-0.0012535112909972668,0.0009770151227712631,0.023707818239927292,0.00024261989165097475,0.00026673550019040704,0.0017531740013509989,0,2,-1000,0,0,0,-1,0,0,114086.0
23:26:43.157,STABILIZE,-35.3632622,149.1652375,0,-0.0012535112909972668,0.0009770151227712631,0.023707818239927292,0.00024261989165097475,0.00026673550019040704,0.0017531740013509989,0,2,-1000,0,0,0,-1,0,0,114086.0
23:26:43.358,STABILIZE,-35.3632622,149.1652375,0,-0.0012535112909972668,0.0009770151227712631,0.023707818239927292,0.00024261989165097475,0.00026673550019040704,0.0017531740013509989,0,2,-1000,0,0,0,-1,0,0,114086.0
23:26:43.559,STABILIZE,-35.3632622,149.1652375,0,-0.0012535112909972668,0.0009770151227712631,0.023707818239927292,0.00024261989165097475,0.00026673550019040704,0.0017531740013509989,0,2,-1000,0,0,0,-1,0,0,114086.0
23:26:43.760,STABILIZE,-35.3632622,149.1652375,0,-0.0012419503182172775,0.0009752317564561963,0.023509282618761063,0.0002298443578183651,0.00025535246822983027,0.0015126504004001617,0,1,-1000,1,0,0,-1,0,0,114086.0
23:26:43.962,STABILIZE,-35.3632622,149.1652375,0,-0.0012419503182172775,0.0009752317564561963,0.023509282618761063,0.0002298443578183651,0.00025535246822983027,0.0015126504004001617,0,1,-1000,0,0,1,-1,0,0,114086.0
23:26:44.163,STABILIZE,-35.3632622,149.1652375,0,-0.0012419503182172775,0.0009752317564561963,0.023509282618761063,0.0002298443578183651,0.00025535246822983027,0.0015126504004001617,0,1,-1000,0,0,1,-1,0,0,114086.0
23:26:44.364,STABILIZE,-35.3632622,149.1652375,0,-0.0012263682438060641,0.0009760469547472894,0.02339315228164196,0.0002909362083300948,0.0003616325557231903,0.001629353268072009,0,1,-1000,0,0,0,-1,0,0,114086.0
23:26:44.565,STABILIZE,-35.3632622,149.1652375,0,-0.0012263682438060641,0.0009760469547472894,0.02339315228164196,0.0002909362083300948,0.0003616325557231903,0.001629353268072009,0,1,-1000,0,0,0,-1,0,0,114086.0
23:26:44.767,STABILIZE,-35.3632622,149.1652375,0,-0.0012263682438060641,0.0009760469547472894,0.02339315228164196,0.0002909362083300948,0.0003616325557231903,0.001629353268072009,0,1,-1000,0,0,0,-1,0,0,114086.0
23:26:44.968,STABILIZE,-35.3632622,149.1652375,0,-0.0012263682438060641,0.0009760469547472894,0.02339315228164196,0.0002909362083300948,0.0003616325557231903,0.001629353268072009,0,1,-1000,0,0,0,-1,0,0,114086.0
23:26:45.169,STABILIZE,-35.3632622,149.1652375,0,-0.0012263682438060641,0.0009760469547472894,0.02339315228164196,0.0002909362083300948,0.0003616325557231903,0.001629353268072009,0,1,-1000,0,0,0,-1,0,0,114086.0
23:26:45.370,STABILIZE,-35.3632622,149.1652375,0,-0.0012263682438060641,0.0009760469547472894,0.02339315228164196,0.0002909362083300948,0.0003616325557231903,0.001629353268072009,0,1,-1000,0,0,0,-1,0,0,114086.0
23:26:45.571,STABILIZE,-35.3632622,149.1652375,0,-0.0012263682438060641,0.0009760469547472894,0.02339315228164196,0.0002909362083300948,0.0003616325557231903,0.001629353268072009,0,1,-1000,0,0,0,-1,0,0,114086.0
23:26:45.773,STABILIZE,-35.3632622,149.1652375,0,-0.0012263682438060641,0.0009760469547472894,0.02339315228164196,0.0002909362083300948,0.0003616325557231903,0.001629353268072009,0,1,-1000,0,0,0,-1,0,0,114086.0
23:26:45.974,STABILIZE,-35.3632622,149.1652375,0,-0.001056378590874374,0.0009780708933249116,0.022991839796304703,0.00010802492033690214,0.0003539504250511527,0.0015001606661826372,0,1,-1000,0,0,0,-1,0,0,114086.0
23:26:46.175,STABILIZE,-35.3632622,149.1652375,0,-0.001056378590874374,0.0009780708933249116,0.022991839796304703,0.00010802492033690214,0.0003539504250511527,0.0015001606661826372,0,1,-1000,0,0,0,-1,0,0,114086.0
23:26:46.376,STABILIZE,-35.3632622,149.1652375,0,-0.001056378590874374,0.0009780708933249116,0.022991839796304703,0.00010802492033690214,0.0003539504250511527,0.0015001606661826372,0,1,-1000,0,0,0,-1,0,0,114086.0
23:26:46.577,STABILIZE,-35.3632622,149.1652375,0,-0.001056378590874374,0.0009780708933249116,0.022991839796304703,0.00010802492033690214,0.0003539504250511527,0.0015001606661826372,0,1,-1000,0,0,0,-1,0,0,114086.0
23:26:46.778,STABILIZE,-35.3632622,149.1652375,0,-0.001056378590874374,0.0009780708933249116,0.022991839796304703,0.00010802492033690214,0.0003539504250511527,0.0015001606661826372,0,1,-1000,0,0,0,-1,0,0,114086.0
23:26:46.980,STABILIZE,-35.3632622,149.1652375,0,-0.001056378590874374,0.0009780708933249116,0.022991839796304703,0.00010802492033690214,0.0003539504250511527,0.0015001606661826372,0,1,-1000,0,0,0,-1,0,0,114086.0
23:26:47.181,STABILIZE,-35.3632622,149.1652375,0,-0.001056378590874374,0.0009780708933249116,0.022991839796304703,0.00010802492033690214,0.0003539504250511527,0.0015001606661826372,0,1,-1000,0,0,0,-1,0,0,114086.0
23:26:47.382,STABILIZE,-35.3632622,149.1652375,0,-0.001056378590874374,0.0009780708933249116,0.022991839796304703,0.00010802492033690214,0.0003539504250511527,0.0015001606661826372,0,1,-1000,0,0,0,-1,0,0,114086.0
23:26:47.584,STABILIZE,-35.3632622,149.1652375,0,-0.001056378590874374,0.0009780708933249116,0.022991839796304703,0.00010802492033690214,0.0003539504250511527,0.0015001606661826372,0,1,-1000,0,0,0,-1,0,0,114086.0
23:26:47.785,STABILIZE,-35.3632622,149.1652375,0,-0.0011797811603173614,0.0009832243667915463,0.022598983719944954,0.0003461501910351217,0.0002457285299897194,0.0014878339134156704,0,1,-1000,0,0,0,-1,1,0,114086.0
23:26:47.986,STABILIZE,-35.3632622,149.1652375,0,-0.0011797811603173614,0.0009832243667915463,0.022598983719944954,0.0003461501910351217,0.0002457285299897194,0.0014878339134156704,0,1,-1000,0,0,0,-1,1,0,114086.0
23:26:48.188,STABILIZE,-35.3632622,149.1652375,0,-0.0011797811603173614,0.0009832243667915463,0.022598983719944954,0.0003461501910351217,0.0002457285299897194,0.0014878339134156704,0,1,-1000,0,0,0,-1,1,0,114086.0
23:26:48.390,STABILIZE,-35.3632622,149.1652375,0,-0.0011797811603173614,0.0009832243667915463,0.022598983719944954,0.0003461501910351217,0.0002457285299897194,0.0014878339134156704,0,1,-1000,0,0,0,-1,1,0,114086.0
23:26:48.592,STABILIZE,-35.3632622,149.1652375,0,-0.001212269184179604,0.0009876558324322104,0.022440923377871513,0.00021877815015614033,0.00023031409364193678,0.0015578099992126226,0,1,-1000,0,0,0,-1,1,0,114086.0
23:26:48.793,STABILIZE,-35.3632622,149.1652375,0,-0.0012159539619460702,0.000985668390057981,0.022391019389033318,0.00025104416999965906,0.00021557119907811284,0.0013550752773880959,0,1,-1000,1,1,0,-1,1,0,114086.0
23:26:48.995,STABILIZE,-35.3632622,149.1652375,0,-0.0012159539619460702,0.000985668390057981,0.022391019389033318,0.00025104416999965906,0.00021557119907811284,0.0013550752773880959,0,1,-1000,1,0,1,-1,1,0,114086.0
23:26:49.196,STABILIZE,-35.3632622,149.1652375,0,-0.0012159539619460702,0.000985668390057981,0.022391019389033318,0.00025104416999965906,0.00021557119907811284,0.0013550752773880959,0,1,-1000,1,0,1,-1,1,0,114086.0
23:26:49.398,STABILIZE,-35.3632622,149.1652375,0,-0.0012159539619460702,0.000985668390057981,0.022391019389033318,0.00025104416999965906,0.00021557119907811284,0.0013550752773880959,0,1,-1000,1,0,1,-1,1,0,114086.0
23:26:49.599,STABILIZE,-35.3632622,149.1652375,0,-0.0012159539619460702,0.000985668390057981,0.022391019389033318,0.00025104416999965906,0.00021557119907811284,0.0013550752773880959,0,1,-1000,1,0,1,-1,1,0,114086.0
23:26:49.801,STABILIZE,-35.3632622,149.1652375,0,-0.0010414854623377323,0.0009667864069342613,0.022191844880580902,0.0004173438064754009,0.00029379985062405467,0.0014296398730948567,0,1,-1000,1,0,1,-1,0,0,114086.0
23:26:50.002,STABILIZE,-35.3632622,149.1652375,0,-0.0010414854623377323,0.0009667864069342613,0.022191844880580902,0.0004173438064754009,0.00029379985062405467,0.0014296398730948567,0,1,-1000,0,1,0,-1,0,0,114086.0
23:26:50.203,STABILIZE,-35.3632622,149.1652375,0,-0.0010414854623377323,0.0009667864069342613,0.022191844880580902,0.0004173438064754009,0.00029379985062405467,0.0014296398730948567,0,1,-1000,0,1,0,-1,0,0,114086.0
23:26:50.404,STABILIZE,-35.3632622,149.1652375,0,-0.0010414854623377323,0.0009667864069342613,0.022191844880580902,0.0004173438064754009,0.00029379985062405467,0.0014296398730948567,0,1,-1000,0,1,0,-1,0,0,114086.0
23:26:50.605,STABILIZE,-35.3632622,149.1652375,0,-0.0010414854623377323,0.0009667864069342613,0.022191844880580902,0.0004173438064754009,0.00029379985062405467,0.0014296398730948567,0,1,-1000,0,1,0,-1,0,0,114086.0
23:26:50.807,STABILIZE,-35.3632622,149.1652375,0,-0.0010414854623377323,0.0009667864069342613,0.022191844880580902,0.0004173438064754009,0.00029379985062405467,0.0014296398730948567,0,1,-1000,0,1,0,-1,0,0,114086.0
23:26:51.008,STABILIZE,-35.3632622,149.1652375,0,-0.0009449945064261556,0.0009712439496070147,0.021952129900455475,0.00024383171694353223,0.0002985223545692861,0.0014553220244124532,0,1,-1000,0,1,0,-1,0,0,114086.0
23:26:51.210,STABILIZE,-35.3632622,149.1652375,0,-0.0009449945064261556,0.0009712439496070147,0.021952129900455475,0.00024383171694353223,0.0002985223545692861,0.0014553220244124532,0,1,-1000,0,1,0,-1,0,0,114086.0
23:26:51.412,AUTO,-35.3632622,149.1652375,0,-0.0009449945064261556,0.0009712439496070147,0.021952129900455475,0.00024383171694353223,0.0002985223545692861,0.0014553220244124532,0,1,-1000,0,1,0,-1,0,0,114086.0
23:26:51.613,AUTO,-35.3632622,149.1652375,0,-0.0009449945064261556,0.0009712439496070147,0.021952129900455475,0.00024383171694353223,0.0002985223545692861,0.0014553220244124532,0,1,-1000,0,1,0,-1,0,0,114086.0
23:26:51.814,AUTO,-35.3632622,149.1652375,4,-0.0009018332348205149,0.0009943119948729873,0.021813418716192245,0.00031403294997289777,0.00032771489350125194,0.0014789041597396135,0,1,-1000,0,0,1,-1,1,0,114086.0
23:26:52.015,AUTO,-35.3632622,149.1652375,5,-0.0008913090568967164,0.0010008885292336345,0.02176392637193203,0.00029880856163799763,0.00025159207871183753,0.0013334988616406918,0,1,-1000,0,0,0,-1,1,0,114086.0
23:26:52.250,AUTO,-35.3632621,149.1652375,5,-0.0008779796771705151,0.001017433824017644,0.021718686446547508,0.0003252424648962915,0.00014922983245924115,0.0014449427835643291,0,2,-1000,0,0,1,0,0,0,114086.0
23:26:52.453,AUTO,-35.3632621,149.1652375,5,-0.0008423927938565612,0.0010501641081646085,0.021656159311532974,0.0002765362150967121,0.00028099818155169487,0.0013780348235741258,0,2,-1000,0,1,1,0,0,0,114086.0
23:26:52.668,AUTO,-35.3632621,149.1652375,5,-0.0008423927938565612,0.0010501641081646085,0.021656159311532974,0.0002765362150967121,0.00028099818155169487,0.0013780348235741258,0,2,-1000,0,1,1,0,0,0,114086.0
23:26:52.872,AUTO,-35.3632621,149.1652375,3,-0.0004766600322909653,0.0010979828657582402,0.021599726751446724,0.00031802430748939514,0.00018702837405726314,0.0014237882569432259,0,1,-1000,1,1,1,0,1,0,114086.0
23:26:53.089,AUTO,-35.3632621,149.1652375,1,-0.00043734084465540946,0.0011533881770446897,0.021554123610258102,0.00022219866514205933,0.00018910836661234498,0.0014961452689021826,0,1,-1000,0,0,0,0,1,0,114086.0
23:26:53.347,AUTO,-35.3632621,149.1652375,1,-0.00043734084465540946,0.0011533881770446897,0.021554123610258102,0.00022219866514205933,0.00018910836661234498,0.0014961452689021826,0,1,-1000,0,0,0,0,1,0,114086.0
23:26:53.554,AUTO,-35.3632621,149.1652375,1,-0.00043734084465540946,0.0011533881770446897,0.021554123610258102,0.00022219866514205933,0.00018910836661234498,0.0014961452689021826,0,1,-1000,0,0,0,0,1,0,114086.0
23:26:53.756,AUTO,-35.3632621,149.1652375,0,-0.00027251578285358846,0.0013528098352253437,0.021358657628297806,0.00033568142680451274,0.00030217261519283056,0.0012768213637173176,0,1,-1000,0,0,0,0,0,0,114086.0
23:26:53.957,AUTO,-35.3632621,149.1652375,0,-0.00021168489183764905,0.0014260266907513142,0.02129584737122059,0.00036366621498018503,0.00033871212508529425,0.0012898014392703772,0,2,-1000,0,1,0,0,0,0,114086.0
23:26:54.159,AUTO,-35.3632621,149.1652375,0,-0.00021168489183764905,0.0014260266907513142,0.02129584737122059,0.00036366621498018503,0.00033871212508529425,0.0012898014392703772,0,2,-1000,0,1,0,0,0,0,124216.0
23:26:54.360,AUTO,-35.3632621,149.1652375,0,-0.00015336390060838312,0.0015006953617557883,0.021212853491306305,0.0003191789146512747,0.0003351512714289129,0.0012492575915530324,0,1,-1000,1,0,0,0,0,0,124216.0
23:26:54.561,AUTO,-35.3632621,149.1652375,0,-9.099589806282893e-05,0.0015736675122752786,0.021146943792700768,0.0002803875249810517,0.000347362132743001,0.001319168135523796,0,1,-1000,1,1,0,0,0,0,124216.0
23:26:54.763,AUTO,-35.3632621,149.1652375,0,-1.3120513358444441e-05,0.0016414530109614134,0.021081022918224335,0.00033638556487858295,0.00037497113225981593,0.0011922846315428615,0,1,-1000,0,1,0,0,0,0,124216.0
23:26:54.964,AUTO,-35.3632621,149.1652375,0,6.369976472342387e-05,0.0017174513777717948,0.021000871434807777,0.00044823839562013745,0.00031736562959849834,0.0013585850829258561,0,2,-1000,1,0,0,0,0,0,124216.0
23:26:55.165,AUTO,-35.3632621,149.1652375,0,6.369976472342387e-05,0.0017174513777717948,0.021000871434807777,0.00044823839562013745,0.00031736562959849834,0.0013585850829258561,0,2,-1000,1,0,0,0,0,0,124216.0
23:26:55.367,AUTO,-35.3632621,149.1652375,0,6.369976472342387e-05,0.0017174513777717948,0.021000871434807777,0.00044823839562013745,0.00031736562959849834,0.0013585850829258561,0,2,-1000,1,0,0,0,0,0,124216.0
23:26:55.568,AUTO,-35.3632621,149.1652375,0,6.369976472342387e-05,0.0017174513777717948,0.021000871434807777,0.00044823839562013745,0.00031736562959849834,0.0013585850829258561,0,2,-1000,1,0,0,0,0,0,124216.0
23:26:55.769,AUTO,-35.3632621,149.1652375,187,0.003502645529806614,9.677514026407152e-05,0.020856482908129692,-0.00046288466546684504,0.004639587365090847,0.0017723905621096492,0,0,-1131,0,5,1,0,0,-70,124216.0
23:26:55.971,AUTO,-35.3632621,149.1652375,400,0.0024294117465615273,0.0011560997227206826,0.020941942930221558,-0.0025759106501936913,0.0030651583801954985,0.0013225107686594129,0,0,-1109,-1,3,1,0,1,-99,124216.0
23:26:56.172,AUTO,-35.3632621,149.1652375,400,0.0024294117465615273,0.0011560997227206826,0.020941942930221558,-0.0025759106501936913,0.0030651583801954985,0.0013225107686594129,0,0,-1109,-1,3,1,0,1,-99,124216.0
23:26:56.374,AUTO,-35.3632621,149.1652375,680,0.0017727069789543748,0.001732338685542345,0.02079392969608307,-0.00097260921029374,0.00044082041131332517,0.0006885698530822992,0,0,-1089,0,1,0,0,1,-123,124216.0
23:26:56.575,AUTO,-35.3632621,149.1652375,1015,0.010464626364409924,0.0009602350764907897,0.02040507271885872,0.04720606282353401,-0.005629520397633314,0.001040400704368949,0,0,-1042,47,-4,0,0,1,-138,124216.0
23:26:56.777,AUTO,-35.3632621,149.1652375,1380,0.022286249324679375,-0.0007693018415011466,0.020314276218414307,0.04691920056939125,-0.007381778676062822,0.0018951810197904706,0,0,-1018,47,-6,1,0,5,-144,124216.0
23:26:56.978,AUTO,-35.363262,149.1652377,1757,0.033728353679180145,-0.0027311057783663273,0.02040310949087143,0.04512924700975418,-0.007812041323632002,0.002605095040053129,0,-1,-1007,45,-7,2,1,11,-147,124216.0
23:26:57.180,AUTO,-35.363262,149.1652377,1757,0.033728353679180145,-0.0027311057783663273,0.02040310949087143,0.04512924700975418,-0.007812041323632002,0.002605095040053129,0,-1,-1007,45,-7,2,1,11,-147,124216.0
23:26:57.382,AUTO,-35.363262,149.1652377,1757,0.033728353679180145,-0.0027311057783663273,0.02040310949087143,0.04512924700975418,-0.007812041323632002,0.002605095040053129,0,-1,-1007,45,-7,2,1,11,-147,124216.0
23:26:57.583,AUTO,-35.363262,149.1652377,1757,0.033728353679180145,-0.0027311057783663273,0.02040310949087143,0.04512924700975418,-0.007812041323632002,0.002605095040053129,0,-1,-1007,45,-7,2,1,11,-147,124216.0
23:26:57.785,AUTO,-35.3632616,149.1652397,2910,0.06255560368299484,-0.009548344649374485,-0.007708319462835789,0.004392596427351236,0.009058765135705471,-0.030465686693787575,2,-8,-994,5,9,-30,8,42,-148,124216.0
23:26:57.986,AUTO,-35.3632614,149.165241,3290,0.04380941018462181,0.011137749068439007,-0.02937585674226284,-0.13054035604000092,0.09966261684894562,-0.10112690925598145,3,-10,-991,-130,100,-101,9,53,-145,124216.0
23:26:58.201,AUTO,-35.3632614,149.165241,3290,0.04380941018462181,0.011137749068439007,-0.02937585674226284,-0.13054035604000092,0.09966261684894562,-0.10112690925598145,3,-10,-991,-130,100,-101,9,53,-145,124216.0
23:26:58.475,AUTO,-35.363261,149.1652438,4046,-0.020722126588225365,0.008180701173841953,-0.051917124539613724,-0.04215501248836517,-0.07495854794979095,-0.0006269215373322368,5,-11,-1011,-41,-74,0,4,47,-147,124216.0
23:26:58.713,AUTO,-35.3632608,149.165245,4429,-0.02790723368525505,-0.005150497891008854,-0.05200541391968727,-0.03168248012661934,-0.021070241928100586,-0.021815547719597816,3,-9,-1004,-31,-20,-22,6,38,-149,124216.0
23:26:58.933,AUTO,-35.3632608,149.165245,4429,-0.02790723368525505,-0.005150497891008854,-0.05200541391968727,-0.03168248012661934,-0.021070241928100586,-0.021815547719597816,3,-9,-1004,-31,-20,-22,6,38,-149,124216.0
23:26:59.147,AUTO,-35.3632606,149.1652459,4814,-0.04126693680882454,-0.002485787495970726,-0.06253993511199951,-0.07215113192796707,0.03397834673523903,-0.05897212401032448,2,-8,-999,-71,34,-58,8,27,-149,124216.0
23:26:59.349,AUTO,-35.3632606,149.1652459,4814,-0.04126693680882454,-0.002485787495970726,-0.06253993511199951,-0.07215113192796707,0.03397834673523903,-0.05897212401032448,2,-8,-999,-71,34,-58,8,27,-149,124216.0
23:26:59.553,AUTO,-35.3632606,149.1652459,4814,-0.04126693680882454,-0.002485787495970726,-0.06253993511199951,-0.07215113192796707,0.03397834673523903,-0.05897212401032448,2,-8,-999,-71,34,-58,8,27,-149,124216.0
23:26:59.759,AUTO,-35.3632602,149.1652462,5960,-0.07777205109596252,0.013488407246768475,-0.11072754859924316,0.048277683556079865,-0.0008946297457441688,-0.04026017710566521,-2,2,-1003,48,0,-40,-1,-27,-149,84573.0
23:26:59.961,AUTO,-35.3632603,149.1652452,6343,-0.0644766092300415,0.013041811995208263,-0.11937215179204941,0.05667900666594505,0.0024402718991041183,-0.028380261734128,-4,7,-1001,57,3,-28,-7,-43,-149,84573.0
23:27:00.163,AUTO,-35.3632603,149.1652452,6343,-0.0644766092300415,0.013041811995208263,-0.11937215179204941,0.05667900666594505,0.0024402718991041183,-0.028380261734128,-4,7,-1001,57,3,-28,-7,-43,-149,84573.0
23:27:00.364,AUTO,-35.3632605,149.1652439,6726,-0.049589723348617554,0.013797735795378685,-0.12515418231487274,0.06203872337937355,0.005705652292817831,-0.018734026700258255,-4,10,-1001,62,6,-18,-12,-55,-149,84573.0
23:27:00.566,AUTO,-35.3632608,149.1652422,7108,-0.03344401344656944,0.015472307801246643,-0.1289070099592209,0.0675487071275711,0.007911126129329205,-0.012590971775352955,-6,14,-1002,67,8,-12,-17,-62,-149,84573.0
23:27:00.768,AUTO,-35.3632613,149.1652404,7492,-0.01630561240017414,0.017454368993639946,-0.13098129630088806,0.07107710838317871,0.008610266260802746,-0.007881448604166508,-6,14,-1003,71,9,-8,-23,-65,-150,84573.0
23:27:00.970,AUTO,-35.3632618,149.1652386,7877,0.0014894111081957817,0.019294196739792824,-0.13171522319316864,0.07211999595165253,0.00629530381411314,-0.002836973872035742,-6,17,-1004,72,6,-3,-28,-62,-151,84573.0
23:27:01.172,AUTO,-35.3632618,149.1652386,7877,0.0014894111081957817,0.019294196739792824,-0.13171522319316864,0.07211999595165253,0.00629530381411314,-0.002836973872035742,-6,17,-1004,72,6,-3,-28,-62,-151,84573.0
23:27:01.374,AUTO,-35.3632618,149.1652386,7877,0.0014894111081957817,0.019294196739792824,-0.13171522319316864,0.07211999595165253,0.00629530381411314,-0.002836973872035742,-6,17,-1004,72,6,-3,-28,-62,-151,84573.0
23:27:01.575,AUTO,-35.3632618,149.1652386,7877,0.0014894111081957817,0.019294196739792824,-0.13171522319316864,0.07211999595165253,0.00629530381411314,-0.002836973872035742,-6,17,-1004,72,6,-3,-28,-62,-151,84573.0
23:27:01.777,AUTO,-35.3632642,149.1652343,9047,0.05451634153723717,0.01920057274401188,-0.12788064777851105,0.05760042369365692,-0.014280815608799458,0.023508628830313683,1,13,-1002,58,-13,23,-39,-32,-153,84573.0
23:27:01.979,AUTO,-35.3632651,149.1652335,9438,0.05298253148794174,4.689316847361624e-05,-0.11080996692180634,-0.04438565671443939,-0.11718114465475082,0.10666976124048233,2,11,-995,-43,-116,106,-39,-16,-152,84573.0
23:27:02.180,AUTO,-35.3632651,149.1652335,9438,0.05298253148794174,4.689316847361624e-05,-0.11080996692180634,-0.04438565671443939,-0.11718114465475082,0.10666976124048233,2,11,-995,-43,-116,106,-39,-16,-152,84573.0
23:27:02.382,AUTO,-35.3632659,149.1652331,9826,0.04516945406794548,-0.031073670834302902,-0.08468187600374222,0.001640609698370099,-0.09915335476398468,0.09850184619426727,5,7,-1004,2,-98,98,-32,-4,-152,84573.0
23:27:02.584,AUTO,-35.3632664,149.1652331,10216,0.05041543394327164,-0.04911641404032707,-0.063148632645607,0.016327055171132088,-0.06283025443553925,0.09841357171535492,5,4,-1002,16,-62,98,-19,6,-152,84573.0
23:27:02.802,AUTO,-35.3632667,149.1652332,10607,0.051186591386795044,-0.067073754966259,-0.03990546986460686,0.00952195469290018,-0.06413739919662476,0.09746260941028595,3,0,-1000,10,-63,97,-3,17,-152,84573.0
23:27:03.052,AUTO,-35.3632666,149.1652338,10995,0.053842779248952866,-0.08089518547058105,-0.019177313894033432,0.026235131546854973,-0.036937713623046875,0.07771645486354828,1,-3,-999,26,-36,77,16,28,-151,84573.0
23:27:03.302,AUTO,-35.3632666,149.1652338,10995,0.053842779248952866,-0.08089518547058105,-0.019177313894033432,0.026235131546854973,-0.036937713623046875,0.07771645486354828,1,-3,-999,26,-36,77,16,28,-151,84573.0
23:27:03.516,AUTO,-35.3632666,149.1652338,10995,0.053842779248952866,-0.08089518547058105,-0.019177313894033432,0.026235131546854973,-0.036937713623046875,0.07771645486354828,1,-3,-999,26,-36,77,16,28,-151,84573.0
23:27:03.766,AUTO,-35.3632666,149.1652338,10995,0.053842779248952866,-0.08089518547058105,-0.019177313894033432,0.026235131546854973,-0.036937713623046875,0.07771645486354828,1,-3,-999,26,-36,77,16,28,-151,84573.0
23:27:03.968,AUTO,-35.3632621,149.1652381,12499,-0.036674920469522476,0.0012681300286203623,-0.08298376947641373,-0.09065768122673035,0.11117707937955856,-0.14660993218421936,-9,-17,-1015,-89,111,-146,68,34,-148,84573.0
23:27:04.181,AUTO,-35.3632621,149.1652381,12499,-0.036674920469522476,0.0012681300286203623,-0.08298376947641373,-0.09065768122673035,0.11117707937955856,-0.14660993218421936,-9,-17,-1015,-89,111,-146,68,34,-148,84573.0
23:27:04.383,AUTO,-35.3632606,149.1652388,12881,-0.05123649537563324,0.02202455885708332,-0.11967267096042633,-0.03224044665694237,0.07408846914768219,-0.1313479244709015,-8,-14,-1014,-31,74,-131,62,18,-151,84573.0
23:27:04.584,AUTO,-35.3632593,149.165239,13275,-0.054462872445583344,0.03583153709769249,-0.15175652503967285,0.008751267567276955,0.049397826194763184,-0.10545806586742401,-9,-10,-1009,9,50,-105,51,2,-153,99217.0
23:27:04.786,AUTO,-35.3632583,149.1652389,13668,-0.049389321357011795,0.04319104552268982,-0.1753159761428833,0.03323158621788025,0.024815242737531662,-0.07737172394990921,-9,-6,-1004,34,25,-77,37,-10,-154,99217.0
23:27:04.988,AUTO,-35.3632576,149.1652385,14062,-0.040482595562934875,0.04745239019393921,-0.1921721249818802,0.04214517027139664,0.018393518403172493,-0.056290727108716965,-8,-2,-1001,43,19,-56,22,-21,-154,99217.0
23:27:05.198,AUTO,-35.3632576,149.1652385,14062,-0.040482595562934875,0.04745239019393921,-0.1921721249818802,0.04214517027139664,0.018393518403172493,-0.056290727108716965,-8,-2,-1001,43,19,-56,22,-21,-154,99217.0
23:27:05.402,AUTO,-35.3632576,149.1652385,14062,-0.040482595562934875,0.04745239019393921,-0.1921721249818802,0.04214517027139664,0.018393518403172493,-0.056290727108716965,-8,-2,-1001,43,19,-56,22,-21,-154,99217.0
23:27:05.604,AUTO,-35.3632576,149.1652385,14062,-0.040482595562934875,0.04745239019393921,-0.1921721249818802,0.04214517027139664,0.018393518403172493,-0.056290727108716965,-8,-2,-1001,43,19,-56,22,-21,-154,99217.0
23:27:05.805,AUTO,-35.3632574,149.1652361,15233,-0.004248963203281164,0.0553622767329216,-0.2180480808019638,0.057318612933158875,0.0045636240392923355,-0.02121078222990036,-3,6,-1000,58,5,-21,-20,-29,-153,99217.0
23:27:06.007,AUTO,-35.3632578,149.1652354,15624,0.010194840840995312,0.0553940087556839,-0.22144314646720886,0.06035992130637169,-0.0027614992577582598,-0.013542450033128262,0,8,-1000,60,-1,-13,-32,-24,-153,99217.0
23:27:06.209,AUTO,-35.3632586,149.1652348,16013,0.025224553421139717,0.05348405987024307,-0.22310101985931396,0.061635807156562805,-0.010828034952282906,-0.009195515885949135,2,8,-1001,62,-10,-9,-43,-16,-152,99217.0
23:27:06.411,AUTO,-35.3632586,149.1652348,16013,0.025224553421139717,0.05348405987024307,-0.22310101985931396,0.061635807156562805,-0.010828034952282906,-0.009195515885949135,2,8,-1001,62,-10,-9,-43,-16,-152,99217.0
23:27:06.613,AUTO,-35.3632596,149.1652344,16402,0.040523461997509,0.04937740042805672,-0.2234470695257187,0.06170094013214111,-0.020114319398999214,-0.004072035197168589,5,10,-1001,62,-18,-4,-51,-4,-152,99217.0
23:27:06.815,AUTO,-35.3632608,149.1652345,16791,0.05254291743040085,0.040523163974285126,-0.22057659924030304,0.017946626991033554,-0.06212526559829712,0.037038154900074005,9,8,-996,19,-61,37,-57,10,-151,99217.0
23:27:07.017,AUTO,-35.3632621,149.1652348,17177,0.04808058217167854,0.013000346720218658,-0.20282568037509918,-0.04148130863904953,-0.13661976158618927,0.10270752757787704,12,6,-998,-40,-135,102,-57,24,-150,99217.0
23:27:07.219,AUTO,-35.3632621,149.1652348,17177,0.04808058217167854,0.013000346720218658,-0.20282568037509918,-0.04148130863904953,-0.13661976158618927,0.10270752757787704,12,6,-998,-40,-135,102,-57,24,-150,99217.0
23:27:07.421,AUTO,-35.3632621,149.1652348,17177,0.04808058217167854,0.013000346720218658,-0.20282568037509918,-0.04148130863904953,-0.13661976158618927,0.10270752757787704,12,6,-998,-40,-135,102,-57,24,-150,99217.0
23:27:07.624,AUTO,-35.3632621,149.1652348,17177,0.04808058217167854,0.013000346720218658,-0.20282568037509918,-0.04148130863904953,-0.13661976158618927,0.10270752757787704,12,6,-998,-40,-135,102,-57,24,-150,99217.0
23:27:07.826,AUTO,-35.3632646,149.1652373,18335,-0.00025853884289972484,-0.09634142369031906,-0.10005960613489151,-0.08354264497756958,-0.013508372008800507,0.05396923050284386,8,-3,-1001,-82,-12,54,-8,34,-152,99217.0
23:27:08.028,AUTO,-35.3632645,149.1652381,18721,-0.02270357310771942,-0.07914512604475021,-0.10400635749101639,-0.08386940509080887,0.10823691636323929,-0.056705132126808167,3,-7,-1000,-83,109,-57,14,27,-151,99217.0
23:27:08.230,AUTO,-35.3632641,149.1652387,19104,-0.038631685078144073,-0.05241115763783455,-0.12569257616996765,-0.054021697491407394,0.10313597321510315,-0.09726973623037338,-1,-8,-1003,-53,103,-97,30,15,-150,99217.0
23:27:08.432,AUTO,-35.3632641,149.1652387,19104,-0.038631685078144073,-0.05241115763783455,-0.12569257616996765,-0.054021697491407394,0.10313597321510315,-0.09726973623037338,-1,-8,-1003,-53,103,-97,30,15,-150,99217.0
23:27:08.667,AUTO,-35.3632633,149.1652389,19487,-0.04603661596775055,-0.03162749856710434,-0.15269987285137177,-0.019571619108319283,0.07569914311170578,-0.10403871536254883,-5,-6,-1004,-18,76,-104,37,0,-151,99217.0
23:27:08.921,AUTO,-35.3632624,149.1652386,19872,-0.046863749623298645,-0.016491562128067017,-0.1792699694633484,0.005194155499339104,0.05855439230799675,-0.09663177281618118,-7,-4,-1003,5,59,-96,40,-13,-151,99217.0
23:27:09.180,AUTO,-35.3632615,149.1652382,20259,-0.04225262999534607,-0.005424323491752148,-0.20168574154376984,0.02793329954147339,0.040984734892845154,-0.07668767124414444,-10,-2,-1003,28,41,-76,38,-26,-152,99217.0
23:27:09.459,AUTO,-35.3632615,149.1652382,20259,-0.04225262999534607,-0.005424323491752148,-0.20168574154376984,0.02793329954147339,0.040984734892845154,-0.07668767124414444,-10,-2,-1003,28,41,-76,38,-26,-152,99217.0
23:27:09.668,AUTO,-35.3632615,149.1652382,20259,-0.04225262999534607,-0.005424323491752148,-0.20168574154376984,0.02793329954147339,0.040984734892845154,-0.07668767124414444,-10,-2,-1003,28,41,-76,38,-26,-152,99217.0
23:27:09.874,AUTO,-35.3632593,149.1652349,21426,-0.010168025270104408,0.016826365143060684,-0.24058476090431213,0.052380215376615524,0.02771967276930809,-0.03167995065450668,-12,3,-1003,53,28,-31,22,-44,-154,99217.0
23:27:10.076,AUTO,-35.3632588,149.1652337,21819,0.0028194966726005077,0.023444028571248055,-0.24700821936130524,0.05263078585267067,0.02631446346640587,-0.02230624295771122,-11,4,-1002,53,27,-22,15,-43,-154,99217.0
23:27:10.278,AUTO,-35.3632585,149.1652325,22212,0.016102109104394913,0.029418714344501495,-0.25143036246299744,0.05347432941198349,0.02247720956802368,-0.01587802730500698,-9,6,-1002,54,23,-15,8,-38,-155,12032.0
23:27:10.480,AUTO,-35.3632584,149.1652314,22610,0.029665326699614525,0.03425982594490051,-0.2543227970600128,0.055761855095624924,0.016568757593631744,-0.011315522715449333,-7,4,-1002,56,17,-11,0,-30,-155,12032.0
23:27:10.683,AUTO,-35.3632584,149.1652314,22610,0.029665326699614525,0.03425982594490051,-0.2543227970600128,0.055761855095624924,0.016568757593631744,-0.011315522715449333,-7,4,-1002,56,17,-11,0,-30,-155,12032.0
23:27:10.884,AUTO,-35.3632584,149.1652307,23004,0.043177440762519836,0.03738866001367569,-0.2562139630317688,0.05396148934960365,0.009136181324720383,-0.006728662643581629,-4,3,-1001,54,10,-6,-6,-18,-155,12032.0
23:27:11.088,AUTO,-35.3632585,149.1652303,23398,0.05647190660238266,0.038467586040496826,-0.25738319754600525,0.05295570567250252,0.0007009410765022039,-0.004150117747485638,-1,3,-1000,54,1,-4,-12,-4,-155,12032.0
23:27:11.296,AUTO,-35.3632585,149.1652303,23398,0.05647190660238266,0.038467586040496826,-0.25738319754600525,0.05295570567250252,0.0007009410765022039,-0.004150117747485638,-1,3,-1000,54,1,-4,-12,-4,-155,12032.0
23:27:11.499,AUTO,-35.3632585,149.1652303,23398,0.05647190660238266,0.038467586040496826,-0.25738319754600525,0.05295570567250252,0.0007009410765022039,-0.004150117747485638,-1,3,-1000,54,1,-4,-12,-4,-155,12032.0
23:27:11.702,AUTO,-35.3632585,149.1652303,23398,0.05647190660238266,0.038467586040496826,-0.25738319754600525,0.05295570567250252,0.0007009410765022039,-0.004150117747485638,-1,3,-1000,54,1,-4,-12,-4,-155,12032.0
23:27:11.906,AUTO,-35.3632594,149.1652318,24566,0.06982871890068054,0.044912032783031464,-0.27455824613571167,-0.07149875164031982,0.011585005559027195,-0.03803092613816261,8,-2,-990,-70,12,-38,-21,49,-150,12032.0
23:27:12.108,AUTO,-35.3632599,149.1652333,24952,0.039912741631269455,0.03517049551010132,-0.2787243127822876,-0.13418780267238617,-0.07145462930202484,0.007555236108601093,10,-6,-996,-133,-70,7,-24,62,-147,12032.0
23:27:12.311,AUTO,-35.3632604,149.165235,25325,-0.0072581227868795395,0.01515048835426569,-0.27655839920043945,-0.17802539467811584,-0.0792563408613205,0.014223837293684483,15,-7,-1004,-177,-78,13,-25,64,-146,12032.0
23:27:12.513,AUTO,-35.3632609,149.1652366,25702,-0.03579363226890564,-0.002275386592373252,-0.2739567160606384,-0.06168043240904808,-0.06114346161484718,0.006321355700492859,15,-5,-1017,-60,-60,6,-25,56,-150,12032.0
23:27:12.715,AUTO,-35.3632614,149.1652379,26088,-0.04541735351085663,-0.01398544292896986,-0.273681104183197,-0.019533395767211914,-0.0356929674744606,-0.004849276039749384,11,-4,-1010,-18,-34,-4,-22,42,-152,12032.0
23:27:12.917,AUTO,-35.3632614,149.1652379,26088,-0.04541735351085663,-0.01398544292896986,-0.273681104183197,-0.019533395767211914,-0.0356929674744606,-0.004849276039749384,11,-4,-1010,-18,-34,-4,-22,42,-152,12032.0
23:27:13.119,AUTO,-35.3632618,149.1652389,26478,-0.045977961272001266,-0.020274212583899498,-0.2768325209617615,0.003691733116284013,-0.014824452809989452,-0.016410166397690773,9,-2,-1005,4,-14,-16,-18,28,-154,12032.0
23:27:13.320,AUTO,-35.3632618,149.1652389,26478,-0.045977961272001266,-0.020274212583899498,-0.2768325209617615,0.003691733116284013,-0.014824452809989452,-0.016410166397690773,9,-2,-1005,4,-14,-16,-18,28,-154,12032.0
23:27:13.523,AUTO,-35.3632618,149.1652389,26478,-0.045977961272001266,-0.020274212583899498,-0.2768325209617615,0.003691733116284013,-0.014824452809989452,-0.016410166397690773,9,-2,-1005,4,-14,-16,-18,28,-154,12032.0
23:27:13.726,AUTO,-35.3632626,149.1652397,27644,-0.02406066283583641,-0.020408619195222855,-0.2937793433666229,0.049394458532333374,0.02520114928483963,-0.012930940836668015,0,1,-999,50,26,-13,-6,-5,-154,12032.0
23:27:13.927,AUTO,-35.3632626,149.1652397,27644,-0.02406066283583641,-0.020408619195222855,-0.2937793433666229,0.049394458532333374,0.02520114928483963,-0.012930940836668015,0,1,-999,50,26,-13,-6,-5,-154,12032.0
23:27:14.129,AUTO,-35.3632626,149.1652395,28035,-0.011320487596094608,-0.013170603662729263,-0.2965734601020813,0.051220253109931946,0.029383324086666107,-0.007742763962596655,0,2,-1000,52,30,-7,-3,-10,-153,12032.0
23:27:14.396,AUTO,-35.3632627,149.1652391,28425,-0.0009378571412526071,-0.007213541306555271,-0.2970140874385834,0.034214045852422714,0.018066253513097763,0.0058613973669707775,-1,2,-999,35,19,5,-1,-12,-153,12032.0
23:27:14.610,AUTO,-35.3632627,149.1652387,28815,0.0055472408421337605,-0.00416176812723279,-0.29495781660079956,0.01991117000579834,0.00852450542151928,0.014096462167799473,-2,2,-999,20,9,14,0,-12,-153,12032.0
23:27:14.826,AUTO,-35.3632627,149.1652383,29204,0.009116866625845432,-0.0019645635038614273,-0.2911551892757416,0.012361036613583565,0.006752496585249901,0.018682939931750298,-2,2,-1000,13,7,18,1,-11,-153,12032.0
23:27:15.042,AUTO,-35.3632627,149.165238,29600,0.011061026714742184,-0.0003397714754100889,-0.28600215911865234,0.0038023279048502445,0.006720345932990313,0.022546878084540367,-2,1,-999,4,7,22,1,-8,-153,12032.0
23:27:15.246,AUTO,-35.3632627,149.165238,29600,0.011061026714742184,-0.0003397714754100889,-0.28600215911865234,0.0038023279048502445,0.006720345932990313,0.022546878084540367,-2,1,-999,4,7,22,1,-8,-153,12032.0
23:27:15.452,AUTO,-35.3632627,149.165238,29600,0.011061026714742184,-0.0003397714754100889,-0.28600215911865234,0.0038023279048502445,0.006720345932990313,0.022546878084540367,-2,1,-999,4,7,22,1,-8,-153,12032.0
23:27:15.655,AUTO,-35.3632627,149.165238,29600,0.011061026714742184,-0.0003397714754100889,-0.28600215911865234,0.0038023279048502445,0.006720345932990313,0.022546878084540367,-2,1,-999,4,7,22,1,-8,-153,12032.0
23:27:15.857,AUTO,-35.3632626,149.1652374,30757,0.009996726177632809,0.001982086803764105,-0.2694786489009857,-0.0018108026124536991,0.0025324630551040173,0.023104723542928696,-2,0,-1000,-1,3,22,2,-2,-153,29952.0
23:27:16.058,AUTO,-35.3632625,149.1652372,31145,0.00905703566968441,0.0024976807180792093,-0.264133095741272,-0.0004130673478357494,0.003517091739922762,0.02160409465432167,-1,0,-1000,0,4,21,2,0,-153,29952.0
23:27:16.261,AUTO,-35.3632624,149.1652372,31533,0.007854169234633446,0.002892087446525693,-0.25917044281959534,-0.006672218441963196,-0.0004928907728753984,0.02023184858262539,-1,0,-1000,-5,0,20,2,0,-153,29952.0
23:27:16.462,AUTO,-35.3632624,149.1652371,31920,0.006477418355643749,0.0032952085603028536,-0.2542870044708252,-0.006874630227684975,0.002456610556691885,0.018964184448122978,0,0,-1000,-6,3,18,2,1,-153,29952.0
23:27:16.664,AUTO,-35.3632624,149.1652371,31920,0.006477418355643749,0.0032952085603028536,-0.2542870044708252,-0.006874630227684975,0.002456610556691885,0.018964184448122978,0,0,-1000,-6,3,18,2,1,-153,29952.0
23:27:16.865,AUTO,-35.3632623,149.1652371,32308,0.0052377390675246716,0.0036970789078623056,-0.24964328110218048,-0.004708008375018835,0.0019205018179491162,0.01886914111673832,0,0,-999,-3,3,18,1,2,-153,29952.0
23:27:17.067,AUTO,-35.3632623,149.1652371,32697,0.004351109266281128,0.003647899255156517,-0.24514928460121155,-0.0025137183256447315,0.0015321619575843215,0.018858447670936584,0,0,-999,-1,2,18,1,2,-153,29952.0
23:27:17.269,AUTO,-35.3632623,149.1652371,32697,0.004351109266281128,0.003647899255156517,-0.24514928460121155,-0.0025137183256447315,0.0015321619575843215,0.018858447670936584,0,0,-999,-1,2,18,1,2,-153,29952.0
23:27:17.470,AUTO,-35.3632623,149.1652371,32697,0.004351109266281128,0.003647899255156517,-0.24514928460121155,-0.0025137183256447315,0.0015321619575843215,0.018858447670936584,0,0,-999,-1,2,18,1,2,-153,29952.0
23:27:17.672,AUTO,-35.3632623,149.1652371,32697,0.004351109266281128,0.003647899255156517,-0.24514928460121155,-0.0025137183256447315,0.0015321619575843215,0.018858447670936584,0,0,-999,-1,2,18,1,2,-153,29952.0
23:27:17.874,AUTO,-35.3632621,149.1652371,33860,0.002565918955951929,0.003052607411518693,-0.23245792090892792,-0.003198211779817939,0.0006096949800848961,0.016000542789697647,0,-1,-999,-2,1,16,0,3,-153,29952.0
23:27:18.075,AUTO,-35.3632621,149.1652372,34257,0.0023569620680063963,0.0028077508322894573,-0.22852855920791626,0.0028117396868765354,0.000612596282735467,0.017054839059710503,0,0,-1000,4,1,17,0,3,-153,29952.0
23:27:18.277,AUTO,-35.3632621,149.1652372,34644,0.0024036795366555452,0.002736968919634819,-0.22478075325489044,0.003133523277938366,0.0011108254548162222,0.015747878700494766,0,0,-1000,4,2,15,0,2,-153,29952.0
23:27:18.478,AUTO,-35.3632621,149.1652372,35031,0.002416331088170409,0.002672579837962985,-0.22104516625404358,-0.0010051814606413245,-0.00038889754796400666,0.01418069377541542,0,0,-1000,0,0,14,0,2,-153,29952.0
23:27:18.681,AUTO,-35.3632621,149.1652372,35031,0.002416331088170409,0.002672579837962985,-0.22104516625404358,-0.0010051814606413245,-0.00038889754796400666,0.01418069377541542,0,0,-1000,0,0,14,0,2,-153,29952.0
23:27:18.908,AUTO,-35.3632621,149.1652372,35420,0.002469239756464958,0.002625291235744953,-0.21767392754554749,-0.0015094552654772997,0.0006866758922114968,0.013324981555342674,0,0,-999,0,1,13,0,2,-153,29952.0
23:27:19.120,AUTO,-35.3632621,149.1652372,35808,0.002467784099280834,0.0023142024874687195,-0.21447059512138367,-4.105246625840664e-05,-0.00030823354609310627,0.013636397197842598,0,0,-1000,1,0,13,0,2,-153,29952.0
23:27:19.382,AUTO,-35.3632621,149.1652372,35808,0.002467784099280834,0.0023142024874687195,-0.21447059512138367,-4.105246625840664e-05,-0.00030823354609310627,0.013636397197842598,0,0,-1000,1,0,13,0,2,-153,29952.0
23:27:19.636,AUTO,-35.3632621,149.1652372,35808,0.002467784099280834,0.0023142024874687195,-0.21447059512138367,-4.105246625840664e-05,-0.00030823354609310627,0.013636397197842598,0,0,-1000,1,0,13,0,2,-153,29952.0
23:27:19.875,AUTO,-35.3632622,149.1652371,37081,-0.05410910025238991,0.06519371271133423,-0.02859995700418949,-0.17620012164115906,0.13113220036029816,0.6263494491577148,0,0,-973,-175,132,626,-15,-8,-136,29952.0
23:27:20.097,AUTO,-35.3632626,149.1652366,37412,-0.05756882578134537,0.0620313435792923,0.08848068118095398,0.04377526417374611,-0.16739104688167572,0.327705055475235,3,5,-937,44,-166,327,-29,-22,-122,29952.0
23:27:20.299,AUTO,-35.3632633,149.1652358,37702,-0.031165476888418198,0.014282472431659698,0.14263643324375153,0.13179853558540344,-0.20638972520828247,0.1302478164434433,5,8,-941,132,-205,130,-35,-32,-106,29952.0
23:27:20.501,AUTO,-35.3632633,149.1652358,37702,-0.031165476888418198,0.014282472431659698,0.14263643324375153,0.13179853558540344,-0.20638972520828247,0.1302478164434433,5,8,-941,132,-205,130,-35,-32,-106,29952.0
23:27:20.707,AUTO,-35.3632641,149.1652349,37956,-0.001606494770385325,-0.026075491681694984,0.16033847630023956,0.09512192755937576,-0.12415596842765808,0.031189071014523506,1,10,-950,96,-122,31,-32,-33,-93,69731.0
23:27:20.909,AUTO,-35.3632647,149.165234,38179,0.020202219486236572,-0.04737702012062073,0.1598459780216217,0.05633598566055298,-0.05280858650803566,-0.01729053072631359,4,9,-958,57,-51,-17,-23,-27,-82,69731.0
23:27:21.111,AUTO,-35.3632651,149.1652333,38374,0.03522986173629761,-0.053014032542705536,0.1522689312696457,0.09569752961397171,-0.00664878822863102,-0.0337178073823452,1,9,-963,96,-5,-33,-12,-17,-72,69731.0
23:27:21.313,AUTO,-35.3632651,149.1652333,38374,0.03522986173629761,-0.053014032542705536,0.1522689312696457,0.09569752961397171,-0.00664878822863102,-0.0337178073823452,1,9,-963,96,-5,-33,-12,-17,-72,69731.0
23:27:21.515,AUTO,-35.3632651,149.1652333,38374,0.03522986173629761,-0.053014032542705536,0.1522689312696457,0.09569752961397171,-0.00664878822863102,-0.0337178073823452,1,9,-963,96,-5,-33,-12,-17,-72,69731.0
23:27:21.717,AUTO,-35.3632651,149.1652333,38374,0.03522986173629761,-0.053014032542705536,0.1522689312696457,0.09569752961397171,-0.00664878822863102,-0.0337178073823452,1,9,-963,96,-5,-33,-12,-17,-72,69731.0
23:27:21.919,AUTO,-35.3632649,149.1652331,38827,0.04398365318775177,-0.03205278888344765,0.12661245465278625,0.3661407232284546,0.04195207729935646,-0.027998030185699463,-2,9,-975,367,42,-27,15,13,-49,69731.0
23:27:22.120,AUTO,-35.3632646,149.1652334,38941,0.03337183967232704,-0.021931417286396027,0.119937464594841,-0.23978859186172485,0.04193172603845596,-0.028059715405106544,-2,-29,-973,-239,43,-27,20,20,-42,69731.0
23:27:22.322,AUTO,-35.3632641,149.165234,39041,0.019884085282683372,-0.011827404610812664,0.11429491639137268,-0.4131403863430023,0.0406087227165699,-0.017108401283621788,-2,-14,-981,-411,41,-16,23,25,-37,69731.0
23:27:22.524,AUTO,-35.3632641,149.165234,39041,0.019884085282683372,-0.011827404610812664,0.11429491639137268,-0.4131403863430023,0.0406087227165699,-0.017108401283621788,-2,-14,-981,-411,41,-16,23,25,-37,69731.0
23:27:22.726,AUTO,-35.3632635,149.1652346,39128,0.01733499951660633,-0.002262618625536561,0.1095142811536789,0.30632922053337097,0.032113607972860336,-0.011117029935121536,-2,21,-984,308,33,-10,24,29,-33,69731.0
23:27:22.927,AUTO,-35.363263,149.1652353,39204,0.01963835023343563,0.004844795912504196,0.10489971190690994,0.44182857871055603,0.023531276732683182,-0.01691087707877159,-3,-2,-979,442,24,-16,23,28,-28,69731.0
23:27:23.129,AUTO,-35.3632625,149.1652359,39266,0.009536412544548512,0.009704845026135445,0.1008039340376854,-0.2700803279876709,0.01722647249698639,-0.01447048969566822,-2,-34,-970,-270,18,-14,21,26,-22,69731.0
23:27:23.331,AUTO,-35.3632625,149.1652359,39266,0.009536412544548512,0.009704845026135445,0.1008039340376854,-0.2700803279876709,0.01722647249698639,-0.01447048969566822,-2,-34,-970,-270,18,-14,21,26,-22,69731.0
23:27:23.533,AUTO,-35.3632625,149.1652359,39266,0.009536412544548512,0.009704845026135445,0.1008039340376854,-0.2700803279876709,0.01722647249698639,-0.01447048969566822,-2,-34,-970,-270,18,-14,21,26,-22,69731.0
23:27:23.735,AUTO,-35.3632625,149.1652359,39266,0.009536412544548512,0.009704845026135445,0.1008039340376854,-0.2700803279876709,0.01722647249698639,-0.01447048969566822,-2,-34,-970,-270,18,-14,21,26,-22,69731.0
23:27:23.937,AUTO,-35.3632613,149.1652375,39358,-0.0009171460405923426,0.014502085745334625,0.08964706212282181,0.27532485127449036,0.004565880633890629,-0.011748038232326508,0,24,-974,278,5,-11,12,21,-2,69731.0
23:27:24.139,AUTO,-35.3632611,149.1652379,39347,-0.009336236864328384,0.04175528883934021,0.08957374095916748,0.837920069694519,0.07341910153627396,-0.03023252636194229,2,32,-933,839,74,-30,6,16,10,69731.0
23:27:24.372,AUTO,-35.363261,149.1652381,39304,-0.0062743620947003365,0.040689337998628616,0.08475164324045181,0.6191005706787109,-0.04227172210812569,-0.017209243029356003,0,10,-1003,619,-41,-16,-3,9,16,69731.0
23:27:24.646,AUTO,-35.3632612,149.1652382,39259,-4.512994200922549e-05,0.03156090900301933,0.08020243793725967,-0.008290166966617107,-0.033192481845617294,-0.021530896425247192,5,-22,-988,-8,-31,-21,-11,4,15,69731.0
23:27:24.913,AUTO,-35.3632615,149.1652383,39219,0.0009281118982471526,0.026528751477599144,0.07697173207998276,-0.6430898904800415,-0.018394190818071365,-0.014172406867146492,4,-26,-1033,-642,-17,-13,-17,4,11,69731.0
23:27:25.116,AUTO,-35.363262,149.1652383,39191,0.004844318609684706,0.0229576975107193,0.07421056181192398,-0.4887090027332306,-0.002591860480606556,-0.014592284336686134,5,3,-998,-486,-1,-14,-23,8,8,69731.0
23:27:25.368,AUTO,-35.363262,149.1652383,39191,0.004844318609684706,0.0229576975107193,0.07421056181192398,-0.4887090027332306,-0.002591860480606556,-0.014592284336686134,5,3,-998,-486,-1,-14,-23,8,8,69731.0
23:27:25.572,AUTO,-35.363262,149.1652383,39191,0.004844318609684706,0.0229576975107193,0.07421056181192398,-0.4887090027332306,-0.002591860480606556,-0.014592284336686134,5,3,-998,-486,-1,-14,-23,8,8,69731.0
23:27:25.775,AUTO,-35.363262,149.1652383,39191,0.004844318609684706,0.0229576975107193,0.07421056181192398,-0.4887090027332306,-0.002591860480606556,-0.014592284336686134,5,3,-998,-486,-1,-14,-23,8,8,69731.0
23:27:25.977,AUTO,-35.3632641,149.1652393,39129,0.0513826459646225,0.03402094170451164,0.06709834933280945,0.610812783241272,0.03818362578749657,-0.01866271160542965,12,11,-999,611,39,-18,-38,27,3,222236.0
23:27:26.179,AUTO,-35.3632651,149.1652401,39113,0.05501466989517212,0.04705025628209114,0.07364882528781891,0.03776119276881218,0.059522900730371475,0.1102062463760376,15,-24,-980,37,60,110,-46,35,3,222236.0
23:27:26.380,AUTO,-35.3632663,149.1652411,39100,0.0594087615609169,0.05378184840083122,0.181879460811615,-0.6200587153434753,0.008623613975942135,0.682505190372467,20,-40,-1009,-619,10,682,-56,47,2,222236.0
23:27:26.582,AUTO,-35.3632678,149.1652424,39085,0.0709090605378151,0.046119872480630875,0.3860858678817749,-0.5822954177856445,-0.011381611227989197,0.8569135665893555,21,-27,-997,-580,-10,857,-69,59,3,222236.0
23:27:26.784,AUTO,-35.3632678,149.1652424,39085,0.0709090605378151,0.046119872480630875,0.3860858678817749,-0.5822954177856445,-0.011381611227989197,0.8569135665893555,21,-27,-997,-580,-10,857,-69,59,3,222236.0
23:27:26.987,AUTO,-35.3632696,149.1652442,39065,0.08723282068967819,0.029716691002249718,0.5984666347503662,-0.15993531048297882,-0.0035408521071076393,0.8427864909172058,21,-4,-998,-157,-2,843,-82,72,6,222236.0
23:27:27.191,AUTO,-35.3632716,149.1652463,39043,0.09467802196741104,0.014803454279899597,0.7979059219360352,0.49315202236175537,0.03011954016983509,0.787535548210144,23,12,-1003,495,31,787,-94,85,5,222236.0
23:27:27.393,AUTO,-35.3632716,149.1652463,39043,0.09467802196741104,0.014803454279899597,0.7979059219360352,0.49315202236175537,0.03011954016983509,0.787535548210144,23,12,-1003,495,31,787,-94,85,5,222236.0
23:27:27.595,AUTO,-35.3632716,149.1652463,39043,0.09467802196741104,0.014803454279899597,0.7979059219360352,0.49315202236175537,0.03011954016983509,0.787535548210144,23,12,-1003,495,31,787,-94,85,5,222236.0
23:27:27.796,AUTO,-35.3632716,149.1652463,39043,0.09467802196741104,0.014803454279899597,0.7979059219360352,0.49315202236175537,0.03011954016983509,0.787535548210144,23,12,-1003,495,31,787,-94,85,5,222236.0
23:27:27.998,AUTO,-35.363279,149.1652543,38972,0.043153226375579834,0.0002301936474395916,1.340720534324646,-0.7603991031646729,0.010711545124650002,0.7025085687637329,2,-73,-990,-759,11,702,-113,103,7,222236.0
23:27:28.200,AUTO,-35.3632817,149.1652572,38940,0.033658940345048904,-0.0010946057736873627,1.5163534879684448,-0.7494716048240662,0.013268575072288513,0.7054275274276733,-2,-75,-989,-748,14,705,-116,104,9,222236.0
23:27:28.402,AUTO,-35.3632845,149.1652602,38911,0.034036844968795776,-0.0014549654442816973,1.692044973373413,-0.06021654233336449,0.02772923745214939,0.7019138336181641,-10,-23,-990,-57,29,702,-118,103,8,222236.0
23:27:28.604,AUTO,-35.3632872,149.1652632,38884,0.03975975885987282,0.001005760277621448,1.8678220510482788,0.6237849593162537,0.06100752577185631,0.6995274424552917,-15,0,-999,626,62,699,-118,101,8,222236.0
23:27:28.806,AUTO,-35.36329,149.1652661,38856,0.04184408485889435,0.006328427232801914,2.044109582901001,0.8024895191192627,0.054716840386390686,0.7087397575378418,-23,-9,-977,803,55,709,-115,98,9,222236.0
23:27:29.054,AUTO,-35.36329,149.1652661,38856,0.04184408485889435,0.006328427232801914,2.044109582901001,0.8024895191192627,0.054716840386390686,0.7087397575378418,-23,-9,-977,803,55,709,-115,98,9,222236.0
23:27:29.420,AUTO,-35.3632927,149.165269,38829,0.03962458297610283,0.009361493401229382,2.2181873321533203,0.15036019682884216,0.02565089799463749,0.7116207480430603,-24,-40,-986,150,26,712,-111,93,7,222236.0
23:27:29.642,AUTO,-35.3632927,149.165269,38829,0.03962458297610283,0.009361493401229382,2.2181873321533203,0.15036019682884216,0.02565089799463749,0.7116207480430603,-24,-40,-986,150,26,712,-111,93,7,222236.0
23:27:29.871,AUTO,-35.3633002,149.1652765,38745,0.008981083519756794,-0.012409296818077564,2.632242202758789,-0.6645573377609253,-0.1186429113149643,0.1420677900314331,-30,-42,-1037,-663,-117,142,-100,77,8,222236.0
23:27:30.095,AUTO,-35.3633026,149.1652788,38720,0.004546480719000101,-0.05217966064810753,2.6332743167877197,-0.3017149269580841,-0.166676327586174,-0.08404812216758728,-30,-10,-988,-299,-165,-83,-103,78,10,222236.0
23:27:30.297,AUTO,-35.3633026,149.1652788,38720,0.004546480719000101,-0.05217966064810753,2.6332743167877197,-0.3017149269580841,-0.166676327586174,-0.08404812216758728,-30,-10,-988,-299,-165,-83,-103,78,10,222236.0
23:27:30.499,AUTO,-35.3633051,149.1652812,38689,0.013338543474674225,-0.09213689714670181,2.6092777252197266,0.32213616371154785,-0.15580326318740845,-0.13918252289295197,-31,15,-996,325,-154,-138,-113,86,10,222236.0
23:27:30.701,AUTO,-35.3633078,149.1652838,38652,0.019407257437705994,-0.09066533297300339,2.5833802223205566,0.7160882949829102,0.14999248087406158,-0.09907981008291245,-36,9,-1018,717,150,-98,-126,96,13,67290.0
23:27:30.903,AUTO,-35.3633108,149.1652867,38617,0.03030765801668167,-0.03334618732333183,2.565547227859497,0.6995982527732849,0.2532083988189697,-0.06400565057992935,-38,8,-1024,700,254,-63,-132,103,10,67290.0
23:27:31.105,AUTO,-35.3633139,149.1652896,38590,0.03001544624567032,0.028176451101899147,2.5556859970092773,0.0198188629001379,0.22981683909893036,-0.04579026624560356,-34,-41,-1009,19,230,-45,-126,99,7,67290.0
