time_stamp,roll,pitch,yaw,rollspeed,pitchspeed,yawspeed,lat,lon,relative_alt,vx,vy,vz,xacc,yacc,zacc,xgyro,ygyro,zgyro,RTL_ALT,MODE
06:29:28,1.676373722148128e-05,0.001275177812203765,0.029536643996834755,0.0002773531014099717,0.0001926592958625406,0.0025415944401174784,-35.3632621,149.1652374,0.0,0.0,0.0,1.0,0.0,1.0,-1000.0,0.0,0.0,0.0,145722.0,STABILIZE
06:29:45,-0.0009345962316729128,0.0009607054914037386,0.02244640824695428,0.00026832604392742115,0.00023917355186616382,0.0015336832342048485,-35.3632622,149.1652375,1.3333333333333333,-1.0,1.0,0.0,0.0,1.25,-1000.0,0.5,0.25,0.0,98177.0,AUTO
06:29:46,-0.0009106096986215562,0.0009676968038547784,0.022287569008767605,0.00022393843391910195,0.0002419184020254761,0.0015101180761121213,-35.3632622,149.1652375,4.0,-1.0,1.0,0.0,0.0,1.0,-1000.0,0.0,0.5,0.5,98177.0,AUTO
06:29:48,-0.0006126329535618424,0.001367837656289339,0.0218247901648283,0.00024716724874451756,0.0002674516581464559,0.001447948336135596,-35.3632621,149.1652375,4.0,0.0,0.0,0.0,0.0,1.5,-1000.0,1.0,0.0,0.5,198207.0,AUTO
06:29:50,0.001913791464176029,0.0007114312757039443,0.021283356472849846,-0.00309007684700191,0.003421233268454671,0.001994576887227595,-35.3632621,149.1652375,320.5,0.0,0.0,-87.0,0.0,0.0,-1117.5,-2.5,3.5,1.0,298237.0,AUTO
06:29:51,0.04019612865522504,-0.004079759790329263,0.02164026815444231,0.04344275966286659,-0.008638268918730319,0.00315963540924713,-35.36326195,149.16523800000002,1986.25,2.25,16.75,-146.75,0.0,-2.0,-1006.25,43.75,-7.75,2.25,67282.0,AUTO
06:29:52,0.05179285258054733,0.0022649765014648438,-0.01951984129846096,-0.08247282449156046,0.057659465819597244,-0.07111384719610214,-35.3632615,149.16524035,3136.0,8.5,49.0,-146.0,2.5,-9.5,-991.0,-81.5,58.0,-71.0,67282.0,AUTO
06:29:54,-0.062417227774858475,-0.024076172150671482,-0.07494290918111801,0.042862668633461,0.008026290452107787,0.006952984957024455,-35.36326175,149.1652455,6188.0,-1.0,-31.5,-149.0,-1.5,4.5,-1001.5,43.0,8.5,6.0,116489.0,AUTO
06:29:56,0.048367807641625404,0.017409187275916338,-0.08162297680974007,0.031171570532023907,0.04271518811583519,-0.032081409357488155,-35.363260749999995,149.16523435,9291.0,4.0,-28.5,-153.0,-6.0,6.0,-1001.0,31.5,42.5,-31.5,165696.0,AUTO
06:29:57,0.018930676160380244,0.012709183210972697,-0.10415144078433514,-0.07096570637077093,-0.05279208812862635,0.01976016885600984,-35.363261725,149.165234675,11227.25,-20.25,27.25,-149.0,6.25,-1.75,-999.5,-69.5,-51.75,19.0,86313.0,AUTO
06:29:58,-0.018914543092250824,-0.014096842147409916,-0.09578946232795715,-0.01804422214627266,-0.011488652555271983,-0.006081516621634364,-35.36326295,149.16523675,12380.0,-11.5,21.0,-151.0,5.0,-2.0,-1003.5,-16.5,-10.0,-6.0,86313.0,AUTO
06:30:00,0.00548640126362443,0.0010259751870762557,-0.14833608269691467,0.014010215178132057,0.012378329876810312,-0.024858999997377396,-35.363262500000005,149.16523655,15505.5,8.0,-9.5,-153.0,-3.5,0.0,-999.5,14.0,13.0,-24.5,106505.5,AUTO
06:30:02,-0.03050480131059885,0.045438000932335854,-0.02662057802081108,0.051294079516083,-0.01857447251677513,0.3517691195011139,-35.363261949999995,149.1652334,18562.5,-19.5,-32.5,-137.5,-0.5,7.0,-969.0,52.5,-18.0,351.0,126698.0,AUTO
06:30:03,0.058696603402495384,-0.031076031737029552,0.046627962961792946,-0.00933158045518212,0.009648576960898936,-0.026841307408176363,-35.363263975,149.165230425,19982.25,-7.0,9.25,-87.25,1.25,0.0,-966.25,-8.75,10.5,-27.0,235677.0,AUTO
06:30:04,0.032799338921904564,-0.01174233527854085,0.037744976580142975,-0.04799564182758331,0.0317043736577034,0.0004118539218325168,-35.3632638,149.1652322,20569.5,11.0,39.5,-65.0,1.5,-8.0,-975.0,-46.5,32.0,0.0,235677.0,AUTO
06:30:06,-0.0134905562736094,0.012821721844375134,0.03345370851457119,-0.005074816523119807,-0.003608514554798603,-0.0037006535567343235,-35.3632614,149.16523945,21401.0,4.5,17.0,-16.5,0.0,-4.5,-971.5,-3.5,-2.5,-3.0,118600.5,AUTO
06:30:08,0.030735746957361698,-0.06940710172057152,0.025916201062500477,-0.08265627920627594,-0.04959084838628769,0.0004192450869595632,-35.3632603,149.1652387,21204.0,32.5,-4.0,5.0,-7.0,-20.5,-1014.5,-83.0,-48.5,0.0,1524.0,AUTO
06:30:09,0.021695016883313656,-0.13046655990183353,0.3197188824415207,-0.07648675329983234,-0.044046186842024326,0.09725025296211243,-35.363251274999996,149.165239925,21169.0,131.25,31.25,-1.0,-27.0,-17.25,-1008.0,-75.5,-43.0,97.25,234589.0,AUTO
06:30:10,0.03457087092101574,-0.1643071174621582,0.30162204802036285,0.3178550899028778,-0.05713105760514736,-0.022732859943062067,-35.3632403,149.16524299999998,21165.5,207.5,57.0,-0.5,-41.5,-12.5,-1006.5,318.5,-55.5,-23.0,234589.0,AUTO
06:30:12,0.0503470953553915,-0.2030482515692711,0.2934015393257141,-0.023254864383488894,-0.016052295919507742,0.006139853969216347,-35.36318265,149.16526195,21145.0,432.5,122.0,0.0,-89.0,-56.5,-1001.0,-22.5,-14.5,5.5,156615.5,AUTO
06:30:14,0.06887830421328545,-0.18623456358909607,0.28893014788627625,0.006354928947985172,0.015917579643428326,-0.003934024949558079,-35.36308785,149.16529400000002,21179.5,607.0,169.5,-7.0,-130.0,-76.0,-991.5,7.5,16.0,-3.5,78642.0,AUTO
06:30:15,0.07603645138442516,-0.15683391690254211,0.28917142003774643,0.013146542012691498,0.01957654976285994,-0.0012486712948884815,-35.363016425,149.165318125,21262.5,652.5,183.5,-7.0,-134.0,-71.5,-984.75,14.0,20.0,-1.0,293918.0,AUTO
06:30:16,0.08222594484686852,-0.13775084912776947,0.2882121503353119,-0.0199185935780406,0.055554382503032684,-0.008544438052922487,-35.36297195,149.16533315,21309.0,660.0,186.5,-6.5,-137.0,-72.5,-984.0,-18.0,56.0,-8.5,293918.0,AUTO
06:30:18,0.08125531673431396,-0.1406359151005745,0.2850124388933182,-0.0007141651585698128,0.00564233266049996,-0.005642737029120326,-35.362853,149.1653737,21312.5,661.5,187.0,0.5,-133.5,-99.0,-996.0,1.0,6.0,-5.0,225947.5,AUTO
06:30:20,0.07496854662895203,-0.13183651119470596,0.2817526161670685,-0.005911744199693203,0.002282371453475207,-0.004575979430228472,-35.3627337,149.16541475,21315.5,665.0,184.5,-2.5,-127.0,-74.0,-985.0,-4.5,2.5,-4.5,157977.0,AUTO
06:30:21,0.07393199950456619,-0.13307549804449081,0.28061655908823013,-0.006528655998408794,0.0026469271979294717,-0.0048311378341168165,-35.362659175000005,149.16544015,21346.0,660.75,182.25,-1.5,-132.0,-74.0,-986.5,-5.0,3.25,-4.75,6745.0,AUTO
06:30:22,0.07629533857107162,-0.12697657942771912,0.2793152183294296,-0.01731501566246152,-0.002854411955922842,0.0035906077828258276,-35.3626144,149.1654552,21357.5,660.5,181.0,-1.5,-123.5,-74.0,-984.5,-16.0,-2.0,3.5,6745.0,AUTO
06:30:24,0.07637540996074677,-0.03610842674970627,0.27997957170009613,-0.037496221251785755,0.048586186952888966,-0.004785721917869523,-35.36250065,149.16549355,21489.5,577.5,159.0,-5.0,-120.5,-72.5,-988.0,-36.0,49.0,-5.0,105205.0,AUTO
06:30:26,0.05358494445681572,0.05478627048432827,0.27883991599082947,0.3547665737569332,-0.0006497679278254509,-0.03628298919647932,-35.3624129,149.165524,21471.0,370.0,104.0,4.5,-74.5,-24.0,-1006.0,357.5,0.0,-36.0,203665.0,AUTO
06:30:27,0.022896232083439827,0.06052544619888067,0.27739784121513367,-0.05552798509597778,0.021791761741042137,0.002922999017755501,-35.362379250000004,149.165536675,21411.0,237.5,64.5,1.75,-48.75,-33.75,-1007.5,-54.25,22.0,3.5,93332.0,AUTO
06:30:28,0.006191975192109567,0.07864260673522949,0.27642621099948883,-0.4644625559449196,0.011336881201714277,0.0123548642732203,-35.3623657,149.16554200000002,21402.0,161.0,37.5,0.5,-32.5,-50.5,-999.0,-463.0,12.0,12.0,93332.0,AUTO
06:30:30,-0.013666539918631315,0.035144226625561714,0.2781262695789337,-0.09995298087596893,-0.0222890367731452,0.001523107464890927,-35.362352,149.16554775,21392.5,26.5,-11.0,0.0,-3.5,-18.0,-1003.5,-99.5,-21.0,1.5,84545.0,AUTO
06:30:32,-0.010351461824029684,-0.00899364659562707,0.27862244844436646,0.11861355602741241,0.012687057256698608,-0.008508522994816303,-35.362351849999996,149.16554705,21411.0,5.0,-22.0,0.0,-0.5,1.0,-999.5,119.0,13.0,-7.5,75758.0,RTL
06:30:33,0.005530279595404863,-0.0057829656871035695,0.27585113048553467,0.01752134133130312,0.0029339761385926977,-0.0025855296080408152,-35.36235175,149.16554539999998,21428.25,7.25,-13.75,-6.0,-2.5,2.75,-1016.25,18.0,3.5,-2.0,142384.0,RTL
06:30:34,0.014005233533680439,-0.0036124297184869647,0.2741272747516632,0.2145928591489792,0.0014528127503581345,0.0038616873789578676,-35.362351450000006,149.1655444,21540.0,5.0,-7.0,-26.5,-2.5,7.5,-1038.0,215.0,2.5,3.5,142384.0,RTL
06:30:36,0.009537193924188614,0.00032406303944299,0.27441561222076416,-0.004320305568398908,0.001464927103370428,0.003001575358211994,-35.362351,149.165543,22980.0,-0.5,7.5,-112.0,0.0,0.0,-1041.5,-4.0,2.0,3.0,75284.0,RTL
06:30:38,0.06070464849472046,-0.008281052112579346,0.27088847756385803,-0.00028144940733909607,0.017870182637125254,-0.03154859412461519,-35.362351,149.16554530000002,25859.0,-5.0,47.0,-147.5,2.0,-7.0,-995.0,1.0,19.0,-30.5,8184.0,RTL
06:30:39,-0.06770037300884724,0.0065282564028166234,0.1923064850270748,-0.03350488014984876,-0.013798605068586767,-0.03961400408297777,-35.3623514,149.16555095,27749.5,-5.0,17.5,-148.25,3.0,-5.75,-1007.25,-32.5,-12.25,-38.25,129398.0,RTL
06:30:40,-0.05168570391833782,0.0004918610793538392,0.17105133086442947,0.05484467186033726,0.001042128074914217,-0.01532548014074564,-35.3623513,149.16555035,28907.0,3.0,-32.0,-149.0,-2.5,4.5,-1000.0,55.0,2.0,-14.0,129398.0,RTL
06:30:42,0.04300982505083084,-0.013873987598344684,0.18796143680810928,-0.026750070974230766,-0.054373400285840034,0.05891994386911392,-35.362351000000004,149.1655412,32030.0,-12.0,-9.0,-151.5,-0.5,4.5,-997.0,-25.5,-53.0,59.0,163401.5,RTL
06:30:44,-0.0023599466076120734,0.0069575675297528505,0.14906436204910278,0.009458390530198812,0.00699602160602808,-0.02910524234175682,-35.362350250000006,149.1655417,35131.0,2.5,2.5,-151.5,-1.0,-1.0,-1000.5,10.5,7.5,-27.5,197405.0,RTL
06:30:45,0.006181178847327828,0.008645865134894848,0.12210676446557045,0.0019196807843400165,-0.001842185083660297,-0.01538476929999888,-35.3623498,149.1655417,37081.0,-4.25,2.5,-152.0,0.0,0.0,-999.75,2.5,-0.5,-14.0,21047.0,RTL
06:30:46,0.005232601892203093,0.006213540444150567,0.1102852113544941,-0.0035699496511369944,-0.0021306505077518523,-0.016818944364786148,-35.36234985,149.16554185,38252.0,-7.5,5.0,-152.0,0.5,0.0,-999.5,-2.0,-0.5,-15.5,21047.0,RTL
06:30:48,0.0004991369496565312,0.0020503901760093868,0.0690925158560276,0.0021004914306104183,0.002065719570964575,-0.024263066239655018,-35.36235055,149.1655427,41374.0,-6.0,5.0,-152.0,0.0,0.0,-1000.0,3.0,3.0,-22.5,77954.5,RTL
06:30:50,0.0017089085304178298,0.002463844954036176,0.022281048819422722,0.001957376953214407,0.0027220615884289145,-0.022683465853333473,-35.3623509,149.16554315000002,44492.0,-3.5,3.0,-152.0,0.0,0.0,-1000.0,2.5,3.5,-21.0,134862.0,RTL
06:30:51,0.002135525632183999,0.0034489150275476277,-0.004413584480062127,0.002043395914370194,0.0020844707323703915,-0.013791427365504205,-35.36235095,149.16554335,46444.75,-3.5,3.25,-152.5,0.0,0.0,-999.75,3.0,2.75,-12.25,2465.0,RTL
06:30:52,0.004211434628814459,0.005815631477162242,-0.00584365101531148,0.002475238870829344,0.003407364129088819,0.016448154114186764,-35.362351,149.1655435,47615.0,-4.5,4.5,-152.0,0.0,0.0,-999.5,3.5,4.0,17.0,2465.0,RTL
06:30:54,-0.0007945390534587204,0.0015117638977244496,0.04563579149544239,-0.0004850393161177635,0.0009241281077265739,0.026983809657394886,-35.362351450000006,149.16554424999998,50714.0,-5.0,4.5,-152.0,0.0,0.0,-1000.0,0.5,2.0,28.0,21258.0,RTL
06:30:56,0.0004281892761355266,0.001345536031294614,0.08828127384185791,0.0015533437253907323,0.000658544828183949,0.018267887644469738,-35.3623516,149.1655444,53824.0,-2.0,1.0,-152.0,0.0,0.0,-1000.0,3.0,1.5,19.0,40051.0,RTL
06:30:57,0.0011043063132092357,0.0012837293033953756,0.10830676928162575,0.0016763833118602633,0.00021087209461256862,0.015391736524179578,-35.36235155,149.165544375,55764.5,-1.0,1.0,-152.0,0.0,0.0,-1000.25,3.0,1.25,16.25,123555.0,RTL
06:30:58,0.0015980064636096358,0.0011242014006711543,0.11876513436436653,0.00019182509277015924,0.00061327702132985,0.014121074695140123,-35.3623515,149.1655443,56929.0,-1.0,1.0,-152.0,0.0,0.0,-999.5,1.0,2.0,15.0,123555.0,RTL
06:31:00,0.00168913061497733,0.002147880266420543,0.14157578349113464,0.0003032732638530433,0.00034748256439343095,0.009982642251998186,-35.3623513,149.1655441,60038.0,-1.0,1.0,-152.0,0.0,0.0,-1000.5,1.5,1.5,11.0,98639.5,RTL
06:31:02,0.0013917810865677893,0.0019627658184617758,0.15897703915834427,0.00034622231032699347,0.000593685545027256,0.00822230288758874,-35.3623512,149.1655441,63138.0,-2.0,1.0,-152.0,0.0,0.0,-999.5,2.0,1.5,9.0,73724.0,RTL
06:31:03,0.0011740775080397725,0.001611851213965565,0.16743089258670807,0.0005117218825034797,0.0007438069442287087,0.006698709912598133,-35.3623512,149.1655441,65079.25,-2.0,1.0,-152.0,0.0,0.0,-1000.0,1.75,2.0,7.75,204196.0,RTL
06:31:04,0.0014129980700090528,0.0015587908565066755,0.17218942195177078,0.002807593788020313,0.0012817738461308181,0.007478092098608613,-35.3623512,149.1655441,66243.0,-2.0,1.0,-152.0,0.0,0.0,-1000.0,4.0,2.5,8.5,204196.0,RTL
06:31:06,0.0011835310724563897,0.0007051126449368894,0.1839006394147873,0.003008683619555086,0.0020299911266192794,0.005225928267464042,-35.3623512,149.165544,69353.0,-2.0,1.0,-152.0,0.0,0.0,-1000.0,4.5,3.0,6.0,204196.0,RTL
06:31:07,0.0016915915184654295,0.0010000702168326825,0.19047945737838745,0.0016185564163606614,0.0012872392544522882,0.005823242943733931,-35.3623512,149.165544,71290.0,-1.0,1.0,-152.0,0.0,0.0,-1000.0,2.75,2.5,7.0,22680.0,RTL
06:31:08,0.0015225253300741315,0.0012047336786054075,0.19405781477689743,0.0010668488685041666,0.0013515989412553608,0.004492740728892386,-35.3623512,149.165544,72459.0,-1.0,1.0,-152.0,0.0,0.0,-1000.0,3.0,3.0,6.0,22680.0,RTL
06:31:10,0.0011627415660768747,0.001776992343366146,0.20330091565847397,0.0005797620979137719,0.0004206448211334646,0.006337302736938,-35.3623511,149.165544,75572.5,-2.0,1.0,-152.0,0.0,0.0,-999.5,1.5,2.0,7.5,111291.0,RTL
06:31:12,0.0010762467281892896,0.0011778020998463035,0.21142883598804474,-0.0003513285191729665,-0.00086414028191939,0.004789231810718775,-35.3623511,149.165544,78677.5,-2.0,1.0,-152.0,0.0,0.0,-1000.0,1.0,0.5,6.0,111291.0,RTL
06:31:13,0.0010233873181277886,0.0008244106211350299,0.2156449258327484,0.00010622796253301203,-6.855567335151136e-05,0.004366721928818151,-35.3623511,149.165544,80611.75,-2.0,1.0,-152.0,0.0,0.0,-999.5,1.5,1.5,5.5,234150.0,RTL
06:31:14,0.001016936032101512,0.00035287778155179694,0.21832895278930664,0.0009663156233727932,0.0016533714951947331,0.0033383634872734547,-35.3623512,149.165544,81776.5,-1.5,1.0,-152.0,0.0,0.0,-999.5,2.5,3.0,4.5,234150.0,RTL
06:31:16,0.0011490921024233103,0.001017172064166516,0.22403036803007126,0.0030562705360352993,0.0011295906733721495,0.002932635776232928,-35.3623511,149.165544,84890.5,-1.0,1.0,-152.0,0.0,0.0,-1000.0,4.0,2.5,4.0,174372.0,RTL
06:31:18,0.001288006838876754,0.0012183266808278859,0.22924406081438065,0.0013560706283897161,0.0018513832474127412,0.0038814740255475044,-35.3623511,149.165544,88000.5,-1.0,1.0,-152.0,0.0,0.0,-1000.0,2.5,3.5,4.5,174372.0,RTL
06:31:19,0.0011757522588595748,0.001782814331818372,0.23180420696735382,0.00062914052978158,-0.0006248566205613315,0.0028150214056950063,-35.3623511,149.165544,89937.25,-2.0,1.0,-152.0,0.0,0.0,-1000.25,2.25,0.75,4.25,181904.0,RTL
06:31:20,0.0012596669257618487,0.001247235108166933,0.23357906937599182,0.0010203407728113234,-0.0007323354948312044,0.002817302825860679,-35.3623511,149.165544,91106.0,-2.0,1.0,-152.0,0.0,0.0,-999.5,2.5,1.0,4.0,181904.0,RTL
06:31:22,6.0297710660961457e-05,0.0004936277109663934,0.23712272942066193,-0.000383298029191792,-0.001009748608339578,0.0016483126673847437,-35.362351149999995,149.165544,94208.0,-2.0,0.0,-152.0,0.0,0.0,-1000.0,1.5,0.5,2.5,249257.0,RTL
06:31:24,0.001496087817940861,0.0005792754382127896,0.24062569439411163,0.00036967743653804064,-0.0010195056675001979,0.0025198855437338352,-35.3623512,149.165544,97314.0,-1.0,0.0,-152.0,0.0,0.0,-1000.0,2.0,0.5,4.0,249257.0,RTL
06:31:25,0.0012753096234519035,0.000876189602422528,0.2424340881407261,-0.00015862789587117732,0.0007380723254755139,0.0019060525810346007,-35.3623512,149.165544,99258.25,-1.0,1.0,-152.0,0.0,0.0,-999.75,1.5,2.5,3.25,43230.0,RTL
06:31:26,0.0010301033616997302,0.0009190437267534435,0.2437845543026924,0.00024046050384640694,0.001663616974838078,0.0011446979478932917,-35.3623512,149.165544,100425.5,-1.0,1.0,-152.0,0.0,0.0,-1000.5,1.5,3.0,2.0,43230.0,RTL
06:31:28,0.0009924813639372587,0.0007070881547406316,0.24693016707897186,-0.0019526940886862576,-0.00044230849016457796,0.001139516883995384,-35.3623512,149.165544,103530.0,-1.0,1.0,-152.0,0.0,0.0,-1000.0,0.0,1.5,2.5,175652.0,RTL
06:31:30,0.000988967134617269,0.0007503824890591204,0.24924422055482864,-0.001936557237058878,-0.0012776413932442665,0.001264831516891718,-35.3623512,149.165544,106645.5,-1.0,1.0,-152.0,0.0,0.0,-1000.0,0.5,0.0,2.5,175652.0,RTL
06:31:31,0.0009481985034653917,0.0012069487711414695,0.2501381076872349,0.0010844293283298612,0.001750128052663058,0.0029893974715378135,-35.3623512,149.165544,108579.75,-1.0,0.25,-152.0,0.0,0.0,-999.5,2.75,3.25,4.0,182413.0,RTL
06:31:32,0.001156324753537774,0.0018580942414700985,0.25093406438827515,-0.0003523119958117604,-0.0003854887909255922,0.0020715747377835214,-35.3623512,149.165544,109749.0,-2.0,0.0,-152.0,0.0,0.0,-1000.5,1.0,1.0,3.5,182413.0,RTL
06:31:34,0.0001546495441289153,0.0008960871782619506,0.25258083641529083,-0.00043007032945752144,-0.002708085929043591,0.0002315606689080596,-35.3623512,149.165544,112850.0,-2.0,0.0,-152.0,0.0,0.0,-1000.0,1.5,-0.5,2.0,83996.0,RTL
06:31:36,0.000992025180797403,0.00022536895994562656,0.25373558203379315,0.0006526359744990865,-0.0004620130639523268,0.0013174049866696198,-35.3623512,149.165544,115925.66666666667,-1.0,0.0,-152.0,0.0,0.0,-1000.0,2.3333333333333335,1.0,2.6666666666666665,83996.0,RTL
06:31:37,0.001324061246123165,0.0006418142147595063,0.2546416446566582,-0.000100086530437693,0.0004516548942774534,0.000900106766493991,-35.3623512,149.165544,117907.25,-1.0,0.75,-152.0,0.0,0.0,-1000.0,2.0,2.0,2.0,2509.0,RTL
06:31:38,0.0010708320187404752,0.0008538625261280686,0.2551717311143875,0.0012593958526849747,0.000967161962762475,0.0023441584198735654,-35.3623512,149.165544,119075.0,-1.0,1.0,-152.0,0.0,0.0,-1000.0,3.0,2.5,3.5,2509.0,RTL
06:31:40,0.0010500559971357386,0.0009064346862336,0.25640952587127686,-0.000176351439828674,0.0010769675330569346,0.0003493845385188858,-35.3623512,149.165544,122139.0,-1.6666666666666667,1.0,-152.0,0.0,0.0,-999.3333333333334,2.0,2.6666666666666665,1.6666666666666667,146403.0,RTL
06:31:42,0.0009919906733557582,0.0012813414990281065,0.25732045372327167,-0.001492468446182708,-0.0002960426888118188,0.0034212059108540416,-35.3623512,149.165544,125245.66666666667,-2.0,1.0,-152.0,0.0,0.0,-999.0,0.3333333333333333,1.6666666666666667,5.0,146403.0,RTL
06:31:43,0.0005568597310533127,0.00015187332549733887,0.25880033771197003,-0.0005228838029627999,-0.0011861384846270084,0.0005515574011951685,-35.3623512,149.165544,127186.33333333333,-2.0,0.0,-152.0,0.0,0.0,-999.6666666666666,1.3333333333333333,1.0,2.0,44826.0,RTL
06:31:44,0.000689171157622089,4.341277599451132e-05,0.25864983598391217,0.0027654856288184724,0.0009121811017394066,0.0017841443962727983,-35.3623512,149.165544,128351.33333333333,-1.3333333333333333,0.0,-152.0,0.0,0.0,-1000.0,4.666666666666667,2.6666666666666665,3.3333333333333335,44826.0,RTL
06:31:46,0.0009755372690657774,0.006371040886733681,0.2594221830368042,0.0014035464264452457,0.027283576627572376,0.002439826882133881,-35.3623512,149.165544,131460.66666666666,-1.6666666666666667,0.3333333333333333,-151.66666666666666,0.0,0.0,-998.6666666666666,3.3333333333333335,29.0,4.0,34612.0,RTL
06:31:48,-0.006992985960096121,0.0837047149737676,0.2599695424238841,-0.006787586957216263,0.03218487277626991,0.0018069827929139137,-35.36235653333333,149.16554246666666,134507.66666666666,-81.33333333333333,-19.0,-145.0,13.666666666666666,7.333333333333333,-994.0,-4.0,34.333333333333336,3.3333333333333335,34612.0,RTL
06:31:49,-0.04038315266370773,0.1911032497882843,0.4318593641122182,-0.08541114069521427,0.08994455635547638,0.4407743016878764,-35.36237066666666,149.1655377,136210.66666666666,-186.0,-62.333333333333336,-106.33333333333333,37.666666666666664,15.333333333333334,-941.3333333333334,-83.0,92.33333333333333,442.6666666666667,86757.0,RTL
06:31:50,0.03349200441152789,0.15166583905617395,0.714159886042277,0.09273358186086018,-0.12687608848015466,0.21791171034177145,-35.362385933333336,149.1655302,136829.0,-266.6666666666667,-111.0,-53.666666666666664,56.666666666666664,13.666666666666666,-937.6666666666666,94.66666666666667,-124.0,219.66666666666666,86757.0,RTL
06:31:52,0.07448191444079082,0.20843049883842468,0.8165506919225057,-0.032939253374934196,0.06847353652119637,-0.03224626431862513,-35.362449500000004,149.16550933333335,136868.33333333334,-456.0,-88.0,28.0,110.0,-4.0,-999.6666666666666,-30.666666666666668,70.33333333333333,-29.333333333333332,169351.0,RTL
06:31:54,0.035963927706082664,0.22974525392055511,0.7308324575424194,-0.0046199179875353975,-0.03445103267828623,-0.0533704919119676,-35.36255206666667,149.16548073333334,136482.33333333334,-682.0,-169.66666666666666,3.3333333333333335,153.0,7.666666666666667,-1005.0,-2.3333333333333335,-32.0,-51.0,169351.0,RTL
06:31:55,-0.00026161607820540667,0.23852424323558807,0.6313320795694987,-0.0060433936305344105,0.08226461025575797,-0.09653906027475993,-35.36263316666666,149.1654557,136440.0,-758.6666666666666,-190.66666666666666,7.666666666666667,161.33333333333334,11.666666666666666,-944.6666666666666,-2.6666666666666665,84.0,-94.0,39880.0,RTL
06:31:56,-0.0378891509026289,0.32446008920669556,0.5285846094290415,-0.005230749569212397,0.07110815805693467,-0.14490572611490884,-35.3626858,149.16543883333333,136169.66666666666,-815.3333333333334,-219.33333333333334,69.66666666666667,163.0,33.0,-881.0,-2.6666666666666665,73.33333333333333,-142.0,39880.0,RTL
06:31:58,-0.07530926167964935,0.03950489747027556,0.265450378259023,-0.10413611804445584,-0.06752948028345902,-0.00809805483246843,-35.36284443333333,149.16538446666667,135248.0,-860.0,-218.33333333333334,-86.33333333333333,183.0,103.0,-1103.6666666666667,-101.0,-64.33333333333333,-6.0,89983.0,RTL
06:32:00,-0.07877186437447865,0.1090363437930743,0.28416092197100323,-0.03960853380461534,-0.15287180369098982,-0.10252037396033604,-35.36299096666667,149.16533223333332,135677.33333333334,-824.6666666666666,-254.33333333333334,-22.666666666666668,172.0,93.33333333333333,-1116.6666666666667,-37.0,-149.66666666666666,-100.0,89983.0,RTL
06:32:01,-0.14949636161327362,0.08649262661735217,0.5182237227757772,-0.05964168161153793,-0.10108531018098195,0.440105398495992,-35.36307766666666,149.16530049999997,136523.33333333334,-715.0,-241.33333333333334,-68.0,148.33333333333334,45.666666666666664,-936.0,-56.666666666666664,-98.33333333333333,441.6666666666667,245763.0,RTL
06:32:02,-0.08524114886919658,-0.032333247091931604,0.698927621046702,0.15532087783018747,-0.12383548418680827,0.015958424657583237,-35.36312276666666,149.1652811,136937.0,-608.6666666666666,-228.0,-32.333333333333336,146.66666666666666,28.0,-925.6666666666666,156.66666666666666,-121.0,17.666666666666668,245763.0,RTL
06:32:04,-0.03616851940751076,-0.016180989953378837,0.6315560142199198,0.3790302673975627,0.014380200145145258,0.005134723847731948,-35.3632067,149.165251,136741.0,-353.3333333333333,-65.33333333333333,11.333333333333334,84.0,45.333333333333336,-1023.6666666666666,382.3333333333333,16.666666666666668,7.333333333333333,136678.0,RTL
06:32:06,-0.04419404019912084,-0.05778181552886963,0.5815084973971049,0.14607044557730356,-0.025364137565096218,-0.027017409913241863,-35.3632522,149.16523986666664,136657.66666666666,-164.33333333333334,-29.333333333333332,0.0,38.333333333333336,1.6666666666666667,-1000.3333333333334,147.66666666666666,-23.0,-24.333333333333332,136678.0,RTL
06:32:07,-0.014757984007398287,-0.04405895868937174,0.5609696904818217,0.3255169689655304,0.013833800020317236,-0.01756997996320327,-35.3632636,149.16523623333333,136656.33333333334,-62.666666666666664,-11.0,0.0,13.666666666666666,8.666666666666666,-999.6666666666666,327.6666666666667,16.333333333333332,-15.0,117589.0,RTL
06:32:08,-0.01798038153598706,-0.03384843158225218,0.5479974945386251,-0.21986429889996847,0.01840375488003095,-0.012897285322348276,-35.36326623333333,149.16523553333332,136660.33333333334,-25.666666666666668,-1.6666666666666667,0.0,5.666666666666667,1.3333333333333333,-1003.0,-216.33333333333334,20.666666666666668,-10.0,117589.0,RTL
06:32:10,-0.016145956392089527,0.0035346803876260915,0.5186704993247986,0.03777711341778437,-0.014098328538239002,-0.004437428976719578,-35.36326723333334,149.1652371,136677.0,5.333333333333333,-3.0,0.3333333333333333,2.0,-6.333333333333333,-999.0,39.666666666666664,-11.666666666666666,-1.6666666666666667,197140.0,RTL
06:32:12,-0.01600890668729941,-0.011692826015253862,0.5010190506776174,-0.5038287192583084,0.00753830272393922,-0.002910134537766377,-35.36326653333333,149.1652379,136678.66666666666,20.0,-10.333333333333334,0.3333333333333333,-2.3333333333333335,-17.333333333333332,-992.6666666666666,-501.3333333333333,10.0,-0.3333333333333333,197140.0,RTL
06:32:13,-0.0013712015934288502,-0.008021868920574585,0.4926462074120839,-0.26491642991701764,-0.0022699741336206594,-0.0035880682601903877,-35.3632651,149.16523750000002,136679.66666666666,18.666666666666668,-7.333333333333333,-0.3333333333333333,-3.3333333333333335,-13.666666666666666,-988.3333333333334,-263.0,0.3333333333333333,-1.0,258870.0,RTL
06:32:14,0.012814221748461327,-0.007373678808410962,0.4877672592798869,0.4410003771384557,-0.0021314709447324276,-0.00720615250368913,-35.3632642,149.16523683333332,136678.66666666666,14.0,-2.0,0.0,-3.0,25.0,-997.3333333333334,443.0,0.3333333333333333,-4.0,258870.0,RTL
06:32:16,0.023621938501795132,-0.005893473668644826,0.4764149785041809,0.10167591118564208,-0.0006175981058428685,-0.0069477631089588,-35.36326259999999,149.16523553333334,136315.66666666666,2.6666666666666665,10.0,67.33333333333333,-0.6666666666666666,-27.333333333333332,-924.3333333333334,102.0,2.0,-4.333333333333333,214741.0,RTL
06:32:18,0.03985850512981415,-0.004813560750335455,0.46528265873591107,1.222656488418579,-0.0014935786214967568,-0.002925222817187508,-35.363261666666666,149.16523483333333,134214.33333333334,-4.0,18.333333333333332,106.0,-1.3333333333333333,32.333333333333336,-1026.3333333333333,1224.0,1.0,0.0,214741.0,RTL
06:32:19,0.04742702469229698,-0.004720548788706462,0.4606669346491496,1.42337961991628,0.005329337902367115,-0.007437285811950763,-35.36326116666667,149.16523383333333,132908.66666666666,-8.666666666666666,25.666666666666668,100.0,0.0,50.666666666666664,-1011.3333333333334,1425.6666666666667,7.333333333333333,-4.0,41878.0,RTL
06:32:20,0.04128918796777725,-0.002265792068404456,0.45678367217381793,0.871503750483195,0.00048542340906957787,-0.00587214653690656,-35.3632611,149.16523396666665,132145.0,-10.0,29.666666666666668,99.66666666666667,2.6666666666666665,2.3333333333333335,-975.3333333333334,872.6666666666666,2.3333333333333335,-3.3333333333333335,41878.0,RTL
06:32:22,0.015881439670920372,0.000665082455573914,0.4482221305370331,1.357740879058838,-0.0009709489531815052,0.00035764331308503944,-35.3632617,149.16523636666668,130116.0,-7.0,17.0,97.66666666666667,1.6666666666666667,50.0,-1008.3333333333334,1361.0,1.6666666666666667,2.6666666666666665,86673.0,RTL
06:32:24,0.020406663417816162,-0.002719913531715671,0.440978080034256,0.8836583495140076,-0.0008013656285280982,-0.004854801654194792,-35.363262166666665,149.16523733333335,128080.33333333333,-1.6666666666666667,4.0,100.66666666666667,0.3333333333333333,1.0,-976.0,885.3333333333334,1.3333333333333333,-2.0,86673.0,RTL
06:32:25,0.012779839957753817,-0.0031239657352368035,0.4366209904352824,0.16844467322031656,0.0002264843787997961,0.0008987933397293091,-35.3632623,149.16523746666667,126808.0,0.0,1.3333333333333333,103.0,0.3333333333333333,-31.0,-1030.6666666666667,170.0,2.0,3.6666666666666665,281724.0,RTL
06:32:26,0.018471368898948032,-0.0031128338693330684,0.4344194332758586,0.4001120924949646,-0.002397843636572361,-0.006605693333161374,-35.3632623,149.16523733333332,126036.33333333333,0.0,1.0,104.0,-0.3333333333333333,-20.333333333333332,-975.0,401.3333333333333,0.3333333333333333,-3.6666666666666665,281724.0,RTL
06:32:28,0.019090894609689713,-0.003087225059668223,0.42806753516197205,-0.19592362890640894,-0.0016161822713911533,-0.016494094006096322,-35.363262033333335,149.1652367,124005.33333333333,-0.3333333333333333,3.0,100.33333333333333,0.3333333333333333,-46.666666666666664,-985.6666666666666,-193.66666666666666,1.0,-13.333333333333334,25250.0,RTL
06:32:30,0.005669975187629461,-0.0021858617352942624,0.4256000816822052,-0.2631589521964391,0.0029802550949777165,-0.005063235759735107,-35.363262,149.1652371,121967.33333333333,-2.0,5.0,104.0,-1.0,-49.333333333333336,-976.0,-260.6666666666667,4.666666666666667,-2.0,25250.0,RTL
06:32:31,0.00999322704349955,-0.00541526669015487,0.42153709133466083,-0.6700715819994608,-0.005537308286875486,0.004457841316858928,-35.36326196666666,149.16523656666666,120696.66666666667,-1.3333333333333333,2.3333333333333335,101.66666666666667,-2.6666666666666665,-57.333333333333336,-993.6666666666666,-667.6666666666666,-2.3333333333333335,7.0,263293.0,RTL
06:32:32,0.025671302030483883,-0.006541855788479249,0.42005789279937744,-0.5609088738759359,0.0014423871180042624,0.005209112462277214,-35.36326163333333,149.16523556666667,119919.33333333333,-3.0,7.333333333333333,101.66666666666667,-2.6666666666666665,-58.0,-1003.3333333333334,-558.0,3.6666666666666665,8.0,263293.0,RTL
06:32:34,0.005733603922029336,0.0031355891842395067,0.417129784822464,-1.2303927739461262,0.0030689439736306667,-0.007083513618757327,-35.36326113333333,149.16523523333333,117863.33333333333,-8.333333333333334,20.666666666666668,100.66666666666667,1.6666666666666667,-82.33333333333333,-993.6666666666666,-1226.6666666666667,5.333333333333333,-3.6666666666666665,221137.0,RTL
06:32:36,-0.016650636369983356,0.0021458263120924435,0.4148849944273631,-1.3636644681294758,-0.001340030071636041,-0.0062453770854820805,-35.36326186666667,149.16523759999998,115817.33333333333,-3.6666666666666665,3.6666666666666665,99.33333333333333,3.0,-74.66666666666667,-977.0,-1359.6666666666667,1.0,-3.3333333333333335,221137.0,RTL
06:32:37,-0.04227635636925697,0.0021718216206257543,0.4120558301607768,-1.270462433497111,-0.0004798479688664277,-0.003319639634961883,-35.363262666666664,149.16523956666666,114530.66666666667,1.0,-7.0,98.33333333333333,3.6666666666666665,-51.333333333333336,-1006.3333333333334,-1265.6666666666667,1.6666666666666667,-0.3333333333333333,64283.0,RTL
06:32:38,-0.0493708165983359,0.001180793042294681,0.41103477279345196,-1.1113171776135762,-0.0008111643449713787,-0.0015619808109477162,-35.363263100000005,149.16524059999998,113763.66666666667,4.666666666666667,-16.333333333333332,101.0,2.0,-29.0,-1015.6666666666666,-1106.0,2.0,1.0,64283.0,RTL
06:32:40,-0.0630410226682822,-0.0008661268996850898,0.40755972266197205,-1.077904184659322,-0.004287284566089511,0.003806523202608029,-35.363263933333336,149.16524236666666,111748.66666666667,13.0,-32.666666666666664,101.66666666666667,0.3333333333333333,-11.666666666666666,-1003.3333333333334,-1073.0,-1.6666666666666667,6.0,224477.0,RTL
06:32:42,-0.040393936137358345,-0.007456866248200337,0.40664183100064594,-0.704529603322347,-0.0019522345003982384,-0.0028277875389903784,-35.363264,149.16524143333334,109716.33333333333,17.0,-36.333333333333336,101.0,-2.3333333333333335,9.0,-986.6666666666666,-699.6666666666666,0.6666666666666666,0.3333333333333333,224477.0,RTL
06:32:43,-0.010449179292966923,-0.005757548380643129,0.40566286444664,0.9334937334060669,-0.0042727087857201695,-0.0013134533849855263,-35.36326366666666,149.1652404666667,108429.66666666667,15.0,-29.0,100.66666666666667,-2.3333333333333335,72.33333333333333,-995.0,937.3333333333334,-1.6666666666666667,1.3333333333333333,297555.0,RTL
06:32:44,0.002939005227138599,-0.004971802545090516,0.40493080019950867,1.3635894060134888,-0.0008500632053862015,-0.0034047309309244156,-35.3632633,149.16523973333335,107662.66666666667,13.0,-24.666666666666668,100.33333333333333,-2.0,75.33333333333333,-998.0,1366.6666666666667,1.6666666666666667,-0.3333333333333333,297555.0,RTL
06:32:46,0.0037311105988919735,-0.0015801845584064722,0.40355326731999713,1.2597498496373494,-0.003578351034472386,0.00021505596426626047,-35.3632628,149.1652389,105612.0,7.0,-12.333333333333334,96.0,0.0,50.666666666666664,-1039.6666666666667,1261.3333333333333,-1.3333333333333333,3.0,251297.0,RTL
06:32:48,0.008128544936577478,-0.003574176381031672,0.40139498313268024,1.3693482478459675,-0.00038718370099862415,0.003683028897891442,-35.36326263333333,149.16523880000003,103582.33333333333,5.0,-13.666666666666666,98.0,-1.3333333333333333,74.66666666666667,-1004.3333333333334,1372.0,2.0,6.0,251297.0,RTL
06:32:49,-0.004451500639940302,-0.0028849851805716753,0.40123336513837177,0.6942816376686096,0.001685136075442036,-0.003612675704061985,-35.36326243333334,149.16523816666668,102308.0,2.0,-6.0,100.33333333333333,-1.6666666666666667,73.0,-971.0,697.6666666666666,3.6666666666666665,-1.0,123175.0,RTL
06:32:50,0.007779336767271161,-0.0038333577880014977,0.399847278992335,1.1558013955752056,-0.001325503030481438,0.0013466992725928624,-35.3632623,149.16523776666665,101547.66666666667,0.3333333333333333,-3.3333333333333335,97.66666666666667,-2.6666666666666665,68.33333333333333,-1026.3333333333333,1158.3333333333333,1.0,4.333333333333333,123175.0,RTL
06:32:52,0.0229786013563474,-0.003626194860165318,0.39972477157910663,1.0675042271614075,0.0017282026819884777,0.0011574682624389727,-35.363261533333336,149.1652356,99489.33333333333,-4.333333333333333,10.0,99.66666666666667,-1.0,74.66666666666667,-1008.3333333333334,1070.6666666666667,3.6666666666666665,4.0,283550.0,RTL
06:32:54,0.028192151958743732,-3.217147119964162e-05,0.39939044912656146,1.050924797852834,0.0033158994435022273,-0.0009549353271722794,-35.3632614,149.16523553333334,97447.0,-6.0,16.666666666666668,98.66666666666667,0.0,10.666666666666666,-1034.6666666666667,1051.6666666666667,5.333333333333333,2.0,283550.0,RTL
06:32:55,0.017652755913635094,0.0009159117665452262,0.398679385582606,1.207877278327942,-0.003309916704893112,-0.0019368119537830353,-35.3632617,149.1652366666667,96163.33333333333,-5.666666666666667,12.0,99.33333333333333,2.0,27.666666666666668,-1002.6666666666666,1209.0,-0.6666666666666666,1.3333333333333333,246828.0,RTL
06:32:56,0.011832064328094324,-0.0004573421028908342,0.3977683186531067,0.7676694989204407,-0.004859305374945204,-0.00027921881216267747,-35.36326186666667,149.16523723333333,95406.0,-4.0,6.0,98.0,0.0,-0.6666666666666666,-986.0,768.0,-2.3333333333333335,2.3333333333333335,246828.0,RTL
06:32:58,0.01864577333132426,-0.0017336805661519368,0.3977830807367961,0.5440353751182556,0.0021896491137643657,0.001589687541127205,-35.3632619,149.1652371,93367.66666666667,-2.0,2.3333333333333335,100.66666666666667,1.6666666666666667,-19.333333333333332,-973.6666666666666,544.3333333333334,4.666666666666667,4.333333333333333,262378.0,RTL
06:33:00,0.0010977103374898434,0.00010710669448599219,0.3967218299706777,0.24994737034042677,-0.003250757736774782,0.0006823266545931498,-35.36326223333334,149.16523826666665,91345.33333333333,-0.3333333333333333,-2.6666666666666665,99.0,0.3333333333333333,-25.0,-1017.6666666666666,250.33333333333334,-0.6666666666666666,3.3333333333333335,262378.0,RTL
06:33:01,0.01004892874819537,-0.0019488348237549265,0.3967360258102417,0.04551189889510473,-0.004241459537297487,0.00018040649592876434,-35.3632623,149.16523816666668,90075.33333333333,0.0,-5.0,103.0,-1.0,-32.666666666666664,-988.6666666666666,46.0,-1.3333333333333333,3.0,114064.0,RTL
06:33:02,0.007044173684941295,-0.004251730705921848,0.3960851728916168,-0.765717069307963,-0.0013999877652774255,0.0029940884560346603,-35.363262133333336,149.16523753333334,89328.0,0.0,-5.333333333333333,102.33333333333333,-2.0,-63.333333333333336,-991.0,-765.0,0.6666666666666666,5.333333333333333,114064.0,RTL
06:33:04,1.2949807569384575e-05,-0.0006030226340953959,0.3972165087858836,-1.3723620573679607,0.005572942551225424,-0.003398730264355739,-35.3632615,149.16523586666668,87285.0,-4.666666666666667,9.333333333333334,103.0,0.0,-63.666666666666664,-1018.3333333333334,-1369.6666666666667,7.666666666666667,0.3333333333333333,181384.0,RTL
06:33:06,-0.02656872756779194,0.0007415066453783462,0.39525312185287476,-1.2358182668685913,-0.002079648159754773,-0.0030790430416042605,-35.3632618,149.16523709999998,85246.0,-5.333333333333333,8.666666666666666,101.66666666666667,0.3333333333333333,-32.666666666666664,-1020.0,-1232.0,0.0,0.0,181384.0,RTL
06:33:07,-0.012875488959252834,-0.0036490389611572027,0.39544599254926044,-0.9216754833857218,0.0005591902105758587,-0.0009067966602742672,-35.3632619,149.1652371,83979.33333333333,-3.3333333333333335,2.0,104.66666666666667,-1.6666666666666667,-8.0,-996.6666666666666,-917.0,2.6666666666666665,2.0,111405.0,RTL
06:33:08,-0.003916196990758181,-0.0038145361468195915,0.3964144090811412,-0.4373025943835576,-0.002507559023797512,0.008563735832770666,-35.3632619,149.16523656666666,83214.33333333333,-3.3333333333333335,6.0,105.33333333333333,0.3333333333333333,21.666666666666668,-1003.0,-432.0,0.3333333333333333,11.666666666666666,111405.0,RTL
06:33:10,-0.01854188336680333,0.0016035971590705838,0.3954009711742401,-0.8247372110684713,0.007647767663002014,-0.004814742753903071,-35.36326196666666,149.16523703333334,81188.33333333333,-2.0,7.666666666666667,107.0,2.6666666666666665,-5.666666666666667,-948.3333333333334,-820.0,9.666666666666666,-1.6666666666666667,174790.0,RTL
06:33:12,-0.051135435700416565,0.0015299676063780983,0.3951897919178009,-0.7584443589051565,-0.0034155609707037606,0.006091504357755184,-35.36326303333334,149.16524063333335,79138.33333333333,4.333333333333333,-16.666666666666668,106.33333333333333,1.3333333333333333,3.0,-1034.0,-754.0,-0.6666666666666666,8.666666666666666,174790.0,RTL
06:33:13,-0.027849899604916573,-0.0018176117446273565,0.3946246604124705,0.0676453672349453,-0.0009251196558276812,0.002601424464955926,-35.36326326666667,149.1652409,77868.66666666667,7.333333333333333,-25.333333333333332,103.66666666666667,-0.3333333333333333,40.333333333333336,-983.3333333333334,72.0,1.3333333333333333,5.333333333333333,186875.0,RTL
06:33:14,-0.02587580991288026,-0.0023715794862558446,0.39520399769147235,0.3215891594688098,0.000903855892829597,0.008589835682262978,-35.363263233333335,149.16524066666668,77089.33333333333,8.0,-26.0,104.66666666666667,0.0,52.666666666666664,-1018.0,325.0,3.0,11.666666666666666,186875.0,RTL
06:33:16,-0.019235980696976185,-0.0016777219134382904,0.3936910529931386,-0.21124406531453133,0.00376766345774134,0.0033990982143829265,-35.3632627,149.1652394,75036.0,5.333333333333333,-20.0,102.66666666666667,-2.6666666666666665,36.333333333333336,-1021.0,-207.0,6.0,6.0,215195.0,RTL
06:33:18,0.0035005247530837855,-0.001037966227158904,0.39387927452723187,1.0627078811327617,0.0006761262193322182,0.0046019187817970915,-35.3632623,149.16523843333334,72987.33333333333,0.6666666666666666,-8.666666666666666,101.33333333333333,-0.3333333333333333,72.66666666666667,-999.0,1065.3333333333333,3.3333333333333335,7.0,215195.0,RTL
06:33:19,0.007470777258276939,-0.003811365459114313,0.39321646094322205,1.0629949768384297,-0.002588085519770781,0.002367907048513492,-35.363262066666664,149.16523766666666,71719.66666666667,-1.0,-4.333333333333333,102.66666666666667,-3.3333333333333335,74.66666666666667,-1001.0,1065.6666666666667,0.3333333333333333,5.0,157689.0,RTL
06:33:20,0.023611910330752533,-0.007137139017383258,0.39315040906270343,1.0946088035901387,-0.003277012767891089,-0.001170209802997609,-35.36326176666667,149.16523636666668,70942.0,-4.0,2.0,101.0,-6.0,84.33333333333333,-1004.0,1098.0,-0.3333333333333333,1.6666666666666667,157689.0,RTL
06:33:22,0.07224674274524052,-0.007816996580610672,0.3939458926518758,1.2164247035980225,0.004227290473257502,0.0027702252846211195,-35.36326006666667,149.16523073333335,68903.66666666667,-16.666666666666668,41.666666666666664,101.33333333333333,-3.3333333333333335,76.66666666666667,-1017.3333333333334,1220.0,6.666666666666667,6.0,214677.0,RTL
06:33:24,0.05800424267848333,0.0010812710388563573,0.3943971594174703,1.3661991357803345,0.0012310196955998738,-1.6616036494572956e-05,-35.3632595,149.16523023333335,66865.33333333333,-25.0,63.0,99.33333333333333,0.6666666666666666,52.0,-1005.6666666666666,1369.6666666666667,3.6666666666666665,3.3333333333333335,214677.0,RTL
06:33:25,0.04938393955429395,0.002012470931125184,0.39570290843645733,1.428972840309143,-0.005892968426148097,0.00313017051666975,-35.36325983333334,149.1652316,65582.66666666667,-24.333333333333332,56.0,101.33333333333333,2.3333333333333335,49.0,-1012.6666666666666,1433.0,-2.6666666666666665,6.333333333333333,110710.0,RTL
06:33:26,0.04603123168150584,0.0014919577709709604,0.395031879345576,1.2678238153457642,-0.0011908624631663163,0.0015873258622984092,-35.3632601,149.1652323666667,64820.333333333336,-22.333333333333332,50.0,103.0,2.0,28.666666666666668,-999.3333333333334,1271.6666666666667,1.3333333333333333,5.0,110710.0,RTL
06:33:28,0.02718304346005122,0.0031850794330239296,0.39526418844858807,1.1227596203486125,0.004590490056822698,0.0007972756090263525,-35.36326106666667,149.16523493333332,62767.666666666664,-14.0,33.0,100.66666666666667,3.6666666666666665,17.0,-1005.0,1126.6666666666667,7.0,3.6666666666666665,60182.0,RTL
06:33:30,-0.006343475407144676,0.0021335020816574493,0.3947775363922119,-0.03337703769405683,-0.002071784343570471,-0.002703812438994646,-35.363262399999996,149.1652387,60732.0,-2.0,1.0,101.66666666666667,4.0,-44.333333333333336,-961.3333333333334,-30.0,0.6666666666666666,1.0,60182.0,RTL
06:33:31,-0.014879613183438778,-7.683514074111979e-05,0.3943810661633809,-0.6130795478820801,0.0019992242256800332,-0.0008970458681384722,-35.36326293333333,149.16524,59452.333333333336,4.0,-14.0,100.33333333333333,0.6666666666666666,-70.0,-957.0,-609.3333333333334,4.333333333333333,2.6666666666666665,253137.0,RTL
06:33:32,-0.03255761290589968,-0.002001700457185507,0.3941280245780945,-1.2367005546887715,-0.0018515880219638348,0.0017811838382234175,-35.3632632,149.16524036666667,58693.0,6.0,-19.333333333333332,99.33333333333333,0.3333333333333333,-62.0,-1006.0,-1232.0,0.6666666666666666,5.0,253137.0,RTL
06:33:34,-0.026235805824398994,-0.002723535057157278,0.39442795515060425,-1.37619944413503,-0.0031483882727722325,-0.0006405233095089594,-35.363263233333335,149.16524016666668,56638.333333333336,9.666666666666666,-24.0,101.0,0.0,-73.0,-1014.0,-1372.0,-0.3333333333333333,2.3333333333333335,109718.0,RTL
06:33:36,-0.03445040931304296,-0.0023638124112039804,0.39401564995447796,-1.241540253162384,0.0006338842213153839,0.0012213389078776042,-35.363262999999996,149.16523986666667,54605.0,7.333333333333333,-20.666666666666668,103.33333333333333,-1.6666666666666667,-27.0,-951.3333333333334,-1235.6666666666667,3.0,4.666666666666667,109718.0,RTL
06:33:37,-0.02005699307968219,-0.003944356149683396,0.39368361234664917,-1.4664884805679321,-0.00037973804865032434,-0.0018179585070659716,-35.36326259999999,149.16523876666668,53310.333333333336,5.0,-16.666666666666668,98.0,-2.6666666666666665,-54.0,-992.3333333333334,-1462.3333333333333,2.3333333333333335,1.6666666666666667,187924.0,RTL
06:33:38,-0.007088238062957923,-0.0038883068288366,0.39382856090863544,-1.4199562470118205,0.0032424191012978554,-0.0005169946234673262,-35.3632623,149.16523786666667,52551.666666666664,2.3333333333333335,-10.0,96.66666666666667,-2.3333333333333335,-52.0,-1016.6666666666666,-1415.6666666666667,5.666666666666667,2.6666666666666665,187924.0,RTL
06:33:40,0.003356051864102483,-0.0029324662561217942,0.3947325050830841,-0.5340359707673391,0.0030191978439688683,0.003347933835660418,-35.3632615,149.16523566666666,50503.0,-4.0,7.666666666666667,100.66666666666667,-1.0,16.333333333333332,-983.6666666666666,-527.6666666666666,5.666666666666667,6.666666666666667,192621.0,RTL
06:33:42,-0.01459232314179341,0.0018723859296490748,0.3943786323070526,-0.5013809452454249,0.005469395701463024,-0.0021201142420371375,-35.36326143333333,149.16523626666665,48451.666666666664,-7.0,13.666666666666666,97.33333333333333,0.0,14.333333333333334,-988.3333333333334,-494.6666666666667,8.0,1.3333333333333333,192621.0,RTL
06:33:43,0.005409308786814411,-0.0012821837638815243,0.3935561378796895,0.731928418080012,0.0014501958309362333,0.0007319136057049036,-35.3632615,149.1652365333333,47187.666666666664,-7.0,9.333333333333334,98.33333333333333,0.0,58.333333333333336,-1014.0,738.3333333333334,4.0,4.333333333333333,159103.0,RTL
06:33:44,0.010858410969376564,-0.0029428439835707345,0.392617662747701,1.007760465145111,-0.003604886354878545,-0.006806482250491778,-35.3632615,149.16523636666668,46427.666666666664,-7.333333333333333,10.0,97.66666666666667,-2.3333333333333335,74.33333333333333,-976.3333333333334,1014.0,-0.6666666666666666,-2.6666666666666665,159103.0,RTL
06:33:46,0.024608324592312176,-0.0013774776792464156,0.39445451895395917,1.213250994682312,0.0035334355973949036,0.002417890044550101,-35.3632613,149.16523500000002,44382.0,-9.0,21.0,99.33333333333333,0.3333333333333333,74.33333333333333,-997.0,1219.6666666666667,6.333333333333333,6.0,170546.0,RTL
06:33:48,0.019286982404688995,0.002472579556827744,0.3946745793024699,1.1217722694079082,7.824273779988289e-06,0.0014349373523145914,-35.3632615,149.1652364,42347.333333333336,-7.333333333333333,15.0,97.66666666666667,3.0,25.333333333333332,-999.6666666666666,1126.0,3.0,5.0,170546.0,RTL
06:33:49,0.009423740829030672,0.0007168558270980915,0.3944999774297078,0.6857885817686716,-0.00256458871687452,-0.006289740946764748,-35.363262,149.16523773333333,41076.0,-3.3333333333333335,3.6666666666666665,97.66666666666667,2.6666666666666665,-2.3333333333333335,-1015.3333333333334,689.3333333333334,0.3333333333333333,-2.3333333333333335,275391.0,RTL
06:33:50,-0.005633326635385553,-0.0011065419142444928,0.3937673370043437,-0.5409981856743494,-0.006639443725968401,-0.013571794455250105,-35.36326223333334,149.16523813333333,40320.666666666664,-1.0,-1.3333333333333333,101.0,2.0,-57.666666666666664,-981.3333333333334,-536.6666666666666,-3.3333333333333335,-9.333333333333334,275391.0,RTL
06:33:52,-0.022729645172754925,-0.001955646749896308,0.39427095651626587,-1.4189464648564656,0.0043794460749874515,-0.0074075319183369475,-35.3632626,149.16523876666668,38275.333333333336,3.0,-9.333333333333334,101.0,1.3333333333333333,-77.66666666666667,-979.0,-1414.3333333333333,7.0,-3.3333333333333335,39447.0,RTL
06:33:54,-0.04784641166528066,0.00046906501908476156,0.3936681350072225,-1.386792778968811,-0.0003274739719927311,-0.0031468632320562997,-35.36326316666666,149.1652405,36234.666666666664,7.0,-18.666666666666668,99.0,0.3333333333333333,-61.333333333333336,-1021.6666666666666,-1382.0,2.3333333333333335,1.0,39447.0,RTL
06:33:55,-0.03742764207224051,-0.004904208394388358,0.3937789400418599,-1.3141027688980103,-0.002242861936489741,-0.002060433655666808,-35.363263233333335,149.1652402666667,34967.666666666664,8.666666666666666,-25.666666666666668,101.33333333333333,-2.0,-34.0,-1014.6666666666666,-1308.3333333333333,0.3333333333333333,1.3333333333333333,49933.0,RTL
06:33:56,-0.02085043986638387,-0.005131824097285668,0.39418747027715045,-1.2557790279388428,0.003877566351244847,-0.002668482018634677,-35.363262999999996,149.1652394,34200.333333333336,8.0,-22.0,101.33333333333333,-2.3333333333333335,-30.666666666666668,-985.0,-1250.0,6.333333333333333,1.0,49933.0,RTL
06:33:58,-0.011324509357412657,-0.004907618121554454,0.3942837119102478,-1.1415833433469136,0.004382690414786339,-0.0011166761784503858,-35.36326233333333,149.16523750000002,32150.0,3.0,-6.666666666666667,98.66666666666667,-2.0,-24.0,-1012.3333333333334,-1136.0,7.0,2.3333333333333335,79851.0,RTL
06:34:00,-0.025666215146581333,-0.0013774000108242035,0.3940138518810272,-1.177704095840454,-0.00045376022656758624,0.0038522994921853146,-35.3632621,149.16523730000003,30107.333333333332,0.0,2.3333333333333335,99.66666666666667,0.0,-30.0,-995.3333333333334,-1172.0,2.3333333333333335,7.333333333333333,79851.0,RTL
06:34:01,-0.011626935874422392,-0.0030513685972740254,0.39426881074905396,-0.24091076850891113,0.0033289588366945586,-0.008421621906260649,-35.3632621,149.16523726666665,28841.333333333332,-0.3333333333333333,0.3333333333333333,101.0,-1.0,23.0,-984.6666666666666,-234.0,5.666666666666667,-4.666666666666667,290985.0,RTL
06:34:02,-0.0034000639570876956,-0.003390803545092543,0.3950251638889313,0.16268934806187949,0.0020639351569116116,-0.0003106537430236737,-35.3632621,149.1652371,28064.0,-0.3333333333333333,2.0,99.33333333333333,0.0,45.0,-1003.0,169.33333333333334,4.666666666666667,3.3333333333333335,290985.0,RTL
06:34:04,0.017324691948791344,-0.0026832974205414453,0.39470958709716797,1.3968454599380493,-0.0008854165207594633,0.004740745294839144,-35.3632621,149.16523713333333,26010.333333333332,-0.3333333333333333,3.3333333333333335,100.66666666666667,0.3333333333333333,61.0,-1027.6666666666667,1401.3333333333333,2.0,8.333333333333334,142672.0,RTL
06:34:06,0.029285090665022533,-0.00693629930416743,0.39349275827407837,1.4117003679275513,-0.0003916179606070121,0.005189822521060705,-35.363262066666664,149.16523643333335,23977.0,-1.3333333333333333,4.333333333333333,98.0,-3.3333333333333335,59.0,-999.0,1416.0,2.6666666666666665,8.666666666666666,142672.0,RTL
06:34:07,0.05140769233306249,-0.006913204677402973,0.39457308252652484,0.7856458028157552,0.001066320575773716,-0.001913725243260463,-35.36326146666667,149.1652345,22704.0,-5.0,16.0,101.33333333333333,-2.3333333333333335,-0.3333333333333333,-986.0,789.0,3.6666666666666665,1.6666666666666667,148422.0,RTL
06:34:08,0.05534686520695686,-0.005461582603553931,0.39506428440411884,1.1948530276616414,0.0010109190673877795,-0.0011514454769591491,-35.36326106666667,149.16523346666665,21936.333333333332,-8.0,25.0,98.33333333333333,-1.0,16.0,-1040.3333333333333,1199.0,4.0,2.6666666666666665,148422.0,RTL
06:34:10,0.015397104745109877,0.002253823991244038,0.3955618540445964,-0.7387907107671102,0.0016062709813316662,-0.007327807601541281,-35.3632611,149.16523453333335,19913.333333333332,-9.0,28.666666666666668,101.66666666666667,3.6666666666666665,-76.33333333333333,-948.3333333333334,-734.6666666666666,4.666666666666667,-3.0,269594.0,RTL
06:34:12,-0.020291743179162342,0.0019000030976409714,0.39498456319173175,-0.5031822820504507,-0.007531957079966863,-0.008509550088395676,-35.36326256666667,149.1652391,17858.666666666668,0.0,-0.6666666666666666,100.33333333333333,4.666666666666667,-69.66666666666667,-962.6666666666666,-499.3333333333333,-4.0,-3.6666666666666665,269594.0,RTL
06:34:13,-0.03302232424418131,-0.00035993898442635935,0.3951263924439748,-0.8715039690335592,-0.0004205457710971435,-0.0030719912610948086,-35.363263333333336,149.16524086666666,16587.666666666668,7.333333333333333,-18.333333333333332,99.0,1.6666666666666667,-75.66666666666667,-987.3333333333334,-867.6666666666666,2.6666666666666665,1.0,187931.0,RTL
06:34:14,-0.04109655817349752,-0.0033111739127586284,0.3943280279636383,-1.159750481446584,-0.004154144786298275,-0.006585174473002553,-35.36326376666667,149.16524160000003,15822.666666666666,11.0,-27.666666666666668,99.66666666666667,0.0,-72.66666666666667,-978.0,-1155.6666666666667,-1.0,-2.3333333333333335,187931.0,RTL
06:34:16,-0.04218674078583717,-0.0036561781695733466,0.39497262239456177,-1.279457449913025,-2.184417098760605e-06,0.0025896217363576093,-35.3632638,149.16524136666666,13784.0,14.333333333333334,-31.333333333333332,101.0,-0.3333333333333333,-55.333333333333336,-996.3333333333334,-1274.3333333333333,2.3333333333333335,6.0,60100.0,RTL
06:34:18,-0.03543074491123358,-0.004241940254966418,0.3954314688841502,-1.1998510758082073,0.0043312358514716225,-0.00014517898671329021,-35.36326363333333,149.1652409,11768.666666666666,15.0,-32.666666666666664,83.66666666666667,-0.3333333333333333,-44.333333333333336,-1039.6666666666667,-1195.3333333333333,7.0,3.6666666666666665,60100.0,RTL
06:34:19,-0.023628448446591694,-0.0009018243872560561,0.39446666836738586,0.5058706700801849,0.0009295514319092035,0.00027239113114774227,-35.3632637,149.16524133333334,11152.0,14.666666666666666,-28.666666666666668,22.666666666666668,1.0,19.0,-1020.0,509.6666666666667,3.6666666666666665,3.6666666666666665,171008.0,RTL
06:34:20,-0.04173848902185758,-0.0016173392068594694,0.3943829635779063,-0.5394824792941412,-0.0025758595826725164,-0.001088130520656705,-35.363263866666664,149.16524203333333,10979.666666666666,15.666666666666666,-34.333333333333336,25.333333333333332,-0.3333333333333333,-33.666666666666664,-988.6666666666666,-536.6666666666666,0.3333333333333333,2.3333333333333335,171008.0,RTL
06:34:22,-0.014544937759637833,-0.007951059068242708,0.39429840445518494,-0.832660953203837,0.0005544976253683368,0.0014973805906871955,-35.3632634,149.1652401,10345.0,14.0,-31.666666666666668,34.0,-3.0,-30.0,-1003.6666666666666,-829.6666666666666,3.0,5.0,99861.0,RTL
06:34:24,-0.0012799370645855863,-0.005803834181278944,0.39470841487248737,-0.4147669126590093,0.0031665080847839513,0.0006804238849629959,-35.36326236666667,149.16523713333333,9656.666666666666,5.0,-6.333333333333333,32.666666666666664,-1.6666666666666667,4.0,-1003.3333333333334,-411.0,5.666666666666667,4.333333333333333,99861.0,RTL
06:34:25,0.005144570798923572,-0.0011687179163952048,0.39559759696324664,0.01098211482167244,0.0028651288400093713,-0.0035132095217704773,-35.363262133333336,149.16523706666666,9228.333333333334,2.0,1.6666666666666667,31.666666666666668,2.0,-22.666666666666668,-1006.0,12.666666666666666,5.333333333333333,0.3333333333333333,200812.0,RTL
06:34:26,-0.025058156500260036,0.0014760558648655813,0.39539973934491474,-0.25274423758188885,0.0034965892943243184,-0.0017921019655962784,-35.363262399999996,149.16523826666665,8972.333333333334,2.3333333333333335,0.0,31.333333333333332,2.6666666666666665,0.0,-1009.6666666666666,-249.33333333333334,6.0,2.0,200812.0,RTL
06:34:28,-0.012107731153567633,-0.004301857125634949,0.39526045322418213,0.3262915834784508,-0.004983148692796628,-4.661098743478457e-05,-35.3632631,149.16524,8847.666666666666,8.333333333333334,-20.0,-7.0,0.0,8.0,-989.3333333333334,327.6666666666667,-1.6666666666666667,3.3333333333333335,208854.0,RTL
06:34:30,-0.016826340618232887,-0.003000893552477161,0.39544984698295593,-0.3834223945935567,0.0022198796893159547,-0.0031574013798187175,-35.3632632,149.1652397,8668.333333333334,9.666666666666666,-19.0,9.333333333333334,0.3333333333333333,-21.0,-1038.6666666666667,-381.3333333333333,4.666666666666667,0.6666666666666666,208854.0,RTL
06:34:31,-0.021075256168842316,-0.002280623302794993,0.3953652282555898,-0.24219669898351034,-0.0006278326424459616,-0.0001941345011194547,-35.3632632,149.16524,8669.0,10.0,-21.0,-3.3333333333333335,0.0,-9.333333333333334,-1001.3333333333334,-240.66666666666666,1.6666666666666667,3.3333333333333335,55265.0,RTL
06:34:32,-0.008308098806689182,-0.0036923657171428204,0.39525232712427777,0.22581243515014648,-0.0019967907574027777,0.001904887690519293,-35.3632632,149.1652399,8682.666666666666,10.0,-21.666666666666668,-1.3333333333333333,0.0,1.3333333333333333,-991.3333333333334,226.33333333333334,0.6666666666666666,5.333333333333333,55265.0,RTL
06:34:34,0.0084965880572175,-0.006110071980704864,0.395238717397054,0.4856022000312805,-0.0015711128168428938,0.0007585170678794384,-35.3632627,149.16523819999998,8688.666666666666,6.333333333333333,-12.666666666666666,-1.0,-1.6666666666666667,22.666666666666668,-1000.0,486.3333333333333,0.6666666666666666,4.333333333333333,151972.0,RTL
06:34:36,0.00814152741804719,-0.004113222161928813,0.3955523570378621,-0.22652092576026917,0.0006601409986615181,-0.0015503553052743275,-35.3632621,149.16523656666666,8687.666666666666,0.6666666666666666,2.3333333333333335,-1.0,0.0,-15.333333333333334,-1001.0,-225.66666666666666,3.0,2.0,151972.0,RTL
06:34:37,0.021329278126358986,-0.002915632057314118,0.3953514297803243,0.5870598703622818,-0.0002435831120237708,-0.001755043709029754,-35.3632619,149.16523623333333,8444.333333333334,-0.3333333333333333,6.666666666666667,39.333333333333336,0.3333333333333333,11.333333333333334,-993.6666666666666,587.0,2.3333333333333335,1.6666666666666667,179199.0,RTL
06:34:38,-0.0008586915209889412,-0.002497039114435514,0.3955090443293254,-0.6551295121510824,0.0004515712692712744,-0.0035935118018339076,-35.36326183333333,149.16523623333333,8132.666666666667,-2.0,8.666666666666666,38.0,0.0,-24.0,-1001.3333333333334,-653.6666666666666,2.6666666666666665,0.0,179199.0,RTL
06:34:40,0.008921336072186628,-0.005757247253010671,0.39492543538411456,-0.4475182245175044,-0.0018606431161363919,0.0015662217047065496,-35.3632617,149.1652357,7412.0,-3.6666666666666665,10.333333333333334,32.0,-1.6666666666666667,-9.0,-1003.0,-445.6666666666667,1.0,5.0,32017.0,RTL
06:34:42,0.03344882527987162,-0.002929824482028683,0.39593183000882465,0.2697071631749471,0.0015288620876769226,0.0025318056189765534,-35.36326103333334,149.165234,6697.666666666667,-8.666666666666666,25.666666666666668,31.666666666666668,0.0,-3.3333333333333335,-1008.3333333333334,270.6666666666667,3.6666666666666665,6.0,32017.0,RTL
06:34:43,0.009720517788082361,-0.000694338329291592,0.3958266278107961,0.03951331228017807,0.0030179109890013933,-0.0013000482382873695,-35.3632611,149.16523443333332,6264.0,-10.0,28.333333333333332,33.0,1.3333333333333333,20.666666666666668,-1017.6666666666666,42.666666666666664,5.333333333333333,3.0,212722.0,RTL
06:34:44,0.021083133295178413,-0.0008703702575682352,0.39602099855740863,0.6258701384067535,-0.00307326492232581,-0.0010128879609207313,-35.36326123333333,149.16523496666665,6004.0,-9.666666666666666,25.0,31.666666666666668,1.0,13.333333333333334,-1001.6666666666666,627.3333333333334,-0.3333333333333333,2.6666666666666665,212722.0,RTL
06:34:46,0.01187606838842233,-0.0011884926352649927,0.3958555857340495,0.8380009134610494,-0.00037358483920494717,0.001177523595591386,-35.3632618,149.16523636666668,5323.333333333333,-5.0,15.333333333333334,31.666666666666668,1.0,28.0,-998.3333333333334,840.0,1.6666666666666667,4.333333333333333,124925.0,RTL
06:34:48,-0.0003323482039074103,-0.0022824390713746348,0.39588995774586994,0.18085214495658875,-0.005159646427879731,-0.0001919467467814684,-35.3632625,149.16523800000002,4653.333333333333,0.3333333333333333,0.6666666666666666,31.666666666666668,1.6666666666666667,-10.0,-1001.0,182.33333333333334,-2.0,3.3333333333333335,124925.0,RTL
06:34:49,-0.005980402619267504,-0.0033260999092211327,0.3955689072608948,0.39687763651212055,-0.0014682527010639508,0.003947085468098521,-35.3632627,149.1652383,4226.333333333333,2.0,-2.6666666666666665,32.333333333333336,0.0,32.0,-997.3333333333334,400.0,1.0,7.0,227065.0,RTL
06:34:50,-0.001803956285584718,-0.003696614488338431,0.39561869700749713,-0.2363941768805186,-0.002473140756289164,-0.002013850724324584,-35.363262666666664,149.16523823333333,3972.6666666666665,3.0,-5.333333333333333,33.333333333333336,0.0,-30.0,-981.3333333333334,-235.0,0.0,1.6666666666666667,227065.0,RTL
06:34:52,0.008230308109583953,-0.006763775988171498,0.39564889669418335,-0.5085435062646866,9.891437366604805e-05,0.002855281966427962,-35.36326233333333,149.16523693333332,3287.6666666666665,1.6666666666666667,0.0,31.333333333333332,-1.6666666666666667,-28.666666666666668,-1004.6666666666666,-506.6666666666667,2.6666666666666665,6.333333333333333,230209.0,RTL
06:34:54,0.012022384578206887,-0.0034785764291882515,0.3957013587156932,-0.42885427673657733,0.0005809944899131855,-0.0010189195163547993,-35.36326183333333,149.16523573333336,2603.3333333333335,-1.6666666666666667,11.666666666666666,31.0,0.0,-32.666666666666664,-993.3333333333334,-426.6666666666667,2.3333333333333335,2.3333333333333335,230209.0,RTL
