time_stamp,MODE,lat,lon,relative_alt,roll,pitch,yaw,rollspeed,pitchspeed,yawspeed,xacc,yacc,zacc,xgyro,ygyro,zgyro,vx,vy,vz,RTL_ALT
00:53:17.022,STABILIZE,-35.3632622,149.1652374,24,-4.518666628428036e-06,0.0013429803075268865,0.027803726494312286,0.0003597777977120131,0.00019895457080565393,0.002339642494916916,0,1,-1000,0,0,1,-2,1,0,199479.0
00:53:17.223,STABILIZE,-35.3632622,149.1652374,24,-4.518666628428036e-06,0.0013429803075268865,0.027803726494312286,0.0003597777977120131,0.00019895457080565393,0.002339642494916916,0,1,-1000,0,0,1,-2,1,0,199479.0
00:53:17.425,STABILIZE,-35.3632622,149.1652374,24,-4.518666628428036e-06,0.0013429803075268865,0.027803726494312286,0.0003597777977120131,0.00019895457080565393,0.002339642494916916,0,1,-1000,0,0,1,-2,1,0,199479.0
00:53:17.626,STABILIZE,-35.3632622,149.1652374,24,-4.518666628428036e-06,0.0013429803075268865,0.027803726494312286,0.0003597777977120131,0.00019895457080565393,0.002339642494916916,0,1,-1000,0,0,1,-2,1,0,199479.0
00:53:17.827,STABILIZE,-35.3632622,149.1652374,24,-4.518666628428036e-06,0.0013429803075268865,0.027803726494312286,0.0003597777977120131,0.00019895457080565393,0.002339642494916916,0,1,-1000,0,0,1,-2,1,0,199479.0
00:53:18.029,STABILIZE,-35.3632622,149.1652374,24,-4.518666628428036e-06,0.0013429803075268865,0.027803726494312286,0.0003597777977120131,0.00019895457080565393,0.002339642494916916,0,1,-1000,0,0,1,-2,1,0,199479.0
00:53:18.231,STABILIZE,-35.3632622,149.1652375,29,-0.00022980367066338658,0.0011039357632398605,0.027117902413010597,0.00010277138790115714,0.00013577804202213883,0.0022663376294076443,0,1,-1000,0,0,0,-1,1,0,199479.0
00:53:18.432,STABILIZE,-35.3632622,149.1652375,29,-0.00022980367066338658,0.0011039357632398605,0.027117902413010597,0.00010277138790115714,0.00013577804202213883,0.0022663376294076443,0,1,-1000,0,0,0,-1,1,0,199479.0
00:53:18.634,STABILIZE,-35.3632622,149.1652375,29,-0.00022980367066338658,0.0011039357632398605,0.027117902413010597,0.00010277138790115714,0.00013577804202213883,0.0022663376294076443,0,1,-1000,0,0,0,-1,1,0,199479.0
00:53:18.835,STABILIZE,-35.3632622,149.1652375,30,-0.00033883200376294553,0.001043416908942163,0.026874898001551628,0.00019667117157950997,0.00029083131812512875,0.0022264313884079456,0,1,-1000,0,0,0,-1,1,0,199479.0
00:53:19.036,STABILIZE,-35.3632622,149.1652375,30,-0.00039334676694124937,0.0010077268816530704,0.02675195224583149,0.000247846357524395,0.00031597184715792537,0.0022174306213855743,0,1,-1000,0,0,0,-1,1,0,199479.0
00:53:19.239,STABILIZE,-35.3632622,149.1652375,30,-0.00039334676694124937,0.0010077268816530704,0.02675195224583149,0.000247846357524395,0.00031597184715792537,0.0022174306213855743,0,1,-1000,0,0,0,-1,1,0,199479.0
00:53:19.440,STABILIZE,-35.3632622,149.1652375,30,-0.00039334676694124937,0.0010077268816530704,0.02675195224583149,0.000247846357524395,0.00031597184715792537,0.0022174306213855743,0,1,-1000,0,0,0,-1,1,0,199479.0
00:53:19.642,STABILIZE,-35.3632622,149.1652375,30,-0.00039334676694124937,0.0010077268816530704,0.02675195224583149,0.000247846357524395,0.00031597184715792537,0.0022174306213855743,0,1,-1000,0,0,0,-1,1,0,199479.0
00:53:19.843,STABILIZE,-35.3632621,149.1652374,37,-0.0005418284563347697,0.0009392261854372919,0.02636129781603813,0.0002983227022923529,0.00011315324809402227,0.0020486079156398773,0,1,-1000,0,0,0,-1,0,-2,199479.0
00:53:20.045,STABILIZE,-35.3632621,149.1652374,37,-0.0005418284563347697,0.0009392261854372919,0.02636129781603813,0.0002983227022923529,0.00011315324809402227,0.0020486079156398773,0,1,-1000,0,0,0,-1,0,-2,199479.0
00:53:20.248,STABILIZE,-35.3632621,149.1652374,37,-0.0005418284563347697,0.0009392261854372919,0.02636129781603813,0.0002983227022923529,0.00011315324809402227,0.0020486079156398773,0,1,-1000,0,0,0,-1,0,-2,199479.0
00:53:20.449,STABILIZE,-35.3632621,149.1652374,37,-0.0005026348517276347,0.0009169753175228834,0.02617945335805416,0.0001809910754673183,0.00024829775793477893,0.001989023294299841,0,1,-1000,0,0,0,-1,0,-2,199479.0
00:53:20.651,STABILIZE,-35.3632621,149.1652374,47,-0.00047386641381308436,0.0009125557262450457,0.026073267683386803,0.00019007857190445065,0.00031032273545861244,0.0020047237630933523,0,1,-1000,0,0,0,-1,0,-2,199479.0
00:53:20.852,STABILIZE,-35.3632621,149.1652374,47,-0.00047386641381308436,0.0009125557262450457,0.026073267683386803,0.00019007857190445065,0.00031032273545861244,0.0020047237630933523,0,1,-1000,0,0,0,-1,0,-2,199479.0
00:53:21.054,STABILIZE,-35.3632621,149.1652374,47,-0.00047386641381308436,0.0009125557262450457,0.026073267683386803,0.00019007857190445065,0.00031032273545861244,0.0020047237630933523,0,1,-1000,0,0,0,-1,0,-2,199479.0
00:53:21.255,STABILIZE,-35.3632621,149.1652374,47,-0.00047386641381308436,0.0009125557262450457,0.026073267683386803,0.00019007857190445065,0.00031032273545861244,0.0020047237630933523,0,1,-1000,0,0,0,-1,0,-2,199479.0
00:53:21.457,STABILIZE,-35.3632621,149.1652374,47,-0.00047386641381308436,0.0009125557262450457,0.026073267683386803,0.00019007857190445065,0.00031032273545861244,0.0020047237630933523,0,1,-1000,0,0,0,-1,0,-2,199479.0
00:53:21.659,STABILIZE,-35.3632621,149.1652374,51,-0.0004045866662636399,0.0008993340888991952,0.025666669011116028,0.0002251656260341406,0.0001816666917875409,0.002015940612182021,0,1,-1000,0,1,0,-1,1,-1,199479.0
00:53:21.861,STABILIZE,-35.3632621,149.1652374,51,-0.000412880937801674,0.000908703834284097,0.02556219883263111,0.0002569077769294381,0.0002106506726704538,0.001910340040922165,0,1,-1000,0,0,0,-1,1,-1,199479.0
00:53:22.063,STABILIZE,-35.3632621,149.1652374,51,-0.000412880937801674,0.000908703834284097,0.02556219883263111,0.0002569077769294381,0.0002106506726704538,0.001910340040922165,0,1,-1000,0,0,0,-1,1,-1,199479.0
00:53:22.264,STABILIZE,-35.3632621,149.1652374,51,-0.0004341371823102236,0.0008992882212623954,0.025328367948532104,0.00025497376918792725,0.00023446278646588326,0.0018345433054491878,0,1,-1000,0,0,0,-1,1,0,199479.0
00:53:22.467,STABILIZE,-35.3632621,149.1652374,51,-0.0004341371823102236,0.0008992882212623954,0.025328367948532104,0.00025497376918792725,0.00023446278646588326,0.0018345433054491878,0,1,-1000,0,0,0,-1,1,0,199479.0
00:53:22.669,STABILIZE,-35.3632621,149.1652375,51,-0.0004471686261240393,0.0009091944084502757,0.025230366736650467,0.00037545105442404747,0.0003498905571177602,0.0018896576948463917,0,1,-1000,0,0,1,-1,1,0,199479.0
00:53:22.871,STABILIZE,-35.3632621,149.1652375,51,-0.0004471686261240393,0.0009091944084502757,0.025230366736650467,0.00037545105442404747,0.0003498905571177602,0.0018896576948463917,0,1,-1000,0,0,1,-1,1,0,199479.0
00:53:23.073,STABILIZE,-35.3632621,149.1652375,51,-0.0004471686261240393,0.0009091944084502757,0.025230366736650467,0.00037545105442404747,0.0003498905571177602,0.0018896576948463917,0,1,-1000,0,0,1,-1,1,0,199479.0
00:53:23.275,STABILIZE,-35.3632621,149.1652375,51,-0.0004471686261240393,0.0009091944084502757,0.025230366736650467,0.00037545105442404747,0.0003498905571177602,0.0018896576948463917,0,1,-1000,0,0,1,-1,1,0,199479.0
00:53:23.477,STABILIZE,-35.3632621,149.1652375,51,-0.0004471686261240393,0.0009091944084502757,0.025230366736650467,0.00037545105442404747,0.0003498905571177602,0.0018896576948463917,0,1,-1000,0,0,1,-1,1,0,199479.0
00:53:23.678,STABILIZE,-35.3632621,149.1652375,51,-0.0004471686261240393,0.0009091944084502757,0.025230366736650467,0.00037545105442404747,0.0003498905571177602,0.0018896576948463917,0,1,-1000,0,0,1,-1,1,0,199479.0
00:53:23.880,STABILIZE,-35.3632621,149.1652375,51,-0.0004471686261240393,0.0009091944084502757,0.025230366736650467,0.00037545105442404747,0.0003498905571177602,0.0018896576948463917,0,1,-1000,0,0,0,-1,1,0,199479.0
00:53:24.082,STABILIZE,-35.3632621,149.1652375,51,-0.0004471686261240393,0.0009091944084502757,0.025230366736650467,0.00037545105442404747,0.0003498905571177602,0.0018896576948463917,0,1,-1000,0,0,0,-1,1,0,199479.0
00:53:24.284,STABILIZE,-35.3632621,149.1652375,46,-0.0004708461929112673,0.000954176124650985,0.024539826437830925,0.0003040542942471802,0.0003138338215649128,0.001793073839507997,0,2,-1000,0,0,0,-1,1,0,199479.0
00:53:24.486,STABILIZE,-35.3632621,149.1652375,46,-0.0004708461929112673,0.000954176124650985,0.024539826437830925,0.0003040542942471802,0.0003138338215649128,0.001793073839507997,0,2,-1000,0,0,0,-1,1,0,199479.0
00:53:24.688,STABILIZE,-35.3632621,149.1652375,46,-0.0004708461929112673,0.000954176124650985,0.024539826437830925,0.0003040542942471802,0.0003138338215649128,0.001793073839507997,0,2,-1000,0,0,0,-1,1,0,199479.0
00:53:24.889,STABILIZE,-35.3632622,149.1652375,44,-0.0005345095996744931,0.0009689491707831621,0.024350568652153015,0.0001793599803932011,0.000169493374414742,0.001789562520571053,0,1,-1000,0,0,0,-1,1,0,199479.0
00:53:25.091,STABILIZE,-35.3632622,149.1652375,44,-0.0005345095996744931,0.0009689491707831621,0.024350568652153015,0.0001793599803932011,0.000169493374414742,0.001789562520571053,0,1,-1000,0,0,0,-1,1,0,199479.0
00:53:25.292,STABILIZE,-35.3632622,149.1652375,44,-0.0005345095996744931,0.0009689491707831621,0.024350568652153015,0.0001793599803932011,0.000169493374414742,0.001789562520571053,0,1,-1000,0,0,0,-1,1,0,199479.0
00:53:25.493,STABILIZE,-35.3632622,149.1652375,44,-0.0005345095996744931,0.0009689491707831621,0.024350568652153015,0.0001793599803932011,0.000169493374414742,0.001789562520571053,0,1,-1000,0,0,0,-1,1,0,199479.0
00:53:25.695,STABILIZE,-35.3632622,149.1652375,44,-0.0005345095996744931,0.0009689491707831621,0.024350568652153015,0.0001793599803932011,0.000169493374414742,0.001789562520571053,0,1,-1000,0,0,0,-1,1,0,199479.0
00:53:25.896,STABILIZE,-35.3632622,149.1652375,40,-0.0006835898384451866,0.000983008649200201,0.02399810589849949,0.00010147399734705687,0.00020567415049299598,0.0018143816851079464,0,1,-1000,0,0,0,-1,1,0,199479.0
00:53:26.098,STABILIZE,-35.3632622,149.1652375,40,-0.0007082972442731261,0.0009835966629907489,0.02392756938934326,0.0003006678889505565,0.0001920617069117725,0.001707225339487195,0,1,-1000,0,0,0,-1,1,0,199479.0
00:53:26.299,STABILIZE,-35.3632622,149.1652375,38,-0.0007529349531978369,0.0009798749815672636,0.0238419808447361,0.00018180487677454948,0.0003071385435760021,0.0017177134286612272,0,1,-1000,0,0,0,-1,1,0,199479.0
00:53:26.501,STABILIZE,-35.3632622,149.1652375,38,-0.0007529349531978369,0.0009798749815672636,0.0238419808447361,0.00018180487677454948,0.0003071385435760021,0.0017177134286612272,0,1,-1000,0,0,0,-1,1,0,199479.0
00:53:26.702,STABILIZE,-35.3632622,149.1652375,37,-0.000793628569226712,0.000983930891379714,0.02374875545501709,0.00025664689019322395,0.0003126664669252932,0.0016775934491306543,0,1,-1000,0,0,0,-1,1,0,199479.0
00:53:26.904,STABILIZE,-35.3632622,149.1652375,36,-0.0008190155494958162,0.0009801596170291305,0.023686129599809647,0.0003064793418161571,0.00019684812286868691,0.0016519490163773298,0,2,-1000,0,0,0,-1,1,0,199479.0
00:53:27.113,STABILIZE,-35.3632622,149.1652375,36,-0.0008190155494958162,0.0009801596170291305,0.023686129599809647,0.0003064793418161571,0.00019684812286868691,0.0016519490163773298,0,2,-1000,0,0,0,-1,1,0,199479.0
00:53:27.315,STABILIZE,-35.3632622,149.1652375,36,-0.0008190155494958162,0.0009801596170291305,0.023686129599809647,0.0003064793418161571,0.00019684812286868691,0.0016519490163773298,0,2,-1000,0,0,0,-1,1,0,199479.0
00:53:27.522,STABILIZE,-35.3632622,149.1652375,36,-0.0008190155494958162,0.0009801596170291305,0.023686129599809647,0.0003064793418161571,0.00019684812286868691,0.0016519490163773298,0,2,-1000,0,0,0,-1,1,0,199479.0
00:53:27.724,STABILIZE,-35.3632622,149.1652375,36,-0.0008190155494958162,0.0009801596170291305,0.023686129599809647,0.0003064793418161571,0.00019684812286868691,0.0016519490163773298,0,2,-1000,0,0,0,-1,1,0,199479.0
00:53:27.926,STABILIZE,-35.3632622,149.1652375,36,-0.0008936161757446826,0.0009905962506309152,0.02340962365269661,0.0003438089624978602,0.00026543287094682455,0.001649269601330161,0,2,-1000,0,0,0,-1,1,0,199479.0
00:53:28.129,STABILIZE,-35.3632622,149.1652375,32,-0.000911087088752538,0.0009879051940515637,0.023335639387369156,0.0003884928300976753,0.00032663578167557716,0.0017160698771476746,0,1,-1000,0,0,0,-1,1,1,199479.0
00:53:28.330,STABILIZE,-35.3632622,149.1652375,32,-0.000911087088752538,0.0009879051940515637,0.023335639387369156,0.0003884928300976753,0.00032663578167557716,0.0017160698771476746,0,1,-1000,0,0,0,-1,1,1,199479.0
00:53:28.532,STABILIZE,-35.3632622,149.1652375,31,-0.0009493002435192466,0.0009802222484722733,0.02322622574865818,0.00030794896883890033,0.00032719888258725405,0.0015995604917407036,0,1,-1000,0,0,1,-1,1,1,199479.0
00:53:28.733,STABILIZE,-35.3632622,149.1652375,31,-0.0009493002435192466,0.0009802222484722733,0.02322622574865818,0.00030794896883890033,0.00032719888258725405,0.0015995604917407036,0,1,-1000,0,0,1,-1,1,1,199479.0
00:53:28.935,STABILIZE,-35.3632622,149.1652375,30,-0.0009612829308025539,0.0009762397967278957,0.023153318092226982,0.0002299636835232377,0.00023747055092826486,0.0017328312387689948,0,2,-1000,0,0,1,-1,1,1,199479.0
00:53:29.136,STABILIZE,-35.3632622,149.1652375,30,-0.0009612829308025539,0.0009762397967278957,0.023153318092226982,0.0002299636835232377,0.00023747055092826486,0.0017328312387689948,0,2,-1000,0,0,1,-1,1,1,199479.0
00:53:29.338,STABILIZE,-35.3632622,149.1652375,30,-0.0009612829308025539,0.0009762397967278957,0.023153318092226982,0.0002299636835232377,0.00023747055092826486,0.0017328312387689948,0,2,-1000,0,0,1,-1,1,1,199479.0
00:53:29.540,STABILIZE,-35.3632622,149.1652375,28,-0.0009958352893590927,0.0009668358252383769,0.022995399311184883,0.00017950625624507666,0.00013193057384341955,0.0016593106556683779,0,1,-1000,1,1,0,-1,1,1,199479.0
00:53:29.741,STABILIZE,-35.3632622,149.1652375,28,-0.0009958352893590927,0.0009668358252383769,0.022995399311184883,0.00017950625624507666,0.00013193057384341955,0.0016593106556683779,0,1,-1000,1,1,0,-1,1,1,199479.0
00:53:29.943,STABILIZE,-35.3632622,149.1652375,27,-0.0009941697353497148,0.0009685567347332835,0.02293219044804573,0.00041099335066974163,0.0001953979954123497,0.0015490463702008128,0,2,-1000,0,0,1,-1,1,1,199479.0
00:53:30.145,STABILIZE,-35.3632622,149.1652375,27,-0.0009941697353497148,0.0009685567347332835,0.02293219044804573,0.00041099335066974163,0.0001953979954123497,0.0015490463702008128,0,-24,-1041,0,0,0,-1,1,1,199479.0
00:53:30.348,STABILIZE,-35.3632622,149.1652375,30,-0.0009941697353497148,0.0009685567347332835,0.02293219044804573,0.00041099335066974163,0.0001953979954123497,0.0015490463702008128,0,1,-1000,0,0,1,-1,0,0,199479.0
00:53:30.550,STABILIZE,-35.3632622,149.1652375,30,-0.0009941697353497148,0.0009685567347332835,0.02293219044804573,0.00041099335066974163,0.0001953979954123497,0.0015490463702008128,0,1,-1000,0,0,1,-1,0,0,199479.0
00:53:30.752,STABILIZE,-35.3632622,149.1652375,30,-0.0009941697353497148,0.0009685567347332835,0.02293219044804573,0.00041099335066974163,0.0001953979954123497,0.0015490463702008128,0,1,-1000,0,0,1,-1,0,0,199479.0
00:53:30.955,STABILIZE,-35.3632622,149.1652375,30,-0.0009941697353497148,0.0009685567347332835,0.02293219044804573,0.00041099335066974163,0.0001953979954123497,0.0015490463702008128,0,1,-1000,0,1,0,-1,0,0,199479.0
00:53:31.156,STABILIZE,-35.3632622,149.1652375,30,-0.0009941697353497148,0.0009685567347332835,0.02293219044804573,0.00041099335066974163,0.0001953979954123497,0.0015490463702008128,0,1,-1000,0,1,0,-1,0,0,199479.0
00:53:31.358,STABILIZE,-35.3632622,149.1652375,30,-0.0009941697353497148,0.0009685567347332835,0.02293219044804573,0.00041099335066974163,0.0001953979954123497,0.0015490463702008128,0,1,-1000,0,1,0,-1,0,0,199479.0
00:53:31.560,STABILIZE,-35.3632622,149.1652375,30,-0.0009941697353497148,0.0009685567347332835,0.02293219044804573,0.00041099335066974163,0.0001953979954123497,0.0015490463702008128,0,1,-1000,0,1,0,-1,0,0,199479.0
00:53:31.762,STABILIZE,-35.3632622,149.1652375,34,-0.0008627097704447806,0.0009625707753002644,0.022549055516719818,0.0003143908688798547,0.00027905008755624294,0.0015319057274609804,0,1,-1000,0,1,0,-1,0,0,199479.0
00:53:31.964,STABILIZE,-35.3632622,149.1652375,34,-0.0008627097704447806,0.0009625707753002644,0.022549055516719818,0.0003143908688798547,0.00027905008755624294,0.0015319057274609804,0,1,-1000,0,1,0,-1,0,0,199479.0
00:53:32.166,STABILIZE,-35.3632622,149.1652375,34,-0.0008453926420770586,0.0009626507526263595,0.02249414287507534,0.0002583319437690079,0.00030961429001763463,0.001652345061302185,0,1,-1000,1,0,0,-1,1,0,199479.0
00:53:32.367,STABILIZE,-35.3632622,149.1652375,34,-0.0008453926420770586,0.0009626507526263595,0.02249414287507534,0.0002583319437690079,0.00030961429001763463,0.001652345061302185,0,1,-1000,1,0,1,-1,1,0,199479.0
00:53:32.569,STABILIZE,-35.3632622,149.1652375,34,-0.0008453926420770586,0.0009626507526263595,0.02249414287507534,0.0002583319437690079,0.00030961429001763463,0.001652345061302185,0,2,-1000,1,0,1,-1,1,0,199479.0
00:53:32.770,STABILIZE,-35.3632622,149.1652375,34,-0.0008453926420770586,0.0009626507526263595,0.02249414287507534,0.0002583319437690079,0.00030961429001763463,0.001652345061302185,0,2,-1000,1,0,1,-1,1,0,199479.0
00:53:32.972,STABILIZE,-35.3632622,149.1652375,34,-0.0008453926420770586,0.0009626507526263595,0.02249414287507534,0.0002583319437690079,0.00030961429001763463,0.001652345061302185,0,2,-1000,1,0,1,-1,1,0,199479.0
00:53:33.175,AUTO,-35.3632622,149.1652375,34,-0.0008453926420770586,0.0009626507526263595,0.02249414287507534,0.0002583319437690079,0.00030961429001763463,0.001652345061302185,0,2,-1000,1,0,1,-1,1,0,199479.0
00:53:33.380,AUTO,-35.3632622,149.1652375,34,-0.0008453926420770586,0.0009626507526263595,0.02249414287507534,0.0002583319437690079,0.00030961429001763463,0.001652345061302185,0,2,-1000,1,0,1,-1,1,0,55686.0
00:53:33.582,AUTO,-35.3632622,149.1652375,3,-0.0008408413850702345,0.0009694548207335174,0.022182468324899673,0.00029734126292169094,0.00028852326795458794,0.0014567981706932187,0,1,-1000,1,1,1,-1,1,0,55686.0
00:53:33.783,AUTO,-35.3632622,149.1652375,3,-0.000838868785649538,0.0009793135104700923,0.0221132542937994,0.0002116448595188558,0.0002160127041861415,0.0015414953231811523,0,1,-1000,0,1,0,-1,1,0,55686.0
00:53:33.985,AUTO,-35.3632622,149.1652375,3,-0.000838868785649538,0.0009793135104700923,0.0221132542937994,0.0002116448595188558,0.0002160127041861415,0.0015414953231811523,0,1,-1000,0,1,0,-1,1,0,55686.0
00:53:34.187,AUTO,-35.3632621,149.1652375,2,-0.0008225875208154321,0.001001253491267562,0.02205646224319935,0.00035543565172702074,0.00027506850892677903,0.0014510059263557196,0,1,-1000,0,1,1,0,0,0,55686.0
00:53:34.389,AUTO,-35.3632621,149.1652375,2,-0.0007970279548317194,0.0010268918704241514,0.022009488195180893,0.00023456121562048793,0.00020183954620733857,0.00148266670294106,0,1,-1000,0,0,1,0,0,0,55686.0
00:53:34.590,AUTO,-35.3632621,149.1652375,1,-0.000760330178309232,0.0010684363078325987,0.021971793845295906,0.0003463530447334051,0.00015052402159199119,0.001462576910853386,0,1,-1000,0,1,0,0,0,0,55686.0
00:53:34.792,AUTO,-35.3632621,149.1652375,1,-0.0007085839752107859,0.0011262092739343643,0.021912040188908577,0.00033163203625008464,0.00029561639530584216,0.001487823436036706,0,2,-1000,0,1,1,0,0,0,55686.0
00:53:34.994,AUTO,-35.3632621,149.1652375,1,-0.0007085839752107859,0.0011262092739343643,0.021912040188908577,0.00033163203625008464,0.00029561639530584216,0.001487823436036706,0,2,-1000,0,1,1,0,0,0,55686.0
00:53:35.196,AUTO,-35.3632621,149.1652375,1,-0.0007085839752107859,0.0011262092739343643,0.021912040188908577,0.00033163203625008464,0.00029561639530584216,0.001487823436036706,0,2,-1000,0,1,1,0,0,0,55686.0
00:53:35.397,AUTO,-35.3632621,149.1652375,1,-0.0007085839752107859,0.0011262092739343643,0.021912040188908577,0.00033163203625008464,0.00029561639530584216,0.001487823436036706,0,2,-1000,0,1,1,0,0,0,55686.0
00:53:35.599,AUTO,-35.3632621,149.1652375,0,-0.0005344742094166577,0.0013287847395986319,0.021757259964942932,0.0003080377937294543,0.0002690873225219548,0.0014590397477149963,0,1,-1000,1,0,0,0,0,0,55686.0
00:53:35.800,AUTO,-35.3632621,149.1652375,0,-0.0004680258280131966,0.0014038486406207085,0.021698934957385063,0.00027174694696441293,0.0003003999008797109,0.0014616098487749696,0,2,-1000,0,0,1,0,0,0,55686.0
00:53:36.002,AUTO,-35.3632621,149.1652375,0,-0.0004680258280131966,0.0014038486406207085,0.021698934957385063,0.00027174694696441293,0.0003003999008797109,0.0014616098487749696,0,2,-1000,0,0,1,0,0,0,55686.0
00:53:36.203,AUTO,-35.3632621,149.1652375,0,-0.0004093988100066781,0.001474678865633905,0.02164682000875473,0.00028521817876026034,0.00017517950618639588,0.0014055946376174688,0,1,-1000,0,0,1,0,0,0,68284.0
00:53:36.404,AUTO,-35.3632621,149.1652375,0,-0.0003441532899159938,0.001540854456834495,0.021571466699242592,0.00034431880339980125,0.00018957554129883647,0.0013625082792714238,0,1,-1000,1,1,0,0,0,0,68284.0
00:53:36.606,AUTO,-35.3632621,149.1652375,0,-0.0002772471052594483,0.0016143821412697434,0.021504836156964302,0.0003699210938066244,0.0002369662979617715,0.001418041530996561,0,2,-1000,1,0,1,0,0,0,68284.0
00:53:36.807,AUTO,-35.3632621,149.1652375,0,-0.00020534421491902322,0.0016911407001316547,0.02144465781748295,0.00034090480767190456,0.00033865991281345487,0.0014343222137540579,0,2,-1000,1,1,1,0,0,0,68284.0
00:53:37.013,AUTO,-35.3632621,149.1652375,0,-0.00020534421491902322,0.0016911407001316547,0.02144465781748295,0.00034090480767190456,0.00033865991281345487,0.0014343222137540579,0,2,-1000,1,1,1,0,0,0,68284.0
00:53:37.214,AUTO,-35.3632621,149.1652375,0,-0.00020534421491902322,0.0016911407001316547,0.02144465781748295,0.00034090480767190456,0.00033865991281345487,0.0014343222137540579,0,2,-1000,1,1,1,0,0,0,68284.0
00:53:37.417,AUTO,-35.3632621,149.1652375,0,-0.00020534421491902322,0.0016911407001316547,0.02144465781748295,0.00034090480767190456,0.00033865991281345487,0.0014343222137540579,0,2,-1000,1,1,1,0,0,0,68284.0
00:53:37.619,AUTO,-35.3632621,149.1652375,246,0.0026368582621216774,0.00040220373193733394,0.021409742534160614,-0.001291627180762589,0.004346800036728382,0.0025028218515217304,0,0,-1132,0,4,2,0,0,-83,68284.0
00:53:37.820,AUTO,-35.3632621,149.1652375,489,0.0018720501102507114,0.0012561220210045576,0.021449366584420204,-0.0003918797883670777,0.003088876139372587,0.002224345924332738,0,0,-1102,0,3,2,0,0,-111,68284.0
00:53:38.022,AUTO,-35.3632621,149.1652375,796,0.002991802291944623,0.001564683043397963,0.021020634099841118,0.025553444400429726,-0.0008294508443213999,-0.0007713886443525553,0,0,-1065,26,0,-1,0,0,-131,68284.0
00:53:38.224,AUTO,-35.3632621,149.1652375,796,0.002991802291944623,0.001564683043397963,0.021020634099841118,0.025553444400429726,-0.0008294508443213999,-0.0007713886443525553,0,0,-1065,26,0,-1,0,0,-131,68284.0
00:53:38.426,AUTO,-35.3632621,149.1652375,1147,0.01383886393159628,0.0003788210160564631,0.020723598077893257,0.04760003462433815,-0.006593223661184311,0.001131801400333643,0,0,-1028,48,-6,0,0,2,-141,68284.0
00:53:38.628,AUTO,-35.363262,149.1652375,1522,0.02568746544420719,-0.0013891892740502954,0.02066667564213276,0.046156782656908035,-0.007116734050214291,0.002070985035970807,0,0,-1012,46,-6,1,1,6,-145,68284.0
00:53:38.830,AUTO,-35.363262,149.1652378,1903,0.03699213266372681,-0.00339960353448987,0.02075253054499626,0.0444793626666069,-0.008457117713987827,0.002794405212625861,0,-1,-1005,45,-7,2,2,13,-147,68284.0
00:53:39.032,AUTO,-35.363262,149.1652378,1903,0.03699213266372681,-0.00339960353448987,0.02075253054499626,0.0444793626666069,-0.008457117713987827,0.002794405212625861,0,-1,-1005,45,-7,2,2,13,-147,68284.0
00:53:39.234,AUTO,-35.363262,149.1652378,1903,0.03699213266372681,-0.00339960353448987,0.02075253054499626,0.0444793626666069,-0.008457117713987827,0.002794405212625861,0,-1,-1005,45,-7,2,2,13,-147,274367.0
00:53:39.436,AUTO,-35.363262,149.1652378,1903,0.03699213266372681,-0.00339960353448987,0.02075253054499626,0.0444793626666069,-0.008457117713987827,0.002794405212625861,0,-1,-1005,45,-7,2,2,13,-147,274367.0
00:53:39.638,AUTO,-35.3632616,149.16524,3052,0.060053810477256775,-0.006137207616120577,-0.013124522753059864,-0.049178075045347214,0.057135891169309616,-0.07088652998209,1,-8,-990,-48,57,-71,9,46,-146,274367.0
00:53:39.840,AUTO,-35.3632613,149.1652414,3431,0.032003842294216156,0.017660249024629593,-0.03672731667757034,-0.16772104799747467,0.0744672492146492,-0.09224575012922287,2,-11,-992,-167,75,-92,9,54,-144,274367.0
00:53:40.042,AUTO,-35.3632611,149.1652428,3806,-0.014041303656995296,0.02269144169986248,-0.05506359785795212,-0.18965385854244232,-0.011328266002237797,-0.06599771976470947,4,-12,-1000,-189,-11,-66,5,53,-143,274367.0
00:53:40.245,AUTO,-35.3632611,149.1652428,3806,-0.014041303656995296,0.02269144169986248,-0.05506359785795212,-0.18965385854244232,-0.011328266002237797,-0.06599771976470947,4,-12,-1000,-189,-11,-66,5,53,-143,274367.0
00:53:40.447,AUTO,-35.363261,149.1652441,4181,-0.05581638216972351,0.015752559527754784,-0.06725554913282394,-0.14048831164836884,-0.028388995677232742,-0.04805920645594597,4,-9,-1010,-139,-27,-48,2,40,-145,274367.0
00:53:40.649,AUTO,-35.3632609,149.1652449,4561,-0.0792878046631813,0.008939373306930065,-0.07654476165771484,-0.06010471284389496,-0.017077695578336716,-0.04251514747738838,3,-6,-1009,-59,-16,-42,0,20,-147,274367.0
00:53:40.851,AUTO,-35.3632609,149.1652452,4944,-0.08465542644262314,0.004870522301644087,-0.08554678410291672,0.008844737894833088,-0.009042556397616863,-0.0352625846862793,1,-2,-1006,9,-8,-35,-1,0,-148,274367.0
00:53:41.053,AUTO,-35.3632609,149.1652452,4944,-0.08465542644262314,0.004870522301644087,-0.08554678410291672,0.008844737894833088,-0.009042556397616863,-0.0352625846862793,1,-2,-1006,9,-8,-35,-1,0,-148,274367.0
00:53:41.255,AUTO,-35.3632609,149.1652452,4944,-0.08465542644262314,0.004870522301644087,-0.08554678410291672,0.008844737894833088,-0.009042556397616863,-0.0352625846862793,1,-2,-1006,9,-8,-35,-1,0,-148,274367.0
00:53:41.457,AUTO,-35.3632609,149.1652452,4944,-0.08465542644262314,0.004870522301644087,-0.08554678410291672,0.008844737894833088,-0.009042556397616863,-0.0352625846862793,1,-2,-1006,9,-8,-35,-1,0,-148,274367.0
00:53:41.660,AUTO,-35.3632611,149.165243,6100,-0.048728764057159424,0.0009691697196103632,-0.10159461200237274,0.061246003955602646,0.003831613576039672,-0.010041450150310993,-5,11,-1001,61,4,-10,-7,-49,-148,274367.0
00:53:41.862,AUTO,-35.3632613,149.1652415,6482,-0.033046018332242966,0.002377989934757352,-0.10395120084285736,0.06570424884557724,0.007839949801564217,-0.006027012597769499,-5,10,-1001,66,8,-6,-9,-57,-148,274367.0
00:53:42.064,AUTO,-35.3632615,149.1652399,6865,-0.016612842679023743,0.004556246101856232,-0.10509391874074936,0.06737983971834183,0.009498714469373226,-0.002222241135314107,-4,10,-1002,68,10,-2,-12,-60,-149,274367.0
00:53:42.266,AUTO,-35.3632619,149.1652381,7252,0.0004631189804058522,0.0071027823723852634,-0.10527261346578598,0.07004919648170471,0.01027765590697527,-0.0002305296657141298,-7,15,-1004,70,11,0,-14,-60,-150,34504.0
00:53:42.468,AUTO,-35.3632619,149.1652381,7252,0.0004631189804058522,0.0071027823723852634,-0.10527261346578598,0.07004919648170471,0.01027765590697527,-0.0002305296657141298,-7,15,-1004,70,11,0,-14,-60,-150,34504.0
00:53:42.670,AUTO,-35.3632622,149.1652365,7641,0.017548127099871635,0.009365495294332504,-0.10466834157705307,0.06987670063972473,0.008770475164055824,0.0017342353239655495,-4,13,-1004,70,9,1,-17,-55,-151,34504.0
00:53:42.872,AUTO,-35.3632626,149.165235,8031,0.034458380192518234,0.010952834971249104,-0.1034957617521286,0.06665782630443573,0.00425748573616147,0.004044243134558201,-2,11,-1003,67,4,3,-19,-45,-151,34504.0
00:53:43.074,AUTO,-35.3632626,149.165235,8031,0.034458380192518234,0.010952834971249104,-0.1034957617521286,0.06665782630443573,0.00425748573616147,0.004044243134558201,-2,11,-1003,67,4,3,-19,-45,-151,34504.0
00:53:43.276,AUTO,-35.3632626,149.165235,8031,0.034458380192518234,0.010952834971249104,-0.1034957617521286,0.06665782630443573,0.00425748573616147,0.004044243134558201,-2,11,-1003,67,4,3,-19,-45,-151,34504.0
00:53:43.477,AUTO,-35.3632626,149.165235,8031,0.034458380192518234,0.010952834971249104,-0.1034957617521286,0.06665782630443573,0.00425748573616147,0.004044243134558201,-2,11,-1003,67,4,3,-19,-45,-151,34504.0
00:53:43.679,AUTO,-35.3632641,149.1652328,9207,0.06478693336248398,-0.006497981958091259,-0.08501555770635605,-0.028948187828063965,-0.09533494710922241,0.08487807214260101,2,4,-996,-28,-94,84,-20,0,-150,34504.0
00:53:43.881,AUTO,-35.3632645,149.1652329,9595,0.05671720951795578,-0.0340675450861454,-0.061528515070676804,-0.019679268822073936,-0.10048311203718185,0.10522689670324326,4,0,-1000,-19,-99,104,-13,13,-150,34504.0
00:53:44.083,AUTO,-35.3632646,149.1652332,9981,0.045590586960315704,-0.060046568512916565,-0.03502272441983223,-0.07252076268196106,-0.07500952482223511,0.08607328683137894,3,-3,-995,-72,-74,85,0,24,-148,34504.0
00:53:44.284,AUTO,-35.3632645,149.1652339,10361,0.018341071903705597,-0.05781465396285057,-0.030085191130638123,-0.11991441249847412,0.0664743110537529,-0.02040393278002739,1,-5,-996,-119,67,-20,16,29,-147,34504.0
00:53:44.486,AUTO,-35.3632645,149.1652339,10361,0.018341071903705597,-0.05781465396285057,-0.030085191130638123,-0.11991441249847412,0.0664743110537529,-0.02040393278002739,1,-5,-996,-119,67,-20,16,29,-147,34504.0
00:53:44.688,AUTO,-35.363264,149.1652347,10739,-0.006865405011922121,-0.03538785129785538,-0.04398291930556297,-0.08340036869049072,0.09282747656106949,-0.07200507074594498,0,-9,-1004,-82,93,-72,28,28,-147,34504.0
00:53:44.890,AUTO,-35.3632633,149.1652353,11120,-0.020510978996753693,-0.014792266301810741,-0.06564705818891525,-0.0388866625726223,0.0734478160738945,-0.08900734782218933,-3,-8,-1006,-38,74,-89,34,21,-148,34504.0
00:53:45.092,AUTO,-35.3632633,149.1652353,11120,-0.020510978996753693,-0.014792266301810741,-0.06564705818891525,-0.0388866625726223,0.0734478160738945,-0.08900734782218933,-3,-8,-1006,-38,74,-89,34,21,-148,34504.0
00:53:45.294,AUTO,-35.3632633,149.1652353,11120,-0.020510978996753693,-0.014792266301810741,-0.06564705818891525,-0.0388866625726223,0.0734478160738945,-0.08900734782218933,-3,-8,-1006,-38,74,-89,34,21,-148,12058.0
00:53:45.496,AUTO,-35.3632633,149.1652353,11120,-0.020510978996753693,-0.014792266301810741,-0.06564705818891525,-0.0388866625726223,0.0734478160738945,-0.08900734782218933,-3,-8,-1006,-38,74,-89,34,21,-148,12058.0
00:53:45.697,AUTO,-35.3632612,149.1652359,12280,-0.02225487492978573,0.01680338941514492,-0.1280713826417923,0.024681562557816505,0.024165743961930275,-0.062208566814661026,-6,-3,-1003,25,24,-62,26,-3,-151,12058.0
00:53:45.899,AUTO,-35.3632606,149.1652357,12671,-0.015435363166034222,0.02144536003470421,-0.14231237769126892,0.034543104469776154,0.01645517535507679,-0.04889141023159027,-5,-2,-1002,35,17,-49,20,-9,-152,12058.0
00:53:46.101,AUTO,-35.3632602,149.1652355,13071,-0.0068366494961082935,0.0246233269572258,-0.15313223004341125,0.03401755169034004,0.012467185966670513,-0.03517773374915123,-6,0,-1001,34,12,-35,13,-11,-152,12058.0
00:53:46.302,AUTO,-35.36326,149.1652352,13462,0.0018853320507332683,0.026082444936037064,-0.1601450890302658,0.03378245234489441,0.0009027085034176707,-0.02102487161755562,-3,0,-1000,34,1,-21,6,-11,-152,12058.0
00:53:46.504,AUTO,-35.36326,149.1652352,13462,0.0018853320507332683,0.026082444936037064,-0.1601450890302658,0.03378245234489441,0.0009027085034176707,-0.02102487161755562,-3,0,-1000,34,1,-21,6,-11,-152,12058.0
00:53:46.706,AUTO,-35.3632598,149.1652348,13854,0.008739461190998554,0.02558819204568863,-0.1639494001865387,0.027499450370669365,-0.006194375455379486,-0.00846715085208416,-3,0,-1000,28,-5,-8,0,-9,-152,12058.0
00:53:46.908,AUTO,-35.3632599,149.1652346,14244,0.013779363594949245,0.02326710894703865,-0.16489635407924652,0.013361772522330284,-0.011077378876507282,-0.0014380296925082803,-1,1,-999,14,-10,-2,-5,-6,-152,12058.0
00:53:47.118,AUTO,-35.3632599,149.1652346,14244,0.013779363594949245,0.02326710894703865,-0.16489635407924652,0.013361772522330284,-0.011077378876507282,-0.0014380296925082803,-1,1,-999,14,-10,-2,-5,-6,-152,12058.0
00:53:47.323,AUTO,-35.3632599,149.1652346,14244,0.013779363594949245,0.02326710894703865,-0.16489635407924652,0.013361772522330284,-0.011077378876507282,-0.0014380296925082803,-1,1,-999,14,-10,-2,-5,-6,-152,12058.0
00:53:47.525,AUTO,-35.3632603,149.1652344,15405,0.014531169086694717,0.012229480780661106,-0.16090691089630127,-0.007964154705405235,-0.01504022441804409,0.0040159341879189014,1,0,-999,-7,-14,3,-13,5,-151,12058.0
00:53:47.726,AUTO,-35.3632603,149.1652344,15405,0.014531169086694717,0.012229480780661106,-0.16090691089630127,-0.007964154705405235,-0.01504022441804409,0.0040159341879189014,1,0,-999,-7,-14,3,-13,5,-151,12058.0
00:53:47.928,AUTO,-35.3632606,149.1652344,15793,0.012019104324281216,0.008435218594968319,-0.15987426042556763,-0.012124358676373959,-0.013626771979033947,-0.00047462471411563456,2,0,-999,-11,-13,0,-14,8,-151,12058.0
00:53:48.130,AUTO,-35.3632609,149.1652346,16182,0.00927648227661848,0.005574688781052828,-0.1601666510105133,-0.009269708767533302,-0.010170766152441502,-0.004440514370799065,3,0,-1000,-8,-9,-4,-14,10,-151,12058.0
00:53:48.332,AUTO,-35.3632612,149.1652348,16570,0.006439417600631714,0.002845923649147153,-0.16139540076255798,-0.010938690975308418,-0.00914058368653059,-0.008151428773999214,4,0,-1000,-10,-8,-8,-13,11,-151,168093.0
00:53:48.534,AUTO,-35.3632614,149.1652351,16958,0.003645984921604395,0.0004807595396414399,-0.16371290385723114,-0.00937544647604227,-0.008275105617940426,-0.014040632173418999,4,0,-1000,-8,-7,-14,-12,11,-151,168093.0
00:53:48.735,AUTO,-35.3632614,149.1652351,16958,0.003645984921604395,0.0004807595396414399,-0.16371290385723114,-0.00937544647604227,-0.008275105617940426,-0.014040632173418999,4,0,-1000,-8,-7,-14,-12,11,-151,168093.0
00:53:48.937,AUTO,-35.3632616,149.1652354,17347,0.0011731397826224566,-0.0010028001852333546,-0.16735948622226715,-0.00676142331212759,-0.004985109902918339,-0.01554847415536642,2,0,-1000,-6,-4,-16,-10,11,-151,168093.0
00:53:49.139,AUTO,-35.3632616,149.1652354,17347,0.0011731397826224566,-0.0010028001852333546,-0.16735948622226715,-0.00676142331212759,-0.004985109902918339,-0.01554847415536642,2,0,-1000,-6,-4,-16,-10,11,-151,168093.0
00:53:49.342,AUTO,-35.3632616,149.1652354,17347,0.0011731397826224566,-0.0010028001852333546,-0.16735948622226715,-0.00676142331212759,-0.004985109902918339,-0.01554847415536642,2,0,-1000,-6,-4,-16,-10,11,-151,168093.0
00:53:49.545,AUTO,-35.363262,149.1652359,18522,-0.0012674039462581277,-0.0025429080706089735,-0.1836511343717575,0.0012476223055273294,0.0020504482090473175,-0.026560582220554352,1,0,-1000,1,2,-26,-5,7,-152,168093.0
00:53:49.748,AUTO,-35.363262,149.1652359,18522,-0.0012674039462581277,-0.0025429080706089735,-0.1836511343717575,0.0012476223055273294,0.0020504482090473175,-0.026560582220554352,1,0,-1000,1,2,-26,-5,7,-152,168093.0
00:53:49.950,AUTO,-35.3632621,149.165236,18913,-0.0006832974031567574,-0.002057584235444665,-0.19032226502895355,0.002700397977605462,0.002597488695755601,-0.027651334181427956,0,0,-1000,3,3,-27,-4,5,-152,168093.0
00:53:50.151,AUTO,-35.3632622,149.1652361,19303,-0.00012950898963026702,-0.001527306973002851,-0.1971358209848404,0.0036299279890954494,0.00438264012336731,-0.02897603064775467,0,0,-1000,4,5,-29,-3,4,-152,168093.0
00:53:50.353,AUTO,-35.3632622,149.1652362,19692,0.0007308227359317243,-0.0007060951902531087,-0.20401039719581604,0.003742292057722807,0.002217333996668458,-0.02796235866844654,0,0,-1000,4,2,-28,-2,3,-152,168093.0
00:53:50.554,AUTO,-35.3632622,149.1652362,20082,0.0016203387640416622,0.0003399125998839736,-0.21111109852790833,0.006084983702749014,0.004377876874059439,-0.029247965663671494,0,0,-1000,6,5,-29,-1,2,-152,168093.0
00:53:50.756,AUTO,-35.3632622,149.1652362,20082,0.0016203387640416622,0.0003399125998839736,-0.21111109852790833,0.006084983702749014,0.004377876874059439,-0.029247965663671494,0,0,-1000,6,5,-29,-1,2,-152,168093.0
00:53:50.958,AUTO,-35.3632622,149.1652362,20473,0.0025704060681164265,0.001281456439755857,-0.21799854934215546,0.005062603857368231,0.004118705168366432,-0.028692401945590973,0,0,-1000,5,4,-29,-1,2,-152,168093.0
00:53:51.160,AUTO,-35.3632622,149.1652362,20473,0.0025704060681164265,0.001281456439755857,-0.21799854934215546,0.005062603857368231,0.004118705168366432,-0.028692401945590973,0,0,-1000,5,4,-29,-1,2,-152,168093.0
00:53:51.362,AUTO,-35.3632622,149.1652362,20473,0.0025704060681164265,0.001281456439755857,-0.21799854934215546,0.005062603857368231,0.004118705168366432,-0.028692401945590973,0,0,-1000,5,4,-29,-1,2,-152,257741.0
00:53:51.564,AUTO,-35.3632622,149.1652362,21642,0.004468652885407209,0.0033428161405026913,-0.23680195212364197,0.0019254796206951141,0.002833220874890685,-0.023196442052721977,0,0,-1000,2,3,-23,0,2,-152,257741.0
00:53:51.767,AUTO,-35.3632622,149.1652362,22035,0.004614458419382572,0.003850214648991823,-0.24269935488700867,0.0026097516529262066,0.0016332960221916437,-0.022385815158486366,0,0,-1000,3,2,-22,0,3,-152,257741.0
00:53:51.969,AUTO,-35.3632622,149.1652362,22035,0.004614458419382572,0.003850214648991823,-0.24269935488700867,0.0026097516529262066,0.0016332960221916437,-0.022385815158486366,0,0,-1000,3,2,-22,0,3,-152,257741.0
00:53:52.170,AUTO,-35.3632622,149.1652363,22425,0.004731805995106697,0.00386720709502697,-0.24796928465366364,-0.0008751341374590993,-0.0007527241250500083,-0.018032805994153023,0,0,-999,0,0,-18,-1,3,-152,257741.0
00:53:52.372,AUTO,-35.3632622,149.1652363,22814,0.004340113140642643,0.0036255649756640196,-0.2529290020465851,-0.0003574750735424459,-0.0008548184996470809,-0.019647469744086266,0,0,-1000,0,0,-19,-1,4,-152,257741.0
00:53:52.574,AUTO,-35.3632622,149.1652363,23204,0.0039044213481247425,0.0035871472209692,-0.25793737173080444,-0.0011099297553300858,0.00097438576631248,-0.022122124210000038,0,0,-1000,0,1,-22,-1,4,-152,257741.0
00:53:52.776,AUTO,-35.3632622,149.1652364,23594,0.0033402282278984785,0.003290259512141347,-0.26254409551620483,-0.002230169950053096,-0.0003594515146687627,-0.018714960664510727,0,0,-1000,-1,0,-19,-1,4,-152,257741.0
00:53:52.978,AUTO,-35.3632622,149.1652364,23594,0.0033402282278984785,0.003290259512141347,-0.26254409551620483,-0.002230169950053096,-0.0003594515146687627,-0.018714960664510727,0,0,-1000,-1,0,-19,-1,4,-152,257741.0
00:53:53.179,AUTO,-35.3632622,149.1652364,23594,0.0033402282278984785,0.003290259512141347,-0.26254409551620483,-0.002230169950053096,-0.0003594515146687627,-0.018714960664510727,0,0,-1000,-1,0,-19,-1,4,-152,257741.0
00:53:53.381,AUTO,-35.3632622,149.1652364,23594,0.0033402282278984785,0.003290259512141347,-0.26254409551620483,-0.002230169950053096,-0.0003594515146687627,-0.018714960664510727,0,0,-1000,-1,0,-19,-1,4,-152,257741.0
00:53:53.583,AUTO,-35.3632622,149.1652364,23594,0.0033402282278984785,0.003290259512141347,-0.26254409551620483,-0.002230169950053096,-0.0003594515146687627,-0.018714960664510727,0,0,-1000,-1,0,-19,-1,4,-152,257741.0
00:53:53.785,AUTO,-35.3632621,149.1652367,24910,0.001843547448515892,0.003172422293573618,-0.27872732281684875,0.0015289722941815853,0.0005518260877579451,-0.01855507120490074,0,0,-1000,2,1,-18,-1,4,-152,257741.0
00:53:53.986,AUTO,-35.3632621,149.1652367,25299,-0.005744872149080038,0.0051305158995091915,-0.2799461781978607,-0.0674784779548645,0.01784800924360752,0.01864859089255333,0,0,-992,-66,18,18,-1,3,-151,257741.0
00:53:54.188,AUTO,-35.3632621,149.1652367,25683,-0.008960504084825516,0.007756324950605631,-0.27425116300582886,0.017207777127623558,0.0016557382186874747,0.026741059496998787,0,0,-1004,18,2,26,-3,1,-151,257741.0
00:53:54.389,AUTO,-35.3632621,149.1652367,26071,-0.00155547633767128,0.0065301102586090565,-0.26689088344573975,0.032516829669475555,-0.007173147518187761,0.03036731854081154,0,0,-1003,33,-6,30,-5,0,-152,148336.0
00:53:54.591,AUTO,-35.3632621,149.1652367,26071,-0.00155547633767128,0.0065301102586090565,-0.26689088344573975,0.032516829669475555,-0.007173147518187761,0.03036731854081154,0,0,-1003,33,-6,30,-5,0,-152,148336.0
00:53:54.792,AUTO,-35.3632622,149.1652367,26460,0.005129780620336533,0.004878281150013208,-0.25866326689720154,0.0198315791785717,-0.005089394748210907,0.03299672156572342,0,0,-1000,20,-4,32,-5,0,-152,148336.0
00:53:54.994,AUTO,-35.3632623,149.1652367,26850,0.00894786138087511,0.003385444637387991,-0.25049588084220886,0.010581506416201591,-0.005443371832370758,0.028210703283548355,0,1,-1001,11,-4,27,-5,1,-152,148336.0
00:53:55.196,AUTO,-35.3632623,149.1652367,26850,0.00894786138087511,0.003385444637387991,-0.25049588084220886,0.010581506416201591,-0.005443371832370758,0.028210703283548355,0,1,-1001,11,-4,27,-5,1,-152,148336.0
00:53:55.398,AUTO,-35.3632623,149.1652367,26850,0.00894786138087511,0.003385444637387991,-0.25049588084220886,0.010581506416201591,-0.005443371832370758,0.028210703283548355,0,1,-1001,11,-4,27,-5,1,-152,148336.0
00:53:55.599,AUTO,-35.3632623,149.1652367,26850,0.00894786138087511,0.003385444637387991,-0.25049588084220886,0.010581506416201591,-0.005443371832370758,0.028210703283548355,0,1,-1001,11,-4,27,-5,1,-152,148336.0
00:53:55.801,AUTO,-35.3632624,149.1652368,28016,0.008513273671269417,0.0011824206449091434,-0.23046225309371948,-0.006412535905838013,0.0006637819460593164,0.024967584758996964,0,0,-999,-5,1,24,-3,6,-152,148336.0
00:53:56.003,AUTO,-35.3632624,149.1652369,28404,0.0069747194647789,0.0011116215027868748,-0.22474613785743713,-0.005011404864490032,-0.0005790841532871127,0.023185495287179947,1,0,-1000,-4,0,23,-2,7,-152,148336.0
00:53:56.204,AUTO,-35.3632624,149.1652371,28791,0.0050475397147238255,0.0010857870802283287,-0.21942998468875885,-0.008365998975932598,0.0007471006829291582,0.020030109211802483,1,-1,-999,-7,1,19,-1,8,-152,148336.0
00:53:56.406,AUTO,-35.3632624,149.1652373,29187,0.002988812979310751,0.001265041995793581,-0.21434548497200012,-0.006180370692163706,0.002578196581453085,0.02062205970287323,0,-1,-1000,-5,3,20,-1,8,-152,148336.0
00:53:56.607,AUTO,-35.3632624,149.1652373,29187,0.002988812979310751,0.001265041995793581,-0.21434548497200012,-0.006180370692163706,0.002578196581453085,0.02062205970287323,0,-1,-1000,-5,3,20,-1,8,-152,148336.0
00:53:56.809,AUTO,-35.3632624,149.1652374,29575,0.001395544270053506,0.001188267837278545,-0.20934760570526123,-0.004509684629738331,0.0007423681672662497,0.021477779373526573,1,-1,-1000,-3,1,21,0,7,-152,148336.0
00:53:57.010,AUTO,-35.3632624,149.1652376,29962,0.00017024953558575362,0.0014111449709162116,-0.2044675499200821,-0.004775938577950001,0.0002362363738939166,0.019179239869117737,0,-1,-1000,-3,0,19,0,7,-152,148336.0
00:53:57.212,AUTO,-35.3632624,149.1652376,29962,0.00017024953558575362,0.0014111449709162116,-0.2044675499200821,-0.004775938577950001,0.0002362363738939166,0.019179239869117737,0,-1,-1000,-3,0,19,0,7,-152,148336.0
00:53:57.428,AUTO,-35.3632624,149.1652376,29962,0.00017024953558575362,0.0014111449709162116,-0.2044675499200821,-0.004775938577950001,0.0002362363738939166,0.019179239869117737,0,-1,-1000,-3,0,19,0,7,-152,2117.0
00:53:57.630,AUTO,-35.3632624,149.1652379,31127,-0.0005016149953007698,0.0013833990087732673,-0.19124841690063477,0.003943457268178463,-0.0003783573629334569,0.017231885343790054,0,0,-1001,4,0,16,0,4,-152,2117.0
00:53:57.831,AUTO,-35.3632624,149.1652379,31127,-0.0005016149953007698,0.0013833990087732673,-0.19124841690063477,0.003943457268178463,-0.0003783573629334569,0.017231885343790054,0,0,-1001,4,0,16,0,4,-152,2117.0
00:53:58.033,AUTO,-35.3632624,149.165238,31516,-0.0005158382700756192,0.001270460314117372,-0.18720965087413788,-0.0022736575920134783,-0.0014879289083182812,0.015286237001419067,0,0,-1000,-1,0,15,0,3,-152,2117.0
00:53:58.234,AUTO,-35.3632624,149.165238,31904,-0.0003968840464949608,0.0011143735609948635,-0.18324409425258636,0.002687665168195963,0.0003753936616703868,0.015618794597685337,0,0,-1000,3,1,15,0,2,-152,2117.0
00:53:58.436,AUTO,-35.3632624,149.165238,32292,-5.867667277925648e-05,0.0011245476780459285,-0.17948786914348602,0.002695714822039008,0.0014016778441146016,0.01475731935352087,0,0,-1000,3,2,14,0,2,-152,2117.0
00:53:58.638,AUTO,-35.3632624,149.165238,32681,0.0004389717651065439,0.0012116082943975925,-0.17592017352581024,0.0014657730935141444,0.00040182110387831926,0.015176266431808472,0,0,-1000,2,1,15,0,1,-152,2117.0
00:53:58.840,AUTO,-35.3632624,149.165238,32681,0.0004389717651065439,0.0012116082943975925,-0.17592017352581024,0.0014657730935141444,0.00040182110387831926,0.015176266431808472,0,0,-1000,2,1,15,0,1,-152,2117.0
00:53:59.043,AUTO,-35.3632623,149.165238,33069,0.0007684141164645553,0.0008884866256266832,-0.1723039299249649,0.0012353966012597084,-5.122192669659853e-05,0.014814982190728188,0,0,-1000,2,0,14,0,1,-152,2117.0
00:53:59.245,AUTO,-35.3632623,149.165238,33069,0.0007684141164645553,0.0008884866256266832,-0.1723039299249649,0.0012353966012597084,-5.122192669659853e-05,0.014814982190728188,0,0,-1000,2,0,14,0,1,-152,2117.0
00:53:59.447,AUTO,-35.3632623,149.165238,33069,0.0007684141164645553,0.0008884866256266832,-0.1723039299249649,0.0012353966012597084,-5.122192669659853e-05,0.014814982190728188,0,0,-1000,2,0,14,0,1,-152,2117.0
00:53:59.649,AUTO,-35.3632623,149.165238,34234,0.0014785471139475703,0.001072312705218792,-0.16189850866794586,-0.001461943844333291,0.0020571863278746605,0.01268178690224886,0,0,-1000,0,3,12,0,0,-152,2117.0
00:53:59.850,AUTO,-35.3632623,149.165238,34234,0.0014785471139475703,0.001072312705218792,-0.16189850866794586,-0.001461943844333291,0.0020571863278746605,0.01268178690224886,0,0,-1000,0,3,12,0,0,-152,2117.0
00:54:00.052,AUTO,-35.3632623,149.165238,34622,0.0015653098234906793,0.0012588991085067391,-0.158941388130188,0.0036360083613544703,0.00048474606592208147,0.01019182801246643,0,0,-1001,4,1,10,0,0,-152,2117.0
00:54:00.258,AUTO,-35.3632623,149.165238,35010,0.0016234408831223845,0.0013537323102355003,-0.15601766109466553,-0.0007036632159724832,0.0014872566098347306,0.01237404439598322,0,0,-999,0,2,12,0,0,-152,2117.0
00:54:00.462,AUTO,-35.3632622,149.1652379,35398,0.0015699367504566908,0.001331863459199667,-0.15323403477668762,0.00012007413897663355,0.001207179157063365,0.011356583796441555,0,0,-1000,1,1,11,0,0,-152,176281.0
00:54:00.664,AUTO,-35.3632622,149.1652379,35787,0.0016022175550460815,0.0011167521588504314,-0.1504560112953186,0.004502208437770605,0.0009600662160664797,0.012716000899672508,0,0,-1000,5,2,12,0,0,-152,176281.0
00:54:00.866,AUTO,-35.3632622,149.1652379,36175,0.0015874345554038882,0.0010952767916023731,-0.147731751203537,-0.003529511857777834,-0.00014171656221151352,0.009602212347090244,0,0,-1000,-2,1,9,0,0,-152,176281.0
00:54:01.068,AUTO,-35.3632622,149.1652379,36175,0.0015874345554038882,0.0010952767916023731,-0.147731751203537,-0.003529511857777834,-0.00014171656221151352,0.009602212347090244,0,0,-1000,-2,1,9,0,0,-152,176281.0
00:54:01.270,AUTO,-35.3632622,149.1652379,36175,0.0015874345554038882,0.0010952767916023731,-0.147731751203537,-0.003529511857777834,-0.00014171656221151352,0.009602212347090244,0,0,-1000,-2,1,9,0,0,-152,176281.0
00:54:01.473,AUTO,-35.3632622,149.1652379,36175,0.0015874345554038882,0.0010952767916023731,-0.147731751203537,-0.003529511857777834,-0.00014171656221151352,0.009602212347090244,0,0,-1000,-2,1,9,0,0,-152,176281.0
00:54:01.676,AUTO,-35.3632622,149.1652377,37340,0.0022489142138510942,0.0011952375061810017,-0.14010438323020935,0.0007706164615228772,0.0030650286935269833,0.011945204809308052,0,0,-999,1,4,11,0,0,-152,176281.0
00:54:01.878,AUTO,-35.3632622,149.1652377,37727,0.0024830480106174946,0.0014235905837267637,-0.1379939466714859,-0.0005884150741621852,4.1863531805574894e-05,0.008716143667697906,0,0,-1000,0,1,8,0,0,-152,176281.0
00:54:02.079,AUTO,-35.3632622,149.1652377,37727,0.0024830480106174946,0.0014235905837267637,-0.1379939466714859,-0.0005884150741621852,4.1863531805574894e-05,0.008716143667697906,0,0,-1000,0,1,8,0,0,-152,176281.0
00:54:02.282,AUTO,-35.3632622,149.1652376,38116,0.0027574123814702034,0.0015897650737315416,-0.13565440475940704,-0.0014538681134581566,-0.000972019275650382,0.009088490158319473,0,0,-1000,0,0,9,0,0,-152,176281.0
00:54:02.483,AUTO,-35.3632621,149.1652376,38508,0.0026555589865893126,0.0014442517422139645,-0.13351716101169586,0.0019448408856987953,0.0006867592455819249,0.009098904207348824,0,0,-1000,3,1,9,0,0,-152,176281.0
00:54:02.685,AUTO,-35.3632621,149.1652376,38897,0.0026117870584130287,0.0012712471652776003,-0.13115665316581726,-0.00029640953289344907,0.0017337144818156958,0.01086273230612278,0,0,-999,0,2,11,0,0,-152,176281.0
00:54:02.887,AUTO,-35.3632621,149.1652375,39286,0.002435794100165367,0.0014558762777596712,-0.1290941685438156,0.0005437546642497182,0.000353393261320889,0.0066237798891961575,0,0,-1001,1,1,6,0,0,-152,176281.0
00:54:03.088,AUTO,-35.3632621,149.1652375,39286,0.002435794100165367,0.0014558762777596712,-0.1290941685438156,0.0005437546642497182,0.000353393261320889,0.0066237798891961575,0,0,-1001,1,1,6,0,0,-152,176281.0
00:54:03.290,AUTO,-35.3632621,149.1652375,39286,0.002435794100165367,0.0014558762777596712,-0.1290941685438156,0.0005437546642497182,0.000353393261320889,0.0066237798891961575,0,0,-1001,1,1,6,0,0,-152,65932.0
00:54:03.492,AUTO,-35.3632621,149.1652375,39286,0.002435794100165367,0.0014558762777596712,-0.1290941685438156,0.0005437546642497182,0.000353393261320889,0.0066237798891961575,0,0,-1001,1,1,6,0,0,-152,65932.0
00:54:03.693,AUTO,-35.3632621,149.1652375,40447,0.002189210383221507,0.0014524616999551654,-0.12370745092630386,0.0005942854331806302,-0.00016603106632828712,0.00524799944832921,0,0,-1000,1,1,5,0,1,-152,65932.0
00:54:03.895,AUTO,-35.3632621,149.1652375,40836,0.002001678105443716,0.0014762579230591655,-0.12203378230333328,-0.002253715880215168,0.0007049668347463012,0.008576810359954834,0,0,-999,0,1,8,0,1,-152,65932.0
00:54:04.096,AUTO,-35.3632621,149.1652375,40836,0.002001678105443716,0.0014762579230591655,-0.12203378230333328,-0.002253715880215168,0.0007049668347463012,0.008576810359954834,0,0,-999,0,1,8,0,1,-152,65932.0
00:54:04.298,AUTO,-35.3632621,149.1652374,41223,0.0021914388053119183,0.0014331588754430413,-0.12028786540031433,0.003720056265592575,0.001003533136099577,0.007440278772264719,0,0,-1000,4,1,7,0,1,-152,65932.0
00:54:04.499,AUTO,-35.3632621,149.1652374,41610,0.002265047514811158,0.001633504289202392,-0.11849718540906906,-0.0019210330210626125,0.0008110810304060578,0.00830048881471157,0,0,-999,0,2,8,-1,1,-152,65932.0
00:54:04.701,AUTO,-35.3632621,149.1652374,41999,0.0020540733821690083,0.0014318885514512658,-0.11691652983427048,0.00195134780369699,0.00028194941114634275,0.00970530230551958,0,0,-1000,3,1,9,-1,1,-152,65932.0
00:54:04.903,AUTO,-35.3632621,149.1652374,42388,0.0020191981457173824,0.001567043480463326,-0.11522112786769867,0.0009760849643498659,0.0012986225774511695,0.006884204689413309,0,0,-1000,2,2,7,-1,1,-152,65932.0
00:54:05.104,AUTO,-35.3632621,149.1652374,42388,0.0020191981457173824,0.001567043480463326,-0.11522112786769867,0.0009760849643498659,0.0012986225774511695,0.006884204689413309,0,0,-1000,2,2,7,-1,1,-152,65932.0
00:54:05.306,AUTO,-35.3632621,149.1652374,42388,0.0020191981457173824,0.001567043480463326,-0.11522112786769867,0.0009760849643498659,0.0012986225774511695,0.006884204689413309,0,0,-1000,2,2,7,-1,1,-152,65932.0
00:54:05.508,AUTO,-35.3632621,149.1652374,42388,0.0020191981457173824,0.001567043480463326,-0.11522112786769867,0.0009760849643498659,0.0012986225774511695,0.006884204689413309,0,0,-1000,2,2,7,-1,1,-152,65932.0
00:54:05.710,AUTO,-35.363262,149.1652374,43553,0.0021389073226600885,0.0014325545635074377,-0.11063085496425629,0.0004685398889705539,0.0014846159610897303,0.005375738721340895,0,0,-1000,1,2,5,-1,1,-152,65932.0
00:54:05.911,AUTO,-35.363262,149.1652374,43941,0.0021592313423752785,0.0013109928695484996,-0.10895056277513504,0.0011380123905837536,-0.0002178210997954011,0.008167275227606297,0,0,-1000,2,0,8,-1,1,-152,65932.0
00:54:06.114,AUTO,-35.363262,149.1652373,44329,0.0020962334237992764,0.0011347781401127577,-0.10763799399137497,0.001188776339404285,2.806831616908312e-05,0.006863224785774946,0,0,-1000,2,1,7,-1,1,-152,65932.0
00:54:06.316,AUTO,-35.363262,149.1652373,44329,0.0020962334237992764,0.0011347781401127577,-0.10763799399137497,0.001188776339404285,2.806831616908312e-05,0.006863224785774946,0,0,-1000,2,1,7,-1,1,-152,213047.0
00:54:06.517,AUTO,-35.363262,149.1652373,44718,0.0020899921655654907,0.0012657827464863658,-0.10610638558864594,0.0018388370517641306,0.0032367543317377567,0.005821367725729942,0,0,-1000,2,4,6,-1,1,-152,213047.0
00:54:06.719,AUTO,-35.363262,149.1652373,45105,0.0021205556113272905,0.0013259960105642676,-0.10459920763969421,0.002565016271546483,-0.00036304339300841093,0.00604877807199955,0,0,-1001,3,0,6,-1,1,-152,213047.0
00:54:06.921,AUTO,-35.363262,149.1652373,45493,0.002025933936238289,0.001207769731990993,-0.10326984524726868,-0.0011301606427878141,0.0010173778282478452,0.007506870198994875,0,0,-999,0,2,7,-1,1,-152,213047.0
00:54:07.130,AUTO,-35.363262,149.1652373,45493,0.002025933936238289,0.001207769731990993,-0.10326984524726868,-0.0011301606427878141,0.0010173778282478452,0.007506870198994875,0,0,-999,0,2,7,-1,1,-152,213047.0
00:54:07.340,AUTO,-35.363262,149.1652373,45493,0.002025933936238289,0.001207769731990993,-0.10326984524726868,-0.0011301606427878141,0.0010173778282478452,0.007506870198994875,0,0,-999,0,2,7,-1,1,-152,213047.0
00:54:07.541,AUTO,-35.363262,149.1652373,45493,0.002025933936238289,0.001207769731990993,-0.10326984524726868,-0.0011301606427878141,0.0010173778282478452,0.007506870198994875,0,0,-999,0,2,7,-1,1,-152,213047.0
00:54:07.743,AUTO,-35.363262,149.1652373,46657,0.0018818068783730268,0.001201898092404008,-0.09915993362665176,-0.0015945456689223647,-0.00021856685634702444,0.004809561185538769,0,0,-1000,0,0,5,-1,1,-152,213047.0
00:54:07.946,AUTO,-35.363262,149.1652373,47046,0.001711626653559506,0.0010871163103729486,-0.09775199741125107,-0.0014695368008688092,0.000357677461579442,0.006106258369982243,0,0,-1000,0,1,6,-1,1,-152,213047.0
00:54:08.148,AUTO,-35.363262,149.1652373,47433,-0.0045482562854886055,0.006356249563395977,-0.08473899215459824,-0.09010961651802063,0.08197873830795288,0.17901387810707092,0,-1,-961,-88,83,179,-1,0,-149,213047.0
00:54:08.350,AUTO,-35.363262,149.1652373,47433,-0.0045482562854886055,0.006356249563395977,-0.08473899215459824,-0.09010961651802063,0.08197873830795288,0.17901387810707092,0,-1,-961,-88,83,179,-1,0,-149,213047.0
00:54:08.551,AUTO,-35.363262,149.1652373,47802,-0.041507549583911896,0.04727684706449509,0.010968389920890331,-0.1907380074262619,0.17644913494586945,0.5585919618606567,-1,0,-956,-189,177,558,-7,-4,-137,213047.0
00:54:08.753,AUTO,-35.3632623,149.1652369,48135,-0.06567762792110443,0.07808414101600647,0.1550503373146057,-0.02557539939880371,-0.06551221013069153,0.4634944796562195,2,4,-921,-24,-64,463,-21,-19,-122,213047.0
00:54:08.955,AUTO,-35.3632629,149.1652361,48422,-0.046214137226343155,0.03723501041531563,0.24105879664421082,0.09970062971115112,-0.23030565679073334,0.24317362904548645,3,8,-926,100,-229,243,-31,-33,-102,213047.0
00:54:09.157,AUTO,-35.3632629,149.1652361,48422,-0.046214137226343155,0.03723501041531563,0.24105879664421082,0.09970062971115112,-0.23030565679073334,0.24317362904548645,3,8,-926,100,-229,243,-31,-33,-102,213047.0
00:54:09.358,AUTO,-35.3632629,149.1652361,48422,-0.046214137226343155,0.03723501041531563,0.24105879664421082,0.09970062971115112,-0.23030565679073334,0.24317362904548645,3,8,-926,100,-229,243,-31,-33,-102,170540.0
00:54:09.560,AUTO,-35.3632629,149.1652361,48422,-0.046214137226343155,0.03723501041531563,0.24105879664421082,0.09970062971115112,-0.23030565679073334,0.24317362904548645,3,8,-926,100,-229,243,-31,-33,-102,170540.0
00:54:09.762,AUTO,-35.3632645,149.1652333,49050,0.02500816434621811,-0.052798543125391006,0.3026846945285797,0.01853787899017334,-0.01940217800438404,-0.0012745661661028862,1,4,-1002,19,-18,0,-14,-25,-73,170540.0
00:54:09.965,AUTO,-35.3632647,149.1652327,49233,0.03446594998240471,-0.05310647934675217,0.29810377955436707,0.027347225695848465,0.010048463940620422,-0.022871151566505432,0,6,-977,28,11,-22,-4,-13,-69,170540.0
00:54:10.166,AUTO,-35.3632647,149.1652324,49398,0.04150417447090149,-0.04793831333518028,0.29023054242134094,0.09876958280801773,0.027927042916417122,-0.034388504922389984,-1,2,-969,100,28,-33,4,-1,-61,170540.0
00:54:10.370,AUTO,-35.3632646,149.1652324,49544,0.03644446283578873,-0.038952916860580444,0.2810348570346832,-0.29003801941871643,0.03852687403559685,-0.037023887038230896,-2,-13,-967,-288,39,-36,11,9,-53,170540.0
00:54:10.574,AUTO,-35.3632646,149.1652324,49544,0.03644446283578873,-0.038952916860580444,0.2810348570346832,-0.29003801941871643,0.03852687403559685,-0.037023887038230896,-2,-13,-967,-288,39,-36,11,9,-53,170540.0
00:54:10.776,AUTO,-35.3632643,149.1652327,49668,0.03518777713179588,-0.028034573420882225,0.2714700996875763,0.23656947910785675,0.04354299604892731,-0.03450615704059601,-2,17,-962,238,44,-34,16,19,-44,170540.0
00:54:10.978,AUTO,-35.3632639,149.1652333,49768,0.036669161170721054,-0.01648685336112976,0.2616211771965027,0.43231290578842163,0.04280375689268112,-0.039047569036483765,-3,4,-977,433,44,-38,19,25,-36,170540.0
00:54:11.180,AUTO,-35.3632639,149.1652333,49768,0.036669161170721054,-0.01648685336112976,0.2616211771965027,0.43231290578842163,0.04280375689268112,-0.039047569036483765,-3,4,-977,433,44,-38,19,25,-36,170540.0
00:54:11.382,AUTO,-35.3632639,149.1652333,49768,0.036669161170721054,-0.01648685336112976,0.2616211771965027,0.43231290578842163,0.04280375689268112,-0.039047569036483765,-3,4,-977,433,44,-38,19,25,-36,170540.0
00:54:11.584,AUTO,-35.3632639,149.1652333,49768,0.036669161170721054,-0.01648685336112976,0.2616211771965027,0.43231290578842163,0.04280375689268112,-0.039047569036483765,-3,4,-977,433,44,-38,19,25,-36,170540.0
00:54:11.786,AUTO,-35.3632624,149.1652355,49965,0.007406983058899641,0.008915826678276062,0.23472774028778076,0.27741318941116333,0.025912925601005554,-0.024333516135811806,-3,21,-982,279,26,-23,18,32,-16,170540.0
00:54:11.987,AUTO,-35.363262,149.1652363,49995,0.012166449800133705,0.012427070178091526,0.22662270069122314,0.7216640710830688,0.009296565316617489,-0.021515248343348503,-1,20,-959,723,10,-20,15,29,-8,170540.0
00:54:12.189,AUTO,-35.3632616,149.165237,50000,-0.0012936986749991775,0.030996592715382576,0.21554972231388092,0.19452063739299774,0.1767025887966156,0.018149662762880325,2,-17,-928,194,177,18,12,25,3,170540.0
00:54:12.390,AUTO,-35.3632614,149.1652375,49975,-0.02365940436720848,0.04768965393304825,0.21282221376895905,-0.6042314767837524,-0.012716321274638176,-0.01761089451611042,1,-45,-985,-604,-11,-17,4,17,11,109612.0
00:54:12.592,AUTO,-35.3632614,149.1652375,49975,-0.02365940436720848,0.04768965393304825,0.21282221376895905,-0.6042314767837524,-0.012716321274638176,-0.01761089451611042,1,-45,-985,-604,-11,-17,4,17,11,109612.0
00:54:12.794,AUTO,-35.3632614,149.1652379,49936,-0.014447038061916828,0.03779041767120361,0.20814189314842224,-0.4877296984195709,-0.03945372253656387,-0.009058856405317783,1,-16,-1007,-485,-38,-8,-5,11,15,109612.0
00:54:12.996,AUTO,-35.3632616,149.1652381,49898,0.013370038010179996,0.03131435811519623,0.20422202348709106,0.256232351064682,-0.018834533169865608,-0.009176052175462246,5,27,-1010,258,-17,-8,-13,11,11,109612.0
00:54:13.197,AUTO,-35.3632616,149.1652381,49898,0.013370038010179996,0.03131435811519623,0.20422202348709106,0.256232351064682,-0.018834533169865608,-0.009176052175462246,5,27,-1010,258,-17,-8,-13,11,11,109612.0
00:54:13.399,AUTO,-35.3632616,149.1652381,49898,0.013370038010179996,0.03131435811519623,0.20422202348709106,0.256232351064682,-0.018834533169865608,-0.009176052175462246,5,27,-1010,258,-17,-8,-13,11,11,109612.0
00:54:13.600,AUTO,-35.3632616,149.1652381,49898,0.013370038010179996,0.03131435811519623,0.20422202348709106,0.256232351064682,-0.018834533169865608,-0.009176052175462246,5,27,-1010,258,-17,-8,-13,11,11,109612.0
