time_stamp,MODE,lat,lon,relative_alt,roll,pitch,yaw,rollspeed,pitchspeed,yawspeed,xacc,yacc,zacc,xgyro,ygyro,zgyro,vx,vy,vz,RTL_ALT
06:17:46.435,STABILIZE,-35.3632621,149.1652374,23,0.00028009299421682954,0.0015491157537326217,0.028586378321051598,0.00022449190146289766,0.00025155663024634123,0.0024142134934663773,0,1,-1000,0,0,0,-1,1,-1,1500.0
06:17:46.636,STABILIZE,-35.3632621,149.1652374,23,0.00028009299421682954,0.0015491157537326217,0.028586378321051598,0.00022449190146289766,0.00025155663024634123,0.0024142134934663773,0,1,-1000,0,0,0,-1,1,-1,1500.0
06:17:46.837,STABILIZE,-35.3632621,149.1652374,23,0.00028009299421682954,0.0015491157537326217,0.028586378321051598,0.00022449190146289766,0.00025155663024634123,0.0024142134934663773,0,1,-1000,0,0,0,-1,1,-1,1500.0
06:17:47.038,STABILIZE,-35.3632621,149.1652374,23,0.00028009299421682954,0.0015491157537326217,0.028586378321051598,0.00022449190146289766,0.00025155663024634123,0.0024142134934663773,0,1,-1000,0,0,0,-1,1,-1,1500.0
06:17:47.239,STABILIZE,-35.3632621,149.1652374,23,0.0001566552818985656,0.001579447416588664,0.02747971937060356,0.00029848297708667815,0.0002664557541720569,0.002434865338727832,0,1,-1000,0,0,0,-1,1,-1,1500.0
06:17:47.440,STABILIZE,-35.3632621,149.1652374,23,0.0002444764832034707,0.0015435587847605348,0.02729598619043827,0.00034066493390128016,0.00026267312932759523,0.002241062466055155,0,1,-1000,0,0,0,-1,1,-1,1500.0
06:17:47.641,STABILIZE,-35.3632621,149.1652374,23,0.0002444764832034707,0.0015435587847605348,0.02729598619043827,0.00034066493390128016,0.00026267312932759523,0.002241062466055155,0,1,-1000,0,0,0,-1,1,-1,1500.0
06:17:47.841,STABILIZE,-35.3632621,149.1652374,23,0.0002444764832034707,0.0015435587847605348,0.02729598619043827,0.00034066493390128016,0.00026267312932759523,0.002241062466055155,0,1,-1000,0,0,0,-1,1,-1,1500.0
06:17:48.042,STABILIZE,-35.3632622,149.1652375,22,0.00014235355774872005,0.0014433552278205752,0.026992959901690483,0.00016814825357869267,0.0002441462129354477,0.002202847274020314,0,1,-1000,0,1,0,-2,1,-1,1500.0
06:17:48.244,STABILIZE,-35.3632622,149.1652375,22,0.00014235355774872005,0.0014433552278205752,0.026992959901690483,0.00016814825357869267,0.0002441462129354477,0.002202847274020314,0,1,-1000,0,1,0,-2,1,-1,1500.0
06:17:48.445,STABILIZE,-35.3632622,149.1652375,22,0.00014235355774872005,0.0014433552278205752,0.026992959901690483,0.00016814825357869267,0.0002441462129354477,0.002202847274020314,0,1,-1000,0,1,0,-2,1,-1,1500.0
06:17:48.646,STABILIZE,-35.3632622,149.1652375,22,0.00014235355774872005,0.0014433552278205752,0.026992959901690483,0.00016814825357869267,0.0002441462129354477,0.002202847274020314,0,1,-1000,0,1,0,-2,1,-1,1500.0
06:17:48.848,STABILIZE,-35.3632622,149.1652375,22,0.00014235355774872005,0.0014433552278205752,0.026992959901690483,0.00016814825357869267,0.0002441462129354477,0.002202847274020314,0,1,-1000,0,1,0,-2,1,-1,1500.0
06:17:49.049,STABILIZE,-35.3632622,149.1652375,21,-5.0127870053984225e-05,0.001225844374857843,0.026376675814390182,0.00027518681599758565,0.0001409354154020548,0.0020536179654300213,0,1,-1000,0,0,0,-1,1,-1,1500.0
06:17:49.250,STABILIZE,-35.3632622,149.1652375,20,-5.0127870053984225e-05,0.001225844374857843,0.026376675814390182,0.00027518681599758565,0.0001409354154020548,0.0020536179654300213,0,1,-1000,0,0,0,-1,1,-1,1500.0
06:17:49.452,STABILIZE,-35.3632622,149.1652375,20,-5.0127870053984225e-05,0.001225844374857843,0.026376675814390182,0.00027518681599758565,0.0001409354154020548,0.0020536179654300213,0,1,-1000,0,0,0,-1,1,0,1500.0
06:17:49.653,STABILIZE,-35.3632622,149.1652375,20,-5.0127870053984225e-05,0.001225844374857843,0.026376675814390182,0.00027518681599758565,0.0001409354154020548,0.0020536179654300213,0,1,-1000,0,0,0,-1,1,0,1500.0
06:17:49.855,STABILIZE,-35.3632622,149.1652375,20,-5.0127870053984225e-05,0.001225844374857843,0.026376675814390182,0.00027518681599758565,0.0001409354154020548,0.0020536179654300213,0,1,-1000,0,0,0,-1,1,0,1500.0
06:17:50.056,STABILIZE,-35.3632622,149.1652375,20,-5.0127870053984225e-05,0.001225844374857843,0.026376675814390182,0.00027518681599758565,0.0001409354154020548,0.0020536179654300213,0,1,-1000,0,0,0,-1,1,0,1500.0
06:17:50.258,STABILIZE,-35.3632622,149.1652375,20,-5.0127870053984225e-05,0.001225844374857843,0.026376675814390182,0.00027518681599758565,0.0001409354154020548,0.0020536179654300213,0,1,-1000,0,0,0,-1,1,0,1500.0
06:17:50.459,STABILIZE,-35.3632622,149.1652375,20,-5.0127870053984225e-05,0.001225844374857843,0.026376675814390182,0.00027518681599758565,0.0001409354154020548,0.0020536179654300213,0,1,-1000,0,0,0,-1,1,0,1500.0
06:17:50.661,STABILIZE,-35.3632622,149.1652375,20,-5.0127870053984225e-05,0.001225844374857843,0.026376675814390182,0.00027518681599758565,0.0001409354154020548,0.0020536179654300213,0,1,-1000,0,0,0,-1,1,0,1500.0
06:17:50.863,STABILIZE,-35.3632622,149.1652375,20,-5.0127870053984225e-05,0.001225844374857843,0.026376675814390182,0.00027518681599758565,0.0001409354154020548,0.0020536179654300213,0,1,-1000,0,0,0,-1,1,0,1500.0
06:17:51.064,STABILIZE,-35.3632621,149.1652375,15,-0.0004858066968154162,0.0009945931378751993,0.02533542364835739,0.0002763167140074074,0.00025829352671280503,0.0018520345911383629,0,1,-1000,0,0,0,-1,1,0,1500.0
06:17:51.266,STABILIZE,-35.3632621,149.1652375,15,-0.0004858066968154162,0.0009945931378751993,0.02533542364835739,0.0002763167140074074,0.00025829352671280503,0.0018520345911383629,0,1,-1000,0,0,0,-1,1,0,1500.0
06:17:51.467,STABILIZE,-35.3632621,149.1652375,15,-0.0004858066968154162,0.0009945931378751993,0.02533542364835739,0.0002763167140074074,0.00025829352671280503,0.0018520345911383629,0,1,-1000,0,0,0,-1,1,0,1500.0
06:17:51.669,STABILIZE,-35.3632621,149.1652375,12,-0.0006112515111453831,0.0009639121126383543,0.025022707879543304,0.00020865659462288022,0.0003715045750141144,0.0019641960971057415,0,1,-1000,0,0,0,-1,1,0,1500.0
06:17:51.870,STABILIZE,-35.3632621,149.1652375,12,-0.0006112515111453831,0.0009639121126383543,0.025022707879543304,0.00020865659462288022,0.0003715045750141144,0.0019641960971057415,0,1,-1000,0,0,0,-1,1,0,1500.0
06:17:52.072,STABILIZE,-35.3632621,149.1652375,11,-0.0006341739208437502,0.0009556085569784045,0.0249458197504282,0.00028020801255479455,0.00023879858781583607,0.001738883089274168,0,1,-1000,0,0,0,-1,1,0,1500.0
06:17:52.273,STABILIZE,-35.3632621,149.1652375,10,-0.0006648168782703578,0.0009425946627743542,0.024849610403180122,0.0001978499349206686,0.00022898701718077064,0.0020243688486516476,0,1,-1000,0,0,0,-1,1,0,1500.0
06:17:52.475,STABILIZE,-35.3632621,149.1652375,10,-0.0006648168782703578,0.0009425946627743542,0.024849610403180122,0.0001978499349206686,0.00022898701718077064,0.0020243688486516476,0,1,-1000,0,0,0,-1,1,0,1500.0
06:17:52.676,STABILIZE,-35.3632621,149.1652375,10,-0.0006648168782703578,0.0009425946627743542,0.024849610403180122,0.0001978499349206686,0.00022898701718077064,0.0020243688486516476,0,1,-1000,0,0,0,-1,1,0,1500.0
06:17:52.878,STABILIZE,-35.3632621,149.1652375,10,-0.0006648168782703578,0.0009425946627743542,0.024849610403180122,0.0001978499349206686,0.00022898701718077064,0.0020243688486516476,0,1,-1000,0,0,0,-1,1,0,1500.0
06:17:53.079,STABILIZE,-35.3632621,149.1652375,10,-0.0006648168782703578,0.0009425946627743542,0.024849610403180122,0.0001978499349206686,0.00022898701718077064,0.0020243688486516476,0,1,-1000,0,0,0,-1,1,0,1500.0
06:17:53.281,STABILIZE,-35.3632621,149.1652375,6,-0.0006648168782703578,0.0009425946627743542,0.024849610403180122,0.0001978499349206686,0.00022898701718077064,0.0020243688486516476,0,2,-1000,1,0,0,-1,1,0,1500.0
06:17:53.483,STABILIZE,-35.3632621,149.1652375,5,-0.0006648168782703578,0.0009425946627743542,0.024849610403180122,0.0001978499349206686,0.00022898701718077064,0.0020243688486516476,0,1,-1000,0,1,0,-1,1,0,1500.0
06:17:53.684,STABILIZE,-35.3632621,149.1652375,5,-0.0006648168782703578,0.0009425946627743542,0.024849610403180122,0.0001978499349206686,0.00022898701718077064,0.0020243688486516476,0,1,-1000,0,1,0,-1,1,0,1500.0
06:17:53.886,STABILIZE,-35.3632621,149.1652375,5,-0.0006648168782703578,0.0009425946627743542,0.024849610403180122,0.0001978499349206686,0.00022898701718077064,0.0020243688486516476,0,1,-1000,0,1,0,-1,1,0,1500.0
06:17:54.087,STABILIZE,-35.3632621,149.1652375,3,-0.0008276196313090622,0.0009223399101756513,0.02420469932258129,0.0002827703137882054,0.00026951805921271443,0.0019144359976053238,0,1,-1000,0,0,0,-1,1,0,1500.0
06:17:54.289,STABILIZE,-35.3632621,149.1652375,2,-0.0008383621461689472,0.0009282487444579601,0.024119917303323746,0.00014110584743320942,0.00026421784423291683,0.001875460846349597,0,1,-1000,0,0,0,-1,1,0,1500.0
06:17:54.490,STABILIZE,-35.3632621,149.1652375,2,-0.0008383621461689472,0.0009282487444579601,0.024119917303323746,0.00014110584743320942,0.00026421784423291683,0.001875460846349597,0,1,-1000,0,0,0,-1,1,0,1500.0
06:17:54.693,STABILIZE,-35.3632621,149.1652375,2,-0.0008383621461689472,0.0009282487444579601,0.024119917303323746,0.00014110584743320942,0.00026421784423291683,0.001875460846349597,0,1,-1000,0,0,0,-1,1,0,1500.0
06:17:54.895,STABILIZE,-35.3632621,149.1652375,2,-0.0008383621461689472,0.0009282487444579601,0.024119917303323746,0.00014110584743320942,0.00026421784423291683,0.001875460846349597,0,1,-1000,0,0,0,-1,1,0,1500.0
06:17:55.096,STABILIZE,-35.3632621,149.1652375,2,-0.0008383621461689472,0.0009282487444579601,0.024119917303323746,0.00014110584743320942,0.00026421784423291683,0.001875460846349597,0,1,-1000,0,0,0,-1,1,0,1500.0
06:17:55.298,STABILIZE,-35.3632621,149.1652375,0,-0.000778532586991787,0.0009393853833898902,0.023768354207277298,0.0002269978285767138,0.00017646828200668097,0.0015908580971881747,0,1,-1000,0,0,0,-1,1,1,1500.0
06:17:55.499,STABILIZE,-35.3632621,149.1652375,0,-0.000778532586991787,0.0009393853833898902,0.023768354207277298,0.0002269978285767138,0.00017646828200668097,0.0015908580971881747,0,1,-1000,0,0,0,-1,1,1,1500.0
06:17:55.700,STABILIZE,-35.3632621,149.1652375,0,-0.0008331274730153382,0.0009369124891236424,0.023612085729837418,0.0002862744149751961,0.0003162338980473578,0.001756323967128992,0,1,-1000,0,1,0,-1,1,1,1500.0
06:17:55.901,STABILIZE,-35.3632621,149.1652375,0,-0.0008331274730153382,0.0009369124891236424,0.023612085729837418,0.0002862744149751961,0.0003162338980473578,0.001756323967128992,0,1,-1000,0,1,0,-1,1,1,1500.0
06:17:56.102,STABILIZE,-35.3632621,149.1652375,0,-0.0008549721678718925,0.0009466813644394279,0.023532366380095482,0.00029835605528205633,0.000413516943808645,0.0017607673071324825,0,1,-1000,0,0,0,-1,1,1,1500.0
06:17:56.304,STABILIZE,-35.3632621,149.1652375,0,-0.0008799079805612564,0.0009521511383354664,0.02346700057387352,0.0003032333916053176,0.0002919457037933171,0.0015854209195822477,0,1,-1000,0,0,0,-1,1,1,1500.0
06:17:56.505,STABILIZE,-35.3632621,149.1652375,0,-0.0008799079805612564,0.0009521511383354664,0.02346700057387352,0.0003032333916053176,0.0002919457037933171,0.0015854209195822477,0,1,-1000,0,0,0,-1,1,1,1500.0
06:17:56.718,STABILIZE,-35.3632621,149.1652375,0,-0.0008799079805612564,0.0009521511383354664,0.02346700057387352,0.0003032333916053176,0.0002919457037933171,0.0015854209195822477,0,1,-1000,0,0,0,-1,1,1,1500.0
06:17:56.919,STABILIZE,-35.3632621,149.1652375,0,-0.0008799079805612564,0.0009521511383354664,0.02346700057387352,0.0003032333916053176,0.0002919457037933171,0.0015854209195822477,0,1,-1000,0,0,0,-1,1,1,1500.0
06:17:57.121,STABILIZE,-35.3632621,149.1652375,0,-0.0008799079805612564,0.0009521511383354664,0.02346700057387352,0.0003032333916053176,0.0002919457037933171,0.0015854209195822477,0,1,-1000,0,0,0,-1,1,1,1500.0
06:17:57.323,STABILIZE,-35.3632622,149.1652375,0,-0.0008799079805612564,0.0009521511383354664,0.02346700057387352,0.0003032333916053176,0.0002919457037933171,0.0015854209195822477,0,2,-1000,1,0,0,-1,1,0,1500.0
06:17:57.524,STABILIZE,-35.3632622,149.1652375,0,-0.0008799079805612564,0.0009521511383354664,0.02346700057387352,0.0003032333916053176,0.0002919457037933171,0.0015854209195822477,0,2,-1000,1,0,0,-1,1,0,1500.0
06:17:57.725,STABILIZE,-35.3632622,149.1652375,0,-0.0008799079805612564,0.0009521511383354664,0.02346700057387352,0.0003032333916053176,0.0002919457037933171,0.0015854209195822477,0,2,-1000,1,0,0,-1,1,0,1500.0
06:17:57.926,STABILIZE,-35.3632622,149.1652375,0,-0.0007083054515533149,0.0009631052962504327,0.022972071543335915,0.00017632817616686225,0.00024274364113807678,0.001684769056737423,0,1,-1000,0,0,0,-1,3,3,1500.0
06:17:58.128,STABILIZE,-35.3632622,149.1652375,0,-0.0007083054515533149,0.0009631052962504327,0.022972071543335915,0.00017632817616686225,0.00024274364113807678,0.001684769056737423,0,1,-1000,0,0,0,-1,3,3,1500.0
06:17:58.329,STABILIZE,-35.3632622,149.1652376,0,-0.0007464218651875854,0.0009692803141660988,0.022893888875842094,0.0003014167887158692,0.0002275471342727542,0.0017782405484467745,0,1,-1000,1,0,0,-1,3,3,1500.0
06:17:58.530,STABILIZE,-35.3632622,149.1652376,0,-0.0007464218651875854,0.0009692803141660988,0.022893888875842094,0.0003014167887158692,0.0002275471342727542,0.0017782405484467745,0,1,-1000,1,0,0,-1,3,3,1500.0
06:17:58.732,STABILIZE,-35.3632622,149.1652376,0,-0.0007464218651875854,0.0009692803141660988,0.022893888875842094,0.0003014167887158692,0.0002275471342727542,0.0017782405484467745,0,1,-1000,1,0,0,-1,3,3,1500.0
06:17:58.933,STABILIZE,-35.3632622,149.1652376,0,-0.0009702531388029456,0.0009523958433419466,0.022691776975989342,0.0002097993274219334,0.00021344819106161594,0.001666839118115604,0,1,-1000,0,0,0,-1,2,3,1500.0
06:17:59.134,STABILIZE,-35.3632622,149.1652376,0,-0.0009702531388029456,0.0009523958433419466,0.022691776975989342,0.0002097993274219334,0.00021344819106161594,0.001666839118115604,0,1,-1000,0,0,0,-1,2,3,1500.0
06:17:59.335,STABILIZE,-35.3632622,149.1652376,0,-0.0009702531388029456,0.0009523958433419466,0.022691776975989342,0.0002097993274219334,0.00021344819106161594,0.001666839118115604,0,1,-1000,0,0,0,-1,2,3,1500.0
06:17:59.538,AUTO,-35.3632622,149.1652375,0,-0.001096377964131534,0.0009539882303215563,0.022586502134799957,0.00023857946507632732,0.00021731574088335037,0.001555758062750101,0,1,-1000,0,0,1,-1,2,2,1500.0
06:17:59.740,AUTO,-35.3632622,149.1652375,8,-0.0011362854856997728,0.0009540776372887194,0.02252103015780449,0.00029136461671441793,0.0003347554593347013,0.0017165180761367083,0,1,-1000,0,0,1,-1,1,2,1500.0
06:17:59.943,AUTO,-35.3632622,149.1652375,6,-0.0011711850529536605,0.0009577656746841967,0.022462399676442146,0.000393714290112257,0.00026489642914384604,0.001598438946530223,0,2,-1000,0,0,0,-1,1,2,1500.0
06:18:00.144,AUTO,-35.3632622,149.1652375,6,-0.0011711850529536605,0.0009577656746841967,0.022462399676442146,0.000393714290112257,0.00026489642914384604,0.001598438946530223,0,2,-1000,0,0,0,-1,1,2,1500.0
06:18:00.346,AUTO,-35.3632622,149.1652375,5,-0.0012011852813884616,0.0009676023619249463,0.022428862750530243,0.00024380226386711001,0.00029063213150948286,0.0015276861377060413,0,1,-1000,0,1,0,-1,1,2,1500.0
06:18:00.548,AUTO,-35.3632622,149.1652375,5,-0.0012011852813884616,0.0009676023619249463,0.022428862750530243,0.00024380226386711001,0.00029063213150948286,0.0015276861377060413,0,1,-1000,0,1,0,-1,1,2,1500.0
06:18:00.749,AUTO,-35.3632622,149.1652375,5,-0.0012011852813884616,0.0009676023619249463,0.022428862750530243,0.00024380226386711001,0.00029063213150948286,0.0015276861377060413,0,1,-1000,0,1,0,-1,1,2,1500.0
06:18:00.951,AUTO,-35.3632621,149.1652375,3,-0.0011655808193609118,0.0010852894047275186,0.022267412394285202,0.0003604518133215606,0.0003571547567844391,0.0015614968724548817,0,1,-1000,0,1,0,0,0,1,1500.0
06:18:01.152,AUTO,-35.3632621,149.1652375,3,-0.001134303631260991,0.0011455267667770386,0.022218821570277214,0.00010432873386889696,0.00027627713279798627,0.0015802232082933187,0,1,-1000,0,1,0,0,0,1,26310.0
06:18:01.354,AUTO,-35.3632621,149.1652375,3,-0.001134303631260991,0.0011455267667770386,0.022218821570277214,0.00010432873386889696,0.00027627713279798627,0.0015802232082933187,0,1,-1000,0,1,0,0,0,1,26310.0
06:18:01.555,AUTO,-35.3632621,149.1652375,0,-0.0007684407173655927,0.0012105106143280864,0.022152068093419075,0.00019693479407578707,0.00031552620930597186,0.001415186794474721,0,2,-1000,0,0,0,0,1,4,26310.0
06:18:01.757,AUTO,-35.3632621,149.1652375,0,-0.0007310602231882513,0.0012706122361123562,0.022091813385486603,0.00022377463756129146,0.0002689732355065644,0.001486955676227808,0,1,-1000,1,1,0,0,0,4,26310.0
06:18:01.958,AUTO,-35.3632621,149.1652375,0,-0.0006784461438655853,0.0013374045956879854,0.022031309083104134,0.00029137369710952044,0.0002295293379575014,0.0015544581692665815,0,1,-1000,0,1,1,0,0,3,26310.0
06:18:02.159,AUTO,-35.3632621,149.1652375,0,-0.0006283746333792806,0.001411105040460825,0.02195792831480503,0.00030745629919692874,0.0003554194117896259,0.0015595675213262439,0,1,-1000,0,1,0,0,0,3,26310.0
06:18:02.361,AUTO,-35.3632621,149.1652375,0,-0.0006283746333792806,0.001411105040460825,0.02195792831480503,0.00030745629919692874,0.0003554194117896259,0.0015595675213262439,0,1,-1000,0,1,0,0,0,3,26310.0
06:18:02.562,AUTO,-35.3632621,149.1652375,0,-0.0006283746333792806,0.001411105040460825,0.02195792831480503,0.00030745629919692874,0.0003554194117896259,0.0015595675213262439,0,1,-1000,0,1,0,0,0,3,26310.0
06:18:02.763,AUTO,-35.3632621,149.1652375,0,-0.0006283746333792806,0.001411105040460825,0.02195792831480503,0.00030745629919692874,0.0003554194117896259,0.0015595675213262439,0,1,-1000,0,1,0,0,0,3,26310.0
06:18:02.965,AUTO,-35.3632621,149.1652374,0,-0.0004537873319350183,0.001635345513932407,0.021766100078821182,0.00033566798083484173,0.0002905596047639847,0.0015527266077697277,0,1,-1000,0,1,0,0,0,2,26310.0
06:18:03.166,AUTO,-35.3632621,149.1652374,0,-0.0003908269864041358,0.0017136066453531384,0.021682677790522575,0.0003092091646976769,0.00024848850443959236,0.0014995255041867495,0,1,-1000,1,0,0,0,0,2,26310.0
06:18:03.367,AUTO,-35.3632621,149.1652374,0,-0.0003908269864041358,0.0017136066453531384,0.021682677790522575,0.0003092091646976769,0.00024848850443959236,0.0014995255041867495,0,1,-1000,1,0,0,0,0,2,26310.0
06:18:03.569,AUTO,-35.3632621,149.1652374,0,0.0010920686181634665,0.001479553640820086,0.02165229432284832,0.03345893695950508,-0.010750305838882923,0.002049082424491644,0,0,-1053,33,-10,1,0,0,0,26310.0
06:18:03.770,AUTO,-35.3632621,149.1652374,40,0.0055442089214921,-0.0005267919041216373,0.02174413576722145,-0.013716379180550575,-0.0027391896583139896,0.0013862610794603825,0,-1,-1138,-13,-1,0,0,0,-32,26310.0
06:18:03.972,AUTO,-35.3632621,149.1652375,170,0.00489381980150938,2.57710344158113e-05,0.0216387752443552,0.004617475904524326,0.005007470026612282,0.000811115256510675,0,0,-1129,5,5,0,0,1,-66,26310.0
06:18:04.173,AUTO,-35.3632621,149.1652375,375,0.0029076349455863237,0.0011297541204839945,0.021504173055291176,-0.005286759231239557,0.003488547168672085,0.002646093489602208,0,0,-1108,-4,4,2,0,1,-94,26310.0
06:18:04.375,AUTO,-35.3632621,149.1652375,375,0.0029076349455863237,0.0011297541204839945,0.021504173055291176,-0.005286759231239557,0.003488547168672085,0.002646093489602208,0,0,-1108,-4,4,2,0,1,-94,26310.0
06:18:04.576,AUTO,-35.3632621,149.1652375,375,0.0029076349455863237,0.0011297541204839945,0.021504173055291176,-0.005286759231239557,0.003488547168672085,0.002646093489602208,0,0,-1108,-4,4,2,0,1,-94,26310.0
06:18:04.778,AUTO,-35.3632621,149.1652375,375,0.0029076349455863237,0.0011297541204839945,0.021504173055291176,-0.005286759231239557,0.003488547168672085,0.002646093489602208,0,0,-1108,-4,4,2,0,1,-94,26310.0
06:18:04.980,AUTO,-35.363262,149.1652376,1342,0.019816309213638306,-0.0004085898690391332,0.021293090656399727,0.04648340120911598,-0.0072851721197366714,0.002309176605194807,0,-1,-1020,47,-6,1,0,4,-143,26310.0
06:18:05.181,AUTO,-35.363262,149.1652378,1726,0.03140437602996826,-0.0023792809806764126,0.021463481709361076,0.04516705125570297,-0.008007143624126911,0.003022948279976845,0,-1,-1008,45,-7,2,1,10,-146,200880.0
06:18:05.382,AUTO,-35.363262,149.1652378,1726,0.03140437602996826,-0.0023792809806764126,0.021463481709361076,0.04516705125570297,-0.008007143624126911,0.003022948279976845,0,-1,-1008,45,-7,2,1,10,-146,200880.0
06:18:05.584,AUTO,-35.3632619,149.1652382,2111,0.042342863976955414,-0.004630709998309612,0.02171136625111103,0.04269453138113022,-0.00957009568810463,0.0035677796695381403,0,-2,-1003,43,-8,3,2,18,-147,200880.0
06:18:05.785,AUTO,-35.3632618,149.1652388,2499,0.05249559506773949,-0.007193026132881641,0.02195088192820549,0.0395086333155632,-0.010517926886677742,0.003478280734270811,1,-5,-1000,39,-9,3,5,28,-148,200880.0
06:18:05.987,AUTO,-35.3632616,149.1652398,2886,0.06108195707201958,-0.009647854603827,-0.0058204298838973045,0.009270809590816498,0.0040924097411334515,-0.02569442056119442,2,-8,-994,9,4,-26,7,40,-147,200880.0
06:18:06.189,AUTO,-35.3632614,149.165241,3269,0.04618043079972267,0.008551577106118202,-0.025768596678972244,-0.11534310132265091,0.11009270697832108,-0.10731449723243713,1,-9,-990,-114,110,-107,9,51,-145,200880.0
06:18:06.391,AUTO,-35.3632614,149.165241,3269,0.04618043079972267,0.008551577106118202,-0.025768596678972244,-0.11534310132265091,0.11009270697832108,-0.10731449723243713,1,-9,-990,-114,110,-107,9,51,-145,200880.0
06:18:06.593,AUTO,-35.3632614,149.165241,3269,0.04618043079972267,0.008551577106118202,-0.025768596678972244,-0.11534310132265091,0.11009270697832108,-0.10731449723243713,1,-9,-990,-114,110,-107,9,51,-145,200880.0
06:18:06.795,AUTO,-35.3632614,149.165241,3269,0.04618043079972267,0.008551577106118202,-0.025768596678972244,-0.11534310132265091,0.11009270697832108,-0.10731449723243713,1,-9,-990,-114,110,-107,9,51,-145,200880.0
06:18:06.997,AUTO,-35.3632609,149.165245,4406,-0.03211534768342972,-0.0025072686839848757,-0.05228167399764061,-0.017981749027967453,-0.03876327723264694,-0.011938880197703838,4,-12,-1007,-17,-38,-12,4,37,-149,200880.0
06:18:07.198,AUTO,-35.3632607,149.1652458,4794,-0.03815760836005211,-0.004754550289362669,-0.058856405317783356,-0.03786205127835274,0.0159180648624897,-0.04168996959924698,2,-7,-1001,-37,16,-42,6,26,-150,200880.0
06:18:07.400,AUTO,-35.3632607,149.1652458,4794,-0.03815760836005211,-0.004754550289362669,-0.058856405317783356,-0.03786205127835274,0.0159180648624897,-0.04168996959924698,2,-7,-1001,-37,16,-42,6,26,-150,200880.0
06:18:07.602,AUTO,-35.3632605,149.1652464,5181,-0.05396626144647598,0.002491062507033348,-0.07397596538066864,-0.08021906018257141,0.038206204771995544,-0.06300894170999527,0,-5,-998,-79,38,-63,7,13,-149,200880.0
06:18:07.804,AUTO,-35.3632604,149.1652466,5565,-0.07727155089378357,0.010603008791804314,-0.09223055094480515,-0.09577862918376923,0.032055310904979706,-0.06515350937843323,0,-2,-998,-95,32,-65,4,-3,-148,200880.0
06:18:08.006,AUTO,-35.3632603,149.1652462,5949,-0.07753054052591324,0.012086162343621254,-0.10477326065301895,0.042701415717601776,-0.00038616539677605033,-0.04084219038486481,-1,2,-1005,43,0,-41,0,-23,-149,200880.0
06:18:08.208,AUTO,-35.3632604,149.1652454,6338,-0.0647735521197319,0.011562028899788857,-0.11359230428934097,0.05505486950278282,0.001708292169496417,-0.02874094806611538,-3,4,-1001,55,2,-29,-5,-40,-149,200880.0
06:18:08.415,AUTO,-35.3632604,149.1652454,6338,-0.0647735521197319,0.011562028899788857,-0.11359230428934097,0.05505486950278282,0.001708292169496417,-0.02874094806611538,-3,4,-1001,55,2,-29,-5,-40,-149,200880.0
06:18:08.621,AUTO,-35.3632604,149.1652454,6338,-0.0647735521197319,0.011562028899788857,-0.11359230428934097,0.05505486950278282,0.001708292169496417,-0.02874094806611538,-3,4,-1001,55,2,-29,-5,-40,-149,200880.0
06:18:08.824,AUTO,-35.3632604,149.1652454,6338,-0.0647735521197319,0.011562028899788857,-0.11359230428934097,0.05505486950278282,0.001708292169496417,-0.02874094806611538,-3,4,-1001,55,2,-29,-5,-40,-149,200880.0
06:18:09.027,AUTO,-35.3632611,149.165241,7487,-0.017820313572883606,0.015717003494501114,-0.12602487206459045,0.0685536339879036,0.008266064338386059,-0.008389781229197979,-7,12,-1003,69,9,-8,-20,-62,-150,200880.0
06:18:09.229,AUTO,-35.3632616,149.1652392,7874,-0.00041801357292570174,0.01768559217453003,-0.1270594447851181,0.07040680199861526,0.007489787880331278,-0.004526067059487104,-4,16,-1004,71,8,-4,-24,-61,-151,300000.0
06:18:09.431,AUTO,-35.3632622,149.1652376,8262,0.017193075269460678,0.019075391814112663,-0.12705203890800476,0.0717647597193718,0.004325518384575844,-0.00038567118463106453,-2,15,-1004,72,5,0,-29,-55,-152,300000.0
06:18:09.633,AUTO,-35.3632622,149.1652376,8262,0.017193075269460678,0.019075391814112663,-0.12705203890800476,0.0717647597193718,0.004325518384575844,-0.00038567118463106453,-2,15,-1004,72,5,0,-29,-55,-152,300000.0
06:18:09.836,AUTO,-35.3632629,149.1652361,8654,0.034754958003759384,0.019606592133641243,-0.126156285405159,0.07063919305801392,-0.00012367006274871528,0.0020469743758440018,-1,14,-1004,71,0,1,-32,-45,-153,300000.0
06:18:10.039,AUTO,-35.3632637,149.1652349,9047,0.05196608975529671,0.01873607747256756,-0.1247720867395401,0.06719646602869034,-0.006103485357016325,0.005168576259166002,0,15,-1003,67,-5,4,-35,-32,-154,300000.0
06:18:10.240,AUTO,-35.3632645,149.1652342,9440,0.05589775741100311,0.005373969208449125,-0.11284657567739487,-0.015566189773380756,-0.08749885857105255,0.07529385387897491,4,9,-997,-14,-86,74,-36,-16,-153,300000.0
06:18:10.443,AUTO,-35.3632645,149.1652342,9440,0.05589775741100311,0.005373969208449125,-0.11284657567739487,-0.015566189773380756,-0.08749885857105255,0.07529385387897491,4,9,-997,-14,-86,74,-36,-16,-153,300000.0
06:18:10.644,AUTO,-35.3632645,149.1652342,9440,0.05589775741100311,0.005373969208449125,-0.11284657567739487,-0.015566189773380756,-0.08749885857105255,0.07529385387897491,4,9,-997,-14,-86,74,-36,-16,-153,300000.0
06:18:10.846,AUTO,-35.3632645,149.1652342,9440,0.05589775741100311,0.005373969208449125,-0.11284657567739487,-0.015566189773380756,-0.08749885857105255,0.07529385387897491,4,9,-997,-14,-86,74,-36,-16,-153,300000.0
06:18:11.048,AUTO,-35.3632661,149.1652341,10610,0.04449818655848503,-0.06999851018190384,-0.03696103394031525,0.019824722781777382,-0.05807790160179138,0.09702041000127792,3,0,-1002,20,-57,96,-2,16,-152,300000.0
06:18:11.250,AUTO,-35.363266,149.1652346,11002,0.05011291056871414,-0.08104157447814941,-0.016786731779575348,0.03535659238696098,-0.025348059833049774,0.07342122495174408,1,-3,-999,35,-24,73,18,26,-151,300000.0
06:18:11.452,AUTO,-35.3632654,149.1652353,11386,0.041746675968170166,-0.07981806993484497,-0.008477197028696537,-0.10576647520065308,0.06351722031831741,-0.02248472161591053,-3,-10,-987,-105,64,-23,38,35,-148,300000.0
06:18:11.653,AUTO,-35.3632654,149.1652353,11386,0.041746675968170166,-0.07981806993484497,-0.008477197028696537,-0.10576647520065308,0.06351722031831741,-0.02248472161591053,-3,-10,-987,-105,64,-23,38,35,-148,300000.0
06:18:11.855,AUTO,-35.3632643,149.1652363,11763,0.008548513986170292,-0.0501064695417881,-0.027080226689577103,-0.14003892242908478,0.1424287110567093,-0.10627783089876175,-5,-12,-999,-139,142,-106,53,37,-146,300000.0
06:18:12.057,AUTO,-35.3632631,149.1652372,12138,-0.02003331109881401,-0.01697666011750698,-0.0591287687420845,-0.09403464198112488,0.12382703274488449,-0.13661634922027588,-4,-13,-1009,-93,124,-137,60,31,-148,300000.0
06:18:12.259,AUTO,-35.3632618,149.1652378,12518,-0.03695309907197952,0.008122318424284458,-0.09426601976156235,-0.04397840425372124,0.08557377010583878,-0.1292528510093689,-9,-12,-1012,-43,86,-129,58,19,-150,300000.0
06:18:12.460,AUTO,-35.3632618,149.1652378,12518,-0.03695309907197952,0.008122318424284458,-0.09426601976156235,-0.04397840425372124,0.08557377010583878,-0.1292528510093689,-9,-12,-1012,-43,86,-129,58,19,-150,300000.0
06:18:12.662,AUTO,-35.3632618,149.1652378,12518,-0.03695309907197952,0.008122318424284458,-0.09426601976156235,-0.04397840425372124,0.08557377010583878,-0.1292528510093689,-9,-12,-1012,-43,86,-129,58,19,-150,300000.0
06:18:12.864,AUTO,-35.3632618,149.1652378,12518,-0.03695309907197952,0.008122318424284458,-0.09426601976156235,-0.04397840425372124,0.08557377010583878,-0.1292528510093689,-9,-12,-1012,-43,86,-129,58,19,-150,300000.0
06:18:13.065,AUTO,-35.3632586,149.1652378,13688,-0.03417470306158066,0.039903927594423294,-0.17029732465744019,0.03900255635380745,0.01940883882343769,-0.062361445277929306,-10,-4,-1003,39,19,-62,28,-15,-154,300000.0
06:18:13.267,AUTO,-35.3632581,149.1652374,14082,-0.02413010410964489,0.04374173656105995,-0.18385261297225952,0.04458155483007431,0.015821099281311035,-0.045562442392110825,-7,0,-1001,45,16,-46,15,-21,-154,200.0
06:18:13.469,AUTO,-35.3632578,149.1652368,14475,-0.012699946761131287,0.046695608645677567,-0.19344709813594818,0.049934230744838715,0.010813489556312561,-0.03311438113451004,-5,2,-1000,50,11,-33,2,-23,-154,200.0
06:18:13.670,AUTO,-35.3632579,149.1652361,14868,-0.00021958853176329285,0.04867619648575783,-0.19985158741474152,0.05314698815345764,0.005938548594713211,-0.023638740181922913,-4,3,-1000,53,6,-24,-9,-22,-154,200.0
06:18:13.872,AUTO,-35.3632579,149.1652361,14868,-0.00021958853176329285,0.04867619648575783,-0.19985158741474152,0.05314698815345764,0.005938548594713211,-0.023638740181922913,-4,3,-1000,53,6,-24,-9,-22,-154,200.0
06:18:14.074,AUTO,-35.3632581,149.1652355,15260,0.013120011426508427,0.049245115369558334,-0.20401711761951447,0.0556257888674736,-0.00030853415955789387,-0.01605955883860588,-2,6,-1000,56,0,-16,-20,-17,-154,200.0
06:18:14.276,AUTO,-35.3632585,149.1652351,15652,0.026028208434581757,0.047401051968336105,-0.20549680292606354,0.041491735726594925,-0.01879146322607994,0.004605086054652929,0,7,-999,42,-18,4,-29,-9,-154,200.0
06:18:14.478,AUTO,-35.3632585,149.1652351,15652,0.026028208434581757,0.047401051968336105,-0.20549680292606354,0.041491735726594925,-0.01879146322607994,0.004605086054652929,0,7,-999,42,-18,4,-29,-9,-154,200.0
06:18:14.680,AUTO,-35.3632585,149.1652351,15652,0.026028208434581757,0.047401051968336105,-0.20549680292606354,0.041491735726594925,-0.01879146322607994,0.004605086054652929,0,7,-999,42,-18,4,-29,-9,-154,200.0
06:18:14.882,AUTO,-35.3632585,149.1652351,15652,0.026028208434581757,0.047401051968336105,-0.20549680292606354,0.041491735726594925,-0.01879146322607994,0.004605086054652929,0,7,-999,42,-18,4,-29,-9,-154,200.0
06:18:15.084,AUTO,-35.3632608,149.1652352,16819,0.02606193721294403,-0.011957154609262943,-0.15832506120204926,-0.015726346522569656,-0.1050366684794426,0.10714030265808105,8,4,-1002,-15,-104,106,-35,14,-152,200.0
06:18:15.286,AUTO,-35.3632615,149.1652355,17207,0.01754288375377655,-0.03389384225010872,-0.13618561625480652,-0.04432147368788719,-0.04447908699512482,0.05690491199493408,8,1,-1000,-43,-43,56,-26,18,-153,200.0
06:18:15.487,AUTO,-35.3632619,149.165236,17594,0.0037818148266524076,-0.03327405825257301,-0.13105954229831696,-0.04836007207632065,0.027391837909817696,-0.004945277702063322,5,-1,-1000,-47,28,-4,-15,18,-152,200.0
06:18:15.689,AUTO,-35.3632621,149.1652364,17990,-0.006432365160435438,-0.02394668199121952,-0.13769066333770752,-0.03497016429901123,0.037588659673929214,-0.038813043385744095,4,-1,-1001,-34,38,-39,-6,16,-152,200.0
06:18:15.891,AUTO,-35.3632621,149.1652364,17990,-0.006432365160435438,-0.02394668199121952,-0.13769066333770752,-0.03497016429901123,0.037588659673929214,-0.038813043385744095,4,-1,-1001,-34,38,-39,-6,16,-152,200.0
06:18:16.092,AUTO,-35.3632622,149.1652367,18378,-0.011838561855256557,-0.015473021194338799,-0.14987532794475555,-0.014885744079947472,0.030879024416208267,-0.055344440042972565,2,-1,-1001,-14,31,-55,-1,11,-153,200.0
06:18:16.294,AUTO,-35.3632622,149.1652369,18766,-0.01373762171715498,-0.009059135802090168,-0.16395145654678345,-0.002052447758615017,0.02411743998527527,-0.05710262805223465,0,-2,-1001,-1,24,-57,2,6,-153,200.0
06:18:16.496,AUTO,-35.3632622,149.1652369,18766,-0.01373762171715498,-0.009059135802090168,-0.16395145654678345,-0.002052447758615017,0.02411743998527527,-0.05710262805223465,0,-2,-1001,-1,24,-57,2,6,-153,200.0
06:18:16.697,AUTO,-35.3632622,149.1652369,18766,-0.01373762171715498,-0.009059135802090168,-0.16395145654678345,-0.002052447758615017,0.02411743998527527,-0.05710262805223465,0,-2,-1001,-1,24,-57,2,6,-153,200.0
06:18:16.899,AUTO,-35.3632622,149.1652369,18766,-0.01373762171715498,-0.009059135802090168,-0.16395145654678345,-0.002052447758615017,0.02411743998527527,-0.05710262805223465,0,-2,-1001,-1,24,-57,2,6,-153,200.0
06:18:17.101,AUTO,-35.3632619,149.1652368,19928,-0.005643322132527828,0.003172792261466384,-0.2036890834569931,0.019480520859360695,0.013133046217262745,-0.04645295813679695,-1,0,-1000,20,13,-46,3,-4,-154,200.0
06:18:17.303,AUTO,-35.3632618,149.1652367,20318,-0.0012403368018567562,0.00557979429140687,-0.21394751965999603,0.017920808866620064,0.007757126819342375,-0.03708770126104355,-2,0,-1000,18,8,-37,1,-5,-154,200.0
06:18:17.504,AUTO,-35.3632618,149.1652365,20709,0.002822173060849309,0.007311049848794937,-0.22260445356369019,0.01567753031849861,0.006441701669245958,-0.028949594125151634,-1,0,-1000,16,7,-29,0,-5,-154,200.0
06:18:17.706,AUTO,-35.3632617,149.1652363,21100,0.00603043008595705,0.008367065340280533,-0.2297373116016388,0.011766646057367325,0.001966104144230485,-0.026294885203242302,-1,1,-1000,12,2,-26,0,-4,-154,200.0
06:18:17.907,AUTO,-35.3632617,149.1652362,21490,0.008017875254154205,0.008661100640892982,-0.23551642894744873,0.0079689035192132,-8.62680608406663e-05,-0.022191442549228668,-1,0,-1000,8,0,-22,-2,-2,-154,200.0
06:18:18.109,AUTO,-35.3632617,149.1652362,21490,0.008017875254154205,0.008661100640892982,-0.23551642894744873,0.0079689035192132,-8.62680608406663e-05,-0.022191442549228668,-1,0,-1000,8,0,-22,-2,-2,-154,200.0
06:18:18.311,AUTO,-35.3632618,149.1652361,21881,0.009052158333361149,0.00819478090852499,-0.24002300202846527,0.0017135657835751772,-0.0022201738320291042,-0.01733115315437317,0,0,-999,2,-1,-17,-3,0,-154,200.0
06:18:18.513,AUTO,-35.3632618,149.1652361,21881,0.009052158333361149,0.00819478090852499,-0.24002300202846527,0.0017135657835751772,-0.0022201738320291042,-0.01733115315437317,0,0,-999,2,-1,-17,-3,0,-154,200.0
06:18:18.725,AUTO,-35.3632618,149.1652361,21881,0.009052158333361149,0.00819478090852499,-0.24002300202846527,0.0017135657835751772,-0.0022201738320291042,-0.01733115315437317,0,0,-999,2,-1,-17,-3,0,-154,200.0
06:18:18.927,AUTO,-35.3632618,149.165236,23057,0.007358579896390438,0.005698674824088812,-0.2510685622692108,-0.004558701999485493,-0.0024415699299424887,-0.015223637223243713,0,0,-1000,-3,-1,-15,-5,4,-153,200.0
06:18:19.128,AUTO,-35.3632618,149.165236,23057,0.007358579896390438,0.005698674824088812,-0.2510685622692108,-0.004558701999485493,-0.0024415699299424887,-0.015223637223243713,0,0,-1000,-3,-1,-15,-5,4,-153,200.0
06:18:19.329,AUTO,-35.3632619,149.165236,23446,0.005966090597212315,0.004900116939097643,-0.2547985017299652,-0.0031120325438678265,-0.002341442508623004,-0.01510716788470745,0,0,-1000,-2,-1,-15,-5,5,-153,200.0
06:18:19.531,AUTO,-35.3632619,149.1652361,23835,0.004657699726521969,0.004184712190181017,-0.25879961252212524,-0.006007530260831118,-0.002729411469772458,-0.015017946250736713,1,0,-1000,-5,-1,-15,-4,6,-153,200.0
06:18:19.733,AUTO,-35.363262,149.1652362,24224,0.003568419022485614,0.0034467296209186316,-0.2630353271961212,-0.0023095409851521254,-0.003263920545578003,-0.016857950016856194,1,0,-1000,-1,-2,-17,-4,6,-153,200.0
06:18:19.935,AUTO,-35.363262,149.1652363,24614,0.002772072097286582,0.0026533829513937235,-0.26747187972068787,-0.000916547141969204,-0.0020643153693526983,-0.02035784348845482,1,0,-1000,0,-1,-20,-4,6,-154,200.0
06:18:20.137,AUTO,-35.363262,149.1652363,24614,0.002772072097286582,0.0026533829513937235,-0.26747187972068787,-0.000916547141969204,-0.0020643153693526983,-0.02035784348845482,1,0,-1000,0,-1,-20,-4,6,-154,200.0
06:18:20.340,AUTO,-35.3632621,149.1652364,25004,0.0023392431903630495,0.0018304188270121813,-0.2718769311904907,-0.0018194032600149512,-0.0011405799305066466,-0.018736453726887703,1,0,-1000,-1,0,-18,-4,6,-154,200.0
06:18:20.542,AUTO,-35.3632621,149.1652364,25004,0.0023392431903630495,0.0018304188270121813,-0.2718769311904907,-0.0018194032600149512,-0.0011405799305066466,-0.018736453726887703,1,0,-1000,-1,0,-18,-4,6,-154,200.0
06:18:20.744,AUTO,-35.3632621,149.1652364,25004,0.0023392431903630495,0.0018304188270121813,-0.2718769311904907,-0.0018194032600149512,-0.0011405799305066466,-0.018736453726887703,1,0,-1000,-1,0,-18,-4,6,-154,200.0
06:18:20.945,AUTO,-35.3632623,149.1652365,26167,-0.003159660380333662,0.0023510584142059088,-0.2826809585094452,0.04028347134590149,0.00790057610720396,0.00014537318202201277,0,1,-1000,41,8,0,-4,-1,-154,200.0
06:18:21.147,AUTO,-35.3632623,149.1652365,26167,-0.003159660380333662,0.0023510584142059088,-0.2826809585094452,0.04028347134590149,0.00790057610720396,0.00014537318202201277,0,1,-1000,41,8,0,-4,-1,-154,200.0
06:18:21.348,AUTO,-35.3632623,149.1652364,26557,0.005116410553455353,0.0032876525074243546,-0.28079816699028015,0.026939017698168755,0.002790546976029873,0.011850062757730484,0,0,-1000,27,3,11,-4,-1,-154,118454.0
06:18:21.550,AUTO,-35.3632624,149.1652364,26946,0.010149158537387848,0.0034314985387027264,-0.2766784429550171,0.01673227548599243,0.00012293102918192744,0.01979401893913746,0,1,-1000,17,1,19,-4,0,-154,118454.0
06:18:21.751,AUTO,-35.3632625,149.1652364,27339,0.012244021520018578,0.003007119055837393,-0.271198570728302,0.001595481764525175,-0.002375285606831312,0.023746659979224205,0,0,-998,2,-1,23,-4,2,-153,118454.0
06:18:21.953,AUTO,-35.3632625,149.1652364,27727,0.012249908410012722,0.0023577064275741577,-0.26505324244499207,-0.0008093630312941968,-0.0011818557977676392,0.025212328881025314,0,0,-999,0,0,24,-3,5,-153,118454.0
06:18:22.155,AUTO,-35.3632625,149.1652364,27727,0.012249908410012722,0.0023577064275741577,-0.26505324244499207,-0.0008093630312941968,-0.0011818557977676392,0.025212328881025314,0,0,-999,0,0,24,-3,5,-153,118454.0
06:18:22.357,AUTO,-35.3632626,149.1652365,28115,0.010952861048281193,0.0017190709477290511,-0.25873270630836487,-0.005372446961700916,-0.0008260132744908333,0.026783103123307228,0,0,-1000,-4,0,26,-2,7,-153,118454.0
06:18:22.558,AUTO,-35.3632626,149.1652365,28115,0.010952861048281193,0.0017190709477290511,-0.25873270630836487,-0.005372446961700916,-0.0008260132744908333,0.026783103123307228,0,0,-1000,-4,0,26,-2,7,-153,118454.0
06:18:22.760,AUTO,-35.3632626,149.1652365,28115,0.010952861048281193,0.0017190709477290511,-0.25873270630836487,-0.005372446961700916,-0.0008260132744908333,0.026783103123307228,0,0,-1000,-4,0,26,-2,7,-153,118454.0
06:18:22.961,AUTO,-35.3632626,149.1652371,29273,0.004522128961980343,0.00150358269456774,-0.241202250123024,-0.00878129992634058,0.0003718326333910227,0.023882867768406868,0,-1,-1000,-7,1,23,0,9,-153,118454.0
06:18:23.163,AUTO,-35.3632626,149.1652371,29273,0.004522128961980343,0.00150358269456774,-0.241202250123024,-0.00878129992634058,0.0003718326333910227,0.023882867768406868,0,-1,-1000,-7,1,23,0,9,-153,118454.0
06:18:23.364,AUTO,-35.3632626,149.1652373,29662,0.002512254985049367,0.0012590241385623813,-0.2357773333787918,-0.0053749047219753265,0.00115872616879642,0.022581174969673157,1,-1,-1001,-4,2,22,0,9,-153,118454.0
06:18:23.566,AUTO,-35.3632626,149.1652375,30050,0.0009024164755828679,0.001212150091305375,-0.23051851987838745,-0.004841294605284929,-0.0003699390799738467,0.021507782861590385,0,-1,-1001,-4,0,21,0,9,-153,118454.0
06:18:23.767,AUTO,-35.3632626,149.1652377,30437,-0.0002105970197590068,0.0013131090672686696,-0.22550682723522186,-0.0036297168117016554,0.0022210506722331047,0.019744040444493294,0,-1,-1000,-3,3,19,0,8,-153,118454.0
06:18:23.969,AUTO,-35.3632626,149.1652378,30825,-0.0008666453650221229,0.0014441447565332055,-0.2208356410264969,-0.002428924897685647,0.0017505181021988392,0.01849105954170227,0,-1,-1000,-1,2,18,0,7,-153,118454.0
06:18:24.171,AUTO,-35.3632626,149.165238,31213,-0.0012441577855497599,0.0015150504186749458,-0.21622826159000397,0.0010854033753275871,0.0008651611860841513,0.02029193751513958,0,-1,-1000,2,1,20,0,5,-153,118454.0
06:18:24.372,AUTO,-35.3632626,149.165238,31213,-0.0012441577855497599,0.0015150504186749458,-0.21622826159000397,0.0010854033753275871,0.0008651611860841513,0.02029193751513958,0,-1,-1000,2,1,20,0,5,-153,118454.0
06:18:24.574,AUTO,-35.3632626,149.165238,31213,-0.0012441577855497599,0.0015150504186749458,-0.21622826159000397,0.0010854033753275871,0.0008651611860841513,0.02029193751513958,0,-1,-1000,2,1,20,0,5,-153,118454.0
06:18:24.776,AUTO,-35.3632626,149.165238,31213,-0.0012441577855497599,0.0015150504186749458,-0.21622826159000397,0.0010854033753275871,0.0008651611860841513,0.02029193751513958,0,-1,-1000,2,1,20,0,5,-153,118454.0
06:18:24.978,AUTO,-35.3632625,149.1652382,32377,-0.0009073534165509045,0.0014106080634519458,-0.20260992646217346,0.00030953407986089587,0.003861488774418831,0.01591777428984642,0,0,-999,1,4,15,0,2,-153,118454.0
06:18:25.181,AUTO,-35.3632624,149.1652382,32766,-0.0005014454945921898,0.00185556267388165,-0.19896122813224792,0.0021361815743148327,0.0015468092169612646,0.01382219884544611,0,0,-1000,3,2,13,0,2,-153,118454.0
06:18:25.382,AUTO,-35.3632624,149.1652382,32766,-0.0005014454945921898,0.00185556267388165,-0.19896122813224792,0.0021361815743148327,0.0015468092169612646,0.01382219884544611,0,0,-1000,3,2,13,0,2,-153,162384.0
06:18:25.584,AUTO,-35.3632624,149.1652382,33154,2.6588584660203196e-05,0.002124164719134569,-0.19536221027374268,0.0015343395061790943,0.0007387134246528149,0.01492314226925373,0,0,-1000,2,1,14,0,1,-153,162384.0
06:18:25.785,AUTO,-35.3632624,149.1652381,33542,0.0005880473181605339,0.002046390203759074,-0.19181527197360992,0.004092507530003786,0.00019617623183876276,0.013365434482693672,0,0,-1000,4,1,13,0,0,-153,162384.0
06:18:25.987,AUTO,-35.3632623,149.1652381,33930,0.0009743996197357774,0.002095421776175499,-0.18815255165100098,-0.000163871212862432,0.0012313192710280418,0.01462770625948906,0,0,-999,1,2,14,0,0,-153,162384.0
06:18:26.189,AUTO,-35.3632623,149.1652381,34318,0.001353566418401897,0.0016689901240170002,-0.18483906984329224,0.005757099017500877,0.00023627880727872252,0.014527169056236744,0,0,-1000,6,1,14,0,0,-153,162384.0
06:18:26.390,AUTO,-35.3632623,149.1652381,34318,0.001353566418401897,0.0016689901240170002,-0.18483906984329224,0.005757099017500877,0.00023627880727872252,0.014527169056236744,0,0,-1000,6,1,14,0,0,-153,162384.0
06:18:26.592,AUTO,-35.3632623,149.1652381,34318,0.001353566418401897,0.0016689901240170002,-0.18483906984329224,0.005757099017500877,0.00023627880727872252,0.014527169056236744,0,0,-1000,6,1,14,0,0,-153,162384.0
06:18:26.793,AUTO,-35.3632623,149.1652381,34318,0.001353566418401897,0.0016689901240170002,-0.18483906984329224,0.005757099017500877,0.00023627880727872252,0.014527169056236744,0,0,-1000,6,1,14,0,0,-153,162384.0
06:18:26.995,AUTO,-35.3632623,149.1652381,35482,0.001579686882905662,0.0009753658669069409,-0.17521727085113525,0.002647054847329855,-0.0012267916463315487,0.012614447623491287,0,0,-1001,3,0,12,0,0,-153,162384.0
06:18:27.196,AUTO,-35.3632623,149.165238,35871,0.0015109936939552426,0.0007656923262402415,-0.17221149802207947,0.00021564110647886992,-0.0008396768243983388,0.013418287970125675,0,0,-1000,1,0,13,0,0,-153,162384.0
06:18:27.398,AUTO,-35.3632623,149.165238,35871,0.0015109936939552426,0.0007656923262402415,-0.17221149802207947,0.00021564110647886992,-0.0008396768243983388,0.013418287970125675,0,0,-1000,1,0,13,0,0,-153,162384.0
06:18:27.599,AUTO,-35.3632623,149.165238,36263,0.0014839166542515159,0.0006043085595592856,-0.16911347210407257,0.0014807344414293766,0.0005053453496657312,0.013005667366087437,0,0,-1000,2,1,12,0,0,-153,162384.0
06:18:27.801,AUTO,-35.3632623,149.1652379,36651,0.0016395840793848038,0.0006829376216046512,-0.16611583530902863,0.00030455749947577715,-4.2141356971114874e-05,0.01105921808630228,0,0,-1000,1,0,10,0,0,-153,162384.0
06:18:28.002,AUTO,-35.3632623,149.1652379,37038,0.001702678157016635,0.0008605121402069926,-0.1638343632221222,0.0032630881760269403,0.0006759928073734045,0.011393342167139053,0,0,-1000,4,1,11,0,0,-153,162384.0
06:18:28.204,AUTO,-35.3632622,149.1652379,37427,0.0018100494053214788,0.0010806974023580551,-0.16139866411685944,-0.001853463938459754,0.000971360073890537,0.009070213884115219,0,0,-1000,0,2,8,0,0,-153,162384.0
06:18:28.406,AUTO,-35.3632622,149.1652379,37427,0.0018100494053214788,0.0010806974023580551,-0.16139866411685944,-0.001853463938459754,0.000971360073890537,0.009070213884115219,0,0,-1000,0,2,8,0,0,-153,162384.0
06:18:28.608,AUTO,-35.3632622,149.1652379,37427,0.0018100494053214788,0.0010806974023580551,-0.16139866411685944,-0.001853463938459754,0.000971360073890537,0.009070213884115219,0,0,-1000,0,2,8,0,0,-153,162384.0
06:18:28.810,AUTO,-35.3632622,149.1652379,37427,0.0018100494053214788,0.0010806974023580551,-0.16139866411685944,-0.001853463938459754,0.000971360073890537,0.009070213884115219,0,0,-1000,0,2,8,0,0,-153,162384.0
06:18:29.011,AUTO,-35.3632622,149.1652377,38587,0.0023562258575111628,0.0011185782495886087,-0.15430966019630432,-0.0012403548462316394,0.0029144843574613333,0.010281767696142197,0,0,-999,0,3,10,0,0,-153,162384.0
06:18:29.213,AUTO,-35.3632622,149.1652377,38975,0.0027087009511888027,0.001430019154213369,-0.15205176174640656,0.0034478351008147,0.0007894707378000021,0.008555141277611256,0,0,-1001,4,1,8,0,0,-153,107530.0
06:18:29.414,AUTO,-35.3632622,149.1652376,39363,0.002817387692630291,0.0014767198590561748,-0.14981089532375336,0.0008019633824005723,-0.0003419673885218799,0.009790681302547455,0,0,-1000,1,0,9,0,0,-153,107530.0
06:18:29.615,AUTO,-35.3632622,149.1652376,39363,0.002817387692630291,0.0014767198590561748,-0.14981089532375336,0.0008019633824005723,-0.0003419673885218799,0.009790681302547455,0,0,-1000,1,0,9,0,0,-153,107530.0
06:18:29.817,AUTO,-35.3632622,149.1652376,39751,0.0027728250715881586,0.0013690630439668894,-0.14766715466976166,-0.0015233750455081463,-0.0018572149565443397,0.008424636907875538,0,0,-1000,0,0,8,0,0,-153,107530.0
06:18:30.018,AUTO,-35.3632622,149.1652376,40139,0.002731452928856015,0.0012176529271528125,-0.14565841853618622,5.144788883626461e-05,-0.0007934317691251636,0.008903233334422112,0,0,-1000,1,0,8,0,0,-153,107530.0
06:18:30.221,AUTO,-35.3632622,149.1652376,40527,0.0022953797597438097,0.0011568814516067505,-0.1435941904783249,-0.0009575356962159276,0.0004350392846390605,0.010656890459358692,0,0,-1000,0,1,10,0,0,-153,107530.0
06:18:30.427,AUTO,-35.3632622,149.1652376,40527,0.0022953797597438097,0.0011568814516067505,-0.1435941904783249,-0.0009575356962159276,0.0004350392846390605,0.010656890459358692,0,0,-1000,0,1,10,0,0,-153,107530.0
06:18:30.628,AUTO,-35.3632622,149.1652376,40527,0.0022953797597438097,0.0011568814516067505,-0.1435941904783249,-0.0009575356962159276,0.0004350392846390605,0.010656890459358692,0,0,-1000,0,1,10,0,0,-153,107530.0
06:18:30.830,AUTO,-35.3632622,149.1652376,40527,0.0022953797597438097,0.0011568814516067505,-0.1435941904783249,-0.0009575356962159276,0.0004350392846390605,0.010656890459358692,0,0,-1000,0,1,10,0,0,-153,107530.0
06:18:31.032,AUTO,-35.3632621,149.1652375,41691,0.002250554971396923,0.0015182731440290809,-0.13818098604679108,-0.0010855188593268394,-0.0010753683745861053,0.007622499484568834,0,0,-1000,0,0,7,0,0,-153,107530.0
06:18:31.233,AUTO,-35.3632621,149.1652375,42079,0.002261473098769784,0.0014543113065883517,-0.13640080392360687,0.0018521662568673491,0.00024288694839924574,0.00844098161906004,0,0,-1000,2,1,8,0,1,-153,107530.0
06:18:31.434,AUTO,-35.3632621,149.1652375,42468,0.0019409713568165898,0.0013505907263606787,-0.13487966358661652,-0.0013068349799141288,-0.0008843243704177439,0.007427227683365345,0,0,-1000,0,0,7,0,1,-153,107530.0
06:18:31.636,AUTO,-35.3632621,149.1652375,42468,0.0019409713568165898,0.0013505907263606787,-0.13487966358661652,-0.0013068349799141288,-0.0008843243704177439,0.007427227683365345,0,0,-1000,0,0,7,0,1,-153,107530.0
06:18:31.839,AUTO,-35.3632621,149.1652375,42855,0.0018031373620033264,0.0012579802423715591,-0.13326168060302734,-0.0006139520555734634,-0.001385224866680801,0.005407118238508701,0,0,-1000,0,0,5,0,1,-153,107530.0
06:18:32.041,AUTO,-35.3632621,149.1652375,43243,0.002179268980398774,0.001323913922533393,-0.13163883984088898,3.874488174915314e-05,0.00047804624773561954,0.0073337191715836525,0,0,-1000,0,1,7,0,1,-153,107530.0
06:18:32.242,AUTO,-35.3632621,149.1652375,43631,0.002245849696919322,0.0013595835771411657,-0.1302146017551422,0.003062150441110134,-6.111804395914078e-08,0.008310075849294662,0,0,-1000,4,1,8,0,1,-153,107530.0
06:18:32.444,AUTO,-35.3632621,149.1652375,43631,0.002245849696919322,0.0013595835771411657,-0.1302146017551422,0.003062150441110134,-6.111804395914078e-08,0.008310075849294662,0,0,-1000,4,1,8,0,1,-153,107530.0
06:18:32.646,AUTO,-35.3632621,149.1652375,43631,0.002245849696919322,0.0013595835771411657,-0.1302146017551422,0.003062150441110134,-6.111804395914078e-08,0.008310075849294662,0,0,-1000,4,1,8,0,1,-153,107530.0
06:18:32.848,AUTO,-35.3632621,149.1652375,43631,0.002245849696919322,0.0013595835771411657,-0.1302146017551422,0.003062150441110134,-6.111804395914078e-08,0.008310075849294662,0,0,-1000,4,1,8,0,1,-153,107530.0
06:18:33.049,AUTO,-35.3632621,149.1652374,44795,0.002039344748482108,0.0009370060870423913,-0.12554121017456055,-0.00031265628058463335,0.0002336145844310522,0.007003971841186285,0,0,-1000,0,1,7,0,1,-153,107530.0
06:18:33.251,AUTO,-35.3632621,149.1652374,45183,0.0020881760865449905,0.001112635130994022,-0.12399017810821533,0.0005057285306975245,0.0030662387143820524,0.005003859288990498,0,0,-1000,1,4,5,0,1,-153,65813.0
06:18:33.452,AUTO,-35.3632621,149.1652374,45575,0.0018970152596011758,0.001391386496834457,-0.12257897108793259,0.001060941955074668,-0.00045861455146223307,0.005559878423810005,0,0,-1001,2,0,5,0,1,-153,65813.0
06:18:33.654,AUTO,-35.3632621,149.1652374,45575,0.0018970152596011758,0.001391386496834457,-0.12257897108793259,0.001060941955074668,-0.00045861455146223307,0.005559878423810005,0,0,-1001,2,0,5,0,1,-153,65813.0
06:18:33.856,AUTO,-35.3632621,149.1652374,45962,0.00191376858856529,0.0014556447276845574,-0.12094196677207947,0.0023347591049969196,0.0014565279707312584,0.006823919713497162,0,0,-1000,3,2,7,0,1,-153,65813.0
06:18:34.057,AUTO,-35.3632621,149.1652374,46350,-0.00033285500830970705,0.0032136139925569296,-0.11558352410793304,-0.04656034708023071,0.038313355296850204,0.09028368443250656,0,-1,-977,-45,39,90,-1,1,-151,65813.0
06:18:34.259,AUTO,-35.3632621,149.1652374,46723,-0.027650531381368637,0.0322076715528965,-0.051276758313179016,-0.15325908362865448,0.15471495687961578,0.4027107357978821,0,0,-963,-152,155,402,-4,-2,-142,65813.0
06:18:34.461,AUTO,-35.3632621,149.1652374,46723,-0.027650531381368637,0.0322076715528965,-0.051276758313179016,-0.15325908362865448,0.15471495687961578,0.4027107357978821,0,0,-963,-152,155,402,-4,-2,-142,65813.0
06:18:34.663,AUTO,-35.3632621,149.1652374,46723,-0.027650531381368637,0.0322076715528965,-0.051276758313179016,-0.15325908362865448,0.15471495687961578,0.4027107357978821,0,0,-963,-152,155,402,-4,-2,-142,65813.0
06:18:34.864,AUTO,-35.3632621,149.1652374,46723,-0.027650531381368637,0.0322076715528965,-0.051276758313179016,-0.15325908362865448,0.15471495687961578,0.4027107357978821,0,0,-963,-152,155,402,-4,-2,-142,65813.0
06:18:35.066,AUTO,-35.3632634,149.1652356,47655,-0.026245886459946632,0.0033962170127779245,0.24461916089057922,0.12256046384572983,-0.19580058753490448,0.1487836092710495,4,10,-935,123,-194,149,-33,-37,-97,65813.0
06:18:35.267,AUTO,-35.363264,149.1652346,47885,0.00040215166518464684,-0.03366461768746376,0.26787808537483215,0.08698960393667221,-0.10994859039783478,0.059064239263534546,3,9,-944,88,-108,59,-28,-36,-83,65813.0
06:18:35.469,AUTO,-35.3632645,149.1652336,48079,0.02108793705701828,-0.05130154266953468,0.27370360493659973,0.08452741801738739,-0.04222859442234039,0.00884789414703846,1,11,-953,85,-41,9,-18,-28,-70,65813.0
06:18:35.671,AUTO,-35.3632648,149.1652329,48243,0.034104909747838974,-0.055841412395238876,0.2706314027309418,0.03066357783973217,-8.578522829338908e-05,-0.01777365617454052,0,4,-961,31,0,-17,-8,-17,-59,65813.0
06:18:35.873,AUTO,-35.3632648,149.1652329,48243,0.034104909747838974,-0.055841412395238876,0.2706314027309418,0.03066357783973217,-8.578522829338908e-05,-0.01777365617454052,0,4,-961,31,0,-17,-8,-17,-59,65813.0
06:18:36.074,AUTO,-35.3632649,149.1652326,48381,0.03900729864835739,-0.05180860310792923,0.2636563777923584,-0.027528446167707443,0.025860587134957314,-0.03134121000766754,0,2,-969,-26,27,-31,1,-5,-50,65813.0
06:18:36.277,AUTO,-35.3632648,149.1652325,48498,0.04326065257191658,-0.04283391684293747,0.25479474663734436,0.17869731783866882,0.03664456307888031,-0.035832252353429794,-2,5,-974,179,37,-35,9,6,-43,65813.0
06:18:36.478,AUTO,-35.3632648,149.1652325,48498,0.04326065257191658,-0.04283391684293747,0.25479474663734436,0.17869731783866882,0.03664456307888031,-0.035832252353429794,-2,5,-974,179,37,-35,9,6,-43,65813.0
06:18:36.680,AUTO,-35.3632648,149.1652325,48498,0.04326065257191658,-0.04283391684293747,0.25479474663734436,0.17869731783866882,0.03664456307888031,-0.035832252353429794,-2,5,-974,179,37,-35,9,6,-43,65813.0
06:18:36.882,AUTO,-35.3632648,149.1652325,48498,0.04326065257191658,-0.04283391684293747,0.25479474663734436,0.17869731783866882,0.03664456307888031,-0.035832252353429794,-2,5,-974,179,37,-35,9,6,-43,65813.0
06:18:37.084,AUTO,-35.3632637,149.1652337,48739,0.02412542887032032,-0.010361742228269577,0.22731901705265045,0.25866881012916565,0.038544911891222,-0.027637697756290436,-3,24,-977,260,39,-27,21,29,-23,65813.0
06:18:37.286,AUTO,-35.3632632,149.1652345,48791,0.02714366465806961,-0.0010732533410191536,0.2185956835746765,0.646338164806366,0.03291722387075424,-0.029312826693058014,-2,15,-990,647,34,-28,21,30,-19,300000.0
06:18:37.487,AUTO,-35.3632627,149.1652352,48828,0.017949426546692848,0.0066682142205536366,0.21065863966941833,0.1564912348985672,0.0246249008923769,-0.0320831798017025,-2,-17,-986,156,25,-31,20,31,-13,300000.0
06:18:37.689,AUTO,-35.3632622,149.165236,48855,0.002234856830909848,0.011450625956058502,0.20356369018554688,-0.6593464016914368,0.015263420529663563,-0.0203927680850029,-1,-43,-972,-658,16,-19,18,29,-10,300000.0
06:18:37.890,AUTO,-35.3632622,149.165236,48855,0.002234856830909848,0.011450625956058502,0.20356369018554688,-0.6593464016914368,0.015263420529663563,-0.0203927680850029,-1,-43,-972,-658,16,-19,18,29,-10,300000.0
06:18:38.092,AUTO,-35.3632618,149.1652367,48864,-0.0074019655585289,0.01480050291866064,0.1970462203025818,-0.4648018479347229,0.012465777806937695,-0.023353371769189835,0,-8,-983,-462,13,-22,15,28,-1,300000.0
06:18:38.294,AUTO,-35.3632614,149.1652374,48849,-0.021806513890624046,0.042850203812122345,0.19009889662265778,0.3870578110218048,0.09478066116571426,-0.03652798384428024,0,44,-919,389,96,-36,9,23,11,300000.0
06:18:38.496,AUTO,-35.3632614,149.1652374,48849,-0.021806513890624046,0.042850203812122345,0.19009889662265778,0.3870578110218048,0.09478066116571426,-0.03652798384428024,0,44,-919,389,96,-36,9,23,11,300000.0
06:18:38.697,AUTO,-35.3632614,149.1652374,48849,-0.021806513890624046,0.042850203812122345,0.19009889662265778,0.3870578110218048,0.09478066116571426,-0.03652798384428024,0,44,-919,389,96,-36,9,23,11,300000.0
06:18:38.899,AUTO,-35.3632614,149.1652374,48849,-0.021806513890624046,0.042850203812122345,0.19009889662265778,0.3870578110218048,0.09478066116571426,-0.03652798384428024,0,44,-919,389,96,-36,9,23,11,300000.0
06:18:39.101,AUTO,-35.3632613,149.165238,48706,0.022288961336016655,-0.0227512214332819,0.17479126155376434,0.5927356481552124,-0.08972939103841782,-0.011023891158401966,0,0,-1005,593,-88,-10,0,8,14,300000.0
06:18:39.302,AUTO,-35.3632611,149.1652381,48667,0.026996273547410965,-0.041057683527469635,0.16991585493087769,-0.08479613810777664,-0.07137889415025711,-0.014681498520076275,-1,-32,-1011,-84,-70,-14,7,11,12,300000.0
06:18:39.504,AUTO,-35.3632608,149.1652383,48633,0.027635471895337105,-0.05600547790527344,0.16465091705322266,-0.7859587073326111,-0.05489623546600342,-0.017618250101804733,-3,-42,-994,-785,-53,-17,17,18,11,300000.0
06:18:39.706,AUTO,-35.3632603,149.1652387,48595,0.03369208052754402,-0.06883898377418518,0.15892623364925385,-0.6097174882888794,-0.042295075953006744,-0.021023934707045555,-4,-17,-998,-607,-41,-20,30,27,13,300000.0
06:18:39.907,AUTO,-35.3632603,149.1652387,48595,0.03369208052754402,-0.06883898377418518,0.15892623364925385,-0.6097174882888794,-0.042295075953006744,-0.021023934707045555,-4,-17,-998,-607,-41,-20,30,27,13,300000.0
06:18:40.109,AUTO,-35.3632594,149.1652393,48555,0.053054261952638626,-0.08070854097604752,0.175202414393425,0.35729530453681946,-0.02702474780380726,0.23254013061523438,-8,21,-985,359,-25,232,45,38,14,300000.0
06:18:40.311,AUTO,-35.3632582,149.1652402,48507,0.056862618774175644,-0.09872173517942429,0.3092605173587799,0.8802602887153625,-0.010867325589060783,0.7437410950660706,-13,28,-986,882,-9,744,61,50,19,300000.0
06:18:40.513,AUTO,-35.3632582,149.1652402,48507,0.056862618774175644,-0.09872173517942429,0.3092605173587799,0.8802602887153625,-0.010867325589060783,0.7437410950660706,-13,28,-986,882,-9,744,61,50,19,300000.0
06:18:40.715,AUTO,-35.3632582,149.1652402,48507,0.056862618774175644,-0.09872173517942429,0.3092605173587799,0.8802602887153625,-0.010867325589060783,0.7437410950660706,-13,28,-986,882,-9,744,61,50,19,300000.0
06:18:40.917,AUTO,-35.3632582,149.1652402,48507,0.056862618774175644,-0.09872173517942429,0.3092605173587799,0.8802602887153625,-0.010867325589060783,0.7437410950660706,-13,28,-986,882,-9,744,61,50,19,300000.0
06:18:41.119,AUTO,-35.3632522,149.1652448,48282,-0.010778198018670082,-0.1479894071817398,0.8444228768348694,-0.8289732336997986,-0.038052093237638474,0.32041504979133606,-32,-40,-986,-827,-36,321,119,90,36,300000.0
06:18:41.320,AUTO,-35.3632493,149.165247,48173,-0.010259827598929405,-0.16055375337600708,0.874852180480957,-0.45592525601387024,-0.057582542300224304,0.019325878471136093,-39,-20,-982,-453,-56,20,139,107,43,135930.0
06:18:41.522,AUTO,-35.363246,149.1652497,48044,-0.00013915743329562247,-0.17754948139190674,0.8606201410293579,0.17611785233020782,-0.07192298769950867,-0.1002613827586174,-43,19,-961,179,-70,-99,159,125,52,135930.0
06:18:41.724,AUTO,-35.3632421,149.1652528,47896,0.018365003168582916,-0.18694359064102173,0.8331779837608337,0.7685611248016357,0.0029993606731295586,-0.11845634132623672,-50,29,-973,770,4,-117,183,143,57,135930.0
06:18:41.925,AUTO,-35.3632377,149.1652564,47732,0.032548461109399796,-0.1846691370010376,0.8069029450416565,0.9327008128166199,0.012322231195867062,-0.08805113285779953,-61,2,-988,934,13,-87,206,160,65,135930.0
06:18:42.127,AUTO,-35.3632377,149.1652564,47732,0.032548461109399796,-0.1846691370010376,0.8069029450416565,0.9327008128166199,0.012322231195867062,-0.08805113285779953,-61,2,-988,934,13,-87,206,160,65,135930.0
06:18:42.329,AUTO,-35.3632328,149.1652605,47551,0.04113369435071945,-0.17666593194007874,0.7877805233001709,0.2901354432106018,0.039150457829236984,-0.038348063826560974,-66,-32,-986,290,40,-37,226,176,70,135930.0
06:18:42.533,AUTO,-35.3632328,149.1652605,47551,0.04113369435071945,-0.17666593194007874,0.7877805233001709,0.2901354432106018,0.039150457829236984,-0.038348063826560974,-66,-32,-986,290,40,-37,226,176,70,135930.0
06:18:42.735,AUTO,-35.3632328,149.1652605,47551,0.04113369435071945,-0.17666593194007874,0.7877805233001709,0.2901354432106018,0.039150457829236984,-0.038348063826560974,-66,-32,-986,290,40,-37,226,176,70,135930.0
06:18:42.938,AUTO,-35.3632159,149.1652749,46929,0.035137999802827835,-0.14152000844478607,0.7679424285888672,-0.8447361588478088,0.03039499931037426,0.02066802978515625,-75,-58,-1002,-842,31,21,265,211,87,135930.0
06:18:43.139,AUTO,-35.3632159,149.1652749,46929,0.035137999802827835,-0.14152000844478607,0.7679424285888672,-0.8447361588478088,0.03039499931037426,0.02066802978515625,-75,-58,-1002,-842,31,21,265,211,87,135930.0
