time_stamp,MODE,lat,lon,relative_alt,roll,pitch,yaw,rollspeed,pitchspeed,yawspeed,xacc,yacc,zacc,xgyro,ygyro,zgyro,vx,vy,vz,RTL_ALT
17:21:57.190,STABILIZE,-35.3632621,149.1652374,0,-0.00046587001997977495,0.00162039406131953,0.027677230536937714,0.0002463553682900965,0.00027190681430511177,0.0022492697462439537,0,1,-1000,0,0,0,-1,0,0,1500.0
17:21:57.393,STABILIZE,-35.3632621,149.1652374,0,-0.00046587001997977495,0.00162039406131953,0.027677230536937714,0.0002463553682900965,0.00027190681430511177,0.0022492697462439537,0,1,-1000,0,0,0,-1,0,0,1500.0
17:21:57.595,STABILIZE,-35.3632621,149.1652374,0,-0.00046587001997977495,0.00162039406131953,0.027677230536937714,0.0002463553682900965,0.00027190681430511177,0.0022492697462439537,0,1,-1000,0,0,0,-1,0,0,1500.0
17:21:57.804,STABILIZE,-35.3632621,149.1652374,0,-0.00046587001997977495,0.00162039406131953,0.027677230536937714,0.0002463553682900965,0.00027190681430511177,0.0022492697462439537,0,1,-1000,0,0,0,-1,0,0,1500.0
17:21:58.005,STABILIZE,-35.3632621,149.1652374,0,-0.00046587001997977495,0.00162039406131953,0.027677230536937714,0.0002463553682900965,0.00027190681430511177,0.0022492697462439537,0,1,-1000,0,0,0,-1,0,0,1500.0
17:21:58.206,STABILIZE,-35.3632621,149.1652374,0,-0.00046587001997977495,0.00162039406131953,0.027677230536937714,0.0002463553682900965,0.00027190681430511177,0.0022492697462439537,0,1,-1000,0,0,0,-1,0,0,1500.0
17:21:58.409,STABILIZE,-35.3632621,149.1652374,0,-0.00046587001997977495,0.00162039406131953,0.027677230536937714,0.0002463553682900965,0.00027190681430511177,0.0022492697462439537,0,1,-1000,0,0,0,-1,0,0,1500.0
17:21:58.625,STABILIZE,-35.3632621,149.1652374,0,-0.00046587001997977495,0.00162039406131953,0.027677230536937714,0.0002463553682900965,0.00027190681430511177,0.0022492697462439537,0,1,-1000,0,0,0,-1,0,0,1500.0
17:21:58.827,STABILIZE,-35.3632621,149.1652374,0,-0.0004967394634149969,0.0015672332374379039,0.027087969705462456,0.0002624301705509424,0.00020260922610759735,0.0021159653551876545,0,1,-1000,1,0,0,-2,1,0,1500.0
17:21:59.029,STABILIZE,-35.3632621,149.1652374,0,-0.0004967394634149969,0.0015672332374379039,0.027087969705462456,0.0002624301705509424,0.00020260922610759735,0.0021159653551876545,0,1,-1000,1,0,0,-2,1,0,1500.0
17:21:59.240,STABILIZE,-35.3632621,149.1652374,0,-0.0004967394634149969,0.0015672332374379039,0.027087969705462456,0.0002624301705509424,0.00020260922610759735,0.0021159653551876545,0,1,-1000,1,0,0,-2,1,0,1500.0
17:21:59.443,STABILIZE,-35.3632621,149.1652374,0,-0.0004967394634149969,0.0015672332374379039,0.027087969705462456,0.0002624301705509424,0.00020260922610759735,0.0021159653551876545,0,1,-1000,1,0,0,-2,1,0,1500.0
17:21:59.644,STABILIZE,-35.3632621,149.1652374,0,-0.0004967394634149969,0.0015672332374379039,0.027087969705462456,0.0002624301705509424,0.00020260922610759735,0.0021159653551876545,0,1,-1000,1,0,0,-2,1,0,1500.0
17:21:59.846,STABILIZE,-35.3632621,149.1652374,0,-0.0004967394634149969,0.0015672332374379039,0.027087969705462456,0.0002624301705509424,0.00020260922610759735,0.0021159653551876545,0,1,-1000,1,0,0,-2,1,0,1500.0
17:22:00.048,STABILIZE,-35.3632621,149.1652374,0,-0.0004967394634149969,0.0015672332374379039,0.027087969705462456,0.0002624301705509424,0.00020260922610759735,0.0021159653551876545,0,1,-1000,1,0,0,-2,1,0,1500.0
17:22:00.250,STABILIZE,-35.3632621,149.1652374,0,-0.0004967394634149969,0.0015672332374379039,0.027087969705462456,0.0002624301705509424,0.00020260922610759735,0.0021159653551876545,0,1,-1000,1,0,0,-2,1,0,1500.0
17:22:00.459,STABILIZE,-35.3632621,149.1652374,0,-0.0004967394634149969,0.0015672332374379039,0.027087969705462456,0.0002624301705509424,0.00020260922610759735,0.0021159653551876545,0,1,-1000,1,0,0,-2,1,0,1500.0
17:22:00.660,STABILIZE,-35.3632622,149.1652374,3,-0.0006963907508179545,0.001073912950232625,0.025760337710380554,0.00018767674919217825,0.0003019830328412354,0.0020685892086476088,0,2,-1000,0,0,0,-1,1,0,1500.0
17:22:00.862,STABILIZE,-35.3632622,149.1652375,4,-0.0006963907508179545,0.001073912950232625,0.025760337710380554,0.00018767674919217825,0.0003019830328412354,0.0020685892086476088,0,2,-1000,0,0,0,-1,1,0,1500.0
17:22:01.063,STABILIZE,-35.3632622,149.1652375,4,-0.0006963907508179545,0.001073912950232625,0.025760337710380554,0.00018767674919217825,0.0003019830328412354,0.0020685892086476088,0,2,-1000,0,0,0,-1,1,0,1500.0
17:22:01.267,STABILIZE,-35.3632622,149.1652375,4,-0.0006963907508179545,0.001073912950232625,0.025760337710380554,0.00018767674919217825,0.0003019830328412354,0.0020685892086476088,0,2,-1000,0,0,0,-1,1,0,1500.0
17:22:01.468,STABILIZE,-35.3632622,149.1652375,4,-0.0006963907508179545,0.001073912950232625,0.025760337710380554,0.00018767674919217825,0.0003019830328412354,0.0020685892086476088,0,2,-1000,0,0,0,-1,1,0,1500.0
17:22:01.671,STABILIZE,-35.3632622,149.1652375,4,-0.0006963907508179545,0.001073912950232625,0.025760337710380554,0.00018767674919217825,0.0003019830328412354,0.0020685892086476088,0,2,-1000,0,0,0,-1,1,0,1500.0
17:22:01.872,STABILIZE,-35.3632622,149.1652375,4,-0.0006963907508179545,0.001073912950232625,0.025760337710380554,0.00018767674919217825,0.0003019830328412354,0.0020685892086476088,0,2,-1000,0,0,0,-1,1,0,1500.0
17:22:02.073,STABILIZE,-35.3632622,149.1652375,4,-0.0006963907508179545,0.001073912950232625,0.025760337710380554,0.00018767674919217825,0.0003019830328412354,0.0020685892086476088,0,2,-1000,0,0,0,-1,1,0,1500.0
17:22:02.275,STABILIZE,-35.3632622,149.1652375,4,-0.0006963907508179545,0.001073912950232625,0.025760337710380554,0.00018767674919217825,0.0003019830328412354,0.0020685892086476088,0,2,-1000,0,0,0,-1,1,0,1500.0
17:22:02.483,STABILIZE,-35.3632622,149.1652375,4,-0.0006963907508179545,0.001073912950232625,0.025760337710380554,0.00018767674919217825,0.0003019830328412354,0.0020685892086476088,0,2,-1000,0,0,0,-1,1,0,1500.0
17:22:02.685,STABILIZE,-35.3632622,149.1652375,4,-0.0006963907508179545,0.001073912950232625,0.025760337710380554,0.00018767674919217825,0.0003019830328412354,0.0020685892086476088,0,2,-1000,0,0,0,-1,1,0,1500.0
17:22:02.886,STABILIZE,-35.3632622,149.1652374,14,-0.0008537866524420679,0.0009372552158311009,0.02495473064482212,0.0002977634430862963,0.00017972179921343923,0.0018650039564818144,0,2,-1000,0,0,0,-1,0,-1,1500.0
17:22:03.088,STABILIZE,-35.3632622,149.1652374,14,-0.0008537866524420679,0.0009372552158311009,0.02495473064482212,0.0002977634430862963,0.00017972179921343923,0.0018650039564818144,0,1,-1000,1,0,0,-1,0,-1,1500.0
17:22:03.289,STABILIZE,-35.3632622,149.1652374,14,-0.0008537866524420679,0.0009372552158311009,0.02495473064482212,0.0002977634430862963,0.00017972179921343923,0.0018650039564818144,0,1,-1000,1,0,0,-1,0,-1,1500.0
17:22:03.492,STABILIZE,-35.3632622,149.1652374,14,-0.0008537866524420679,0.0009372552158311009,0.02495473064482212,0.0002977634430862963,0.00017972179921343923,0.0018650039564818144,0,1,-1000,1,0,0,-1,0,-1,1500.0
17:22:03.694,STABILIZE,-35.3632622,149.1652374,14,-0.0008537866524420679,0.0009372552158311009,0.02495473064482212,0.0002977634430862963,0.00017972179921343923,0.0018650039564818144,0,1,-1000,1,0,0,-1,0,-1,1500.0
17:22:03.896,STABILIZE,-35.3632622,149.1652374,14,-0.0008537866524420679,0.0009372552158311009,0.02495473064482212,0.0002977634430862963,0.00017972179921343923,0.0018650039564818144,0,1,-1000,1,0,0,-1,0,-1,1500.0
17:22:04.097,STABILIZE,-35.3632622,149.1652374,14,-0.0008537866524420679,0.0009372552158311009,0.02495473064482212,0.0002977634430862963,0.00017972179921343923,0.0018650039564818144,0,1,-1000,1,0,0,-1,0,-1,1500.0
17:22:04.299,STABILIZE,-35.3632622,149.1652374,14,-0.0008537866524420679,0.0009372552158311009,0.02495473064482212,0.0002977634430862963,0.00017972179921343923,0.0018650039564818144,0,1,-1000,1,0,0,-1,0,-1,1500.0
17:22:04.501,STABILIZE,-35.3632622,149.1652374,14,-0.0008537866524420679,0.0009372552158311009,0.02495473064482212,0.0002977634430862963,0.00017972179921343923,0.0018650039564818144,0,1,-1000,1,0,0,-1,0,-1,1500.0
17:22:04.704,STABILIZE,-35.3632622,149.1652374,16,-0.0007803303305990994,0.0009326455183327198,0.024472493678331375,0.00033161701867356896,0.0002126916078850627,0.0018973429687321186,0,1,-1000,1,0,0,-1,1,-1,1500.0
17:22:04.907,STABILIZE,-35.3632622,149.1652374,16,-0.0007565136183984578,0.0009785202564671636,0.0241193026304245,0.0001037557958625257,0.0003586653620004654,0.0017772195860743523,0,1,-1000,0,0,0,-1,1,0,1500.0
17:22:05.111,STABILIZE,-35.3632622,149.1652374,16,-0.0007565136183984578,0.0009785202564671636,0.0241193026304245,0.0001037557958625257,0.0003586653620004654,0.0017772195860743523,0,1,-1000,0,0,0,-1,1,0,1500.0
17:22:05.312,STABILIZE,-35.3632622,149.1652374,16,-0.0007565136183984578,0.0009785202564671636,0.0241193026304245,0.0001037557958625257,0.0003586653620004654,0.0017772195860743523,0,1,-1000,0,0,0,-1,1,0,1500.0
17:22:05.513,STABILIZE,-35.3632622,149.1652374,16,-0.0007565136183984578,0.0009785202564671636,0.0241193026304245,0.0001037557958625257,0.0003586653620004654,0.0017772195860743523,0,1,-1000,0,0,0,-1,1,0,1500.0
17:22:05.715,STABILIZE,-35.3632622,149.1652374,16,-0.0007565136183984578,0.0009785202564671636,0.0241193026304245,0.0001037557958625257,0.0003586653620004654,0.0017772195860743523,0,1,-1000,0,0,0,-1,1,0,1500.0
17:22:05.919,STABILIZE,-35.3632622,149.1652374,16,-0.0007565136183984578,0.0009785202564671636,0.0241193026304245,0.0001037557958625257,0.0003586653620004654,0.0017772195860743523,0,1,-1000,0,0,0,-1,1,0,1500.0
17:22:06.120,STABILIZE,-35.3632622,149.1652374,16,-0.0007565136183984578,0.0009785202564671636,0.0241193026304245,0.0001037557958625257,0.0003586653620004654,0.0017772195860743523,0,1,-1000,0,0,0,-1,1,0,1500.0
17:22:06.322,STABILIZE,-35.3632622,149.1652374,16,-0.0007565136183984578,0.0009785202564671636,0.0241193026304245,0.0001037557958625257,0.0003586653620004654,0.0017772195860743523,0,1,-1000,0,0,0,-1,1,0,1500.0
17:22:06.524,STABILIZE,-35.3632622,149.1652374,16,-0.0007565136183984578,0.0009785202564671636,0.0241193026304245,0.0001037557958625257,0.0003586653620004654,0.0017772195860743523,0,1,-1000,0,0,0,-1,1,0,1500.0
17:22:06.729,STABILIZE,-35.3632622,149.1652375,16,-0.0002882002154365182,0.000995963579043746,0.02370757982134819,0.00022277969401329756,0.0003443549503572285,0.0016756149707362056,0,1,-1000,0,1,1,-1,1,-1,1500.0
17:22:06.930,STABILIZE,-35.3632622,149.1652375,16,-0.0003138852189294994,0.0010034632869064808,0.023425523191690445,0.00021139270393177867,0.00032177468528971076,0.001714231795631349,0,2,-1000,1,0,0,-1,1,0,1500.0
17:22:07.131,STABILIZE,-35.3632622,149.1652375,16,-0.0003138852189294994,0.0010034632869064808,0.023425523191690445,0.00021139270393177867,0.00032177468528971076,0.001714231795631349,0,2,-1000,1,0,0,-1,1,0,1500.0
17:22:07.333,STABILIZE,-35.3632622,149.1652375,16,-0.0003138852189294994,0.0010034632869064808,0.023425523191690445,0.00021139270393177867,0.00032177468528971076,0.001714231795631349,0,2,-1000,1,0,0,-1,1,0,1500.0
17:22:07.539,STABILIZE,-35.3632622,149.1652375,16,-0.0003138852189294994,0.0010034632869064808,0.023425523191690445,0.00021139270393177867,0.00032177468528971076,0.001714231795631349,0,2,-1000,1,0,0,-1,1,0,1500.0
17:22:07.741,STABILIZE,-35.3632622,149.1652375,16,-0.0003138852189294994,0.0010034632869064808,0.023425523191690445,0.00021139270393177867,0.00032177468528971076,0.001714231795631349,0,2,-1000,1,0,0,-1,1,0,1500.0
17:22:07.942,STABILIZE,-35.3632622,149.1652375,16,-0.0003138852189294994,0.0010034632869064808,0.023425523191690445,0.00021139270393177867,0.00032177468528971076,0.001714231795631349,0,2,-1000,1,0,0,-1,1,0,1500.0
17:22:08.144,STABILIZE,-35.3632622,149.1652375,16,-0.0003138852189294994,0.0010034632869064808,0.023425523191690445,0.00021139270393177867,0.00032177468528971076,0.001714231795631349,0,2,-1000,1,0,0,-1,1,0,1500.0
17:22:08.355,STABILIZE,-35.3632622,149.1652375,16,-0.0003138852189294994,0.0010034632869064808,0.023425523191690445,0.00021139270393177867,0.00032177468528971076,0.001714231795631349,0,2,-1000,1,0,0,-1,1,0,1500.0
17:22:08.556,STABILIZE,-35.3632622,149.1652375,16,-0.0003138852189294994,0.0010034632869064808,0.023425523191690445,0.00021139270393177867,0.00032177468528971076,0.001714231795631349,0,2,-1000,1,0,0,-1,1,0,1500.0
17:22:08.759,STABILIZE,-35.3632622,149.1652375,11,-0.00040502529009245336,0.0010171999456360936,0.022947289049625397,0.00021378265228122473,0.00028022401966154575,0.0016976918559521437,0,2,-1000,0,0,0,-1,2,0,1500.0
17:22:08.960,STABILIZE,-35.3632622,149.1652375,10,-0.0004917521146126091,0.0010036624735221267,0.02267928048968315,0.00027616851730272174,0.00019238609820604324,0.0016250952612608671,0,1,-1000,0,0,1,-1,2,0,1500.0
17:22:09.161,STABILIZE,-35.3632622,149.1652375,10,-0.0004917521146126091,0.0010036624735221267,0.02267928048968315,0.00027616851730272174,0.00019238609820604324,0.0016250952612608671,0,1,-1000,0,0,1,-1,2,0,1500.0
17:22:09.362,STABILIZE,-35.3632622,149.1652375,10,-0.0004917521146126091,0.0010036624735221267,0.02267928048968315,0.00027616851730272174,0.00019238609820604324,0.0016250952612608671,0,1,-1000,0,0,1,-1,2,0,1500.0
17:22:09.565,STABILIZE,-35.3632622,149.1652375,10,-0.0004917521146126091,0.0010036624735221267,0.02267928048968315,0.00027616851730272174,0.00019238609820604324,0.0016250952612608671,0,1,-1000,0,0,1,-1,2,0,1500.0
17:22:09.772,STABILIZE,-35.3632622,149.1652375,10,-0.0004917521146126091,0.0010036624735221267,0.02267928048968315,0.00027616851730272174,0.00019238609820604324,0.0016250952612608671,0,1,-1000,0,0,1,-1,2,0,1500.0
17:22:13.562,STABILIZE,-35.3632622,149.1652375,10,-0.0004917521146126091,0.0010036624735221267,0.02267928048968315,0.00027616851730272174,0.00019238609820604324,0.0016250952612608671,0,1,-1000,0,0,1,-1,2,0,1500.0
17:22:13.770,STABILIZE,-35.3632622,149.1652375,10,-0.0004917521146126091,0.0010036624735221267,0.02267928048968315,0.00027616851730272174,0.00019238609820604324,0.0016250952612608671,0,1,-1000,0,0,1,-1,2,0,1500.0
17:22:13.972,STABILIZE,-35.3632622,149.1652375,10,-0.0004917521146126091,0.0010036624735221267,0.02267928048968315,0.00027616851730272174,0.00019238609820604324,0.0016250952612608671,0,1,-1000,0,0,1,-1,2,0,1500.0
17:22:14.174,STABILIZE,-35.3632622,149.1652375,10,-0.0004917521146126091,0.0010036624735221267,0.02267928048968315,0.00027616851730272174,0.00019238609820604324,0.0016250952612608671,0,1,-1000,0,0,1,-1,2,0,1500.0
17:22:14.377,STABILIZE,-35.3632622,149.1652375,5,-0.0003470853844191879,0.0009974371641874313,0.022230498492717743,0.0003398836124688387,0.0002176002017222345,0.001664580311626196,0,2,-1000,1,0,0,-1,2,0,1500.0
17:22:14.582,STABILIZE,-35.3632622,149.1652375,2,-0.0004676906974054873,0.000990670407190919,0.022002102807164192,0.00020884390687569976,0.00014709768583998084,0.0017008435679599643,0,1,-1000,1,0,0,-1,2,0,1500.0
17:22:14.785,STABILIZE,-35.3632622,149.1652375,2,-0.0004676906974054873,0.000990670407190919,0.022002102807164192,0.00020884390687569976,0.00014709768583998084,0.0017008435679599643,0,1,-1000,1,0,0,-1,2,0,1500.0
17:22:14.988,STABILIZE,-35.3632622,149.1652375,2,-0.0004676906974054873,0.000990670407190919,0.022002102807164192,0.00020884390687569976,0.00014709768583998084,0.0017008435679599643,0,1,-1000,1,0,0,-1,2,0,1500.0
17:22:15.189,STABILIZE,-35.3632622,149.1652375,2,-0.0004676906974054873,0.000990670407190919,0.022002102807164192,0.00020884390687569976,0.00014709768583998084,0.0017008435679599643,0,1,-1000,1,0,0,-1,2,0,1500.0
17:22:15.393,STABILIZE,-35.3632622,149.1652375,2,-0.0004676906974054873,0.000990670407190919,0.022002102807164192,0.00020884390687569976,0.00014709768583998084,0.0017008435679599643,0,1,-1000,1,0,0,-1,2,0,1500.0
17:22:15.595,STABILIZE,-35.3632622,149.1652375,2,-0.0004676906974054873,0.000990670407190919,0.022002102807164192,0.00020884390687569976,0.00014709768583998084,0.0017008435679599643,0,1,-1000,1,0,0,-1,2,0,1500.0
17:22:15.799,AUTO,-35.3632622,149.1652375,2,-0.0004676906974054873,0.000990670407190919,0.022002102807164192,0.00020884390687569976,0.00014709768583998084,0.0017008435679599643,0,1,-1000,1,0,0,-1,2,0,1500.0
17:22:16.003,AUTO,-35.3632622,149.1652375,2,-0.0004676906974054873,0.000990670407190919,0.022002102807164192,0.00020884390687569976,0.00014709768583998084,0.0017008435679599643,0,1,-1000,1,0,0,-1,2,0,1500.0
17:22:16.206,AUTO,-35.3632622,149.1652375,2,-0.0004676906974054873,0.000990670407190919,0.022002102807164192,0.00020884390687569976,0.00014709768583998084,0.0017008435679599643,0,1,-1000,1,0,0,-1,2,0,1500.0
17:22:16.409,AUTO,-35.3632622,149.1652375,0,-0.0005816158372908831,0.000993291032500565,0.021810444071888924,0.00030337058706209064,0.00027469603810459375,0.0015699539799243212,0,1,-1000,0,0,1,-1,1,0,1500.0
17:22:16.614,AUTO,-35.3632622,149.1652375,0,-5.450379831017926e-05,0.0011219943407922983,0.021540869027376175,0.00030446547316387296,0.00027563876938074827,0.0014356907922774553,0,2,-1000,0,0,0,0,0,1,1500.0
17:22:16.816,AUTO,-35.3632622,149.1652375,0,-8.749289918341674e-06,0.0011788952397182584,0.0214679054915905,0.0003471279051154852,0.0002652826369740069,0.001547660562209785,0,2,-1000,0,1,1,0,0,1,1500.0
17:22:17.020,AUTO,-35.3632622,149.1652375,0,-8.749289918341674e-06,0.0011788952397182584,0.0214679054915905,0.0003471279051154852,0.0002652826369740069,0.001547660562209785,0,2,-1000,0,1,1,0,0,1,1500.0
17:22:17.223,AUTO,-35.3632622,149.1652375,0,-8.749289918341674e-06,0.0011788952397182584,0.0214679054915905,0.0003471279051154852,0.0002652826369740069,0.001547660562209785,0,2,-1000,0,1,1,0,0,1,1500.0
17:22:17.428,AUTO,-35.3632622,149.1652375,0,-8.749289918341674e-06,0.0011788952397182584,0.0214679054915905,0.0003471279051154852,0.0002652826369740069,0.001547660562209785,0,2,-1000,0,1,1,0,0,1,1500.0
17:22:17.634,AUTO,-35.3632622,149.1652375,0,-8.749289918341674e-06,0.0011788952397182584,0.0214679054915905,0.0003471279051154852,0.0002652826369740069,0.001547660562209785,0,2,-1000,0,1,1,0,0,1,1500.0
17:22:17.839,AUTO,-35.3632622,149.1652375,0,-8.749289918341674e-06,0.0011788952397182584,0.0214679054915905,0.0003471279051154852,0.0002652826369740069,0.001547660562209785,0,2,-1000,0,1,1,0,0,1,1500.0
17:22:18.040,AUTO,-35.3632622,149.1652375,0,-8.749289918341674e-06,0.0011788952397182584,0.0214679054915905,0.0003471279051154852,0.0002652826369740069,0.001547660562209785,0,2,-1000,0,1,1,0,0,1,1500.0
17:22:18.242,AUTO,-35.3632622,149.1652375,0,-8.749289918341674e-06,0.0011788952397182584,0.0214679054915905,0.0003471279051154852,0.0002652826369740069,0.001547660562209785,0,2,-1000,0,1,1,0,0,1,1500.0
17:22:18.445,AUTO,-35.3632622,149.1652375,0,-8.749289918341674e-06,0.0011788952397182584,0.0214679054915905,0.0003471279051154852,0.0002652826369740069,0.001547660562209785,0,2,-1000,0,1,1,0,0,1,1500.0
17:22:18.650,AUTO,-35.3632622,149.1652375,0,0.0002564049791544676,0.0015142250340431929,0.02107529528439045,0.0003504884080030024,0.0002281993511132896,0.0014542286517098546,0,1,-1000,0,0,0,0,0,1,1500.0
17:22:18.856,AUTO,-35.3632622,149.1652375,0,0.00037607966805808246,0.001665937015786767,0.0209108367562294,0.00034225627314299345,0.0003005804610438645,0.0015082629397511482,0,1,-1000,0,1,1,0,0,0,1500.0
17:22:19.059,AUTO,-35.3632622,149.1652375,0,0.00037607966805808246,0.001665937015786767,0.0209108367562294,0.00034225627314299345,0.0003005804610438645,0.0015082629397511482,0,1,-1000,0,1,1,0,0,0,1500.0
17:22:19.261,AUTO,-35.3632622,149.1652375,0,0.00037607966805808246,0.001665937015786767,0.0209108367562294,0.00034225627314299345,0.0003005804610438645,0.0015082629397511482,0,1,-1000,0,1,1,0,0,0,1500.0
17:22:19.463,AUTO,-35.3632622,149.1652375,0,0.00037607966805808246,0.001665937015786767,0.0209108367562294,0.00034225627314299345,0.0003005804610438645,0.0015082629397511482,0,1,-1000,0,1,1,0,0,0,1500.0
17:22:19.671,AUTO,-35.3632622,149.1652375,0,0.00037607966805808246,0.001665937015786767,0.0209108367562294,0.00034225627314299345,0.0003005804610438645,0.0015082629397511482,0,1,-1000,0,1,1,0,0,0,1500.0
17:22:19.876,AUTO,-35.3632622,149.1652375,0,0.00037607966805808246,0.001665937015786767,0.0209108367562294,0.00034225627314299345,0.0003005804610438645,0.0015082629397511482,0,1,-1000,0,1,1,0,0,0,1500.0
17:22:20.082,AUTO,-35.3632622,149.1652375,0,0.00037607966805808246,0.001665937015786767,0.0209108367562294,0.00034225627314299345,0.0003005804610438645,0.0015082629397511482,0,1,-1000,0,1,1,0,0,0,1500.0
17:22:20.289,AUTO,-35.3632622,149.1652375,0,0.00037607966805808246,0.001665937015786767,0.0209108367562294,0.00034225627314299345,0.0003005804610438645,0.0015082629397511482,0,1,-1000,0,1,1,0,0,0,1500.0
17:22:20.493,AUTO,-35.3632621,149.1652375,691,0.001952901715412736,0.0017498161178082228,0.020755711942911148,-0.004217060282826424,0.0008286925731226802,0.002323717111721635,0,0,-1087,-3,1,2,0,0,-121,1500.0
17:22:20.695,AUTO,-35.363262,149.1652376,1772,0.03237614035606384,-0.0023740208707749844,0.020628225058317184,0.04547322541475296,-0.007955659180879593,0.002870652126148343,0,-1,-1008,45,-7,2,1,10,-147,1500.0
17:22:20.899,AUTO,-35.363262,149.1652376,1772,0.03237614035606384,-0.0023740208707749844,0.020628225058317184,0.04547322541475296,-0.007955659180879593,0.002870652126148343,0,-1,-1008,45,-7,2,1,10,-147,1500.0
17:22:21.103,AUTO,-35.363262,149.1652376,1772,0.03237614035606384,-0.0023740208707749844,0.020628225058317184,0.04547322541475296,-0.007955659180879593,0.002870652126148343,0,-1,-1008,45,-7,2,1,10,-147,1500.0
17:22:21.305,AUTO,-35.363262,149.1652376,1772,0.03237614035606384,-0.0023740208707749844,0.020628225058317184,0.04547322541475296,-0.007955659180879593,0.002870652126148343,0,-1,-1008,45,-7,2,1,10,-147,1500.0
17:22:21.525,AUTO,-35.363262,149.1652376,1772,0.03237614035606384,-0.0023740208707749844,0.020628225058317184,0.04547322541475296,-0.007955659180879593,0.002870652126148343,0,-1,-1008,45,-7,2,1,10,-147,1500.0
17:22:21.727,AUTO,-35.363262,149.1652376,1772,0.03237614035606384,-0.0023740208707749844,0.020628225058317184,0.04547322541475296,-0.007955659180879593,0.002870652126148343,0,-1,-1008,45,-7,2,1,10,-147,1500.0
17:22:21.929,AUTO,-35.363262,149.1652376,1772,0.03237614035606384,-0.0023740208707749844,0.020628225058317184,0.04547322541475296,-0.007955659180879593,0.002870652126148343,0,-1,-1008,45,-7,2,1,10,-147,1500.0
17:22:22.131,AUTO,-35.363262,149.1652376,1772,0.03237614035606384,-0.0023740208707749844,0.020628225058317184,0.04547322541475296,-0.007955659180879593,0.002870652126148343,0,-1,-1008,45,-7,2,1,10,-147,1500.0
17:22:22.334,AUTO,-35.3632616,149.16524,3070,0.03356034681200981,0.01738131046295166,-0.036007799208164215,-0.16576406359672546,0.0782705619931221,-0.09344219416379929,1,-8,-990,-42,51,-73,9,45,-147,1500.0
17:22:22.537,AUTO,-35.3632612,149.1652452,4586,-0.041900429874658585,0.04777820408344269,-0.11920391023159027,-0.006171041633933783,-0.022392239421606064,-0.07068584114313126,6,-6,-1006,-5,-21,-71,-11,32,-149,1500.0
17:22:22.741,AUTO,-35.3632612,149.1652452,4586,-0.041900429874658585,0.04777820408344269,-0.11920391023159027,-0.006171041633933783,-0.022392239421606064,-0.07068584114313126,6,-6,-1006,-5,-21,-71,-11,32,-149,1500.0
17:22:22.947,AUTO,-35.3632612,149.1652452,4586,-0.041900429874658585,0.04777820408344269,-0.11920391023159027,-0.006171041633933783,-0.022392239421606064,-0.07068584114313126,6,-6,-1006,-5,-21,-71,-11,32,-149,1500.0
17:22:23.153,AUTO,-35.3632612,149.1652452,4586,-0.041900429874658585,0.04777820408344269,-0.11920391023159027,-0.006171041633933783,-0.022392239421606064,-0.07068584114313126,6,-6,-1006,-5,-21,-71,-11,32,-149,1500.0
17:22:23.357,AUTO,-35.3632612,149.1652452,4586,-0.041900429874658585,0.04777820408344269,-0.11920391023159027,-0.006171041633933783,-0.022392239421606064,-0.07068584114313126,6,-6,-1006,-5,-21,-71,-11,32,-149,1500.0
17:22:23.562,AUTO,-35.3632612,149.1652452,4586,-0.041900429874658585,0.04777820408344269,-0.11920391023159027,-0.006171041633933783,-0.022392239421606064,-0.07068584114313126,6,-6,-1006,-5,-21,-71,-11,32,-149,1500.0
17:22:23.769,AUTO,-35.3632629,149.1652442,6743,-0.02940204180777073,-0.03519096225500107,-0.06152932345867157,0.0585949644446373,-0.0011686350917443633,0.026828529313206673,0,6,-1002,57,-10,34,0,-40,-150,1500.0
17:22:23.971,AUTO,-35.3632629,149.1652442,6743,-0.02940204180777073,-0.03519096225500107,-0.06152932345867157,0.0585949644446373,-0.0011686350917443633,0.026828529313206673,-3,8,-1001,59,0,26,0,-40,-150,1500.0
17:22:24.175,AUTO,-35.3632629,149.1652442,6743,-0.02940204180777073,-0.03519096225500107,-0.06152932345867157,0.0585949644446373,-0.0011686350917443633,0.026828529313206673,-3,8,-1001,59,0,26,0,-40,-150,1500.0
17:22:24.377,AUTO,-35.3632629,149.1652442,6743,-0.02940204180777073,-0.03519096225500107,-0.06152932345867157,0.0585949644446373,-0.0011686350917443633,0.026828529313206673,-3,8,-1001,59,0,26,0,-40,-150,1500.0
17:22:24.584,AUTO,-35.3632629,149.1652442,6743,-0.02940204180777073,-0.03519096225500107,-0.06152932345867157,0.0585949644446373,-0.0011686350917443633,0.026828529313206673,-3,8,-1001,59,0,26,0,-40,-150,1500.0
17:22:24.788,AUTO,-35.3632629,149.1652442,6743,-0.02940204180777073,-0.03519096225500107,-0.06152932345867157,0.0585949644446373,-0.0011686350917443633,0.026828529313206673,-3,8,-1001,59,0,26,0,-40,-150,1500.0
17:22:24.994,AUTO,-35.3632629,149.1652442,6743,-0.02940204180777073,-0.03519096225500107,-0.06152932345867157,0.0585949644446373,-0.0011686350917443633,0.026828529313206673,-3,8,-1001,59,0,26,0,-40,-150,1500.0
17:22:25.200,AUTO,-35.3632614,149.1652371,9068,0.02910235896706581,0.016727019101381302,-0.08948485553264618,0.028460366651415825,0.02936554327607155,-0.027570271864533424,-7,5,-1001,28,30,-27,10,-31,-152,1500.0
17:22:25.404,AUTO,-35.3632613,149.1652363,9459,0.03131174296140671,0.019201766699552536,-0.09294938296079636,-0.003997528459876776,-0.006094681099057198,-0.0009814654476940632,-5,3,-998,-2,-5,-1,5,-23,-151,1500.0
17:22:25.608,AUTO,-35.3632612,149.1652358,9849,0.02839524857699871,0.01590295135974884,-0.092305026948452,-0.014989074319601059,-0.014583777636289597,0.00809306651353836,-3,3,-998,-14,-14,7,0,-15,-151,1500.0
17:22:25.812,AUTO,-35.3632612,149.1652358,9849,0.02839524857699871,0.01590295135974884,-0.092305026948452,-0.014989074319601059,-0.014583777636289597,0.00809306651353836,-3,3,-998,-14,-14,7,0,-15,-151,1500.0
17:22:26.019,AUTO,-35.3632612,149.1652358,9849,0.02839524857699871,0.01590295135974884,-0.092305026948452,-0.014989074319601059,-0.014583777636289597,0.00809306651353836,-3,3,-998,-14,-14,7,0,-15,-151,1500.0
17:22:26.224,AUTO,-35.3632612,149.1652358,9849,0.02839524857699871,0.01590295135974884,-0.092305026948452,-0.014989074319601059,-0.014583777636289597,0.00809306651353836,-3,3,-998,-14,-14,7,0,-15,-151,1500.0
17:22:26.426,AUTO,-35.3632612,149.1652358,9849,0.02839524857699871,0.01590295135974884,-0.092305026948452,-0.014989074319601059,-0.014583777636289597,0.00809306651353836,-3,3,-998,-14,-14,7,0,-15,-151,1500.0
17:22:26.631,AUTO,-35.3632612,149.1652358,9849,0.02839524857699871,0.01590295135974884,-0.092305026948452,-0.014989074319601059,-0.014583777636289597,0.00809306651353836,-3,3,-998,-14,-14,7,0,-15,-151,1500.0
17:22:26.833,AUTO,-35.3632612,149.1652358,9849,0.02839524857699871,0.01590295135974884,-0.092305026948452,-0.014989074319601059,-0.014583777636289597,0.00809306651353836,-3,3,-998,-14,-14,7,0,-15,-151,1500.0
17:22:27.034,AUTO,-35.3632615,149.1652352,12026,0.005415922496467829,0.002197139896452427,-0.08902118355035782,-0.008444365113973618,-0.004996850620955229,-0.0017607633490115404,0,0,-1000,-7,-4,-2,-5,3,-151,1500.0
17:22:27.236,AUTO,-35.3632615,149.1652352,12026,0.005415922496467829,0.002197139896452427,-0.08902118355035782,-0.008444365113973618,-0.004996850620955229,-0.0017607633490115404,0,0,-1000,-7,-4,-2,-5,3,-151,1500.0
17:22:27.438,AUTO,-35.3632616,149.1652353,12415,0.0039538233540952206,0.0012193139409646392,-0.09138062596321106,-0.002391463378444314,-0.0027819776441901922,-0.007760065607726574,0,0,-1001,-1,-2,-8,-4,3,-151,1500.0
17:22:27.641,AUTO,-35.3632616,149.1652353,12804,0.003152423072606325,0.0004765702469740063,-0.09430234134197235,-0.001779584912583232,-0.004012743942439556,-0.007602966856211424,0,0,-1000,0,-3,-7,-3,3,-151,1500.0
17:22:27.843,AUTO,-35.3632616,149.1652353,12804,0.003152423072606325,0.0004765702469740063,-0.09430234134197235,-0.001779584912583232,-0.004012743942439556,-0.007602966856211424,0,0,-1000,0,-3,-7,-3,3,-151,1500.0
17:22:28.045,AUTO,-35.3632616,149.1652353,12804,0.003152423072606325,0.0004765702469740063,-0.09430234134197235,-0.001779584912583232,-0.004012743942439556,-0.007602966856211424,0,0,-1000,0,-3,-7,-3,3,-151,1500.0
17:22:28.249,AUTO,-35.3632616,149.1652353,12804,0.003152423072606325,0.0004765702469740063,-0.09430234134197235,-0.001779584912583232,-0.004012743942439556,-0.007602966856211424,0,0,-1000,0,-3,-7,-3,3,-151,1500.0
17:22:28.452,AUTO,-35.3632616,149.1652353,12804,0.003152423072606325,0.0004765702469740063,-0.09430234134197235,-0.001779584912583232,-0.004012743942439556,-0.007602966856211424,0,0,-1000,0,-3,-7,-3,3,-151,1500.0
17:22:28.655,AUTO,-35.3632616,149.1652353,12804,0.003152423072606325,0.0004765702469740063,-0.09430234134197235,-0.001779584912583232,-0.004012743942439556,-0.007602966856211424,0,0,-1000,0,-3,-7,-3,3,-151,1500.0
17:22:28.861,AUTO,-35.3632616,149.1652353,12804,0.003152423072606325,0.0004765702469740063,-0.09430234134197235,-0.001779584912583232,-0.004012743942439556,-0.007602966856211424,0,0,-1000,0,-3,-7,-3,3,-151,1500.0
17:22:29.062,AUTO,-35.3632616,149.1652353,12804,0.003152423072606325,0.0004765702469740063,-0.09430234134197235,-0.001779584912583232,-0.004012743942439556,-0.007602966856211424,0,0,-1000,0,-3,-7,-3,3,-151,1500.0
17:22:29.265,AUTO,-35.3632617,149.1652355,14204,0.002748702419921756,0.0004952658782713115,-0.11014286428689957,0.0019400258315727115,0.0013798447325825691,-0.017353849485516548,0,0,-1000,2,2,-17,-1,2,-152,1500.0
17:22:29.467,AUTO,-35.3632617,149.1652355,15766,0.004516024608165026,0.0027899977285414934,-0.1318339705467224,0.0028762593865394592,0.002897842088714242,-0.019782446324825287,0,0,-1000,3,3,-20,0,1,-152,1500.0
17:22:29.670,AUTO,-35.3632617,149.1652355,15766,0.004516024608165026,0.0027899977285414934,-0.1318339705467224,0.0028762593865394592,0.002897842088714242,-0.019782446324825287,0,0,-1000,3,3,-20,0,1,-152,1500.0
17:22:29.878,AUTO,-35.3632617,149.1652355,15766,0.004516024608165026,0.0027899977285414934,-0.1318339705467224,0.0028762593865394592,0.002897842088714242,-0.019782446324825287,0,0,-1000,3,3,-20,0,1,-152,1500.0
17:22:30.085,AUTO,-35.3632617,149.1652355,15766,0.004516024608165026,0.0027899977285414934,-0.1318339705467224,0.0028762593865394592,0.002897842088714242,-0.019782446324825287,0,0,-1000,3,3,-20,0,1,-152,1500.0
17:22:30.296,AUTO,-35.3632617,149.1652355,15766,0.004516024608165026,0.0027899977285414934,-0.1318339705467224,0.0028762593865394592,0.002897842088714242,-0.019782446324825287,0,0,-1000,3,3,-20,0,1,-152,1500.0
17:22:30.500,AUTO,-35.3632617,149.1652355,15766,0.004516024608165026,0.0027899977285414934,-0.1318339705467224,0.0028762593865394592,0.002897842088714242,-0.019782446324825287,0,0,-1000,3,3,-20,0,1,-152,1500.0
17:22:30.705,AUTO,-35.3632617,149.1652355,15766,0.004516024608165026,0.0027899977285414934,-0.1318339705467224,0.0028762593865394592,0.002897842088714242,-0.019782446324825287,0,0,-1000,3,3,-20,0,1,-152,1500.0
17:22:30.907,AUTO,-35.3632617,149.1652355,15766,0.004516024608165026,0.0027899977285414934,-0.1318339705467224,0.0028762593865394592,0.002897842088714242,-0.019782446324825287,0,0,-1000,3,3,-20,0,1,-152,1500.0
17:22:31.108,AUTO,-35.3632617,149.1652355,15766,0.004516024608165026,0.0027899977285414934,-0.1318339705467224,0.0028762593865394592,0.002897842088714242,-0.019782446324825287,0,0,-1000,3,3,-20,0,1,-152,1500.0
17:22:31.314,AUTO,-35.3632616,149.1652357,18111,0.0063533419743180275,0.004014415200799704,-0.1615104228258133,0.0014498023083433509,-0.0005092428182251751,-0.01738625578582287,0,0,-1000,2,0,-17,-2,4,-152,1500.0
17:22:31.518,AUTO,-35.3632616,149.1652358,18893,0.005306858569383621,0.003787136171013117,-0.17034666240215302,-2.5269691832363605e-06,0.0005259254248812795,-0.017942816019058228,0,0,-1000,0,1,-18,-2,5,-152,1500.0
17:22:31.723,AUTO,-35.3632616,149.1652358,18893,0.005306858569383621,0.003787136171013117,-0.17034666240215302,-2.5269691832363605e-06,0.0005259254248812795,-0.017942816019058228,0,0,-1000,0,1,-18,-2,5,-152,1500.0
17:22:31.926,AUTO,-35.3632616,149.1652358,18893,0.005306858569383621,0.003787136171013117,-0.17034666240215302,-2.5269691832363605e-06,0.0005259254248812795,-0.017942816019058228,0,0,-1000,0,1,-18,-2,5,-152,1500.0
17:22:32.130,AUTO,-35.3632616,149.1652358,18893,0.005306858569383621,0.003787136171013117,-0.17034666240215302,-2.5269691832363605e-06,0.0005259254248812795,-0.017942816019058228,0,0,-1000,0,1,-18,-2,5,-152,1500.0
17:22:32.333,AUTO,-35.3632616,149.1652358,18893,0.005306858569383621,0.003787136171013117,-0.17034666240215302,-2.5269691832363605e-06,0.0005259254248812795,-0.017942816019058228,0,0,-1000,0,1,-18,-2,5,-152,1500.0
17:22:32.535,AUTO,-35.3632616,149.1652358,18893,0.005306858569383621,0.003787136171013117,-0.17034666240215302,-2.5269691832363605e-06,0.0005259254248812795,-0.017942816019058228,0,0,-1000,0,1,-18,-2,5,-152,1500.0
17:22:32.736,AUTO,-35.3632616,149.1652358,18893,0.005306858569383621,0.003787136171013117,-0.17034666240215302,-2.5269691832363605e-06,0.0005259254248812795,-0.017942816019058228,0,0,-1000,0,1,-18,-2,5,-152,1500.0
17:22:32.938,AUTO,-35.3632616,149.1652358,18893,0.005306858569383621,0.003787136171013117,-0.17034666240215302,-2.5269691832363605e-06,0.0005259254248812795,-0.017942816019058228,0,0,-1000,0,1,-18,-2,5,-152,1500.0
17:22:33.140,AUTO,-35.3632616,149.1652358,18893,0.005306858569383621,0.003787136171013117,-0.17034666240215302,-2.5269691832363605e-06,0.0005259254248812795,-0.017942816019058228,0,0,-1000,0,1,-18,-2,5,-152,1500.0
17:22:33.343,AUTO,-35.3632616,149.165236,20066,0.0041786255314946175,0.004011435434222221,-0.18475481867790222,0.0002187576610594988,0.0020525569561868906,-0.019849741831421852,0,0,-1000,0,1,-18,-2,5,-153,1500.0
17:22:33.546,AUTO,-35.3632617,149.1652364,21638,0.0030798546504229307,0.0039571356028318405,-0.20455607771873474,0.0011650505475699902,0.0010499253403395414,-0.02036084420979023,0,0,-1000,2,1,-20,-2,4,-153,1500.0
17:22:33.748,AUTO,-35.3632617,149.1652364,22029,0.0028286559972912073,0.0036773681640625,-0.20922134816646576,0.0016833669506013393,-0.0008413215400651097,-0.01859152689576149,0,0,-1000,2,0,-18,-2,4,-153,1500.0
17:22:33.950,AUTO,-35.3632617,149.1652364,22029,0.0028286559972912073,0.0036773681640625,-0.20922134816646576,0.0016833669506013393,-0.0008413215400651097,-0.01859152689576149,0,0,-1000,2,0,-18,-2,4,-153,1500.0
17:22:34.154,AUTO,-35.3632617,149.1652364,22029,0.0028286559972912073,0.0036773681640625,-0.20922134816646576,0.0016833669506013393,-0.0008413215400651097,-0.01859152689576149,0,0,-1000,2,0,-18,-2,4,-153,1500.0
17:22:34.355,AUTO,-35.3632617,149.1652364,22029,0.0028286559972912073,0.0036773681640625,-0.20922134816646576,0.0016833669506013393,-0.0008413215400651097,-0.01859152689576149,0,0,-1000,2,0,-18,-2,4,-153,1500.0
17:22:34.559,AUTO,-35.3632617,149.1652364,22029,0.0028286559972912073,0.0036773681640625,-0.20922134816646576,0.0016833669506013393,-0.0008413215400651097,-0.01859152689576149,0,0,-1000,2,0,-18,-2,4,-153,1500.0
17:22:34.762,AUTO,-35.3632617,149.1652364,22029,0.0028286559972912073,0.0036773681640625,-0.20922134816646576,0.0016833669506013393,-0.0008413215400651097,-0.01859152689576149,0,0,-1000,2,0,-18,-2,4,-153,1500.0
17:22:34.964,AUTO,-35.3632617,149.1652364,22029,0.0028286559972912073,0.0036773681640625,-0.20922134816646576,0.0016833669506013393,-0.0008413215400651097,-0.01859152689576149,0,0,-1000,2,0,-18,-2,4,-153,1500.0
17:22:35.169,AUTO,-35.3632617,149.1652364,22029,0.0028286559972912073,0.0036773681640625,-0.20922134816646576,0.0016833669506013393,-0.0008413215400651097,-0.01859152689576149,0,0,-1000,2,0,-18,-2,4,-153,1500.0
17:22:35.378,AUTO,-35.3632618,149.1652368,24766,0.0026845161337405443,0.0031638627406209707,-0.24285751581192017,0.0028801094740629196,0.0012083579786121845,-0.020859483629465103,0,0,-1000,3,2,-20,-2,3,-153,1500.0
17:22:35.580,AUTO,-35.3632618,149.1652368,25161,0.0007440006011165679,0.0031718441750854254,-0.24776653945446014,-0.08190027624368668,0.0013500594068318605,-0.019630122929811478,0,-3,-985,-81,2,-19,-2,2,-152,1500.0
17:22:35.786,AUTO,-35.3632618,149.1652368,25161,0.0007440006011165679,0.0031718441750854254,-0.24776653945446014,-0.08190027624368668,0.0013500594068318605,-0.019630122929811478,0,-3,-985,-81,2,-19,-2,2,-152,1500.0
17:22:35.989,AUTO,-35.3632618,149.1652368,25161,0.0007440006011165679,0.0031718441750854254,-0.24776653945446014,-0.08190027624368668,0.0013500594068318605,-0.019630122929811478,0,-3,-985,-81,2,-19,-2,2,-152,1500.0
17:22:36.192,AUTO,-35.3632618,149.1652368,25161,0.0007440006011165679,0.0031718441750854254,-0.24776653945446014,-0.08190027624368668,0.0013500594068318605,-0.019630122929811478,0,-3,-985,-81,2,-19,-2,2,-152,1500.0
17:22:36.395,AUTO,-35.3632618,149.1652368,25161,0.0007440006011165679,0.0031718441750854254,-0.24776653945446014,-0.08190027624368668,0.0013500594068318605,-0.019630122929811478,0,-3,-985,-81,2,-19,-2,2,-152,1500.0
17:22:36.598,AUTO,-35.3632618,149.1652368,25161,0.0007440006011165679,0.0031718441750854254,-0.24776653945446014,-0.08190027624368668,0.0013500594068318605,-0.019630122929811478,0,-3,-985,-81,2,-19,-2,2,-152,1500.0
17:22:36.802,AUTO,-35.3632618,149.1652368,25161,0.0007440006011165679,0.0031718441750854254,-0.24776653945446014,-0.08190027624368668,0.0013500594068318605,-0.019630122929811478,0,-3,-985,-81,2,-19,-2,2,-152,1500.0
17:22:37.003,AUTO,-35.3632618,149.1652368,25161,0.0007440006011165679,0.0031718441750854254,-0.24776653945446014,-0.08190027624368668,0.0013500594068318605,-0.019630122929811478,0,-3,-985,-81,2,-19,-2,2,-152,1500.0
17:22:37.209,AUTO,-35.3632619,149.1652367,26325,0.0033316321205347776,0.004964805208146572,-0.2478841096162796,0.03381245210766792,-0.0020935554057359695,0.013967043720185757,0,-3,-985,-81,2,-19,-5,-3,-153,1500.0
17:22:37.413,AUTO,-35.3632623,149.1652366,27887,0.01191210001707077,0.0012070550583302975,-0.22474905848503113,-0.0033005094155669212,-0.0013720914721488953,0.02489117719233036,0,0,-1000,-2,0,24,-4,5,-153,1500.0
17:22:37.615,AUTO,-35.3632623,149.1652367,28276,0.009899882599711418,0.0009036826668307185,-0.21871832013130188,-0.007881191559135914,0.0015348108718171716,0.023902321234345436,1,0,-1000,-6,2,23,-3,7,-152,1500.0
17:22:37.816,AUTO,-35.3632623,149.1652367,28276,0.009899882599711418,0.0009036826668307185,-0.21871832013130188,-0.007881191559135914,0.0015348108718171716,0.023902321234345436,1,0,-1000,-6,2,23,-3,7,-152,1500.0
17:22:38.022,AUTO,-35.3632623,149.1652367,28276,0.009899882599711418,0.0009036826668307185,-0.21871832013130188,-0.007881191559135914,0.0015348108718171716,0.023902321234345436,1,0,-1000,-6,2,23,-3,7,-152,1500.0
17:22:38.225,AUTO,-35.3632623,149.1652367,28276,0.009899882599711418,0.0009036826668307185,-0.21871832013130188,-0.007881191559135914,0.0015348108718171716,0.023902321234345436,1,0,-1000,-6,2,23,-3,7,-152,1500.0
17:22:38.427,AUTO,-35.3632623,149.1652367,28276,0.009899882599711418,0.0009036826668307185,-0.21871832013130188,-0.007881191559135914,0.0015348108718171716,0.023902321234345436,1,0,-1000,-6,2,23,-3,7,-152,1500.0
17:22:38.633,AUTO,-35.3632623,149.1652367,28276,0.009899882599711418,0.0009036826668307185,-0.21871832013130188,-0.007881191559135914,0.0015348108718171716,0.023902321234345436,1,0,-1000,-6,2,23,-3,7,-152,1500.0
17:22:38.838,AUTO,-35.3632623,149.1652367,28276,0.009899882599711418,0.0009036826668307185,-0.21871832013130188,-0.007881191559135914,0.0015348108718171716,0.023902321234345436,1,0,-1000,-6,2,23,-3,7,-152,1500.0
17:22:39.040,AUTO,-35.3632623,149.1652367,28276,0.009899882599711418,0.0009036826668307185,-0.21871832013130188,-0.007881191559135914,0.0015348108718171716,0.023902321234345436,1,0,-1000,-6,2,23,-3,7,-152,1500.0
17:22:39.245,AUTO,-35.3632624,149.1652377,30613,-0.00010157658834941685,0.0014735331060364842,-0.18297019600868225,0.0039225853979587555,0.0017364820232614875,0.01959359645843506,0,0,-1000,-2,1,18,0,7,-153,1500.0
17:22:39.451,AUTO,-35.3632624,149.1652379,31003,-0.00010157658834941685,0.0014735331060364842,-0.18297019600868225,0.0039225853979587555,0.0017364820232614875,0.01959359645843506,0,0,-1001,4,2,19,0,6,-153,1500.0
17:22:39.652,AUTO,-35.3632624,149.165238,31392,-0.00019255824736319482,0.0014490230241790414,-0.17846350371837616,-0.00138564920052886,-0.0005761461216025054,0.0182352215051651,0,0,-1000,0,0,18,0,5,-153,1500.0
17:22:39.854,AUTO,-35.3632624,149.165238,31392,-0.00019255824736319482,0.0014490230241790414,-0.17846350371837616,-0.00138564920052886,-0.0005761461216025054,0.0182352215051651,0,0,-1000,0,0,18,0,5,-153,1500.0
17:22:40.072,AUTO,-35.3632624,149.165238,31392,-0.00019255824736319482,0.0014490230241790414,-0.17846350371837616,-0.00138564920052886,-0.0005761461216025054,0.0182352215051651,0,0,-1000,0,0,18,0,5,-153,1500.0
17:22:40.275,AUTO,-35.3632624,149.165238,31392,-0.00019255824736319482,0.0014490230241790414,-0.17846350371837616,-0.00138564920052886,-0.0005761461216025054,0.0182352215051651,0,0,-1000,0,0,18,0,5,-153,1500.0
17:22:40.478,AUTO,-35.3632624,149.165238,31392,-0.00019255824736319482,0.0014490230241790414,-0.17846350371837616,-0.00138564920052886,-0.0005761461216025054,0.0182352215051651,0,0,-1000,0,0,18,0,5,-153,1500.0
17:22:40.681,AUTO,-35.3632624,149.165238,31392,-0.00019255824736319482,0.0014490230241790414,-0.17846350371837616,-0.00138564920052886,-0.0005761461216025054,0.0182352215051651,0,0,-1000,0,0,18,0,5,-153,1500.0
17:22:40.884,AUTO,-35.3632624,149.165238,31392,-0.00019255824736319482,0.0014490230241790414,-0.17846350371837616,-0.00138564920052886,-0.0005761461216025054,0.0182352215051651,0,0,-1000,0,0,18,0,5,-153,1500.0
17:22:41.090,AUTO,-35.3632624,149.165238,31392,-0.00019255824736319482,0.0014490230241790414,-0.17846350371837616,-0.00138564920052886,-0.0005761461216025054,0.0182352215051651,0,0,-1000,0,0,18,0,5,-153,1500.0
17:22:41.293,AUTO,-35.3632623,149.1652381,33727,0.0017105271108448505,0.0007585620041936636,-0.15502649545669556,-0.0010217992821708322,-0.0016975405160337687,0.014563110657036304,0,0,-1001,6,0,15,0,0,-153,1500.0
17:22:41.494,AUTO,-35.3632623,149.1652381,34117,0.0019365443149581552,0.0006803086725994945,-0.15157584846019745,0.0015911785885691643,0.0011873631738126278,0.014919043518602848,0,0,-1000,2,2,14,0,0,-153,1500.0
17:22:41.695,AUTO,-35.3632623,149.1652381,34511,0.002265047747641802,0.0008425598498433828,-0.1481907218694687,0.005167796742171049,0.0029140538536012173,0.0152098648250103,0,0,-1000,6,3,15,0,0,-153,1500.0
17:22:41.896,AUTO,-35.3632623,149.1652381,34511,0.002265047747641802,0.0008425598498433828,-0.1481907218694687,0.005167796742171049,0.0029140538536012173,0.0152098648250103,0,0,-1000,6,3,15,0,0,-153,1500.0
17:22:42.098,AUTO,-35.3632623,149.1652381,34511,0.002265047747641802,0.0008425598498433828,-0.1481907218694687,0.005167796742171049,0.0029140538536012173,0.0152098648250103,0,0,-1000,6,3,15,0,0,-153,1500.0
17:22:42.302,AUTO,-35.3632623,149.1652381,34511,0.002265047747641802,0.0008425598498433828,-0.1481907218694687,0.005167796742171049,0.0029140538536012173,0.0152098648250103,0,0,-1000,6,3,15,0,0,-153,1500.0
17:22:42.503,AUTO,-35.3632623,149.1652381,34511,0.002265047747641802,0.0008425598498433828,-0.1481907218694687,0.005167796742171049,0.0029140538536012173,0.0152098648250103,0,0,-1000,6,3,15,0,0,-153,1500.0
17:22:42.707,AUTO,-35.3632623,149.1652381,34511,0.002265047747641802,0.0008425598498433828,-0.1481907218694687,0.005167796742171049,0.0029140538536012173,0.0152098648250103,0,0,-1000,6,3,15,0,0,-153,1500.0
17:22:42.915,AUTO,-35.3632623,149.1652381,34511,0.002265047747641802,0.0008425598498433828,-0.1481907218694687,0.005167796742171049,0.0029140538536012173,0.0152098648250103,0,0,-1000,6,3,15,0,0,-153,1500.0
17:22:43.118,AUTO,-35.3632623,149.1652381,34511,0.002265047747641802,0.0008425598498433828,-0.1481907218694687,0.005167796742171049,0.0029140538536012173,0.0152098648250103,0,0,-1000,6,3,15,0,0,-153,1500.0
17:22:43.322,AUTO,-35.3632622,149.1652379,36066,0.002050726441666484,0.001288035768084228,-0.13640286028385162,-0.000789508456364274,-0.0003220630460418761,0.01292791310697794,0,0,-1000,0,0,12,0,0,-153,1500.0
17:22:43.525,AUTO,-35.3632622,149.1652378,37625,0.0023099463433027267,0.00104450189974159,-0.1257912665605545,0.00015433563385158777,0.002034279517829418,0.0102173937484622,0,0,-1000,5,2,12,0,0,-153,1500.0
17:22:43.728,AUTO,-35.3632622,149.1652378,37625,0.0023099463433027267,0.00104450189974159,-0.1257912665605545,0.00015433563385158777,0.002034279517829418,0.0102173937484622,0,0,-1000,1,2,10,0,0,-153,1500.0
17:22:43.931,AUTO,-35.3632622,149.1652378,37625,0.0023099463433027267,0.00104450189974159,-0.1257912665605545,0.00015433563385158777,0.002034279517829418,0.0102173937484622,0,0,-1000,1,2,10,0,0,-153,1500.0
17:22:44.134,AUTO,-35.3632622,149.1652378,37625,0.0023099463433027267,0.00104450189974159,-0.1257912665605545,0.00015433563385158777,0.002034279517829418,0.0102173937484622,0,0,-1000,1,2,10,0,0,-153,1500.0
17:22:44.338,AUTO,-35.3632622,149.1652378,37625,0.0023099463433027267,0.00104450189974159,-0.1257912665605545,0.00015433563385158777,0.002034279517829418,0.0102173937484622,0,0,-1000,1,2,10,0,0,-153,1500.0
17:22:44.543,AUTO,-35.3632622,149.1652378,37625,0.0023099463433027267,0.00104450189974159,-0.1257912665605545,0.00015433563385158777,0.002034279517829418,0.0102173937484622,0,0,-1000,1,2,10,0,0,-153,1500.0
17:22:44.747,AUTO,-35.3632622,149.1652378,37625,0.0023099463433027267,0.00104450189974159,-0.1257912665605545,0.00015433563385158777,0.002034279517829418,0.0102173937484622,0,0,-1000,1,2,10,0,0,-153,1500.0
17:22:44.951,AUTO,-35.3632622,149.1652378,37625,0.0023099463433027267,0.00104450189974159,-0.1257912665605545,0.00015433563385158777,0.002034279517829418,0.0102173937484622,0,0,-1000,1,2,10,0,0,-153,1500.0
17:22:45.154,AUTO,-35.3632622,149.1652377,38637,0.002878438448533416,0.0012969404924660921,-0.11951123178005219,6.863137241452932e-05,0.0002979246200993657,0.009072501212358475,0,0,-1000,1,2,10,0,0,-153,1500.0
17:22:45.359,AUTO,-35.3632621,149.1652375,40201,0.003075825050473213,0.0015246440889313817,-0.11150401085615158,0.003166663460433483,-0.000919138197787106,0.009277635253965855,0,0,-1001,4,0,9,0,0,-153,1500.0
17:22:45.561,AUTO,-35.3632621,149.1652375,40591,0.0030022377613931894,0.0014820973156020045,-0.10952106863260269,-0.003441253211349249,0.00033167621586471796,0.007172084879130125,0,0,-999,-2,1,7,0,0,-153,1500.0
17:22:49.337,AUTO,-35.3632621,149.1652375,40591,0.0030022377613931894,0.0014820973156020045,-0.10952106863260269,-0.003441253211349249,0.00033167621586471796,0.007172084879130125,0,0,-999,-2,1,7,0,0,-153,1500.0
17:22:49.541,AUTO,-35.3632621,149.1652375,40591,0.0030022377613931894,0.0014820973156020045,-0.10952106863260269,-0.003441253211349249,0.00033167621586471796,0.007172084879130125,0,0,-999,-2,1,7,0,0,-153,1500.0
17:22:49.742,AUTO,-35.3632621,149.1652375,40591,0.0030022377613931894,0.0014820973156020045,-0.10952106863260269,-0.003441253211349249,0.00033167621586471796,0.007172084879130125,0,0,-999,-2,1,7,0,0,-153,1500.0
17:22:49.944,AUTO,-35.3632621,149.1652375,40591,0.0030022377613931894,0.0014820973156020045,-0.10952106863260269,-0.003441253211349249,0.00033167621586471796,0.007172084879130125,0,0,-999,-2,1,7,0,0,-153,1500.0
17:22:50.146,AUTO,-35.3632621,149.1652375,40591,0.0030022377613931894,0.0014820973156020045,-0.10952106863260269,-0.003441253211349249,0.00033167621586471796,0.007172084879130125,0,0,-999,-2,1,7,0,0,-153,1500.0
17:22:50.353,AUTO,-35.3632621,149.1652375,40591,0.0030022377613931894,0.0014820973156020045,-0.10952106863260269,-0.003441253211349249,0.00033167621586471796,0.007172084879130125,0,0,-999,-2,1,7,0,0,-153,1500.0
17:22:50.556,AUTO,-35.3632621,149.1652375,40591,0.0030022377613931894,0.0014820973156020045,-0.10952106863260269,-0.003441253211349249,0.00033167621586471796,0.007172084879130125,0,0,-999,-2,1,7,0,0,-153,1500.0
17:22:50.758,AUTO,-35.3632621,149.1652375,41755,0.0027846626471728086,0.0013448746176436543,-0.10426260530948639,-0.0008797220652922988,0.0005045908037573099,0.007793281227350235,0,0,-999,-2,1,7,0,0,-153,1500.0
17:22:50.961,AUTO,-35.363262,149.1652374,43313,0.0027049588970839977,0.0014773382572457194,-0.09766927361488342,-0.000472458079457283,0.0001555995550006628,0.004510040394961834,0,0,-1000,0,1,4,-1,1,-153,1500.0
17:22:51.166,AUTO,-35.363262,149.1652374,43313,0.0027049588970839977,0.0014773382572457194,-0.09766927361488342,-0.000472458079457283,0.0001555995550006628,0.004510040394961834,0,0,-1000,0,1,4,-1,1,-153,1500.0
17:22:51.381,AUTO,-35.363262,149.1652374,43313,0.0027049588970839977,0.0014773382572457194,-0.09766927361488342,-0.000472458079457283,0.0001555995550006628,0.004510040394961834,0,0,-1000,0,1,4,-1,1,-153,1500.0
17:22:51.591,AUTO,-35.363262,149.1652374,43313,0.0027049588970839977,0.0014773382572457194,-0.09766927361488342,-0.000472458079457283,0.0001555995550006628,0.004510040394961834,0,0,-1000,0,1,4,-1,1,-153,1500.0
17:22:51.806,AUTO,-35.363262,149.1652374,43313,0.0027049588970839977,0.0014773382572457194,-0.09766927361488342,-0.000472458079457283,0.0001555995550006628,0.004510040394961834,0,0,-1000,0,1,4,-1,1,-153,1500.0
17:22:52.013,AUTO,-35.363262,149.1652374,43313,0.0027049588970839977,0.0014773382572457194,-0.09766927361488342,-0.000472458079457283,0.0001555995550006628,0.004510040394961834,0,0,-1000,0,1,4,-1,1,-153,1500.0
17:22:52.256,AUTO,-35.363262,149.1652374,43313,0.0027049588970839977,0.0014773382572457194,-0.09766927361488342,-0.000472458079457283,0.0001555995550006628,0.004510040394961834,0,0,-1000,0,1,4,-1,1,-153,1500.0
17:22:52.465,AUTO,-35.363262,149.1652374,44408,0.002406064420938492,0.0012318399967625737,-0.09332983195781708,0.0020255015697330236,-0.00048671523109078407,0.006097892299294472,0,0,-1000,3,0,6,-1,1,-153,1500.0
17:22:52.715,AUTO,-35.363262,149.1652373,45967,0.002657945267856121,0.0010175221832469106,-0.08750565350055695,0.0006092853145673871,0.0012649026466533542,0.007028977852314711,0,0,-1000,1,2,7,-1,1,-153,1500.0
17:22:52.918,AUTO,-35.363262,149.1652373,45967,0.002657945267856121,0.0010175221832469106,-0.08750565350055695,0.0006092853145673871,0.0012649026466533542,0.007028977852314711,0,0,-1000,1,2,7,-1,1,-153,1500.0
17:22:53.121,AUTO,-35.363262,149.1652373,45967,0.002657945267856121,0.0010175221832469106,-0.08750565350055695,0.0006092853145673871,0.0012649026466533542,0.007028977852314711,0,0,-1000,1,2,7,-1,1,-153,1500.0
17:22:53.325,AUTO,-35.363262,149.1652373,45967,0.002657945267856121,0.0010175221832469106,-0.08750565350055695,0.0006092853145673871,0.0012649026466533542,0.007028977852314711,0,0,-1000,1,2,7,-1,1,-153,1500.0
17:22:53.530,AUTO,-35.363262,149.1652373,45967,0.002657945267856121,0.0010175221832469106,-0.08750565350055695,0.0006092853145673871,0.0012649026466533542,0.007028977852314711,0,0,-1000,1,2,7,-1,1,-153,1500.0
17:22:53.741,AUTO,-35.363262,149.1652373,45967,0.002657945267856121,0.0010175221832469106,-0.08750565350055695,0.0006092853145673871,0.0012649026466533542,0.007028977852314711,0,0,-1000,1,2,7,-1,1,-153,1500.0
17:22:53.943,AUTO,-35.363262,149.1652373,45967,0.002657945267856121,0.0010175221832469106,-0.08750565350055695,0.0006092853145673871,0.0012649026466533542,0.007028977852314711,0,0,-1000,1,2,7,-1,1,-153,1500.0
17:22:54.145,AUTO,-35.363262,149.1652373,45967,0.002657945267856121,0.0010175221832469106,-0.08750565350055695,0.0006092853145673871,0.0012649026466533542,0.007028977852314711,0,0,-1000,1,2,7,-1,1,-153,1500.0
17:22:54.348,AUTO,-35.363262,149.1652373,45967,0.002657945267856121,0.0010175221832469106,-0.08750565350055695,0.0006092853145673871,0.0012649026466533542,0.007028977852314711,0,0,-1000,1,2,7,-1,1,-153,1500.0
17:22:54.552,AUTO,-35.3632622,149.165237,47786,-0.058372870087623596,0.06821852922439575,0.12824085354804993,-0.1036524772644043,0.04650280252099037,0.5342792868614197,0,0,-973,-128,123,393,-18,-15,-135,1500.0
17:22:54.755,AUTO,-35.3632645,149.1652333,48896,0.023114629089832306,-0.05238708481192589,0.309375137090683,0.028513863682746887,-0.029891958460211754,0.008981741033494473,1,6,-960,29,-28,9,-15,-27,-85,1500.0
17:22:54.959,AUTO,-35.3632645,149.1652333,48896,0.023114629089832306,-0.05238708481192589,0.309375137090683,0.028513863682746887,-0.029891958460211754,0.008981741033494473,1,6,-960,29,-28,9,-15,-27,-85,1500.0
17:22:55.162,AUTO,-35.3632645,149.1652333,48896,0.023114629089832306,-0.05238708481192589,0.309375137090683,0.028513863682746887,-0.029891958460211754,0.008981741033494473,1,6,-960,29,-28,9,-15,-27,-85,1500.0
17:22:55.365,AUTO,-35.3632645,149.1652333,48896,0.023114629089832306,-0.05238708481192589,0.309375137090683,0.028513863682746887,-0.029891958460211754,0.008981741033494473,1,6,-960,29,-28,9,-15,-27,-85,1500.0
17:22:55.567,AUTO,-35.3632645,149.1652333,48896,0.023114629089832306,-0.05238708481192589,0.309375137090683,0.028513863682746887,-0.029891958460211754,0.008981741033494473,1,6,-960,29,-28,9,-15,-27,-85,1500.0
17:22:55.769,AUTO,-35.3632645,149.1652333,48896,0.023114629089832306,-0.05238708481192589,0.309375137090683,0.028513863682746887,-0.029891958460211754,0.008981741033494473,1,6,-960,29,-28,9,-15,-27,-85,1500.0
17:22:55.973,AUTO,-35.3632645,149.1652333,48896,0.023114629089832306,-0.05238708481192589,0.309375137090683,0.028513863682746887,-0.029891958460211754,0.008981741033494473,1,6,-960,29,-28,9,-15,-27,-85,1500.0
17:22:56.178,AUTO,-35.3632645,149.1652333,48896,0.023114629089832306,-0.05238708481192589,0.309375137090683,0.028513863682746887,-0.029891958460211754,0.008981741033494473,1,6,-960,29,-28,9,-15,-27,-85,1500.0
17:22:56.385,AUTO,-35.3632645,149.1652333,48896,0.023114629089832306,-0.05238708481192589,0.309375137090683,0.028513863682746887,-0.029891958460211754,0.008981741033494473,1,6,-960,29,-28,9,-15,-27,-85,1500.0
17:22:56.594,AUTO,-35.3632632,149.1652342,49862,0.01863204874098301,-0.0036371746100485325,0.25923746824264526,-0.384969562292099,0.040830209851264954,-0.03407346457242966,-2,-41,-975,-386,41,-33,20,28,-37,1500.0
17:22:56.816,AUTO,-35.3632627,149.165235,49953,0.009789058938622475,0.0036586569622159004,0.2511862516403198,-0.40325361490249634,0.023187842220067978,-0.025644782930612564,-2,-18,-980,-400,24,-25,19,30,-33,1500.0
17:22:57.027,AUTO,-35.3632627,149.165235,49953,0.009789058938622475,0.0036586569622159004,0.2511862516403198,-0.40325361490249634,0.023187842220067978,-0.025644782930612564,-2,-18,-980,-400,24,-25,19,30,-33,1500.0
17:22:57.276,AUTO,-35.3632627,149.165235,49953,0.009789058938622475,0.0036586569622159004,0.2511862516403198,-0.40325361490249634,0.023187842220067978,-0.025644782930612564,-2,-18,-980,-400,24,-25,19,30,-33,1500.0
17:22:57.498,AUTO,-35.3632627,149.165235,49953,0.009789058938622475,0.0036586569622159004,0.2511862516403198,-0.40325361490249634,0.023187842220067978,-0.025644782930612564,-2,-18,-980,-400,24,-25,19,30,-33,1500.0
17:22:57.701,AUTO,-35.3632627,149.165235,49953,0.009789058938622475,0.0036586569622159004,0.2511862516403198,-0.40325361490249634,0.023187842220067978,-0.025644782930612564,-2,-18,-980,-400,24,-25,19,30,-33,1500.0
17:22:57.916,AUTO,-35.3632627,149.165235,49953,-0.009548429399728775,0.01249969843775034,0.23573338985443115,-0.7759081721305847,0.013408806174993515,-0.02384069561958313,-2,-18,-980,-400,24,-25,19,30,-33,1500.0
17:22:58.119,AUTO,-35.3632612,149.1652384,50183,-0.010050520300865173,0.015423120930790901,0.22140735387802124,0.3438386917114258,0.07867944240570068,0.129743754863739,-3,36,-958,349,80,130,5,17,0,1500.0
17:22:58.324,AUTO,-35.3632611,149.1652386,50158,-0.0215000007301569,0.03792266175150871,0.21074670553207397,0.9430981874465942,-0.023043246939778328,-0.02352805994451046,2,47,-972,947,-21,-23,0,9,15,1500.0
17:22:58.528,AUTO,-35.3632611,149.1652386,50158,-0.0215000007301569,0.03792266175150871,0.21074670553207397,0.9430981874465942,-0.023043246939778328,-0.02352805994451046,2,47,-972,947,-21,-23,0,9,15,1500.0
17:22:58.731,AUTO,-35.3632611,149.1652386,50158,-0.0215000007301569,0.03792266175150871,0.21074670553207397,0.9430981874465942,-0.023043246939778328,-0.02352805994451046,2,47,-972,947,-21,-23,0,9,15,1500.0
17:22:58.935,AUTO,-35.3632611,149.1652386,50158,-0.0215000007301569,0.03792266175150871,0.21074670553207397,0.9430981874465942,-0.023043246939778328,-0.02352805994451046,2,47,-972,947,-21,-23,0,9,15,1500.0
17:22:59.138,AUTO,-35.3632611,149.1652386,50158,-0.0215000007301569,0.03792266175150871,0.21074670553207397,0.9430981874465942,-0.023043246939778328,-0.02352805994451046,2,47,-972,947,-21,-23,0,9,15,1500.0
17:22:59.347,AUTO,-35.3632611,149.1652386,50158,-0.0215000007301569,0.03792266175150871,0.21074670553207397,0.9430981874465942,-0.023043246939778328,-0.02352805994451046,2,47,-972,947,-21,-23,0,9,15,1500.0
17:22:59.548,AUTO,-35.3632612,149.1652383,50001,0.04664887115359306,-0.03330793231725693,0.18772770464420319,0.6922682523727417,-0.02454252354800701,-0.02533719502389431,0,39,-1011,697,-23,-24,6,18,5,1500.0
17:22:59.751,AUTO,-35.363261,149.1652388,49989,0.05918149650096893,-0.039588335901498795,0.18282265961170197,0.7353395223617554,-0.02824615314602852,-0.0174519345164299,-1,17,-1011,735,-27,-16,13,27,3,1500.0
17:22:59.953,AUTO,-35.3632606,149.1652395,49982,0.0646531730890274,-0.04737236350774765,0.17743416130542755,0.1735793501138687,-0.03749287500977516,-0.01845024712383747,0,-24,-997,170,-36,-18,21,39,1,1500.0
17:23:00.154,AUTO,-35.3632601,149.1652405,49977,0.07017271220684052,-0.06017846614122391,0.20531143248081207,-0.4829343259334564,-0.07679777592420578,0.31973254680633545,-1,-49,-1007,-485,-75,320,31,52,0,1500.0
17:23:00.356,AUTO,-35.3632601,149.1652405,49977,0.07017271220684052,-0.06017846614122391,0.20531143248081207,-0.4829343259334564,-0.07679777592420578,0.31973254680633545,-1,-49,-1007,-485,-75,320,31,52,0,1500.0
17:23:00.561,AUTO,-35.3632601,149.1652405,49977,0.07017271220684052,-0.06017846614122391,0.20531143248081207,-0.4829343259334564,-0.07679777592420578,0.31973254680633545,-1,-49,-1007,-485,-75,320,31,52,0,1500.0
17:23:00.765,AUTO,-35.3632601,149.1652405,49977,0.07017271220684052,-0.06017846614122391,0.20531143248081207,-0.4829343259334564,-0.07679777592420578,0.31973254680633545,-1,-49,-1007,-485,-75,320,31,52,0,1500.0
17:23:00.969,AUTO,-35.3632601,149.1652405,49977,0.07017271220684052,-0.06017846614122391,0.20531143248081207,-0.4829343259334564,-0.07679777592420578,0.31973254680633545,-1,-49,-1007,-485,-75,320,31,52,0,1500.0
17:23:01.177,AUTO,-35.3632601,149.1652405,49977,0.07017271220684052,-0.06017846614122391,0.20531143248081207,-0.4829343259334564,-0.07679777592420578,0.31973254680633545,-1,-49,-1007,-485,-75,320,31,52,0,1500.0
17:23:01.397,AUTO,-35.3632601,149.1652405,49977,0.07017271220684052,-0.06017846614122391,0.20531143248081207,-0.4829343259334564,-0.07679777592420578,0.31973254680633545,-1,-49,-1007,-485,-75,320,31,52,0,1500.0
17:23:01.607,AUTO,-35.3632601,149.1652405,49977,0.07017271220684052,-0.06017846614122391,0.20531143248081207,-0.4829343259334564,-0.07679777592420578,0.31973254680633545,-1,-49,-1007,-485,-75,320,31,52,0,1500.0
17:23:01.832,AUTO,-35.3632601,149.1652405,49977,0.07017271220684052,-0.06017846614122391,0.20531143248081207,-0.4829343259334564,-0.07679777592420578,0.31973254680633545,-1,-49,-1007,-485,-75,320,31,52,0,1500.0
17:23:02.048,AUTO,-35.3632531,149.1652536,49961,0.006891366094350815,-0.1453832983970642,1.1486626863479614,0.37312114238739014,-0.0315900519490242,0.5855832099914551,-30,11,-1012,579,-34,758,96,149,1,1500.0
17:23:02.253,BRAKE,-35.3632452,149.1652689,49948,-0.010291492566466331,-0.1745932251214981,1.2269372940063477,-0.012969374656677246,-0.023224227130413055,-0.12456075102090836,-54,-1,-1000,-8,-21,-124,142,218,0,1500.0
