time_stamp,RTL_ALT,MODE,roll,pitch,yaw,rollspeed,pitchspeed,yawspeed,lat,lon,relative_alt,vx,vy,vz,xacc,yacc,zacc,xgyro,ygyro,zgyro
04:57:24,1500.0,STABILIZE,1.6975631297100335e-05,0.0015902321320027113,0.028999507427215576,0.00010978139471262693,0.00028377718990668654,0.002438195049762726,-35.3632621,149.1652374,56.0,-1.0,1.0,-1.0,0.0,1.0,-1000.0,0.0,0.0,0.0
04:57:26,1500.0,STABILIZE,-0.00011400705261621624,0.0013588563306257129,0.027415774762630463,0.00024134432896971703,0.00028501811902970076,0.002181846648454666,-35.3632622,149.1652375,26.0,-2.0,2.0,1.0,0.0,1.0,-1000.0,0.0,0.0,0.0
04:57:28,1500.0,STABILIZE,-0.000801646092440933,0.0009978733723983169,0.026353590190410614,0.00026949314633384347,0.00018954731058329344,0.0020581951830536127,-35.3632622,149.1652375,12.0,-1.0,1.0,0.0,0.0,1.0,-1000.0,0.0,0.0,0.0
04:57:38,1500.0,AUTO,-0.0007775462290737778,0.0009833761723712087,0.0228293864056468,0.0002543515875004232,0.00026694510597735643,0.001664589624851942,-35.3632622,149.1652375,8.0,-1.0,1.0,0.0,0.0,1.5,-1000.0,0.0,0.5,0.0
04:57:40,39090.5,AUTO,-7.893750262155663e-05,0.0013603403349407017,0.022203520871698856,0.00018025015015155077,0.00028363504679873586,0.0015278577920980752,-35.3632621,149.1652375,3.0,0.0,0.0,1.0,0.0,1.0,-1000.0,0.5,0.0,0.5
04:57:42,76681.0,AUTO,0.0031894014682620764,0.0006776342488592491,0.021769694983959198,-0.0018640668131411076,0.0034434442641213536,0.0017856362101156265,-35.3632621,149.1652375,304.0,0.0,0.5,-84.0,0.0,0.0,-1118.5,-1.5,3.5,1.5
04:57:44,76681.0,AUTO,0.05296073108911514,0.0009605544619262218,-0.017973276786506176,-0.06605067348573357,0.057073157746344805,-0.07080367766320705,-35.3632615,149.16524035,3119.5,9.0,47.0,-146.5,2.0,-9.5,-992.5,-65.5,57.5,-71.0
04:57:45,187238.0,AUTO,-0.04783338541164994,0.0008231800748035312,-0.06920956261456013,-0.06274040974676609,0.019882582128047943,-0.05155555671080947,-35.363260499999996,149.165246025,5026.5,7.5,19.25,-149.0,1.5,-6.25,-1000.5,-61.5,20.25,-51.5
04:57:46,187238.0,AUTO,-0.07547624036669731,0.014918720349669456,-0.11355847492814064,0.04636462777853012,0.002413954585790634,-0.04041881859302521,-35.36326015,149.165246,6179.5,-2.5,-31.0,-149.0,-2.5,3.0,-1003.0,46.5,3.0,-40.5
04:57:48,187238.0,AUTO,0.051680782809853554,0.014859184622764587,-0.12768742069602013,0.022132319398224354,-0.05238175578415394,0.04413048713468015,-35.3632644,149.1652341,9266.0,-41.5,-29.5,-152.5,2.5,13.0,-999.5,22.5,-51.5,43.0
04:57:50,181696.0,AUTO,-0.00955435773357749,-0.030789474491029978,-0.0512907300144434,-0.15054264292120934,0.14762165397405624,-0.14034003391861916,-35.36326365,149.16523734999998,12347.5,68.5,44.5,-145.0,-5.5,-16.5,-1006.5,-149.5,147.5,-140.0
04:57:52,176154.0,AUTO,-0.00655513844685629,0.05744440481066704,-0.22558332234621048,0.058782435953617096,0.005371930310502648,-0.021147374995052814,-35.36325735,149.16523615,15454.0,-22.0,-31.5,-153.0,-3.5,7.0,-1000.0,59.0,5.5,-21.0
04:57:54,176154.0,AUTO,-0.030858997721225023,-0.043237095698714256,0.006060636602342129,0.12475984171032906,0.0314340777695179,0.13717526569962502,-35.36326455,149.16523365,18477.0,-12.0,-14.5,-123.5,1.5,4.0,-933.0,124.5,31.5,136.0
04:57:55,68134.0,AUTO,0.04552638065069914,-0.004833901548408903,0.012935626553371549,-0.014185417909175158,0.028539213817566633,-0.007878298056311905,-35.363263875,149.165232525,19593.25,14.25,13.75,-60.5,-1.75,-3.5,-965.0,-13.25,28.5,-8.0
04:57:56,68134.0,AUTO,0.021980068646371365,0.010701310355216265,0.01005805330350995,-0.03496039658784866,0.013872068841010332,0.0015905537875369191,-35.363262750000004,149.1652342,19977.5,13.0,32.0,-39.5,0.5,-7.5,-977.0,-34.0,14.0,1.0
04:57:58,68134.0,AUTO,-0.049456944689154625,0.01541327266022563,0.0041224658489227295,-0.016884297132492065,-0.005781368585303426,-0.001764632630511187,-35.363261550000004,149.16523925,20251.5,-4.5,1.5,19.0,0.0,12.5,-973.0,-15.0,-4.5,-1.5
04:58:00,89694.5,AUTO,-0.07617291808128357,0.0052924929186701775,-0.09649250097572803,-0.06842684000730515,0.010243138298392296,-0.2938334345817566,-35.363264099999995,149.16523135,20031.5,-27.5,-78.0,-3.5,-4.0,26.0,-1010.5,-67.0,11.0,-294.0
04:58:02,111255.0,AUTO,-0.11886855959892273,-0.1469111368060112,-0.9857230186462402,-0.08414706587791443,-0.035770975053310394,-0.4811912477016449,-35.36327300000001,149.1652017,20034.0,-78.0,-249.5,0.5,-55.0,8.0,-1001.0,-84.5,-34.5,-481.0
04:58:04,111255.0,AUTO,0.06918327510356903,-0.20959340780973434,-1.897244393825531,0.04069543443620205,0.00545544212218374,-0.12203584890812635,-35.36329265,149.16512734999998,19992.5,-140.0,-458.5,2.5,-90.0,-58.5,-1001.0,40.5,6.5,-121.5
04:58:05,220564.0,AUTO,0.07401338964700699,-0.16955549269914627,-1.8629372417926788,0.024938611197285354,0.025801532086916268,0.003936746041290462,-35.363310175,149.16505719999998,20005.5,-168.0,-549.75,-5.75,-109.0,-66.5,-991.75,24.25,26.25,3.75
04:58:06,220564.0,AUTO,0.07635046914219856,-0.15442842990159988,-1.8641310334205627,-0.00696756923571229,0.028133200481534004,-0.00029713893309235573,-35.3633219,149.1650102,20038.0,-178.5,-581.0,-5.5,-117.0,-74.0,-990.0,-6.5,28.5,-0.5
04:58:08,220564.0,AUTO,0.08152135834097862,-0.12182962521910667,-1.8647456765174866,-0.0016246706945821643,-0.0004795556887984276,-0.001348917547147721,-35.36335545,149.16487725,20098.5,-185.5,-602.0,-2.0,-123.5,-71.0,-986.5,-1.5,0.5,-1.5
04:58:10,220564.0,AUTO,0.08534952998161316,-0.04840742610394955,-1.8641354441642761,0.0036493539810180664,0.0629542488604784,-0.002897459315136075,-35.3633886,149.1647477,20138.0,-165.5,-546.0,-5.0,-119.0,-62.0,-992.5,3.5,63.5,-3.5
04:58:11,43276.0,AUTO,0.07141719572246075,0.018200523511040956,-1.8612608313560486,-0.031754665076732635,0.056548379361629486,-0.016611654311418533,-35.363405775,149.164679,20141.25,-130.75,-439.25,0.25,-91.5,-60.5,-1000.75,-31.25,57.0,-16.75
04:58:12,43276.0,AUTO,0.06696275807917118,0.05223199911415577,-1.8603065609931946,-0.04825505614280701,0.000729474239051342,0.02091505820862949,-35.36341415,149.16464555,20111.5,-104.0,-354.5,1.0,-72.0,-67.5,-996.0,-49.0,1.5,19.5
04:58:14,43276.0,AUTO,0.0245087668299675,0.0720866471529007,-1.861897885799408,-0.474060982465744,-0.019336139783263206,-0.005843547754921019,-35.363427349999995,149.16459185000002,20031.0,-33.5,-142.5,-2.0,-28.5,-31.0,-1013.5,-473.0,-18.0,-6.5
04:58:16,74240.0,AUTO,0.012936791870743036,0.026065107434988022,-1.8653360605239868,0.44232864677906036,-0.01960744708776474,-0.0012215212627779692,-35.3634309,149.1645775,20025.0,1.5,-21.0,-2.0,-2.0,25.5,-995.0,442.5,-18.5,-1.5
04:58:18,105204.0,RTL,-0.0006858303677290678,-0.016817975789308548,-1.8660566806793213,0.1486888974905014,-0.03552919812500477,-0.006733690854161978,-35.36343015,149.1645772,20039.0,-5.0,-2.5,-1.5,0.0,17.0,-999.5,150.0,-34.5,-7.0
04:58:20,105204.0,RTL,0.004196362802758813,0.0006054421392036602,-1.8681585788726807,-0.26006486266851425,-0.00386580458143726,-0.0008189394138753414,-35.363430550000004,149.16457574999998,20217.0,-2.5,-5.0,-35.5,-1.0,-10.0,-1050.0,-259.5,-2.5,-0.5
04:58:21,6986.0,RTL,0.011459429748356342,-0.003145889611914754,-1.870248407125473,-0.028669716557487845,-0.0018823232676368207,0.0021117964206496254,-35.363431125,149.164575875,21051.5,1.5,-1.0,-93.5,-0.75,0.75,-1045.25,-28.25,-0.5,1.25
04:58:22,6986.0,RTL,0.01420833682641387,-0.003701166366226971,-1.870522677898407,0.0010711164213716984,0.0007668801117688417,0.002352695562876761,-35.363431500000004,149.16457605,21880.5,4.5,-1.0,-126.5,0.0,1.0,-1044.0,1.5,1.0,1.0
04:58:24,6986.0,RTL,0.054506124928593636,0.002935298252850771,-1.892132580280304,-0.1794179603457451,0.07307936251163483,-0.09218666329979897,-35.363429100000005,149.16457450000001,24845.0,58.0,-28.0,-144.5,2.5,-11.5,-982.5,-178.0,73.5,-92.0
04:58:26,6986.0,RTL,-0.024553700350224972,-0.0032643155427649617,-1.9568195939064026,0.060977719724178314,0.004674888215959072,-0.002463809389155358,-35.36342765,149.1645737,27890.5,-33.5,19.5,-149.0,-3.0,8.5,-1000.5,61.5,5.0,-2.5
04:58:27,89970.0,RTL,0.041772414930164814,-0.007461299421265721,-1.9459563195705414,0.021898369886912405,-0.032106369151733816,0.03891279734671116,-35.3634319,149.16457705000002,29834.75,-15.0,19.5,-151.25,-1.75,7.75,-999.75,22.75,-31.0,38.25
04:58:28,89970.0,RTL,0.029158166609704494,-0.027539200149476528,-1.9188200235366821,-0.043244365602731705,0.02780304756015539,-0.002333390526473522,-35.363432849999995,149.16457805,31003.0,4.0,-0.5,-149.5,-1.0,1.0,-998.5,-42.0,28.0,-2.5
04:58:30,89970.0,RTL,0.009864088613539934,0.0071580782532691956,-1.97959703207016,0.007901425939053297,0.002765931305475533,-0.020943477749824524,-35.36343345,149.1645761,34111.5,3.5,-2.0,-151.0,-1.0,0.0,-1000.0,8.5,3.5,-20.0
04:58:32,124380.0,RTL,0.009111865423619747,0.001535191317088902,-2.011242628097534,-0.005093906074762344,-0.004624776775017381,-0.013853473123162985,-35.363433150000006,149.1645759,37223.5,12.0,4.0,-151.0,1.0,0.0,-1000.0,-3.5,-3.0,-13.5
04:58:34,158790.0,RTL,0.006084518739953637,-0.0017506813746877015,-2.0557730197906494,0.0006044795736670494,-0.0006616967730224133,-0.02074710000306368,-35.363432149999994,149.16457615000002,40336.0,8.0,2.0,-152.0,0.5,0.0,-1000.0,1.0,0.5,-20.5
04:58:36,158790.0,RTL,0.008369999472051859,-0.0013153342879377306,-2.103137969970703,-6.502668838948011e-06,0.0002338985214009881,-0.02092224359512329,-35.363431750000004,149.1645763,43461.0,7.0,1.0,-152.0,0.0,0.0,-1000.0,0.5,1.5,-20.5
04:58:37,21644.0,RTL,0.00745232542976737,-0.001335779728833586,-2.1306058168411255,0.00039434010977856815,-1.4733814168721437e-05,-0.019825383089482784,-35.363431549999994,149.1645763,45409.0,6.0,0.0,-152.0,0.0,0.0,-1000.0,1.25,1.25,-18.75
04:58:38,21644.0,RTL,0.007829452631995082,-0.0010655325895641,-2.146499276161194,0.002457257069181651,0.002044707303866744,-0.0162209733389318,-35.3634315,149.1645763,46580.0,6.0,0.0,-152.0,0.0,0.0,-999.5,3.5,2.5,-15.5
04:58:40,21644.0,RTL,0.006918760482221842,-0.0009124484058702365,-2.1158409118652344,-0.0052115709986537695,-0.002573003643192351,0.029784783720970154,-35.36343085,149.1645763,49681.5,9.0,1.0,-151.0,0.5,0.0,-1000.0,-3.5,-0.5,30.0
04:58:42,21644.0,RTL,0.005016117123886943,-0.003400566754862666,-2.06697678565979,-0.0015240197535604239,-0.0009966708603315055,0.020404932089149952,-35.3634304,149.1645764,52788.5,3.5,0.0,-152.0,0.0,0.0,-1000.0,0.0,0.5,21.0
04:58:43,111847.0,RTL,0.006413185736164451,-0.003640556533355266,-2.0446160435676575,0.0003881295560859144,0.00014958788233343512,0.018996939063072205,-35.3634304,149.1645764,54725.0,1.25,0.0,-152.0,0.0,0.0,-999.5,1.5,1.0,19.25
04:58:44,111847.0,RTL,0.006453186739236116,-0.003581671859137714,-2.032896399497986,-0.001762191066518426,0.0005274188588373363,0.016603225842118263,-35.363430449999996,149.1645764,55891.5,1.0,0.0,-152.0,0.0,0.0,-999.5,0.0,1.5,17.0
04:58:46,111847.0,RTL,0.007537531899288297,-0.002843259950168431,-2.0071632862091064,-0.002120407414622605,-0.00037110570701770484,0.012152272742241621,-35.3634307,149.1645764,58992.5,1.0,0.0,-152.0,0.0,0.0,-1000.0,-0.5,0.5,12.5
04:58:48,68195.0,RTL,0.007113015744835138,-0.002796319196932018,-1.988222897052765,-0.0008005467825569212,4.102429375052452e-05,0.00977553753182292,-35.3634308,149.1645764,62098.0,2.0,0.0,-152.0,0.0,0.0,-1000.0,0.5,0.5,10.0
04:58:50,24543.0,RTL,0.006871642544865608,-0.00282773922663182,-1.9733548760414124,0.0020318341557867825,0.0007680321577936411,0.00906803971156478,-35.3634309,149.1645763,65207.5,2.0,0.0,-152.0,0.0,0.0,-1000.0,3.0,2.0,9.5
04:58:52,24543.0,RTL,0.006756625836715102,-0.0025367812486365438,-1.9612946510314941,0.0009393746731802821,-0.0002674520364962518,0.0072922902181744576,-35.3634309,149.1645763,68313.0,2.0,0.0,-152.0,0.0,0.0,-999.5,2.0,1.0,8.0
04:58:53,94477.0,RTL,0.006949199363589287,-0.0027636478189378977,-1.9542986154556274,0.0014379157801158726,0.0008323345973622054,0.006220782408490777,-35.3634309,149.1645762,70256.0,2.0,0.0,-152.0,0.0,0.0,-1000.25,2.5,2.0,7.0
04:58:54,94477.0,RTL,0.006831583101302385,-0.0024799263337627053,-1.9505469799041748,-0.0014162346487864852,0.0016612570034340024,0.006056716665625572,-35.3634309,149.1645762,71426.0,2.0,0.0,-152.0,0.0,0.0,-999.5,0.5,2.5,7.0
04:58:56,94477.0,RTL,0.007108670426532626,-0.0023437966592609882,-1.9413958191871643,-0.00019191065803170204,-0.0006011466612108052,0.004874752834439278,-35.3634309,149.1645762,74523.0,2.0,0.0,-152.0,0.0,0.0,-1000.5,1.0,0.5,5.5
04:58:58,94477.0,RTL,0.007071865722537041,-0.002718501491472125,-1.9323293566703796,-0.0018227015971206129,-0.00020061811665073037,0.003875160706229508,-35.363431,149.1645762,77636.0,2.0,0.0,-152.0,0.0,0.0,-1000.0,0.0,1.0,4.5
04:58:59,282785.0,RTL,0.007075964822433889,-0.0028870220412500203,-1.9277763962745667,-2.931637573055923e-05,-0.0006879105058033019,0.005081438925117254,-35.363431,149.1645762,79580.25,2.0,0.0,-152.0,0.0,0.0,-1000.25,1.5,0.75,5.75
04:59:00,282785.0,RTL,0.006681389641016722,-0.003038956318050623,-1.9251473546028137,-0.001082318660337478,0.0008693519048392773,0.0050346325151622295,-35.363431,149.1645762,80746.0,2.0,0.0,-152.0,0.0,0.0,-999.5,0.5,2.0,6.0
04:59:02,282785.0,RTL,0.006844752700999379,-0.0027540922164916992,-1.9189791083335876,-0.0010684781591407955,0.0005126770120114088,0.0027802081895060837,-35.363431,149.1645762,83852.5,2.0,0.0,-152.0,0.0,0.0,-999.5,0.5,2.0,4.0
04:59:04,176162.0,RTL,0.006822958821430802,-0.002324978238902986,-1.9136714339256287,0.0008743542130105197,0.0006928995717316866,0.003204391337931156,-35.363431,149.1645762,86955.0,2.0,0.0,-152.0,0.0,0.0,-1000.5,2.5,2.0,4.0
04:59:06,69539.0,RTL,0.006886795395985246,-0.002703160746023059,-1.9091635942459106,0.0006315398495644331,8.93285614438355e-05,0.0014160507125779986,-35.363431,149.1645762,90060.5,2.0,0.0,-152.0,0.0,0.0,-1000.5,2.5,1.5,2.5
04:59:08,69539.0,RTL,0.007326239099105199,-0.0025235057498017945,-1.9051146904627483,-0.0004304570611566305,0.0005819043144583702,0.0020097518184532723,-35.363431,149.1645762,92976.66666666667,2.0,0.0,-152.0,0.0,0.0,-1000.3333333333334,1.0,2.3333333333333335,3.0
04:59:09,193120.0,RTL,0.006730072355518739,-0.0024462250682214894,-1.9029202461242676,0.0007425264921039343,0.00028717878740280867,0.0022355291293933988,-35.363431,149.1645762,95069.33333333333,2.0,0.0,-152.0,0.0,0.0,-1000.3333333333334,2.0,1.6666666666666667,3.3333333333333335
04:59:10,193120.0,RTL,0.006752468490352233,-0.002553897754599651,-1.9013011455535889,-0.00018034006158510843,-0.00016354734543710947,0.0033347532929231725,-35.363431,149.1645762,96236.33333333333,2.0,0.0,-152.0,0.0,0.0,-999.6666666666666,1.6666666666666667,1.3333333333333333,4.333333333333333
04:59:12,193120.0,RTL,0.00681337877176702,-0.00259973481297493,-1.8982603549957275,-7.739750435575843e-05,3.710482269525528e-05,0.0037142434157431126,-35.363431,149.1645762,99391.0,2.0,0.0,-152.0,0.0,0.0,-1000.0,1.5,1.5,4.5
04:59:14,193120.0,RTL,0.006594453006982803,-0.003130813284466664,-1.894842545191447,0.0009144182161738476,0.0004993135808035731,0.0020215645199641585,-35.3634309,149.1645762,102455.33333333333,1.0,0.0,-152.0,0.0,0.0,-999.6666666666666,2.3333333333333335,1.6666666666666667,3.0
04:59:15,157723.0,RTL,0.006725778027127187,-0.002764689658458034,-1.8934722741444905,0.00040155362027386826,-0.0004980974287415544,0.0022908394845823445,-35.3634309,149.1645762,104391.0,1.0,0.0,-152.0,0.0,0.0,-1000.0,2.3333333333333335,1.0,3.6666666666666665
04:59:16,157723.0,RTL,0.006649925683935483,-0.0028110622273137174,-1.8927632172902424,4.520977381616831e-05,9.022827725857496e-05,0.0005015198839828372,-35.3634309,149.1645762,105555.66666666667,1.0,0.0,-152.0,0.0,0.0,-1000.3333333333334,2.0,1.3333333333333333,1.3333333333333333
04:59:18,157723.0,RTL,0.0070204959871868295,-0.002408234868198633,-1.8906959692637126,-0.0008843706455081701,0.000192680008088549,0.001416955570069452,-35.3634309,149.1645762,108670.33333333333,2.0,0.0,-152.0,0.0,0.0,-999.3333333333334,1.0,1.6666666666666667,2.3333333333333335
04:59:20,68306.0,RTL,0.006770076385388772,-0.002606696216389537,-1.8887488047281902,-0.0003497512855877479,0.0004893493217726549,0.0024752395693212748,-35.3634309,149.1645762,111780.66666666667,2.0,0.0,-152.0,0.0,0.0,-999.6666666666666,1.6666666666666667,2.0,3.3333333333333335
04:59:22,68306.0,RTL,0.006723766215145588,-0.002619895152747631,-1.8873633941014607,0.00045586101866016787,-1.7360900528728962e-05,0.002467114245519042,-35.3634309,149.1645762,114884.0,2.0,0.0,-152.0,0.0,0.0,-999.3333333333334,2.3333333333333335,1.3333333333333333,3.6666666666666665
04:59:24,68306.0,RTL,0.006739877940466006,-0.002738427293176452,-1.8861376444498699,0.0001578221951300899,-0.000185696796203653,0.0009969287396719058,-35.3634309,149.1645762,117989.0,2.0,0.0,-152.0,0.0,0.0,-1000.3333333333334,2.0,1.6666666666666667,2.0
04:59:25,2077.0,RTL,0.006556054266790549,-0.002623014384880662,-1.8854892651240032,0.00013160286471247673,-0.00010639502822111051,0.002045567574289938,-35.3634309,149.1645762,119930.0,2.0,0.0,-152.0,0.0,0.0,-1000.0,1.6666666666666667,1.3333333333333333,3.3333333333333335
04:59:26,2077.0,RTL,0.006335519254207611,-0.002728770487010479,-1.8849505186080933,-0.0009594250780840715,0.00012117554433643818,0.00011393326955537002,-35.3634309,149.1645762,121094.66666666667,2.0,0.0,-152.0,0.0,0.0,-1000.0,1.3333333333333333,1.6666666666666667,1.3333333333333333
04:59:28,2077.0,RTL,0.006510715000331402,-0.00267217766183118,-1.8840720653533936,0.0010233601011956732,-2.419987382988135e-05,0.0001179936807602644,-35.3634309,149.1645762,124205.0,1.0,0.0,-152.0,0.0,0.0,-1000.0,2.6666666666666665,1.6666666666666667,1.3333333333333333
04:59:30,2077.0,RTL,0.006784046068787575,-0.0030710406911869845,-1.8822246392567952,0.0008862971638639768,0.00017961114645004272,3.940751776099205e-05,-35.3634309,149.1645762,127310.33333333333,1.0,0.0,-152.0,0.0,0.0,-1000.0,2.6666666666666665,1.6666666666666667,1.3333333333333333
04:59:31,47956.0,RTL,0.0068412586115300655,-0.002826050699998935,-1.8816955884297688,0.0018216496488700311,0.0009047237690538168,0.002254633388171593,-35.3634309,149.1645762,129254.33333333333,1.0,0.0,-152.0,0.0,0.0,-1000.0,3.6666666666666665,2.6666666666666665,3.6666666666666665
04:59:32,47956.0,RTL,0.007126707738886277,-0.002540821131939689,-1.881684144337972,0.0006579515368988117,0.000695689038063089,0.0011159619704509776,-35.3634309,149.1645762,130427.66666666667,2.0,0.0,-152.0,0.0,0.0,-1000.0,2.6666666666666665,2.6666666666666665,2.6666666666666665
04:59:34,47956.0,RTL,0.006590811535716057,-0.0023584721299509206,-1.8810830513636272,0.00018843026676525673,0.0005698781460523605,0.0003554714300359289,-35.3634309,149.1645762,133529.33333333334,2.0,0.0,-152.0,0.0,0.0,-1000.3333333333334,2.0,2.3333333333333335,2.0
04:59:36,65905.5,RTL,0.006723034816483657,-0.002485583070665598,-1.8805354436238606,0.00013155424191306034,0.00025424900619934004,0.0013555914629250765,-35.3634309,149.1645762,136633.66666666666,2.0,0.0,-152.0,0.0,0.0,-1000.0,2.0,2.0,3.0
04:59:38,83855.0,RTL,0.006372846818218629,-0.002709481632336974,-1.8801875909169514,0.0009782612323760986,0.0001303462777286768,0.0017741001211106777,-35.3634309,149.1645762,139748.66666666666,1.0,0.0,-152.0,0.0,0.0,-1000.3333333333334,2.6666666666666665,2.0,3.0
04:59:40,83855.0,RTL,0.006625175631294648,-0.0028402559303989014,-1.8798960447311401,0.0002105812697360913,0.00034624772767225903,0.0015428794237474601,-35.3634309,149.1645762,142858.66666666666,1.0,0.0,-152.0,0.0,0.0,-999.6666666666666,2.0,2.3333333333333335,3.0
04:59:41,164837.0,RTL,0.00661706505343318,-0.002785777828345696,-1.8794762293497722,0.0007065831838796536,0.00030948097507158917,0.0006194970337674022,-35.3634309,149.1645762,144795.66666666666,1.3333333333333333,0.0,-152.0,0.0,0.0,-1000.0,3.0,2.3333333333333335,2.0
04:59:42,164837.0,RTL,0.006762620682517688,-0.0030244902397195497,-1.8793625434239705,-0.00019169090470920006,3.882140542070071e-05,0.00045095015472422045,-35.3634309,149.1645762,145960.66666666666,2.0,0.0,-152.0,0.0,0.0,-999.6666666666666,1.6666666666666667,1.6666666666666667,2.0
04:59:44,164837.0,RTL,0.007087038209040959,-0.0025936487751702466,-1.878912091255188,-0.0011223595744619768,0.00020999422607322535,-0.00010662626785536607,-35.3634309,149.1645762,149068.0,2.0,0.0,-152.0,0.0,0.0,-1000.0,1.0,2.3333333333333335,1.3333333333333333
04:59:46,54743.0,RTL,0.006755805263916652,-0.0026177557495733104,-1.8779473702112834,0.00024194099629918733,4.608040520300468e-05,0.0002015889622271061,-35.3634309,149.1645762,152177.33333333334,2.0,0.0,-152.0,0.0,0.0,-1000.0,2.6666666666666665,2.3333333333333335,1.6666666666666667
04:59:48,54743.0,RTL,0.006299072255690892,-0.002606019377708435,-1.8780410687128704,-0.0006254145409911871,0.00014797838715215525,-0.0003585321828722954,-35.3634309,149.1645762,155281.66666666666,2.0,0.0,-152.0,0.0,0.0,-1000.0,1.6666666666666667,2.0,1.3333333333333333
04:59:50,54743.0,RTL,0.006397532454381387,-0.002728479215875268,-1.8779594898223877,-0.000504420759777228,-2.6846614976723988e-05,0.0009383618210752805,-35.3634309,149.1645762,158385.0,1.0,0.0,-152.0,0.0,0.0,-1000.0,1.6666666666666667,2.0,2.6666666666666665
04:59:51,98338.0,RTL,0.006483418556551139,-0.0027872746189435325,-1.8779646158218384,0.0002533134538680315,0.0005795066244900227,0.000511236023157835,-35.3634309,149.1645762,160331.0,1.0,0.0,-152.0,0.0,0.0,-1000.0,2.0,2.6666666666666665,2.3333333333333335
04:59:52,98338.0,RTL,0.006741631776094437,-0.0030457841542859874,-1.8776262998580933,0.0008120286123206218,5.536619573831558e-05,0.00021449317379544178,-35.3634309,149.1645762,161499.33333333334,1.0,0.0,-152.0,0.0,0.0,-1000.3333333333334,3.0,2.0,2.0
04:59:54,98338.0,RTL,0.006666495930403471,-0.0028807385824620724,-1.8775609731674194,-0.00020881680150826773,0.00039132005379845697,0.000609308946877718,-35.3634309,149.1645762,164602.66666666666,1.6666666666666667,0.0,-152.0,0.0,0.0,-1000.0,1.6666666666666667,2.3333333333333335,2.0
04:59:56,147162.0,RTL,0.006779159419238567,-0.0027542434787998595,-1.877496639887492,0.0004994826546559731,0.00024116411805152893,0.0006428290313730637,-35.3634309,149.1645762,167709.33333333334,1.0,0.0,-152.0,0.0,0.0,-1000.3333333333334,2.6666666666666665,2.6666666666666665,2.6666666666666665
04:59:58,147162.0,RTL,0.00705722626298666,-0.0023233596390734115,-1.877595027287801,-0.0007034430745989084,0.0009799790568649769,0.0003955437956998746,-35.3634309,149.1645762,170819.66666666666,2.0,0.0,-152.0,0.0,0.0,-999.6666666666666,1.6666666666666667,3.0,1.6666666666666667
05:00:00,147162.0,RTL,0.0066727736266329885,-0.0025466663064435124,-1.8774778544902802,3.694969927892089e-05,0.0003797079552896321,0.0014909169403836131,-35.3634309,149.1645762,174121.25,2.0,0.5,-152.0,0.0,0.0,-999.75,2.25,2.5,3.5
05:00:01,238593.0,RTL,0.006347306693593661,-0.0023904438906659684,-1.876987338066101,-0.0004314476779351632,0.00022034766152501106,0.0015118014222631853,-35.3634309,149.1645762,176026.33333333334,2.0,0.3333333333333333,-152.0,0.0,0.0,-1000.0,2.0,2.6666666666666665,3.3333333333333335
05:00:02,238593.0,RTL,0.00611748235921065,-0.002731605665758252,-1.8765753110249836,0.0018088336413105328,-0.0001421839309235414,0.00034645521858086187,-35.3634309,149.1645762,177196.66666666666,1.3333333333333333,1.0,-152.0,0.0,0.0,-1000.0,3.6666666666666665,2.0,2.3333333333333335
05:00:04,238593.0,RTL,0.006687084523340066,-0.003134049940854311,-1.8769750595092773,5.894433706998825e-05,-0.0004225571174174547,0.0004511979641392827,-35.3634309,149.1645762,180297.66666666666,1.0,0.0,-152.0,0.0,0.0,-1000.0,2.6666666666666665,1.6666666666666667,2.3333333333333335
05:00:06,7160.0,RTL,0.0067043375844756765,0.002490337889563913,-1.8767873843510945,-0.00045068375766277313,0.0270910420610259,0.0013090310773501794,-35.3634309,149.1645762,183408.66666666666,1.6666666666666667,0.6666666666666666,-151.66666666666666,0.0,0.0,-998.3333333333334,2.3333333333333335,29.333333333333332,3.3333333333333335
05:00:08,7160.0,RTL,-0.0006351826596073806,0.08016196638345718,-1.8760488033294678,-0.008792672927180925,0.0343446247279644,0.0015023387968540192,-35.36342916666666,149.16458253333334,186459.33333333334,27.333333333333332,77.33333333333333,-145.0,14.333333333333334,7.333333333333333,-994.6666666666666,-5.666666666666667,36.666666666666664,3.6666666666666665
05:00:10,7160.0,RTL,0.019704788302381832,0.17400890588760376,-1.4546186923980713,0.09567028532425563,-0.141221192975839,0.2794678956270218,-35.363421233333334,149.16461863333333,188838.33333333334,49.666666666666664,283.6666666666667,-54.666666666666664,61.666666666666664,15.333333333333334,-934.3333333333334,98.0,-138.33333333333334,281.3333333333333
05:00:11,94521.0,RTL,0.09643520414829254,0.1397303268313408,-1.3103244304656982,-0.06541123737891515,0.06882868458827336,0.02860296207169692,-35.36341203333333,149.1646635666667,189063.0,124.0,365.0,15.666666666666666,90.33333333333333,-3.6666666666666665,-961.0,-62.333333333333336,71.0,30.666666666666668
05:00:12,94521.0,RTL,0.08278619746367137,0.1885817845662435,-1.3073617219924927,0.027163354059060413,0.05460570504268011,-0.03479958511888981,-35.363401933333336,149.16469626666665,188864.33333333334,169.33333333333334,428.0,29.666666666666668,109.66666666666667,0.0,-1006.0,29.666666666666668,57.333333333333336,-32.333333333333336
05:00:14,94521.0,RTL,0.004203600808978081,0.1806397040685018,-1.3886046409606934,-0.022070523040990036,-0.009303750470280647,-0.03860017036398252,-35.36336803333334,149.1648102,188586.66666666666,192.0,584.3333333333334,-2.3333333333333335,139.0,-1.0,-1002.0,-19.0,-6.666666666666667,-35.333333333333336
05:00:16,94521.0,RTL,-0.017642613500356674,0.13758360842863718,-1.4674726327260335,0.03240147729714712,0.0013268000135819118,-0.03711128359039625,-35.363334200000004,149.16494503333334,188681.66666666666,184.66666666666666,615.6666666666666,-2.0,141.66666666666666,28.666666666666668,-980.6666666666666,35.0,4.333333333333333,-34.333333333333336
05:00:17,209495.0,RTL,-0.04026380367577076,0.09711585193872452,-1.5124976237614949,-0.09220480918884277,-0.039438790952165924,-0.023507569606105488,-35.36331393333334,149.1650286,188717.33333333334,180.33333333333334,590.0,-2.6666666666666665,143.0,36.0,-992.0,-89.0,-36.333333333333336,-20.666666666666668
05:00:18,209495.0,RTL,-0.05096291626493136,0.058312532802422844,-1.5326707363128662,-0.2744533022244771,-0.046355911840995155,-0.056340458492437996,-35.36330243333333,149.16507583333333,188740.33333333334,167.33333333333334,548.3333333333334,-0.3333333333333333,130.66666666666666,19.0,-986.6666666666666,-271.6666666666667,-43.0,-53.0
05:00:20,209495.0,RTL,-0.06935473034779231,-0.04170262316862742,-1.5722040732701619,-0.34861160318056744,-0.02203452734587093,0.0019493745639920235,-35.363277933333336,149.16517713333334,188711.33333333334,105.66666666666667,349.0,4.333333333333333,82.66666666666667,29.0,-1003.3333333333334,-344.6666666666667,-19.333333333333332,4.666666666666667
05:00:22,225928.0,RTL,-0.04378389070431391,-0.07408855358759563,-1.6063570181528728,-0.6105217039585114,0.018049002935489018,-0.029858986691882212,-35.36326523333333,149.1652301,188655.33333333334,37.0,129.33333333333334,2.3333333333333335,30.666666666666668,-14.333333333333334,-992.3333333333334,-607.0,20.666666666666668,-26.666666666666668
05:00:24,225928.0,RTL,0.014883709450562796,-0.04059289892514547,-1.629770000775655,-0.3821750283241272,0.017631323387225468,-0.01132249180227518,-35.363263499999995,149.165244,188646.0,9.666666666666666,8.0,0.3333333333333333,0.3333333333333333,-11.333333333333334,-996.3333333333334,-378.6666666666667,19.333333333333332,-8.0
05:00:26,225928.0,RTL,0.01972001977264881,-0.0053635839916144805,-1.6458113193511963,0.15025279857218266,-0.01456572829435269,-0.011743216464916864,-35.36326423333333,149.1652434,188650.0,27.0,-10.333333333333334,0.6666666666666666,0.3333333333333333,18.0,-993.6666666666666,154.66666666666666,-11.666666666666666,-8.666666666666666
05:00:27,85209.0,RTL,0.006237068640378614,-0.007326335180550814,-1.6546403169631958,-0.3675162432094415,0.0008232498075813055,-0.008342313735435406,-35.363263133333334,149.1652422,188657.66666666666,20.0,-14.0,0.3333333333333333,-1.0,-26.666666666666668,-999.0,-364.0,3.0,-5.666666666666667
05:00:28,85209.0,RTL,0.011530852876603603,-0.005693642267336448,-1.6594427824020386,0.21400074164072672,-0.00010747047296414773,-0.012465119051436583,-35.36326303333333,149.16524130000002,188660.0,13.666666666666666,-13.666666666666666,0.0,-1.6666666666666667,16.333333333333332,-1006.0,218.33333333333334,1.6666666666666667,-9.666666666666666
05:00:30,85209.0,RTL,0.02250094587604205,-0.003369887980322043,-1.6719512144724529,-0.08652641375859578,0.0005404710924873749,-0.008812439317504564,-35.36326366666666,149.16523956666666,188655.0,15.333333333333334,-10.333333333333334,0.0,0.0,-12.0,-1004.6666666666666,-82.66666666666667,2.3333333333333335,-5.666666666666667
05:00:32,47392.0,RTL,-0.005471039796248078,-0.003297494569172462,-1.683631459871928,-0.23414180676142374,-0.002878866003205379,-0.00391105057982107,-35.36326333333333,149.16523859999998,187976.66666666666,15.0,-6.0,90.0,-0.6666666666666666,33.0,-966.0,-228.0,-0.3333333333333333,-0.6666666666666666
05:00:34,47392.0,RTL,0.02749230961004893,-0.003923165611922741,-1.693211515744527,-0.7409734204411507,0.0033239226322621107,-0.008303941770767173,-35.363263933333336,149.16523843333334,185780.33333333334,17.333333333333332,-5.666666666666667,102.66666666666667,1.0,-68.33333333333333,-969.0,-737.3333333333334,5.333333333333333,-5.0
05:00:36,47392.0,RTL,0.026191818217436474,0.0002958102656217913,-1.7007433573404949,1.0415746569633484,0.004572345642372966,-0.0024288554365436235,-35.36326296666667,149.1652379,183709.0,12.0,-4.0,97.0,2.6666666666666665,20.333333333333332,-1002.3333333333334,1045.3333333333333,6.333333333333333,0.0
05:00:37,86722.0,RTL,-0.013602385219807426,-0.0002693862091594686,-1.7054966290791829,0.7339503566424052,-0.0009796172380447388,0.0015647672892858584,-35.3632614,149.16523756666666,182443.66666666666,3.0,-1.3333333333333333,98.33333333333333,0.6666666666666666,65.33333333333333,-1033.3333333333333,740.3333333333334,1.3333333333333333,4.333333333333333
05:00:38,86722.0,RTL,-0.012270238871375719,-0.003774423540259401,-1.7067530552546184,0.7131045262018839,-0.007887912603716055,0.002029199075574676,-35.36326093333333,149.1652375,181682.33333333334,-4.0,0.0,98.0,0.3333333333333333,66.33333333333333,-982.0,719.3333333333334,-5.666666666666667,4.0
05:00:40,86722.0,RTL,0.02017245503763358,-0.010031455506881079,-1.7146131197611492,0.1590901811917623,0.004884785894925396,-0.0003934181295335293,-35.363263233333335,149.16523836666667,179619.66666666666,2.6666666666666665,-3.0,96.66666666666667,-3.6666666666666665,47.333333333333336,-986.6666666666666,166.33333333333334,7.0,1.6666666666666667
05:00:42,97603.0,RTL,0.02167548860112826,-0.0018596121032411854,-1.718593955039978,-1.255179723103841,0.005983871795857946,-0.003240282336870829,-35.36326473333333,149.16523826666665,177568.66666666666,22.666666666666668,-7.0,95.33333333333333,0.0,-72.33333333333333,-1007.3333333333334,-1251.0,7.666666666666667,-0.3333333333333333
05:00:44,97603.0,RTL,0.02860483651359876,-0.00026987423674048233,-1.7230405807495117,0.3563468058904012,0.003417074913159013,0.0009729557981093725,-35.36326376666667,149.1652378,175521.0,18.333333333333332,-3.3333333333333335,96.0,1.0,-23.666666666666668,-981.0,359.6666666666667,5.333333333333333,3.3333333333333335
05:00:46,97603.0,RTL,0.018807573554416496,-0.002004810822351525,-1.726582646369934,0.8940989971160889,-0.0011029023056228955,0.004572389181703329,-35.3632623,149.1652377,173463.0,7.333333333333333,-1.3333333333333333,93.66666666666667,1.0,5.666666666666667,-1010.6666666666666,898.6666666666666,0.6666666666666666,7.0
05:00:47,51033.0,RTL,0.015620962095757326,-0.0077336495742201805,-1.728840708732605,1.3237699667612712,0.0008601263010253509,0.004828609215716521,-35.36326233333333,149.1652378,172201.33333333334,2.6666666666666665,-1.0,93.33333333333333,-3.0,77.33333333333333,-992.3333333333334,1330.6666666666667,2.6666666666666665,7.666666666666667
05:00:48,51033.0,RTL,0.03347754726807276,-0.00858703131477038,-1.7302528619766235,1.1206566492716472,0.0021494661535446844,-0.002934062387794256,-35.36326333333333,149.16523813333333,171441.33333333334,6.666666666666667,-2.0,96.0,-3.3333333333333335,73.66666666666667,-1023.3333333333334,1127.6666666666667,3.6666666666666665,0.3333333333333333
05:00:50,51033.0,RTL,0.027518230800827343,-0.00016212886839639395,-1.7331738869349163,1.1116493741671245,0.006553781994928916,0.004181254111851255,-35.36326473333333,149.16523809999998,169431.33333333334,26.666666666666668,-6.0,99.33333333333333,-0.6666666666666666,75.66666666666667,-964.3333333333334,1119.3333333333333,8.333333333333334,7.0
05:00:52,227309.0,RTL,0.008018535717080036,-0.0003740001799693952,-1.735914707183838,-1.032524933417638,-0.003798873396590352,0.0015750722571586568,-35.3632645,149.1652377,167414.66666666666,24.0,-2.0,99.0,0.0,-26.333333333333332,-1009.3333333333334,-1024.6666666666667,-1.0,4.0
05:00:53,227309.0,RTL,0.005878468044102192,-0.002455324400216341,-1.7369278073310852,-1.0188719928264618,0.00029584503499791026,-0.0022661503171548247,-35.3632647,149.16523775000002,166175.0,23.0,-1.0,98.0,0.0,-24.0,-1004.0,-1010.0,2.0,0.0
05:00:55,227309.0,RTL,-0.02296899165958166,0.005085298093035817,-1.7395637035369873,-0.9544065594673157,-0.0011194866383448243,0.004249231889843941,-35.36326270000001,149.16523725000002,164150.5,16.5,-1.5,103.0,5.0,-23.5,-994.5,-945.0,1.0,7.0
05:00:57,227309.0,RTL,0.013948946259915829,-0.002292115241289139,-1.7408397197723389,0.9860852360725403,-0.00379790342412889,0.013288464164361358,-35.36326045,149.16523684999999,162089.5,-11.0,5.5,109.0,-0.5,16.0,-942.5,991.5,-1.5,16.5
05:00:58,71973.0,RTL,0.013481170404702425,-0.0033994566183537245,-1.7419799268245697,1.4275976121425629,0.002067233028355986,-0.0021528454672079533,-35.3632608,149.1652371,161333.0,-12.0,4.5,100.0,-0.5,66.5,-1017.75,1435.5,4.0,0.5
05:00:59,71973.0,RTL,0.01264729117974639,-0.0010045051167253405,-1.742668092250824,1.3592232465744019,0.005382364033721387,0.0005796677432954311,-35.363261050000006,149.16523715,160089.0,-9.5,2.0,102.0,1.0,61.5,-1023.0,1366.5,7.0,4.0
05:01:01,71973.0,RTL,-0.011959809344261885,-0.0035281411837786436,-1.7436277866363525,0.20599424093961716,-0.005305158440023661,-0.013287156820297241,-35.3632608,149.16523695,158017.5,-13.5,5.5,101.0,-5.5,52.5,-1003.0,214.5,-2.5,-9.5
05:01:03,65424.0,RTL,0.05360660329461098,-0.003241076017729938,-1.745252251625061,0.8771899193525314,0.00701487937476486,-0.004198549315333366,-35.3632644,149.1652379,155952.5,9.5,-0.5,104.0,0.5,5.5,-1040.0,882.5,8.5,-1.0
05:01:05,58875.0,RTL,0.017909402027726173,0.00445931707508862,-1.7458396553993225,1.13257497549057,-0.0010489474516361952,-0.0030846402514725924,-35.363263,149.16523715,153927.0,13.5,0.0,103.5,3.0,11.5,-944.5,1138.5,1.0,0.0
05:01:07,58875.0,RTL,-0.009307765169069171,0.0005132528094691224,-1.7467409372329712,1.289166271686554,-0.0035885971738025546,0.0005265787476673722,-35.363260249999996,149.1652367,151861.0,-8.0,4.0,101.5,2.0,68.5,-1042.5,1296.5,-1.0,3.5
05:01:08,291153.0,RTL,-0.03588961949571967,-0.0013781869492959231,-1.747016042470932,-0.3678523004055023,-0.005347225349396467,0.0035400143242441118,-35.3632597,149.1652368,151092.5,-16.0,5.0,98.5,-0.25,14.75,-972.0,-359.0,-2.5,6.5
05:01:09,291153.0,RTL,-0.023210659623146057,-0.005795762175694108,-1.7474067211151123,-1.1856443881988525,-0.003871099674142897,0.001941872644238174,-35.36326015,149.16523705,149816.5,-22.5,6.0,100.0,-2.0,-21.5,-980.5,-1177.5,-1.0,5.0
05:01:11,291153.0,RTL,0.00946119474247098,-0.002767094410955906,-1.7481011748313904,-1.4440704584121704,0.0013500767527148128,-0.0028549726121127605,-35.3632625,149.1652376,147772.0,-6.0,0.5,104.5,0.0,-71.0,-983.0,-1438.0,3.0,0.0
05:01:13,171914.5,RTL,0.02665150724351406,-0.0022600905504077673,-1.748506247997284,0.2879057675600052,0.0036476575769484043,-0.0008135150419548154,-35.3632626,149.1652375,145739.5,0.0,1.0,101.5,0.0,-31.5,-966.5,292.0,6.0,3.0
05:01:15,52676.0,RTL,0.030592582188546658,-0.0015492297243326902,-1.7492669820785522,0.9496338367462158,0.0015328243607655168,0.004842818947508931,-35.3632626,149.1652375,143691.5,3.5,0.0,98.0,0.0,10.5,-965.0,954.5,4.0,8.0
05:01:17,52676.0,RTL,0.034917011857032776,-0.006747945211827755,-1.7510489225387573,1.0510718822479248,0.004411794478073716,0.008830534294247627,-35.363263950000004,149.16523795,141663.5,10.0,-0.5,103.0,-0.5,66.5,-1041.5,1059.0,7.0,12.0
05:01:18,91609.0,RTL,0.011941252509132028,-0.0027286529366392642,-1.7501732110977173,-0.9574529193341732,0.0025181817763950676,-0.00020879384828731418,-35.3632642,149.165238,140887.25,17.75,-3.75,99.0,0.75,-27.5,-998.75,-949.25,4.75,2.75
05:01:19,91609.0,RTL,0.011833896161988378,-3.764948087336961e-05,-1.7503790855407715,-0.7325340807437897,-0.0009053921094164252,-0.0017874606419354677,-35.363263700000005,149.16523775000002,139606.0,16.5,-3.0,100.0,1.0,-69.5,-979.5,-726.5,2.0,2.0
05:01:21,91609.0,RTL,0.008264424744993448,0.0058355138171464205,-1.7504050731658936,0.35570771992206573,0.000243470654822886,-0.0029939799569547176,-35.36326175,149.165237,137554.5,2.5,0.0,96.5,4.5,-28.5,-969.0,360.5,2.5,0.5
05:01:23,89523.0,RTL,-0.07215547561645508,0.004569123964756727,-1.751074492931366,-1.2560800313949585,0.00017296918667852879,-0.008626987459138036,-35.36325665,149.16523575000002,135528.0,-38.5,11.0,93.0,4.5,-71.5,-1072.0,-1250.5,3.0,-4.5
05:01:25,87437.0,RTL,-0.03859184309840202,-0.005958612309768796,-1.750423789024353,-1.0909805297851562,-0.004348452319391072,-0.0022104630479589105,-35.36325665,149.16523625000002,133535.0,-60.5,14.5,101.5,-2.5,-64.0,-1007.0,-1086.0,-1.5,1.5
05:01:27,87437.0,RTL,0.018461263738572598,-0.004024245426990092,-1.749872863292694,1.137674629688263,0.0033640393521636724,-0.001284166006371379,-35.3632596,149.165237,131475.0,-37.0,6.5,101.5,-2.5,17.0,-971.0,1141.0,5.5,2.0
05:01:28,24890.0,RTL,0.018916205735877156,-0.0048642297042533755,-1.7506373822689056,1.4014667868614197,-0.00037739466642960906,0.00019300339045003057,-35.363260375,149.1652371,130713.5,-27.5,5.25,102.25,-3.75,55.75,-1010.5,1405.5,2.25,3.25
05:01:29,24890.0,RTL,0.0178193598985672,-0.008330651093274355,-1.750464677810669,0.5041543245315552,-0.0018717291532084346,-0.007931203115731478,-35.3632626,149.16523765,129434.5,-7.0,2.0,101.0,-5.5,70.0,-965.5,510.0,1.0,-4.0
05:01:31,24890.0,RTL,0.038626995868980885,-0.007813609205186367,-1.7517869472503662,-0.4853608012199402,0.003975262050516903,0.0038516720524057746,-35.3632669,149.1652387,127386.5,31.0,-5.5,100.0,-5.5,18.5,-996.5,-477.5,6.5,7.0
05:01:33,24890.0,RTL,0.0718478336930275,0.00010169859160669148,-1.7508394718170166,0.4052950255572796,0.0012603348586708307,0.010480426019057631,-35.36326875,149.1652387,125356.0,62.5,-11.0,106.5,-0.5,-17.0,-1009.5,410.0,3.5,14.0
05:01:34,2280.0,RTL,0.0749739296734333,-0.0013601014215964824,-1.7508507370948792,0.8970640748739243,-0.0018317850190214813,0.0002668430679477751,-35.363268649999995,149.16523865000002,124598.25,64.75,-10.25,103.5,0.5,7.0,-984.0,902.25,0.75,4.0
05:01:35,2280.0,RTL,0.0674864612519741,-0.003819259931333363,-1.7499630451202393,1.0681563019752502,0.0008314165752381086,0.008245630655437708,-35.3632692,149.16523884999998,123308.0,67.5,-10.0,102.0,-1.0,70.5,-1015.5,1077.5,3.0,11.5
05:01:37,2280.0,RTL,0.04194474034011364,0.0008862709219101816,-1.7510003447532654,0.7451426684856415,-0.001985051087103784,-0.003651424078270793,-35.36326835,149.1652387,121240.5,71.5,-12.5,102.5,2.5,61.0,-991.0,755.5,0.5,0.5
05:01:39,125824.5,RTL,0.04394934140145779,-0.001359605768811889,-1.7506586909294128,-1.1045101583003998,0.013536764308810234,-0.013622836209833622,-35.36326765,149.1652386,119185.5,55.0,-8.5,95.0,2.0,-67.5,-1064.5,-1095.5,15.5,-9.5
05:01:41,249369.0,RTL,0.010967353358864784,0.00799130485393107,-1.751082956790924,-0.5761455744504929,0.0031996312318369746,-0.01024960121139884,-35.36326455,149.16523755,117158.5,39.5,-5.5,98.5,6.5,-72.0,-953.0,-567.0,5.5,-6.0
05:01:43,249369.0,RTL,-0.03814604692161083,0.009434162639081478,-1.7504445314407349,0.17385601997375488,0.006524157361127436,0.005040895659476519,-35.363258200000004,149.16523615,115004.0,-16.5,5.0,105.5,11.0,-29.5,-1003.5,183.0,9.0,9.0
05:01:44,50528.0,RTL,-0.053516605868935585,0.008581248694099486,-1.7501523196697235,1.279786378145218,-0.0002251800033263862,0.008203714503906667,-35.363255375,149.165235575,114257.25,-39.25,9.25,94.25,9.0,30.25,-999.25,1289.0,2.25,11.5
05:01:45,50528.0,RTL,-0.05802757106721401,-0.002544140734244138,-1.7489468455314636,1.3389978408813477,-0.0095470508094877,0.0002272467827424407,-35.36325265,149.16523535,113018.5,-80.5,19.0,102.5,-0.5,46.5,-1009.5,1347.5,-6.0,3.5
05:01:47,50528.0,RTL,0.00889438483864069,-0.01407190877944231,-1.7488906383514404,1.348975121974945,0.001392769510857761,-0.005606723017990589,-35.3632568,149.165237,110984.0,-72.0,12.5,102.0,-7.5,76.5,-1045.5,1357.0,4.0,-1.5
05:01:49,41592.5,RTL,0.015012136311270297,-0.010097711347043514,-1.7502192854881287,-1.2434707283973694,-0.006584709510207176,0.004610562697052956,-35.3632627,149.16523805,108905.0,-19.0,0.5,101.0,-4.0,-58.0,-1022.5,-1236.0,-3.5,8.0
05:01:51,32657.0,RTL,0.008900376735255122,0.007805767003446817,-1.749517023563385,-0.02446494996547699,0.008064169669523835,-0.0029850720893591642,-35.3632635,149.16523745,106869.0,14.5,-5.5,105.0,6.5,-44.5,-976.0,-19.0,10.5,0.5
05:01:53,32657.0,RTL,-0.02235137764364481,-5.703559145331383e-05,-1.7470185160636902,1.4458425045013428,-0.0063837142661213875,0.0059153838083148,-35.3632586,149.1652365,104823.0,-25.5,6.5,97.5,3.0,65.0,-1026.5,1453.5,-3.0,9.5
05:01:54,73140.0,RTL,-0.03384762443602085,-0.004035488120280206,-1.7478355169296265,0.7720973938703537,0.0016686654125805944,0.010202886769548059,-35.363258075,149.1652367,104060.0,-33.5,6.5,100.25,1.5,66.0,-1010.5,780.25,4.25,13.75
05:01:55,73140.0,RTL,-0.05479714274406433,-0.005870988359674811,-1.7478162050247192,-1.4156955480575562,-0.009594674222171307,-0.002083352068439126,-35.3632573,149.1652369,102802.0,-46.0,6.0,97.5,0.0,-51.0,-1011.0,-1409.0,-6.5,2.0
05:01:57,73140.0,RTL,-0.03696441277861595,-0.0040668059373274446,-1.7472482323646545,-1.5367522835731506,-0.0002550561330281198,-0.0022311746142804623,-35.36325825,149.165237,100757.0,-46.5,4.5,101.5,-0.5,-66.5,-958.5,-1531.5,2.0,2.0
05:01:59,44193.0,RTL,-0.023285063914954662,0.0010055788152385503,-1.7480435371398926,1.0967345535755157,-0.006078343489207327,0.0005673340056091547,-35.3632577,149.1652365,98720.0,-41.5,5.0,100.0,2.5,58.0,-1090.0,1102.0,-3.0,4.5
05:02:01,15246.0,RTL,-0.07250970602035522,-0.004215865163132548,-1.74632328748703,-0.9118421971797943,-0.009422856150195003,0.00257592904381454,-35.363255800000005,149.16523604999998,96709.0,-63.5,12.5,106.5,-2.0,-3.5,-995.0,-906.5,-6.0,6.0
05:02:03,15246.0,RTL,-0.012259735027328134,-0.010410569608211517,-1.74753338098526,-0.9097703397274017,-0.002472867723554373,0.011745765572413802,-35.36325865,149.16523715,94655.0,-50.0,7.5,103.5,-5.0,-64.5,-1022.0,-908.5,0.0,15.5
05:02:04,29415.0,RTL,0.02421514759771526,-0.00918133556842804,-1.747379630804062,-0.1115383692085743,0.0043229133589193225,0.0013500339118763804,-35.363260275,149.16523755,93900.5,-39.75,4.25,104.25,-3.5,-41.5,-976.25,-110.75,6.5,5.0
05:02:05,29415.0,RTL,0.0309272026643157,-0.0037740286206826568,-1.748014211654663,1.3650173544883728,0.00954034086316824,0.0014573305379599333,-35.3632619,149.16523775000002,92622.0,-14.5,-1.0,98.0,-0.5,47.5,-1039.0,1367.0,11.5,5.0
05:02:07,29415.0,RTL,0.014123891945928335,-0.0010498508054297417,-1.7468565702438354,1.4462006092071533,-0.0016795455012470484,-0.0031012585386633873,-35.3632612,149.1652373,90592.5,-10.5,0.0,107.5,0.5,47.0,-927.0,1447.0,1.0,1.0
05:02:09,39163.0,RTL,-0.009404352633282542,-0.0032510767923668027,-1.7465470433235168,0.26201169937849045,-0.0025693641509860754,0.0026564255822449923,-35.363261,149.1652372,88553.0,-13.5,2.0,108.0,-1.0,48.0,-1021.0,265.0,0.0,6.5
05:02:11,48911.0,RTL,-0.02752853650599718,-0.003588035120628774,-1.7472519278526306,-1.4486372470855713,-0.008494404144585133,-0.0037250916939228773,-35.36326085,149.1652372,86516.5,-13.5,2.0,105.5,-0.5,-57.5,-1037.0,-1447.0,-5.0,0.0
05:02:13,48911.0,RTL,0.04100501537322998,-0.008107945322990417,-1.747654139995575,0.45273069851100445,0.0021099804434925318,0.011518544284626842,-35.363263200000006,149.16523805,84476.0,-1.5,-1.0,108.5,-1.5,-25.0,-944.0,452.5,4.5,15.0
05:02:14,23883.0,RTL,0.03954972140491009,-0.004507061617914587,-1.7469511926174164,1.2874440252780914,0.003041698189917952,-0.0009006608161143959,-35.36326385,149.1652382,83681.0,8.75,-4.25,105.5,0.75,58.25,-1027.75,1289.0,5.5,3.0
05:02:15,23883.0,RTL,-0.01455219415947795,0.0013098973722662777,-1.7480573058128357,-0.5048609375953674,0.003650320286396891,0.006229529157280922,-35.36326325,149.16523784999998,82410.0,14.0,-5.5,108.0,3.0,16.5,-960.0,-500.5,5.5,10.0
05:02:17,23883.0,RTL,-0.04866469092667103,-0.0002044110733550042,-1.745788037776947,-0.8354099988937378,-0.011773796286433935,-0.0009711256716400385,-35.3632598,149.165237,80343.5,-13.0,2.0,103.0,1.0,-8.5,-930.0,-832.0,-9.0,3.0
05:02:19,89834.0,RTL,0.027733503840863705,-0.010244045406579971,-1.7468141317367554,0.20958183705806732,-0.00012096588034182787,0.0028792941011488438,-35.3632611,149.1652378,78313.0,-19.0,2.0,107.0,-3.0,-25.0,-963.5,209.0,2.0,6.5
05:02:21,155785.0,RTL,0.051548026502132416,-0.004183291923254728,-1.7471556663513184,0.7778306603431702,0.007551561575382948,-0.003162053879350424,-35.3632639,149.1652382,76303.0,9.0,-5.0,101.0,-1.0,6.0,-1125.0,778.0,10.0,0.0
05:02:23,155785.0,RTL,0.04863109067082405,-0.002559708140324801,-1.7465330958366394,0.9542272984981537,-0.002948396489955485,-0.013672384433448315,-35.3632647,149.1652381,74651.0,19.5,-5.0,107.0,1.0,31.0,-920.5,954.0,-0.5,-9.5
05:02:24,38239.0,RTL,0.03169053990859538,0.0005727327820750361,-1.7449141442775726,1.2235967963933945,0.000679443241097033,0.009575411095283926,-35.363264325,149.16523785,73615.0,26.0,-5.75,101.0,2.0,55.5,-1038.75,1225.5,2.75,13.0
05:02:25,38239.0,RTL,0.01294891070574522,-0.0022771611329517327,-1.7460331916809082,0.9269686937332153,-0.0011386502301320434,-0.005400641355663538,-35.36326375,149.1652377,72615.5,20.0,-2.5,100.5,-2.0,66.0,-1025.5,930.5,1.5,-1.0
05:02:27,38239.0,RTL,0.038888461887836456,-0.010002333205193281,-1.747243344783783,-0.8804827630519867,-0.003070063830818981,0.010332921519875526,-35.36326685,149.16523875000001,70596.5,34.0,-5.5,109.5,-4.0,-0.5,-936.0,-876.0,-0.5,14.0
05:02:29,54447.0,RTL,0.03523463010787964,0.004411499539855868,-1.745387852191925,-1.1819433867931366,0.005774622317403555,0.0024040587013587356,-35.36326785,149.16523865,68553.0,58.5,-13.5,101.5,3.0,-80.5,-973.0,-1179.0,8.0,5.5
05:02:31,70655.0,RTL,-0.03201413666829467,0.013243111781775951,-1.7450985312461853,1.20604407787323,0.010855167172849178,-0.0010009128600358963,-35.3632605,149.16523660000001,66487.5,15.5,-3.0,107.5,10.5,28.0,-958.5,1209.0,13.0,2.5
05:02:33,70655.0,RTL,-0.058408716693520546,-0.00796909467317164,-1.7431436777114868,-0.3681662082672119,-0.02012639120221138,0.0025643728440627456,-35.36325515,149.16523625,64458.0,-59.5,14.0,103.0,-4.0,1.5,-935.0,-365.5,-17.5,6.0
05:02:34,11657.0,RTL,0.026335863396525383,-0.020292839501053095,-1.7428693175315857,0.32144543528556824,-0.003638153721112758,0.005071748862974346,-35.363257925,149.165237525,63427.0,-61.5,11.75,103.5,-9.5,-9.0,-1003.5,321.5,-1.5,9.0
05:02:35,11657.0,RTL,0.06078071892261505,-0.0158194862306118,-1.7431154251098633,0.3597136437892914,0.01639921125024557,0.0047336367424577475,-35.363262,149.1652386,62426.5,-26.5,0.0,101.0,-6.0,-10.0,-1025.5,360.0,18.5,9.0
05:02:37,11657.0,RTL,0.04683064669370651,-0.002045490749878809,-1.742027223110199,1.4072994589805603,0.0010367932263761759,-0.003170052310451865,-35.363265049999995,149.16523834999998,60352.5,22.5,-8.5,96.5,-2.0,60.5,-1046.5,1410.5,3.0,0.5
05:02:39,29585.0,RTL,0.014158476842567325,-6.287574433372356e-05,-1.7416557669639587,-0.6536481752991676,-0.001725620124489069,0.004512714222073555,-35.36326535,149.165238,58294.5,30.5,-5.5,98.0,2.0,-2.0,-1025.0,-648.5,0.5,8.5
05:02:41,47513.0,RTL,0.02384139411151409,-0.0037786662578582764,-1.7418293356895447,-0.02889770269393921,-0.003961762529797852,0.0032474896870553493,-35.3632641,149.16523795,56253.5,22.0,-3.5,106.0,2.0,-19.0,-1028.5,-26.0,-1.5,7.0
05:02:43,47513.0,RTL,0.021503723692148924,-0.002750845393165946,-1.7423543334007263,0.9262036569416523,0.006033488200046122,-0.011456059757620096,-35.363263450000005,149.165238,54235.0,17.5,-4.5,108.5,0.0,29.0,-884.0,930.0,8.0,-7.0
05:02:44,104471.0,RTL,-0.0024123827261064434,-0.006271675694733858,-1.7420632541179657,-1.0641882047057152,-0.006796291097998619,-0.004795544722583145,-35.36326335,149.1652381,53196.5,15.5,-4.25,98.0,-1.75,-22.75,-1047.75,-1058.25,-4.0,-1.25
05:02:45,104471.0,RTL,0.014364464674144983,-0.009976934641599655,-1.7423941493034363,-1.4186025261878967,-0.005673750187270343,-0.00444971292745322,-35.3632641,149.16523845,52194.5,16.5,-5.0,97.5,-4.0,-47.5,-1043.0,-1414.0,-3.5,-0.5
05:02:47,104471.0,RTL,0.04826931655406952,-0.0021577492880169302,-1.7417347431182861,-0.6455855071544647,0.0040465539786964655,-0.005138578591868281,-35.36326645,149.1652388,50132.0,35.0,-10.5,95.5,1.5,-61.5,-997.0,-641.5,5.5,-1.5
05:02:49,104471.0,RTL,-0.013524677604436874,0.008726044325158,-1.7413833737373352,0.4314235746860504,0.0005991602083668113,0.0004726438783109188,-35.363263149999995,149.16523734999998,48058.0,25.0,-5.5,95.5,7.5,16.5,-1160.5,438.0,2.5,3.5
05:02:50,61742.0,RTL,-0.06260759755969048,0.011128532467409968,-1.7426227033138275,-1.4490421414375305,-0.0027054472593590617,-0.0018082981696352363,-35.363259675,149.1652364,47037.75,-2.0,0.5,96.25,10.0,-66.0,-1007.25,-1443.25,-0.5,2.25
05:02:51,61742.0,RTL,-0.09233173355460167,0.00935837090946734,-1.741362750530243,-1.4211788177490234,-0.007399021647870541,-0.007319463067688048,-35.36325585,149.16523565,46024.0,-38.5,8.5,96.0,8.5,-63.5,-1023.5,-1416.0,-5.0,-3.5
05:02:53,61742.0,RTL,-0.0680888332426548,-0.005626492784358561,-1.7397452592849731,-0.935558632016182,-0.009482852648943663,-0.004570891265757382,-35.36325255,149.16523560000002,44000.0,-95.0,19.0,95.5,-2.0,-59.0,-1044.0,-933.0,-7.0,-1.0
05:02:55,61742.0,RTL,0.000897018238902092,-0.01075050001963973,-1.7397541403770447,1.0932906158268452,-0.00486854778137058,0.0046767378225922585,-35.36325595,149.1652368,41948.0,-79.0,11.5,104.0,-4.5,40.0,-951.5,1094.0,-2.5,8.5
05:02:56,130347.0,RTL,-0.012401912827044725,-0.008184181875549257,-1.7382756173610687,0.7389462441205978,0.002517776272725314,-0.0023458946961909533,-35.363257875,149.165237175,40889.25,-56.25,6.0,91.0,-5.0,72.0,-1028.5,741.75,4.0,1.0
05:02:57,130347.0,RTL,-0.0020044823177158833,-0.008510785177350044,-1.7383937239646912,0.4975123107433319,-0.003895078902132809,0.002737266244366765,-35.3632597,149.1652373,39866.0,-41.0,4.5,98.0,-7.0,68.0,-965.5,500.0,-1.5,6.0
05:02:59,130347.0,RTL,0.020010954700410366,-0.006376839941367507,-1.7393800616264343,-0.25256036035716534,0.0026651121443137527,-0.0029501268872991204,-35.3632641,149.165238,37820.5,2.0,-1.0,92.5,-5.5,26.5,-994.0,-248.5,4.0,1.0
05:03:01,156470.0,RTL,0.03262566216289997,-0.0006540996255353093,-1.7388821840286255,-0.1630443036556244,0.0049125246005132794,-0.0024897539988160133,-35.36326595,149.16523805,35787.5,34.0,-5.5,91.0,-0.5,-6.0,-1110.5,-161.5,6.5,1.0
05:03:03,182593.0,RTL,0.06911562383174896,-0.007916898699477315,-1.7388488054275513,0.2855527848005295,-0.0004101408994756639,-0.003899928880855441,-35.36326725,149.1652385,33783.5,41.5,-5.0,94.5,-2.5,-26.0,-967.0,286.0,1.0,-0.5
05:03:05,182593.0,RTL,0.08702757209539413,-0.0018172262934967875,-1.7381239533424377,1.0537804067134857,0.0054623584728688,0.004150109481997788,-35.3632697,149.1652392,31749.0,70.0,-14.0,100.0,2.5,23.0,-934.0,1057.0,7.0,7.0
05:03:06,180856.0,RTL,0.018055373686365783,0.0066462651593610644,-1.7389546632766724,-0.19776272028684616,0.0037318552494980395,0.005896907357964665,-35.363268024999996,149.16523855,30727.5,72.0,-15.25,100.5,6.25,9.5,-1018.0,-191.25,5.5,9.0
05:03:07,180856.0,RTL,-0.011236050399020314,0.005397582775913179,-1.7383065223693848,-0.7611642181873322,-0.008399392943829298,0.001140470732934773,-35.3632652,149.16523784999998,29700.5,50.5,-8.5,93.0,7.0,-12.0,-1028.5,-755.0,-6.0,4.5
05:03:09,180856.0,RTL,-0.002630211180076003,-0.0036333961179479957,-1.737968623638153,-1.296520471572876,-0.004260754329152405,-0.005790464114397764,-35.3632627,149.1652378,27652.5,12.0,-2.0,95.0,3.5,-74.0,-1000.5,-1292.0,-2.0,-2.0
05:03:11,183781.5,RTL,1.4247838407754898e-05,-0.003293611342087388,-1.7380517721176147,0.24436987191438675,-0.006538998102769256,0.0010754292597994208,-35.363261699999995,149.16523784999998,25613.0,2.0,-2.5,94.0,2.0,18.5,-1006.5,249.0,-4.0,4.0
05:03:13,186707.0,RTL,-0.0049502181354910135,-0.0029255005065351725,-1.7383015155792236,0.36658594757318497,-0.0001235420349985361,0.0020185416797176003,-35.36326135,149.16523775000002,23605.5,-3.0,-1.5,101.0,0.0,52.0,-963.0,373.0,2.0,5.0
05:03:15,186707.0,RTL,-0.03538499213755131,-0.0015397016068163794,-1.7378734350204468,-1.4933439493179321,-0.0017663585022091866,-0.008829452563077211,-35.36326045,149.16523734999998,21549.0,-13.0,0.0,102.0,-1.0,-47.0,-924.0,-1488.0,0.0,-5.0
05:03:16,51988.0,RTL,0.004364402295323089,-0.005538747762329876,-1.7384590208530426,-0.5484852902591228,0.00031579181086272,-0.0046495607239194214,-35.363260775,149.1652374,20518.0,-18.0,2.0,96.5,-1.75,-51.5,-1013.5,-545.25,1.5,-1.0
05:03:17,51988.0,RTL,0.013488123659044504,-0.004911235300824046,-1.738069236278534,-0.8034045249223709,-0.0016358726425096393,0.00433170166797936,-35.363261800000004,149.16523765,19451.5,-10.5,0.5,101.5,0.0,-65.5,-958.0,-799.5,0.0,7.0
05:03:19,51988.0,RTL,0.014448434114456177,-0.0024397841771133244,-1.7376900911331177,-0.8473312854766846,0.000811515434179455,0.0021241281647235155,-35.363262399999996,149.1652377,17349.0,-2.0,-0.5,102.0,-0.5,-73.5,-971.0,-844.0,2.0,5.5
05:03:21,32128.0,RTL,0.007598977768793702,0.0002518266555853188,-1.7382908463478088,1.001422494649887,-0.0010418528690934181,-0.004399504512548447,-35.363261800000004,149.16523734999998,15291.5,2.0,-0.5,96.0,-0.5,56.5,-1037.0,1006.5,1.0,-1.0
05:03:23,12268.0,RTL,0.036842141300439835,-0.011639600619673729,-1.7381330132484436,0.608143538236618,-0.0020203604944981635,-0.006365000270307064,-35.3632639,149.16523825,13260.5,6.0,-1.5,98.5,-4.5,45.5,-1056.5,614.5,-0.5,-2.5
05:03:25,12268.0,RTL,0.021767976228147745,-0.001079448702512309,-1.737513244152069,-0.7626563161611557,0.00024400820257142186,0.0053215749794617295,-35.363265999999996,149.1652385,11491.5,36.0,-10.0,52.5,1.0,-19.5,-1044.0,-756.0,1.5,8.0
05:03:26,125011.0,RTL,0.011366276419721544,0.0032995666842907667,-1.7374242842197418,0.1932554398663342,-0.0012517460563685745,0.0015561658656224608,-35.363264975,149.165237975,11179.25,35.5,-8.25,18.5,2.0,22.75,-999.5,199.75,0.0,4.25
05:03:27,125011.0,RTL,0.004713824484497309,0.0017377401673002169,-1.7375518083572388,-0.29569992423057556,-0.0048767972039058805,-0.001169499708339572,-35.36326375,149.16523765,10925.0,22.5,-3.5,27.5,2.0,-24.5,-972.5,-290.0,-3.0,1.5
05:03:29,125011.0,RTL,-0.010739956458564848,0.0004168547093286179,-1.7376070618629456,-0.1779005229473114,-0.0034091309644281864,-0.000402216799557209,-35.363261550000004,149.16523734999998,10243.0,2.0,-0.5,30.5,1.5,-23.5,-1005.5,-173.0,-2.0,2.5
05:03:31,125011.0,RTL,-0.0014355084858834743,-0.00466990377753973,-1.738032877445221,0.6257783770561218,-0.00727848568931222,-0.0030072894296608865,-35.3632607,149.1652373,9560.5,-11.5,2.5,30.0,-3.5,49.0,-1025.0,632.0,-5.0,0.0
05:03:32,12000.0,RTL,0.041193642653524876,-0.010826462646946311,-1.7370820045471191,0.8534925729036331,-0.006021769600920379,-0.0036516803374979645,-35.3632627,149.1652379,9219.0,-6.5,2.25,30.75,-6.5,45.0,-1004.5,859.25,-4.0,-0.5
05:03:33,12000.0,RTL,0.05932138115167618,-0.010244590695947409,-1.7374258041381836,-0.04737444221973419,0.007362170144915581,-0.004530732287093997,-35.36326555,149.1652386,8929.5,16.5,-3.5,14.0,-5.0,-8.0,-1020.5,-42.0,8.5,-1.0
05:03:35,12000.0,RTL,0.03374628536403179,0.0021266698095132597,-1.7366724014282227,-0.04459017515182495,0.006242627976462245,0.00018784089479595423,-35.363266949999996,149.1652383,8943.0,49.5,-10.0,-5.0,0.5,1.0,-1000.5,-37.5,7.5,3.0
05:03:37,63302.0,RTL,-0.012887993128970265,0.00573552493005991,-1.7364299893379211,-0.5211101770401001,-0.0041003962978720665,-0.004492753650993109,-35.36326305,149.1652373,8732.0,24.0,-3.0,3.0,6.0,-42.0,-1015.0,-514.0,-2.0,-1.5
05:03:39,114604.0,RTL,-0.02830324787646532,-0.00011139511116198264,-1.7361109256744385,-0.006475925445556641,-0.0020641048904508352,-0.0002308847033418715,-35.363259150000005,149.16523684999999,8782.0,-18.0,3.5,-1.0,2.5,-7.5,-999.5,0.5,-0.5,2.5
05:03:41,114604.0,RTL,-0.015288391150534153,-0.0037908414378762245,-1.7357671856880188,0.42558170296251774,0.006688146386295557,0.0031769744819030166,-35.36325815,149.16523695,8800.5,-39.0,5.5,2.0,-0.5,7.0,-1013.0,431.5,7.5,5.5
05:03:42,198014.0,RTL,-0.019707079976797104,-0.004775635665282607,-1.7362590432167053,-0.24064818024635315,-0.00037636436172761023,6.5614585764706135e-06,-35.363258575,149.1652371,8798.75,-38.0,4.5,1.0,0.0,-3.25,-1006.5,-234.0,1.0,3.0
05:03:43,198014.0,RTL,-0.016659905202686787,-0.0034323391737416387,-1.7363946437835693,-0.1081061065196991,0.0027805515564978123,-0.004138362128287554,-35.36325875,149.1652371,8778.0,-36.0,3.0,11.5,-0.5,-11.0,-981.5,-103.0,3.5,-1.0
05:03:45,198014.0,RTL,-0.006005320115946233,-0.003403038252145052,-1.7362292408943176,0.6474585235118866,-0.004486307152546942,-0.002027399488724768,-35.363259,149.1652371,8131.0,-33.5,3.0,40.5,-0.5,29.0,-1012.0,652.0,-3.0,1.5
05:03:47,101783.5,RTL,-0.01068422629032284,-0.0032197468681260943,-1.7362831234931946,-0.09377387166023254,0.0008095917874015868,-0.0027971017407253385,-35.3632596,149.1652371,7413.5,-30.0,3.0,33.5,-0.5,-7.5,-1004.0,-89.5,2.0,0.0
05:03:49,5553.0,RTL,-0.0027150121168233454,-0.0032426972175017,-1.7359862923622131,-0.27622009813785553,0.003834384318906814,-0.0019963529193773866,-35.36326015,149.16523715,6734.5,-26.5,3.0,35.5,-0.5,-27.0,-976.0,-273.0,4.5,1.0
05:03:51,5553.0,RTL,-0.0001433060970157385,-0.0028310426278039813,-1.735965371131897,0.771852046251297,0.001476792327594012,0.0027917884290218353,-35.3632606,149.1652372,6042.0,-17.5,1.5,33.5,-1.0,38.0,-989.0,775.5,2.0,5.0
05:03:52,242712.0,RTL,0.0016740360781568597,-0.00484740745741874,-1.7361983954906464,-0.3108527511358261,-0.002961415535537526,-0.0011721131158992648,-35.36326105,149.165237375,5694.75,-16.75,1.75,33.0,-0.25,-24.25,-995.25,-307.75,-1.75,1.5
05:03:53,242712.0,RTL,0.008215465175453573,-0.004777900176122785,-1.7357306480407715,0.31405034288764,0.002402259560767561,0.0019112181616947055,-35.3632615,149.16523755,5359.5,-10.5,0.0,33.0,-0.5,16.5,-999.5,318.0,3.5,4.5
05:03:55,242712.0,RTL,0.002088473178446293,-0.002602159045636654,-1.7361071109771729,0.2515234500169754,0.0007311981171369553,-0.0002833236358128488,-35.3632618,149.1652376,4675.5,-5.0,-0.5,33.0,-0.5,23.0,-1008.0,255.5,2.0,2.0
05:03:57,242712.0,RTL,0.010872407350689173,-0.003558554104529321,-1.7356795072555542,-0.572208896279335,-0.0008297273889183998,-0.00017017964273691177,-35.3632621,149.1652376,3999.5,-4.5,0.0,35.5,0.0,-45.5,-997.5,-569.5,0.0,2.5
05:03:58,114380.0,RTL,0.003356722110765986,-0.004037182137835771,-1.7360901832580566,-0.4793891180306673,-0.0023833556042518467,-0.0006803570431657135,-35.363262575,149.16523765000002,3660.75,0.75,-0.25,33.25,-0.5,-5.5,-1003.0,-475.0,-0.75,1.75
05:03:59,114380.0,RTL,0.02025723736733198,-0.0033863435965031385,-1.7357081174850464,0.4244630038738251,0.000746939389500767,0.006109260371886194,-35.36326305,149.16523775000002,3325.0,5.5,-1.0,33.5,0.0,16.5,-1005.5,427.0,1.5,8.0
05:04:01,114380.0,RTL,0.01870795665308833,-0.0010509604253456928,-1.7362719178199768,0.38558895234018564,0.0028835461125709116,0.001878208713606,-35.36326335,149.16523775000002,2638.0,10.5,-2.5,33.5,1.5,21.0,-1013.5,389.5,3.5,4.0
