time_stamp,MODE,lat,lon,relative_alt,roll,pitch,yaw,rollspeed,pitchspeed,yawspeed,xacc,yacc,zacc,xgyro,ygyro,zgyro,vx,vy,vz,RTL_ALT
04:57:23.119,STABILIZE,-35.3632621,149.1652374,79,-9.759231033967808e-05,0.0013720500282943249,0.029724448919296265,0.00012032326776534319,0.000359997502528131,0.002441873773932457,0,1,-1000,0,0,0,0,0,-2,1500.0
04:57:23.320,STABILIZE,-35.3632621,149.1652374,79,-9.759231033967808e-05,0.0013720500282943249,0.029724448919296265,0.00012032326776534319,0.000359997502528131,0.002441873773932457,0,1,-1000,0,0,0,0,0,-2,1500.0
04:57:23.520,STABILIZE,-35.3632621,149.1652374,79,-9.759231033967808e-05,0.0013720500282943249,0.029724448919296265,0.00012032326776534319,0.000359997502528131,0.002441873773932457,0,1,-1000,0,0,0,0,0,-2,1500.0
04:57:23.721,STABILIZE,-35.3632621,149.1652374,66,-3.269307853770442e-05,0.0015075152041390538,0.029384253546595573,0.0002458017261233181,0.00034330482594668865,0.002413868671283126,0,1,-1000,0,0,0,0,0,-2,1500.0
04:57:23.922,STABILIZE,-35.3632621,149.1652374,66,-3.269307853770442e-05,0.0015075152041390538,0.029384253546595573,0.0002458017261233181,0.00034330482594668865,0.002413868671283126,0,1,-1000,0,0,0,0,0,-2,1500.0
04:57:24.122,STABILIZE,-35.3632621,149.1652374,56,1.6975631297100335e-05,0.0015902321320027113,0.028999507427215576,0.00010978139471262693,0.00028377718990668654,0.002438195049762726,0,1,-1000,0,0,0,-1,1,-1,1500.0
04:57:24.323,STABILIZE,-35.3632621,149.1652374,56,1.6975631297100335e-05,0.0015902321320027113,0.028999507427215576,0.00010978139471262693,0.00028377718990668654,0.002438195049762726,0,1,-1000,0,0,0,-1,1,-1,1500.0
04:57:24.524,STABILIZE,-35.3632621,149.1652374,56,1.6975631297100335e-05,0.0015902321320027113,0.028999507427215576,0.00010978139471262693,0.00028377718990668654,0.002438195049762726,0,1,-1000,0,0,0,-1,1,-1,1500.0
04:57:24.728,STABILIZE,-35.3632621,149.1652374,56,1.6975631297100335e-05,0.0015902321320027113,0.028999507427215576,0.00010978139471262693,0.00028377718990668654,0.002438195049762726,0,1,-1000,0,0,0,-1,1,-1,1500.0
04:57:24.929,STABILIZE,-35.3632621,149.1652374,56,1.6975631297100335e-05,0.0015902321320027113,0.028999507427215576,0.00010978139471262693,0.00028377718990668654,0.002438195049762726,0,1,-1000,0,0,0,-1,1,-1,1500.0
04:57:25.130,STABILIZE,-35.3632621,149.1652374,56,1.6975631297100335e-05,0.0015902321320027113,0.028999507427215576,0.00010978139471262693,0.00028377718990668654,0.002438195049762726,0,1,-1000,0,0,0,-1,1,-1,1500.0
04:57:25.330,STABILIZE,-35.3632621,149.1652374,56,1.6975631297100335e-05,0.0015902321320027113,0.028999507427215576,0.00010978139471262693,0.00028377718990668654,0.002438195049762726,0,1,-1000,0,0,0,-1,1,-1,1500.0
04:57:25.531,STABILIZE,-35.3632621,149.1652375,40,-8.08372933533974e-05,0.0015609279507771134,0.028095899149775505,0.00015257412451319396,0.0002394619514234364,0.0021836753003299236,0,1,-1000,0,0,0,-2,1,0,1500.0
04:57:25.733,STABILIZE,-35.3632621,149.1652375,36,0.00019370167865417898,0.00151312246453017,0.02791053242981434,0.00022917607566341758,0.00028017256408929825,0.0023810556158423424,0,1,-1000,0,0,0,-2,2,0,1500.0
04:57:25.934,STABILIZE,-35.3632622,149.1652375,32,0.000125409264001064,0.0014641847228631377,0.027733605355024338,0.0004126017156522721,0.00034214905463159084,0.0022994668688625097,0,1,-1000,0,0,0,-2,2,1,1500.0
04:57:26.137,STABILIZE,-35.3632622,149.1652375,32,0.000125409264001064,0.0014641847228631377,0.027733605355024338,0.0004126017156522721,0.00034214905463159084,0.0022994668688625097,0,1,-1000,0,0,0,-2,2,1,1500.0
04:57:26.338,STABILIZE,-35.3632622,149.1652375,32,0.000125409264001064,0.0014641847228631377,0.027733605355024338,0.0004126017156522721,0.00034214905463159084,0.0022994668688625097,0,1,-1000,0,0,0,-2,2,1,1500.0
04:57:26.540,STABILIZE,-35.3632622,149.1652375,26,-0.00011400705261621624,0.0013588563306257129,0.027415774762630463,0.00024134432896971703,0.00028501811902970076,0.002181846648454666,0,1,-1000,0,0,0,-2,2,1,1500.0
04:57:26.741,STABILIZE,-35.3632622,149.1652375,26,-0.00011400705261621624,0.0013588563306257129,0.027415774762630463,0.00024134432896971703,0.00028501811902970076,0.002181846648454666,0,1,-1000,0,0,0,-2,2,1,1500.0
04:57:26.943,STABILIZE,-35.3632622,149.1652375,26,-0.00011400705261621624,0.0013588563306257129,0.027415774762630463,0.00024134432896971703,0.00028501811902970076,0.002181846648454666,0,1,-1000,0,0,0,-2,2,1,1500.0
04:57:27.144,STABILIZE,-35.3632622,149.1652375,19,-0.00043495968566276133,0.0012070504017174244,0.026966361328959465,4.687521141022444e-05,0.00030895855161361396,0.002215026644989848,0,1,-1000,0,0,1,-1,2,1,1500.0
04:57:27.346,STABILIZE,-35.3632622,149.1652375,19,-0.00043495968566276133,0.0012070504017174244,0.026966361328959465,4.687521141022444e-05,0.00030895855161361396,0.002215026644989848,0,1,-1000,0,0,1,-1,2,1,1500.0
04:57:27.547,STABILIZE,-35.3632622,149.1652375,18,-0.00043495968566276133,0.0012070504017174244,0.026966361328959465,4.687521141022444e-05,0.00030895855161361396,0.002215026644989848,0,1,-1000,0,0,0,-1,1,1,1500.0
04:57:27.749,STABILIZE,-35.3632622,149.1652375,16,-0.0006050064112059772,0.001107225427404046,0.026705997064709663,9.22040781006217e-05,0.00027851047343574464,0.0021540599409490824,0,1,-1000,0,0,0,-1,1,1,1500.0
04:57:27.950,STABILIZE,-35.3632622,149.1652375,15,-0.000672908325213939,0.001074907137081027,0.026589540764689445,0.0002131813089363277,0.0002950716589111835,0.0020238077268004417,0,1,-1000,0,0,0,-1,1,1,1500.0
04:57:28.152,STABILIZE,-35.3632622,149.1652375,15,-0.000672908325213939,0.001074907137081027,0.026589540764689445,0.0002131813089363277,0.0002950716589111835,0.0020238077268004417,0,1,-1000,0,0,0,-1,1,1,1500.0
04:57:28.354,STABILIZE,-35.3632622,149.1652375,15,-0.000672908325213939,0.001074907137081027,0.026589540764689445,0.0002131813089363277,0.0002950716589111835,0.0020238077268004417,0,1,-1000,0,0,0,-1,1,1,1500.0
04:57:28.555,STABILIZE,-35.3632622,149.1652375,12,-0.000801646092440933,0.0009978733723983169,0.026353590190410614,0.00026949314633384347,0.00018954731058329344,0.0020581951830536127,0,1,-1000,0,0,0,-1,1,0,1500.0
04:57:28.757,STABILIZE,-35.3632622,149.1652375,12,-0.000801646092440933,0.0009978733723983169,0.026353590190410614,0.00026949314633384347,0.00018954731058329344,0.0020581951830536127,0,1,-1000,0,0,0,-1,1,0,1500.0
04:57:28.958,STABILIZE,-35.3632622,149.1652375,12,-0.000801646092440933,0.0009978733723983169,0.026353590190410614,0.00026949314633384347,0.00018954731058329344,0.0020581951830536127,0,1,-1000,0,0,0,-1,1,0,1500.0
04:57:29.160,STABILIZE,-35.3632622,149.1652375,12,-0.000801646092440933,0.0009978733723983169,0.026353590190410614,0.00026949314633384347,0.00018954731058329344,0.0020581951830536127,0,1,-1000,0,0,0,-1,1,0,1500.0
04:57:29.361,STABILIZE,-35.3632621,149.1652375,4,-0.0006608717376366258,0.0009200982167385519,0.025929754599928856,0.0002633524127304554,0.00033261615317314863,0.002006343798711896,0,1,-1000,0,0,0,-1,2,2,1500.0
04:57:29.563,STABILIZE,-35.3632621,149.1652375,4,-0.0006608717376366258,0.0009200982167385519,0.025929754599928856,0.0002633524127304554,0.00033261615317314863,0.002006343798711896,0,1,-1000,0,0,0,-1,2,2,1500.0
04:57:29.764,STABILIZE,-35.3632621,149.1652375,2,-0.0007212826167233288,0.0009119725436903536,0.025830956175923347,0.0001966414856724441,0.00035165867302566767,0.002023329958319664,0,1,-1000,0,0,0,-1,1,2,1500.0
04:57:29.966,STABILIZE,-35.3632621,149.1652375,2,-0.0007212826167233288,0.0009119725436903536,0.025830956175923347,0.0001966414856724441,0.00035165867302566767,0.002023329958319664,0,1,-1000,0,0,0,-1,1,2,1500.0
04:57:30.167,STABILIZE,-35.3632621,149.1652375,0,-0.0008389101712964475,0.0009103693882934749,0.025624632835388184,0.00021652370924130082,0.00031823129393160343,0.00188595918007195,0,1,-1000,0,0,0,-1,1,1,1500.0
04:57:30.368,STABILIZE,-35.3632621,149.1652375,0,-0.0008389101712964475,0.0009103693882934749,0.025624632835388184,0.00021652370924130082,0.00031823129393160343,0.00188595918007195,0,1,-1000,1,1,0,-1,1,1,1500.0
04:57:30.570,STABILIZE,-35.3632621,149.1652375,0,-0.0008389101712964475,0.0009103693882934749,0.025624632835388184,0.00021652370924130082,0.00031823129393160343,0.00188595918007195,0,1,-1000,1,1,0,-1,1,1,1500.0
04:57:30.771,STABILIZE,-35.3632621,149.1652375,0,-0.0008389101712964475,0.0009103693882934749,0.025624632835388184,0.00021652370924130082,0.00031823129393160343,0.00188595918007195,0,1,-1000,1,1,0,-1,1,1,1500.0
04:57:30.972,STABILIZE,-35.3632621,149.1652375,0,-0.0008389101712964475,0.0009103693882934749,0.025624632835388184,0.00021652370924130082,0.00031823129393160343,0.00188595918007195,0,1,-1000,1,1,0,-1,1,1,1500.0
04:57:31.174,STABILIZE,-35.3632621,149.1652375,0,-0.0008389101712964475,0.0009103693882934749,0.025624632835388184,0.00021652370924130082,0.00031823129393160343,0.00188595918007195,0,1,-1000,1,1,0,-1,1,1,1500.0
04:57:31.376,STABILIZE,-35.3632621,149.1652375,0,-0.0010185996070504189,0.0008855516207404435,0.02514602430164814,0.00012870749924331903,0.0001673638471402228,0.0018591039115563035,0,1,-1000,1,1,0,-1,1,1,1500.0
04:57:31.577,STABILIZE,-35.3632621,149.1652375,0,-0.0010185996070504189,0.0008855516207404435,0.02514602430164814,0.00012870749924331903,0.0001673638471402228,0.0018591039115563035,0,1,-1000,1,1,0,-1,1,1,1500.0
04:57:31.778,STABILIZE,-35.3632621,149.1652375,0,-0.0010185996070504189,0.0008855516207404435,0.02514602430164814,0.00012870749924331903,0.0001673638471402228,0.0018591039115563035,0,1,-1000,1,1,0,-1,1,1,1500.0
04:57:31.979,STABILIZE,-35.3632621,149.1652375,0,-0.001065707765519619,0.0008990241913124919,0.024974316358566284,0.000286624941509217,0.00028869148809462786,0.0018975210841745138,0,1,-1000,0,0,0,-1,1,1,1500.0
04:57:32.181,STABILIZE,-35.3632621,149.1652375,0,-0.001065707765519619,0.0008990241913124919,0.024974316358566284,0.000286624941509217,0.00028869148809462786,0.0018975210841745138,0,1,-1000,0,0,0,-1,1,1,1500.0
04:57:32.382,STABILIZE,-35.3632621,149.1652375,0,-0.001065707765519619,0.0008990241913124919,0.024974316358566284,0.000286624941509217,0.00028869148809462786,0.0018975210841745138,0,2,-1000,0,0,0,-1,1,1,1500.0
04:57:32.584,STABILIZE,-35.3632621,149.1652375,0,-0.001065707765519619,0.0008990241913124919,0.024974316358566284,0.000286624941509217,0.00028869148809462786,0.0018975210841745138,0,2,-1000,0,0,0,-1,1,1,1500.0
04:57:32.786,STABILIZE,-35.3632621,149.1652375,0,-0.001065707765519619,0.0008990241913124919,0.024974316358566284,0.000286624941509217,0.00028869148809462786,0.0018975210841745138,0,2,-1000,0,0,0,-1,1,1,1500.0
04:57:32.987,STABILIZE,-35.3632621,149.1652375,0,-0.001065707765519619,0.0008990241913124919,0.024974316358566284,0.000286624941509217,0.00028869148809462786,0.0018975210841745138,0,2,-1000,0,0,0,-1,1,1,1500.0
04:57:33.189,STABILIZE,-35.3632621,149.1652375,0,-0.0008204235346056521,0.0009531540563330054,0.024543434381484985,0.00012432958465069532,0.0003658717032521963,0.0018013047520071268,0,2,-1000,0,0,1,-1,0,0,1500.0
04:57:33.390,STABILIZE,-35.3632621,149.1652375,0,-0.0008204235346056521,0.0009531540563330054,0.024543434381484985,0.00012432958465069532,0.0003658717032521963,0.0018013047520071268,0,1,-1000,0,1,0,-1,0,0,1500.0
04:57:33.592,STABILIZE,-35.3632621,149.1652375,0,-0.0008204235346056521,0.0009531540563330054,0.024543434381484985,0.00012432958465069532,0.0003658717032521963,0.0018013047520071268,0,1,-1000,0,1,0,-1,0,0,1500.0
04:57:33.794,STABILIZE,-35.3632621,149.1652375,0,-0.0008204235346056521,0.0009531540563330054,0.024543434381484985,0.00012432958465069532,0.0003658717032521963,0.0018013047520071268,0,1,-1000,0,1,0,-1,0,0,1500.0
04:57:33.995,STABILIZE,-35.3632621,149.1652375,0,-0.0008244941127486527,0.0009664459503255785,0.024297703057527542,0.00028054334688931704,0.00035892060259357095,0.0017096599331125617,0,2,-1000,0,0,0,-1,1,0,1500.0
04:57:34.197,STABILIZE,-35.3632621,149.1652375,0,-0.0008244941127486527,0.0009664459503255785,0.024297703057527542,0.00028054334688931704,0.00035892060259357095,0.0017096599331125617,0,2,-1000,0,0,0,-1,1,0,1500.0
04:57:34.398,STABILIZE,-35.3632621,149.1652375,0,-0.0008244941127486527,0.0009664459503255785,0.024297703057527542,0.00028054334688931704,0.00035892060259357095,0.0017096599331125617,0,1,-1000,0,0,0,-1,1,0,1500.0
04:57:34.599,STABILIZE,-35.3632621,149.1652375,0,-0.0008244941127486527,0.0009664459503255785,0.024297703057527542,0.00028054334688931704,0.00035892060259357095,0.0017096599331125617,0,1,-1000,0,0,0,-1,1,0,1500.0
04:57:34.801,STABILIZE,-35.3632621,149.1652375,0,-0.0008244941127486527,0.0009664459503255785,0.024297703057527542,0.00028054334688931704,0.00035892060259357095,0.0017096599331125617,0,1,-1000,0,0,0,-1,1,0,1500.0
04:57:35.007,STABILIZE,-35.3632621,149.1652375,0,-0.0008244941127486527,0.0009664459503255785,0.024297703057527542,0.00028054334688931704,0.00035892060259357095,0.0017096599331125617,0,1,-1000,0,0,0,-1,1,0,1500.0
04:57:35.208,STABILIZE,-35.3632621,149.1652375,0,-0.0008244941127486527,0.0009664459503255785,0.024297703057527542,0.00028054334688931704,0.00035892060259357095,0.0017096599331125617,0,1,-1000,0,0,0,-1,1,0,1500.0
04:57:35.409,STABILIZE,-35.3632621,149.1652375,0,-0.0008244941127486527,0.0009664459503255785,0.024297703057527542,0.00028054334688931704,0.00035892060259357095,0.0017096599331125617,0,2,-1000,1,0,0,-1,1,0,1500.0
04:57:35.610,STABILIZE,-35.3632622,149.1652375,2,-0.0009035540279000998,0.0009694021428003907,0.023712866008281708,0.00012888980563730001,0.00029745238134637475,0.0016481741331517696,0,1,-1000,0,0,0,-1,1,0,1500.0
04:57:35.812,STABILIZE,-35.3632622,149.1652375,2,-0.0009035540279000998,0.0009694021428003907,0.023712866008281708,0.00012888980563730001,0.00029745238134637475,0.0016481741331517696,0,1,-1000,0,0,0,-1,1,0,1500.0
04:57:36.013,STABILIZE,-35.3632622,149.1652375,2,-0.0009035540279000998,0.0009694021428003907,0.023712866008281708,0.00012888980563730001,0.00029745238134637475,0.0016481741331517696,0,2,-1000,1,0,0,-1,1,0,1500.0
04:57:36.214,STABILIZE,-35.3632622,149.1652375,2,-0.0009035540279000998,0.0009694021428003907,0.023712866008281708,0.00012888980563730001,0.00029745238134637475,0.0016481741331517696,0,2,-1000,1,0,0,-1,1,0,1500.0
04:57:36.416,STABILIZE,-35.3632622,149.1652375,0,-0.0004882311332039535,0.0009861503494903445,0.02345876581966877,0.00033035187516361475,0.00023853057064116,0.001599782845005393,0,1,-1000,0,0,0,-1,2,1,1500.0
04:57:36.617,STABILIZE,-35.3632622,149.1652375,0,-0.0004882311332039535,0.0009861503494903445,0.02345876581966877,0.00033035187516361475,0.00023853057064116,0.001599782845005393,0,1,-1000,0,0,0,-1,2,1,1500.0
04:57:36.818,STABILIZE,-35.3632622,149.1652375,0,-0.0004882311332039535,0.0009861503494903445,0.02345876581966877,0.00033035187516361475,0.00023853057064116,0.001599782845005393,0,1,-1000,0,0,0,-1,2,1,1500.0
04:57:37.019,STABILIZE,-35.3632622,149.1652375,0,-0.0004882311332039535,0.0009861503494903445,0.02345876581966877,0.00033035187516361475,0.00023853057064116,0.001599782845005393,0,1,-1000,0,0,0,-1,2,1,1500.0
04:57:37.220,STABILIZE,-35.3632622,149.1652375,0,-0.0006158890319056809,0.0009925583144649863,0.02318807691335678,0.00027938978746533394,0.0003393178340047598,0.0016377433203160763,0,1,-1000,1,0,1,-1,2,0,1500.0
04:57:37.422,STABILIZE,-35.3632622,149.1652375,0,-0.0006515721324831247,0.00098444486502558,0.023104876279830933,0.0003115393337793648,0.00028218887746334076,0.0016172167379409075,0,1,-1000,1,0,1,-1,2,0,1500.0
04:57:37.623,AUTO,-35.3632622,149.1652375,0,-0.0006961115286685526,0.0009793106000870466,0.02302231825888157,0.00022734265075996518,0.0002665595384314656,0.0015506565105170012,0,2,-1000,0,0,0,-1,2,0,1500.0
04:57:37.824,AUTO,-35.3632622,149.1652375,0,-0.0006961115286685526,0.0009793106000870466,0.02302231825888157,0.00022734265075996518,0.0002665595384314656,0.0015506565105170012,0,2,-1000,0,0,0,-1,2,0,1500.0
04:57:38.026,AUTO,-35.3632622,149.1652375,8,-0.0007358871516771615,0.0009881877340376377,0.022975564002990723,0.00028457888402044773,0.0002532918588258326,0.0015454611275345087,0,1,-1000,0,0,0,-1,2,0,1500.0
04:57:38.227,AUTO,-35.3632622,149.1652375,8,-0.0007659366820007563,0.0009839644189924002,0.022865599021315575,0.000237813510466367,0.0002904887078329921,0.0017119457479566336,0,2,-1000,0,0,0,-1,1,0,1500.0
04:57:38.429,AUTO,-35.3632622,149.1652375,8,-0.0007891557761467993,0.0009827879257500172,0.022793173789978027,0.0002708896645344794,0.0002434015041217208,0.0016172335017472506,0,1,-1000,0,1,0,-1,1,0,1500.0
04:57:38.630,AUTO,-35.3632622,149.1652375,8,-0.0007891557761467993,0.0009827879257500172,0.022793173789978027,0.0002708896645344794,0.0002434015041217208,0.0016172335017472506,0,1,-1000,0,1,0,-1,1,0,1500.0
04:57:38.832,AUTO,-35.3632622,149.1652375,8,-0.0007891557761467993,0.0009827879257500172,0.022793173789978027,0.0002708896645344794,0.0002434015041217208,0.0016172335017472506,0,1,-1000,0,1,0,-1,1,0,1500.0
04:57:39.034,AUTO,-35.3632622,149.1652375,8,-0.0007891557761467993,0.0009827879257500172,0.022793173789978027,0.0002708896645344794,0.0002434015041217208,0.0016172335017472506,0,1,-1000,0,1,0,-1,1,0,1500.0
04:57:39.250,AUTO,-35.3632621,149.1652375,8,-0.0007618674426339567,0.0010858426103368402,0.02257346548140049,0.00037829019129276276,0.0003729300806298852,0.0014908991288393736,0,1,-1000,1,1,0,0,0,0,1500.0
04:57:39.454,AUTO,-35.3632621,149.1652375,8,-0.0007207633461803198,0.0011341426288709044,0.022501645609736443,0.00030527834314852953,0.0002658483572304249,0.0015074748080223799,0,2,-1000,0,0,1,0,0,0,1500.0
04:57:39.705,AUTO,-35.3632621,149.1652375,6,-0.00019265757873654366,0.0011883986881002784,0.022427834570407867,0.0002477578818798065,0.0003501732717268169,0.0015603264328092337,0,1,-1000,0,0,0,0,0,1,1500.0
04:57:39.944,AUTO,-35.3632621,149.1652375,4,-0.0001491629082011059,0.0012574311112985015,0.022341448813676834,0.0002496893284842372,0.0003261653473600745,0.0014311301056295633,0,1,-1000,0,0,0,0,0,1,1500.0
04:57:40.145,AUTO,-35.3632621,149.1652375,3,-0.00010483410733286291,0.0013267099857330322,0.02225153148174286,0.0001588004524819553,0.0002616854617372155,0.0015620527556166053,0,1,-1000,0,0,1,0,0,1,1500.0
04:57:40.351,AUTO,-35.3632621,149.1652375,3,-0.00010483410733286291,0.0013267099857330322,0.02225153148174286,0.0001588004524819553,0.0002616854617372155,0.0015620527556166053,0,1,-1000,0,0,1,0,0,1,1500.0
04:57:40.553,AUTO,-35.3632621,149.1652375,3,-5.304089791025035e-05,0.0013939706841483712,0.022155510261654854,0.00020169984782114625,0.0003055846318602562,0.001493662828579545,0,1,-1000,1,0,0,0,0,1,1500.0
04:57:40.755,AUTO,-35.3632621,149.1652375,3,-5.304089791025035e-05,0.0013939706841483712,0.022155510261654854,0.00020169984782114625,0.0003055846318602562,0.001493662828579545,0,1,-1000,1,0,0,0,0,1,76681.0
04:57:40.957,AUTO,-35.3632621,149.1652375,3,-5.304089791025035e-05,0.0013939706841483712,0.022155510261654854,0.00020169984782114625,0.0003055846318602562,0.001493662828579545,0,1,-1000,1,0,0,0,0,1,76681.0
04:57:41.159,AUTO,-35.3632621,149.1652375,4,0.0001327849313383922,0.0016127913258969784,0.021880820393562317,0.00032354402355849743,0.0003695765044540167,0.0015987494261935353,0,2,-1000,1,0,0,0,0,0,76681.0
04:57:41.360,AUTO,-35.3632621,149.1652375,4,0.00019421183969825506,0.0016929811099544168,0.021773455664515495,0.00033883581636473536,0.0003475536359474063,0.0014787623658776283,0,2,-1000,1,0,0,0,0,0,76681.0
04:57:41.562,AUTO,-35.3632621,149.1652375,4,0.00019421183969825506,0.0016929811099544168,0.021773455664515495,0.00033883581636473536,0.0003475536359474063,0.0014787623658776283,0,2,-1000,1,0,0,0,0,0,76681.0
04:57:41.763,AUTO,-35.3632621,149.1652375,6,0.001394808990880847,0.001185083296149969,0.02172914519906044,0.009287594817578793,-0.01126343384385109,0.0020588531624525785,0,0,-1077,9,-10,1,0,0,-3,76681.0
04:57:41.965,AUTO,-35.3632621,149.1652375,60,0.004506290890276432,-0.0005128859193064272,0.021730516105890274,-0.0004496588371694088,-0.0008773827576078475,0.001711950870230794,0,0,-1140,0,0,1,0,0,-36,76681.0
04:57:42.166,AUTO,-35.3632621,149.1652375,198,0.003936935681849718,0.00021997580188326538,0.02177988551557064,0.00829985085874796,0.005340066272765398,0.003631784114986658,0,0,-1129,8,5,3,0,0,-70,76681.0
04:57:42.368,AUTO,-35.3632621,149.1652375,410,0.0024418672546744347,0.0011352926958352327,0.021759504452347755,-0.012027984485030174,0.0015468222554773092,-6.051169475540519e-05,0,0,-1108,-11,2,0,0,1,-98,76681.0
04:57:42.570,AUTO,-35.3632621,149.1652375,410,0.0024418672546744347,0.0011352926958352327,0.021759504452347755,-0.012027984485030174,0.0015468222554773092,-6.051169475540519e-05,0,0,-1108,-11,2,0,0,1,-98,76681.0
04:57:42.771,AUTO,-35.3632621,149.1652375,410,0.0024418672546744347,0.0011352926958352327,0.021759504452347755,-0.012027984485030174,0.0015468222554773092,-6.051169475540519e-05,0,0,-1108,-11,2,0,0,1,-98,76681.0
04:57:42.973,AUTO,-35.3632621,149.1652375,410,0.0024418672546744347,0.0011352926958352327,0.021759504452347755,-0.012027984485030174,0.0015468222554773092,-6.051169475540519e-05,0,0,-1108,-11,2,0,0,1,-98,76681.0
04:57:43.175,AUTO,-35.3632621,149.1652375,1389,0.022191734984517097,-0.0008083090069703758,0.021337272599339485,0.0466461181640625,-0.007486211135983467,0.002240490633994341,0,0,-1018,47,-6,1,0,5,-144,76681.0
04:57:43.376,AUTO,-35.363262,149.1652377,1775,0.033840540796518326,-0.0027826842851936817,0.021464494988322258,0.04456251487135887,-0.008022570051252842,0.0028405897319316864,0,-1,-1007,45,-7,2,1,11,-147,76681.0
04:57:43.577,AUTO,-35.363262,149.1652377,1775,0.033840540796518326,-0.0027826842851936817,0.021464494988322258,0.04456251487135887,-0.008022570051252842,0.0028405897319316864,0,-1,-1007,45,-7,2,1,11,-147,76681.0
04:57:43.797,AUTO,-35.3632619,149.1652381,2158,0.044616810977458954,-0.005051593296229839,0.021653691306710243,0.042205460369586945,-0.009453419595956802,0.0033405395224690437,0,-3,-1002,42,-8,2,3,19,-148,76681.0
04:57:44.030,AUTO,-35.3632618,149.1652388,2544,0.0546879805624485,-0.007718647364526987,0.021873852238059044,0.038587406277656555,-0.010755867697298527,0.0035775857977569103,1,-4,-1000,39,-10,2,5,30,-148,76681.0
04:57:44.255,AUTO,-35.3632616,149.1652397,2929,0.0625293105840683,-0.00964901689440012,-0.006808476522564888,-0.00012062978930771351,0.011545994319021702,-0.036893729120492935,1,-8,-994,0,12,-37,8,42,-148,76681.0
04:57:44.564,AUTO,-35.3632614,149.165241,3310,0.04339215159416199,0.011570125818252563,-0.029138077050447464,-0.13198071718215942,0.10260032117366791,-0.10471362620592117,3,-11,-991,-131,103,-105,10,52,-145,76681.0
04:57:44.771,AUTO,-35.3632614,149.165241,3310,0.04339215159416199,0.011570125818252563,-0.029138077050447464,-0.13198071718215942,0.10260032117366791,-0.10471362620592117,3,-11,-991,-131,103,-105,10,52,-145,76681.0
04:57:45.045,AUTO,-35.3632614,149.165241,3310,0.04339215159416199,0.011570125818252563,-0.029138077050447464,-0.13198071718215942,0.10260032117366791,-0.10471362620592117,3,-11,-991,-131,103,-105,10,52,-145,76681.0
04:57:45.248,AUTO,-35.3632608,149.165245,4449,-0.028287047520279884,-0.006023472175002098,-0.05059725418686867,-0.01728072017431259,-0.02851177379488945,-0.013201570138335228,4,-10,-1006,-16,-27,-13,6,38,-149,76681.0
04:57:45.451,AUTO,-35.3632606,149.1652459,4834,-0.03529299050569534,-0.005880901124328375,-0.05812348797917366,-0.04605458676815033,0.026611804962158203,-0.047169193625450134,2,-7,-1000,-45,27,-47,9,27,-150,76681.0
04:57:45.654,AUTO,-35.3632604,149.1652465,5220,-0.05177554488182068,0.003171326592564583,-0.0743584856390953,-0.08315498381853104,0.043280940502882004,-0.06906982511281967,0,-5,-998,-82,43,-69,9,14,-149,187238.0
04:57:45.856,AUTO,-35.3632604,149.1652465,5220,-0.05177554488182068,0.003171326592564583,-0.0743584856390953,-0.08315498381853104,0.043280940502882004,-0.06906982511281967,0,-5,-998,-82,43,-69,9,14,-149,187238.0
04:57:46.058,AUTO,-35.3632602,149.1652467,5603,-0.07597795873880386,0.012025767005980015,-0.09375902265310287,-0.1044713482260704,0.038149356842041016,-0.07678163796663284,0,-3,-998,-103,38,-77,6,-2,-148,187238.0
04:57:46.260,AUTO,-35.3632601,149.1652464,5986,-0.08167601376771927,0.015117675997316837,-0.10851332545280457,0.03799650818109512,0.002528876531869173,-0.04711466655135155,-2,1,-1005,38,3,-47,0,-22,-149,187238.0
04:57:46.462,AUTO,-35.3632602,149.1652456,6373,-0.06927646696567535,0.014719764702022076,-0.11860362440347672,0.05473274737596512,0.0022990326397120953,-0.03372297063469887,-3,5,-1001,55,3,-34,-5,-40,-149,187238.0
04:57:46.664,AUTO,-35.3632602,149.1652456,6373,-0.06927646696567535,0.014719764702022076,-0.11860362440347672,0.05473274737596512,0.0022990326397120953,-0.03372297063469887,-3,5,-1001,55,3,-34,-5,-40,-149,187238.0
04:57:46.866,AUTO,-35.3632602,149.1652456,6373,-0.06927646696567535,0.014719764702022076,-0.11860362440347672,0.05473274737596512,0.0022990326397120953,-0.03372297063469887,-3,5,-1001,55,3,-34,-5,-40,-149,187238.0
04:57:47.068,AUTO,-35.3632602,149.1652456,6373,-0.06927646696567535,0.014719764702022076,-0.11860362440347672,0.05473274737596512,0.0022990326397120953,-0.03372297063469887,-3,5,-1001,55,3,-34,-5,-40,-149,187238.0
04:57:47.270,AUTO,-35.363261,149.165241,7517,-0.022123990580439568,0.018866755068302155,-0.133377805352211,0.07022691518068314,0.008719353936612606,-0.009914925321936607,-6,13,-1003,70,9,-10,-22,-66,-149,187238.0
04:57:47.471,AUTO,-35.3632616,149.1652392,7902,-0.004426731262356043,0.020859211683273315,-0.13507512211799622,0.07247673720121384,0.007708724122494459,-0.005409437231719494,-4,14,-1004,73,8,-6,-28,-65,-150,187238.0
04:57:47.673,AUTO,-35.3632622,149.1652374,8289,0.013671090826392174,0.02220076136291027,-0.13539369404315948,0.0723903477191925,0.0034220325760543346,-0.0005255655851215124,-2,16,-1005,72,4,-1,-33,-60,-151,187238.0
04:57:47.876,AUTO,-35.363263,149.1652358,8678,0.03181727975606918,0.022689905017614365,-0.13493730127811432,0.07253985106945038,-0.0007097789784893394,0.0018289020517840981,-3,16,-1004,73,0,1,-38,-51,-152,187238.0
04:57:48.078,AUTO,-35.363263,149.1652358,8678,0.03181727975606918,0.022689905017614365,-0.13493730127811432,0.07253985106945038,-0.0007097789784893394,0.0018289020517840981,-3,16,-1004,73,0,1,-38,-51,-152,187238.0
04:57:48.279,AUTO,-35.3632639,149.1652345,9070,0.04960160329937935,0.02174866758286953,-0.13387848436832428,0.07030900567770004,-0.006883028894662857,0.003969620447605848,0,15,-1003,70,-6,3,-41,-37,-153,187238.0
04:57:48.482,AUTO,-35.3632649,149.1652337,9462,0.05375996232032776,0.007969701662659645,-0.12149635702371597,-0.026044366881251335,-0.09788048267364502,0.08429135382175446,5,11,-996,-25,-97,83,-42,-22,-152,187238.0
04:57:48.684,AUTO,-35.3632649,149.1652337,9462,0.05375996232032776,0.007969701662659645,-0.12149635702371597,-0.026044366881251335,-0.09788048267364502,0.08429135382175446,5,11,-996,-25,-97,83,-42,-22,-152,187238.0
04:57:48.885,AUTO,-35.3632649,149.1652337,9462,0.05375996232032776,0.007969701662659645,-0.12149635702371597,-0.026044366881251335,-0.09788048267364502,0.08429135382175446,5,11,-996,-25,-97,83,-42,-22,-152,187238.0
04:57:49.090,AUTO,-35.3632649,149.1652337,9462,0.05375996232032776,0.007969701662659645,-0.12149635702371597,-0.026044366881251335,-0.09788048267364502,0.08429135382175446,5,11,-996,-25,-97,83,-42,-22,-152,187238.0
04:57:49.375,AUTO,-35.3632669,149.1652336,11025,0.053947966545820236,-0.07680609077215195,-0.031049462035298347,0.01588313654065132,-0.05422961339354515,0.08695247769355774,4,1,-1000,3,-68,97,8,25,-151,187238.0
04:57:49.610,AUTO,-35.3632669,149.1652336,11025,0.053947966545820236,-0.07680609077215195,-0.031049462035298347,0.01588313654065132,-0.05422961339354515,0.08695247769355774,2,-1,-1000,16,-53,86,8,25,-151,187238.0
04:57:49.834,AUTO,-35.3632666,149.1652344,11411,0.058302197605371475,-0.08702029287815094,-0.01345125213265419,0.030970128253102303,-0.021374687552452087,0.06531209498643875,0,-7,-998,31,-20,64,29,36,-150,187238.0
04:57:50.086,AUTO,-35.3632657,149.1652355,11791,0.04904581978917122,-0.08362211287021637,-0.008853329345583916,-0.11603149771690369,0.0762229710817337,-0.03746162727475166,-3,-11,-986,-115,76,-37,50,46,-146,187238.0
04:57:50.295,AUTO,-35.3632644,149.1652368,12162,0.00851012859493494,-0.04941388592123985,-0.032282572239637375,-0.18029449880123138,0.15926070511341095,-0.12459126859903336,-6,-15,-999,-179,159,-124,66,49,-144,187238.0
04:57:50.497,AUTO,-35.3632629,149.1652379,12533,-0.02761884406208992,-0.012165063060820103,-0.07029888778924942,-0.12079078704118729,0.13598260283470154,-0.15608879923820496,-5,-18,-1014,-120,136,-156,71,40,-146,187238.0
04:57:50.700,AUTO,-35.3632629,149.1652379,12533,-0.02761884406208992,-0.012165063060820103,-0.07029888778924942,-0.12079078704118729,0.13598260283470154,-0.15608879923820496,-5,-18,-1014,-120,136,-156,71,40,-146,176154.0
04:57:50.902,AUTO,-35.3632629,149.1652379,12533,-0.02761884406208992,-0.012165063060820103,-0.07029888778924942,-0.12079078704118729,0.13598260283470154,-0.15608879923820496,-5,-18,-1014,-120,136,-156,71,40,-146,176154.0
04:57:51.104,AUTO,-35.3632629,149.1652379,12533,-0.02761884406208992,-0.012165063060820103,-0.07029888778924942,-0.12079078704118729,0.13598260283470154,-0.15608879923820496,-5,-18,-1014,-120,136,-156,71,40,-146,176154.0
04:57:51.306,AUTO,-35.3632587,149.1652393,13687,-0.05617758631706238,0.04153236746788025,-0.17275281250476837,0.023337120190262794,0.03537747636437416,-0.09280075132846832,-10,-8,-1006,24,36,-93,44,-6,-154,176154.0
04:57:51.508,AUTO,-35.3632578,149.165239,14080,-0.0485680028796196,0.046889904886484146,-0.19259829819202423,0.03949294239282608,0.021629486232995987,-0.06580435484647751,-8,-3,-1002,40,22,-66,29,-18,-154,176154.0
04:57:51.709,AUTO,-35.3632573,149.1652384,14474,-0.03862409293651581,0.05094548687338829,-0.20696121454238892,0.04598664119839668,0.017573872581124306,-0.049549683928489685,-7,0,-1000,46,17,-49,14,-27,-154,176154.0
04:57:51.911,AUTO,-35.3632571,149.1652375,14866,-0.02692403271794319,0.05442686378955841,-0.2169565111398697,0.051851172000169754,0.014280213974416256,-0.03552348539233208,-7,4,-1000,52,14,-35,0,-32,-153,176154.0
04:57:52.113,AUTO,-35.3632572,149.1652366,15257,-0.013784698210656643,0.05688891559839249,-0.2235887497663498,0.05688273906707764,0.008744928985834122,-0.02521011419594288,-4,6,-1000,57,9,-25,-15,-33,-153,176154.0
04:57:52.315,AUTO,-35.3632572,149.1652366,15257,-0.013784698210656643,0.05688891559839249,-0.2235887497663498,0.05688273906707764,0.008744928985834122,-0.02521011419594288,-4,6,-1000,57,9,-25,-15,-33,-153,176154.0
04:57:52.517,AUTO,-35.3632575,149.1652357,15651,0.0006744213169440627,0.05799989402294159,-0.22757789492607117,0.060682132840156555,0.001998931635171175,-0.01708463579416275,-3,8,-1000,61,2,-17,-29,-30,-153,176154.0
04:57:52.719,AUTO,-35.3632575,149.1652357,15651,0.0006744213169440627,0.05799989402294159,-0.22757789492607117,0.060682132840156555,0.001998931635171175,-0.01708463579416275,-3,8,-1000,61,2,-17,-29,-30,-153,176154.0
04:57:52.922,AUTO,-35.3632575,149.1652357,15651,0.0006744213169440627,0.05799989402294159,-0.22757789492607117,0.060682132840156555,0.001998931635171175,-0.01708463579416275,-3,8,-1000,61,2,-17,-29,-30,-153,176154.0
04:57:53.124,AUTO,-35.3632605,149.1652339,16814,0.038992371410131454,0.042763225734233856,-0.22242416441440582,-0.022564493119716644,-0.09531991183757782,0.07336308062076569,7,10,-994,-21,-94,72,-59,-1,-151,176154.0
04:57:53.330,AUTO,-35.3632605,149.1652339,16814,0.038992371410131454,0.042763225734233856,-0.22242416441440582,-0.022564493119716644,-0.09531991183757782,0.07336308062076569,7,10,-994,-21,-94,72,-59,-1,-151,176154.0
04:57:53.532,AUTO,-35.3632618,149.1652338,17198,0.022246278822422028,0.0031938403844833374,-0.19140209257602692,-0.09416628628969193,-0.19167521595954895,0.16400274634361267,11,8,-998,-93,-191,163,-60,7,-150,176154.0
04:57:53.799,AUTO,-35.363263,149.165234,17580,-0.007526729255914688,-0.04765237122774124,-0.14114627242088318,-0.12187284231185913,-0.20086613297462463,0.21933530271053314,11,5,-1005,-121,-199,218,-50,8,-151,176154.0
04:57:54.022,AUTO,-35.3632639,149.1652341,17962,-0.04574071988463402,-0.07068123668432236,-0.07771547138690948,-0.12350568920373917,0.061602093279361725,0.3403261601924896,7,3,-970,-122,62,339,-32,0,-147,176154.0
04:57:54.237,AUTO,-35.3632644,149.1652338,18319,-0.0474105030298233,-0.04663250222802162,-0.009836668148636818,0.10132487863302231,0.05196994170546532,0.20472721755504608,3,4,-933,101,52,204,-17,-11,-132,176154.0
04:57:54.490,AUTO,-35.3632647,149.1652335,18635,-0.014307492412626743,-0.03984168916940689,0.021957941353321075,0.1481948047876358,0.01089821383357048,0.06962331384420395,0,4,-933,148,11,68,-7,-18,-115,176154.0
04:57:54.697,AUTO,-35.3632647,149.1652335,18635,-0.014307492412626743,-0.03984168916940689,0.021957941353321075,0.1481948047876358,0.01089821383357048,0.06962331384420395,0,4,-933,148,11,68,-7,-18,-115,176154.0
04:57:54.918,AUTO,-35.3632647,149.1652335,18635,-0.014307492412626743,-0.03984168916940689,0.021957941353321075,0.1481948047876358,0.01089821383357048,0.06962331384420395,0,4,-933,148,11,68,-7,-18,-115,176154.0
04:57:55.123,AUTO,-35.3632644,149.1652323,19350,0.04997425153851509,-0.015735916793346405,0.016973480582237244,0.021854249760508537,0.03814186155796051,-0.02124965190887451,-3,0,-957,22,38,-21,12,0,-74,176154.0
04:57:55.324,AUTO,-35.3632644,149.1652323,19350,0.04997425153851509,-0.015735916793346405,0.016973480582237244,0.021854249760508537,0.03814186155796051,-0.02124965190887451,-3,0,-957,22,38,-21,12,0,-74,176154.0
04:57:55.526,AUTO,-35.3632641,149.1652322,19529,0.05060678347945213,-0.0076680839993059635,0.013043282553553581,-0.013432305306196213,0.027729716151952744,-0.008951367810368538,-2,-3,-962,-12,28,-9,15,10,-64,68134.0
04:57:55.728,AUTO,-35.3632637,149.1652325,19681,0.04528449475765228,-0.0009444775641895831,0.011125539429485798,-0.031091000884771347,0.026109764352440834,-0.0033561591990292072,-1,-5,-968,-30,26,-3,15,19,-56,68134.0
04:57:55.930,AUTO,-35.3632633,149.1652331,19813,0.03623999282717705,0.005012872163206339,0.010600203648209572,-0.03407261520624161,0.022175513207912445,0.0020439866930246353,-1,-6,-973,-33,22,1,15,26,-48,68134.0
04:57:56.131,AUTO,-35.3632629,149.1652338,19928,0.026442402973771095,0.009355143643915653,0.010325506329536438,-0.032834626734256744,0.01660752296447754,0.0028737448155879974,0,-7,-976,-32,17,2,14,31,-42,68134.0
04:57:56.333,AUTO,-35.3632629,149.1652338,19928,0.026442402973771095,0.009355143643915653,0.010325506329536438,-0.032834626734256744,0.01660752296447754,0.0028737448155879974,0,-7,-976,-32,17,2,14,31,-42,68134.0
04:57:56.535,AUTO,-35.3632626,149.1652346,20027,0.017517734318971634,0.012047477066516876,0.009790600277483463,-0.03708616644144058,0.011136614717543125,0.0003073627594858408,1,-8,-978,-36,11,0,12,33,-37,68134.0
04:57:56.737,AUTO,-35.3632626,149.1652346,20027,0.017517734318971634,0.012047477066516876,0.009790600277483463,-0.03708616644144058,0.011136614717543125,0.0003073627594858408,1,-8,-978,-36,11,0,12,33,-37,68134.0
04:57:56.939,AUTO,-35.3632626,149.1652346,20027,0.017517734318971634,0.012047477066516876,0.009790600277483463,-0.03708616644144058,0.011136614717543125,0.0003073627594858408,1,-8,-978,-36,11,0,12,33,-37,68134.0
04:57:57.141,AUTO,-35.3632618,149.1652371,20237,-0.0031192770693451166,0.014971795491874218,0.007868233136832714,-0.011450529098510742,-0.0008228311198763549,-0.001410082564689219,1,-6,-977,-10,0,-1,5,29,-20,68134.0
04:57:57.343,AUTO,-35.3632618,149.1652371,20237,-0.0031192770693451166,0.014971795491874218,0.007868233136832714,-0.011450529098510742,-0.0008228311198763549,-0.001410082564689219,1,-6,-977,-10,0,-1,5,29,-20,68134.0
04:57:57.544,AUTO,-35.3632617,149.1652378,20278,-0.007798296865075827,0.013874695636332035,0.00699169235303998,-0.04117308557033539,-0.004404415842145681,-0.0041265529580414295,1,-6,-974,-40,-3,-4,3,25,-14,68134.0
04:57:57.746,AUTO,-35.3632616,149.1652384,20302,-0.009722819551825523,0.012229242362082005,0.006256395485252142,0.016493242233991623,-0.006545399781316519,-0.00433817133307457,2,-3,-971,17,-5,-4,1,21,-7,68134.0
04:57:57.948,AUTO,-35.3632615,149.1652389,20307,-0.019848119467496872,0.012962044216692448,0.005423212889581919,-0.2919556200504303,0.07094385474920273,-0.00726664811372757,0,-14,-949,-291,71,-7,0,16,1,68134.0
04:57:58.149,AUTO,-35.3632615,149.1652392,20278,-0.05494555085897446,0.017172016203403473,0.004305234178900719,-0.40413153171539307,-0.00575929693877697,-0.0034834619145840406,0,-14,-968,-402,-4,-3,-3,6,15,68134.0
04:57:58.351,AUTO,-35.3632615,149.1652392,20278,-0.05494555085897446,0.017172016203403473,0.004305234178900719,-0.40413153171539307,-0.00575929693877697,-0.0034834619145840406,0,-14,-968,-402,-4,-3,-3,6,15,68134.0
04:57:58.553,AUTO,-35.3632616,149.1652393,20225,-0.04396833851933479,0.013654529117047787,0.00393969751894474,0.37036293745040894,-0.005803440231829882,-4.580334643833339e-05,0,39,-978,372,-5,0,-6,-3,23,68134.0
04:57:58.755,AUTO,-35.3632616,149.1652393,20225,-0.04396833851933479,0.013654529117047787,0.00393969751894474,0.37036293745040894,-0.005803440231829882,-4.580334643833339e-05,0,39,-978,372,-5,0,-6,-3,23,68134.0
04:57:58.956,AUTO,-35.3632616,149.1652393,20225,-0.04396833851933479,0.013654529117047787,0.00393969751894474,0.37036293745040894,-0.005803440231829882,-4.580334643833339e-05,0,39,-978,372,-5,0,-6,-3,23,68134.0
04:57:59.188,AUTO,-35.3632621,149.1652377,20082,-0.03517456725239754,0.010338151827454567,0.0021687978878617287,-0.000572306860703975,0.0010505272075533867,-0.002197271678596735,-1,-9,-1005,0,1,-2,-14,-34,10,68134.0
04:57:59.410,AUTO,-35.3632624,149.1652367,20055,-0.04374227300286293,0.010240877978503704,0.001551609835587442,0.057203181087970734,0.0008512969361618161,-0.00421405304223299,-2,-8,-1003,57,2,-4,-16,-43,7,68134.0
04:57:59.619,AUTO,-35.3632624,149.1652367,20055,-0.04374227300286293,0.010240877978503704,0.001551609835587442,0.057203181087970734,0.0008512969361618161,-0.00421405304223299,-2,-8,-1003,57,2,-4,-16,-43,7,68134.0
04:57:59.895,AUTO,-35.3632632,149.165234,20028,-0.06670581549406052,0.011340383440256119,-0.004501120187342167,-0.7134182453155518,0.012669567950069904,-0.08172343671321869,-3,-19,-995,-712,13,-82,-22,-61,0,68134.0
04:58:00.097,AUTO,-35.3632632,149.165234,20028,-0.06670581549406052,0.011340383440256119,-0.004501120187342167,-0.7134182453155518,0.012669567950069904,-0.08172343671321869,-3,-19,-995,-712,13,-82,-22,-61,0,68134.0
04:58:00.299,AUTO,-35.3632638,149.1652323,20029,-0.07379765063524246,0.007727307267487049,-0.05847201123833656,-0.3593740463256836,0.011094735935330391,-0.27636560797691345,-3,7,-1005,-358,12,-276,-26,-72,-3,68134.0
04:58:00.501,AUTO,-35.3632644,149.1652304,20034,-0.07854818552732468,0.002857678569853306,-0.1345129907131195,0.2225203663110733,0.0093915406614542,-0.31130126118659973,-5,45,-1016,224,10,-312,-29,-84,-4,68134.0
04:58:00.703,AUTO,-35.3632644,149.1652304,20034,-0.07854818552732468,0.002857678569853306,-0.1345129907131195,0.2225203663110733,0.0093915406614542,-0.31130126118659973,-5,45,-1016,224,10,-312,-29,-84,-4,111255.0
04:58:00.905,AUTO,-35.3632644,149.1652304,20034,-0.07854818552732468,0.002857678569853306,-0.1345129907131195,0.2225203663110733,0.0093915406614542,-0.31130126118659973,-5,45,-1016,224,10,-312,-29,-84,-4,111255.0
04:58:01.107,AUTO,-35.3632644,149.1652304,20034,-0.07854818552732468,0.002857678569853306,-0.1345129907131195,0.2225203663110733,0.0093915406614542,-0.31130126118659973,-5,45,-1016,224,10,-312,-29,-84,-4,111255.0
04:58:01.309,AUTO,-35.3632668,149.1652226,20042,-0.1155146062374115,-0.03305898234248161,-0.4090100824832916,-0.15883219242095947,-0.021115006878972054,-0.5164494514465332,-13,4,-1002,-159,-20,-516,-44,-138,-1,111255.0
04:58:01.511,AUTO,-35.3632679,149.1652191,20043,-0.1303386092185974,-0.05537319555878639,-0.5432619452476501,-0.6395435333251953,-0.021805480122566223,-0.5258511304855347,-26,-1,-997,-639,-21,-526,-51,-159,-1,111255.0
04:58:01.713,AUTO,-35.3632691,149.165215,20041,-0.1336030811071396,-0.0811115950345993,-0.6752374172210693,-0.3450322151184082,-0.030176758766174316,-0.5219216346740723,-31,21,-1003,-344,-29,-522,-57,-182,0,111255.0
04:58:01.914,AUTO,-35.3632705,149.1652103,20039,-0.12829621136188507,-0.10830872505903244,-0.8015386462211609,0.2674719989299774,-0.060629162937402725,-0.5176704525947571,-41,50,-998,268,-59,-517,-65,-207,0,111255.0
04:58:02.116,AUTO,-35.3632721,149.1652048,20036,-0.12413253635168076,-0.13529421389102936,-0.9246475696563721,0.1427745521068573,-0.05027714744210243,-0.4881211817264557,-48,21,-1002,142,-49,-488,-73,-235,0,111255.0
04:58:02.318,AUTO,-35.3632721,149.1652048,20036,-0.12413253635168076,-0.13529421389102936,-0.9246475696563721,0.1427745521068573,-0.05027714744210243,-0.4881211817264557,-48,21,-1002,142,-49,-488,-73,-235,0,111255.0
04:58:02.521,AUTO,-35.3632739,149.1651986,20032,-0.1136045828461647,-0.15852805972099304,-1.0467984676361084,-0.31106868386268616,-0.021264802664518356,-0.4742613136768341,-62,-5,-1000,-311,-20,-474,-83,-264,1,111255.0
04:58:02.723,AUTO,-35.3632739,149.1651986,20032,-0.1136045828461647,-0.15852805972099304,-1.0467984676361084,-0.31106868386268616,-0.021264802664518356,-0.4742613136768341,-62,-5,-1000,-311,-20,-474,-83,-264,1,111255.0
04:58:02.925,AUTO,-35.3632739,149.1651986,20032,-0.1136045828461647,-0.15852805972099304,-1.0467984676361084,-0.31106868386268616,-0.021264802664518356,-0.4742613136768341,-62,-5,-1000,-311,-20,-474,-83,-264,1,111255.0
04:58:03.128,AUTO,-35.3632803,149.1651753,20017,-0.032151173800230026,-0.19636864960193634,-1.4169390201568604,0.08870510756969452,-0.011093033477663994,-0.4830241799354553,-82,-7,-1006,88,-10,-483,-107,-346,1,111255.0
04:58:03.329,AUTO,-35.3632803,149.1651753,20017,-0.032151173800230026,-0.19636864960193634,-1.4169390201568604,0.08870510756969452,-0.011093033477663994,-0.4830241799354553,-82,-7,-1006,88,-10,-483,-107,-346,1,111255.0
04:58:03.532,AUTO,-35.3632827,149.1651659,20014,-0.00969771109521389,-0.2008950561285019,-1.541014313697815,-0.25647908449172974,-0.028494931757450104,-0.47602909803390503,-96,-35,-1004,-256,-27,-476,-115,-371,0,111255.0
04:58:03.749,AUTO,-35.3632854,149.1651559,20011,0.018633482977747917,-0.2096816897392273,-1.6668989658355713,0.014319166541099548,-0.022792156785726547,-0.49446091055870056,-90,-25,-998,14,-21,-494,-121,-395,1,111255.0
04:58:03.962,AUTO,-35.3632881,149.1651452,20006,0.04370204359292984,-0.21414785087108612,-1.792283296585083,0.16212797164916992,-0.03241473436355591,-0.49264782667160034,-88,-33,-996,162,-31,-492,-127,-421,2,111255.0
04:58:04.234,AUTO,-35.3632911,149.1651336,19997,0.06665830314159393,-0.2117139995098114,-1.8845908641815186,0.14233791828155518,-0.0029179223347455263,-0.23441937565803528,-86,-53,-999,142,-1,-234,-136,-446,3,111255.0
04:58:04.538,AUTO,-35.3632942,149.1651211,19988,0.07170824706554413,-0.2074728161096573,-1.9098979234695435,-0.06094704940915108,0.013828806579113007,-0.00965232215821743,-94,-64,-1003,-61,14,-9,-144,-471,2,111255.0
04:58:04.800,AUTO,-35.3632942,149.1651211,19988,0.07170824706554413,-0.2074728161096573,-1.9098979234695435,-0.06094704940915108,0.013828806579113007,-0.00965232215821743,-94,-64,-1003,-61,14,-9,-144,-471,2,111255.0
04:58:05.006,AUTO,-35.3632942,149.1651211,19988,0.07170824706554413,-0.2074728161096573,-1.9098979234695435,-0.06094704940915108,0.013828806579113007,-0.00965232215821743,-94,-64,-1003,-61,14,-9,-144,-471,2,111255.0
04:58:05.211,AUTO,-35.3633045,149.16508,19989,0.07208731770515442,-0.18087778985500336,-1.8672899007797241,0.03550109267234802,0.04954236373305321,0.023327138274908066,-105,-55,-1000,35,50,23,-161,-531,-4,111255.0
04:58:05.420,AUTO,-35.3633082,149.1650651,19998,0.07102148234844208,-0.16893605887889862,-1.8606619834899902,0.02999998815357685,0.04087907448410988,0.009023803286254406,-116,-70,-1000,29,41,8,-166,-545,-6,220564.0
04:58:05.623,AUTO,-35.3633121,149.1650496,20012,0.07605011016130447,-0.16593800485134125,-1.8611516952514648,0.02665548585355282,0.0021976889111101627,-0.009618176147341728,-98,-71,-979,26,3,-9,-171,-556,-7,220564.0
04:58:05.824,AUTO,-35.3633121,149.1650496,20012,0.07605011016130447,-0.16593800485134125,-1.8611516952514648,0.02665548585355282,0.0021976889111101627,-0.009618176147341728,-98,-71,-979,26,3,-9,-171,-556,-7,220564.0
04:58:06.026,AUTO,-35.3633159,149.1650341,20023,0.07689464837312698,-0.16247011721134186,-1.8626453876495361,0.007597878109663725,0.010587001219391823,-0.0069857812486588955,-117,-70,-988,7,11,-7,-174,-567,-6,220564.0
04:58:06.228,AUTO,-35.3633199,149.1650183,20033,0.07577980309724808,-0.1583016961812973,-1.8639800548553467,-0.007492173928767443,0.021592620760202408,-0.00636010617017746,-123,-71,-993,-7,22,-6,-177,-577,-5,220564.0
04:58:06.430,AUTO,-35.3633239,149.1650021,20043,0.07692113518714905,-0.15055516362190247,-1.8642820119857788,-0.006442964542657137,0.0346737802028656,0.005765828303992748,-111,-77,-987,-6,35,5,-180,-585,-6,220564.0
04:58:06.636,AUTO,-35.3633239,149.1650021,20043,0.07692113518714905,-0.15055516362190247,-1.8642820119857788,-0.006442964542657137,0.0346737802028656,0.005765828303992748,-111,-77,-987,-6,35,5,-180,-585,-6,220564.0
04:58:06.838,AUTO,-35.3633239,149.1650021,20043,0.07692113518714905,-0.15055516362190247,-1.8642820119857788,-0.006442964542657137,0.0346737802028656,0.005765828303992748,-111,-77,-987,-6,35,5,-180,-585,-6,220564.0
04:58:07.040,AUTO,-35.3633239,149.1650021,20043,0.07692113518714905,-0.15055516362190247,-1.8642820119857788,-0.006442964542657137,0.0346737802028656,0.005765828303992748,-111,-77,-987,-6,35,5,-180,-585,-6,220564.0
04:58:07.242,AUTO,-35.3633363,149.1649526,20070,0.07670535892248154,-0.14076600968837738,-1.86421799659729,-0.009993737563490868,0.036135539412498474,-0.004314643330872059,-131,-69,-992,-9,37,-4,-185,-600,-4,220564.0
04:58:07.444,AUTO,-35.3633405,149.1649358,20076,0.07855062931776047,-0.1312759667634964,-1.864348292350769,0.05549521744251251,0.03398748114705086,-0.0020830449648201466,-115,-78,-992,55,34,-2,-187,-604,-5,220564.0
04:58:07.646,AUTO,-35.3633448,149.164919,20086,0.0805991142988205,-0.1264684647321701,-1.8650391101837158,0.015226736664772034,0.006175062619149685,-0.000799780071247369,-138,-71,-989,15,6,-1,-186,-603,-5,220564.0
04:58:07.847,AUTO,-35.3633448,149.164919,20086,0.0805991142988205,-0.1264684647321701,-1.8650391101837158,0.015226736664772034,0.006175062619149685,-0.000799780071247369,-138,-71,-989,15,6,-1,-186,-603,-5,220564.0
04:58:08.049,AUTO,-35.3633491,149.1649023,20094,0.08061755448579788,-0.12709639966487885,-1.8652939796447754,-0.02474994957447052,-0.0018780180253088474,-0.0008740355260670185,-121,-73,-981,-24,0,-1,-186,-602,-4,220564.0
04:58:08.251,AUTO,-35.3633533,149.1648856,20097,0.08108430355787277,-0.12066342681646347,-1.864849328994751,-0.005712748505175114,0.024839969351887703,0.0015396821545436978,-131,-84,-997,-5,25,1,-186,-602,-3,220564.0
04:58:08.453,AUTO,-35.3633576,149.1648689,20100,0.08195841312408447,-0.12299582362174988,-1.8646420240402222,0.002463407116010785,-0.025799080729484558,-0.00423751724883914,-116,-58,-976,2,-24,-4,-185,-602,-1,220564.0
04:58:08.655,AUTO,-35.3633576,149.1648689,20100,0.08195841312408447,-0.12299582362174988,-1.8646420240402222,0.002463407116010785,-0.025799080729484558,-0.00423751724883914,-116,-58,-976,2,-24,-4,-185,-602,-1,220564.0
04:58:08.857,AUTO,-35.3633576,149.1648689,20100,0.08195841312408447,-0.12299582362174988,-1.8646420240402222,0.002463407116010785,-0.025799080729484558,-0.00423751724883914,-116,-58,-976,2,-24,-4,-185,-602,-1,220564.0
04:58:09.060,AUTO,-35.3633576,149.1648689,20100,0.08195841312408447,-0.12299582362174988,-1.8646420240402222,0.002463407116010785,-0.025799080729484558,-0.00423751724883914,-116,-58,-976,2,-24,-4,-185,-602,-1,220564.0
04:58:09.262,AUTO,-35.3633704,149.1648193,20095,0.08438795804977417,-0.10903459042310715,-1.8654204607009888,-0.02597208321094513,0.05475105345249176,-0.0012706712586805224,-125,-85,-1000,-25,55,-1,-183,-595,-2,220564.0
04:58:09.476,AUTO,-35.3633746,149.1648028,20099,0.08667290955781937,-0.08967133611440659,-1.8657846450805664,0.013995382003486156,0.08009083569049835,-0.013392212800681591,-124,-71,-1005,14,81,-13,-181,-590,-5,220564.0
04:58:09.691,AUTO,-35.3633787,149.1647866,20109,0.08557356894016266,-0.0732080489397049,-1.8647348880767822,0.04018864408135414,0.040501225739717484,-0.0026960251852869987,-124,-76,-997,40,41,-2,-177,-580,-7,220564.0
04:58:09.898,AUTO,-35.3633828,149.1647707,20123,0.0878639742732048,-0.06458292156457901,-1.864705204963684,0.0011366227408871055,0.01906602829694748,9.678967762738466e-05,-126,-85,-990,1,19,0,-174,-567,-7,220564.0
04:58:10.135,AUTO,-35.3633828,149.1647707,20123,0.0878639742732048,-0.06458292156457901,-1.864705204963684,0.0011366227408871055,0.01906602829694748,9.678967762738466e-05,-126,-85,-990,1,19,0,-174,-567,-7,220564.0
04:58:10.386,AUTO,-35.3633905,149.1647401,20142,0.08389783650636673,-0.039840951561927795,-1.863747477531433,0.09073185920715332,0.07060942053794861,-0.008149213157594204,-113,-65,-998,90,71,-8,-163,-539,-5,220564.0
04:58:10.613,AUTO,-35.3633905,149.1647401,20142,0.08389783650636673,-0.039840951561927795,-1.863747477531433,0.09073185920715332,0.07060942053794861,-0.008149213157594204,-113,-65,-998,90,71,-8,-163,-539,-5,220564.0
04:58:10.818,AUTO,-35.3633905,149.1647401,20142,0.08389783650636673,-0.039840951561927795,-1.863747477531433,0.09073185920715332,0.07060942053794861,-0.008149213157594204,-113,-65,-998,90,71,-8,-163,-539,-5,220564.0
04:58:11.027,AUTO,-35.3633905,149.1647401,20142,0.08389783650636673,-0.039840951561927795,-1.863747477531433,0.09073185920715332,0.07060942053794861,-0.008149213157594204,-113,-65,-998,90,71,-8,-163,-539,-5,220564.0
04:58:11.233,AUTO,-35.3634011,149.1646977,20154,0.07267361879348755,-0.0019840651657432318,-1.862021803855896,-0.6193839907646179,0.031544290482997894,0.021004479378461838,-110,-101,-988,-619,32,20,-143,-477,-2,43276.0
04:58:11.435,AUTO,-35.3634043,149.1646848,20147,0.06508727371692657,0.010416717268526554,-1.8606401681900024,-0.5388440489768982,0.06859848648309708,-0.010308980941772461,-96,-78,-1007,-538,69,-10,-135,-453,1,43276.0
04:58:11.636,AUTO,-35.3634074,149.1646725,20137,0.07005131989717484,0.0256276186555624,-1.8613847494125366,0.26962605118751526,0.06016172468662262,-0.04220212623476982,-86,-34,-1007,271,61,-42,-127,-427,1,43276.0
04:58:11.838,AUTO,-35.3634074,149.1646725,20137,0.07005131989717484,0.0256276186555624,-1.8613847494125366,0.26962605118751526,0.06016172468662262,-0.04220212623476982,-86,-34,-1007,271,61,-42,-127,-427,1,43276.0
04:58:12.040,AUTO,-35.3634103,149.164661,20127,0.07785657048225403,0.0387418232858181,-1.8609966039657593,0.7615833282470703,0.06588901579380035,-0.03493998944759369,-74,-29,-1001,761,66,-35,-118,-400,1,43276.0
04:58:12.242,AUTO,-35.3634129,149.1646504,20117,0.07336747646331787,0.05170838162302971,-1.8603644371032715,0.4141870141029358,0.029874620959162712,0.005440787877887487,-75,-46,-1011,413,30,4,-109,-370,0,43276.0
04:58:12.444,AUTO,-35.3634154,149.1646407,20106,0.06055803969502449,0.05275561660528183,-1.8602486848831177,-0.5106971263885498,-0.028415672481060028,0.03638932853937149,-69,-89,-981,-511,-27,35,-99,-339,2,43276.0
04:58:12.646,AUTO,-35.3634154,149.1646407,20106,0.06055803969502449,0.05275561660528183,-1.8602486848831177,-0.5106971263885498,-0.028415672481060028,0.03638932853937149,-69,-89,-981,-511,-27,35,-99,-339,2,43276.0
04:58:12.848,AUTO,-35.3634154,149.1646407,20106,0.06055803969502449,0.05275561660528183,-1.8602486848831177,-0.5106971263885498,-0.028415672481060028,0.03638932853937149,-69,-89,-981,-511,-27,35,-99,-339,2,43276.0
04:58:13.050,AUTO,-35.3634154,149.1646407,20106,0.06055803969502449,0.05275561660528183,-1.8602486848831177,-0.5106971263885498,-0.028415672481060028,0.03638932853937149,-69,-89,-981,-511,-27,35,-99,-339,2,43276.0
04:58:13.253,AUTO,-35.3634215,149.1646162,20062,0.0511486791074276,0.05254382640123367,-1.8610894680023193,0.020310383290052414,0.013207843527197838,-0.011528035625815392,-57,-20,-1024,21,14,-11,-69,-259,3,43276.0
04:58:13.454,AUTO,-35.363423,149.1646095,20051,0.048967644572257996,0.057169243693351746,-1.8609979152679443,0.6381044983863831,0.02157609909772873,-0.024973556399345398,-48,3,-1008,639,22,-25,-59,-234,0,43276.0
04:58:13.656,AUTO,-35.3634245,149.1646035,20042,0.04625620320439339,0.0629025399684906,-1.8613672256469727,0.5948923230171204,0.02812894992530346,-0.007822101935744286,-42,-15,-1010,594,29,-8,-53,-207,0,43276.0
04:58:13.859,AUTO,-35.3634245,149.1646035,20042,0.04625620320439339,0.0629025399684906,-1.8613672256469727,0.5948923230171204,0.02812894992530346,-0.007822101935744286,-42,-15,-1010,594,29,-8,-53,-207,0,43276.0
04:58:14.061,AUTO,-35.3634257,149.1645983,20037,0.03671049699187279,0.06977871060371399,-1.861223578453064,-0.19448772072792053,0.016851428896188736,0.008891000412404537,-35,-52,-998,-195,17,8,-46,-181,-2,43276.0
04:58:14.263,AUTO,-35.3634269,149.1645937,20033,0.025403615087270737,0.07557118684053421,-1.8612955808639526,-0.7592282295227051,0.004056215286254883,0.0037439463194459677,-31,-54,-1016,-759,5,3,-38,-155,-2,43276.0
04:58:14.465,AUTO,-35.3634278,149.16459,20029,0.02361391857266426,0.06860210746526718,-1.8625001907348633,-0.18889373540878296,-0.042728494852781296,-0.015431041829288006,-26,-8,-1011,-187,-41,-16,-29,-130,-2,43276.0
04:58:14.667,AUTO,-35.3634278,149.16459,20029,0.02361391857266426,0.06860210746526718,-1.8625001907348633,-0.18889373540878296,-0.042728494852781296,-0.015431041829288006,-26,-8,-1011,-187,-41,-16,-29,-130,-2,43276.0
04:58:14.870,AUTO,-35.3634278,149.16459,20029,0.02361391857266426,0.06860210746526718,-1.8625001907348633,-0.18889373540878296,-0.042728494852781296,-0.015431041829288006,-26,-8,-1011,-187,-41,-16,-29,-130,-2,43276.0
04:58:15.073,AUTO,-35.3634278,149.16459,20029,0.02361391857266426,0.06860210746526718,-1.8625001907348633,-0.18889373540878296,-0.042728494852781296,-0.015431041829288006,-26,-8,-1011,-187,-41,-16,-29,-130,-2,43276.0
04:58:15.301,AUTO,-35.3634298,149.1645822,20020,0.02967775985598564,0.045802000910043716,-1.8635931015014648,0.08887609094381332,-0.025193840265274048,0.0064025018364191055,-14,-15,-1003,88,-24,5,-13,-73,-2,43276.0
04:58:15.532,AUTO,-35.3634303,149.1645806,20023,0.01819286122918129,0.04078727588057518,-1.8639549016952515,-0.4475720226764679,-0.015647711232304573,4.4452259317040443e-05,-11,-45,-987,-447,-14,0,-9,-59,-2,43276.0
04:58:15.744,AUTO,-35.3634306,149.1645793,20022,0.008992169983685017,0.0371229462325573,-1.8644987344741821,-0.7959045171737671,-0.013851513154804707,-0.001350889913737774,-9,-36,-1006,-795,-12,-1,-5,-46,-2,43276.0
04:58:16.076,AUTO,-35.3634308,149.1645784,20023,0.009073828347027302,0.03339241072535515,-1.8646467924118042,-0.23546302318572998,-0.017945945262908936,-0.004647358320653439,-6,0,-996,-234,-17,-5,-1,-35,-2,43276.0
04:58:16.285,AUTO,-35.3634309,149.1645777,20024,0.008204556070268154,0.02841772884130478,-1.8651493787765503,0.2694447934627533,-0.020261667668819427,-0.002892093500122428,-3,28,-987,270,-19,-3,1,-25,-1,43276.0
04:58:16.488,AUTO,-35.3634309,149.1645773,20026,0.01766902767121792,0.023712486028671265,-1.8655227422714233,0.6152125000953674,-0.018953226506710052,0.00044905097456648946,-1,23,-1003,615,-18,0,2,-17,-3,43276.0
04:58:16.693,AUTO,-35.3634309,149.1645773,20026,0.01766902767121792,0.023712486028671265,-1.8655227422714233,0.6152125000953674,-0.018953226506710052,0.00044905097456648946,-1,23,-1003,615,-18,0,2,-17,-3,43276.0
04:58:16.897,AUTO,-35.3634309,149.1645773,20026,0.01766902767121792,0.023712486028671265,-1.8655227422714233,0.6152125000953674,-0.018953226506710052,0.00044905097456648946,-1,23,-1003,615,-18,0,2,-17,-3,105204.0
04:58:17.100,AUTO,-35.3634309,149.1645773,20026,0.01766902767121792,0.023712486028671265,-1.8655227422714233,0.6152125000953674,-0.018953226506710052,0.00044905097456648946,-1,23,-1003,615,-18,0,2,-17,-3,105204.0
04:58:17.303,AUTO,-35.3634306,149.164577,20037,-0.0012185443192720413,0.00377021636813879,-1.8655171394348145,0.5624579787254333,-0.02614673413336277,-8.585996693000197e-05,2,33,-999,563,-25,0,4,0,-3,105204.0
04:58:17.505,AUTO,-35.3634304,149.164577,20040,0.004689457360655069,-0.003704508300870657,-1.8652963638305664,0.4486161172389984,-0.0292821004986763,0.0024543311446905136,2,7,-999,448,-28,1,1,0,-2,105204.0
04:58:17.706,AUTO,-35.3634304,149.164577,20040,0.004689457360655069,-0.003704508300870657,-1.8652963638305664,0.4486161172389984,-0.0292821004986763,0.0024543311446905136,2,7,-999,448,-28,1,1,0,-2,105204.0
04:58:17.908,AUTO,-35.3634303,149.1645771,20043,-0.005352551117539406,-0.011682317592203617,-1.865382432937622,-0.41189342737197876,-0.02843463607132435,-0.0016575903864577413,2,-28,-997,-412,-27,-2,0,0,-2,105204.0
04:58:18.110,AUTO,-35.3634302,149.1645771,20041,-0.01285132858902216,-0.012224016711115837,-1.86527419090271,-0.6062614321708679,0.009316702373325825,-0.003468452487140894,1,-24,-1022,-606,10,-4,-2,0,-1,105204.0
04:58:18.312,AUTO,-35.3634302,149.1645772,20040,-0.008986891247332096,-0.011676585301756859,-1.8656935691833496,-0.2260824739933014,-0.02315632626414299,-0.006016270257532597,0,4,-993,-224,-22,-6,-5,-1,-1,105204.0
04:58:18.514,AUTO,-35.3634301,149.1645772,20038,0.0076152305118739605,-0.021959366276860237,-1.866419792175293,0.5234602689743042,-0.04790206998586655,-0.007451111450791359,0,30,-1006,524,-47,-8,-5,-4,-2,105204.0
04:58:18.728,RTL,-35.3634301,149.1645772,20038,0.0076152305118739605,-0.021959366276860237,-1.866419792175293,0.5234602689743042,-0.04790206998586655,-0.007451111450791359,0,30,-1006,524,-47,-8,-5,-4,-2,105204.0
04:58:18.930,RTL,-35.3634301,149.1645772,20038,0.0076152305118739605,-0.021959366276860237,-1.866419792175293,0.5234602689743042,-0.04790206998586655,-0.007451111450791359,0,30,-1006,524,-47,-8,-5,-4,-2,105204.0
04:58:19.133,RTL,-35.3634301,149.1645772,20038,0.0076152305118739605,-0.021959366276860237,-1.866419792175293,0.5234602689743042,-0.04790206998586655,-0.007451111450791359,0,30,-1006,524,-47,-8,-5,-4,-2,105204.0
04:58:19.336,RTL,-35.3634303,149.1645766,20042,-0.002893915632739663,-0.0026678722351789474,-1.8665916919708252,-0.6046570539474487,0.02905021421611309,-0.0009888032218441367,-2,-23,-1013,-604,29,-1,-5,-14,-4,105204.0
04:58:19.537,RTL,-35.3634303,149.1645763,20051,0.0010864032665267587,0.0006964552449062467,-1.8671971559524536,0.1226145476102829,0.003846623469144106,-0.0059669166803359985,-2,16,-1024,123,4,-6,-4,-12,-8,105204.0
04:58:19.740,RTL,-35.3634303,149.1645761,20073,0.008958575315773487,0.0012069434160366654,-1.8677239418029785,0.4841556251049042,0.0030078531708568335,-0.0007029776461422443,-1,20,-1031,484,3,-1,-4,-10,-13,105204.0
04:58:19.948,RTL,-35.3634303,149.1645761,20073,0.008958575315773487,0.0012069434160366654,-1.8677239418029785,0.4841556251049042,0.0030078531708568335,-0.0007029776461422443,-1,20,-1031,484,3,-1,-4,-10,-13,105204.0
04:58:20.161,RTL,-35.3634304,149.1645759,20113,0.013591792434453964,0.0015459598507732153,-1.8678317070007324,0.2392062097787857,0.005158727057278156,0.00594845088198781,-2,-1,-1018,238,5,5,-4,-8,-20,105204.0
04:58:20.457,RTL,-35.3634305,149.1645758,20173,0.00527590699493885,0.0009145611547864974,-1.8680419921875,-0.3097589313983917,-0.00674431212246418,-0.0013470412231981754,-1,-16,-1048,-310,-5,-1,-3,-6,-30,105204.0
04:58:20.689,RTL,-35.3634306,149.1645757,20261,0.0031168186105787754,0.000296323123620823,-1.8682751655578613,-0.21037079393863678,-0.0009872970404103398,-0.0002908376045525074,-1,-4,-1052,-209,0,0,-2,-4,-41,105204.0
04:58:20.901,RTL,-35.3634306,149.1645757,20261,0.0031168186105787754,0.000296323123620823,-1.8682751655578613,-0.21037079393863678,-0.0009872970404103398,-0.0002908376045525074,-1,-4,-1052,-209,0,0,-2,-4,-41,105204.0
04:58:21.104,RTL,-35.3634306,149.1645757,20261,0.0031168186105787754,0.000296323123620823,-1.8682751655578613,-0.21037079393863678,-0.0009872970404103398,-0.0002908376045525074,-1,-4,-1052,-209,0,0,-2,-4,-41,105204.0
