time_stamp,alt,lat,lon,relative_alt,vx,vy,vz,VFR_HUD_alt,xacc,yacc,zacc,xgyro,ygyro,zgyro,MODE,RTL_ALT,roll,pitch,yaw,rollspeed,pitchspeed,yawspeed,EK2_ALT_SOURCE
14:38:56,583970.0,-35.3632621,149.1652374,0.0,0.0,0.0,0.0,583.969970703125,0.0,1.0,-1000.0,0.5,0.5,0.0,AUTO,1500.0,-0.00040297454688698053,0.0017017329228110611,0.02120423223823309,0.00029949884628877044,0.00032944660051725805,0.0014138140832073987,0.0
14:38:58,585605.0,-35.363262,149.1652376,1639.0,0.5,8.5,-146.5,585.60498046875,0.0,-0.5,-1011.5,45.5,-6.5,2.0,AUTO,1500.0,0.02875592652708292,-0.0018161006446462125,0.02110669482499361,0.04554349184036255,-0.007602150784805417,0.002857621992006898,0.0
14:39:00,588665.0,-35.363261,149.1652455,4695.5,-1.5,30.5,-149.5,588.6649780273438,4.0,-7.0,-1003.0,-29.5,-17.0,-39.5,AUTO,1500.0,-0.03742663003504276,0.014610672369599342,-0.08234044536948204,-0.03062912542372942,-0.01848636381328106,-0.03997658286243677,0.0
14:39:02,591740.0,-35.3632613,149.16524005,7774.5,-1.0,-60.5,-150.5,591.739990234375,-7.5,11.0,-1003.0,67.0,15.5,2.0,AUTO,1500.0,-0.0050385016947984695,-0.002643064013682306,-0.09016606584191322,0.06684047728776932,0.01517025614157319,0.002965396619401872,0.0
14:39:04,594860.0,-35.36326235,149.16523469999998,10893.0,-4.5,26.0,-149.0,594.8599853515625,3.5,-3.5,-1000.0,-89.5,-9.0,-6.0,AUTO,1500.0,0.019024969544261694,-0.0018292861350346357,-0.08160348236560822,-0.09028242155909538,-0.010187014238908887,-0.006238577305339277,0.0
14:39:06,597965.0,-35.36326205,149.1652368,13998.5,3.5,-7.0,-153.0,597.9649658203125,-1.5,0.0,-1000.0,19.5,7.5,-23.0,AUTO,1500.0,-0.004063633910845965,0.0013850575051037595,-0.13219168782234192,0.01907289307564497,0.007593707647174597,-0.02323194034397602,0.0
14:39:08,601085.0,-35.3632616,149.1652355,17121.0,-2.0,2.5,-152.0,601.0849914550781,0.0,0.0,-1000.0,-3.5,0.0,-11.5,AUTO,1500.0,0.008810152299702168,0.005812086397781968,-0.16306167840957642,-0.004838998429477215,-0.0015593977295793593,-0.011647215578705072,0.0
14:39:10,604210.0,-35.3632617,149.16523604999998,20244.5,-3.0,5.0,-153.0,604.2099914550781,0.0,0.0,-1000.0,1.0,0.0,-19.5,AUTO,1500.0,0.002131445799022913,0.003526061656884849,-0.1949710100889206,-1.7103971913456917e-05,-0.0005798647762276232,-0.01941326353698969,0.0
14:39:12,607335.0,-35.3632618,149.16523654999997,23366.5,-2.0,3.0,-153.0,607.3349914550781,0.0,0.0,-1000.5,1.5,0.0,-21.0,AUTO,1500.0,0.001729138195514679,0.002866711118258536,-0.23472236841917038,0.0011169208155479282,9.698967915028334e-05,-0.021242939867079258,0.0
14:39:14,610445.0,-35.36326205,149.16523654999997,26484.0,-5.0,-1.0,-153.0,610.4450073242188,0.0,1.0,-1000.5,24.5,-1.5,23.0,AUTO,1500.0,0.006344844354316592,0.003736508311703801,-0.2470523789525032,0.024196689948439598,-0.0032651276560500264,0.023631502874195576,0.0
14:39:16,613565.0,-35.3632624,149.16523725000002,29595.5,0.0,8.0,-153.0,613.5650024414062,0.0,-1.0,-999.5,-4.0,1.5,20.5,AUTO,1500.0,0.002393884933553636,0.0017789894482120872,-0.20067761838436127,-0.005646726698614657,0.0010124732798431069,0.021359783597290516,0.0
14:39:18,616680.0,-35.3632623,149.165238,32713.5,0.0,1.5,-153.0,616.6799926757812,0.0,0.0,-1000.0,2.5,1.0,15.5,AUTO,1500.0,-0.00023277453874470666,0.0011049043969251215,-0.16615860909223557,0.0023338416358456016,0.0004417700110934675,0.016103917732834816,0.0
14:39:20,619795.0,-35.3632622,149.1652379,35825.5,0.0,0.0,-153.0,619.7949829101562,0.0,0.0,-1000.5,3.5,0.0,10.0,AUTO,1500.0,0.0016063702059909701,0.0011337977484799922,-0.1403558999300003,0.0027467647450976074,-0.0006062322063371539,0.01040102681145072,0.0
14:39:22,622905.0,-35.3632621,149.1652375,38937.0,0.0,0.0,-153.0,622.9049682617188,0.0,0.0,-1000.0,0.5,2.0,7.5,AUTO,1500.0,0.0023460976080968976,0.001547202409710735,-0.12109418585896492,-0.00027186371153220534,0.0009557041921652853,0.007863629376515746,0.0
14:39:24,626015.0,-35.36326205,149.1652374,42049.0,-1.0,1.0,-153.0,626.0149841308594,0.0,0.0,-1000.0,0.0,0.5,7.0,AUTO,1500.0,0.0017679274315014482,0.0016167129506357014,-0.10632462427020073,-0.0017318237805739045,0.00032762897899374366,0.007174174301326275,0.0
14:39:26,629125.0,-35.363262,149.1652373,45159.5,-1.0,1.0,-153.0,629.125,0.0,0.0,-1000.0,-1.5,0.5,5.5,AUTO,1500.0,0.001839068776462227,0.001261442608665675,-0.09408538043498993,-0.002891218871809542,-0.0008111917413771152,0.005845164880156517,0.0
14:39:28,632130.0,-35.36326265,149.1652364,48163.5,-26.0,-26.5,-122.5,632.1299743652344,3.0,5.0,-941.5,31.5,-134.5,349.5,AUTO,1500.0,-0.05309664085507393,0.052675141021609306,0.20325960963964462,0.030382869765162468,-0.13560639508068562,0.3494633436203003,0.0
14:39:30,633705.0,-35.36326405,149.16523295,49740.5,17.5,22.0,-44.5,633.7049865722656,-2.5,-12.0,-973.0,-58.5,46.0,-36.5,AUTO,1500.0,0.03262714575976133,-0.021402723155915737,0.2741266191005707,-0.05882849544286728,0.04533361829817295,-0.03698381409049034,0.0
14:39:32,634130.0,-35.3632611,149.1652386,50165.0,3.0,14.0,7.5,634.1300048828125,-1.0,30.0,-958.0,276.5,96.0,2.5,AUTO,1500.0,-0.03123824205249548,0.03314948733896017,0.21773039549589157,0.27237278781831264,0.0945892371237278,0.001853007823228836,0.0
14:39:34,633925.0,-35.36325755,149.16523725000002,49960.0,79.5,-13.0,0.0,633.9249877929688,-16.5,28.0,-1003.5,518.0,-40.5,-91.0,AUTO,1500.0,-0.003017245791852474,-0.10455046221613884,0.13920165598392487,0.5155089646577835,-0.041879234835505486,-0.09217590093612671,0.0
14:39:36,633895.0,-35.3632263,149.1652338,49932.0,291.5,-16.0,0.0,633.8949890136719,-65.0,-30.0,-1005.5,-192.5,-18.5,-13.0,AUTO,1500.0,0.012915246654301882,-0.1933131292462349,0.09311092272400856,-0.1940790917724371,-0.019572562247049063,-0.013545586611144245,0.0
14:39:38,633885.0,-35.363154550000004,149.16522880000002,49920.5,500.0,-16.0,-3.0,633.885009765625,-108.0,-45.0,-1002.0,127.0,33.0,-8.0,AUTO,1500.0,0.04634493216872215,-0.1822499781847,0.0699315294623375,0.12615255266427994,0.03253809083253145,-0.009112690924666822,0.0
14:39:40,633960.0,-35.36305505,149.16522385000002,49995.0,588.0,-19.0,-3.0,633.9599609375,-126.0,-66.5,-986.0,-113.0,9.0,-2.0,AUTO,1500.0,0.056479813531041145,-0.1433837041258812,0.05614722706377506,-0.11489703226834536,0.008478710893541574,-0.0028399955481290817,0.0
14:39:42,634005.0,-35.36294855,149.16521835,50037.5,584.0,-20.5,-1.5,634.0033365885416,-126.0,-42.5,-989.5,337.0,31.0,-19.0,AUTO,1500.0,0.07098492234945297,-0.0935932882130146,0.04361896030604839,0.1656389618292451,0.053969625383615494,-0.012697071768343449,0.0
14:39:44,634035.0,-35.36285255,149.16521395,50071.0,455.5,-12.0,1.0,634.0366414388021,-95.0,-33.666666666666664,-993.6666666666666,282.6666666666667,53.0,-29.333333333333332,AUTO,1500.0,0.06056778132915497,0.009970132494345307,0.03304043225944042,0.3363942261785269,0.056024231016635895,-0.0535985566675663,0.0
14:39:46,633980.0,-35.3627938,149.1652124,50016.0,235.0,-5.0,3.0,633.97998046875,-49.0,9.0,-1015.0,319.0,21.0,-12.0,AUTO,1500.0,0.03290259372442961,0.06874652579426765,0.024253609590232372,0.5407570451498032,0.015808586962521076,-0.013266476802527905,0.0
14:39:48,633945.0,-35.362769549999996,149.16521225000002,49980.0,50.5,-9.0,0.0,633.9500122070312,-16.5,-21.5,-994.5,-227.0,-24.0,-2.0,AUTO,1500.0,0.0011713868007063866,0.04093538969755173,0.015326156746596098,-0.2910712696611881,-0.018937882035970688,0.0022267767053563148,0.0
14:39:50,633950.0,-35.36276735,149.16521145000002,49984.5,4.0,-7.5,-1.0,633.9500122070312,-1.0,11.5,-1000.5,216.5,-24.0,-3.5,AUTO,1500.0,-0.007770771626383066,-0.0004474872548598796,0.008894636295735836,-0.054096098989248276,-0.02894878387451172,-0.008663581684231758,0.0
14:39:54,633950.0,-35.3627732,149.16521145000002,49986.5,-68.5,2.5,0.0,633.9500122070312,10.0,7.0,-994.0,114.5,26.5,0.5,RTL,1500.0,-0.00953732174821198,0.06869173049926758,-0.0036540566943585873,0.48689912259578705,0.029711256735026836,0.005336460541002452,0.0
14:39:56,633930.0,-35.36279785000001,149.16521375,49965.5,-217.5,4.0,2.0,633.9299926757812,36.0,22.0,-1002.0,-55.5,48.5,-2.5,RTL,1500.0,-0.031225107610225677,0.14930379390716553,-0.010908454190939665,-0.4291967451572418,0.05057160556316376,-0.007396895904093981,0.0
14:40:00,633925.0,-35.3629177,149.16522035,49960.0,-499.0,15.0,-0.5,633.9249877929688,106.0,57.5,-985.5,217.5,27.0,-13.5,RTL,1500.0,-0.05189005037148794,0.18086441357930502,-0.01767945910493533,0.08868851761023204,0.050894359747568764,-0.018448645404229563,0.0
14:40:02,633950.0,-35.36301555,149.16522544999998,49985.0,-571.5,21.0,-8.0,633.9500122070312,117.0,71.5,-981.5,-89.0,95.5,24.0,RTL,1500.0,-0.07178713381290436,0.11404605582356453,-0.017495738342404366,-0.09111844014842063,0.0945090614259243,0.023086436558514833,0.0
14:40:04,634010.0,-35.36311795,149.16523115,50046.5,-543.5,15.0,-8.0,634.0099792480469,109.5,80.0,-1008.5,424.0,-177.0,-9.5,RTL,1500.0,-0.07074587792158127,0.020510030910372734,-0.014810113236308098,0.4237053468823433,-0.17840544134378433,-0.01079670200124383,0.0
14:40:06,633990.0,-35.36318995,149.16523325,50026.0,-276.0,-0.5,8.5,633.989990234375,55.5,44.0,-1001.0,-21.0,100.0,7.5,RTL,1500.0,-0.03527938900515437,-0.0008688662201166153,-0.012603542301803827,-0.02255016565322876,0.09959925524890423,0.006171734072268009,0.0
14:40:08,633910.0,-35.3632288,149.1652342,49940.0,-283.0,14.0,-7.0,633.9099731445312,54.0,33.0,-1023.0,186.0,-237.0,0.0,RTL,1500.0,-0.021630490198731422,0.0022638258524239063,-0.0175864826887846,0.1876455396413803,-0.23861823976039886,-0.0006888899952173233,0.0
14:40:10,633960.0,-35.363263599999996,149.16523545,49995.0,-45.5,5.0,2.0,633.9599914550781,8.0,8.0,-1002.0,15.5,45.5,1.0,RTL,1500.0,-0.001595458947122097,-0.05698332563042641,-0.01587203424423933,0.014877796173095703,0.04524271562695503,-0.0003627494443207979,0.0
14:40:12,633945.0,-35.36326565,149.16523555,49980.0,5.0,8.5,-0.5,633.9450073242188,0.0,2.0,-1006.0,-24.0,24.0,0.0,RTL,1500.0,0.007906371844001114,0.00204421766102314,-0.01707770861685276,-0.025394558906555176,0.023587406612932682,-0.0012857950641773641,0.0
14:40:14,633960.0,-35.36326545,149.1652365,49992.0,4.5,7.0,0.0,633.9599609375,0.5,-10.0,-1003.0,-86.5,2.0,-0.5,RTL,1500.0,0.00394387380219996,-0.006639786064624786,-0.019177362322807312,-0.08680835366249084,0.0011795134050771594,-0.0023734300630167127,0.0
14:40:16,633960.0,-35.36326415,149.16523684999999,49991.5,8.5,3.5,0.0,633.9599609375,-1.5,8.5,-996.5,127.5,3.0,-1.5,RTL,1500.0,0.006624575617024675,-7.24437995813787e-05,-0.01998857595026493,0.1258687525987625,0.002406751736998558,-0.0032409013947471976,0.0
14:40:18,633875.0,-35.3632631,149.1652368,49909.5,4.5,5.0,23.5,633.8749694824219,0.0,12.0,-961.5,313.0,1.0,3.5,RTL,1500.0,0.008713567047379911,0.001324024546192959,-0.0213716272264719,0.3107154965400696,0.0002540303103160113,0.002939755329862237,0.0
14:40:20,632290.0,-35.363262649999996,149.16523669999998,48325.5,2.0,7.0,112.5,632.2899780273438,0.0,63.5,-1034.5,1399.5,-0.5,2.0,RTL,1500.0,0.02395379450172186,0.00010015032603405416,-0.022276130504906178,1.396921694278717,-0.0019293957739137113,0.0011888000299222767,0.0
14:40:22,630140.0,-35.3632626,149.1652359,46178.5,1.0,11.5,100.0,630.1399841308594,-2.0,72.0,-972.5,772.5,3.0,6.0,RTL,1500.0,0.0142907639965415,-0.0022963336668908596,-0.023370958864688873,0.7664018869400024,0.002255023689940572,0.005089353886432946,0.0
14:40:24,628085.0,-35.363262399999996,149.16523454999998,44122.5,2.0,24.0,98.5,628.0849914550781,0.5,57.0,-974.5,658.5,11.0,9.5,RTL,1500.0,0.019509667996317148,0.0014362708388944156,-0.02376783825457096,0.6514654010534286,0.01007812563329935,0.008696331409737468,0.0
14:40:26,626035.0,-35.3632621,149.1652372,42067.0,0.0,12.5,100.5,626.0349731445312,3.0,40.0,-1020.0,39.5,1.5,5.5,RTL,1500.0,-0.01718596601858735,0.00499991315882653,-0.024653426371514797,0.03316107392311096,0.0008810325525701046,0.004653565003536642,0.0
14:40:28,624380.0,-35.3632621,149.165239,40417.0,0.0,-3.0,95.0,624.3800048828125,1.0,45.0,-991.0,185.0,0.0,-2.0,RTL,1500.0,-0.023386238142848015,0.002652062801644206,-0.026039445772767067,0.17905564606189728,-0.00021008570911362767,-0.004109811037778854,0.0
14:40:30,622330.0,-35.3632622,149.1652408,38362.0,0.0,-22.0,96.0,622.3299560546875,0.0,69.0,-995.0,1366.0,5.0,18.0,RTL,1500.0,-0.009450876154005527,0.0009282571263611317,-0.024815525859594345,1.361433506011963,0.00511648366227746,0.016804544255137444,0.0
14:40:32,620190.0,-35.3632622,149.1652403,36223.0,0.0,-26.0,98.0,620.1900024414062,-1.0,-11.0,-940.0,619.0,0.0,3.0,RTL,1500.0,0.0069577391259372234,-0.0021111839450895786,-0.026308080181479454,0.622622549533844,-0.001552773523144424,0.0018874839879572392,0.0
14:40:34,618150.0,-35.3632622,149.1652389,34185.0,0.0,-14.0,101.0,618.1499633789062,0.0,-5.0,-958.0,724.0,6.0,5.0,RTL,1500.0,0.015632525086402893,0.0022944093216210604,-0.026523225009441376,0.7273558378219604,0.006020472384989262,0.003584963036701083,0.0
14:40:36,616110.0,-35.3632621,149.165239,32148.0,-1.0,-14.0,99.0,616.1099853515625,0.0,-30.0,-977.0,312.0,0.0,-17.0,RTL,1500.0,0.00816198717802763,0.0005265437066555023,-0.026933083310723305,0.31656721234321594,-0.000940964266192168,-0.01919231377542019,0.0
14:40:38,614060.0,-35.3632619,149.1652389,30095.0,-2.0,-13.0,95.0,614.0599975585938,0.0,-38.0,-985.0,-91.0,-1.0,-1.0,RTL,1500.0,0.0019630109891295433,0.0039067938923835754,-0.027176490053534508,-0.08650380373001099,-0.0029356053564697504,-0.0034873338881880045,0.0
14:40:40,612010.0,-35.363262,149.1652386,28047.0,-3.0,-14.0,100.0,612.010009765625,-1.0,-72.0,-991.0,-849.0,-6.0,1.0,RTL,1500.0,0.00162470992654562,-0.0007223812863230705,-0.027404848486185074,-0.8457158803939819,-0.007525458000600338,0.00010065606329590082,0.0
14:40:42,609980.0,-35.3632622,149.1652363,26015.0,0.0,2.0,95.0,609.97998046875,-2.0,-66.0,-1018.0,-1379.0,0.0,-5.0,RTL,1500.0,0.007657178211957216,-0.0018909625941887498,-0.028765734285116196,-1.3775571584701538,8.330401033163071e-05,-0.007457009516656399,0.0
14:40:44,607950.0,-35.3632621,149.1652356,23984.0,0.0,15.0,97.0,607.9500122070312,1.0,-28.0,-1009.0,-1190.0,5.0,0.0,RTL,1500.0,-0.008495944552123547,0.003779031103476882,-0.02767113968729973,-1.1933503150939941,0.004394400864839554,-0.002361919265240431,0.0
14:40:46,605910.0,-35.3632621,149.1652374,21946.0,-1.0,5.0,100.0,605.9099731445312,1.0,16.0,-1029.0,-460.0,0.0,6.0,RTL,1500.0,-0.020034225657582283,0.00418942840769887,-0.02675769291818142,-0.46452364325523376,-0.0010856142034754157,0.00434331689029932,0.0
14:40:48,603905.0,-35.36326205,149.16523885,19943.0,-1.0,-7.5,104.0,604.2799682617188,0.0,46.0,-1030.0,107.0,-2.0,9.0,RTL,1500.0,-0.011969012906774879,0.0018104976043105125,-0.027516557835042477,0.6205535903573036,-0.005702704889699817,8.930498734116554e-05,0.0
14:40:50,602280.0,-35.3632621,149.1652395,18313.0,-1.0,-13.0,101.0,602.2799682617188,0.0,67.0,-1009.0,1420.0,2.0,8.0,RTL,1500.0,-0.003621564246714115,0.0017202307935804129,-0.028277475386857986,1.4178428649902344,0.001504823099821806,0.007215844001621008,0.0
14:40:52,600230.0,-35.3632621,149.1652384,16263.0,-1.0,-12.0,107.0,600.22998046875,-2.0,83.0,-994.0,1416.0,-1.0,1.0,RTL,1500.0,0.013554377481341362,-0.001435598125681281,-0.028011659160256386,1.4126938581466675,-0.0024519353173673153,-0.0005590602522715926,0.0
14:40:54,597775.0,-35.3632621,149.16523660000001,13811.0,0.0,5.0,100.5,597.7749938964844,-0.5,39.0,-1041.0,13.5,-1.5,7.5,RTL,1500.0,-0.0034752709907479584,0.0011475114442873746,-0.027854006737470627,0.008609354496002197,-0.0029754916904494166,0.005638442817144096,0.0
14:40:56,596130.0,-35.3632621,149.1652369,12161.0,0.0,8.0,88.0,596.1300048828125,0.0,26.0,-1085.0,-181.0,-3.0,7.0,RTL,1500.0,-0.00902708899229765,0.0037223973777145147,-0.02816210500895977,-0.18623942136764526,-0.004804188385605812,0.005898540839552879,0.0
14:40:58,595190.0,-35.363262,149.16523695,11227.5,-1.5,3.5,26.5,595.1900024414062,-2.0,5.0,-999.0,-348.0,-1.0,4.0,RTL,1500.0,0.008188601117581129,0.0011863578693009913,-0.0274136858060956,0.24164336919784546,-0.0013905938249081373,-0.0003626832040026784,0.0
14:41:00,594555.0,-35.363262,149.16523725000002,10588.5,-1.0,4.0,33.0,594.5549926757812,0.5,10.5,-997.0,270.0,1.5,4.5,RTL,1500.0,-4.2014988139271736e-05,0.0028928887331858277,-0.02763933502137661,0.2697242498397827,0.0008851884631440043,0.0028400009032338858,0.0
14:41:02,594010.0,-35.3632621,149.1652374,10042.0,-1.0,1.0,33.0,594.010009765625,-2.0,41.0,-1001.0,405.0,-5.0,5.0,RTL,1500.0,0.0007950322469696403,-0.00038224158925004303,-0.028823163360357285,0.402042031288147,-0.006666605360805988,0.0036691762506961823,0.0
14:41:04,593320.0,-35.3632622,149.1652351,9355.0,0.0,15.0,33.0,593.3200073242188,-2.0,45.0,-1011.0,609.0,2.0,4.0,RTL,1500.0,0.02508847787976265,-0.0004746588529087603,-0.028216522186994553,0.6054214239120483,0.0019905390217900276,0.0019620228558778763,0.0
14:41:06,593275.0,-35.36326205,149.16523565,9309.0,-0.5,18.0,-4.0,593.260009765625,0.0,-12.0,-995.0,108.0,2.0,0.0,RTL,1500.0,0.010380672523751855,0.004439920419827104,-0.028152944520115852,0.18441421911120415,0.00031312432838603854,0.0008325387025251985,0.0
14:41:08,593320.0,-35.3632619,149.1652368,9351.0,-2.0,11.0,0.0,593.3200073242188,0.0,28.0,-995.0,249.0,0.0,4.0,RTL,1500.0,-0.0021918672136962414,0.004962450359016657,-0.02781061641871929,0.24569709599018097,-0.001568705658428371,0.002685671439394355,0.0
14:41:10,593310.0,-35.36326205,149.1652369,9343.5,-1.5,5.0,0.0,593.3099975585938,0.0,-36.0,-993.0,-601.0,0.0,2.0,RTL,1500.0,0.008563720155507326,0.0009215296013280749,-0.028441019356250763,0.02984076738357544,-0.00014384376117959619,-0.00016854400746524334,0.0
14:41:12,593310.0,-35.3632621,149.1652365,9344.0,0.0,8.0,1.0,593.3099975585938,0.0,32.0,-990.0,471.0,0.0,5.0,RTL,1500.0,0.008979618549346924,0.0011180522851645947,-0.02840517647564411,0.46721744537353516,-0.0016538526397198439,0.0030431898776441813,0.0
14:41:14,593310.0,-35.3632622,149.1652372,9346.0,0.0,4.0,0.0,593.3099975585938,0.0,-39.0,-991.0,-587.0,2.0,1.0,RTL,1500.0,-0.004465627949684858,0.003290623426437378,-0.028226559981703758,-0.5867406725883484,0.0006747058359906077,-0.000912779476493597,0.0
14:41:16,593310.0,-35.3632621,149.1652379,9342.0,-2.0,-2.0,0.0,593.3099975585938,1.0,-10.0,-1002.0,238.0,0.0,2.0,RTL,1500.0,0.00713098980486393,0.0024400341790169477,-0.027788758277893066,0.2390713393688202,-0.0021395012736320496,-5.736947059631348e-07,0.0
14:41:18,593220.0,-35.363262,149.1652373,9258.0,-2.0,0.0,32.0,593.219970703125,0.0,-36.0,-944.0,-917.0,0.0,1.0,RTL,1500.0,-0.008641920052468777,0.0013706984464079142,-0.028088359162211418,-0.9192656874656677,-0.002272519050166011,-0.00023100757971405983,0.0
14:41:20,592430.0,-35.363262,149.165237,8466.0,-1.0,4.0,35.0,592.4299926757812,0.0,-42.0,-1008.0,-920.0,1.0,0.0,RTL,1500.0,-0.00861493032425642,0.0022605645935982466,-0.027946555987000465,-0.9213760495185852,3.63014405593276e-05,-0.001994562800973654,0.0
14:41:22,591740.0,-35.3632621,149.1652368,7777.0,-1.0,4.0,33.0,591.739990234375,0.5,-33.0,-1002.5,-776.0,-3.0,4.0,RTL,1500.0,-0.005580706521868706,0.0002880062093026936,-0.027958601713180542,-0.7451987862586975,-0.003000990254804492,0.0051984479650855064,0.0
14:41:24,591070.0,-35.3632621,149.1652368,7107.0,0.0,6.0,33.0,591.0700073242188,0.0,-9.0,-1000.0,-624.0,3.0,0.0,RTL,1500.0,-0.009517312049865723,0.0017538081156089902,-0.028719712048768997,-0.628334105014801,0.0018504170002415776,-0.0016992897726595402,0.0
14:41:26,590390.0,-35.3632621,149.1652369,6420.0,0.0,5.0,34.0,590.3900146484375,0.0,-32.0,-1000.0,-887.0,0.0,2.0,RTL,1500.0,-0.008591676130890846,0.0013862013584002852,-0.028627054765820503,-0.8899662494659424,-0.0004893693840131164,0.0003204778768122196,0.0
14:41:28,589710.0,-35.3632621,149.1652375,5743.0,0.0,0.0,33.0,589.7099609375,-1.0,-39.0,-1006.0,-841.0,3.0,0.0,RTL,1500.0,-0.012386961840093136,0.001222078688442707,-0.028420666232705116,-0.8425952196121216,0.0016414965502917767,-0.001825249521061778,0.0
14:41:30,589040.0,-35.3632621,149.1652368,5073.0,0.0,3.0,35.0,589.0799865722656,0.0,-34.5,-1000.0,-789.5,2.5,1.5,RTL,1500.0,-0.0017488375306129456,0.00164704117923975,-0.027943208813667297,-0.8196324706077576,0.003382493043318391,0.00045225024223327637,0.0
14:41:32,588350.0,-35.3632621,149.165236,4383.0,-1.0,10.0,34.0,588.3899841308594,-1.0,-12.0,-1002.0,-672.5,0.0,4.0,RTL,1500.0,0.00047978071961551905,0.0009472222882322967,-0.02866322733461857,-0.47056329250335693,-0.0011109242914244533,0.0022109891287982464,0.0
14:41:34,587660.0,-35.3632621,149.1652355,3695.0,0.0,17.0,32.0,587.6999816894531,1.5,8.5,-1009.5,-258.5,0.5,5.0,RTL,1500.0,0.008821791037917137,0.0022523945663124323,-0.02835257351398468,0.1352505385875702,0.0005578896962106228,0.002011692151427269,0.0
14:41:36,586990.0,-35.3632621,149.1652365,3023.0,-1.0,12.0,35.0,587.0350036621094,-0.5,1.5,-1003.5,-416.0,-0.5,5.5,RTL,1500.0,-0.009147359989583492,0.0032294439151883125,-0.028018975630402565,-0.21150033175945282,-0.001818693126551807,0.003909292630851269,0.0
14:41:38,586310.0,-35.363262,149.1652374,2340.0,-2.0,4.0,33.0,586.3500061035156,0.0,26.5,-999.5,96.5,-0.5,5.5,RTL,1500.0,-0.001275193179026246,0.001968168653547764,-0.028710853308439255,0.46722549200057983,-0.00024964415933936834,0.00531346071511507,0.0
14:41:40,585670.0,-35.363262,149.165237,1705.0,-1.0,4.0,35.0,585.6699829101562,-0.5,7.0,-989.5,-362.0,3.0,4.5,RTL,1500.0,-0.0025093324948102236,0.0018003101577050984,-0.028561358340084553,-0.36849115043878555,0.0014429642469622195,0.002128461259417236,0.0
14:41:42,585375.0,-35.3632619,149.1652363,1406.5,0.5,-9.0,6.0,585.375,0.0,0.0,-1000.0,3.0,3.0,3.0,RTL,1500.0,-0.002842174842953682,0.004480907227844,-0.027134763076901436,0.0005366336554288864,0.0017194857355207205,0.0006568807875737548,0.0
14:41:44,585290.0,-35.3632621,149.1652361,1324.0,-6.5,-5.5,6.0,585.2899780273438,0.0,0.0,-1000.0,3.0,3.0,3.0,RTL,1500.0,0.00030823189808870666,0.007267423672601581,-0.027436625212430954,0.0006863770540803671,0.0017076422227546573,0.0006516355788335204,0.0
14:41:46,585280.0,-35.3632624,149.16523635,1311.5,-9.0,0.0,3.0,585.2799682617188,0.0,0.0,-1000.0,3.0,3.0,3.0,RTL,1500.0,0.003204488311894238,0.007455023005604744,-0.027595256455242634,0.0007281451253220439,0.0014994721859693527,0.0006395195377990603,0.0
