time_stamp,MODE,lat,lon,relative_alt,roll,pitch,yaw,rollspeed,pitchspeed,yawspeed,xacc,yacc,zacc,xgyro,ygyro,zgyro,vx,vy,vz,RTL_ALT
08:33:07.917,STABILIZE,-35.3632621,149.1652374,13,0.00021774563356302679,0.0015402546850964427,0.02953605353832245,0.00019062607316300273,0.00033696883474476635,0.002532282378524542,0,1,-1000,0,0,0,-1,1,-1,1500.0
08:33:08.119,STABILIZE,-35.3632621,149.1652374,13,0.00021774563356302679,0.0015402546850964427,0.02953605353832245,0.00019062607316300273,0.00033696883474476635,0.002532282378524542,0,1,-1000,0,0,0,-1,1,-1,1500.0
08:33:08.321,STABILIZE,-35.3632621,149.1652374,13,0.00021774563356302679,0.0015402546850964427,0.02953605353832245,0.00019062607316300273,0.00033696883474476635,0.002532282378524542,0,1,-1000,0,0,0,-1,1,-1,1500.0
08:33:08.523,STABILIZE,-35.3632621,149.1652374,9,0.00019156039343215525,0.0016107456758618355,0.028580939397215843,0.0002599941799417138,0.0003163264482282102,0.0024458207190036774,0,1,-1000,0,0,0,-1,1,0,1500.0
08:33:08.724,STABILIZE,-35.3632621,149.1652375,7,0.00013332920207176358,0.0015825857408344746,0.028396598994731903,0.00021512142848223448,0.00025625148555263877,0.002326945774257183,0,1,-1000,0,0,0,-2,2,0,1500.0
08:33:08.926,STABILIZE,-35.3632621,149.1652375,7,8.334580343216658e-05,0.0015403652796521783,0.028261031955480576,0.0002706595987547189,0.0002497563255019486,0.0022794175893068314,0,1,-1000,0,0,0,-2,2,0,1500.0
08:33:09.127,STABILIZE,-35.3632621,149.1652375,7,8.334580343216658e-05,0.0015403652796521783,0.028261031955480576,0.0002706595987547189,0.0002497563255019486,0.0022794175893068314,0,1,-1000,0,0,0,-2,2,0,1500.0
08:33:09.329,STABILIZE,-35.3632621,149.1652375,7,8.334580343216658e-05,0.0015403652796521783,0.028261031955480576,0.0002706595987547189,0.0002497563255019486,0.0022794175893068314,0,1,-1000,0,0,0,-2,2,0,1500.0
08:33:09.530,STABILIZE,-35.3632622,149.1652375,9,0.00010877682507270947,0.001443810760974884,0.02791633829474449,0.00021426271996460855,0.0003903172619175166,0.002367432229220867,0,1,-1000,0,0,1,-2,1,-1,1500.0
08:33:09.732,STABILIZE,-35.3632622,149.1652375,10,8.252776024164632e-05,0.0014001824893057346,0.02777356281876564,0.00028073793509975076,0.00036102705053053796,0.002056085504591465,0,1,-1000,0,0,0,-2,1,-1,1500.0
08:33:09.947,STABILIZE,-35.3632622,149.1652375,10,8.252776024164632e-05,0.0014001824893057346,0.02777356281876564,0.00028073793509975076,0.00036102705053053796,0.002056085504591465,0,1,-1000,0,0,0,-2,1,-1,1500.0
08:33:10.149,STABILIZE,-35.3632622,149.1652375,10,8.252776024164632e-05,0.0014001824893057346,0.02777356281876564,0.00028073793509975076,0.00036102705053053796,0.002056085504591465,0,1,-1000,0,0,0,-2,1,-1,1500.0
08:33:10.352,STABILIZE,-35.3632622,149.1652375,10,-3.8339654565788805e-05,0.0012381138512864709,0.027315989136695862,0.00029819595511071384,0.00019337941193953156,0.0021547432988882065,0,1,-1000,0,0,0,-1,1,-1,1500.0
08:33:10.554,STABILIZE,-35.3632622,149.1652375,10,-3.8339654565788805e-05,0.0012381138512864709,0.027315989136695862,0.00029819595511071384,0.00019337941193953156,0.0021547432988882065,0,1,-1000,0,0,0,-1,1,-1,1500.0
08:33:10.755,STABILIZE,-35.3632622,149.1652375,9,-7.86887394497171e-05,0.0011885849526152015,0.02718341536819935,0.0003373262588866055,0.0002082675346173346,0.002235693857073784,0,1,-1000,0,0,0,-1,1,-1,1500.0
08:33:10.957,STABILIZE,-35.3632622,149.1652375,9,-7.86887394497171e-05,0.0011885849526152015,0.02718341536819935,0.0003373262588866055,0.0002082675346173346,0.002235693857073784,0,1,-1000,0,0,0,-1,1,-1,1500.0
08:33:11.159,STABILIZE,-35.3632622,149.1652375,9,-0.00018328760052099824,0.0011077383533120155,0.02688051015138626,0.0002148874627891928,0.00026368466205894947,0.00212225504219532,0,1,-1000,0,0,0,-1,1,-1,1500.0
08:33:11.360,STABILIZE,-35.3632622,149.1652375,9,-0.00018328760052099824,0.0011077383533120155,0.02688051015138626,0.0002148874627891928,0.00026368466205894947,0.00212225504219532,0,1,-1000,0,0,0,-1,1,-1,1500.0
08:33:11.563,STABILIZE,-35.3632622,149.1652375,9,-0.00018328760052099824,0.0011077383533120155,0.02688051015138626,0.0002148874627891928,0.00026368466205894947,0.00212225504219532,0,1,-1000,0,0,0,-1,1,-1,1500.0
08:33:11.765,STABILIZE,-35.3632622,149.1652375,9,-0.00018328760052099824,0.0011077383533120155,0.02688051015138626,0.0002148874627891928,0.00026368466205894947,0.00212225504219532,0,1,-1000,0,0,0,-1,1,-1,1500.0
08:33:11.967,STABILIZE,-35.3632622,149.1652375,9,-0.00018328760052099824,0.0011077383533120155,0.02688051015138626,0.0002148874627891928,0.00026368466205894947,0.00212225504219532,0,1,-1000,0,0,0,-1,1,-1,1500.0
08:33:12.169,STABILIZE,-35.3632622,149.1652375,9,-0.00018328760052099824,0.0011077383533120155,0.02688051015138626,0.0002148874627891928,0.00026368466205894947,0.00212225504219532,0,1,-1000,0,0,0,-1,1,-1,1500.0
08:33:12.371,STABILIZE,-35.3632621,149.1652375,4,-0.0004218161338940263,0.0010018284665420651,0.026263615116477013,0.0003754062345251441,0.00024757423670962453,0.0019674813374876976,0,1,-1000,0,0,0,-1,1,0,1500.0
08:33:12.573,STABILIZE,-35.3632621,149.1652375,4,-0.0004218161338940263,0.0010018284665420651,0.026263615116477013,0.0003754062345251441,0.00024757423670962453,0.0019674813374876976,0,1,-1000,0,0,0,-1,1,0,1500.0
08:33:12.774,STABILIZE,-35.3632621,149.1652375,4,-0.00030663362122140825,0.00098606722895056,0.02612721174955368,8.156680269166827e-05,0.00032920174999162555,0.0021084770560264587,0,1,-1000,0,0,0,-1,1,0,1500.0
08:33:12.976,STABILIZE,-35.3632621,149.1652375,5,-0.00030663362122140825,0.00098606722895056,0.02612721174955368,8.156680269166827e-05,0.00032920174999162555,0.0021084770560264587,0,1,-1000,0,0,0,-1,1,0,1500.0
08:33:13.177,STABILIZE,-35.3632621,149.1652375,5,-0.00030663362122140825,0.00098606722895056,0.02612721174955368,8.156680269166827e-05,0.00032920174999162555,0.0021084770560264587,0,1,-1000,0,0,0,-1,1,0,1500.0
08:33:13.379,STABILIZE,-35.3632621,149.1652375,5,-0.00030663362122140825,0.00098606722895056,0.02612721174955368,8.156680269166827e-05,0.00032920174999162555,0.0021084770560264587,0,1,-1000,0,0,0,-1,1,0,1500.0
08:33:13.581,STABILIZE,-35.3632621,149.1652375,5,-0.00030663362122140825,0.00098606722895056,0.02612721174955368,8.156680269166827e-05,0.00032920174999162555,0.0021084770560264587,0,1,-1000,0,0,0,-1,1,0,1500.0
08:33:13.782,STABILIZE,-35.3632621,149.1652375,5,-0.00030663362122140825,0.00098606722895056,0.02612721174955368,8.156680269166827e-05,0.00032920174999162555,0.0021084770560264587,0,1,-1000,0,0,0,-1,1,0,1500.0
08:33:13.984,STABILIZE,-35.3632621,149.1652375,5,-0.00030663362122140825,0.00098606722895056,0.02612721174955368,8.156680269166827e-05,0.00032920174999162555,0.0021084770560264587,0,1,-1000,0,0,0,-1,1,0,1500.0
08:33:14.185,STABILIZE,-35.3632621,149.1652375,5,-0.00030663362122140825,0.00098606722895056,0.02612721174955368,8.156680269166827e-05,0.00032920174999162555,0.0021084770560264587,0,1,-1000,0,0,0,-1,1,0,1500.0
08:33:14.387,STABILIZE,-35.3632621,149.1652375,2,-0.00041937115020118654,0.000944006082136184,0.0253666490316391,0.0001494560856372118,0.0002450855390634388,0.002020551124587655,0,2,-1000,0,0,0,-1,1,0,1500.0
08:33:14.589,STABILIZE,-35.3632621,149.1652375,1,-0.00041937115020118654,0.000944006082136184,0.0253666490316391,0.0001494560856372118,0.0002450855390634388,0.002020551124587655,0,1,-1000,0,0,0,-1,1,0,1500.0
08:33:14.790,STABILIZE,-35.3632621,149.1652375,1,-0.00041937115020118654,0.000944006082136184,0.0253666490316391,0.0001494560856372118,0.0002450855390634388,0.002020551124587655,0,1,-1000,0,0,0,-1,1,0,1500.0
08:33:14.992,STABILIZE,-35.3632621,149.1652375,1,-0.00041937115020118654,0.000944006082136184,0.0253666490316391,0.0001494560856372118,0.0002450855390634388,0.002020551124587655,0,1,-1000,0,0,0,-1,1,0,1500.0
08:33:15.194,STABILIZE,-35.3632621,149.1652375,0,-0.0004945788532495499,0.0009220213396474719,0.025041261687874794,0.00019991386216133833,0.00018306041602045298,0.0019365083426237106,0,1,-1000,0,0,0,-1,1,0,1500.0
08:33:15.395,STABILIZE,-35.3632621,149.1652375,0,-0.0005176636041142046,0.0009278563084080815,0.02495173178613186,0.00031311623752117157,0.00031136604957282543,0.0019993928726762533,0,1,-1000,0,0,0,-1,1,0,1500.0
08:33:15.597,STABILIZE,-35.3632621,149.1652375,0,-0.0005307436804287136,0.0009309535380452871,0.02486647292971611,0.00026662828167900443,0.00035519973607733846,0.0018178893951699138,0,1,-1000,1,0,0,-1,1,0,1500.0
08:33:15.798,STABILIZE,-35.3632621,149.1652375,0,-0.0005307436804287136,0.0009309535380452871,0.02486647292971611,0.00026662828167900443,0.00035519973607733846,0.0018178893951699138,0,1,-1000,1,0,0,-1,1,0,1500.0
08:33:16.000,STABILIZE,-35.3632621,149.1652375,0,-0.0005307436804287136,0.0009309535380452871,0.02486647292971611,0.00026662828167900443,0.00035519973607733846,0.0018178893951699138,0,1,-1000,1,0,0,-1,1,0,1500.0
08:33:16.201,STABILIZE,-35.3632621,149.1652375,0,-0.0005307436804287136,0.0009309535380452871,0.02486647292971611,0.00026662828167900443,0.00035519973607733846,0.0018178893951699138,0,1,-1000,1,0,0,-1,1,0,1500.0
08:33:16.402,STABILIZE,-35.3632621,149.1652375,0,-0.0005307436804287136,0.0009309535380452871,0.02486647292971611,0.00026662828167900443,0.00035519973607733846,0.0018178893951699138,0,1,-1000,1,0,0,-1,1,0,1500.0
08:33:16.604,STABILIZE,-35.3632621,149.1652375,0,-0.0004922709194943309,0.0009399247355759144,0.02445702999830246,0.00036322412779554725,0.0002614823170006275,0.0018260579090565443,0,1,-1000,0,0,0,-1,2,1,1500.0
08:33:16.805,STABILIZE,-35.3632621,149.1652375,0,-0.0004922709194943309,0.0009399247355759144,0.02445702999830246,0.00036322412779554725,0.0002614823170006275,0.0018260579090565443,0,1,-1000,0,0,0,-1,2,1,1500.0
08:33:17.006,STABILIZE,-35.3632621,149.1652375,0,-0.0004922709194943309,0.0009399247355759144,0.02445702999830246,0.00036322412779554725,0.0002614823170006275,0.0018260579090565443,0,1,-1000,0,0,0,-1,2,1,1500.0
08:33:17.208,STABILIZE,-35.3632621,149.1652375,0,-0.0004922709194943309,0.0009399247355759144,0.02445702999830246,0.00036322412779554725,0.0002614823170006275,0.0018260579090565443,0,1,-1000,0,0,1,-1,2,1,1500.0
08:33:17.409,STABILIZE,-35.3632621,149.1652375,0,-0.0006138071767054498,0.000943228485994041,0.02418511174619198,0.00044186285231262445,0.0002173206303268671,0.0018382376292720437,0,1,-1000,0,0,1,-1,2,1,1500.0
08:33:17.611,STABILIZE,-35.3632622,149.1652375,0,-0.0006526689976453781,0.0009556240984238684,0.024084655568003654,0.00023332767887040973,0.0002898417296819389,0.0017384758684784174,0,1,-1000,0,0,1,-1,1,1,1500.0
08:33:17.812,STABILIZE,-35.3632622,149.1652375,0,-0.0006526689976453781,0.0009556240984238684,0.024084655568003654,0.00023332767887040973,0.0002898417296819389,0.0017384758684784174,0,1,-1000,0,0,1,-1,1,1,1500.0
08:33:18.013,STABILIZE,-35.3632622,149.1652375,0,-0.0006526689976453781,0.0009556240984238684,0.024084655568003654,0.00023332767887040973,0.0002898417296819389,0.0017384758684784174,0,1,-1000,0,0,1,-1,1,1,1500.0
08:33:18.215,STABILIZE,-35.3632622,149.1652375,0,-0.0006526689976453781,0.0009556240984238684,0.024084655568003654,0.00023332767887040973,0.0002898417296819389,0.0017384758684784174,0,1,-1000,0,0,1,-1,1,1,1500.0
08:33:18.416,STABILIZE,-35.3632622,149.1652375,0,-0.0007661395939067006,0.0009556158329360187,0.023829039186239243,0.00037009723018854856,0.000265667331404984,0.0018002672586590052,0,2,-1000,0,0,1,-1,1,1,1500.0
08:33:18.618,STABILIZE,-35.3632622,149.1652375,0,-0.0007946479599922895,0.000960766919888556,0.023749783635139465,0.00014014012413099408,0.0003013632958754897,0.0016515261959284544,0,1,-1000,0,0,0,-1,1,1,1500.0
08:33:18.819,STABILIZE,-35.3632622,149.1652375,0,-0.0007946479599922895,0.000960766919888556,0.023749783635139465,0.00014014012413099408,0.0003013632958754897,0.0016515261959284544,0,1,-1000,0,0,0,-1,1,1,1500.0
08:33:19.021,STABILIZE,-35.3632622,149.1652375,0,-0.0007946479599922895,0.000960766919888556,0.023749783635139465,0.00014014012413099408,0.0003013632958754897,0.0016515261959284544,0,1,-1000,0,1,0,-1,1,1,1500.0
08:33:19.222,STABILIZE,-35.3632622,149.1652375,0,-0.0008670007227919996,0.0009678717469796538,0.0236135795712471,0.00029482273384928703,0.00019335758406668901,0.0017088819295167923,0,2,-1000,0,0,0,-1,1,1,1500.0
08:33:19.424,STABILIZE,-35.3632622,149.1652375,0,-0.0008943190914578736,0.0009619754855521023,0.023532409220933914,0.00022734294179826975,0.0002293538418598473,0.0017171245999634266,0,2,-1000,0,0,0,-1,1,1,1500.0
08:33:19.625,STABILIZE,-35.3632622,149.1652375,0,-0.0008943190914578736,0.0009619754855521023,0.023532409220933914,0.00022734294179826975,0.0002293538418598473,0.0017171245999634266,0,1,-1000,0,0,0,-1,1,0,1500.0
08:33:19.827,STABILIZE,-35.3632622,149.1652375,0,-0.0008943190914578736,0.0009619754855521023,0.023532409220933914,0.00022734294179826975,0.0002293538418598473,0.0017171245999634266,0,1,-1000,0,0,0,-1,1,0,1500.0
08:33:20.028,STABILIZE,-35.3632622,149.1652375,0,-0.0008943190914578736,0.0009619754855521023,0.023532409220933914,0.00022734294179826975,0.0002293538418598473,0.0017171245999634266,0,1,-1000,0,0,0,-1,1,0,1500.0
08:33:20.229,STABILIZE,-35.3632622,149.1652375,0,-0.0008943190914578736,0.0009619754855521023,0.023532409220933914,0.00022734294179826975,0.0002293538418598473,0.0017171245999634266,0,1,-1000,0,0,0,-1,1,0,1500.0
08:33:20.431,STABILIZE,-35.3632622,149.1652375,0,-0.0009715219493955374,0.0009519335580989718,0.023292573168873787,0.0001898842747323215,0.00011279899626970291,0.0016318282578140497,0,1,-1000,0,0,0,-1,1,0,1500.0
08:33:20.632,STABILIZE,-35.3632622,149.1652375,0,-0.0009715219493955374,0.0009519335580989718,0.023292573168873787,0.0001898842747323215,0.00011279899626970291,0.0016318282578140497,0,1,-1000,0,0,1,-1,1,0,1500.0
08:33:20.834,STABILIZE,-35.3632622,149.1652375,0,-0.0009715219493955374,0.0009519335580989718,0.023292573168873787,0.0001898842747323215,0.00011279899626970291,0.0016318282578140497,0,1,-1000,0,0,1,-1,1,0,1500.0
08:33:21.036,AUTO,-35.3632622,149.1652375,0,-0.0009978261077776551,0.0009652240551076829,0.02318304404616356,0.00034368247725069523,0.00030533684184774756,0.0017581412103027105,0,1,-1000,0,1,1,-1,1,0,1500.0
08:33:21.238,AUTO,-35.3632622,149.1652375,7,-0.0010086718248203397,0.0009576305164955556,0.023136572912335396,0.00028939679032191634,0.00032335432479158044,0.0015992685221135616,0,1,-1000,0,0,1,-1,1,0,1500.0
08:33:21.440,AUTO,-35.3632622,149.1652375,7,-0.0010067952098324895,0.00095654051983729,0.023094305768609047,0.0003034915425814688,0.0002671389956958592,0.0016772225499153137,0,2,-1000,0,1,1,-1,1,0,1500.0
08:33:21.642,AUTO,-35.3632622,149.1652375,6,-0.0010077535407617688,0.0009594695875421166,0.02301945723593235,0.00028316612588241696,0.000267544062808156,0.0015981871401891112,0,2,-1000,0,0,1,-1,0,0,1500.0
08:33:21.850,AUTO,-35.3632622,149.1652375,6,-0.0010077535407617688,0.0009594695875421166,0.02301945723593235,0.00028316612588241696,0.000267544062808156,0.0015981871401891112,0,2,-1000,0,0,1,-1,0,0,1500.0
08:33:22.078,AUTO,-35.3632622,149.1652375,6,-0.0010077535407617688,0.0009594695875421166,0.02301945723593235,0.00028316612588241696,0.000267544062808156,0.0015981871401891112,0,2,-1000,0,0,1,-1,0,0,1500.0
08:33:22.317,AUTO,-35.3632622,149.1652375,6,-0.0010077535407617688,0.0009594695875421166,0.02301945723593235,0.00028316612588241696,0.000267544062808156,0.0015981871401891112,0,2,-1000,0,0,1,-1,0,0,1500.0
08:33:22.595,AUTO,-35.3632621,149.1652375,4,-0.0008857757784426212,0.0011373490560799837,0.02277906984090805,0.00023475236957892776,0.00021328130969777703,0.0016123000532388687,0,2,-1000,0,0,0,0,0,0,1500.0
08:33:22.842,AUTO,-35.3632621,149.1652375,3,-0.0003631155123002827,0.0012038631830364466,0.02272728644311428,0.007957774214446545,0.0003542395425029099,0.0015871659852564335,0,72,-894,8,0,0,0,2,4,1500.0
08:33:23.054,AUTO,-35.3632621,149.1652375,3,-0.0003631155123002827,0.0012038631830364466,0.02272728644311428,0.007957774214446545,0.0003542395425029099,0.0015871659852564335,0,72,-894,8,0,0,0,2,4,1500.0
08:33:23.299,AUTO,-35.3632621,149.1652375,0,-0.00030863896245136857,0.0012706147972494364,0.022661076858639717,0.0002886484726332128,0.00024454493541270494,0.0016087887343019247,0,1,-1000,0,1,0,0,2,4,1500.0
08:33:23.500,AUTO,-35.3632621,149.1652375,0,-0.0002537128748372197,0.0013342598685994744,0.02256719209253788,0.0003266719286330044,0.0003247407730668783,0.0015018231933936477,0,1,-1000,0,1,0,0,1,4,1500.0
08:33:23.702,AUTO,-35.3632621,149.1652375,0,-0.00019231157784815878,0.0014036839129403234,0.022490687668323517,0.00034095306182280183,0.00031793658854439855,0.0015293501783162355,0,1,-1000,1,1,0,0,1,4,1500.0
08:33:23.906,AUTO,-35.3632621,149.1652375,0,-0.00019231157784815878,0.0014036839129403234,0.022490687668323517,0.00034095306182280183,0.00031793658854439855,0.0015293501783162355,0,1,-1000,1,1,0,0,1,4,1500.0
08:33:24.109,AUTO,-35.3632621,149.1652375,0,-0.00019231157784815878,0.0014036839129403234,0.022490687668323517,0.00034095306182280183,0.00031793658854439855,0.0015293501783162355,0,1,-1000,1,1,0,0,1,4,1505.0
08:33:24.310,AUTO,-35.3632621,149.1652375,0,-0.00019231157784815878,0.0014036839129403234,0.022490687668323517,0.00034095306182280183,0.00031793658854439855,0.0015293501783162355,0,1,-1000,1,1,0,0,1,4,1505.0
08:33:24.512,AUTO,-35.3632621,149.1652375,0,1.739310278026096e-06,0.0016306716715916991,0.022236822172999382,0.0003084917552769184,0.00038758909795433283,0.0014927834272384644,0,1,-1000,0,1,0,0,0,3,1505.0
08:33:24.713,AUTO,-35.3632621,149.1652375,0,7.807878137100488e-05,0.001701958361081779,0.02214816026389599,0.00041803502244874835,0.0002838664222508669,0.0014883000403642654,0,1,-1000,0,0,0,0,0,3,1505.0
08:33:24.915,AUTO,-35.3632621,149.1652375,0,0.001260476652532816,0.0015886765904724598,0.022117236629128456,0.03414543718099594,-0.007307044230401516,0.003621151205152273,0,1,-1042,34,-6,2,0,0,0,1505.0
08:33:25.116,AUTO,-35.3632621,149.1652375,31,0.006016482599079609,-0.0005497591337189078,0.022264856845140457,-0.002375752432271838,-0.0025735218077898026,0.0012488635256886482,0,0,-1137,-1,-1,0,0,0,-30,1505.0
08:33:25.318,AUTO,-35.3632621,149.1652375,31,0.006016482599079609,-0.0005497591337189078,0.022264856845140457,-0.002375752432271838,-0.0025735218077898026,0.0012488635256886482,0,0,-1137,-1,-1,0,0,0,-30,1505.0
08:33:25.520,AUTO,-35.3632621,149.1652375,161,0.005229209549725056,5.077859532320872e-05,0.022202467545866966,-0.005518054589629173,0.004770662635564804,0.000721723074093461,0,0,-1129,-4,5,0,0,1,-64,1505.0
08:33:25.722,AUTO,-35.3632621,149.1652375,366,0.00356450118124485,0.0011775627499446273,0.021984126418828964,-0.0007404868374578655,0.003337005153298378,0.0004233233048580587,0,0,-1109,0,3,0,0,1,-93,1505.0
08:33:25.924,AUTO,-35.3632621,149.1652375,366,0.00356450118124485,0.0011775627499446273,0.021984126418828964,-0.0007404868374578655,0.003337005153298378,0.0004233233048580587,0,0,-1109,0,3,0,0,1,-93,1505.0
08:33:26.126,AUTO,-35.3632621,149.1652375,366,0.00356450118124485,0.0011775627499446273,0.021984126418828964,-0.0007404868374578655,0.003337005153298378,0.0004233233048580587,0,0,-1109,0,3,0,0,1,-93,1505.0
08:33:26.327,AUTO,-35.3632621,149.1652375,366,0.00356450118124485,0.0011775627499446273,0.021984126418828964,-0.0007404868374578655,0.003337005153298378,0.0004233233048580587,0,0,-1109,0,3,0,0,1,-93,1505.0
08:33:26.529,AUTO,-35.363262,149.1652376,1327,0.01962043158710003,-0.0003561534103937447,0.0213474053889513,0.046508464962244034,-0.0073878164403140545,0.0017324250657111406,0,0,-1021,47,-6,1,0,5,-142,1505.0
08:33:26.731,AUTO,-35.363262,149.1652378,1704,0.03104441985487938,-0.0023623909801244736,0.0213470458984375,0.04525548592209816,-0.0084053510800004,0.002472509862855077,0,-1,-1009,46,-7,1,1,10,-145,1505.0
08:33:26.932,AUTO,-35.3632619,149.1652382,2087,0.041982252150774,-0.004589724820107222,0.021498141810297966,0.04276290908455849,-0.009323777630925179,0.0032510184682905674,0,-2,-1003,43,-8,2,2,18,-147,1505.0
08:33:27.134,AUTO,-35.3632618,149.1652388,2473,0.052209168672561646,-0.007240308914333582,0.021681543439626694,0.039820391684770584,-0.011150474660098553,0.00348727242089808,1,-5,-1001,40,-10,3,4,28,-147,1505.0
08:33:27.336,AUTO,-35.3632618,149.1652388,2473,0.052209168672561646,-0.007240308914333582,0.021681543439626694,0.039820391684770584,-0.011150474660098553,0.00348727242089808,1,-5,-1001,40,-10,3,4,28,-147,1505.0
08:33:27.537,AUTO,-35.3632616,149.1652397,2858,0.06151837483048439,-0.010136660188436508,-0.007072099018841982,0.029572954401373863,-0.00954714510589838,-0.011306015774607658,1,-7,-997,30,-9,-11,8,39,-147,1505.0
08:33:27.739,AUTO,-35.3632614,149.1652409,3240,0.04886601120233536,0.006165504455566406,-0.02591477893292904,-0.09890370815992355,0.11227019131183624,-0.11674284189939499,3,-10,-991,-98,113,-117,10,50,-145,1505.0
08:33:27.951,AUTO,-35.3632614,149.1652409,3240,0.04886601120233536,0.006165504455566406,-0.02591477893292904,-0.09890370815992355,0.11227019131183624,-0.11674284189939499,3,-10,-991,-98,113,-117,10,50,-145,1505.0
08:33:28.195,AUTO,-35.3632614,149.1652409,3240,0.04886601120233536,0.006165504455566406,-0.02591477893292904,-0.09890370815992355,0.11227019131183624,-0.11674284189939499,3,-10,-991,-98,113,-117,10,50,-145,1505.0
08:33:28.460,AUTO,-35.3632609,149.165245,4376,-0.03539424017071724,0.01115520391613245,-0.06976219266653061,-0.022022860124707222,-0.02882426232099533,-0.03270214796066284,4,-9,-1008,-21,-28,-33,1,37,-148,1505.0
08:33:28.712,AUTO,-35.3632608,149.1652459,4763,-0.03862135484814644,0.004869414493441582,-0.07611510902643204,-0.010289855301380157,-0.017205677926540375,-0.028185000643134117,3,-6,-1003,-9,-16,-28,0,25,-149,1505.0
08:33:29.035,AUTO,-35.3632608,149.1652464,5150,-0.048652734607458115,0.0015067994827404618,-0.08270931243896484,-0.06602831929922104,-0.007868550717830658,-0.026722032576799393,2,-3,-997,-65,-7,-26,0,13,-149,1505.0
08:33:29.320,AUTO,-35.3632608,149.1652466,5535,-0.06768408417701721,-0.0001820863108150661,-0.08965496718883514,-0.0801515057682991,-0.0028322343714535236,-0.026322392746806145,0,-1,-998,-79,-2,-26,0,-1,-148,1505.0
08:33:29.532,AUTO,-35.3632608,149.1652463,5918,-0.07339432835578918,-0.0009391572093591094,-0.09575658291578293,0.029659811407327652,-0.0011372275184839964,-0.0208841934800148,0,1,-1005,30,0,-21,-1,-19,-148,1505.0
08:33:29.741,AUTO,-35.3632608,149.1652457,6302,-0.06133008003234863,-0.0016038579633459449,-0.09979286044836044,0.0539005808532238,0.00011420313967391849,-0.013448395766317844,-3,6,-1001,54,0,-13,-2,-36,-148,1505.0
08:33:29.950,AUTO,-35.3632608,149.1652457,6302,-0.06133008003234863,-0.0016038579633459449,-0.09979286044836044,0.0539005808532238,0.00011420313967391849,-0.013448395766317844,-3,6,-1001,54,0,-13,-2,-36,-148,1505.0
08:33:30.155,AUTO,-35.3632608,149.1652457,6302,-0.06133008003234863,-0.0016038579633459449,-0.09979286044836044,0.0539005808532238,0.00011420313967391849,-0.013448395766317844,-3,6,-1001,54,0,-13,-2,-36,-148,145598.0
08:33:30.357,AUTO,-35.3632608,149.1652457,6302,-0.06133008003234863,-0.0016038579633459449,-0.09979286044836044,0.0539005808532238,0.00011420313967391849,-0.013448395766317844,-3,6,-1001,54,0,-13,-2,-36,-148,145598.0
08:33:30.559,AUTO,-35.3632612,149.1652409,7606,-0.008970572613179684,0.004378714598715305,-0.10551978647708893,0.06570330262184143,0.01151470560580492,-0.0007703484734520316,-7,14,-1003,66,11,-1,-8,-59,-150,145598.0
08:33:30.761,AUTO,-35.3632614,149.1652392,7994,0.007725485134869814,0.007291171234101057,-0.10531866550445557,0.06789401918649673,0.011662221513688564,0.0009802681161090732,-7,14,-1004,68,12,0,-11,-57,-151,145598.0
08:33:30.963,AUTO,-35.3632616,149.1652377,8385,0.02436686120927334,0.009818015620112419,-0.10448183864355087,0.06733178347349167,0.009252182208001614,0.0027178495656698942,-3,8,-1003,68,9,2,-13,-50,-152,145598.0
08:33:31.165,AUTO,-35.3632616,149.1652377,8385,0.02436686120927334,0.009818015620112419,-0.10448183864355087,0.06733178347349167,0.009252182208001614,0.0027178495656698942,-3,8,-1003,68,9,2,-13,-50,-152,145598.0
08:33:31.367,AUTO,-35.3632619,149.1652364,8777,0.041000522673130035,0.011730183847248554,-0.103317491710186,0.06619959324598312,0.006417915690690279,0.003214113414287567,-4,12,-1003,66,6,2,-15,-40,-153,145598.0
08:33:31.570,AUTO,-35.3632623,149.1652354,9171,0.05685427412390709,0.012368280440568924,-0.10195696353912354,0.062153175473213196,4.481227369979024e-05,0.0046742744743824005,0,7,-1002,62,0,4,-17,-26,-153,145598.0
08:33:31.772,AUTO,-35.3632627,149.1652348,9565,0.06929915398359299,0.009667511098086834,-0.09805643558502197,0.016385653987526894,-0.03609025850892067,0.04135069623589516,0,6,-997,16,-35,40,-18,-9,-153,145598.0
08:33:31.974,AUTO,-35.3632627,149.1652348,9565,0.06929915398359299,0.009667511098086834,-0.09805643558502197,0.016385653987526894,-0.03609025850892067,0.04135069623589516,0,6,-997,16,-35,40,-18,-9,-153,145598.0
08:33:32.176,AUTO,-35.3632627,149.1652348,9565,0.06929915398359299,0.009667511098086834,-0.09805643558502197,0.016385653987526894,-0.03609025850892067,0.04135069623589516,0,6,-997,16,-35,40,-18,-9,-153,145598.0
08:33:32.378,AUTO,-35.3632627,149.1652348,9565,0.06929915398359299,0.009667511098086834,-0.09805643558502197,0.016385653987526894,-0.03609025850892067,0.04135069623589516,0,6,-997,16,-35,40,-18,-9,-153,145598.0
08:33:32.580,AUTO,-35.3632634,149.1652354,10726,0.017964521422982216,-0.03607616201043129,-0.05515782907605171,-0.10557647049427032,0.04225572198629379,-0.013553459197282791,2,-3,-998,-105,42,-14,3,23,-148,145598.0
08:33:32.782,AUTO,-35.3632632,149.1652359,11115,-0.003120484994724393,-0.022613685578107834,-0.06474725902080536,-0.06490067392587662,0.05452755093574524,-0.047943115234375,1,-4,-1004,-64,55,-48,12,22,-149,145598.0
08:33:32.984,AUTO,-35.363263,149.1652364,11499,-0.014960762113332748,-0.01127798855304718,-0.07878443598747253,-0.03254545480012894,0.03655342012643814,-0.055317603051662445,0,-6,-1004,-31,37,-55,16,17,-150,145598.0
08:33:33.185,AUTO,-35.363263,149.1652364,11499,-0.014960762113332748,-0.01127798855304718,-0.07878443598747253,-0.03254545480012894,0.03655342012643814,-0.055317603051662445,0,-6,-1004,-31,37,-55,16,17,-150,145598.0
08:33:33.387,AUTO,-35.3632626,149.1652368,11886,-0.019901402294635773,-0.00387479062192142,-0.09369520097970963,-0.008156264200806618,0.026285115629434586,-0.05643973872065544,-1,-4,-1004,-7,27,-56,17,10,-151,145598.0
08:33:33.589,AUTO,-35.3632622,149.1652369,12275,-0.020071228966116905,0.0014331191778182983,-0.10778436064720154,0.005330878309905529,0.018788639456033707,-0.05074312910437584,-2,-3,-1002,5,19,-51,17,3,-152,145598.0
08:33:33.792,AUTO,-35.3632618,149.1652369,12663,-0.016821445897221565,0.0058694942854344845,-0.12104000151157379,0.01909404993057251,0.01717783324420452,-0.047083791345357895,-3,-2,-1002,19,17,-47,15,-2,-152,145598.0
08:33:33.995,AUTO,-35.3632618,149.1652369,12663,-0.016821445897221565,0.0058694942854344845,-0.12104000151157379,0.01909404993057251,0.01717783324420452,-0.047083791345357895,-3,-2,-1002,19,17,-47,15,-2,-152,145598.0
08:33:34.279,AUTO,-35.3632618,149.1652369,12663,-0.016821445897221565,0.0058694942854344845,-0.12104000151157379,0.01909404993057251,0.01717783324420452,-0.047083791345357895,-3,-2,-1002,19,17,-47,15,-2,-152,145598.0
08:33:34.527,AUTO,-35.363261,149.1652363,13836,0.0016387903597205877,0.013660500757396221,-0.14815573394298553,0.02313094586133957,0.006509227678179741,-0.024017395451664925,-3,0,-1000,23,7,-24,5,-9,-153,145598.0
08:33:34.860,AUTO,-35.3632609,149.165236,14226,0.006776925176382065,0.014609077014029026,-0.1530493050813675,0.01697995327413082,0.0007626899750903249,-0.014078095555305481,-3,0,-1000,17,1,-14,2,-8,-153,145598.0
08:33:35.288,AUTO,-35.3632609,149.1652355,15008,0.013038860633969307,0.013063265010714531,-0.15766966342926025,0.007998392917215824,-0.0055184438824653625,-0.005422364454716444,-1,1,-999,8,-4,-6,-3,-3,-153,145598.0
08:33:35.490,AUTO,-35.3632609,149.1652354,15398,0.013726244680583477,0.01135572325438261,-0.1584973931312561,-0.00041264508035965264,-0.006720459554344416,-0.0028475655708462,0,0,-999,0,-6,-3,-5,0,-153,145598.0
08:33:35.692,AUTO,-35.3632609,149.1652354,15398,0.013726244680583477,0.01135572325438261,-0.1584973931312561,-0.00041264508035965264,-0.006720459554344416,-0.0028475655708462,0,0,-999,0,-6,-3,-5,0,-153,145598.0
08:33:35.894,AUTO,-35.3632609,149.1652353,15792,0.01308765634894371,0.00948172528296709,-0.15911783277988434,-0.003431422635912895,-0.007386102341115475,-0.002403664169833064,0,0,-999,-2,-6,-2,-6,2,-152,145598.0
08:33:36.102,AUTO,-35.3632609,149.1652353,15792,0.01308765634894371,0.00948172528296709,-0.15911783277988434,-0.003431422635912895,-0.007386102341115475,-0.002403664169833064,0,0,-999,-2,-6,-2,-6,2,-152,240902.0
08:33:36.304,AUTO,-35.3632609,149.1652353,15792,0.01308765634894371,0.00948172528296709,-0.15911783277988434,-0.003431422635912895,-0.007386102341115475,-0.002403664169833064,0,0,-999,-2,-6,-2,-6,2,-152,240902.0
08:33:36.506,AUTO,-35.3632613,149.1652355,16957,0.008089703507721424,0.004959584679454565,-0.16396518051624298,-0.005466030444949865,-0.004408648703247309,-0.010504410602152348,1,0,-1000,-4,-3,-11,-7,7,-152,240902.0
08:33:36.707,AUTO,-35.3632614,149.1652356,17346,0.004804881755262613,0.003763055894523859,-0.1668163239955902,-0.03417131304740906,-0.0038630214985460043,-0.012038419023156166,1,0,-997,-33,-3,-12,-7,8,-152,240902.0
08:33:36.909,AUTO,-35.3632614,149.1652356,17346,0.004804881755262613,0.003763055894523859,-0.1668163239955902,-0.03417131304740906,-0.0038630214985460043,-0.012038419023156166,1,0,-997,-33,-3,-12,-7,8,-152,240902.0
08:33:37.110,AUTO,-35.3632615,149.1652357,17733,-0.013238958083093166,0.0027607069350779057,-0.17061299085617065,-0.09325294196605682,-0.001741447951644659,-0.017678501084446907,1,0,-996,-92,-1,-18,-7,6,-151,240902.0
08:33:37.312,AUTO,-35.3632617,149.1652357,18117,-0.04058383032679558,0.0019284621812403202,-0.17525693774223328,-0.11239968985319138,-0.0023738467134535313,-0.02038310095667839,1,0,-997,-111,-1,-20,-8,-1,-150,240902.0
08:33:37.514,AUTO,-35.3632618,149.1652355,18497,-0.05763990804553032,0.014656098559498787,-0.15380683541297913,-0.026144148781895638,0.09503953903913498,0.2024574875831604,0,2,-980,-25,95,201,-10,-14,-146,240902.0
08:33:37.717,AUTO,-35.3632621,149.1652349,18863,-0.057094208896160126,0.04587799310684204,-0.06678589433431625,-9.635748574510217e-05,0.08905262500047684,0.4518686830997467,0,6,-978,0,89,451,-19,-27,-141,240902.0
08:33:37.920,AUTO,-35.3632621,149.1652349,18863,-0.057094208896160126,0.04587799310684204,-0.06678589433431625,-9.635748574510217e-05,0.08905262500047684,0.4518686830997467,0,6,-978,0,89,451,-19,-27,-141,240902.0
08:33:38.122,AUTO,-35.3632621,149.1652349,18863,-0.057094208896160126,0.04587799310684204,-0.06678589433431625,-9.635748574510217e-05,0.08905262500047684,0.4518686830997467,0,6,-978,0,89,451,-19,-27,-141,240902.0
08:33:38.324,AUTO,-35.3632621,149.1652349,18863,-0.057094208896160126,0.04587799310684204,-0.06678589433431625,-9.635748574510217e-05,0.08905262500047684,0.4518686830997467,0,6,-978,0,89,451,-19,-27,-141,240902.0
08:33:38.525,AUTO,-35.3632639,149.1652318,19816,0.03927850350737572,-0.029816005378961563,0.0663411021232605,0.10160352289676666,-0.07231686264276505,-0.01792953722178936,2,11,-958,102,-71,-18,-27,-29,-108,240902.0
08:33:38.727,AUTO,-35.3632644,149.1652311,20080,0.05803651735186577,-0.03966754674911499,0.05738338455557823,0.05060255900025368,-0.019021468237042427,-0.04447830095887184,1,7,-961,51,-18,-44,-18,-15,-97,240902.0
08:33:38.929,AUTO,-35.3632644,149.1652311,20080,0.05803651735186577,-0.03966754674911499,0.05738338455557823,0.05060255900025368,-0.019021468237042427,-0.04447830095887184,1,7,-961,51,-18,-44,-18,-15,-97,240902.0
08:33:39.131,AUTO,-35.3632647,149.1652308,20315,0.06441514939069748,-0.03948798403143883,0.047665152698755264,0.00676144240424037,0.008476424030959606,-0.03629789128899574,1,3,-965,7,9,-36,-9,0,-87,240902.0
08:33:39.333,AUTO,-35.3632648,149.165231,20526,0.061281632632017136,-0.03426259756088257,0.04151810705661774,-0.026367729529738426,0.02688581310212612,-0.01775476150214672,0,0,-969,-25,27,-18,0,14,-79,240902.0
08:33:39.535,AUTO,-35.3632647,149.1652313,20717,0.05233586207032204,-0.02637728862464428,0.03871263936161995,-0.04452671855688095,0.03409332409501076,-0.005361433606594801,0,-4,-973,-43,34,-5,6,26,-71,240902.0
08:33:39.738,AUTO,-35.3632644,149.1652321,20889,0.04106050729751587,-0.01778309978544712,0.03778180480003357,-0.045364201068878174,0.03427086025476456,-0.0009791060583665967,1,-7,-975,-44,35,-1,12,34,-65,240902.0
08:33:39.940,AUTO,-35.3632644,149.1652321,20889,0.04106050729751587,-0.01778309978544712,0.03778180480003357,-0.045364201068878174,0.03427086025476456,-0.0009791060583665967,1,-7,-975,-44,35,-1,12,34,-65,240902.0
08:33:40.175,AUTO,-35.3632644,149.1652321,20889,0.04106050729751587,-0.01778309978544712,0.03778180480003357,-0.045364201068878174,0.03427086025476456,-0.0009791060583665967,1,-7,-975,-44,35,-1,12,34,-65,240902.0
08:33:40.459,AUTO,-35.3632644,149.1652321,20889,0.04106050729751587,-0.01778309978544712,0.03778180480003357,-0.045364201068878174,0.03427086025476456,-0.0009791060583665967,1,-7,-975,-44,35,-1,12,34,-65,240902.0
08:33:40.698,AUTO,-35.3632629,149.1652362,21421,0.000645077379886061,0.009324784390628338,0.036127157509326935,-0.03736479952931404,0.014093915931880474,0.0010263430885970592,0,-11,-978,-34,23,1,17,39,-42,240902.0
08:33:41.047,AUTO,-35.3632625,149.1652371,21518,-0.004914473742246628,0.012484688311815262,0.03552471846342087,-0.012550778687000275,0.012018588371574879,-3.608074621297419e-05,0,-8,-977,-11,12,0,15,35,-36,240902.0
08:33:41.299,AUTO,-35.3632622,149.165238,21600,-0.008794032037258148,0.014397170394659042,0.034768301993608475,-0.002661090809851885,0.005831357091665268,-0.00041369846439920366,0,-7,-976,-1,6,0,13,30,-30,240902.0
08:33:41.502,AUTO,-35.3632619,149.1652387,21667,-0.01155367773026228,0.015187300741672516,0.034208688884973526,-0.027822047472000122,0.00011709582759067416,-0.0011821467196568847,0,-7,-975,-27,0,-1,10,25,-24,240902.0
08:33:41.705,AUTO,-35.3632616,149.1652393,21717,-0.012607780285179615,0.01475889515131712,0.03360689431428909,0.009680516086518764,-0.003332736436277628,-0.000895763048902154,0,-3,-973,10,-2,-1,7,20,-17,240902.0
08:33:41.907,AUTO,-35.3632616,149.1652393,21717,-0.012607780285179615,0.01475889515131712,0.03360689431428909,0.009680516086518764,-0.003332736436277628,-0.000895763048902154,0,-3,-973,10,-2,-1,7,20,-17,240902.0
08:33:42.110,AUTO,-35.3632616,149.1652393,21717,-0.012607780285179615,0.01475889515131712,0.03360689431428909,0.009680516086518764,-0.003332736436277628,-0.000895763048902154,0,-3,-973,10,-2,-1,7,20,-17,44811.0
08:33:42.311,AUTO,-35.3632616,149.1652393,21717,-0.012607780285179615,0.01475889515131712,0.03360689431428909,0.009680516086518764,-0.003332736436277628,-0.000895763048902154,0,-3,-973,10,-2,-1,7,20,-17,44811.0
08:33:42.513,AUTO,-35.3632613,149.1652403,21737,-0.05432175472378731,0.024585328996181488,0.030613483861088753,-0.44266530871391296,-0.030141256749629974,-0.006599824875593185,1,-12,-963,-441,-29,-6,-1,1,13,44811.0
08:33:42.715,AUTO,-35.3632613,149.1652402,21690,-0.03204385191202164,0.00535525381565094,0.03007548674941063,0.357217401266098,-0.09264449775218964,-0.014888503588736057,0,36,-967,359,-91,-15,-4,-7,20,44811.0
08:33:42.918,AUTO,-35.3632613,149.1652402,21690,-0.03204385191202164,0.00535525381565094,0.03007548674941063,0.357217401266098,-0.09264449775218964,-0.014888503588736057,0,36,-967,359,-91,-15,-4,-7,20,44811.0
08:33:43.121,AUTO,-35.3632613,149.1652399,21632,0.0033168350346386433,-0.01844331994652748,0.030085550621151924,0.8260960578918457,-0.08419650048017502,-0.007431122474372387,-1,42,-1033,827,-83,-7,-2,-11,18,44811.0
08:33:43.323,AUTO,-35.3632613,149.1652396,21585,0.023811552673578262,-0.036313362419605255,0.02937958389520645,0.2582587003707886,-0.06650704145431519,0.003430349752306938,-3,-9,-1014,258,-65,2,4,-10,14,44811.0
08:33:43.525,AUTO,-35.363261,149.1652395,21549,0.02799311652779579,-0.05013725906610489,0.027687320485711098,-0.45854565501213074,-0.05122476816177368,-0.005210465285927057,-2,-39,-1003,-458,-50,-5,14,-5,9,44811.0
08:33:43.727,AUTO,-35.3632606,149.1652395,21522,0.030307753011584282,-0.06100310757756233,0.02611304447054863,-0.5293916463851929,-0.041165195405483246,-0.0050013866275548935,-4,-14,-1023,-528,-40,-5,28,3,4,44811.0
08:33:43.929,AUTO,-35.3632606,149.1652395,21522,0.030307753011584282,-0.06100310757756233,0.02611304447054863,-0.5293916463851929,-0.041165195405483246,-0.0050013866275548935,-4,-14,-1023,-528,-40,-5,28,3,4,44811.0
08:33:44.131,AUTO,-35.3632606,149.1652395,21522,0.030307753011584282,-0.06100310757756233,0.02611304447054863,-0.5293916463851929,-0.041165195405483246,-0.0050013866275548935,-4,-14,-1023,-528,-40,-5,28,3,4,44811.0
08:33:44.333,AUTO,-35.3632606,149.1652395,21522,0.030307753011584282,-0.06100310757756233,0.02611304447054863,-0.5293916463851929,-0.041165195405483246,-0.0050013866275548935,-4,-14,-1023,-528,-40,-5,28,3,4,44811.0
08:33:44.535,AUTO,-35.3632571,149.1652413,21494,0.03289618715643883,-0.09755352884531021,0.298627644777298,-0.07085494697093964,-0.025433160364627838,1.033300518989563,-13,-36,-999,-70,-24,1033,78,32,-2,44811.0
08:33:44.737,AUTO,-35.3632551,149.1652425,21493,0.004853884223848581,-0.11005480587482452,0.5206644535064697,-0.4754423499107361,-0.03202693536877632,0.6377221345901489,-22,-28,-1007,-474,-30,637,97,44,-2,44811.0
08:33:44.939,AUTO,-35.3632551,149.1652425,21493,0.004853884223848581,-0.11005480587482452,0.5206644535064697,-0.4754423499107361,-0.03202693536877632,0.6377221345901489,-22,-28,-1007,-474,-30,637,97,44,-2,44811.0
08:33:45.140,AUTO,-35.3632527,149.1652441,21495,0.005422214046120644,-0.12064264714717865,0.6129876971244812,0.29125553369522095,-0.05418487265706062,0.13832387328147888,-27,6,-1006,292,-53,137,117,56,-3,44811.0
08:33:45.342,AUTO,-35.3632499,149.165246,21498,0.012052197009325027,-0.13335858285427094,0.6186559200286865,0.4946525990962982,-0.056441303342580795,-0.07762526720762253,-35,-4,-1007,495,-55,-77,138,68,-3,44811.0
08:33:45.544,AUTO,-35.3632466,149.1652483,21500,0.006014495622366667,-0.1437973976135254,0.5921434760093689,-0.2217193990945816,-0.042921338230371475,-0.11740487068891525,-37,-43,-1008,-222,-41,-117,162,80,-3,44811.0
08:33:45.746,AUTO,-35.3632427,149.1652509,21502,0.003742984728887677,-0.1565643846988678,0.5653743743896484,-0.35675352811813354,-0.05932207405567169,-0.1044100895524025,-47,-35,-1000,-355,-58,-104,185,93,-3,44811.0
08:33:45.950,AUTO,-35.3632427,149.1652509,21502,0.003742984728887677,-0.1565643846988678,0.5653743743896484,-0.35675352811813354,-0.05932207405567169,-0.1044100895524025,-47,-35,-1000,-355,-58,-104,185,93,-3,44811.0
08:33:46.174,AUTO,-35.3632427,149.1652509,21502,0.003742984728887677,-0.1565643846988678,0.5653743743896484,-0.35675352811813354,-0.05932207405567169,-0.1044100895524025,-47,-35,-1000,-355,-58,-104,185,93,-3,44811.0
08:33:46.451,AUTO,-35.3632427,149.1652509,21502,0.003742984728887677,-0.1565643846988678,0.5653743743896484,-0.35675352811813354,-0.05932207405567169,-0.1044100895524025,-47,-35,-1000,-355,-58,-104,185,93,-3,44811.0
08:33:46.694,AUTO,-35.3632276,149.1652609,21503,0.023381831124424934,-0.18260543048381805,0.5416797399520874,-0.19318576157093048,0.021379349753260612,-0.0015291620511561632,-60,-49,-1013,-192,22,-2,268,135,-3,44811.0
08:33:46.927,AUTO,-35.3632213,149.165265,21507,0.029190700501203537,-0.17871539294719696,0.5412588715553284,-0.19739069044589996,0.006762056145817041,-0.0031751831993460655,-61,-56,-1011,-196,7,-3,295,148,-4,44811.0
08:33:47.170,AUTO,-35.3632144,149.1652694,21514,0.04279913380742073,-0.18023742735385895,0.5402405858039856,0.16663816571235657,-0.022387344390153885,-0.016184482723474503,-74,-33,-1009,167,-21,-16,319,162,-5,44811.0
08:33:47.372,AUTO,-35.3632071,149.1652742,21523,0.046527598053216934,-0.1859876662492752,0.540351927280426,0.0813666507601738,-0.027485758066177368,-0.004292618948966265,-73,-46,-1002,81,-26,-4,343,177,-5,44811.0
08:33:47.575,AUTO,-35.3631991,149.1652795,21531,0.04456502944231033,-0.18722370266914368,0.5407839417457581,-0.0720081701874733,-0.009632998146116734,-0.0026131810154765844,-83,-55,-1004,-71,-8,-2,366,191,-6,44811.0
08:33:47.778,AUTO,-35.3631906,149.1652851,21541,0.04967016354203224,-0.19409777224063873,0.5393989682197571,0.018676282837986946,-0.03485061973333359,-0.01394165214151144,-86,-51,-997,19,-34,-14,389,204,-6,44811.0
08:33:47.980,AUTO,-35.3631906,149.1652851,21541,0.04967016354203224,-0.19409777224063873,0.5393989682197571,0.018676282837986946,-0.03485061973333359,-0.01394165214151144,-86,-51,-997,19,-34,-14,389,204,-6,44811.0
08:33:48.182,AUTO,-35.3631906,149.1652851,21541,0.04967016354203224,-0.19409777224063873,0.5393989682197571,0.018676282837986946,-0.03485061973333359,-0.01394165214151144,-86,-51,-997,19,-34,-14,389,204,-6,1150.0
08:33:48.385,AUTO,-35.3631906,149.1652851,21541,0.04967016354203224,-0.19409777224063873,0.5393989682197571,0.018676282837986946,-0.03485061973333359,-0.01394165214151144,-86,-51,-997,19,-34,-14,389,204,-6,1150.0
08:33:48.587,AUTO,-35.3631621,149.1653041,21565,0.06488144397735596,-0.21401266753673553,0.5347859859466553,0.038775455206632614,0.01697743870317936,0.0019500099588185549,-102,-62,-1007,39,17,1,463,246,-4,1150.0
08:33:48.789,AUTO,-35.3631514,149.1653113,21575,0.06697006523609161,-0.203384667634964,0.5339177846908569,0.003132140962406993,0.05427774786949158,-0.009968074969947338,-104,-68,-1012,3,55,-10,486,261,-7,1150.0
08:33:48.990,AUTO,-35.3631403,149.1653188,21594,0.067324697971344,-0.19116626679897308,0.5339229106903076,0.002485648961737752,0.034487806260585785,-0.006197907030582428,-122,-66,-1014,2,35,-6,505,273,-11,1150.0
08:33:49.193,AUTO,-35.3631403,149.1653188,21594,0.067324697971344,-0.19116626679897308,0.5339229106903076,0.002485648961737752,0.034487806260585785,-0.006197907030582428,-122,-66,-1014,2,35,-6,505,273,-11,1150.0
08:33:49.394,AUTO,-35.3631286,149.1653268,21620,0.06840372085571289,-0.1838405877351761,0.5336974859237671,0.007426210679113865,0.020490089431405067,-0.005802183877676725,-118,-71,-1003,7,21,-6,522,283,-13,1150.0
08:33:49.596,AUTO,-35.3631169,149.1653348,21651,0.07059884071350098,-0.1823042780160904,0.5330295562744141,-0.0007229413604363799,-0.007805057801306248,-0.0020265374332666397,-98,-71,-985,0,-7,-2,537,292,-13,1150.0
08:33:49.798,AUTO,-35.3631047,149.1653431,21682,0.07365919649600983,-0.17698389291763306,0.5323029160499573,0.008525243028998375,0.03383975848555565,0.0019235900836065412,-112,-70,-992,9,34,1,551,300,-13,1150.0
08:33:50.000,AUTO,-35.3631047,149.1653431,21682,0.07365919649600983,-0.17698389291763306,0.5323029160499573,0.008525243028998375,0.03383975848555565,0.0019235900836065412,-112,-70,-992,9,34,1,551,300,-13,1150.0
08:33:50.202,AUTO,-35.3631047,149.1653431,21682,0.07365919649600983,-0.17698389291763306,0.5323029160499573,0.008525243028998375,0.03383975848555565,0.0019235900836065412,-112,-70,-992,9,34,1,551,300,-13,1150.0
08:33:50.405,AUTO,-35.3631047,149.1653431,21682,0.07365919649600983,-0.17698389291763306,0.5323029160499573,0.008525243028998375,0.03383975848555565,0.0019235900836065412,-112,-70,-992,9,34,1,551,300,-13,1150.0
08:33:50.607,AUTO,-35.3630669,149.165369,21787,0.07920202612876892,-0.16498735547065735,0.5293487906455994,-0.001947824377566576,0.01633971557021141,-0.005905206315219402,-115,-74,-978,-1,17,-6,581,316,-13,1150.0
08:33:50.809,AUTO,-35.3630538,149.165378,21820,0.08003160357475281,-0.15828527510166168,0.5284488201141357,-0.002782843541353941,0.051347218453884125,-0.002612454816699028,-120,-80,-990,-2,52,-2,589,322,-13,1150.0
08:33:51.116,AUTO,-35.3630405,149.1653871,21855,0.07923819124698639,-0.14520448446273804,0.5282607078552246,0.0011306467931717634,0.022179678082466125,0.00024134910199791193,-146,-79,-995,1,23,0,593,325,-15,1150.0
08:33:51.462,AUTO,-35.3630138,149.1654056,21928,0.07788390666246414,-0.13376212120056152,0.5282019376754761,0.07429226487874985,0.01401109155267477,-0.003405262716114521,-133,-102,-989,74,14,-3,600,328,-15,1150.0
08:33:51.678,AUTO,-35.3630138,149.1654056,21928,0.07788390666246414,-0.13376212120056152,0.5282019376754761,0.07429226487874985,0.01401109155267477,-0.003405262716114521,-133,-102,-989,74,14,-3,600,328,-15,1150.0
08:33:52.003,AUTO,-35.3630002,149.1654149,21964,0.08382800221443176,-0.1264091283082962,0.5267593264579773,0.02232319302856922,0.03786029666662216,0.0021696079056710005,-137,-82,-988,22,38,1,600,328,-14,1150.0
08:33:52.227,AUTO,-35.3630002,149.1654149,21964,0.08382800221443176,-0.1264091283082962,0.5267593264579773,0.02232319302856922,0.03786029666662216,0.0021696079056710005,-137,-82,-988,22,38,1,600,328,-14,1150.0
08:33:52.431,AUTO,-35.3630002,149.1654149,21964,0.08382800221443176,-0.1264091283082962,0.5267593264579773,0.02232319302856922,0.03786029666662216,0.0021696079056710005,-137,-82,-988,22,38,1,600,328,-14,1150.0
08:33:52.634,AUTO,-35.36296,149.1654426,22061,0.07803593575954437,-0.12774574756622314,0.5251876711845398,-0.0190413910895586,-0.06054415553808212,0.009311160072684288,-138,-81,-965,-18,-59,9,593,326,-8,1150.0
08:33:52.837,AUTO,-35.3629466,149.1654519,22077,0.07848653197288513,-0.13178488612174988,0.525495707988739,0.007688169367611408,-0.0011240283492952585,-0.003386095631867647,-128,-73,-977,7,0,-3,594,326,-4,1150.0
08:33:53.041,AUTO,-35.3629332,149.165461,22089,0.07666176557540894,-0.1305721253156662,0.5259830951690674,-0.02857300639152527,-0.0006026258342899382,0.011554835364222527,-137,-81,-989,-28,0,11,596,326,-4,65085.0
08:33:53.244,AUTO,-35.3629198,149.1654701,22102,0.08438190817832947,-0.12416768074035645,0.525230348110199,0.030458761379122734,0.05468450486660004,-0.007425038609653711,-138,-85,-999,30,55,-7,597,325,-5,65085.0
08:33:53.446,AUTO,-35.3629063,149.1654792,22120,0.08720681816339493,-0.1089577004313469,0.524766206741333,0.017114875838160515,0.10247928649187088,-0.005424286238849163,-155,-78,-1013,17,103,-5,595,325,-8,65085.0
08:33:53.648,AUTO,-35.3629063,149.1654792,22120,0.08720681816339493,-0.1089577004313469,0.524766206741333,0.017114875838160515,0.10247928649187088,-0.005424286238849163,-155,-78,-1013,17,103,-5,595,325,-8,65085.0
08:33:53.850,AUTO,-35.3628929,149.1654883,22149,0.08736157417297363,-0.09035264700651169,0.5250024795532227,-0.02276751585304737,0.052180565893650055,-0.005494799930602312,-134,-90,-1002,-22,53,-5,589,322,-12,65085.0
08:33:54.057,AUTO,-35.3628929,149.1654883,22149,0.08736157417297363,-0.09035264700651169,0.5250024795532227,-0.02276751585304737,0.052180565893650055,-0.005494799930602312,-134,-90,-1002,-22,53,-5,589,322,-12,65085.0
08:33:54.262,AUTO,-35.3628929,149.1654883,22149,0.08736157417297363,-0.09035264700651169,0.5250024795532227,-0.02276751585304737,0.052180565893650055,-0.005494799930602312,-134,-90,-1002,-22,53,-5,589,322,-12,65085.0
08:33:54.464,AUTO,-35.362854,149.1655147,22254,0.08964309841394424,-0.05254596844315529,0.5255857110023499,-0.024958645924925804,0.032880544662475586,-0.00029859712230972946,-130,-73,-985,-24,33,0,555,305,-12,65085.0
08:33:54.666,AUTO,-35.362854,149.1655147,22254,0.08964309841394424,-0.05254596844315529,0.5255857110023499,-0.024958645924925804,0.032880544662475586,-0.00029859712230972946,-130,-73,-985,-24,33,0,555,305,-12,65085.0
08:33:54.869,AUTO,-35.3628417,149.1655231,22285,0.08430583775043488,-0.04772212728857994,0.5256345868110657,0.031054824590682983,0.02959817461669445,0.007469309493899345,-131,-84,-985,31,30,7,538,298,-10,65085.0
08:33:55.072,AUTO,-35.3628297,149.1655313,22311,0.08400898426771164,-0.034016478806734085,0.5252885222434998,-0.009681742638349533,0.07458717375993729,-0.002501219743862748,-121,-78,-991,-9,75,-2,522,290,-9,65085.0
08:33:55.275,AUTO,-35.3628179,149.1655395,22335,0.07867689430713654,-0.017720108851790428,0.5259116888046265,-0.07947518676519394,0.07651513814926147,0.0025650435127317905,-121,-81,-999,-78,77,2,504,281,-8,65085.0
08:33:55.477,AUTO,-35.3628068,149.1655472,22357,0.08006510138511658,-0.004754466004669666,0.5264012813568115,0.11159508675336838,0.04864282160997391,-0.003913096152245998,-114,-73,-995,111,49,-3,483,269,-7,65085.0
08:33:55.679,AUTO,-35.3628068,149.1655472,22357,0.08006510138511658,-0.004754466004669666,0.5264012813568115,0.11159508675336838,0.04864282160997391,-0.003913096152245998,-114,-73,-995,111,49,-3,483,269,-7,65085.0
08:33:55.881,AUTO,-35.362796,149.1655546,22375,0.0771070346236229,0.008537876419723034,0.5268635153770447,-0.11567427963018417,0.07688959687948227,0.0015328895533457398,-112,-72,-996,-115,78,1,462,258,-5,65085.0
08:33:56.085,AUTO,-35.362796,149.1655546,22375,0.0771070346236229,0.008537876419723034,0.5268635153770447,-0.11567427963018417,0.07688959687948227,0.0015328895533457398,-112,-72,-996,-115,78,1,462,258,-5,65085.0
08:33:56.287,AUTO,-35.362796,149.1655546,22375,0.0771070346236229,0.008537876419723034,0.5268635153770447,-0.11567427963018417,0.07688959687948227,0.0015328895533457398,-112,-72,-996,-115,78,1,462,258,-5,65085.0
08:33:56.502,AUTO,-35.362796,149.1655546,22375,0.0771070346236229,0.008537876419723034,0.5268635153770447,-0.11567427963018417,0.07688959687948227,0.0015328895533457398,-112,-72,-996,-115,78,1,462,258,-5,65085.0
08:33:56.833,AUTO,-35.3627587,149.1655804,22401,0.06182536855340004,0.05874291807413101,0.5252740979194641,-0.5910145044326782,0.017545407637953758,0.04438123106956482,-86,-115,-1003,-591,18,44,358,200,2,65085.0
08:33:57.118,AUTO,-35.3627509,149.1655859,22397,0.05124608054757118,0.0570932999253273,0.5246091485023499,-0.7716113328933716,-0.002395919058471918,0.02136892080307007,-73,-79,-996,-771,-1,21,329,186,4,65085.0
08:33:57.334,AUTO,-35.3627438,149.165591,22390,0.04721430316567421,0.056634385138750076,0.5231189727783203,0.04825457185506821,-0.018097909167408943,-0.016797618940472603,-72,-23,-998,49,-16,-16,302,173,3,65085.0
08:33:57.634,AUTO,-35.3627373,149.1655958,22381,0.052651844918727875,0.05676814168691635,0.5230191946029663,0.7113598585128784,0.012417911551892757,-0.013993890956044197,-59,-3,-1008,712,13,-13,277,159,4,65085.0
08:33:57.838,AUTO,-35.3627313,149.1656002,22375,0.04963499680161476,0.05979912355542183,0.5225774645805359,0.38824671506881714,0.004881426692008972,0.010186494328081608,-64,-44,-1006,387,5,10,253,144,2,65085.0
08:33:58.040,AUTO,-35.3627313,149.1656002,22375,0.04963499680161476,0.05979912355542183,0.5225774645805359,0.38824671506881714,0.004881426692008972,0.010186494328081608,-64,-44,-1006,387,5,10,253,144,2,65085.0
08:33:58.244,AUTO,-35.3627313,149.1656002,22375,0.04963499680161476,0.05979912355542183,0.5225774645805359,0.38824671506881714,0.004881426692008972,0.010186494328081608,-64,-44,-1006,387,5,10,253,144,2,65085.0
08:33:58.446,AUTO,-35.3627313,149.1656002,22375,0.04963499680161476,0.05979912355542183,0.5225774645805359,0.38824671506881714,0.004881426692008972,0.010186494328081608,-64,-44,-1006,387,5,10,253,144,2,273281.0
08:33:58.649,AUTO,-35.3627166,149.165611,22370,0.019082579761743546,0.07675886154174805,0.5227511525154114,-0.115434929728508,0.027507515624165535,0.0011852894676849246,-42,-12,-1009,-113,28,1,183,101,0,273281.0
08:33:58.851,AUTO,-35.3627128,149.1656139,22371,0.028833696618676186,0.0827002227306366,0.5222151875495911,0.7325594425201416,0.019570713862776756,-0.007335946895182133,-36,3,-1020,733,20,-7,159,86,0,273281.0
08:33:59.053,AUTO,-35.3627096,149.1656163,22372,0.025488106533885002,0.08693088591098785,0.521705687046051,0.2687664031982422,-0.0015119205927476287,0.009288249537348747,-28,-25,-1018,267,0,9,136,72,0,273281.0
08:33:59.255,AUTO,-35.3627069,149.1656184,22374,0.007980363443493843,0.08057843893766403,0.5213285088539124,-0.5553646087646484,-0.036020807921886444,0.017955156043171883,-24,-58,-994,-556,-34,18,113,57,0,273281.0
08:33:59.457,AUTO,-35.3627046,149.1656201,22373,-0.0034644121769815683,0.07141651958227158,0.5208829641342163,-0.5826582908630371,-0.03411516919732094,0.004461241420358419,-21,-32,-1011,-582,-33,4,94,45,0,273281.0
08:33:59.660,AUTO,-35.3627046,149.1656201,22373,-0.0034644121769815683,0.07141651958227158,0.5208829641342163,-0.5826582908630371,-0.03411516919732094,0.004461241420358419,-21,-32,-1011,-582,-33,4,94,45,0,273281.0
08:33:59.862,AUTO,-35.3627028,149.1656215,22372,0.00010832921543624252,0.06326140463352203,0.5208744406700134,0.15299808979034424,-0.02508600428700447,-0.007754767779260874,-16,9,-996,154,-24,-7,77,35,1,273281.0
08:34:00.064,AUTO,-35.3627028,149.1656215,22372,0.00010832921543624252,0.06326140463352203,0.5208744406700134,0.15299808979034424,-0.02508600428700447,-0.007754767779260874,-16,9,-996,154,-24,-7,77,35,1,273281.0
08:34:00.271,AUTO,-35.3627028,149.1656215,22372,0.00010832921543624252,0.06326140463352203,0.5208744406700134,0.15299808979034424,-0.02508600428700447,-0.007754767779260874,-16,9,-996,154,-24,-7,77,35,1,273281.0
08:34:00.473,AUTO,-35.3626993,149.1656241,22371,-0.0035574384965002537,0.04647323489189148,0.5216344594955444,-0.48000144958496094,-0.01993986964225769,0.0030329262372106314,-7,-39,-994,-481,-18,3,39,8,0,273281.0
08:34:00.675,AUTO,-35.3626993,149.1656241,22371,-0.0035574384965002537,0.04647323489189148,0.5216344594955444,-0.48000144958496094,-0.01993986964225769,0.0030329262372106314,-7,-39,-994,-481,-18,3,39,8,0,273281.0
08:34:00.878,AUTO,-35.3626987,149.1656246,22372,-0.016175013035535812,0.040850766003131866,0.521344780921936,-0.6001057028770447,-0.017248889431357384,0.0017881360836327076,-5,-19,-998,-599,-16,2,29,3,0,273281.0
08:34:01.080,AUTO,-35.3626983,149.1656248,22371,-0.006781773641705513,0.035883828997612,0.521244466304779,0.4036943018436432,-0.029053132981061935,-0.00609365152195096,-4,28,-1000,404,-27,-5,21,-2,0,273281.0
08:34:01.282,AUTO,-35.3626981,149.1656249,22372,0.0009382719290442765,0.029324406757950783,0.5211673378944397,0.47693926095962524,-0.030928192660212517,0.0012016560649499297,-2,10,-991,476,-29,1,14,-7,0,273281.0
08:34:01.484,AUTO,-35.362698,149.1656249,22373,-0.008128891699016094,0.02247549593448639,0.5211822390556335,-0.37317603826522827,-0.02750166319310665,0.0014905836433172226,-2,-29,-996,-374,-26,1,9,-12,0,273281.0
08:34:01.687,AUTO,-35.362698,149.1656249,22373,-0.008128891699016094,0.02247549593448639,0.5211822390556335,-0.37317603826522827,-0.02750166319310665,0.0014905836433172226,-2,-29,-996,-374,-26,1,9,-12,0,273281.0
08:34:01.889,AUTO,-35.3626979,149.1656247,22375,-0.010958760045468807,0.01588086225092411,0.5211562514305115,-0.22906465828418732,-0.023585107177495956,-0.003494582837447524,0,7,-1002,-228,-22,-3,5,-13,0,273281.0
08:34:02.091,AUTO,-35.3626979,149.1656247,22375,-0.010958760045468807,0.01588086225092411,0.5211562514305115,-0.22906465828418732,-0.023585107177495956,-0.003494582837447524,0,7,-1002,-228,-22,-3,5,-13,0,273281.0
08:34:02.293,AUTO,-35.3626979,149.1656247,22375,-0.010958760045468807,0.01588086225092411,0.5211562514305115,-0.22906465828418732,-0.023585107177495956,-0.003494582837447524,0,7,-1002,-228,-22,-3,5,-13,0,273281.0
08:34:02.524,AUTO,-35.362698,149.1656236,22378,0.0017673610709607601,-0.007501842454075813,0.519620954990387,-0.4399924576282501,-0.0333988331258297,0.0015081684105098248,0,-28,-997,-440,-32,1,2,-14,0,273281.0
08:34:02.782,AUTO,-35.3626979,149.1656232,22377,-0.004787262994796038,-0.011380452662706375,0.519673228263855,-0.5996412634849548,0.0038287220522761345,0.0034040831960737705,-1,-8,-995,-599,4,3,3,-11,0,273281.0
08:34:03.128,RTL,-35.3626979,149.1656228,22376,0.0066945371218025684,-0.009217844344675541,0.5194562077522278,0.20055702328681946,-0.0039025258738547564,-0.0055888923816382885,-1,26,-1006,201,-2,-5,4,-8,0,273281.0
08:34:03.456,RTL,-35.3626977,149.1656223,22374,0.018239429220557213,-0.002427174709737301,0.5189461708068848,0.06021226570010185,0.011543761938810349,0.0013537171762436628,-1,-11,-1006,59,12,1,5,-3,-1,273281.0
08:34:03.659,RTL,-35.3626977,149.1656223,22374,0.018239429220557213,-0.002427174709737301,0.5189461708068848,0.06021226570010185,0.011543761938810349,0.0013537171762436628,-1,-11,-1006,59,12,1,5,-3,-1,273281.0
08:34:03.862,RTL,-35.3626976,149.1656221,22381,0.006918155122548342,-0.00035706927883438766,0.5188327431678772,-0.5851924419403076,0.009795906022191048,0.000689482141751796,-1,-22,-1018,-585,10,1,4,-1,-4,273281.0
08:34:04.065,RTL,-35.3626976,149.1656221,22381,0.006918155122548342,-0.00035706927883438766,0.5188327431678772,-0.5851924419403076,0.009795906022191048,0.000689482141751796,-1,-22,-1018,-585,10,1,4,-1,-4,273281.0
08:34:04.271,RTL,-35.3626976,149.1656221,22381,0.006918155122548342,-0.00035706927883438766,0.5188327431678772,-0.5851924419403076,0.009795906022191048,0.000689482141751796,-1,-22,-1018,-585,10,1,4,-1,-4,273281.0
08:34:04.478,RTL,-35.3626974,149.1656217,22481,0.01359357126057148,0.0015399414114654064,0.5176092982292175,-0.025115223601460457,0.00046275340719148517,0.002660762518644333,0,-10,-1040,-25,1,3,2,1,-25,10555.0
08:34:04.680,RTL,-35.3626974,149.1656217,22481,0.01359357126057148,0.0015399414114654064,0.5176092982292175,-0.025115223601460457,0.00046275340719148517,0.002660762518644333,0,-10,-1040,-25,1,3,2,1,-25,10555.0
08:34:04.882,RTL,-35.3626973,149.1656216,22559,0.00534155173227191,0.0017028276342898607,0.517501711845398,-0.37891337275505066,-0.0010135172633454204,0.003941769246011972,-1,-15,-1048,-378,0,4,1,2,-36,10555.0
08:34:05.084,RTL,-35.3626972,149.1656214,22666,0.012355530634522438,0.0016437756130471826,0.5171745419502258,0.16945037245750427,-0.0011882001999765635,0.00488272774964571,-1,16,-1053,170,0,5,0,4,-48,10555.0
08:34:05.286,RTL,-35.3626971,149.1656212,22803,0.013636806048452854,0.0021697869524359703,0.5173966288566589,0.09541008621454239,0.001669443678110838,0.004855263978242874,0,0,-1047,95,2,5,0,4,-60,10555.0
08:34:05.488,RTL,-35.3626971,149.1656212,22971,0.009805393405258656,0.0022338528651744127,0.5173665881156921,-0.1330619603395462,4.547752905637026e-05,0.004968010820448399,-1,-5,-1046,-133,1,5,-1,5,-72,10555.0
08:34:05.690,RTL,-35.3626971,149.1656212,22971,0.009805393405258656,0.0022338528651744127,0.5173665881156921,-0.1330619603395462,4.547752905637026e-05,0.004968010820448399,-1,-5,-1046,-133,1,5,-1,5,-72,10555.0
08:34:05.892,RTL,-35.3626971,149.1656212,23168,0.011370128020644188,0.0022750310599803925,0.5173121690750122,0.04485534876585007,0.00024998775916174054,0.002579900436103344,0,3,-1045,45,1,3,-1,6,-83,10555.0
08:34:06.094,RTL,-35.3626971,149.1656212,23168,0.011370128020644188,0.0022750310599803925,0.5173121690750122,0.04485534876585007,0.00024998775916174054,0.002579900436103344,0,3,-1045,45,1,3,-1,6,-83,10555.0
08:34:06.296,RTL,-35.3626971,149.1656212,23168,0.011370128020644188,0.0022750310599803925,0.5173121690750122,0.04485534876585007,0.00024998775916174054,0.002579900436103344,0,3,-1045,45,1,3,-1,6,-83,10555.0
08:34:06.498,RTL,-35.362697,149.165621,23928,0.009310298599302769,0.0024893940426409245,0.5171428322792053,0.0038349321112036705,-0.0005534720839932561,0.002367759821936488,0,0,-1044,4,0,2,-2,7,-116,10555.0
08:34:06.701,RTL,-35.362697,149.1656211,24238,0.008292417973279953,0.002513602375984192,0.5170270204544067,-0.003948970697820187,0.0007067674305289984,0.0016417785082012415,0,0,-1044,-3,1,2,-2,7,-127,10555.0
08:34:06.903,RTL,-35.362697,149.1656211,24238,0.008292417973279953,0.002513602375984192,0.5170270204544067,-0.003948970697820187,0.0007067674305289984,0.0016417785082012415,0,0,-1044,-3,1,2,-2,7,-127,10555.0
08:34:07.105,RTL,-35.362697,149.1656211,24578,0.007660473231226206,0.0028417720459401608,0.5167467594146729,0.0015802208799868822,0.0016714893281459808,-0.0013242585118860006,0,0,-1042,1,2,0,-2,7,-137,10555.0
08:34:07.307,RTL,-35.362697,149.1656211,24940,0.01613866724073887,0.002220190828666091,0.5162025690078735,0.04665311798453331,-0.0057686129584908485,0.0006898832507431507,0,0,-1021,46,-4,1,-3,8,-145,10555.0
08:34:07.509,RTL,-35.3626971,149.1656212,25315,0.02756887674331665,0.0005798793281428516,0.5160036087036133,0.04659859463572502,-0.007099018432199955,0.0016094159800559282,0,-1,-1008,46,-6,2,-4,11,-148,10555.0
