time_stamp,roll,pitch,yaw,rollspeed,pitchspeed,yawspeed,lat,lon,relative_alt,vx,vy,vz,xacc,yacc,zacc,xgyro,ygyro,zgyro,RTL_ALT,MODE
00:44:03,-0.0010538356727920473,0.0010209697065874934,0.022900154814124107,0.00033136410638689995,0.00030569126829504967,0.0015820146654732525,-35.36326215,149.1652375,1.5,-0.5,0.5,0.5,0.0,2.0,-1000.0,0.0,0.5,0.0,82929.0,AUTO
00:44:05,-0.0005016423383494839,0.0015008417540229857,0.022350099869072437,0.00033162892214022577,0.0003021368756890297,0.0015161422779783607,-35.3632621,149.16523745,15.5,0.0,0.0,-1.0,0.0,1.0,-1000.0,0.5,0.5,0.0,92560.5,AUTO
00:44:07,0.0113598951138556,0.00017242049216292799,0.021901920437812805,0.023147719213739038,-0.0019003802444785833,0.002422168734483421,-35.3632621,149.1652375,893.5,0.0,2.0,-122.0,0.0,0.0,-1065.0,24.0,-1.5,1.5,102192.0,AUTO
00:44:09,0.007782944478094578,0.014540439937263727,-0.05132232699543238,-0.07834891602396965,0.0458173849619925,-0.07762635126709938,-35.3632612,149.1652427,3860.0,4.5,46.5,-147.5,4.0,-10.5,-997.5,-77.5,46.5,-77.5,102192.0,AUTO
00:44:10,-0.06451211404055357,-0.001478187186876312,-0.08345490507781506,-0.02962641161866486,-0.02723932368098758,-0.0061202304204925895,-35.363261050000006,149.165246025,5386.75,-3.0,3.0,-148.5,2.25,-2.0,-1001.75,-28.75,-26.25,-6.5,220664.0,AUTO
00:44:11,-0.036109240259975195,-0.00764524401165545,-0.08662424236536026,0.0604910533875227,0.007553022645879537,-0.0001563831465318799,-35.3632612,149.1652429,6922.5,-0.5,-49.5,-149.5,-5.5,8.5,-1002.0,60.5,8.0,-1.0,220664.0,AUTO
00:44:13,0.04674709029495716,0.00564147811383009,-0.08228299766778946,-0.01881280355155468,-0.008712276932783425,0.003944076248444617,-35.36326195,149.1652343,10031.5,-7.0,4.0,-150.5,1.0,2.0,-999.5,-18.0,-8.0,3.0,220664.0,AUTO
00:44:15,-0.012888183817267418,-0.0027037606050726026,-0.11628126353025436,0.014293392188847065,0.006039122119545937,-0.02484183292835951,-35.36326235,149.16523675000002,13117.5,3.0,0.0,-151.5,-0.5,-0.5,-1000.5,14.5,6.0,-25.5,138314.5,AUTO
00:44:17,0.00928919157013297,0.006404374493286014,-0.15633930265903473,-0.0004455071175470948,0.0009364041616208851,-0.013380703516304493,-35.36326165,149.16523555,16234.5,0.0,-0.5,-152.0,-0.5,0.0,-999.5,0.0,1.5,-13.5,55965.0,AUTO
00:44:19,0.003040623152628541,0.0037937804590910673,-0.18485195189714432,-0.0015188228571787477,-0.0006097124132793397,-0.0171064967289567,-35.36326165,149.16523585,19350.0,-3.0,5.5,-152.0,0.0,0.0,-999.5,-1.0,0.0,-17.0,55965.0,AUTO
00:44:20,0.0016677585954312235,0.003477211808785796,-0.20395702496170998,0.000900830200407654,8.489223546348512e-05,-0.020871890243142843,-35.3632617,149.16523617500002,20903.75,-2.5,4.5,-152.0,0.0,0.0,-1000.0,1.0,0.25,-20.75,43373.0,AUTO
00:44:21,0.001528829277958721,0.0029140483820810914,-0.2237219288945198,-0.0011863707768497989,7.72958155721426e-05,-0.020338572561740875,-35.36326175,149.1652364,22464.5,-2.0,3.5,-152.0,0.0,0.0,-1000.0,-0.5,1.0,-20.0,43373.0,AUTO
00:44:23,0.0018414273945381865,0.0034409750951454043,-0.25419551134109497,-0.01477852277457714,-0.00018705474212765694,0.0016652951017022133,-35.363261949999995,149.16523660000001,25583.5,-3.5,0.0,-152.5,0.0,-0.5,-994.0,-14.0,0.5,1.0,43373.0,AUTO
00:44:25,0.006064965855330229,0.0014725454966537654,-0.21355073899030685,-0.008170227985829115,0.0006884509057272226,0.023070860654115677,-35.3632624,149.16523684999999,28687.5,-1.0,8.0,-152.0,0.5,-0.5,-999.5,-7.0,1.0,22.5,126711.5,AUTO
00:44:27,-0.0008935062505770475,0.00133890425786376,-0.17582155764102936,0.00025786872720345855,-0.0008761177305132151,0.01716235652565956,-35.36326235,149.1652379,31790.5,0.0,3.5,-152.0,0.0,0.0,-1000.0,1.0,0.0,16.0,210050.0,AUTO
00:44:29,0.0009635229944251478,0.0012507196515798569,-0.1472988948225975,-0.0006039370782673359,0.0005700521869584918,0.01327879773452878,-35.363262250000005,149.16523795,34905.5,0.0,0.0,-152.0,0.0,0.0,-999.5,0.5,1.0,12.5,210050.0,AUTO
00:44:30,0.0009125522919930518,0.002212958817835897,-0.13417405821383,-0.01204380122362636,0.01469222380546853,0.0399681581184268,-35.3632622,149.16523775000002,36458.0,0.0,0.0,-151.5,-0.25,0.0,-993.75,-11.0,15.5,39.0,19635.0,AUTO
00:44:31,-0.026663954369723797,0.01862552994862199,0.07927712425589561,-0.007231343537569046,-0.033064428716897964,0.2443809062242508,-35.3632628,149.1652367,37904.5,-18.0,-19.5,-125.5,1.5,4.0,-959.0,-6.5,-32.0,244.0,19635.0,AUTO
00:44:33,0.034815387800335884,-0.02501729689538479,0.20399607717990875,0.09778493456542492,0.038520572707057,-0.027168099768459797,-35.3632643,149.16523325,39636.5,14.5,16.0,-51.5,-2.0,-1.5,-976.5,98.0,39.0,-26.5,19635.0,AUTO
00:44:35,-0.024249101290479302,0.02991110272705555,0.1601056307554245,0.30076332576572895,-0.0039593137335032225,-0.015060874167829752,-35.3632612,149.16523815,40171.0,5.5,15.0,2.0,-0.5,29.5,-983.5,302.5,-3.0,-14.0,19635.0,AUTO
00:44:36,-0.02083080750890076,0.02458495832979679,0.14655571430921555,0.6305893734097481,-0.025110867340117693,-0.008837274741381407,-35.36326145,149.165238325,40073.75,-16.0,-14.75,9.0,1.25,30.75,-1028.25,631.0,-23.5,-8.25,38507.0,AUTO
00:44:37,-0.032493327744305134,0.024321673437952995,0.1320052705705166,-0.12470460683107376,0.010860125068575144,-0.062190388329327106,-35.363263700000005,149.16523505,40031.5,-31.5,-36.0,-3.0,3.0,7.0,-1014.5,-123.5,11.5,-61.5,38507.0,AUTO
00:44:39,-0.10882842913269997,-0.07639856822788715,-1.0650972425937653,-0.28906437009572983,-0.029945536982268095,-0.7340954840183258,-35.363276,149.16521845,40196.0,-111.0,-133.0,-14.5,-33.5,17.0,-1004.5,-287.0,-28.5,-733.5,38507.0,AUTO
00:44:41,0.045624230057001114,-0.16061311960220337,-2.195484757423401,-0.08162485808134079,0.108212033752352,-0.1391548365354538,-35.36330845,149.16517175,40688.5,-239.5,-301.5,-37.0,-76.5,-40.0,-1020.0,-80.0,109.5,-138.5,26041.0,AUTO
00:44:43,0.04943983629345894,0.007114459527656436,-2.174601674079895,0.19550009071826935,0.00881439889781177,-0.008870904333889484,-35.363351249999994,149.1651052,41612.0,-198.0,-258.5,-33.0,-65.5,-28.5,-973.0,196.0,9.5,-8.5,13575.0,AUTO
00:44:45,0.027378411032259464,0.05372634157538414,-2.1856415271759033,0.46570275723934174,0.03238482866436243,-0.015703793615102768,-35.3633791,149.16506055000002,42056.0,-104.0,-137.0,-12.5,-36.5,5.5,-989.0,466.5,32.5,-15.0,13575.0,AUTO
00:44:46,0.023150766734033823,0.07917220331728458,-2.187739312648773,-0.26658520102500916,-0.011103426106274128,-0.011882621853146702,-35.36338635,149.165049225,42146.5,-48.25,-63.5,-4.25,-17.5,-29.75,-1002.75,-266.0,-10.25,-11.75,60654.0,AUTO
00:44:47,0.011168443597853184,-0.06521956715732813,-2.19311785697937,0.017876874655485153,-0.2335275486111641,-0.01835873629897833,-35.3633897,149.16504500000002,42161.5,-29.0,-44.0,-1.0,-11.5,0.5,-995.0,19.0,-232.0,-18.5,60654.0,AUTO
00:44:49,0.03600899875164032,-0.13677824288606644,-2.206525206565857,-0.026854515075683594,0.019469684921205044,0.00541627366328612,-35.3634099,149.16501655000002,42372.5,-181.5,-223.5,-25.0,-55.5,-35.5,-1018.0,-25.5,20.5,5.5,60654.0,AUTO
00:44:51,0.05134030990302563,0.039116254076361656,-2.210461378097534,-0.27210792899131775,0.21829074621200562,-0.0025618377258069813,-35.363449200000005,149.1649574,43121.0,-216.0,-265.5,-47.5,-68.5,-61.5,-1000.0,-271.0,219.0,-2.0,33341.5,AUTO
00:44:53,0.007950299885123968,0.056822119280695915,-2.215437173843384,-0.0730019211769104,-0.0034923404455184937,0.0027199042961001396,-35.3634725,149.16491904999998,43617.0,-64.0,-84.0,-5.0,-19.5,-20.5,-996.0,-72.5,-2.0,3.0,6029.0,AUTO
00:44:55,-0.005678815301507711,-0.15522447600960732,-2.2196309566497803,-0.07017850875854492,-0.10510371532291174,0.001851087436079979,-35.3634794,149.16490675,43656.0,-77.0,-69.5,-2.5,-22.0,-14.5,-1014.0,-69.0,-103.5,2.5,6029.0,AUTO
00:44:56,0.031152663752436638,-0.1411487814038992,-2.2254618406295776,0.04775930754840374,0.09613055875524879,-0.006964326064917259,-35.363489675,149.164894075,43736.0,-160.0,-168.25,-16.75,-50.0,-25.0,-1022.5,48.25,96.5,-6.0,230269.0,AUTO
00:44:57,0.05105608515441418,-0.0942540243268013,-2.2285308837890625,0.17546003125607967,0.1009140582755208,-0.0005608783103525639,-35.3635059,149.16487265,43979.5,-187.5,-219.0,-28.5,-61.0,-20.0,-1012.5,176.5,101.5,0.0,230269.0,AUTO
00:44:59,0.04856359027326107,0.09881807863712311,-2.2251604795455933,0.3058277517557144,-0.004908382892608643,0.0007817819714546204,-35.363534400000006,149.1648316,44584.0,-70.0,-116.0,-14.5,-28.0,-13.0,-990.0,307.0,-3.5,1.5,230269.0,AUTO
00:45:01,0.010797137394547462,0.008844423107802868,-2.229088306427002,-0.35581696033477783,-0.17184841632843018,-0.03525625541806221,-35.3635407,149.1648207,44673.0,-3.0,-36.0,1.0,-5.0,-11.0,-1031.0,-353.0,-170.0,-34.0,197514.5,AUTO
00:45:03,0.020660223439335823,-0.06088922172784805,-2.236269235610962,-0.042872097343206406,0.05727631226181984,-0.0013097338378429413,-35.3635518,149.1648016,44800.0,-113.0,-140.0,-15.0,-36.0,-36.0,-1007.0,-42.0,58.0,0.0,164760.0,AUTO
00:45:05,0.007573695154860616,0.08957026898860931,-2.2364548444747925,-0.6880786418914795,0.025711573660373688,0.004957584198564291,-35.36356925,149.1647739,45141.0,-72.0,-76.0,-11.5,-22.5,-38.5,-991.5,-686.0,26.5,5.0,164760.0,AUTO
00:45:06,0.013914628187194467,-0.006885661277920008,-2.2372074127197266,0.538817023858428,-0.10721944272518158,0.005881115386728197,-35.363573099999996,149.16476792499998,45219.75,-20.25,-18.0,-2.0,-5.75,10.5,-998.75,539.0,-105.5,6.25,27865.0,AUTO
00:45:07,0.003108210861682892,-0.0668550617992878,-2.237837791442871,-0.5334171950817108,-0.02941828314214945,0.00029637140687555075,-35.36357485,149.16476595,45234.0,-36.5,-35.0,-3.5,-11.5,-32.0,-1000.5,-532.0,-28.0,1.0,27865.0,AUTO
00:45:09,0.03923536092042923,0.02767099067568779,-2.2415518760681152,0.625447154045105,0.025829486548900604,0.00020486023277044296,-35.363586,149.1647529,45369.0,-34.0,-55.0,-6.0,-13.0,8.0,-1010.0,626.0,26.0,0.0,27865.0,AUTO
00:45:11,0.009434128180146217,0.02801654953509569,-2.242137908935547,0.2617196962237358,-0.03419367130845785,0.006739346077665687,-35.363588449999995,149.1647474,45430.0,11.0,-1.5,0.0,1.0,-0.5,-1002.0,262.5,-32.5,7.0,27865.0,AUTO
00:45:12,-0.003499770231428556,-0.012786331819370389,-2.2436882853507996,-0.46999753825366497,-0.0037747970200143754,0.0023527068842668086,-35.363587925,149.16474812500002,45421.0,8.25,1.0,0.0,1.0,-12.25,-999.0,-467.75,-2.0,2.75,13423.0,RTL
00:45:13,0.01983916014432907,-0.0019888328097295016,-2.2446889877319336,0.7447476983070374,0.014985404908657074,0.002792962361127138,-35.363588,149.1647484,45420.0,2.0,-4.0,-0.5,-1.0,29.0,-1003.0,746.0,16.0,3.0,13423.0,RTL
00:45:15,0.010822243057191372,0.0013389831292442977,-2.246023178100586,-0.1330917989835143,0.0006710508023388684,0.002676403266377747,-35.3635884,149.1647486,46082.0,7.5,-5.0,-68.0,0.0,-2.5,-1024.5,-131.0,1.5,3.0,13423.0,RTL
00:45:17,0.007166474824771285,0.0020780026679858565,-2.247085213661194,0.13366369251161814,0.0011296688462607563,0.0019713418441824615,-35.36358815,149.1647485,47692.0,9.0,-4.5,-75.0,0.0,2.5,-985.0,135.5,2.0,2.5,101208.0,RTL
00:45:19,0.009817361831665039,0.0020490100141614676,-2.2476390600204468,0.26046391762793064,-0.0008616658742539585,0.001084392162738368,-35.3635877,149.16474814999998,48800.0,5.0,-0.5,-24.5,0.0,0.0,-969.0,262.0,0.5,1.5,188993.0,RTL
00:45:21,0.005882175639271736,0.0016203528502956033,-2.248919129371643,-0.0439289640635252,0.0012829542392864823,0.002392121939919889,-35.3635874,149.16474785,48883.0,0.5,2.5,5.5,0.0,-22.0,-996.0,-42.0,2.0,3.0,188993.0,RTL
00:45:22,-0.00016687129391357303,0.0023199035204015672,-2.2496007084846497,-0.08037900179624557,0.0009795820224098861,0.0039043196593411267,-35.3635874,149.164747875,48969.75,2.0,0.5,-24.75,1.25,-3.25,-1040.0,-77.75,2.25,4.5,34462.0,RTL
00:45:23,-0.006917936378158629,0.003746229223906994,-2.2498615980148315,-0.13371635228395462,-0.0011931653716601431,0.0007480090716853738,-35.363587100000004,149.1647476,49257.5,0.5,2.0,-48.5,0.5,-11.5,-1013.5,-132.0,0.5,1.5,34462.0,RTL
00:45:25,-0.0023710004752501845,0.0005720196786569431,-2.250450611114502,0.5345868170261383,-0.002722156117670238,0.0017637643031775951,-35.3635863,149.16474695,49958.5,-6.5,8.5,-2.0,-0.5,27.0,-992.0,536.5,-1.0,2.5,34462.0,RTL
00:45:27,0.010600326582789421,-0.0025059477193281054,-2.2505860328674316,0.2653433345258236,0.0020772290881723166,0.0013723117299377918,-35.363586850000004,149.1647479,49955.5,-6.0,6.0,-14.5,-1.5,0.5,-1045.0,266.5,3.0,2.5,26967.5,RTL
00:45:29,0.02716127783060074,-0.0008577163680456579,-2.2516180276870728,0.4110303819179535,0.003418005653657019,8.811321458779275e-05,-35.36358835,149.16474925,50814.5,6.0,-4.5,-41.5,-1.5,19.0,-975.5,412.5,4.5,0.5,19473.0,RTL
00:45:31,0.014917011372745037,0.0010204361169598997,-2.251913547515869,-0.2920755511149764,-0.001817721058614552,0.001103598508052528,-35.3635889,149.1647496,51042.0,14.0,-10.5,5.0,0.0,-27.5,-993.0,-290.5,0.0,2.0,19473.0,RTL
00:45:32,0.012844108510762453,0.00024806280816846993,-2.2520307898521423,-0.2740500010550022,0.0013509454438462853,0.0007840585603844374,-35.363588875000005,149.16474962499998,51125.5,16.0,-11.75,-25.0,-0.25,-5.0,-1042.5,-271.0,2.25,1.75,248085.0,RTL
00:45:33,0.01924856472760439,0.000356709846528247,-2.2519322633743286,0.04908841848373413,0.0006033120444044471,-0.001800792699214071,-35.36358885,149.1647496,51412.0,15.5,-11.5,-49.5,-0.5,-5.0,-1019.0,51.0,2.0,-0.5,248085.0,RTL
00:45:35,0.024726366624236107,0.0011164569878019392,-2.2530590295791626,-0.035083964467048645,0.0008375580073334277,-3.8636673707515e-05,-35.363589149999996,149.16474985000002,52181.5,19.0,-14.0,-4.0,0.5,-14.5,-971.0,-33.0,2.0,1.5,248085.0,RTL
00:45:37,0.01948647666722536,0.0002866723298211582,-2.2525479793548584,0.4997178316116333,0.003790449700318277,0.00017140142153948545,-35.3635888,149.1647496,52178.0,18.5,-13.0,-15.5,-0.5,28.5,-1051.5,503.5,5.0,1.0,196829.5,RTL
00:45:39,0.025282171554863453,-0.00012926317322126124,-2.253653883934021,-0.07117737829685211,-0.0006228587008081377,0.0003132875426672399,-35.363589250000004,149.16474995,53079.0,19.5,-13.5,-48.0,-1.0,6.0,-969.5,-67.0,0.5,1.0,145574.0,RTL
00:45:41,0.024603812023997307,0.0018574591958895326,-2.253732681274414,-0.08886735141277313,0.0003414127277210355,0.0003891341621056199,-35.36358955,149.16475014999997,53376.0,23.5,-16.5,2.5,0.0,-22.0,-1008.5,-85.5,1.5,2.0,145574.0,RTL
00:45:42,0.0032500687811989337,0.004446900449693203,-2.254133641719818,-0.281158022582531,0.0008609776268713176,0.0028949678817298263,-35.36358885,149.16474935,53416.0,21.0,-15.0,-21.75,2.0,-9.25,-1040.25,-276.0,2.25,3.5,24061.0,RTL
00:45:43,0.0032345528597943485,0.0034807927440851927,-2.2534120082855225,-0.0709296241402626,-0.003690648591145873,-0.0012632522848434746,-35.36358825000001,149.16474875,53667.5,16.0,-9.0,-50.0,1.0,-11.5,-1031.5,-66.0,-1.5,0.0,24061.0,RTL
00:45:45,0.014479939360171556,-0.0016907554236240685,-2.2541338205337524,-0.2333177551627159,-0.003055865061469376,0.002058774291072041,-35.3635881,149.1647489,54657.5,9.5,-5.0,-22.0,0.5,-19.5,-952.0,-229.0,-0.5,3.0,24061.0,RTL
00:45:47,0.0062901966739445925,0.0013032400165684521,-2.253482222557068,-0.613540530204773,-0.0006518010050058365,0.00023343495558947325,-35.3635881,149.164749,54692.5,8.5,-7.0,-3.0,0.0,-26.5,-1031.0,-608.0,1.5,1.5,112205.0,RTL
00:45:49,-0.00495348364347592,0.002671953639946878,-2.254517674446106,-0.15289662405848503,0.0018585838843137026,0.0008842844399623573,-35.3635874,149.1647481,55440.5,4.5,-2.5,-56.5,1.5,-15.0,-989.5,-147.5,3.5,2.0,200349.0,RTL
00:45:51,-0.007531856652349234,0.0008719485194887966,-2.2538191080093384,0.7980518937110901,-0.00030267779948189855,0.0021548800286836922,-35.363586,149.1647468,55988.5,-9.0,8.5,3.0,1.0,26.0,-987.5,803.0,1.5,3.0,200349.0,RTL
00:45:52,-0.016546695842407644,0.0009258438949473202,-2.2541436553001404,-0.3031521886587143,-0.000747514859540388,0.0005244374042376876,-35.363585575,149.16474645,55967.25,-13.5,12.25,-5.5,0.25,-18.25,-1023.5,-298.5,1.0,2.0,100258.0,RTL
00:45:53,-0.009605806786566973,0.0005007370127714239,-2.2539294958114624,0.3584829717874527,-0.0001458795741200447,0.00043168518459424376,-35.3635855,149.16474635,56097.5,-15.5,14.0,-32.0,-0.5,13.0,-1037.5,362.5,1.5,2.0,100258.0,RTL
00:45:55,0.005009050248190761,7.108218142093392e-05,-2.2538470029830933,0.40720613300800323,0.0032126015285030007,0.0007800206076353788,-35.363586049999995,149.1647469,57023.0,-13.0,12.0,-20.0,-1.0,13.5,-960.5,411.0,4.5,2.0,100258.0,RTL
00:45:57,0.0014904295385349542,-0.00042634802957763895,-2.2550153732299805,0.2659414950758219,0.003998602740466595,0.0009807574679143727,-35.363586749999996,149.1647475,57058.0,-6.5,7.5,-3.0,-1.0,32.0,-1043.0,270.5,5.5,2.5,68118.5,RTL
00:45:59,0.0040710108587518334,0.00020615075845853426,-2.2544718980789185,-0.27392446994781494,3.854045644402504e-06,-0.0011762614594772458,-35.36358745,149.16474814999998,57780.5,-0.5,2.5,-54.5,-0.5,-9.5,-990.5,-269.0,2.0,1.0,35979.0,RTL
00:46:01,0.0178905944339931,0.0004377266304800287,-2.2548190355300903,0.5733491033315659,0.005048537626862526,0.003089964564424008,-35.3635878,149.1647485,58259.0,3.0,-1.0,1.5,0.5,17.0,-1001.0,577.0,6.5,4.5,35979.0,RTL
00:46:02,-0.0003958365705329925,0.0012006947117697564,-2.254396140575409,-0.059943415224552155,-0.0012233996822033077,0.0014474434137810022,-35.363587525,149.1647482,58264.0,3.75,-0.5,-11.75,-0.25,0.5,-1032.25,-55.5,0.75,2.75,85587.0,RTL
00:46:03,0.004933005082421005,-0.0013830054958816618,-2.2540165185928345,-0.1805645003914833,-0.005507045891135931,-0.0005572428926825523,-35.363587550000005,149.16474829999999,58443.5,2.0,0.0,-38.0,-1.5,-11.0,-1035.0,-176.0,-2.5,1.0,85587.0,RTL
00:46:05,0.02227647230029106,-0.0023459814256057143,-2.2546374797821045,-0.5365670919418335,0.003434122772887349,-0.00038567057345062494,-35.363589149999996,149.1647501,59366.0,14.0,-11.0,-19.0,-1.5,-20.0,-958.0,-531.0,5.0,1.0,85587.0,RTL
00:46:07,0.0005967514298390597,0.004240022972226143,-2.2544877529144287,-0.6993678510189056,-0.0007382103940472007,-0.0007783876499161124,-35.363588750000005,149.16474929999998,59397.0,17.5,-13.5,0.0,1.0,-28.5,-1038.5,-694.0,1.5,1.0,85587.0,RTL
00:46:08,0.011030783178284764,0.0018308688304387033,-2.2542402148246765,0.05786242336034775,-0.0006206582474987954,-0.0009758814121596515,-35.3635884,149.164748925,59683.0,12.75,-6.75,-42.0,0.0,2.25,-1026.0,63.0,1.25,1.0,12244.0,RTL
00:46:09,0.016307945363223553,0.0008090104965958744,-2.254992127418518,0.27738646417856216,0.0003887573257088661,0.0015567878726869822,-35.3635884,149.164749,60062.5,12.0,-6.0,-52.0,0.0,9.0,-991.0,282.0,2.0,3.0,12244.0,RTL
00:46:11,-0.0034885540371760726,0.0025947130052372813,-2.254896402359009,-0.5039090067148209,0.000653017545118928,0.0019629679154604673,-35.3635879,149.16474855,60546.0,9.0,-5.0,3.0,1.5,-16.0,-992.5,-497.5,2.5,3.5,12244.0,RTL
00:46:13,-0.013348258566111326,0.0026779643958434463,-2.254284143447876,5.723536014556885e-05,-0.001838242169469595,0.003291637171059847,-35.3635867,149.16474735,60654.0,-0.5,2.5,-31.0,2.0,8.0,-1032.0,6.0,0.5,5.0,83963.0,RTL
00:46:15,-0.025138013996183872,0.0019825072959065437,-2.2543528079986572,-0.37020061910152435,-0.0022949952399358153,0.002362571540288627,-35.36358545,149.16474625,61560.5,-12.5,12.0,-25.0,0.5,-11.5,-956.0,-364.5,0.0,4.0,155682.0,RTL
00:46:17,-0.008677929930854589,-0.0009226708498317748,-2.2545759677886963,0.39153101295232773,0.00036741275107488036,-4.232057835906744e-05,-35.363585349999994,149.16474614999998,61628.0,-18.5,18.0,1.0,-1.5,28.0,-1013.5,396.5,2.0,1.5,155682.0,RTL
00:46:18,0.0036584020708687603,-0.002947128057712689,-2.254064381122589,0.08183278515934944,-0.0021705975523218513,-0.001706038834527135,-35.363586275,149.16474725,61868.25,-13.5,13.25,-40.25,-3.0,12.25,-1032.0,86.0,0.5,0.0,25924.0,RTL
00:46:19,0.01179948402568698,-0.0040336232632398605,-2.2544881105422974,-0.27299586683511734,0.0036121748853474855,-0.00012582464842125773,-35.36358715,149.16474815,62243.5,-8.0,7.5,-56.0,-2.5,-6.0,-1002.0,-268.0,5.5,1.5,25924.0,RTL
00:46:21,0.015376560389995575,0.000969001033809036,-2.2550514936447144,0.19963482022285461,0.004151108907535672,0.0014189647044986486,-35.3635881,149.16474895,62886.5,6.0,-5.0,0.0,-0.5,-6.5,-992.0,203.5,6.0,3.0,25924.0,RTL
00:46:23,0.0039580131124239415,0.0007170902244979516,-2.2544925212860107,-0.3212062418460846,-0.0032894343603402376,0.0012747945729643106,-35.36358785,149.16474864999998,62934.5,5.5,-3.0,-23.0,0.5,-24.5,-1039.5,-316.5,-1.0,3.0,25924.0,RTL
00:46:24,-0.0012462767190299928,0.0006480593056039652,-2.2546961307525635,0.04010710120201111,0.0004122518585063517,-3.643715172074735e-05,-35.3635874,149.164748275,63470.25,2.75,-1.5,-48.25,0.25,1.25,-991.5,44.5,2.5,2.0,120989.0,RTL
00:46:25,0.0034378173295408487,0.0002874016499845311,-2.25413179397583,-0.029914766550064087,-0.0010243536089546978,0.0009594204602763057,-35.3635873,149.1647482,63803.5,0.0,0.0,-29.5,0.0,-10.0,-961.0,-26.0,1.0,2.5,120989.0,RTL
00:46:27,-0.001103299728129059,-0.0003409925047890283,-2.2546383142471313,-0.2562869470566511,0.001265849219635129,7.129576988518238e-05,-35.3635873,149.1647482,63906.0,0.5,0.0,2.0,0.0,7.0,-1006.0,-251.0,3.0,2.0,120989.0,RTL
00:46:29,0.00887563033029437,6.250028673093766e-05,-2.2551058530807495,0.101200170814991,-0.00038255611434578896,0.00018227717373520136,-35.3635875,149.1647483,64450.5,1.5,0.0,-54.0,0.0,0.0,-1006.0,105.5,1.5,2.0,70024.5,RTL
00:46:31,0.004491673258598894,0.0016707892646081746,-2.2544572353363037,0.6273207366466522,0.0008294162107631564,-0.0004953650059178472,-35.3635873,149.164748,65117.0,1.5,0.0,0.0,0.0,30.5,-989.5,632.0,2.5,1.5,19060.0,RTL
00:46:33,0.018003374338150024,-0.0017663101898506284,-2.253423810005188,0.4971291869878769,-0.003295710892416537,-0.0019763055024668574,-35.3635874,149.16474820000002,65136.0,0.5,1.5,-18.0,0.0,15.0,-1059.5,501.0,-1.0,0.5,19060.0,RTL
00:46:34,0.012464066734537482,-0.00062780707037291,-2.254695773124695,-0.01917368918657303,0.002225803444162011,-6.631997530348599e-05,-35.363587875,149.16474875,65668.0,4.25,-2.0,-53.5,0.0,0.25,-1003.5,-14.25,4.25,2.0,222573.0,RTL
00:46:35,0.00301508535631001,0.0018576468573883176,-2.2546939849853516,-0.16664107888936996,0.002939459984190762,0.0034120241180062294,-35.3635879,149.16474864999998,66067.0,5.5,-4.0,-42.5,0.5,-0.5,-962.5,-161.5,5.0,5.5,222573.0,RTL
00:46:37,-0.0016866519872564822,0.002904140972532332,-2.254600763320923,0.4656851515173912,-0.0005184578476473689,0.0016986525151878595,-35.363586749999996,149.16474735,66297.5,-1.0,3.0,4.0,1.0,6.5,-996.0,470.0,1.5,3.5,222573.0,RTL
00:46:39,-0.004936497425660491,-0.0008809182036202401,-2.2542539834976196,0.025372378528118134,-0.0013918164186179638,-0.0009417668916285038,-35.3635864,149.16474725,66622.0,-7.0,8.0,-47.5,-0.5,13.0,-1025.5,30.5,1.0,1.0,222573.0,RTL
00:46:40,0.003347262798342854,-0.0009824536537053064,-2.2543748021125793,0.07607108727097511,0.0017273726407438517,0.0009177388856187463,-35.3635867,149.16474765,67255.25,-5.25,5.75,-37.25,0.0,1.75,-963.75,80.5,4.0,2.75,92807.0,RTL
00:46:41,-0.005010564811527729,-0.0003427539941185387,-2.2544490098953247,-0.33326801541261375,0.00012047449126839638,-0.0015041489386931062,-35.363586850000004,149.1647478,67457.0,-3.5,3.5,-8.5,0.0,-0.5,-961.5,-328.0,2.5,0.5,92807.0,RTL
00:46:43,0.018187199719250202,-0.0015641228528693318,-2.2546130418777466,0.3151161256246269,0.0003854301758110523,0.0034932418493553996,-35.3635876,149.1647485,67452.0,0.5,0.0,-6.5,-2.0,5.5,-1033.0,319.0,2.5,5.5,92807.0,RTL
00:46:45,0.011979599483311176,0.0010362360917497426,-2.254828453063965,0.22878198069520295,0.002220948226749897,0.001272094901651144,-35.3635883,149.16474905,68249.5,8.5,-6.0,-51.0,0.0,12.5,-982.0,234.0,4.0,3.0,59747.0,RTL
00:46:47,0.003990792902186513,0.0018746100831776857,-2.2548407316207886,-0.529311329126358,-0.001328050158917904,-0.0010865279473364353,-35.3635881,149.1647486,68644.0,7.5,-3.5,2.5,0.0,-23.5,-990.5,-524.0,1.0,1.5,26687.0,RTL
00:46:49,0.01862669736146927,-0.0011520124389789999,-2.2538381814956665,0.21681766957044601,0.0012378321262076497,-4.000088665634394e-05,-35.363588449999995,149.16474914999998,68881.0,10.5,-4.5,-44.0,-1.5,16.0,-1036.5,221.5,3.5,2.0,26687.0,RTL
00:46:50,0.029838092625141144,-0.0007248531437653583,-2.25458300113678,-0.005101179704070091,0.0027922448934987187,0.0007081578369252384,-35.363589274999995,149.164749975,69564.0,16.5,-10.75,-49.25,-1.0,-1.25,-973.5,0.25,5.0,3.0,146875.0,RTL
00:46:51,0.024796081706881523,0.0007025378872640431,-2.2540847063064575,-0.5105452835559845,0.0007494015735574067,0.0008054070640355349,-35.363589649999994,149.16475035000002,69868.0,20.0,-14.0,-21.5,-0.5,-21.0,-959.5,-504.5,3.0,3.0,146875.0,RTL
00:46:53,0.008410891983658075,0.0043906839564442635,-2.254922866821289,0.33742762356996536,0.002707635285332799,0.006858043139800429,-35.363589000000005,149.1647494,69906.5,21.5,-14.5,1.5,2.0,25.5,-1012.0,344.0,5.0,9.0,146875.0,RTL
00:46:55,-0.009376100730150938,0.003184084198437631,-2.2544901371002197,-0.25006458908319473,-0.0022352379746735096,0.0003214542521163821,-35.3635873,149.16474785,70522.0,6.0,-1.0,-55.0,1.5,-22.0,-995.0,-244.0,0.5,2.5,110839.0,RTL
00:46:57,-0.011552143841981888,0.0012986392830498517,-2.2549103498458862,-0.11157527565956116,-0.003136171610094607,-0.0018450451316311955,-35.36358585,149.16474664999998,71146.5,-8.0,9.0,0.5,0.5,-20.5,-971.5,-107.0,0.0,0.5,74803.0,RTL
00:46:59,-0.014431086058417955,-0.00026088130713712115,-2.2539335091908774,-0.3611865391333898,-0.004079547089835008,0.00027479836717247963,-35.36358546666667,149.1647464,71163.66666666667,-16.0,14.666666666666666,-18.666666666666668,0.0,-18.333333333333332,-1042.3333333333333,-355.6666666666667,-1.3333333333333333,2.6666666666666665,74803.0,RTL
00:47:00,-0.01189576368778944,-0.000682348715296636,-2.2541436354319253,-0.15716070433457693,-0.00205441207314531,0.0004333942973365386,-35.3635856,149.16474660000003,71676.66666666667,-15.666666666666666,13.333333333333334,-52.0,0.3333333333333333,-6.666666666666667,-998.6666666666666,-152.0,0.6666666666666666,3.0,28374.0,RTL
00:47:01,-0.006451013109957178,-0.002236885018646717,-2.2538952032725015,0.06598521272341411,-6.209003428618114e-05,-0.0009101130999624729,-35.3635858,149.16474683333334,72045.66666666667,-15.333333333333334,13.0,-38.0,-0.6666666666666666,2.6666666666666665,-965.0,71.0,2.0,1.3333333333333333,28374.0,RTL
00:47:03,-0.002437559887766838,-0.0023392621660605073,-2.254625082015991,-0.6847023367881775,0.0026277719298377633,-0.00012949283700436354,-35.363587100000004,149.16474820000002,72216.0,-5.0,3.5,3.0,-2.0,-11.5,-1025.0,-679.0,5.0,2.5,28374.0,RTL
00:47:05,0.010736146631340185,0.00017136859726936868,-2.2543981075286865,0.0702322671810786,0.00133901151518027,9.53255221247673e-06,-35.363588033333336,149.16474883333333,72673.33333333333,4.666666666666667,-3.0,-51.666666666666664,-0.3333333333333333,7.333333333333333,-1014.0,75.66666666666667,3.6666666666666665,2.6666666666666665,103369.0,RTL
00:47:07,0.006091125775128603,0.0018538348376750946,-2.2539137999216714,-0.12588558594385782,0.0007889412033061186,0.0008331519396354755,-35.363588166666666,149.16474876666666,73385.66666666667,8.666666666666666,-5.0,-3.0,0.0,1.0,-983.0,-120.0,3.6666666666666665,3.0,103369.0,RTL
00:47:09,0.01783666480332613,0.000317094789352268,-2.25374972820282,0.5143575966358185,0.00019023963250219822,0.0014865160919725895,-35.36358815,149.1647488,73434.5,8.0,-3.0,-23.0,0.0,22.0,-1031.0,514.6666666666666,3.0,3.6666666666666665,103369.0,RTL
00:47:10,0.005058384980657138,0.0015963376354193315,-2.2545098662376404,0.012190721929073334,0.0029617029358632863,0.0013388098450377584,-35.363587925000004,149.16474862500002,74000.25,8.0,-4.75,-55.0,1.0,4.666666666666667,-1006.0,130.33333333333334,6.333333333333333,3.6666666666666665,181136.0,RTL
00:47:11,-0.0023296022845897824,0.0027465359307825565,-2.2544758319854736,0.15512148290872574,0.002004145411774516,0.0029112650081515312,-35.3635875,149.16474820000002,74394.0,5.5,-3.5,-41.0,1.3333333333333333,-0.6666666666666666,-967.3333333333334,1.0,4.0,4.666666666666667,181136.0,RTL
00:47:13,0.0005043148218343655,0.00077755805493022,-2.254187027613322,0.03961781164010366,-0.0031681781789908805,-0.001048878999426961,-35.36358666666666,149.16474743333333,74605.33333333333,-3.0,4.666666666666667,4.333333333333333,1.0,-14.666666666666666,-989.0,44.0,0.0,1.3333333333333333,181136.0,RTL
00:47:15,-0.003137838173036774,-0.00028877721342723817,-2.2536612351735434,-0.11826287706693013,-0.0005637381691485643,-0.0010028874579196174,-35.363586533333326,149.16474736666666,74913.33333333333,-6.333333333333333,7.0,-47.0,-0.6666666666666666,-3.6666666666666665,-1031.0,-112.66666666666667,2.3333333333333335,1.3333333333333333,181136.0,RTL
00:47:16,0.006257221966128175,-0.0012180422781966627,-2.25357977549235,-0.02385645608107249,0.0007726082888742288,-0.0006847870148097476,-35.36358706666666,149.16474796666668,75560.66666666667,-3.3333333333333335,5.0,-39.666666666666664,-2.6666666666666665,9.333333333333334,-965.6666666666666,-18.333333333333332,3.3333333333333335,2.0,17669.0,RTL
00:47:17,0.015505295246839523,-0.00193674109565715,-2.253720283508301,-0.30637872715791065,-0.002681124877805511,0.00036195944994688034,-35.36358773333333,149.16474856666665,75761.0,0.0,1.6666666666666667,-10.333333333333334,-2.0,-14.666666666666666,-960.6666666666666,-301.3333333333333,0.3333333333333333,3.0,17669.0,RTL
00:47:19,0.014484426627556482,0.001850108616054058,-2.254283587137858,-0.21032962203025818,0.0006112801687171062,0.002663853345438838,-35.36358886666667,149.16474946666665,75765.66666666667,13.666666666666666,-9.333333333333334,-5.666666666666667,-0.3333333333333333,0.0,-1041.6666666666667,-204.33333333333334,3.3333333333333335,5.333333333333333,17669.0,RTL
00:47:21,0.014045273574690023,0.00013176905000970388,-2.254038651784261,-0.11297234892845154,-0.002231168211437762,-0.0005960342629502217,-35.3635887,149.16474933333333,76526.33333333333,14.333333333333334,-8.333333333333334,-49.333333333333336,0.0,-8.333333333333334,-983.0,-107.0,0.6666666666666666,1.6666666666666667,74037.5,RTL
00:47:23,0.015564404428005219,0.0015189232071861625,-2.254824717839559,0.4816225891311963,0.0019530287633339565,0.0016107738483697176,-35.3635885,149.1647492333333,76918.66666666667,14.333333333333334,-10.0,3.3333333333333335,0.3333333333333333,13.333333333333334,-999.3333333333334,487.3333333333333,4.666666666666667,4.0,130406.0,RTL
00:47:25,0.004577792986916999,0.0017530305388694007,-2.253708759943644,-0.25753459706902504,-0.001693740642319123,0.00010750823033352692,-35.363588033333336,149.1647487,77139.66666666667,9.333333333333334,-5.0,-41.333333333333336,0.3333333333333333,-16.333333333333332,-1027.0,-251.0,1.3333333333333333,2.6666666666666665,130406.0,RTL
00:47:26,0.007688105164561421,0.0020144302009915314,-2.2543880144755044,-0.004446655511856079,0.0037503167210767665,0.0013951780274510384,-35.36358793333333,149.16474859999997,77781.66666666667,8.0,-4.0,-47.0,0.6666666666666666,-6.0,-973.3333333333334,1.3333333333333333,6.666666666666667,3.6666666666666665,111722.0,RTL
00:47:27,-0.002160150014484922,0.003779755594829718,-2.2544518311818442,0.3026808847983678,0.002473262914766868,0.001956112372378508,-35.36358743333333,149.16474803333332,78045.66666666667,6.333333333333333,-3.3333333333333335,-18.333333333333332,1.6666666666666667,14.0,-961.0,309.0,5.333333333333333,4.666666666666667,111722.0,RTL
00:47:29,-0.010580111139764389,0.001663044289064904,-2.2537976106007895,-0.04508128762245178,-0.002978471495832006,-0.002171291853301227,-35.36358603333333,149.16474666666667,78081.66666666667,-7.666666666666667,9.666666666666666,-3.0,0.0,-13.666666666666666,-1015.0,-39.333333333333336,0.6666666666666666,0.6666666666666666,111722.0,RTL
00:47:31,0.003723085443198215,-0.0023290818789973855,-2.254053513209025,0.17551198601722717,0.0009241904287288586,5.2832067012786865e-05,-35.3635864,149.16474736666666,78808.33333333333,-9.333333333333334,9.0,-55.333333333333336,-0.6666666666666666,10.0,-994.3333333333334,181.33333333333334,4.0,3.0,7232.0,RTL
00:47:33,0.004226664702097575,0.00017492571108353636,-2.254038095474243,0.4311045631766319,0.0004334993039568265,0.0029972930594036975,-35.363587,149.1647479,79347.33333333333,-2.3333333333333335,2.3333333333333335,1.0,0.3333333333333333,27.0,-997.6666666666666,437.6666666666667,3.0,5.666666666666667,7232.0,RTL
00:47:35,0.01282992089788119,-0.0008417572050044934,-2.253802458445231,0.23032838106155396,0.00012872895846764246,-0.00012821812803546587,-35.3635875,149.1647483,79482.66666666667,0.3333333333333333,0.6666666666666666,-34.666666666666664,-1.6666666666666667,8.333333333333334,-1041.6666666666667,235.66666666666666,3.0,3.0,7232.0,RTL
00:47:36,0.014488802601893743,0.0004028413289537032,-2.2540677388509116,0.03173014521598816,0.0016609597175071638,0.0011809123679995537,-35.363588033333336,149.16474873333334,80118.0,4.333333333333333,-1.6666666666666667,-54.0,0.0,-4.0,-986.6666666666666,37.666666666666664,4.666666666666667,4.0,146910.0,RTL
00:47:37,0.015574642457067966,0.001278186837832133,-2.254009246826172,0.2716101643939813,2.233136910945177e-05,-0.0008083235006779432,-35.3635881,149.1647488,80461.66666666667,6.666666666666667,-3.6666666666666665,-30.0,0.0,9.0,-954.0,277.0,3.0,2.6666666666666665,146910.0,RTL
00:47:39,0.013261786351601282,0.001107428358712544,-2.253880262374878,0.4949520416557789,0.001470351591706276,-0.00047121445337931317,-35.36358776666666,149.1647484,80566.66666666667,5.333333333333333,-2.0,2.0,0.0,13.333333333333334,-1010.3333333333334,500.6666666666667,4.666666666666667,3.0,146910.0,RTL
00:47:41,-0.0003344545839354396,0.0025126627491166196,-2.254009962081909,0.004870515316724777,0.002339738498752316,0.0013002500248452027,-35.3635873,149.16474789999998,81114.33333333333,2.0,0.3333333333333333,-54.0,0.6666666666666666,-11.0,-1002.6666666666666,10.666666666666666,5.666666666666667,4.333333333333333,172769.0,RTL
00:47:43,-0.004098076140508056,0.0005645486016874202,-2.254004875818888,0.2115998367468516,-0.002524003153666854,-0.0012852483584235113,-35.3635866,149.16474723333332,81787.33333333333,-3.6666666666666665,6.333333333333333,-2.0,-0.3333333333333333,18.333333333333332,-988.3333333333334,218.33333333333334,1.0,1.3333333333333333,198628.0,RTL
00:47:45,0.014614345816274485,-0.0013752354231352608,-2.2541866302490234,0.4233588178952535,0.0025905263610184193,0.001610593016569813,-35.3635874,149.1647483,81831.0,0.0,1.6666666666666667,-23.0,-0.6666666666666666,21.666666666666668,-1036.6666666666667,429.3333333333333,6.0,4.666666666666667,198628.0,RTL
00:47:46,0.003434589153281801,0.0015910154130930703,-2.254056135813395,0.08471704026063283,0.0038397440997262797,0.001526925868044297,-35.363587566666666,149.1647483666667,82381.0,2.0,-1.6666666666666667,-55.666666666666664,0.3333333333333333,5.333333333333333,-1004.0,91.0,7.0,4.333333333333333,174761.0,RTL
00:47:47,-0.004431959254361573,0.0028641263488680124,-2.2538442611694336,0.07498802244663239,0.00078686757478863,0.0028495624428614974,-35.3635872,149.164747925,82823.5,0.75,0.0,-37.25,0.5,0.75,-959.25,81.25,3.75,5.75,174761.0,RTL
00:47:49,-0.013150593265891075,0.0007121597348789995,-2.2540769577026367,-0.3294532249371211,-0.00020158826373517513,0.0010492538567632437,-35.36358633333334,149.1647471,83010.0,-6.333333333333333,7.333333333333333,4.333333333333333,0.0,-6.0,-995.0,-323.0,3.0,3.6666666666666665,174761.0,RTL
00:47:51,0.009405303785266975,-0.0027536056780566773,-2.2536117235819497,0.037551604211330414,-0.0007247563917189837,-0.0014214518790443738,-35.363587,149.164748,83390.33333333333,-5.333333333333333,6.333333333333333,-49.666666666666664,-1.6666666666666667,7.666666666666667,-1020.6666666666666,43.666666666666664,2.3333333333333335,1.6666666666666667,107103.0,RTL
00:47:53,0.00572254927828908,0.0005845810810569674,-2.2540977795918784,-0.27931713064511615,0.0019451625024278958,0.0003716070204973221,-35.363588033333336,149.1647489,84169.0,5.666666666666667,-4.0,-5.333333333333333,0.0,-0.6666666666666666,-967.3333333333334,-272.6666666666667,5.0,3.3333333333333335,107103.0,RTL
00:47:55,0.0019539370744799576,0.0030457902078827224,-2.2539207140604653,0.24037206918001175,-0.000182139299189051,0.003523102185378472,-35.363587599999995,149.1647481,84181.66666666667,4.333333333333333,-1.0,-14.666666666666666,0.3333333333333333,16.333333333333332,-1041.6666666666667,246.33333333333334,3.0,6.666666666666667,107103.0,RTL
00:47:56,-0.002445723240574201,0.0008990060984312246,-2.253709316253662,-0.014199820657571157,-0.0024740570224821568,-0.000693492591381073,-35.3635872,149.1647478,84656.33333333333,0.6666666666666666,1.6666666666666667,-54.666666666666664,0.0,0.0,-1013.6666666666666,-8.0,1.0,2.3333333333333335,31191.0,RTL
00:47:57,-4.994291036079327e-05,0.00033311693550786003,-2.2539731661478677,-0.197325067439427,0.00042999939372142154,-0.0006413954931000868,-35.3635872,149.16474786666666,85073.0,0.0,2.6666666666666665,-48.666666666666664,0.0,-9.666666666666666,-974.0,-191.0,3.6666666666666665,2.3333333333333335,31191.0,RTL
00:47:59,0.001815222358951966,-0.0010375486648020644,-2.2537949085235596,0.2811386088530223,-0.0007648793204377095,-0.0012184919323772192,-35.3635871,149.16474796666668,85407.66666666667,0.0,1.0,3.3333333333333335,-0.3333333333333333,22.666666666666668,-997.6666666666666,287.6666666666667,2.6666666666666665,2.0,31191.0,RTL
00:48:01,0.01810686041911443,-0.0013520778544868033,-2.2535367806752524,0.25707878172397614,0.0029267847227553525,-0.0008805162118126949,-35.3635878,149.1647488,85681.33333333333,2.6666666666666665,-1.6666666666666667,-44.333333333333336,-1.0,13.666666666666666,-1033.6666666666667,262.6666666666667,6.333333333333333,2.3333333333333335,31165.0,RTL
00:48:03,0.006806110943822811,0.002967969592039784,-2.2534472942352295,0.21552794178326926,0.003898354790483912,0.0006608241237699986,-35.3635879,149.16474856666665,86590.66666666667,7.0,-4.666666666666667,-14.666666666666666,-0.3333333333333333,8.333333333333334,-959.6666666666666,221.33333333333334,7.333333333333333,4.0,31139.0,RTL
00:48:05,-0.0015945717071493466,0.0014442077760274212,-2.253990650177002,-0.21322483817736307,-0.0010634358040988445,0.00024222000502049923,-35.3635873,149.16474793333333,86604.0,2.0,0.3333333333333333,-3.0,0.0,-16.666666666666668,-1022.6666666666666,-207.66666666666666,2.3333333333333335,3.3333333333333335,31139.0,RTL
00:48:06,-0.0001122079265769571,0.0010280831484124064,-2.2536415259043374,0.20329705874125162,0.0007346106382707754,0.0010693107421199481,-35.36358703333334,149.16474773333334,86912.33333333333,-0.3333333333333333,2.3333333333333335,-45.0,0.0,5.666666666666667,-1032.0,209.33333333333334,4.0,4.0,215887.0,RTL
00:48:07,-0.0045924173124755425,0.0015120851264024775,-2.2540229956309,0.08148027459780376,0.003859614720568061,0.002058668372531732,-35.363586766666664,149.16474756666665,87310.0,-2.0,3.3333333333333335,-51.666666666666664,1.3333333333333333,1.0,-986.3333333333334,87.33333333333333,7.666666666666667,5.0,215887.0,RTL
00:48:09,-0.02029121294617653,0.00015981038935327282,-2.25354798634847,-0.51345294713974,-0.003025100023175279,0.0010639022414882977,-35.36358596666667,149.16474676666667,87787.33333333333,-10.333333333333334,10.333333333333334,2.0,0.0,-18.333333333333332,-1002.0,-507.3333333333333,0.3333333333333333,4.333333333333333,215887.0,RTL
00:48:11,-0.0026024814384679,-0.00310327741317451,-2.252835512161255,-0.1739253600438436,-0.002982942077020804,-0.0012002118552724521,-35.36358643333333,149.16474753333333,87913.33333333333,-8.666666666666666,8.666666666666666,-31.666666666666668,-2.3333333333333335,2.6666666666666665,-1032.0,-168.0,1.0,2.0,138498.0,RTL
00:48:13,0.03167601364354292,-0.003864350107808908,-2.2534584204355874,-0.22974898417790732,0.0012909465003758669,0.0006422898732125759,-35.363589100000006,149.1647502333333,88790.0,9.666666666666666,-8.0,-20.333333333333332,-2.3333333333333335,0.6666666666666666,-960.3333333333334,-223.66666666666666,5.0,4.0,61109.0,RTL
00:48:15,0.024445947259664536,0.0015680236004603405,-2.2533050378163657,0.4759144385655721,0.0021868782738844552,0.0019502177213629086,-35.3635897,149.1647505,88836.0,24.333333333333332,-21.0,2.6666666666666665,1.0,28.666666666666668,-1014.6666666666666,482.3333333333333,5.666666666666667,5.333333333333333,61109.0,RTL
00:48:16,0.01435049312810103,0.001304928562603891,-2.2534937063852944,-0.18886846800645193,-0.0020461862441152334,0.00044446213481326896,-35.363589233333336,149.16475,89053.0,22.0,-17.333333333333332,-37.666666666666664,1.0,-13.0,-1032.3333333333333,-182.33333333333334,2.0,4.0,132587.0,RTL
00:48:17,0.012653999806692203,0.00031713320640847087,-2.253358523050944,-0.03195857505003611,-0.0010072393342852592,0.001723974555109938,-35.3635889,149.16474976666666,89415.33333333333,19.333333333333332,-15.0,-49.0,0.6666666666666666,-3.0,-1000.6666666666666,-25.0,2.6666666666666665,5.0,132587.0,RTL
00:48:19,0.012017732486128807,0.001353420860444506,-2.254044453303019,0.43197019149859744,0.0037556466025610766,0.003500173334032297,-35.3635882,149.1647492,89904.33333333333,13.666666666666666,-11.666666666666666,2.6666666666666665,2.0,19.333333333333332,-993.0,438.6666666666667,7.333333333333333,7.0,132587.0,RTL
00:48:21,-0.014570600042740503,0.0031642441172152758,-2.2535530726114907,0.37016436954339343,-0.0015580673546840746,0.0019430032310386498,-35.363586166666664,149.16474696666666,90025.0,-1.6666666666666667,1.6666666666666667,-32.0,3.3333333333333335,8.666666666666666,-1039.0,376.3333333333333,2.3333333333333335,5.0,56462.0,RTL
00:48:23,-0.010604649859791001,-0.002412016193072001,-2.25246000289917,0.20269335309664407,-0.0028044512340178094,0.00037399143911898136,-35.363585166666674,149.16474633333334,90926.0,-18.0,16.0,-22.666666666666668,-0.6666666666666666,10.0,-961.0,209.33333333333334,1.3333333333333333,3.6666666666666665,56462.0,RTL
00:48:25,0.012069440757234892,-0.00459218630567193,-2.2530595461527505,0.17233709494272867,-0.0011210179266830285,0.00028990736852089566,-35.36358633333333,149.16474773333334,90982.0,-12.0,8.0,2.6666666666666665,-3.3333333333333335,-2.0,-1009.0,177.66666666666666,2.3333333333333335,4.0,56462.0,RTL
00:48:26,0.02067263734837373,-0.004051065460468332,-2.252863883972168,-0.05258535500615835,0.0020325584337115288,-0.0003357094246894121,-35.36358766666667,149.164749,91204.0,-2.3333333333333335,0.0,-37.0,-2.6666666666666665,3.6666666666666665,-1024.0,-45.666666666666664,5.333333333333333,3.3333333333333335,226.0,RTL
00:48:27,0.021277635047833126,-0.0031066580365101495,-2.2529895305633545,-0.017956440647443134,0.0016468548371146123,4.241227482755979e-05,-35.3635883,149.1647495,91556.0,4.0,-5.666666666666667,-45.666666666666664,-2.0,4.0,-991.3333333333334,-11.0,5.0,3.0,226.0,RTL
00:48:29,0.02074384440978368,-0.0008542287978343666,-2.253528674443563,-0.21620346109072366,0.0005658798230191072,-0.0013347845524549484,-35.3635889,149.16475,91981.33333333333,15.0,-13.666666666666666,4.0,0.0,-21.666666666666668,-989.6666666666666,-210.0,3.6666666666666665,1.6666666666666667,226.0,RTL
00:48:31,0.018558825676639874,-0.002534905138115088,-2.2521663506825766,-0.34645086030165356,-0.004720338309804599,-0.0009243459595988194,-35.36358896666667,149.1647501,92102.66666666667,16.0,-14.0,-31.333333333333332,-0.6666666666666666,-19.666666666666668,-1032.0,-339.3333333333333,-0.6666666666666666,2.6666666666666665,226.0,RTL
00:48:32,0.028406937296191852,-0.003250149389108022,-2.2534090677897134,-0.1615567927559217,0.0010435441508889198,0.0017290348187088966,-35.3635894,149.1647507,92702.66666666667,20.0,-18.333333333333332,-48.333333333333336,0.3333333333333333,-8.333333333333334,-983.3333333333334,-154.0,4.333333333333333,5.0,117653.0,RTL
00:48:33,0.026569935182730358,-0.0006794709479436278,-2.2532463868459067,0.057291497786839805,0.005937094489733378,0.0002927865522603194,-35.36358933333333,149.16475060000002,93000.66666666667,21.0,-21.0,-23.333333333333332,0.6666666666666666,-5.666666666666667,-961.0,64.66666666666667,9.0,4.0,117653.0,RTL
00:48:35,-0.009802260591338078,0.0020287672135358057,-2.252971967061361,-0.33986232181390125,-0.0034273379327108464,0.0008621458740284046,-35.363587599999995,149.16474863333335,93056.33333333333,9.333333333333334,-9.666666666666666,0.3333333333333333,2.3333333333333335,-7.333333333333333,-1016.3333333333334,-331.0,0.3333333333333333,4.0,117653.0,RTL
00:48:37,-0.010751555052896341,-0.0005566436448134482,-2.253073215484619,0.15165779242912927,-0.00011900113895535469,0.0015704589895904064,-35.3635862,149.1647475,93673.66666666667,-4.0,1.0,-53.333333333333336,1.3333333333333333,3.3333333333333335,-999.6666666666666,159.66666666666666,3.3333333333333335,5.0,109795.0,RTL
00:48:39,-0.01974646436671416,-0.0012164208261917036,-2.253113587697347,-0.13255641857783,-0.0010597237075368564,-0.00023429732148845991,-35.36358516666667,149.16474653333333,94260.66666666667,-17.0,11.0,2.0,0.0,5.333333333333333,-984.3333333333334,-124.0,2.3333333333333335,3.0,109795.0,RTL
00:48:41,-0.019192364066839218,-0.0006540395455279698,-2.2526257832845054,0.2660672031342983,0.0014270280953496695,0.0005584829486906528,-35.36358483333333,149.16474613333332,94325.33333333333,-22.0,15.0,-26.666666666666668,0.0,18.0,-1046.0,273.0,4.666666666666667,4.333333333333333,109795.0,RTL
00:48:42,-0.014649841624001661,-0.0017621778727819521,-2.2527589003245034,0.11993447442849477,-0.003937245812267065,-0.000562802500401934,-35.363584933333335,149.16474616666665,94900.0,-23.333333333333332,17.0,-52.0,-0.3333333333333333,8.0,-994.0,127.0,0.0,3.0,151517.0,RTL
00:48:43,-0.012089392247920236,-0.0034217312932014465,-2.2528580029805503,0.018644849459330242,0.0006080785921464363,-0.0008875105219582716,-35.3635852,149.16474653333333,95247.0,-22.333333333333332,17.0,-32.666666666666664,-1.3333333333333333,11.666666666666666,-961.0,26.0,4.0,2.6666666666666665,151517.0,RTL
00:48:45,0.012721545062959194,-0.004066733410581946,-2.2526142597198486,0.3031483640273412,0.001836691206942002,-0.0010505910807599623,-35.3635866,149.164748,95368.66666666667,-10.666666666666666,6.0,2.3333333333333335,-2.3333333333333335,5.666666666666667,-1011.3333333333334,309.0,5.0,2.6666666666666665,151517.0,RTL
00:48:47,0.013178597514828047,-0.002836851558337609,-2.2529735565185547,-0.0536641130844752,0.00213121281315883,-0.0003791097551584244,-35.36358786666667,149.16474913333332,95888.66666666667,1.6666666666666667,-4.333333333333333,-55.666666666666664,-0.6666666666666666,-2.3333333333333335,-1010.0,-46.666666666666664,5.333333333333333,2.6666666666666665,151517.0,RTL
00:48:48,0.009555393985162178,-8.2078632961687e-05,-2.2526089350382485,0.07036080459753673,-0.0005119350583602985,-0.0008560089239229759,-35.3635879,149.164749,96547.0,4.666666666666667,-6.666666666666667,-26.333333333333332,0.3333333333333333,-5.0,-959.0,76.33333333333333,2.6666666666666665,2.6666666666666665,111125.0,RTL
00:48:49,-0.007483489190538724,0.0012615686282515526,-2.253207524617513,-0.3779704471429189,0.0030353786423802376,0.0003967233933508396,-35.363587599999995,149.16474860000002,96646.0,4.0,-5.666666666666667,-1.3333333333333333,1.0,-5.666666666666667,-982.3333333333334,-370.6666666666667,6.0,3.6666666666666665,111125.0,RTL
00:48:51,-0.012974260995785395,0.0018230735634764035,-2.252830187479655,0.1790917362086475,-0.0007684718972692887,-0.0006206524558365345,-35.363586266666665,149.1647472,96685.0,-5.666666666666667,4.666666666666667,-23.666666666666668,0.6666666666666666,7.333333333333333,-1039.3333333333333,185.33333333333334,2.3333333333333335,3.0,111125.0,RTL
00:48:53,-0.019768071826547384,-0.0004745099213323556,-2.2527950406074524,-0.017515090759843588,0.0003161387867294252,0.0004492495208978653,-35.3635853,149.164746425,97585.5,-16.0,12.25,-49.75,0.25,5.25,-976.25,-11.0,3.5,4.0,17984.0,RTL
00:48:55,-0.0072084177906314535,-0.0021574123917768397,-2.2529688676198325,0.1674278825521469,-0.000244258592526118,0.00157463108189404,-35.363585066666666,149.16474633333334,97939.66666666667,-21.666666666666668,16.0,3.3333333333333335,-1.3333333333333333,-2.3333333333333335,-997.6666666666666,172.0,2.6666666666666665,5.0,17984.0,RTL
00:48:57,-0.0003243963292334229,-0.005067516001872718,-2.25194388628006,-0.17116600647568703,-0.001835089991800487,-0.0016543048550374806,-35.363586100000006,149.1647476,98221.0,-15.5,10.0,-44.5,-2.0,-3.25,-1029.75,-165.5,1.25,1.75,17984.0,RTL
00:48:58,0.009795625073214373,-0.003538340718174974,-2.2525941530863443,0.006821890672047933,0.00014512240886688232,0.00017279339954257011,-35.36358713333333,149.16474853333332,98938.66666666667,-6.333333333333333,1.3333333333333333,-42.666666666666664,-0.3333333333333333,3.6666666666666665,-964.0,12.333333333333334,3.0,4.0,156087.0,RTL
00:48:59,0.006626335050289829,-0.0014991022180765867,-2.2526537577311196,-0.2240635553995768,0.001206214539706707,-0.0010269293561577797,-35.3635873,149.1647487,99156.66666666667,-2.0,-1.0,-12.666666666666666,0.0,-11.666666666666666,-969.6666666666666,-219.0,4.0,2.6666666666666665,156087.0,RTL
00:49:01,-0.012553102957705656,0.000975494331214577,-2.2523368994394937,-0.1592771311601003,-0.001929695640380184,0.0011789786318937938,-35.3635868,149.16474783333334,99166.33333333333,-2.3333333333333335,0.0,-7.666666666666667,0.75,-9.0,-1024.5,-289.5,3.5,4.5,156087.0,RTL
00:49:03,0.004022502340376377,-0.0028793163364753127,-2.2523763179779053,0.12048946507275105,-0.000854678510222584,-0.0005448606098070741,-35.363586725000005,149.1647479,99897.5,-5.25,3.75,-55.5,-0.75,5.0,-993.0,125.25,2.0,2.75,95884.0,RTL
00:49:04,0.021046172827482224,-0.0037889835657551885,-2.2521902322769165,0.3898797184228897,9.879539720714092e-05,-0.0011471266625449061,-35.3635874,149.16474870000002,100422.0,-1.5,0.0,-17.0,-1.5,8.0,-954.5,394.0,3.5,2.5,95884.0,RTL
00:49:06,0.020279746502637863,-0.0021104016341269016,-2.252185583114624,-0.13363903760910034,0.00013087930468221506,0.0005291559112568697,-35.363588433333334,149.16474956666664,100447.33333333333,8.666666666666666,-8.666666666666666,-8.0,-1.6666666666666667,-10.0,-1032.3333333333333,-128.66666666666666,3.0,4.0,95884.0,RTL
00:49:08,0.021123549590508144,-0.0002989887531536321,-2.2529172897338867,0.12377944588661194,0.002018190221861005,-0.0004901948074499766,-35.363589,149.16475003333332,101238.0,16.333333333333332,-15.0,-50.333333333333336,0.6666666666666666,1.3333333333333333,-979.0,129.33333333333334,5.0,3.0,95884.0,RTL
00:49:09,0.0072010184327761335,0.0016074185259640217,-2.252571185429891,0.0031362821658452353,0.0013735347893089056,0.0017202207818627357,-35.3635885,149.1647495,101534.33333333333,15.333333333333334,-14.666666666666666,-24.0,2.0,-0.3333333333333333,-959.0,9.333333333333334,4.333333333333333,4.666666666666667,212928.0,RTL
00:49:10,-0.013865994289517403,0.0023694640646378198,-2.252739429473877,-0.49721736709276837,-0.0018097414479901393,-0.00047150300815701485,-35.36358726666666,149.16474816666667,101610.33333333333,5.666666666666667,-5.666666666666667,2.3333333333333335,2.0,-26.666666666666668,-992.6666666666666,-491.3333333333333,1.3333333333333333,2.6666666666666665,212928.0,RTL
00:49:12,-0.01620306819677353,-0.00011216609163966496,-2.252526879310608,-0.019084811210632324,0.000807127682492137,-0.0005035342182964087,-35.363585900000004,149.164747,101826.5,-7.5,5.5,-42.0,1.5,1.0,-1036.0,-13.0,3.5,3.0,212928.0,RTL
00:49:14,-0.020811413414776325,-0.0010729495552368462,-2.252391815185547,-0.21419146284461021,-0.0030033800867386162,0.001973508857190609,-35.3635848,149.1647461,102806.5,-21.0,15.5,-22.5,0.0,-24.5,-947.0,-210.0,0.0,5.5,162223.5,RTL
00:49:16,-0.02082249615341425,-0.0024576507275924087,-2.252508044242859,-0.6549435257911682,-0.002737061236985028,0.0008660017047077417,-35.3635849,149.16474635,102852.5,-23.5,16.0,1.0,0.0,-32.0,-1014.5,-650.5,0.0,4.0,111519.0,RTL
00:49:18,0.0010363729670643806,-0.004355073673650622,-2.2520328760147095,0.26880980283021927,-0.0013184938579797745,-0.003121004090644419,-35.363585900000004,149.16474735,103483.5,-17.5,11.5,-56.0,-3.0,21.0,-1001.5,273.0,1.0,0.5,111519.0,RTL
00:49:19,0.007203716202639043,-0.004117607313673943,-2.252330958843231,-0.2828625626862049,0.0012971711112186313,-0.0015951248642522842,-35.363586624999996,149.164748025,103868.0,-12.75,7.0,-40.75,-1.25,-10.75,-963.75,-278.5,3.75,1.5,97100.0,RTL
00:49:20,0.012394648045301437,-0.0012232434237375855,-2.2527785301208496,0.2552404720336199,6.879097782075405e-06,-0.002320369298104197,-35.3635871,149.1647484,104115.0,-4.0,0.0,1.0,0.0,0.0,-976.5,258.5,3.0,1.0,97100.0,RTL
00:49:22,-0.0004398822784423828,-0.00034167183184763417,-2.2518988847732544,-0.20495239738374949,-0.0003986938390880823,9.996420703828335e-05,-35.36358705,149.1647481,104197.0,-2.5,0.0,-29.5,0.0,-16.0,-1033.0,-201.5,2.5,3.5,97100.0,RTL
00:49:24,0.009040543343871832,-0.002572094788774848,-2.2518043518066406,0.37951940298080444,0.0015550840180367231,-0.00016362429596483707,-35.36358715,149.16474825,105163.5,-1.0,0.5,-34.5,-1.0,15.0,-961.0,383.0,4.0,3.0,82234.0,RTL
00:49:26,0.00546511507127434,-0.0013164255069568753,-2.252341389656067,-0.5154982656240463,-0.0011067538289353251,-0.0010867360979318619,-35.3635879,149.1647491,105312.5,4.5,-5.5,1.5,0.0,-20.5,-1014.0,-511.0,2.0,2.0,67368.0,RTL
00:49:28,0.0011303762439638376,0.0003836164905806072,-2.2521421909332275,0.2136891856789589,-0.001322144758887589,-0.0015676532639190555,-35.36358745,149.1647484,105831.0,3.0,-3.0,-56.5,0.0,7.5,-1015.5,218.0,1.0,1.5,67368.0,RTL
00:49:29,0.003105389121628832,-0.0003912507127097342,-2.2522873282432556,0.06503161787986755,0.00025998096680268645,0.0012657680199481547,-35.36358735,149.16474837500002,106257.25,1.0,-1.5,-50.5,0.0,1.0,-977.75,69.25,3.0,4.5,3543.0,RTL
00:49:30,0.001772880437783897,7.541354716522619e-05,-2.251931667327881,0.49703913927078247,0.001245426945388317,0.0004792739637196064,-35.36358705,149.16474805000001,106635.0,0.0,-0.5,-4.5,0.5,30.0,-983.0,502.0,4.0,3.0,3543.0,RTL
00:49:32,0.006874886341392994,-0.0023557576932944357,-2.2517683506011963,0.41764165461063385,-0.00037390226498246193,-9.051035158336163e-05,-35.36358665,149.1647478,106650.0,-5.0,4.5,-16.5,-1.5,13.5,-1038.0,421.0,2.5,3.0,3543.0,RTL
00:49:34,0.016628089360892773,-0.002316801284905523,-2.252178430557251,-0.20544023904949427,0.004389578592963517,-0.003402477828785777,-35.363587949999996,149.16474925,107576.0,3.5,-5.0,-49.5,-1.0,0.0,-971.0,-200.5,7.0,-0.5,96753.0,RTL
00:49:36,0.015406242571771145,0.0005113310471642762,-2.2523971796035767,0.29574592830613256,0.005705752409994602,-0.0007868411485105753,-35.36358815,149.16474920000002,107911.0,9.5,-9.5,3.0,1.0,0.5,-1001.0,299.5,8.5,2.5,189963.0,RTL
00:49:38,-0.009869639296084642,0.000870169373229146,-2.251794934272766,-0.21129515394568443,-0.002706149942241609,0.0008999116253107786,-35.36358715,149.16474814999998,108151.5,2.5,-2.5,-43.0,0.5,-1.5,-1024.0,-206.0,0.0,4.0,189963.0,RTL
00:49:39,-0.007405140495393425,0.0004438128416950349,-2.252270817756653,0.008396930992603302,0.0007957626949064434,-0.0005679511814378202,-35.363586749999996,149.1647478,108543.75,-1.0,0.0,-53.0,1.0,-0.5,-997.5,13.0,3.0,2.5,246156.0,RTL
00:49:40,-0.011847555404528975,-0.0003727349467226304,-2.2523163557052612,0.4841707795858383,-0.00011012976756319404,0.000522166839800775,-35.36358595,149.1647471,109076.5,-8.0,5.5,-12.0,0.5,24.5,-965.5,488.5,2.5,3.5,246156.0,RTL
00:49:42,-0.006462567835114896,-0.0014491184265352786,-2.2518287897109985,0.04634755104780197,-0.001758035970851779,0.0015012789517641068,-35.363585549999996,149.1647468,109089.0,-15.5,11.5,-7.0,0.0,-12.0,-1039.5,49.5,1.0,4.5,246156.0,RTL
00:49:44,-0.014565577264875174,-0.002286322065629065,-2.25208055973053,-0.16059540770947933,-1.0337214916944504e-05,0.0016576889902353287,-35.363585650000005,149.164747,109902.0,-15.0,9.5,-54.0,0.0,1.0,-986.0,-156.5,2.0,4.5,171796.5,RTL
00:49:46,-0.010361158987507224,-0.0021928412606939673,-2.2517781257629395,-0.5415622144937515,-0.0018495417316444218,-0.002689309883862734,-35.36358595,149.1647472,110357.5,-14.5,10.0,3.0,-1.5,-23.5,-991.0,-538.0,0.5,0.5,97437.0,RTL
00:49:48,0.0070107809733599424,-0.002869785646907985,-2.251651406288147,0.2396392598748207,-0.0007259321864694357,-0.00036718929186463356,-35.36358705,149.1647483,110515.0,-5.0,1.5,-37.5,0.0,20.5,-1036.5,243.0,2.0,2.5,97437.0,RTL
00:49:49,0.008064376655966043,-0.0038991444162093103,-2.251893699169159,0.018281931057572365,0.00024579442106187344,-0.0010505777026992291,-35.363587275,149.1647486,110890.75,-2.25,-0.25,-54.25,-1.25,2.0,-1008.0,21.75,2.25,1.75,56675.0,RTL
00:49:50,0.010341395158320665,-0.0030136766145005822,-2.251479744911194,-0.44771626591682434,0.00028217362705618143,-0.0005491250776685774,-35.36358785,149.1647492,111497.0,1.5,-4.5,-25.5,-0.5,-16.5,-954.0,-444.0,2.5,2.0,56675.0,RTL
00:49:52,0.002998535943333991,-0.0011214511469006538,-2.252344846725464,-0.2817051075398922,-0.0009753205813467503,0.0014287132071331143,-35.36358815,149.16474935000002,111561.0,8.5,-10.0,2.0,0.0,2.0,-1019.5,-277.5,2.0,4.0,56675.0,RTL
00:49:54,0.02637909445911646,-0.003016372676938772,-2.2521103620529175,0.08544005453586578,0.0006810780614614487,-0.001691314741037786,-35.3635888,149.16475,112118.5,13.0,-12.5,-52.5,-0.5,-3.5,-1005.5,89.5,3.0,1.0,56675.0,RTL
00:49:55,0.023242641240358353,-0.0017610651557333767,-2.252079129219055,-0.001620616763830185,0.002077404351439327,0.0011583937448449433,-35.36358894999999,149.16475014999997,112483.25,14.75,-14.5,-37.5,0.0,-2.25,-963.75,2.5,4.25,4.0,151253.0,RTL
00:49:56,0.01032152771949768,0.0007258321275003254,-2.252363085746765,0.22034609131515026,0.003787118010222912,0.0022273738868534565,-35.3635887,149.16474979999998,112704.0,17.0,-16.5,0.5,1.5,25.5,-995.0,225.5,5.5,4.5,151253.0,RTL
00:49:58,0.0030394376954063773,0.0013381592580117285,-2.251395583152771,0.12120186164975166,0.0023072707699611783,0.0012282191310077906,-35.36358745,149.1647484,112787.0,6.0,-5.0,-28.0,1.0,-7.5,-1037.0,125.0,4.5,3.5,151253.0,RTL
00:50:00,6.491004023700953e-05,-0.0003622745716711506,-2.2517811059951782,0.3908601701259613,0.0020980759290978312,-0.00011121353600174189,-35.3635867,149.1647478,113757.0,-1.0,0.0,-35.5,0.0,23.5,-963.5,395.5,4.0,2.5,91346.5,RTL
00:50:02,0.009889444569125772,-0.0016464319196529686,-2.2523462772369385,-0.03148110210895538,-0.0014007380232214928,0.0008663114858791232,-35.36358705,149.16474814999998,113906.0,-2.0,1.0,3.0,-0.5,-15.5,-1001.0,-28.0,1.0,3.5,31440.0,RTL
00:50:04,0.002735678579483647,-0.0010073780722450465,-2.252273201942444,0.04636169224977493,0.002095584524795413,-0.000227574841119349,-35.3635874,149.1647486,114389.5,2.0,-3.0,-54.5,-0.5,6.5,-1013.5,51.5,4.5,2.0,31440.0,RTL
00:50:05,0.0023648700589546934,-0.00046560172177123604,-2.2519336938858032,-0.17600129172205925,-0.00021625595400109887,0.001312111271545291,-35.3635874,149.164748475,114794.5,0.75,-2.0,-46.25,0.0,-9.0,-971.25,-171.5,2.0,3.75,29595.0,RTL
00:50:06,0.00040035019628703594,0.0014068266027607024,-2.252139687538147,-0.16329728066921234,-0.0022448706440627575,-0.0010555732296779752,-35.36358715,149.16474805000001,115134.5,0.0,-0.5,-3.0,1.0,-23.0,-968.5,-159.5,0.5,1.5,29595.0,RTL
00:50:08,0.004002272384241223,-0.00298187043517828,-2.2510883808135986,-0.35061483085155487,-0.0028139034984633327,-0.00018882285803556442,-35.363587100000004,149.16474820000002,115145.5,-2.5,2.5,-17.5,-2.0,-14.0,-1051.5,-345.5,0.0,2.0,29595.0,RTL
00:50:10,0.019837683998048306,-0.001825513259973377,-2.252004623413086,0.3800825774669647,0.003363406052812934,0.0013403918128460646,-35.363588,149.1647493,116034.5,6.5,-7.5,-41.0,0.0,14.5,-969.5,384.5,5.0,3.5,20416.5,RTL
00:50:12,-0.005489237140864134,-0.000197843874047976,-2.2522400617599487,-0.5988227725028992,-0.00180622044717893,-0.0014077280648052692,-35.36358765,149.1647488,116251.5,5.0,-6.0,4.0,0.0,-24.0,-998.0,-593.5,0.0,1.5,11238.0,RTL
00:50:14,0.010416685603559017,-0.0014486147556453943,-2.2520813941955566,0.2407763972878456,-0.0003909061197191477,-0.0006425206083804369,-35.3635876,149.1647488,116614.5,3.0,-4.5,-49.5,0.0,9.5,-1026.5,245.5,1.5,2.0,11238.0,RTL
00:50:15,0.0038166328668012284,-0.0007005643583397614,-2.2521148324012756,0.0007285363972187042,0.0011845114058814943,-0.0002642677281983197,-35.363587450000004,149.16474865,117015.75,2.75,-4.0,-48.75,0.0,-3.75,-981.25,5.25,2.75,2.0,29056.0,RTL
