time_stamp,MODE,lat,lon,relative_alt,roll,pitch,yaw,rollspeed,pitchspeed,yawspeed,xacc,yacc,zacc,xgyro,ygyro,zgyro,vx,vy,vz,LAND_SPEED_HIGH,WPNAV_SPEED_DN,RTL_ALT
20:29:18.993,GUIDED,-35.3632621,149.1652374,76,-0.00022896158043295145,0.001330929109826684,0.030248433351516724,0.00025708461180329323,0.00026056653587147593,0.0026415884494781494,0,1,-1000,0,0,0,0,0,-3,0.0,150.0,1500.0
20:29:19.194,GUIDED,-35.3632621,149.1652374,67,-2.473455242579803e-05,0.0013850025134161115,0.030056489631533623,0.00025109644047915936,0.0002468560414854437,0.002587720053270459,0,1,-1000,0,0,0,0,1,-2,0.0,150.0,1500.0
20:29:19.394,GUIDED,-35.3632621,149.1652374,60,6.290966666711029e-06,0.0014487579464912415,0.029860174283385277,0.00022139152861200273,0.0002107324544340372,0.002373572438955307,0,2,-1000,0,0,0,0,1,-1,0.0,150.0,1500.0
20:29:19.595,GUIDED,-35.3632621,149.1652374,55,2.7799167582998052e-05,0.0014936549123376608,0.029678313061594963,0.00032077982905320823,0.000283069588476792,0.0023146369494497776,0,1,-1000,0,0,0,-1,1,-1,0.0,150.0,1500.0
20:29:19.796,GUIDED,-35.3632621,149.1652374,50,3.077496512560174e-05,0.0015293286414816976,0.029466869309544563,0.000364700477803126,0.0002425444545224309,0.0025610344018787146,0,1,-1000,0,0,0,-1,1,-1,0.0,150.0,1500.0
20:29:19.996,GUIDED,-35.3632621,149.1652374,50,3.077496512560174e-05,0.0015293286414816976,0.029466869309544563,0.000364700477803126,0.0002425444545224309,0.0025610344018787146,0,1,-1000,0,0,0,-1,1,-1,0.0,150.0,1500.0
20:29:20.197,GUIDED,-35.3632621,149.1652374,46,2.4045799364103004e-05,0.0015509395161643624,0.029258565977215767,0.00029678348801098764,0.0002725777740124613,0.0023479191586375237,0,1,-1000,0,0,0,-1,1,-1,0.0,150.0,1500.0
20:29:20.398,GUIDED,-35.3632621,149.1652374,46,2.4045799364103004e-05,0.0015509395161643624,0.029258565977215767,0.00029678348801098764,0.0002725777740124613,0.0023479191586375237,0,1,-1000,0,0,0,-1,1,-1,0.0,150.0,1500.0
20:29:20.599,GUIDED,-35.3632621,149.1652374,46,2.4045799364103004e-05,0.0015509395161643624,0.029258565977215767,0.00029678348801098764,0.0002725777740124613,0.0023479191586375237,0,1,-1000,0,0,0,-1,1,-1,0.0,150.0,1500.0
20:29:20.801,GUIDED,-35.3632621,149.1652374,46,2.4045799364103004e-05,0.0015509395161643624,0.029258565977215767,0.00029678348801098764,0.0002725777740124613,0.0023479191586375237,0,1,-1000,0,0,0,-1,1,-1,0.0,150.0,1500.0
20:29:21.001,GUIDED,-35.3632621,149.1652375,38,-4.89929188915994e-05,0.0015548389637842774,0.028696700930595398,0.00014945465954951942,0.0003750977339223027,0.0023303600028157234,0,1,-1000,0,0,0,-1,1,0,0.0,150.0,1500.0
20:29:21.202,GUIDED,-35.3632621,149.1652375,36,-0.00010108882270287722,0.0015298669459298253,0.02851773239672184,0.0002388246648479253,0.00018030891078524292,0.0023074611090123653,0,1,-1000,0,0,0,-1,1,0,0.0,150.0,1500.0
20:29:21.403,GUIDED,-35.3632621,149.1652375,4,-0.00017244467744603753,0.001497275778092444,0.028340673074126244,0.000289111805614084,0.0003341389528941363,0.0022568688727915287,0,1,-1000,1,0,0,-2,1,0,0.0,150.0,1500.0
20:29:21.603,GUIDED,-35.3632622,149.1652375,3,-0.0002282891218783334,0.0014625530457124114,0.028195593506097794,0.00020424858666956425,0.0003002623561769724,0.002128457650542259,0,1,-1000,0,0,0,-2,1,0,0.0,150.0,1500.0
20:29:21.804,GUIDED,-35.3632622,149.1652375,3,-0.000291897333227098,0.001413545454852283,0.0280469823628664,0.0002521410642657429,0.00027236438472755253,0.002359445672482252,0,1,-1000,0,0,0,-1,1,0,0.0,150.0,1500.0
20:29:22.005,GUIDED,-35.3632622,149.1652375,3,-0.00034755145316012204,0.0013829523231834173,0.027887944132089615,0.00016117925406433642,0.0003706373681779951,0.002274703700095415,0,1,-1000,0,0,0,-1,1,0,0.0,150.0,1500.0
20:29:22.206,GUIDED,-35.3632622,149.1652375,3,-0.00034755145316012204,0.0013829523231834173,0.027887944132089615,0.00016117925406433642,0.0003706373681779951,0.002274703700095415,0,1,-1000,0,0,0,-1,1,0,0.0,150.0,1500.0
20:29:22.407,GUIDED,-35.3632622,149.1652375,3,-0.00034755145316012204,0.0013829523231834173,0.027887944132089615,0.00016117925406433642,0.0003706373681779951,0.002274703700095415,0,1,-1000,0,0,0,-1,1,0,0.0,150.0,1500.0
20:29:22.608,GUIDED,-35.3632622,149.1652375,3,-0.00034755145316012204,0.0013829523231834173,0.027887944132089615,0.00016117925406433642,0.0003706373681779951,0.002274703700095415,0,1,-1000,0,0,0,-1,1,0,0.0,150.0,1500.0
20:29:22.808,GUIDED,-35.3632622,149.1652375,3,-0.00034755145316012204,0.0013829523231834173,0.027887944132089615,0.00016117925406433642,0.0003706373681779951,0.002274703700095415,0,1,-1000,0,0,0,-1,1,0,0.0,150.0,1500.0
20:29:23.009,GUIDED,-35.3632621,149.1652374,0,-3.023033968929667e-05,0.0014712413540109992,0.027233121916651726,0.00019267358584329486,0.0003031065862160176,0.0021141772158443928,0,1,-1000,0,0,0,0,0,0,0.0,150.0,1500.0
20:29:23.210,GUIDED,-35.3632621,149.1652374,0,-3.023033968929667e-05,0.0014712413540109992,0.027233121916651726,0.00019267358584329486,0.0003031065862160176,0.0021141772158443928,0,1,-1000,0,0,0,0,0,0,0.0,150.0,1500.0
20:29:23.411,GUIDED,-35.3632621,149.1652374,0,4.131629339099163e-06,0.0015291644958779216,0.027068650349974632,0.00035330766695551574,0.0002233056875411421,0.002209919039160013,0,1,-1000,0,0,0,0,0,0,0.0,150.0,1500.0
20:29:23.612,GUIDED,-35.3632621,149.1652374,0,4.93209226988256e-05,0.0016007799422368407,0.02692580409348011,0.00017157438560388982,0.0004197971138637513,0.002103951293975115,0,1,-1000,0,0,0,0,0,0,0.0,150.0,1500.0
20:29:23.812,GUIDED,-35.3632621,149.1652374,0,0.00010043455404229462,0.0016587680438533425,0.026738421991467476,0.000323063024552539,0.0001695379614830017,0.002094844589009881,0,2,-1000,0,0,0,0,0,0,0.0,150.0,1500.0
20:29:24.013,GUIDED,-35.3632621,149.1652374,0,0.00015029583300929517,0.0017367167165502906,0.026565108448266983,0.00018118994194082916,0.0003226265253033489,0.002120769117027521,0,2,-1000,0,0,0,0,0,0,0.0,150.0,1500.0
20:29:24.213,GUIDED,-35.3632621,149.1652374,0,0.00015029583300929517,0.0017367167165502906,0.026565108448266983,0.00018118994194082916,0.0003226265253033489,0.002120769117027521,0,2,-1000,0,0,0,0,0,0,0.0,150.0,1500.0
20:29:24.414,GUIDED,-35.3632621,149.1652374,0,0.00015029583300929517,0.0017367167165502906,0.026565108448266983,0.00018118994194082916,0.0003226265253033489,0.002120769117027521,0,2,-1000,0,0,0,0,0,0,0.0,150.0,1500.0
20:29:24.616,GUIDED,-35.3632621,149.1652374,0,0.00015029583300929517,0.0017367167165502906,0.026565108448266983,0.00018118994194082916,0.0003226265253033489,0.002120769117027521,0,2,-1000,0,0,0,0,0,0,0.0,150.0,1500.0
20:29:24.817,GUIDED,-35.3632621,149.1652374,0,0.00015029583300929517,0.0017367167165502906,0.026565108448266983,0.00018118994194082916,0.0003226265253033489,0.002120769117027521,0,2,-1000,0,0,0,0,0,0,0.0,150.0,1500.0
20:29:25.018,GUIDED,-35.3632621,149.1652374,0,0.0003638197958935052,0.002029974013566971,0.025888260453939438,0.00023431386216543615,0.00035978027153760195,0.002009900752454996,0,1,-1000,1,0,0,0,0,0,0.0,150.0,1500.0
20:29:25.219,GUIDED,-35.3632621,149.1652374,0,0.0003638197958935052,0.002029974013566971,0.025888260453939438,0.00023431386216543615,0.00035978027153760195,0.002009900752454996,0,1,-1000,1,0,0,0,0,0,0.0,150.0,1500.0
20:29:25.419,GUIDED,-35.3632621,149.1652374,0,0.0004343154432717711,0.0021080553997308016,0.025725282728672028,0.0003282585530541837,0.0003173382137902081,0.002004162408411503,0,1,-1000,0,0,0,0,0,0,0.0,150.0,1500.0
20:29:25.620,GUIDED,-35.3632621,149.1652374,0,0.0005048314924351871,0.0021871463395655155,0.02554386481642723,0.00038756628055125475,0.0002226668002549559,0.0019440961768850684,0,1,-1000,0,0,0,0,0,0,0.0,150.0,1500.0
20:29:25.821,GUIDED,-35.3632621,149.1652374,4,0.002508247969672084,-1.9034887372981757e-05,0.025384649634361267,0.009454815648496151,-0.011986163444817066,0.0016558849019929767,0,0,-1139,9,-11,0,0,0,-16,0.0,150.0,1500.0
20:29:26.021,GUIDED,-35.3632621,149.1652374,94,0.0037313788197934628,-0.0008186895283870399,0.02560804970562458,0.010725514963269234,0.00289780180901289,0.0034110883716493845,0,0,-1139,11,3,2,0,0,-50,0.0,150.0,1500.0
20:29:26.222,GUIDED,-35.3632621,149.1652374,94,0.0037313788197934628,-0.0008186895283870399,0.02560804970562458,0.010725514963269234,0.00289780180901289,0.0034110883716493845,0,0,-1139,11,3,2,0,0,-50,0.0,150.0,1500.0
20:29:26.423,GUIDED,-35.3632621,149.1652374,94,0.0037313788197934628,-0.0008186895283870399,0.02560804970562458,0.010725514963269234,0.00289780180901289,0.0034110883716493845,0,0,-1139,11,3,2,0,0,-50,0.0,150.0,1500.0
20:29:26.624,GUIDED,-35.3632621,149.1652374,94,0.0037313788197934628,-0.0008186895283870399,0.02560804970562458,0.010725514963269234,0.00289780180901289,0.0034110883716493845,0,0,-1139,11,3,2,0,0,-50,0.0,150.0,1500.0
20:29:26.825,GUIDED,-35.3632621,149.1652374,805,0.0037109858822077513,0.0020565006416291,0.02559138461947441,0.029649896547198296,-0.00073918083216995,0.0009818869875743985,0,0,-1139,11,3,2,0,0,-130,0.0,150.0,1500.0
20:29:27.026,GUIDED,-35.363262,149.1652374,1150,0.014905381947755814,0.0009307592990808189,0.025416472926735878,0.04793834313750267,-0.00618390878662467,0.0023769373074173927,0,0,-1031,48,-5,1,0,2,-141,0.0,150.0,1500.0
20:29:27.227,GUIDED,-35.363262,149.1652374,1150,0.014905381947755814,0.0009307592990808189,0.025416472926735878,0.04793834313750267,-0.00618390878662467,0.0023769373074173927,0,0,-1031,48,-5,1,0,2,-141,0.0,150.0,1500.0
20:29:27.428,GUIDED,-35.363262,149.1652375,1519,0.026655862107872963,-0.0008050380856730044,0.02541325055062771,0.046385426074266434,-0.00687719602137804,0.00309856329113245,0,0,-1013,46,-6,1,1,6,-146,0.0,150.0,1500.0
20:29:27.629,GUIDED,-35.3632619,149.1652378,1898,0.03793027997016907,-0.002748615574091673,0.025518562644720078,0.044281087815761566,-0.008103393018245697,0.0035122432745993137,0,-1,-1005,44,-7,2,2,13,-147,0.0,150.0,1500.0
20:29:27.829,GUIDED,-35.3632619,149.1652382,2280,0.04858621209859848,-0.0049956482835114,0.025690395385026932,0.04149714857339859,-0.009705048985779285,0.0038860966451466084,0,-3,-1001,42,-9,3,3,23,-148,0.0,150.0,1500.0
20:29:28.030,GUIDED,-35.3632617,149.165239,2664,0.05844850093126297,-0.007815848104655743,0.025812814012169838,0.038046933710575104,-0.011597804725170135,0.0043855286203324795,3,-6,-999,38,-11,3,5,34,-148,0.0,150.0,1500.0
20:29:28.231,GUIDED,-35.3632617,149.165239,2664,0.05844850093126297,-0.007815848104655743,0.025812814012169838,0.038046933710575104,-0.011597804725170135,0.0043855286203324795,3,-6,-999,38,-11,3,5,34,-148,0.0,150.0,1500.0
20:29:28.431,GUIDED,-35.3632617,149.165239,2664,0.05844850093126297,-0.007815848104655743,0.025812814012169838,0.038046933710575104,-0.011597804725170135,0.0043855286203324795,3,-6,-999,38,-11,3,5,34,-148,0.0,150.0,1500.0
20:29:28.632,GUIDED,-35.3632617,149.165239,2664,0.05844850093126297,-0.007815848104655743,0.025812814012169838,0.038046933710575104,-0.011597804725170135,0.0043855286203324795,3,-6,-999,38,-11,3,5,34,-148,0.0,150.0,1500.0
20:29:28.833,GUIDED,-35.3632611,149.1652428,3799,-0.007987810298800468,0.024755027145147324,-0.054648756980895996,-0.10321468859910965,-0.003425554372370243,-0.06843052059412003,5,-11,-1010,-102,-2,-69,5,53,-145,0.0,150.0,1500.0
20:29:29.034,GUIDED,-35.3632609,149.1652442,4179,-0.02362583391368389,0.021097512915730476,-0.06844215095043182,-0.03601313382387161,-0.014937200583517551,-0.05215611681342125,4,-10,-1009,-35,-14,-53,1,46,-148,0.0,150.0,1500.0
20:29:29.234,GUIDED,-35.3632609,149.1652442,4179,-0.02362583391368389,0.021097512915730476,-0.06844215095043182,-0.03601313382387161,-0.014937200583517551,-0.05215611681342125,4,-10,-1009,-35,-14,-53,1,46,-148,0.0,150.0,1500.0
20:29:29.435,GUIDED,-35.3632609,149.1652453,4561,-0.029634183272719383,0.016476478427648544,-0.07962126284837723,-0.01572154276072979,-0.013088274747133255,-0.04619557410478592,4,-9,-1004,-15,-12,-47,-1,36,-149,0.0,150.0,1500.0
20:29:29.636,GUIDED,-35.3632609,149.1652462,4946,-0.03777795284986496,0.011145439930260181,-0.08744992315769196,-0.05599130317568779,-0.02840011566877365,-0.022927599027752876,4,-6,-999,-55,-28,-23,-3,26,-149,0.0,150.0,1500.0
20:29:29.837,GUIDED,-35.3632609,149.1652467,5332,-0.056173790246248245,0.0021828680764883757,-0.08996523916721344,-0.08012033253908157,-0.03790786489844322,-0.005732179619371891,3,-3,-999,-79,-37,-6,-4,13,-149,0.0,150.0,1500.0
20:29:30.038,GUIDED,-35.363261,149.1652468,5718,-0.0756709948182106,-0.007291977759450674,-0.08856742829084396,-0.07030778378248215,-0.03704110160470009,0.007907879538834095,1,0,-1000,-69,-36,6,-4,-4,-148,0.0,150.0,1500.0
20:29:30.238,GUIDED,-35.363261,149.1652468,5718,-0.0756709948182106,-0.007291977759450674,-0.08856742829084396,-0.07030778378248215,-0.03704110160470009,0.007907879538834095,1,0,-1000,-69,-36,6,-4,-4,-148,0.0,150.0,1500.0
20:29:30.439,GUIDED,-35.363261,149.1652468,5718,-0.0756709948182106,-0.007291977759450674,-0.08856742829084396,-0.07030778378248215,-0.03704110160470009,0.007907879538834095,1,0,-1000,-69,-36,6,-4,-4,-148,0.0,150.0,1500.0
20:29:30.640,GUIDED,-35.363261,149.1652468,5718,-0.0756709948182106,-0.007291977759450674,-0.08856742829084396,-0.07030778378248215,-0.03704110160470009,0.007907879538834095,1,0,-1000,-69,-36,6,-4,-4,-148,0.0,150.0,1500.0
20:29:30.840,GUIDED,-35.3632612,149.1652444,6868,-0.047082383185625076,-0.01064226496964693,-0.09123063832521439,0.06057807803153992,0.006277965847402811,0.0009010846843011677,-5,8,-1001,61,6,0,-1,-52,-149,0.0,150.0,1500.0
20:29:31.041,GUIDED,-35.3632612,149.1652428,7251,-0.03147593513131142,-0.008199133910238743,-0.0916936993598938,0.06336905062198639,0.01215434167534113,0.002556717488914728,-8,11,-1002,63,12,1,0,-60,-149,0.0,150.0,1500.0
20:29:31.242,GUIDED,-35.3632612,149.1652428,7251,-0.03147593513131142,-0.008199133910238743,-0.0916936993598938,0.06336905062198639,0.01215434167534113,0.002556717488914728,-8,11,-1002,63,12,1,0,-60,-149,0.0,150.0,1500.0
20:29:31.443,GUIDED,-35.3632612,149.1652411,7635,-0.015191429294645786,-0.0047662146389484406,-0.0916242003440857,0.06649329513311386,0.015430896542966366,0.0035089696757495403,-6,12,-1003,66,15,2,0,-64,-150,0.0,150.0,1500.0
20:29:31.643,GUIDED,-35.3632613,149.1652393,8022,0.0013911306159570813,-0.0006643637898378074,-0.09111923724412918,0.06616230309009552,0.015974631533026695,0.003605109639465809,-8,11,-1004,66,16,2,-1,-63,-151,0.0,150.0,1500.0
20:29:31.844,GUIDED,-35.3632613,149.1652375,8418,0.018527736887335777,0.0035263991449028254,-0.09022955596446991,0.06631770730018616,0.016711844131350517,0.005315108690410852,-8,13,-1004,66,16,4,-3,-58,-152,0.0,150.0,1500.0
20:29:32.045,GUIDED,-35.3632614,149.165236,8808,0.03492669761180878,0.007149004843086004,-0.08910776674747467,0.06556911021471024,0.013741998933255672,0.005350817460566759,-7,12,-1004,65,13,4,-5,-49,-152,0.0,150.0,1500.0
20:29:32.245,GUIDED,-35.3632614,149.165236,8808,0.03492669761180878,0.007149004843086004,-0.08910776674747467,0.06556911021471024,0.013741998933255672,0.005350817460566759,-7,12,-1004,65,13,4,-5,-49,-152,0.0,150.0,1500.0
20:29:32.446,GUIDED,-35.3632614,149.165236,8808,0.03492669761180878,0.007149004843086004,-0.08910776674747467,0.06556911021471024,0.013741998933255672,0.005350817460566759,-7,12,-1004,65,13,4,-5,-49,-152,0.0,150.0,1500.0
20:29:32.647,GUIDED,-35.3632614,149.165236,8808,0.03492669761180878,0.007149004843086004,-0.08910776674747467,0.06556911021471024,0.013741998933255672,0.005350817460566759,-7,12,-1004,65,13,4,-5,-49,-152,0.0,150.0,1500.0
20:29:32.847,GUIDED,-35.3632619,149.1652335,9982,0.08006659150123596,0.01115227397531271,-0.08546570688486099,0.054752688854932785,-0.0030591569375246763,0.005974069703370333,-1,5,-1000,55,-2,4,-9,-3,-153,0.0,150.0,1500.0
20:29:33.048,GUIDED,-35.3632621,149.1652336,10373,0.07620345801115036,0.004837623797357082,-0.08092758059501648,-0.08366578817367554,-0.029312266036868095,0.020359573885798454,1,0,-989,-83,-29,19,-9,15,-150,0.0,150.0,1500.0
20:29:33.249,GUIDED,-35.3632621,149.1652336,10373,0.07620345801115036,0.004837623797357082,-0.08092758059501648,-0.08366578817367554,-0.029312266036868095,0.020359573885798454,1,0,-989,-83,-29,19,-9,15,-150,0.0,150.0,1500.0
20:29:33.449,GUIDED,-35.3632623,149.1652341,10756,0.04712282866239548,-0.0012499409494921565,-0.07852029800415039,-0.12805965542793274,-0.016851607710123062,0.0055029611103236675,4,-3,-994,-127,-16,4,-7,29,-148,0.0,150.0,1500.0
20:29:33.650,GUIDED,-35.3632624,149.1652349,11136,0.01647592894732952,-0.003778070444241166,-0.08005327731370926,-0.10566587746143341,-0.007613625843077898,-0.009739048779010773,5,-5,-1002,-105,-7,-10,-4,34,-148,0.0,150.0,1500.0
20:29:33.851,GUIDED,-35.3632625,149.1652358,11517,-0.0058009750209748745,-0.004874786362051964,-0.08450736850500107,-0.07491014152765274,-0.0038266596384346485,-0.019699493423104286,3,-7,-1005,-74,-3,-20,-1,32,-149,0.0,150.0,1500.0
20:29:34.052,GUIDED,-35.3632625,149.1652365,11905,-0.01944328099489212,-0.005428673233836889,-0.09117511659860611,-0.04056205973029137,0.000578126055188477,-0.026586048305034637,3,-6,-1005,-40,1,-27,1,26,-150,0.0,150.0,1500.0
20:29:34.253,GUIDED,-35.3632625,149.1652365,11905,-0.01944328099489212,-0.005428673233836889,-0.09117511659860611,-0.04056205973029137,0.000578126055188477,-0.026586048305034637,3,-6,-1005,-40,1,-27,1,26,-150,0.0,150.0,1500.0
20:29:34.453,GUIDED,-35.3632625,149.1652365,11905,-0.01944328099489212,-0.005428673233836889,-0.09117511659860611,-0.04056205973029137,0.000578126055188477,-0.026586048305034637,3,-6,-1005,-40,1,-27,1,26,-150,0.0,150.0,1500.0
20:29:34.654,GUIDED,-35.3632625,149.1652365,11905,-0.01944328099489212,-0.005428673233836889,-0.09117511659860611,-0.04056205973029137,0.000578126055188477,-0.026586048305034637,3,-6,-1005,-40,1,-27,1,26,-150,0.0,150.0,1500.0
20:29:34.855,GUIDED,-35.3632623,149.1652377,13068,-0.023421091958880424,-0.0031752565409988165,-0.11626122891902924,0.018139827996492386,0.005633276421576738,-0.03213042765855789,0,-2,-1001,18,5,-33,5,2,-152,0.0,150.0,1500.0
20:29:35.056,GUIDED,-35.3632622,149.1652376,13459,-0.01734243892133236,-0.0013791320379823446,-0.1243053749203682,0.028044508770108223,0.007377889938652515,-0.028581291437149048,-1,0,-1000,28,7,-29,5,-3,-152,0.0,150.0,1500.0
20:29:35.257,GUIDED,-35.3632622,149.1652376,13459,-0.01734243892133236,-0.0013791320379823446,-0.1243053749203682,0.028044508770108223,0.007377889938652515,-0.028581291437149048,-1,0,-1000,28,7,-29,5,-3,-152,0.0,150.0,1500.0
20:29:35.457,GUIDED,-35.3632621,149.1652375,13849,-0.01087257731705904,0.00018045373144559562,-0.13125000894069672,0.02765938639640808,0.007670219987630844,-0.02817867323756218,-2,0,-1000,28,8,-29,4,-8,-152,0.0,150.0,1500.0
20:29:35.658,GUIDED,-35.363262,149.1652372,14240,-0.0038867290131747723,0.002437173156067729,-0.13786180317401886,0.027372291311621666,0.00965446513146162,-0.024097049608826637,-2,0,-1000,28,10,-24,4,-10,-152,0.0,150.0,1500.0
20:29:35.859,GUIDED,-35.3632618,149.1652369,14632,0.0018114213598892093,0.004335390869528055,-0.14332067966461182,0.01888153702020645,0.006871479097753763,-0.019752344116568565,-2,0,-1000,19,7,-20,3,-11,-153,0.0,150.0,1500.0
20:29:36.060,GUIDED,-35.3632618,149.1652366,15022,0.0063548460602760315,0.006000123918056488,-0.14801225066184998,0.016148675233125687,0.006081602536141872,-0.015851082280278206,-3,1,-1000,16,6,-16,2,-10,-153,0.0,150.0,1500.0
20:29:36.261,GUIDED,-35.3632618,149.1652366,15022,0.0063548460602760315,0.006000123918056488,-0.14801225066184998,0.016148675233125687,0.006081602536141872,-0.015851082280278206,-3,1,-1000,16,6,-16,2,-10,-153,0.0,150.0,1500.0
20:29:36.462,GUIDED,-35.3632618,149.1652366,15022,0.0063548460602760315,0.006000123918056488,-0.14801225066184998,0.016148675233125687,0.006081602536141872,-0.015851082280278206,-3,1,-1000,16,6,-16,2,-10,-153,0.0,150.0,1500.0
20:29:36.663,GUIDED,-35.3632618,149.1652366,15022,0.0063548460602760315,0.006000123918056488,-0.14801225066184998,0.016148675233125687,0.006081602536141872,-0.015851082280278206,-3,1,-1000,16,6,-16,2,-10,-153,0.0,150.0,1500.0
20:29:36.864,GUIDED,-35.3632616,149.1652358,16194,0.012323861941695213,0.007394836284220219,-0.1570781171321869,0.0018007440958172083,0.0008831773302517831,-0.011901971884071827,-1,1,-999,2,1,-12,0,-3,-152,0.0,150.0,1500.0
20:29:37.065,GUIDED,-35.3632616,149.1652357,16584,0.012215923517942429,0.007405858486890793,-0.1595105528831482,-0.0002661286271177232,-0.00033963454188778996,-0.008861246518790722,-1,0,-1000,0,0,-9,-1,-1,-152,0.0,150.0,1500.0
20:29:37.265,GUIDED,-35.3632616,149.1652356,16975,0.011530601419508457,0.0066868895664811134,-0.16147561371326447,-0.003815106116235256,-0.004622651729732752,-0.0063947406597435474,0,0,-1000,-3,-4,-7,-2,0,-152,0.0,150.0,1500.0
20:29:37.466,GUIDED,-35.3632616,149.1652356,16975,0.011530601419508457,0.0066868895664811134,-0.16147561371326447,-0.003815106116235256,-0.004622651729732752,-0.0063947406597435474,0,0,-1000,-3,-4,-7,-2,0,-152,0.0,150.0,1500.0
20:29:37.667,GUIDED,-35.3632616,149.1652356,17364,0.010129819624125957,0.00614137900993228,-0.16398130357265472,-0.006490875966846943,6.487988866865635e-05,-0.010977626778185368,0,0,-999,-6,0,-11,-3,2,-152,0.0,150.0,1500.0
20:29:37.867,GUIDED,-35.3632616,149.1652356,17754,0.008422409184277058,0.0056825000792741776,-0.16673600673675537,-0.007017942611128092,-0.0006823278963565826,-0.011588796973228455,0,0,-1000,-6,0,-12,-3,4,-152,0.0,150.0,1500.0
20:29:38.068,GUIDED,-35.3632616,149.1652356,18144,0.006818183697760105,0.005103368777781725,-0.16972768306732178,-0.0031818861607462168,-0.0015251542208716273,-0.011904245242476463,0,0,-1000,-2,0,-12,-3,5,-152,0.0,150.0,1500.0
20:29:38.269,GUIDED,-35.3632616,149.1652356,18144,0.006818183697760105,0.005103368777781725,-0.16972768306732178,-0.0031818861607462168,-0.0015251542208716273,-0.011904245242476463,0,0,-1000,-2,0,-12,-3,5,-152,0.0,150.0,1500.0
20:29:38.470,GUIDED,-35.3632616,149.1652356,18144,0.006818183697760105,0.005103368777781725,-0.16972768306732178,-0.0031818861607462168,-0.0015251542208716273,-0.011904245242476463,0,0,-1000,-2,0,-12,-3,5,-152,0.0,150.0,1500.0
20:29:38.671,GUIDED,-35.3632616,149.1652356,18144,0.006818183697760105,0.005103368777781725,-0.16972768306732178,-0.0031818861607462168,-0.0015251542208716273,-0.011904245242476463,0,0,-1000,-2,0,-12,-3,5,-152,0.0,150.0,1500.0
20:29:38.872,GUIDED,-35.3632616,149.1652358,19313,0.00404353765770793,0.004277489613741636,-0.18138496577739716,-0.00015592342242598534,0.0003578857867978513,-0.01617339812219143,0,0,-1000,0,1,-17,-3,5,-153,0.0,150.0,1500.0
20:29:39.073,GUIDED,-35.3632616,149.1652359,19702,0.0035405305679887533,0.003845043946057558,-0.18563400208950043,-0.003186093643307686,-0.0015444965101778507,-0.016936786472797394,0,0,-999,-2,-1,-18,-3,5,-153,0.0,150.0,1500.0
20:29:39.273,GUIDED,-35.3632617,149.165236,20092,0.003048886312171817,0.003361400682479143,-0.18996994197368622,-0.004814083222299814,-0.0013112848391756415,-0.018702922388911247,0,0,-1000,-3,0,-19,-3,5,-153,0.0,150.0,1500.0
20:29:39.474,GUIDED,-35.3632617,149.165236,20092,0.003048886312171817,0.003361400682479143,-0.18996994197368622,-0.004814083222299814,-0.0013112848391756415,-0.018702922388911247,0,0,-1000,-3,0,-19,-3,5,-153,0.0,150.0,1500.0
20:29:39.675,GUIDED,-35.3632617,149.1652361,20486,0.0028465783689171076,0.0032768906094133854,-0.19477145373821259,-4.9520807806402445e-05,0.0008609042852185667,-0.01891612447798252,0,0,-1000,0,1,-20,-3,5,-153,0.0,150.0,1500.0
20:29:39.876,GUIDED,-35.3632617,149.1652362,20877,0.0027634729631245136,0.0030577711295336485,-0.19942447543144226,0.0013441706541925669,-0.0007573547773063183,-0.01683954708278179,0,0,-1000,2,0,-17,-3,4,-153,0.0,150.0,1500.0
20:29:40.077,GUIDED,-35.3632617,149.1652362,21267,0.002301902510225773,0.002833128673955798,-0.20419429242610931,-0.0034862980246543884,-3.9086618926376104e-05,-0.019062981009483337,0,0,-1000,-2,0,-20,-2,4,-153,0.0,150.0,1500.0
20:29:40.277,GUIDED,-35.3632617,149.1652362,21267,0.002301902510225773,0.002833128673955798,-0.20419429242610931,-0.0034862980246543884,-3.9086618926376104e-05,-0.019062981009483337,0,0,-1000,-2,0,-20,-2,4,-153,0.0,150.0,1500.0
20:29:40.478,GUIDED,-35.3632617,149.1652362,21267,0.002301902510225773,0.002833128673955798,-0.20419429242610931,-0.0034862980246543884,-3.9086618926376104e-05,-0.019062981009483337,0,0,-1000,-2,0,-20,-2,4,-153,0.0,150.0,1500.0
20:29:40.679,GUIDED,-35.3632617,149.1652362,21267,0.002301902510225773,0.002833128673955798,-0.20419429242610931,-0.0034862980246543884,-3.9086618926376104e-05,-0.019062981009483337,0,0,-1000,-2,0,-20,-2,4,-153,0.0,150.0,1500.0
20:29:40.880,GUIDED,-35.3632618,149.1652364,22434,0.0026583585422486067,0.003164478577673435,-0.2193961888551712,0.000250559882260859,0.0037856879644095898,-0.021446416154503822,0,0,-1000,1,3,-22,-2,3,-153,0.0,150.0,1500.0
20:29:41.080,GUIDED,-35.3632618,149.1652364,22824,0.002725912956520915,0.003498079953715205,-0.2246973216533661,-0.0004500261857174337,0.00036728609120473266,-0.020695818588137627,0,0,-1000,0,1,-21,-2,3,-153,0.0,150.0,1500.0
20:29:41.281,GUIDED,-35.3632618,149.1652365,23214,0.002695470117032528,0.0032956425566226244,-0.2296908050775528,0.00016973394667729735,-0.001794670126400888,-0.01971420831978321,0,0,-1000,0,-1,-20,-2,3,-153,0.0,150.0,1500.0
20:29:41.482,GUIDED,-35.3632618,149.1652365,23214,0.002695470117032528,0.0032956425566226244,-0.2296908050775528,0.00016973394667729735,-0.001794670126400888,-0.01971420831978321,0,0,-1000,0,-1,-20,-2,3,-153,0.0,150.0,1500.0
20:29:41.682,GUIDED,-35.3632618,149.1652365,23604,0.0024673370644450188,0.0029014600440859795,-0.2344965785741806,-0.0026591578498482704,-0.00030638164025731385,-0.021020440384745598,0,0,-999,-2,0,-21,-2,3,-153,0.0,150.0,1500.0
20:29:41.883,GUIDED,-35.3632618,149.1652366,23993,0.002692372305318713,0.0029112640768289566,-0.2394094467163086,0.0022877920418977737,0.00019144872203469276,-0.019711455330252647,0,0,-1000,3,0,-20,-2,3,-153,0.0,150.0,1500.0
20:29:42.084,GUIDED,-35.3632618,149.1652366,24383,0.002613701391965151,0.002948682988062501,-0.24436305463314056,0.000766236160416156,0.001223660772666335,-0.018650660291314125,0,0,-1000,1,1,-19,-2,3,-153,0.0,150.0,1500.0
20:29:42.285,GUIDED,-35.3632618,149.1652366,24383,0.002613701391965151,0.002948682988062501,-0.24436305463314056,0.000766236160416156,0.001223660772666335,-0.018650660291314125,0,0,-1000,1,1,-19,-2,3,-153,0.0,150.0,1500.0
20:29:42.486,GUIDED,-35.3632618,149.1652366,24383,0.002613701391965151,0.002948682988062501,-0.24436305463314056,0.000766236160416156,0.001223660772666335,-0.018650660291314125,0,0,-1000,1,1,-19,-2,3,-153,0.0,150.0,1500.0
20:29:42.687,GUIDED,-35.3632618,149.1652366,24383,0.002613701391965151,0.002948682988062501,-0.24436305463314056,0.000766236160416156,0.001223660772666335,-0.018650660291314125,0,0,-1000,1,1,-19,-2,3,-153,0.0,150.0,1500.0
20:29:42.887,GUIDED,-35.3632619,149.1652366,25551,-0.012721466831862926,0.002690837485715747,-0.2566238343715668,0.014810851775109768,0.005306644830852747,-0.007110115606337786,0,0,-1004,15,5,-7,-3,0,-152,0.0,150.0,1500.0
20:29:43.088,GUIDED,-35.363262,149.1652366,25940,-0.004133598413318396,0.004019960295408964,-0.2565848231315613,0.03915129229426384,0.004049514885991812,0.005113590508699417,0,0,-1002,40,4,4,-4,-2,-153,0.0,150.0,1500.0
20:29:43.289,GUIDED,-35.363262,149.1652365,26329,0.004959250334650278,0.004669777117669582,-0.2537473142147064,0.029740016907453537,-0.0006924545159563422,0.016928452998399734,0,0,-1000,30,0,16,-4,-2,-153,0.0,150.0,1500.0
20:29:43.489,GUIDED,-35.363262,149.1652365,26329,0.004959250334650278,0.004669777117669582,-0.2537473142147064,0.029740016907453537,-0.0006924545159563422,0.016928452998399734,0,0,-1000,30,0,16,-4,-2,-153,0.0,150.0,1500.0
20:29:43.690,GUIDED,-35.3632621,149.1652364,26719,0.010527849197387695,0.004163461737334728,-0.24886928498744965,0.019066741690039635,-0.0014200685545802116,0.021475961431860924,0,1,-1000,20,0,20,-4,-1,-153,0.0,150.0,1500.0
20:29:43.891,GUIDED,-35.3632622,149.1652364,27110,0.013050269335508347,0.0037256265059113503,-0.24280455708503723,0.005716471467167139,-0.0011948059545829892,0.026094762608408928,0,0,-999,6,0,25,-4,1,-153,0.0,150.0,1500.0
20:29:44.091,GUIDED,-35.3632623,149.1652364,27499,0.013148324564099312,0.003071185667067766,-0.23652707040309906,-0.004141645506024361,-0.0018269651336595416,0.025009742006659508,0,0,-999,-3,-1,24,-3,4,-153,0.0,150.0,1500.0
20:29:44.292,GUIDED,-35.3632623,149.1652364,27499,0.013148324564099312,0.003071185667067766,-0.23652707040309906,-0.004141645506024361,-0.0018269651336595416,0.025009742006659508,0,0,-999,-3,-1,24,-3,4,-153,0.0,150.0,1500.0
20:29:44.494,GUIDED,-35.3632623,149.1652364,27499,0.013148324564099312,0.003071185667067766,-0.23652707040309906,-0.004141645506024361,-0.0018269651336595416,0.025009742006659508,0,0,-999,-3,-1,24,-3,4,-153,0.0,150.0,1500.0
20:29:44.696,GUIDED,-35.3632623,149.1652364,27499,0.013148324564099312,0.003071185667067766,-0.23652707040309906,-0.004141645506024361,-0.0018269651336595416,0.025009742006659508,0,0,-999,-3,-1,24,-3,4,-153,0.0,150.0,1500.0
20:29:44.896,GUIDED,-35.3632623,149.1652367,28664,0.007102572824805975,0.0020096374209970236,-0.21887335181236267,-0.007335471920669079,0.0022014654241502285,0.02174481749534607,0,-1,-1000,-6,2,21,-1,9,-152,0.0,150.0,1500.0
20:29:45.097,GUIDED,-35.3632623,149.1652369,29052,0.004992351867258549,0.002287082141265273,-0.21343278884887695,-0.007004932500422001,0.0004766535712406039,0.024179618805646896,0,-1,-1000,-6,1,23,-1,9,-152,0.0,150.0,1500.0
20:29:45.298,GUIDED,-35.3632623,149.1652371,29439,0.003301135962828994,0.002067460911348462,-0.20805934071540833,-0.007068694103509188,-0.0012471780646592379,0.0225899126380682,0,-1,-1000,-5,0,21,0,9,-152,0.0,150.0,1500.0
20:29:45.498,GUIDED,-35.3632623,149.1652371,29439,0.003301135962828994,0.002067460911348462,-0.20805934071540833,-0.007068694103509188,-0.0012471780646592379,0.0225899126380682,0,-1,-1000,-5,0,21,0,9,-152,0.0,150.0,1500.0
20:29:45.699,GUIDED,-35.3632623,149.1652373,29832,0.001889353385195136,0.0018562438199296594,-0.20272795855998993,-0.0027319069486111403,0.00022020167671144009,0.02185569703578949,0,-1,-1000,-1,0,21,0,9,-152,0.0,150.0,1500.0
20:29:45.900,GUIDED,-35.3632623,149.1652375,30220,0.0005696032312698662,0.0017993692308664322,-0.19758962094783783,-0.005993884056806564,0.0014256814029067755,0.02208792418241501,1,-1,-1000,-5,1,21,0,8,-153,0.0,150.0,1500.0
20:29:46.100,GUIDED,-35.3632623,149.1652376,30607,-0.0002167635248042643,0.0018679405329748988,-0.19277091324329376,-0.00242422497831285,-0.001860442222096026,0.017581108957529068,0,-1,-1001,-1,-1,16,0,7,-153,0.0,150.0,1500.0
20:29:46.301,GUIDED,-35.3632623,149.1652376,30607,-0.0002167635248042643,0.0018679405329748988,-0.19277091324329376,-0.00242422497831285,-0.001860442222096026,0.017581108957529068,0,-1,-1001,-1,-1,16,0,7,-153,0.0,150.0,1500.0
20:29:46.502,GUIDED,-35.3632623,149.1652376,30607,-0.0002167635248042643,0.0018679405329748988,-0.19277091324329376,-0.00242422497831285,-0.001860442222096026,0.017581108957529068,0,-1,-1001,-1,-1,16,0,7,-153,0.0,150.0,1500.0
20:29:46.703,GUIDED,-35.3632623,149.1652376,30607,-0.0002167635248042643,0.0018679405329748988,-0.19277091324329376,-0.00242422497831285,-0.001860442222096026,0.017581108957529068,0,-1,-1001,-1,-1,16,0,7,-153,0.0,150.0,1500.0
20:29:46.904,GUIDED,-35.3632623,149.165238,31773,-0.0009351137559860945,0.0012625977396965027,-0.17976824939250946,0.0031901018228381872,-1.8666847608983517e-05,0.016536006703972816,0,0,-1001,4,0,16,0,4,-153,0.0,150.0,1500.0
20:29:47.105,GUIDED,-35.3632623,149.165238,32169,-0.0006246318807825446,0.001286772545427084,-0.17557021975517273,-0.0017996998503804207,-0.0007344086188822985,0.015396873466670513,0,0,-1000,-1,0,14,0,3,-153,0.0,150.0,1500.0
20:29:47.306,GUIDED,-35.3632623,149.165238,32559,-0.0003594410081859678,0.0011332528665661812,-0.17161652445793152,-0.0004708802152890712,-0.0003713045734912157,0.017001217231154442,0,0,-999,0,0,16,0,2,-153,0.0,150.0,1500.0
20:29:47.506,GUIDED,-35.3632623,149.165238,32559,-0.0003594410081859678,0.0011332528665661812,-0.17161652445793152,-0.0004708802152890712,-0.0003713045734912157,0.017001217231154442,0,0,-999,0,0,16,0,2,-153,0.0,150.0,1500.0
20:29:47.707,GUIDED,-35.3632623,149.165238,32948,0.0002418431977275759,0.0010848117526620626,-0.16788452863693237,0.006348969414830208,0.001995248254388571,0.01611906662583351,0,0,-1000,7,2,15,0,1,-153,0.0,150.0,1500.0
20:29:47.908,GUIDED,-35.3632623,149.165238,33337,0.0008224975317716599,0.001355295768007636,-0.1640612632036209,-0.0012806541053578258,0.0020291577093303204,0.01499986182898283,0,0,-999,0,2,14,0,1,-153,0.0,150.0,1500.0
20:29:48.109,GUIDED,-35.3632623,149.165238,33726,0.001324634300544858,0.0015479207504540682,-0.16059820353984833,0.0023463815450668335,0.001061106682755053,0.016952190548181534,0,0,-1000,3,1,16,0,0,-153,0.0,150.0,1500.0
20:29:48.309,GUIDED,-35.3632623,149.165238,33726,0.001324634300544858,0.0015479207504540682,-0.16059820353984833,0.0023463815450668335,0.001061106682755053,0.016952190548181534,0,0,-1000,3,1,16,0,0,-153,0.0,150.0,1500.0
20:29:48.510,GUIDED,-35.3632623,149.165238,33726,0.001324634300544858,0.0015479207504540682,-0.16059820353984833,0.0023463815450668335,0.001061106682755053,0.016952190548181534,0,0,-1000,3,1,16,0,0,-153,0.0,150.0,1500.0
20:29:48.712,GUIDED,-35.3632623,149.165238,33726,0.001324634300544858,0.0015479207504540682,-0.16059820353984833,0.0023463815450668335,0.001061106682755053,0.016952190548181534,0,0,-1000,3,1,16,0,0,-153,0.0,150.0,1500.0
20:29:48.913,GUIDED,-35.3632623,149.165238,34885,0.0018024087185040116,0.0011639336589723825,-0.15060441195964813,0.003174956887960434,-0.00024781801039353013,0.012493211776018143,0,0,-1001,4,0,11,0,0,-153,0.0,150.0,1500.0
20:29:49.113,GUIDED,-35.3632622,149.165238,35274,0.0017755265580490232,0.0012156858574599028,-0.14760687947273254,-1.3835262507200241e-05,0.001436765887774527,0.012895909138023853,0,0,-999,1,2,12,0,0,-153,0.0,150.0,1500.0
20:29:49.314,GUIDED,-35.3632622,149.1652379,35662,0.0016880439361557364,0.0011399034410715103,-0.1447053700685501,-0.003097615670412779,-0.0011500611435621977,0.011933638714253902,0,0,-1000,-2,0,11,0,0,-153,0.0,150.0,1500.0
20:29:49.515,GUIDED,-35.3632622,149.1652379,36051,0.0016505419043824077,0.000973063986748457,-0.14192184805870056,0.0028774370439350605,0.0008803209057077765,0.01182494405657053,0,0,-1000,-2,0,11,0,0,-153,0.0,150.0,1500.0
20:29:49.716,GUIDED,-35.3632622,149.1652379,36051,0.0016505419043824077,0.000973063986748457,-0.14192184805870056,0.0028774370439350605,0.0008803209057077765,0.01182494405657053,0,0,-1000,3,1,11,0,0,-153,0.0,150.0,1500.0
20:29:49.917,GUIDED,-35.3632622,149.1652379,36440,0.001849937834776938,0.0009752634214237332,-0.1391981989145279,0.0029642528388649225,0.0003145595546811819,0.013142659328877926,0,0,-1000,3,1,12,0,0,-153,0.0,150.0,1500.0
20:29:50.118,GUIDED,-35.3632622,149.1652378,36838,0.0019976398907601833,0.0009075865964405239,-0.13637052476406097,0.0017304741777479649,0.0003503854386508465,0.013939018361270428,0,0,-999,2,1,13,0,0,-153,0.0,150.0,1500.0
20:29:50.318,GUIDED,-35.3632622,149.1652378,36838,0.0019976398907601833,0.0009075865964405239,-0.13637052476406097,0.0017304741777479649,0.0003503854386508465,0.013939018361270428,0,0,-999,2,1,13,0,0,-153,0.0,150.0,1500.0
20:29:50.519,GUIDED,-35.3632622,149.1652378,36838,0.0019976398907601833,0.0009075865964405239,-0.13637052476406097,0.0017304741777479649,0.0003503854386508465,0.013939018361270428,0,0,-999,2,1,13,0,0,-153,0.0,150.0,1500.0
20:29:50.720,GUIDED,-35.3632622,149.1652378,36838,0.0019976398907601833,0.0009075865964405239,-0.13637052476406097,0.0017304741777479649,0.0003503854386508465,0.013939018361270428,0,0,-999,2,1,13,0,0,-153,0.0,150.0,1500.0
20:29:50.922,GUIDED,-35.3632622,149.1652377,37995,0.0027865429874509573,0.0015408102190122008,-0.12894460558891296,0.0015140664763748646,0.0013503660447895527,0.011265144683420658,0,0,-1000,2,2,11,0,0,-153,0.0,150.0,1500.0
20:29:51.122,GUIDED,-35.3632622,149.1652376,38384,0.002904298948124051,0.0014362719375640154,-0.1267249435186386,0.003822898492217064,-0.0012092342367395759,0.009067828767001629,0,0,-1001,4,0,8,0,0,-153,0.0,150.0,1500.0
20:29:51.323,GUIDED,-35.3632621,149.1652376,38773,0.0028582566883414984,0.0012684985995292664,-0.1245749443769455,-0.0011049994500353932,0.0008842194802127779,0.010778231546282768,0,0,-1000,0,1,10,0,0,-153,0.0,150.0,1500.0
20:29:51.524,GUIDED,-35.3632621,149.1652376,39161,0.0026521063409745693,0.0016608155565336347,-0.12244603037834167,-0.0015615655574947596,0.0022098510526120663,0.009525834582746029,0,0,-999,0,2,9,0,0,-153,0.0,150.0,1500.0
20:29:51.724,GUIDED,-35.3632621,149.1652376,39161,0.0026521063409745693,0.0016608155565336347,-0.12244603037834167,-0.0015615655574947596,0.0022098510526120663,0.009525834582746029,0,0,-999,0,2,9,0,0,-153,0.0,150.0,1500.0
20:29:51.925,GUIDED,-35.3632621,149.1652375,39550,0.002533531282097101,0.001470806892029941,-0.12020116299390793,-0.00021051883231848478,-0.0009578930330462754,0.00957974512130022,0,0,-1000,0,0,9,0,0,-153,0.0,150.0,1500.0
20:29:52.126,GUIDED,-35.3632621,149.1652375,39939,0.0025241547264158726,0.0015004860470071435,-0.11834017932415009,-0.0003109067911282182,2.696458250284195e-05,0.006496970076113939,0,0,-1000,0,0,6,0,0,-153,0.0,150.0,1500.0
20:29:52.326,GUIDED,-35.3632621,149.1652375,39939,0.0025241547264158726,0.0015004860470071435,-0.11834017932415009,-0.0003109067911282182,2.696458250284195e-05,0.006496970076113939,0,0,-1000,0,0,6,0,0,-153,0.0,150.0,1500.0
20:29:52.527,GUIDED,-35.3632621,149.1652375,39939,0.0025241547264158726,0.0015004860470071435,-0.11834017932415009,-0.0003109067911282182,2.696458250284195e-05,0.006496970076113939,0,0,-1000,0,0,6,0,0,-153,0.0,150.0,1500.0
20:29:52.728,GUIDED,-35.3632621,149.1652375,39939,0.0025241547264158726,0.0015004860470071435,-0.11834017932415009,-0.0003109067911282182,2.696458250284195e-05,0.006496970076113939,0,0,-1000,0,0,6,0,0,-153,0.0,150.0,1500.0
20:29:52.929,GUIDED,-35.3632621,149.1652375,41104,0.0021154882851988077,0.0013201102847233415,-0.11282657831907272,-0.00037563504884019494,-0.000573460478335619,0.010636716149747372,0,0,-1000,0,0,10,0,0,-153,0.0,150.0,1500.0
20:29:53.130,GUIDED,-35.3632621,149.1652375,41501,0.0022767221089452505,0.0011619407450780272,-0.11107464134693146,0.0038024107925593853,-0.00011400599032640457,0.009660529904067516,0,0,-1000,4,1,9,-1,0,-153,0.0,150.0,1500.0
20:29:53.330,GUIDED,-35.3632621,149.1652374,41890,0.002346527297049761,0.0011358442716300488,-0.10919949412345886,0.0031528237741440535,0.0005807843408547342,0.009009751491248608,0,0,-1000,3,1,9,-1,0,-153,0.0,150.0,1500.0
20:29:53.531,GUIDED,-35.3632621,149.1652374,42279,0.0024024059530347586,0.0011713458225131035,-0.1075151190161705,-0.001756927464157343,0.0007623665733262897,0.008179857395589352,0,0,-999,-1,1,8,0,0,-153,0.0,150.0,1500.0
20:29:53.731,GUIDED,-35.3632621,149.1652374,42279,0.0024024059530347586,0.0011713458225131035,-0.1075151190161705,-0.001756927464157343,0.0007623665733262897,0.008179857395589352,0,0,-999,-1,1,8,0,0,-153,0.0,150.0,1500.0
20:29:53.932,GUIDED,-35.3632621,149.1652374,42667,0.002397798001766205,0.001296505331993103,-0.10605771094560623,-0.0008540066191926599,0.0017823288217186928,0.00711009930819273,0,0,-1000,0,2,7,0,0,-153,0.0,150.0,1500.0
20:29:54.133,GUIDED,-35.3632621,149.1652374,43057,0.0023822467774152756,0.0013572422321885824,-0.10435844957828522,0.003196993377059698,0.0007255716482177377,0.009256556630134583,0,0,-1000,4,1,9,-1,0,-153,0.0,150.0,1500.0
20:29:54.333,GUIDED,-35.3632621,149.1652374,43057,0.0023822467774152756,0.0013572422321885824,-0.10435844957828522,0.003196993377059698,0.0007255716482177377,0.009256556630134583,0,0,-1000,4,1,9,-1,0,-153,0.0,90.0,1500.0
20:29:54.534,GUIDED,-35.3632621,149.1652374,43057,0.0023822467774152756,0.0013572422321885824,-0.10435844957828522,0.003196993377059698,0.0007255716482177377,0.009256556630134583,0,0,-1000,4,1,9,-1,0,-153,0.0,90.0,1500.0
20:29:54.737,GUIDED,-35.3632621,149.1652374,43057,0.0023822467774152756,0.0013572422321885824,-0.10435844957828522,0.003196993377059698,0.0007255716482177377,0.009256556630134583,0,0,-1000,4,1,9,-1,0,-153,0.0,90.0,1500.0
20:29:54.938,GUIDED,-35.363262,149.1652374,44222,0.002342561259865761,0.0014896341599524021,-0.09971236437559128,0.0012600547634065151,0.0002989766653627157,0.008559554815292358,0,0,-1000,2,0,8,-1,1,-153,0.0,90.0,1500.0
20:29:55.678,GUIDED,-35.363262,149.1652373,44611,0.002310797804966569,0.0013206799048930407,-0.0980587974190712,-0.0019308144692331553,0.0001834261347539723,0.007480590604245663,0,0,-1000,0,1,7,-1,1,-153,0.0,90.0,1500.0
20:29:55.879,GUIDED,-35.363262,149.1652373,44999,0.00236533279530704,0.0012151009868830442,-0.09652503579854965,0.0017403624951839447,-0.001832453766837716,0.006314861588180065,0,0,-1001,2,0,6,-1,1,-153,0.0,90.0,1500.0
20:29:56.080,GUIDED,-35.363262,149.1652373,45388,0.002252268372103572,0.0011034993221983314,-0.09512042254209518,-0.0032240310683846474,0.0010970153380185366,0.006533719599246979,0,0,-999,-2,2,6,-1,1,-153,0.0,90.0,1500.0
20:29:56.281,GUIDED,-35.363262,149.1652373,45388,0.002252268372103572,0.0011034993221983314,-0.09512042254209518,-0.0032240310683846474,0.0010970153380185366,0.006533719599246979,0,0,-999,-2,2,6,-1,1,-153,0.0,90.0,1500.0
20:29:56.482,GUIDED,-35.363262,149.1652373,45777,0.002243406604975462,0.001122902031056583,-0.09375464171171188,-0.0006061870371922851,0.00044881197391077876,0.007592414505779743,0,0,-999,0,1,7,-1,1,-153,0.0,90.0,1500.0
20:29:56.683,GUIDED,-35.363262,149.1652373,46169,0.0021366451401263475,0.0012063116300851107,-0.09235349297523499,0.00037335039814934134,0.0018383574206382036,0.007505050860345364,0,0,-999,1,2,7,-1,1,-153,0.0,90.0,1500.0
20:29:56.884,GUIDED,-35.363262,149.1652373,46169,0.0021366451401263475,0.0012063116300851107,-0.09235349297523499,0.00037335039814934134,0.0018383574206382036,0.007505050860345364,0,0,-999,1,2,7,-1,1,-153,0.0,90.0,1500.0
20:29:57.084,GUIDED,-35.363262,149.1652373,46169,0.0021366451401263475,0.0012063116300851107,-0.09235349297523499,0.00037335039814934134,0.0018383574206382036,0.007505050860345364,0,0,-999,1,2,7,-1,1,-153,0.0,90.0,1500.0
20:29:57.285,GUIDED,-35.363262,149.1652373,46169,0.0021366451401263475,0.0012063116300851107,-0.09235349297523499,0.00037335039814934134,0.0018383574206382036,0.007505050860345364,0,0,-999,1,2,7,-1,1,-153,0.0,90.0,1500.0
20:29:57.487,GUIDED,-35.363262,149.1652373,47331,0.0019476022571325302,0.0010128807043656707,-0.08809148520231247,0.0024792293552309275,0.003637908725067973,0.007532127667218447,0,0,-1000,3,4,7,-1,1,-153,0.0,90.0,1500.0
20:29:57.688,GUIDED,-35.363262,149.1652373,47719,0.0019236524822190404,0.0011107163736596704,-0.08689405024051666,-0.0014400254003703594,0.0009707230492495,0.005174112971872091,0,0,-1000,0,2,5,-1,1,-153,0.0,90.0,1500.0
20:29:57.889,GUIDED,-35.363262,149.1652373,48109,0.0019218913512304425,0.001001077238470316,-0.0855293869972229,0.0008403254905715585,-0.0009890255751088262,0.010319226421415806,0,0,-1000,1,0,10,-1,1,-153,90.0,90.0,1500.0
20:29:58.089,GUIDED,-35.363262,149.1652373,48497,0.0019115048926323652,0.0009541024337522686,-0.08421222120523453,-0.00020761432824656367,0.00030333874747157097,0.004185790196061134,0,0,-1000,0,1,4,-1,1,-153,90.0,90.0,1500.0
20:29:58.290,GUIDED,-35.363262,149.1652373,48497,0.0019115048926323652,0.0009541024337522686,-0.08421222120523453,-0.00020761432824656367,0.00030333874747157097,0.004185790196061134,0,0,-1000,0,1,4,-1,1,-153,90.0,90.0,1500.0
20:29:58.491,GUIDED,-35.363262,149.1652373,48886,0.002044645370915532,0.0012138240272179246,-0.08297748863697052,-9.005959145724773e-05,0.0025687047746032476,0.00666818767786026,0,0,-1000,0,3,6,-1,1,-153,90.0,90.0,1500.0
20:29:58.692,GUIDED,-35.363262,149.1652373,49275,0.001969315344467759,0.0011141587747260928,-0.08198907226324081,0.003570272121578455,-0.001380442874506116,0.004014836624264717,0,0,-1001,4,0,4,-1,1,-153,90.0,90.0,1500.0
20:29:58.894,GUIDED,-35.363262,149.1652373,49275,0.001969315344467759,0.0011141587747260928,-0.08198907226324081,0.003570272121578455,-0.001380442874506116,0.004014836624264717,0,0,-1001,4,0,4,-1,1,-153,90.0,90.0,1500.0
20:29:59.094,GUIDED,-35.363262,149.1652373,49275,0.001969315344467759,0.0011141587747260928,-0.08198907226324081,0.003570272121578455,-0.001380442874506116,0.004014836624264717,0,0,-1001,4,0,4,-1,1,-153,90.0,90.0,1500.0
20:29:59.295,GUIDED,-35.363262,149.1652373,49275,0.001969315344467759,0.0011141587747260928,-0.08198907226324081,0.003570272121578455,-0.001380442874506116,0.004014836624264717,0,0,-1001,4,0,4,-1,1,-153,90.0,90.0,1500.0
20:29:59.496,GUIDED,-35.363262,149.1652373,50440,0.0024717114865779877,0.001199417165480554,-0.07794534415006638,0.004568465519696474,0.0017991233617067337,0.007148128934204578,0,0,-1000,5,2,7,-1,1,-153,90.0,90.0,1500.0
20:29:59.697,GUIDED,-35.363262,149.1652373,50832,0.0025887535884976387,0.0011756450403481722,-0.07650863379240036,-0.0018117395229637623,-0.0003142483183182776,0.00435462174937129,0,0,-1000,0,0,4,-1,1,-153,90.0,90.0,1500.0
20:29:59.898,GUIDED,-35.363262,149.1652373,51220,0.00281875510700047,0.0011415596818551421,-0.07524185627698898,0.0014497896190732718,-0.002032472752034664,0.00720106391236186,0,0,-1001,2,-1,7,-1,1,-153,90.0,90.0,1500.0
20:30:00.098,GUIDED,-35.363262,149.1652372,51609,0.002856349339708686,0.0009387939935550094,-0.07409483194351196,0.003236584598198533,0.0005105217569507658,0.006118005607277155,0,0,-1000,4,1,6,-1,1,-153,90.0,90.0,1500.0
20:30:00.299,GUIDED,-35.363262,149.1652372,51609,0.002856349339708686,0.0009387939935550094,-0.07409483194351196,0.003236584598198533,0.0005105217569507658,0.006118005607277155,0,0,-1000,4,1,6,-1,1,-153,90.0,90.0,1500.0
20:30:00.500,GUIDED,-35.363262,149.1652372,51998,0.002805839292705059,0.0010176083305850625,-0.07316301763057709,-0.0011358186602592468,0.00024348817532882094,0.00501031382009387,0,0,-1000,0,1,5,-1,1,-153,90.0,90.0,1500.0
20:30:00.700,GUIDED,-35.363262,149.1652372,52386,0.002654930343851447,0.0010385153582319617,-0.07201778888702393,-0.0005890447646379471,7.348833605647087e-06,0.0064997379668056965,0,0,-1000,0,1,6,-1,1,-153,90.0,90.0,1500.0
20:30:00.902,LAND,-35.363262,149.1652372,52386,0.002654930343851447,0.0010385153582319617,-0.07201778888702393,-0.0005890447646379471,7.348833605647087e-06,0.0064997379668056965,0,0,-1000,0,1,6,-1,1,-153,90.0,90.0,1500.0
20:30:01.103,LAND,-35.363262,149.1652372,52386,0.002654930343851447,0.0010385153582319617,-0.07201778888702393,-0.0005890447646379471,7.348833605647087e-06,0.0064997379668056965,0,0,-1000,0,1,6,-1,1,-153,90.0,90.0,1500.0
20:30:01.303,LAND,-35.363262,149.1652372,52386,0.002654930343851447,0.0010385153582319617,-0.07201778888702393,-0.0005890447646379471,7.348833605647087e-06,0.0064997379668056965,0,0,-1000,0,1,6,-1,1,-153,90.0,90.0,1500.0
20:30:01.504,LAND,-35.363262,149.1652372,53549,0.0021921047009527683,0.0009589068358764052,-0.06873667985200882,0.001691661891527474,0.0027690711431205273,0.004294697195291519,0,0,-1000,2,3,4,-1,1,-153,90.0,90.0,1500.0
20:30:01.706,LAND,-35.363262,149.1652372,53938,0.002248713979497552,0.0011193195823580027,-0.06777841597795486,-0.00030785397393628955,0.00011685502249747515,0.004732427187263966,0,0,-1000,0,1,4,-1,1,-153,90.0,90.0,1500.0
20:30:01.907,LAND,-35.363262,149.1652372,54324,-0.004832313861697912,0.007194493431597948,-0.053519558161497116,-0.09568334370851517,0.08653594553470612,0.18880024552345276,-1,-1,-961,-94,87,189,-1,1,-149,90.0,90.0,1500.0
20:30:02.108,LAND,-35.363262,149.1652372,54689,-0.04253605008125305,0.04857267439365387,0.04365246742963791,-0.20125102996826172,0.18361301720142365,0.5759722590446472,0,-1,-952,-199,184,576,-7,-4,-137,220.0,90.0,1500.0
20:30:02.309,LAND,-35.3632623,149.1652368,55020,-0.06706714630126953,0.078731968998909,0.18881383538246155,-0.02376484125852585,-0.07092852890491486,0.4670751392841339,0,-1,-952,-199,184,576,-21,-20,-119,220.0,90.0,1500.0
20:30:02.511,LAND,-35.3632623,149.1652368,55020,-0.06706714630126953,0.078731968998909,0.18881383538246155,-0.02376484125852585,-0.07092852890491486,0.4670751392841339,2,4,-907,-22,-69,467,-21,-20,-119,220.0,90.0,1500.0
20:30:02.711,LAND,-35.3632629,149.1652361,55295,-0.046697597950696945,0.03647413104772568,0.27836495637893677,0.11195645481348038,-0.23657740652561188,0.2573726773262024,4,7,-906,113,-235,257,-30,-34,-95,220.0,90.0,1500.0
20:30:02.912,LAND,-35.3632629,149.1652361,55295,-0.046697597950696945,0.03647413104772568,0.27836495637893677,0.11195645481348038,-0.23657740652561188,0.2573726773262024,4,7,-906,113,-235,257,-30,-34,-95,220.0,90.0,1500.0
20:30:03.114,LAND,-35.3632629,149.1652361,55295,-0.046697597950696945,0.03647413104772568,0.27836495637893677,0.11195645481348038,-0.23657740652561188,0.2573726773262024,4,7,-906,113,-235,257,-30,-34,-95,220.0,90.0,1500.0
20:30:03.316,LAND,-35.3632629,149.1652361,55295,-0.046697597950696945,0.03647413104772568,0.27836495637893677,0.11195645481348038,-0.23657740652561188,0.2573726773262024,4,7,-906,113,-235,257,-30,-34,-95,220.0,90.0,1500.0
20:30:03.518,LAND,-35.3632645,149.1652331,55779,0.026429757475852966,-0.05711137875914574,0.3503144383430481,0.1378183811903,-0.027389485388994217,0.008434051647782326,2,5,-929,138,-26,8,-12,-26,-33,220.0,90.0,1500.0
20:30:03.718,LAND,-35.3632647,149.1652325,55843,0.030990811064839363,-0.05803101137280464,0.3475291132926941,-0.3731083273887634,0.0124278012663126,-0.019033879041671753,0,-13,-935,-372,13,-18,-3,-14,-16,220.0,90.0,1500.0
20:30:03.919,LAND,-35.3632646,149.1652322,55863,0.03354979306459427,-0.051470592617988586,0.34012502431869507,-0.11827527731657028,0.039541181176900864,-0.0326787494122982,-1,15,-905,-115,40,-32,5,-1,2,220.0,90.0,1500.0
20:30:04.119,LAND,-35.3632645,149.1652323,55835,0.03931478410959244,-0.04136629402637482,0.3304673135280609,0.2966107130050659,0.04474366083741188,-0.03386199474334717,-3,34,-937,299,45,-33,11,10,18,220.0,90.0,1500.0
20:30:04.320,LAND,-35.3632642,149.1652326,55777,0.039090100675821304,-0.029979510232806206,0.3203572928905487,0.7465147972106934,0.04485584422945976,-0.03326799347996712,0,52,-963,749,45,-32,16,20,26,220.0,90.0,1500.0
20:30:04.521,LAND,-35.3632642,149.1652326,55777,0.039090100675821304,-0.029979510232806206,0.3203572928905487,0.7465147972106934,0.04485584422945976,-0.03326799347996712,0,52,-963,749,45,-32,16,20,26,220.0,90.0,1500.0
20:30:04.722,LAND,-35.3632638,149.1652331,55690,0.038490038365125656,-0.01759837567806244,0.3095608353614807,0.9810404777526855,0.035836361348629,-0.03755980730056763,-4,40,-1003,983,36,-37,19,26,35,220.0,90.0,1500.0
20:30:04.922,LAND,-35.3632638,149.1652331,55690,0.038490038365125656,-0.01759837567806244,0.3095608353614807,0.9810404777526855,0.035836361348629,-0.03755980730056763,-4,40,-1003,983,36,-37,19,26,35,220.0,90.0,1500.0
20:30:05.123,LAND,-35.3632638,149.1652331,55690,0.038490038365125656,-0.01759837567806244,0.3095608353614807,0.9810404777526855,0.035836361348629,-0.03755980730056763,-4,40,-1003,983,36,-37,19,26,35,220.0,90.0,1500.0
20:30:05.324,LAND,-35.3632638,149.1652331,55690,0.038490038365125656,-0.01759837567806244,0.3095608353614807,0.9810404777526855,0.035836361348629,-0.03755980730056763,-4,40,-1003,983,36,-37,19,26,35,220.0,90.0,1500.0
20:30:05.526,LAND,-35.3632624,149.1652355,55301,0.024022702127695084,0.008007071912288666,0.2819097340106964,0.8062558174133301,0.01838349550962448,-0.03484887629747391,-1,5,-953,805,19,-34,18,30,66,220.0,90.0,1500.0
20:30:05.727,LAND,-35.363262,149.1652363,55121,0.018891381099820137,0.011579100973904133,0.27275174856185913,0.2676452696323395,0.009629701264202595,-0.03769867867231369,0,-36,-941,265,10,-37,16,28,74,220.0,90.0,1500.0
20:30:05.929,LAND,-35.3632617,149.165237,54915,0.022122390568256378,0.014563933946192265,0.2661941647529602,0.7849584221839905,0.0033094920217990875,-0.04755134880542755,2,-17,-924,783,4,-46,13,26,87,290.0,90.0,1500.0
20:30:06.129,LAND,-35.3632615,149.1652378,54668,0.013892503455281258,0.016155634075403214,0.25787538290023804,1.3238024711608887,-0.011916144751012325,-0.045277975499629974,1,26,-987,1323,-10,-45,10,23,99,290.0,90.0,1500.0
20:30:06.330,LAND,-35.3632613,149.1652384,54366,0.016840480268001556,0.016244854778051376,0.24882429838180542,2.004096031188965,-0.012993483804166317,-0.05967910960316658,2,88,-861,2005,-11,-59,7,21,135,290.0,90.0,1500.0
20:30:06.531,LAND,-35.3632613,149.1652384,54366,0.016840480268001556,0.016244854778051376,0.24882429838180542,2.004096031188965,-0.012993483804166317,-0.05967910960316658,2,88,-861,2005,-11,-59,7,21,135,290.0,90.0,1500.0
20:30:06.731,LAND,-35.3632612,149.1652389,53961,0.006565426476299763,0.01554210763424635,0.2404841035604477,1.5211412906646729,-0.003256321419030428,-0.028787583112716675,0,110,-837,1525,-2,-28,4,20,177,290.0,90.0,1500.0
20:30:06.932,LAND,-35.3632612,149.1652389,53961,0.006565426476299763,0.01554210763424635,0.2404841035604477,1.5211412906646729,-0.003256321419030428,-0.028787583112716675,0,110,-837,1525,-2,-28,4,20,177,290.0,90.0,1500.0
20:30:07.133,LAND,-35.3632612,149.1652389,53961,0.006565426476299763,0.01554210763424635,0.2404841035604477,1.5211412906646729,-0.003256321419030428,-0.028787583112716675,0,110,-837,1525,-2,-28,4,20,177,290.0,90.0,1500.0
20:30:07.334,LAND,-35.3632612,149.1652389,53961,0.006565426476299763,0.01554210763424635,0.2404841035604477,1.5211412906646729,-0.003256321419030428,-0.028787583112716675,0,110,-837,1525,-2,-28,4,20,177,290.0,90.0,1500.0
20:30:07.535,LAND,-35.3632612,149.1652402,52293,-0.05664807930588722,0.007637954317033291,0.2197660505771637,-2.200204849243164,-0.005099424161016941,-0.03841712325811386,0,-69,-996,-2199,-4,-37,0,8,230,290.0,90.0,1500.0
20:30:07.736,LAND,-35.3632612,149.1652404,51700,-0.02549831010401249,0.005967996083199978,0.21409408748149872,-2.013319492340088,-0.010276012122631073,-0.035373371094465256,4,-117,-1008,-2014,-9,-35,0,2,227,290.0,90.0,1500.0
20:30:07.937,LAND,-35.3632612,149.1652404,51116,0.0020461617968976498,0.004029647447168827,0.2087918221950531,-0.9520635008811951,-0.018948141485452652,-0.0326259583234787,4,-101,-1004,-955,-17,-32,-1,0,221,290.0,90.0,1500.0
20:30:08.137,LAND,-35.3632613,149.1652404,50549,0.013795342296361923,0.0010130113223567605,0.20354396104812622,0.7047654986381531,-0.01833600178360939,-0.015846481546759605,0,-33,-1020,701,-17,-15,-2,-2,214,290.0,90.0,1500.0
20:30:08.338,LAND,-35.3632615,149.1652403,49997,0.02100186236202717,-0.0018897957634180784,0.19836145639419556,1.3602161407470703,-0.01816081628203392,-0.031177734956145287,0,8,-1015,1358,-16,-30,-2,-4,207,290.0,90.0,1500.0
20:30:08.539,LAND,-35.3632615,149.1652403,49997,0.02100186236202717,-0.0018897957634180784,0.19836145639419556,1.3602161407470703,-0.01816081628203392,-0.031177734956145287,0,8,-1015,1358,-16,-30,-2,-4,207,290.0,90.0,1500.0
20:30:08.739,LAND,-35.3632616,149.1652403,49466,0.022615697234869003,-0.004238532390445471,0.19257968664169312,2.1860733032226562,-0.009325403720140457,-0.01752207800745964,-2,102,-1043,2187,-8,-17,-2,-2,200,290.0,90.0,1500.0
20:30:08.940,LAND,-35.3632616,149.1652403,49466,0.022615697234869003,-0.004238532390445471,0.19257968664169312,2.1860733032226562,-0.009325403720140457,-0.01752207800745964,-2,102,-1043,2187,-8,-17,-2,-2,200,290.0,90.0,1500.0
20:30:09.142,LAND,-35.3632616,149.1652403,49466,0.022615697234869003,-0.004238532390445471,0.19257968664169312,2.1860733032226562,-0.009325403720140457,-0.01752207800745964,-2,102,-1043,2187,-8,-17,-2,-2,200,290.0,90.0,1500.0
20:30:09.343,LAND,-35.3632616,149.1652403,49466,0.022615697234869003,-0.004238532390445471,0.19257968664169312,2.1860733032226562,-0.009325403720140457,-0.01752207800745964,-2,102,-1043,2187,-8,-17,-2,-2,200,290.0,90.0,1500.0
20:30:09.543,LAND,-35.3632619,149.1652392,47951,-0.023325378075242043,-0.008587746880948544,0.17996764183044434,-0.9668932557106018,-0.016332916915416718,0.0011796962935477495,-5,12,-1014,-962,-15,1,0,-7,189,290.0,90.0,1500.0
20:30:09.745,LAND,-35.3632619,149.1652387,47464,-0.012510359287261963,-0.009593547321856022,0.17464382946491241,-1.793473243713379,-0.0048788744024932384,-0.01202430296689272,-4,-48,-1004,-1791,-3,-11,0,-7,187,290.0,90.0,1500.0
20:30:09.946,LAND,-35.3632619,149.165238,46969,-0.007244816981256008,-0.009707173332571983,0.17016348242759705,-2.2007434368133545,-0.009064147248864174,-0.011161461472511292,-1,-83,-1005,-2199,-8,-10,0,-5,187,290.0,90.0,1500.0
20:30:10.147,LAND,-35.3632619,149.1652375,46484,0.009961533360183239,-0.008656551130115986,0.1650141477584839,-1.6149191856384277,-0.010435661301016808,-0.015362498350441456,0,-105,-991,-1617,-9,-14,1,-4,186,440.0,90.0,1500.0
20:30:10.348,LAND,-35.3632619,149.1652369,45993,0.03984528034925461,-0.00779606681317091,0.1625640094280243,-0.42511487007141113,-0.007080665789544582,-0.029288703575730324,-2,-73,-870,-428,-6,-28,2,-1,196,440.0,90.0,1500.0
20:30:10.548,LAND,-35.3632619,149.1652369,45993,0.03984528034925461,-0.00779606681317091,0.1625640094280243,-0.42511487007141113,-0.007080665789544582,-0.029288703575730324,-2,-73,-870,-428,-6,-28,2,-1,196,440.0,90.0,1500.0
20:30:10.749,LAND,-35.3632619,149.1652364,45411,0.031530268490314484,-0.0075440602377057076,0.15828144550323486,-0.1963229775428772,-0.005888340529054403,-0.017009170725941658,-1,-53,-784,-198,-5,-16,1,2,254,440.0,90.0,1500.0
20:30:10.950,LAND,-35.3632619,149.1652364,45411,0.031530268490314484,-0.0075440602377057076,0.15828144550323486,-0.1963229775428772,-0.005888340529054403,-0.017009170725941658,-1,-53,-784,-198,-5,-16,1,2,254,440.0,90.0,1500.0
20:30:11.150,LAND,-35.3632619,149.1652364,45411,0.031530268490314484,-0.0075440602377057076,0.15828144550323486,-0.1963229775428772,-0.005888340529054403,-0.017009170725941658,-1,-53,-784,-198,-5,-16,1,2,254,440.0,90.0,1500.0
20:30:11.352,LAND,-35.3632619,149.1652364,45411,0.031530268490314484,-0.0075440602377057076,0.15828144550323486,-0.1963229775428772,-0.005888340529054403,-0.017009170725941658,-1,-53,-784,-198,-5,-16,1,2,254,440.0,90.0,1500.0
20:30:11.553,LAND,-35.3632619,149.1652357,43144,0.04847067594528198,-0.0022412606049329042,0.14581705629825592,0.6149819493293762,-0.030791060999035835,-0.010252594016492367,3,-26,-950,612,-30,-9,2,15,316,440.0,90.0,1500.0
20:30:11.754,LAND,-35.3632619,149.1652357,42328,0.04091605171561241,-0.0002225931966677308,0.14212222397327423,0.7250000834465027,-0.04585222527384758,-0.0013957865303382277,4,-27,-1000,722,-45,-1,2,17,317,440.0,90.0,1500.0
20:30:11.954,LAND,-35.3632619,149.1652358,41510,0.044720713049173355,0.0006800322444178164,0.1415681689977646,0.8970707058906555,-0.016881179064512253,0.019866973161697388,4,-20,-1006,895,-16,20,2,18,315,440.0,90.0,1500.0
20:30:12.155,LAND,-35.3632619,149.1652361,40695,0.037411075085401535,0.002356430282816291,0.1384716033935547,0.970186173915863,-0.032706547528505325,-0.015410859137773514,6,-19,-1015,968,-32,-14,2,18,313,440.0,90.0,1500.0
20:30:12.356,LAND,-35.3632619,149.1652365,39886,0.029060186818242073,0.003455586265772581,0.13591136038303375,0.96812903881073,-0.024016479030251503,-0.008029877208173275,6,-19,-1005,966,-23,-7,2,17,311,440.0,90.0,1500.0
20:30:12.556,LAND,-35.3632619,149.1652365,39886,0.029060186818242073,0.003455586265772581,0.13591136038303375,0.96812903881073,-0.024016479030251503,-0.008029877208173275,6,-19,-1005,966,-23,-7,2,17,311,440.0,90.0,1500.0
20:30:12.757,LAND,-35.3632619,149.165237,39085,0.03222960606217384,0.004340193700045347,0.1325569897890091,1.2181475162506104,-0.018876241520047188,-0.005928591825067997,7,-8,-1009,1216,-18,-5,2,15,307,440.0,90.0,1500.0
20:30:12.960,LAND,-35.3632619,149.165237,39085,0.03222960606217384,0.004340193700045347,0.1325569897890091,1.2181475162506104,-0.018876241520047188,-0.005928591825067997,7,-8,-1009,1216,-18,-5,2,15,307,440.0,90.0,1500.0
20:30:13.163,LAND,-35.3632619,149.165237,39085,0.03222960606217384,0.004340193700045347,0.1325569897890091,1.2181475162506104,-0.018876241520047188,-0.005928591825067997,7,-8,-1009,1216,-18,-5,2,15,307,440.0,90.0,1500.0
20:30:13.365,LAND,-35.3632619,149.165237,39085,0.03222960606217384,0.004340193700045347,0.1325569897890091,1.2181475162506104,-0.018876241520047188,-0.005928591825067997,7,-8,-1009,1216,-18,-5,2,15,307,440.0,90.0,1500.0
