time_stamp,MODE,lat,lon,relative_alt,roll,pitch,yaw,rollspeed,pitchspeed,yawspeed,xacc,yacc,zacc,xgyro,ygyro,zgyro,vx,vy,vz,RTL_ALT
17:49:30.898,STABILIZE,-35.3632621,149.1652374,0,-0.00022377500135917217,0.001245483523234725,0.029904570430517197,4.786608042195439e-05,0.00027364795096218586,0.002619102131575346,0,1,-1000,0,0,0,-3,3,0,1500.0
17:49:31.100,STABILIZE,-35.3632621,149.1652374,0,-0.00022377500135917217,0.001245483523234725,0.029904570430517197,4.786608042195439e-05,0.00027364795096218586,0.002619102131575346,0,1,-1000,0,0,0,-3,3,0,1500.0
17:49:31.308,STABILIZE,-35.3632621,149.1652374,0,-0.00022377500135917217,0.001245483523234725,0.029904570430517197,4.786608042195439e-05,0.00027364795096218586,0.002619102131575346,0,1,-1000,0,0,0,-3,3,0,1500.0
17:49:31.514,STABILIZE,-35.3632621,149.1652374,0,-0.00022377500135917217,0.001245483523234725,0.029904570430517197,4.786608042195439e-05,0.00027364795096218586,0.002619102131575346,0,1,-1000,0,0,0,-3,3,0,1500.0
17:49:31.718,STABILIZE,-35.3632621,149.1652374,0,-0.00022377500135917217,0.001245483523234725,0.029904570430517197,4.786608042195439e-05,0.00027364795096218586,0.002619102131575346,0,1,-1000,0,0,0,-3,3,0,1500.0
17:49:31.923,STABILIZE,-35.3632621,149.1652374,0,-0.00022377500135917217,0.001245483523234725,0.029904570430517197,4.786608042195439e-05,0.00027364795096218586,0.002619102131575346,0,1,-1000,0,0,0,-3,3,0,1500.0
17:49:32.124,STABILIZE,-35.3632621,149.1652374,0,-0.00022377500135917217,0.001245483523234725,0.029904570430517197,4.786608042195439e-05,0.00027364795096218586,0.002619102131575346,0,1,-1000,0,0,0,-3,3,0,1500.0
17:49:32.327,STABILIZE,-35.3632621,149.1652374,0,-0.00022377500135917217,0.001245483523234725,0.029904570430517197,4.786608042195439e-05,0.00027364795096218586,0.002619102131575346,0,1,-1000,0,0,0,-3,3,0,1500.0
17:49:32.532,STABILIZE,-35.3632621,149.1652374,0,-0.0002998812997248024,0.001259958022274077,0.02934999018907547,0.0002742045617196709,0.00021432351786643267,0.0025679043028503656,0,2,-999,0,0,1,-3,1,-2,1500.0
17:49:32.734,STABILIZE,-35.3632621,149.1652374,0,-0.00021240733622107655,0.0014467111323028803,0.028658239170908928,0.0002942236897069961,0.00018564375932328403,0.0025715897791087627,0,1,-1000,0,0,0,0,0,-2,1500.0
17:49:32.942,STABILIZE,-35.3632621,149.1652374,0,-0.00021240733622107655,0.0014467111323028803,0.028658239170908928,0.0002942236897069961,0.00018564375932328403,0.0025715897791087627,0,1,-1000,0,0,0,0,0,-2,1500.0
17:49:33.145,STABILIZE,-35.3632621,149.1652374,0,-0.00021240733622107655,0.0014467111323028803,0.028658239170908928,0.0002942236897069961,0.00018564375932328403,0.0025715897791087627,0,1,-1000,0,0,0,0,0,-2,1500.0
17:49:33.346,STABILIZE,-35.3632621,149.1652374,0,-0.00021240733622107655,0.0014467111323028803,0.028658239170908928,0.0002942236897069961,0.00018564375932328403,0.0025715897791087627,0,1,-1000,0,0,0,0,0,-2,1500.0
17:49:33.548,STABILIZE,-35.3632621,149.1652374,0,-0.00021240733622107655,0.0014467111323028803,0.028658239170908928,0.0002942236897069961,0.00018564375932328403,0.0025715897791087627,0,1,-1000,0,0,0,0,0,-2,1500.0
17:49:33.752,STABILIZE,-35.3632621,149.1652374,0,-0.00021240733622107655,0.0014467111323028803,0.028658239170908928,0.0002942236897069961,0.00018564375932328403,0.0025715897791087627,0,1,-1000,0,0,0,0,0,-2,1500.0
17:49:33.956,STABILIZE,-35.3632621,149.1652374,0,-0.00021240733622107655,0.0014467111323028803,0.028658239170908928,0.0002942236897069961,0.00018564375932328403,0.0025715897791087627,0,1,-1000,0,0,0,0,0,-2,1500.0
17:49:34.159,STABILIZE,-35.3632621,149.1652374,0,-0.00021240733622107655,0.0014467111323028803,0.028658239170908928,0.0002942236897069961,0.00018564375932328403,0.0025715897791087627,0,1,-1000,0,0,0,0,0,-2,1500.0
17:49:34.364,STABILIZE,-35.3632621,149.1652374,0,-0.00021240733622107655,0.0014467111323028803,0.028658239170908928,0.0002942236897069961,0.00018564375932328403,0.0025715897791087627,0,1,-1000,0,0,0,0,0,-2,1500.0
17:49:34.566,STABILIZE,-35.3632621,149.1652374,0,-0.00021240733622107655,0.0014467111323028803,0.028658239170908928,0.0002942236897069961,0.00018564375932328403,0.0025715897791087627,0,1,-1000,0,0,0,0,0,-2,1500.0
17:49:34.769,STABILIZE,-35.3632621,149.1652374,0,-0.0002099632256431505,0.0015657921321690083,0.02739410102367401,0.0002787250850815326,0.0002822074166033417,0.00225147046148777,0,1,-1000,0,1,0,-1,1,-1,1500.0
17:49:34.970,STABILIZE,-35.3632622,149.1652375,0,-0.00014317728346213698,0.0014855576446279883,0.027071451768279076,0.007802683860063553,0.0003752937482204288,0.002349516376852989,0,6,-993,8,0,0,-2,0,-2,1500.0
17:49:35.172,STABILIZE,-35.3632622,149.1652375,0,-0.00014317728346213698,0.0014855576446279883,0.027071451768279076,0.007802683860063553,0.0003752937482204288,0.002349516376852989,0,6,-993,8,0,0,-2,0,-2,1500.0
17:49:35.374,STABILIZE,-35.3632622,149.1652375,0,-0.00014317728346213698,0.0014855576446279883,0.027071451768279076,0.007802683860063553,0.0003752937482204288,0.002349516376852989,0,6,-993,8,0,0,-2,0,-2,1500.0
17:49:35.577,STABILIZE,-35.3632622,149.1652375,0,-0.00014317728346213698,0.0014855576446279883,0.027071451768279076,0.007802683860063553,0.0003752937482204288,0.002349516376852989,0,6,-993,8,0,0,-2,0,-2,1500.0
17:49:35.781,STABILIZE,-35.3632622,149.1652375,0,-0.00014317728346213698,0.0014855576446279883,0.027071451768279076,0.007802683860063553,0.0003752937482204288,0.002349516376852989,0,6,-993,8,0,0,-2,0,-2,1500.0
17:49:35.983,STABILIZE,-35.3632622,149.1652375,0,-0.00014317728346213698,0.0014855576446279883,0.027071451768279076,0.007802683860063553,0.0003752937482204288,0.002349516376852989,0,6,-993,8,0,0,-2,0,-2,1500.0
17:49:36.185,STABILIZE,-35.3632622,149.1652375,0,-0.00014317728346213698,0.0014855576446279883,0.027071451768279076,0.007802683860063553,0.0003752937482204288,0.002349516376852989,0,6,-993,8,0,0,-2,0,-2,1500.0
17:49:36.386,STABILIZE,-35.3632622,149.1652375,0,-0.00014317728346213698,0.0014855576446279883,0.027071451768279076,0.007802683860063553,0.0003752937482204288,0.002349516376852989,0,6,-993,8,0,0,-2,0,-2,1500.0
17:49:36.590,STABILIZE,-35.3632622,149.1652374,0,-0.0002538106346037239,0.001326927449554205,0.026643376797437668,0.000281813699984923,0.00027002289425581694,0.002234518062323332,0,1,-1000,0,1,0,-1,1,-1,1500.0
17:49:36.793,STABILIZE,-35.3632622,149.1652375,0,-0.0004068547859787941,0.0011376175098121166,0.026088612154126167,0.0002791930746752769,0.00036782529787160456,0.0022198413498699665,0,1,-1000,0,0,0,-1,1,-1,1500.0
17:49:36.996,STABILIZE,-35.3632622,149.1652375,0,-0.0004068547859787941,0.0011376175098121166,0.026088612154126167,0.0002791930746752769,0.00036782529787160456,0.0022198413498699665,0,1,-1000,0,0,0,-1,1,-1,1500.0
17:49:37.197,STABILIZE,-35.3632622,149.1652375,0,-0.0004068547859787941,0.0011376175098121166,0.026088612154126167,0.0002791930746752769,0.00036782529787160456,0.0022198413498699665,0,1,-1000,0,0,0,-1,1,-1,1500.0
17:49:37.401,STABILIZE,-35.3632622,149.1652375,0,-0.0004068547859787941,0.0011376175098121166,0.026088612154126167,0.0002791930746752769,0.00036782529787160456,0.0022198413498699665,0,1,-1000,0,0,0,-1,1,-1,1500.0
17:49:37.602,STABILIZE,-35.3632622,149.1652375,0,-0.0004068547859787941,0.0011376175098121166,0.026088612154126167,0.0002791930746752769,0.00036782529787160456,0.0022198413498699665,0,1,-1000,0,0,0,-1,1,-1,1500.0
17:49:37.804,STABILIZE,-35.3632622,149.1652375,0,-0.0004068547859787941,0.0011376175098121166,0.026088612154126167,0.0002791930746752769,0.00036782529787160456,0.0022198413498699665,0,1,-1000,0,0,0,-1,1,-1,1500.0
17:49:38.005,STABILIZE,-35.3632622,149.1652375,0,-0.0004068547859787941,0.0011376175098121166,0.026088612154126167,0.0002791930746752769,0.00036782529787160456,0.0022198413498699665,0,1,-1000,0,0,0,-1,1,-1,1500.0
17:49:38.206,STABILIZE,-35.3632622,149.1652375,0,-0.0004068547859787941,0.0011376175098121166,0.026088612154126167,0.0002791930746752769,0.00036782529787160456,0.0022198413498699665,0,1,-1000,0,0,0,-1,1,-1,1500.0
17:49:38.410,STABILIZE,-35.3632621,149.1652375,0,-0.000563947600312531,0.0010139195946976542,0.0257236547768116,0.0003179899067617953,0.00023849960416555405,0.0021243493538349867,0,2,-1000,0,0,0,-1,1,0,1500.0
17:49:38.611,STABILIZE,-35.3632621,149.1652375,0,-0.000563947600312531,0.0010139195946976542,0.0257236547768116,0.0003179899067617953,0.00023849960416555405,0.0021243493538349867,0,2,-1000,0,0,0,-1,1,0,1500.0
17:49:38.813,STABILIZE,-35.3632621,149.1652375,0,-0.000563947600312531,0.0010139195946976542,0.0257236547768116,0.0003179899067617953,0.00023849960416555405,0.0021243493538349867,0,2,-1000,0,0,0,-1,1,0,1500.0
17:49:39.015,STABILIZE,-35.3632621,149.1652375,0,-0.000563947600312531,0.0010139195946976542,0.0257236547768116,0.0003179899067617953,0.00023849960416555405,0.0021243493538349867,0,2,-1000,0,0,0,-1,1,0,1500.0
17:49:39.217,STABILIZE,-35.3632621,149.1652375,0,-0.000563947600312531,0.0010139195946976542,0.0257236547768116,0.0003179899067617953,0.00023849960416555405,0.0021243493538349867,0,2,-1000,0,0,0,-1,1,0,1500.0
17:49:39.419,STABILIZE,-35.3632621,149.1652375,0,-0.000563947600312531,0.0010139195946976542,0.0257236547768116,0.0003179899067617953,0.00023849960416555405,0.0021243493538349867,0,2,-1000,0,0,0,-1,1,0,1500.0
17:49:39.620,STABILIZE,-35.3632621,149.1652375,0,-0.000563947600312531,0.0010139195946976542,0.0257236547768116,0.0003179899067617953,0.00023849960416555405,0.0021243493538349867,0,2,-1000,0,0,0,-1,1,0,1500.0
17:49:39.822,STABILIZE,-35.3632621,149.1652375,0,-0.000563947600312531,0.0010139195946976542,0.0257236547768116,0.0003179899067617953,0.00023849960416555405,0.0021243493538349867,0,2,-1000,0,0,0,-1,1,0,1500.0
17:49:40.028,STABILIZE,-35.3632621,149.1652375,0,-0.000563947600312531,0.0010139195946976542,0.0257236547768116,0.0003179899067617953,0.00023849960416555405,0.0021243493538349867,0,2,-1000,0,0,0,-1,1,0,1500.0
17:49:40.232,STABILIZE,-35.3632621,149.1652375,0,-0.000563947600312531,0.0010139195946976542,0.0257236547768116,0.0003179899067617953,0.00023849960416555405,0.0021243493538349867,0,2,-1000,0,0,0,-1,1,0,1500.0
17:49:40.433,STABILIZE,-35.3632621,149.1652375,0,-0.0008351407595910132,0.000908517511561513,0.024756548926234245,0.0003236989723518491,0.0002734405570663512,0.0018959627486765385,0,1,-1000,1,0,0,-1,1,0,1500.0
17:49:40.637,AUTO,-35.3632621,149.1652375,7,-0.0009123312192969024,0.0009231631993316114,0.024413343518972397,0.00026630162028595805,0.00023889978183433414,0.0018763486295938492,0,2,-1000,0,0,0,-1,1,0,1500.0
17:49:40.839,AUTO,-35.3632621,149.1652375,7,-0.0009123312192969024,0.0009231631993316114,0.024413343518972397,0.00026630162028595805,0.00023889978183433414,0.0018763486295938492,0,2,-1000,0,0,0,-1,1,0,1500.0
17:49:41.043,AUTO,-35.3632621,149.1652375,7,-0.0009123312192969024,0.0009231631993316114,0.024413343518972397,0.00026630162028595805,0.00023889978183433414,0.0018763486295938492,0,2,-1000,0,0,0,-1,1,0,1500.0
17:49:41.248,AUTO,-35.3632621,149.1652375,7,-0.0009123312192969024,0.0009231631993316114,0.024413343518972397,0.00026630162028595805,0.00023889978183433414,0.0018763486295938492,0,2,-1000,0,0,0,-1,1,0,1500.0
17:49:41.449,AUTO,-35.3632621,149.1652375,7,-0.0009123312192969024,0.0009231631993316114,0.024413343518972397,0.00026630162028595805,0.00023889978183433414,0.0018763486295938492,0,2,-1000,0,0,0,-1,1,0,1500.0
17:49:41.650,AUTO,-35.3632621,149.1652375,7,-0.0009123312192969024,0.0009231631993316114,0.024413343518972397,0.00026630162028595805,0.00023889978183433414,0.0018763486295938492,0,2,-1000,0,0,0,-1,1,0,1500.0
17:49:41.852,AUTO,-35.3632621,149.1652375,7,-0.0009123312192969024,0.0009231631993316114,0.024413343518972397,0.00026630162028595805,0.00023889978183433414,0.0018763486295938492,0,2,-1000,0,0,0,-1,1,0,1500.0
17:49:42.053,AUTO,-35.3632621,149.1652375,7,-0.0009123312192969024,0.0009231631993316114,0.024413343518972397,0.00026630162028595805,0.00023889978183433414,0.0018763486295938492,0,2,-1000,0,0,0,-1,1,0,1500.0
17:49:42.255,AUTO,-35.3632621,149.1652375,7,-0.0009123312192969024,0.0009231631993316114,0.024413343518972397,0.00026630162028595805,0.00023889978183433414,0.0018763486295938492,0,2,-1000,0,0,0,-1,1,0,1500.0
17:49:42.457,AUTO,-35.3632621,149.1652375,7,-0.0009123312192969024,0.0009231631993316114,0.024413343518972397,0.00026630162028595805,0.00023889978183433414,0.0018763486295938492,0,2,-1000,0,0,0,-1,1,0,1500.0
17:49:42.658,AUTO,-35.3632621,149.1652374,4,-0.0007719127461314201,0.0011981724528595805,0.023794425651431084,0.00029942800756543875,0.00034469307865947485,0.0017785769887268543,0,1,-1000,0,0,0,0,0,0,1500.0
17:49:42.860,AUTO,-35.3632621,149.1652374,3,-0.0007191082695499063,0.0012729159789159894,0.023715993389487267,0.0003574457950890064,0.00040365097811445594,0.0017676117131486535,0,1,-1000,1,0,0,0,0,0,1500.0
17:49:43.062,AUTO,-35.3632621,149.1652374,3,-0.0007191082695499063,0.0012729159789159894,0.023715993389487267,0.0003574457950890064,0.00040365097811445594,0.0017676117131486535,0,1,-1000,1,0,0,0,0,0,1500.0
17:49:43.265,AUTO,-35.3632621,149.1652374,3,-0.0007191082695499063,0.0012729159789159894,0.023715993389487267,0.0003574457950890064,0.00040365097811445594,0.0017676117131486535,0,1,-1000,1,0,0,0,0,0,1500.0
17:49:43.467,AUTO,-35.3632621,149.1652374,3,-0.0007191082695499063,0.0012729159789159894,0.023715993389487267,0.0003574457950890064,0.00040365097811445594,0.0017676117131486535,0,1,-1000,1,0,0,0,0,0,1500.0
17:49:43.671,AUTO,-35.3632621,149.1652374,3,-0.0007191082695499063,0.0012729159789159894,0.023715993389487267,0.0003574457950890064,0.00040365097811445594,0.0017676117131486535,0,1,-1000,1,0,0,0,0,0,1500.0
17:49:43.873,AUTO,-35.3632621,149.1652374,3,-0.0007191082695499063,0.0012729159789159894,0.023715993389487267,0.0003574457950890064,0.00040365097811445594,0.0017676117131486535,0,1,-1000,1,0,0,0,0,0,1500.0
17:49:44.078,AUTO,-35.3632621,149.1652374,3,-0.0007191082695499063,0.0012729159789159894,0.023715993389487267,0.0003574457950890064,0.00040365097811445594,0.0017676117131486535,0,1,-1000,1,0,0,0,0,0,1500.0
17:49:44.281,AUTO,-35.3632621,149.1652374,2,-0.0005795121542178094,0.0014519590185955167,0.023508314043283463,0.0003458227729424834,0.0003430318902246654,0.0017936176154762506,0,1,-1000,0,0,1,0,0,0,1500.0
17:49:44.483,AUTO,-35.3632621,149.1652374,1,0.00038536463398486376,0.0014832898741587996,0.023145336657762527,0.022764263674616814,-0.009634905494749546,0.002990344539284706,0,0,-1040,23,-9,2,0,0,-1,1500.0
17:49:44.685,AUTO,-35.3632621,149.1652374,53,0.0034625553525984287,-0.0006248467834666371,0.023063523694872856,0.002910079900175333,-0.0035755105782300234,0.000284339243080467,0,0,-1178,3,-2,0,0,0,-40,1500.0
17:49:44.886,AUTO,-35.3632621,149.1652374,53,0.0034625553525984287,-0.0006248467834666371,0.023063523694872856,0.002910079900175333,-0.0035755105782300234,0.000284339243080467,0,0,-1178,3,-2,0,0,0,-40,1500.0
17:49:45.094,AUTO,-35.3632621,149.1652374,53,0.0034625553525984287,-0.0006248467834666371,0.023063523694872856,0.002910079900175333,-0.0035755105782300234,0.000284339243080467,0,0,-1178,3,-2,0,0,0,-40,1500.0
17:49:45.301,AUTO,-35.3632621,149.1652374,53,0.0034625553525984287,-0.0006248467834666371,0.023063523694872856,0.002910079900175333,-0.0035755105782300234,0.000284339243080467,0,0,-1178,3,-2,0,0,0,-40,1500.0
17:49:45.502,AUTO,-35.3632621,149.1652374,53,0.0034625553525984287,-0.0006248467834666371,0.023063523694872856,0.002910079900175333,-0.0035755105782300234,0.000284339243080467,0,0,-1178,3,-2,0,0,0,-40,1500.0
17:49:45.704,AUTO,-35.3632621,149.1652374,53,0.0034625553525984287,-0.0006248467834666371,0.023063523694872856,0.002910079900175333,-0.0035755105782300234,0.000284339243080467,0,0,-1178,3,-2,0,0,0,-40,1500.0
17:49:45.906,AUTO,-35.3632621,149.1652374,53,0.0034625553525984287,-0.0006248467834666371,0.023063523694872856,0.002910079900175333,-0.0035755105782300234,0.000284339243080467,0,0,-1178,3,-2,0,0,0,-40,1500.0
17:49:46.108,AUTO,-35.3632621,149.1652374,53,0.0034625553525984287,-0.0006248467834666371,0.023063523694872856,0.002910079900175333,-0.0035755105782300234,0.000284339243080467,0,0,-1178,3,-2,0,0,0,-40,1500.0
17:49:46.309,AUTO,-35.363262,149.1652377,1851,-0.0018239913042634726,0.001824759878218174,0.015758438035845757,-0.047105561941862106,0.0008476591901853681,-0.012833801098167896,0,-1,-1004,-46,1,-13,0,5,-145,1500.0
17:49:46.510,AUTO,-35.363262,149.1652377,2232,-0.0070339166559278965,0.001852680230513215,0.011847165413200855,0.014355778694152832,0.0001232571084983647,-0.01392825972288847,0,0,-1006,14,0,-14,0,3,-146,1500.0
17:49:46.712,AUTO,-35.3632619,149.1652378,2617,0.002644278109073639,0.0008214113186113536,0.008971859700977802,0.04536449909210205,-0.006051154341548681,-0.007307262159883976,0,0,-1003,46,-5,-8,1,1,-148,1500.0
17:49:46.914,AUTO,-35.3632619,149.1652378,2617,0.002644278109073639,0.0008214113186113536,0.008971859700977802,0.04536449909210205,-0.006051154341548681,-0.007307262159883976,0,0,-1003,46,-5,-8,1,1,-148,1500.0
17:49:47.117,AUTO,-35.3632619,149.1652378,2617,0.002644278109073639,0.0008214113186113536,0.008971859700977802,0.04536449909210205,-0.006051154341548681,-0.007307262159883976,0,0,-1003,46,-5,-8,1,1,-148,1500.0
17:49:47.319,AUTO,-35.3632619,149.1652378,2617,0.002644278109073639,0.0008214113186113536,0.008971859700977802,0.04536449909210205,-0.006051154341548681,-0.007307262159883976,0,0,-1003,46,-5,-8,1,1,-148,1500.0
17:49:47.524,AUTO,-35.3632619,149.1652378,2617,0.002644278109073639,0.0008214113186113536,0.008971859700977802,0.04536449909210205,-0.006051154341548681,-0.007307262159883976,0,0,-1003,46,-5,-8,1,1,-148,1500.0
17:49:47.727,AUTO,-35.3632619,149.1652378,2617,0.002644278109073639,0.0008214113186113536,0.008971859700977802,0.04536449909210205,-0.006051154341548681,-0.007307262159883976,0,0,-1003,46,-5,-8,1,1,-148,1500.0
17:49:47.930,AUTO,-35.3632619,149.1652378,2617,0.002644278109073639,0.0008214113186113536,0.008971859700977802,0.04536449909210205,-0.006051154341548681,-0.007307262159883976,0,0,-1003,46,-5,-8,1,1,-148,1500.0
17:49:48.133,AUTO,-35.3632619,149.1652378,2617,0.002644278109073639,0.0008214113186113536,0.008971859700977802,0.04536449909210205,-0.006051154341548681,-0.007307262159883976,0,0,-1003,46,-5,-8,1,1,-148,1500.0
17:49:48.334,AUTO,-35.3632617,149.1652382,3778,0.03649470955133438,-0.004294656682759523,-0.023591991513967514,0.04327746480703354,-0.007660299073904753,-9.033316746354103e-05,0,-1,-1000,43,-7,0,4,14,-149,1500.0
17:49:48.537,AUTO,-35.3632609,149.1652417,5317,0.007842575199902058,0.026931442320346832,-0.06932759284973145,-0.17000843584537506,0.0228681992739439,-0.06917628645896912,2,-9,-997,-169,23,-69,7,47,-145,1500.0
17:49:48.738,AUTO,-35.3632607,149.1652429,5694,-0.0277146864682436,0.02326340414583683,-0.08369705080986023,-0.08724295347929001,-0.027239345014095306,-0.043796293437480927,4,-9,-1010,-86,-26,-44,2,41,-146,1500.0
17:49:48.940,AUTO,-35.3632607,149.1652429,5694,-0.0277146864682436,0.02326340414583683,-0.08369705080986023,-0.08724295347929001,-0.027239345014095306,-0.043796293437480927,4,-9,-1010,-86,-26,-44,2,41,-146,1500.0
17:49:49.143,AUTO,-35.3632607,149.1652429,5694,-0.0277146864682436,0.02326340414583683,-0.08369705080986023,-0.08724295347929001,-0.027239345014095306,-0.043796293437480927,4,-9,-1010,-86,-26,-44,2,41,-146,1500.0
17:49:49.345,AUTO,-35.3632607,149.1652429,5694,-0.0277146864682436,0.02326340414583683,-0.08369705080986023,-0.08724295347929001,-0.027239345014095306,-0.043796293437480927,4,-9,-1010,-86,-26,-44,2,41,-146,1500.0
17:49:49.546,AUTO,-35.3632607,149.1652429,5694,-0.0277146864682436,0.02326340414583683,-0.08369705080986023,-0.08724295347929001,-0.027239345014095306,-0.043796293437480927,4,-9,-1010,-86,-26,-44,2,41,-146,1500.0
17:49:49.749,AUTO,-35.3632607,149.1652429,5694,-0.0277146864682436,0.02326340414583683,-0.08369705080986023,-0.08724295347929001,-0.027239345014095306,-0.043796293437480927,4,-9,-1010,-86,-26,-44,2,41,-146,1500.0
17:49:49.951,AUTO,-35.3632607,149.1652429,5694,-0.0277146864682436,0.02326340414583683,-0.08369705080986023,-0.08724295347929001,-0.027239345014095306,-0.043796293437480927,4,-9,-1010,-86,-26,-44,2,41,-146,1500.0
17:49:50.153,AUTO,-35.3632607,149.1652429,5694,-0.0277146864682436,0.02326340414583683,-0.08369705080986023,-0.08724295347929001,-0.027239345014095306,-0.043796293437480927,4,-9,-1010,-86,-26,-44,2,41,-146,1500.0
17:49:50.355,AUTO,-35.3632608,149.1652447,7235,-0.06234284117817879,-0.0039122821763157845,-0.1000858023762703,0.011273473501205444,-0.0029290616512298584,-0.012380048632621765,0,1,-1003,11,-2,-13,-5,-11,-149,1500.0
17:49:50.558,AUTO,-35.363261,149.1652423,8394,-0.026550209149718285,-0.0020043672993779182,-0.10290677845478058,0.05990535020828247,0.0046993885189294815,-0.003521887818351388,-4,8,-1001,60,5,-3,-5,-43,-150,1500.0
17:49:50.760,AUTO,-35.3632611,149.165241,8782,-0.01139870472252369,-0.0005276828887872398,-0.10221018642187119,0.06177671626210213,0.007194296922534704,-0.0009732351172715425,-5,9,-1002,62,7,-1,-6,-46,-150,1500.0
17:49:50.962,AUTO,-35.3632611,149.165241,8782,-0.01139870472252369,-0.0005276828887872398,-0.10221018642187119,0.06177671626210213,0.007194296922534704,-0.0009732351172715425,-5,9,-1002,62,7,-1,-6,-46,-150,1500.0
17:49:51.166,AUTO,-35.3632611,149.165241,8782,-0.01139870472252369,-0.0005276828887872398,-0.10221018642187119,0.06177671626210213,0.007194296922534704,-0.0009732351172715425,-5,9,-1002,62,7,-1,-6,-46,-150,1500.0
17:49:51.367,AUTO,-35.3632611,149.165241,8782,-0.01139870472252369,-0.0005276828887872398,-0.10221018642187119,0.06177671626210213,0.007194296922534704,-0.0009732351172715425,-5,9,-1002,62,7,-1,-6,-46,-150,1500.0
17:49:51.570,AUTO,-35.3632611,149.165241,8782,-0.01139870472252369,-0.0005276828887872398,-0.10221018642187119,0.06177671626210213,0.007194296922534704,-0.0009732351172715425,-5,9,-1002,62,7,-1,-6,-46,-150,1500.0
17:49:51.773,AUTO,-35.3632611,149.165241,8782,-0.01139870472252369,-0.0005276828887872398,-0.10221018642187119,0.06177671626210213,0.007194296922534704,-0.0009732351172715425,-5,9,-1002,62,7,-1,-6,-46,-150,1500.0
17:49:51.980,AUTO,-35.3632611,149.165241,8782,-0.01139870472252369,-0.0005276828887872398,-0.10221018642187119,0.06177671626210213,0.007194296922534704,-0.0009732351172715425,-5,9,-1002,62,7,-1,-6,-46,-150,1500.0
17:49:52.182,AUTO,-35.3632611,149.165241,8782,-0.01139870472252369,-0.0005276828887872398,-0.10221018642187119,0.06177671626210213,0.007194296922534704,-0.0009732351172715425,-5,9,-1002,62,7,-1,-6,-46,-150,1500.0
17:49:52.384,AUTO,-35.363262,149.1652356,11131,0.023615453392267227,0.00033779244404286146,-0.0918833538889885,-0.01893136091530323,-0.0077599771320819855,0.00795917958021164,0,4,-999,-18,-7,7,-8,-9,-150,1500.0
17:49:52.585,AUTO,-35.3632622,149.1652353,11520,0.018417946994304657,-0.001356155495159328,-0.09095846861600876,-0.02046985924243927,-0.005106321536004543,0.003613497596234083,0,2,-999,-19,-4,2,-6,-4,-150,1500.0
17:49:52.787,AUTO,-35.3632623,149.1652352,11909,0.01340272556990385,-0.0023960035759955645,-0.0915282815694809,-0.01934792846441269,-0.002035349840298295,6.50854199193418e-05,0,1,-1000,-19,-1,0,-5,0,-150,1500.0
17:49:52.988,AUTO,-35.3632623,149.1652352,11909,0.01340272556990385,-0.0023960035759955645,-0.0915282815694809,-0.01934792846441269,-0.002035349840298295,6.50854199193418e-05,0,1,-1000,-19,-1,0,-5,0,-150,1500.0
17:49:53.190,AUTO,-35.3632623,149.1652352,11909,0.01340272556990385,-0.0023960035759955645,-0.0915282815694809,-0.01934792846441269,-0.002035349840298295,6.50854199193418e-05,0,1,-1000,-19,-1,0,-5,0,-150,1500.0
17:49:53.392,AUTO,-35.3632623,149.1652352,11909,0.01340272556990385,-0.0023960035759955645,-0.0915282815694809,-0.01934792846441269,-0.002035349840298295,6.50854199193418e-05,0,1,-1000,-19,-1,0,-5,0,-150,1500.0
17:49:53.594,AUTO,-35.3632623,149.1652352,11909,0.01340272556990385,-0.0023960035759955645,-0.0915282815694809,-0.01934792846441269,-0.002035349840298295,6.50854199193418e-05,0,1,-1000,-19,-1,0,-5,0,-150,1500.0
17:49:53.796,AUTO,-35.3632623,149.1652352,11909,0.01340272556990385,-0.0023960035759955645,-0.0915282815694809,-0.01934792846441269,-0.002035349840298295,6.50854199193418e-05,0,1,-1000,-19,-1,0,-5,0,-150,1500.0
17:49:53.997,AUTO,-35.3632623,149.1652352,11909,0.01340272556990385,-0.0023960035759955645,-0.0915282815694809,-0.01934792846441269,-0.002035349840298295,6.50854199193418e-05,0,1,-1000,-19,-1,0,-5,0,-150,1500.0
17:49:54.200,AUTO,-35.3632623,149.1652352,11909,0.01340272556990385,-0.0023960035759955645,-0.0915282815694809,-0.01934792846441269,-0.002035349840298295,6.50854199193418e-05,0,1,-1000,-19,-1,0,-5,0,-150,1500.0
17:49:54.401,AUTO,-35.3632623,149.1652351,14239,0.002811622340232134,0.0002691900881472975,-0.11820977181196213,0.0022385783959180117,0.0034258714877068996,-0.01794610731303692,0,0,-1000,2,4,-18,2,1,-151,1500.0
17:49:54.603,AUTO,-35.3632622,149.1652351,14631,0.0034655206836760044,0.0012774693313986063,-0.12410476058721542,0.005194325931370258,0.006124334875494242,-0.021663827821612358,0,0,-1000,5,6,-22,2,1,-152,1500.0
17:49:54.804,AUTO,-35.3632621,149.1652351,15022,0.004347270354628563,0.0026347076054662466,-0.12998566031455994,0.004892819095402956,0.0049090394750237465,-0.019345920532941818,0,0,-1000,5,5,-20,2,1,-152,1500.0
17:49:55.006,AUTO,-35.3632621,149.1652351,15022,0.004347270354628563,0.0026347076054662466,-0.12998566031455994,0.004892819095402956,0.0049090394750237465,-0.019345920532941818,0,0,-1000,5,5,-20,2,1,-152,1500.0
17:49:55.208,AUTO,-35.3632621,149.1652351,15022,0.004347270354628563,0.0026347076054662466,-0.12998566031455994,0.004892819095402956,0.0049090394750237465,-0.019345920532941818,0,0,-1000,5,5,-20,2,1,-152,1500.0
17:49:55.409,AUTO,-35.3632621,149.1652351,15022,0.004347270354628563,0.0026347076054662466,-0.12998566031455994,0.004892819095402956,0.0049090394750237465,-0.019345920532941818,0,0,-1000,5,5,-20,2,1,-152,1500.0
17:49:55.610,AUTO,-35.3632621,149.1652351,15022,0.004347270354628563,0.0026347076054662466,-0.12998566031455994,0.004892819095402956,0.0049090394750237465,-0.019345920532941818,0,0,-1000,5,5,-20,2,1,-152,1500.0
17:49:55.812,AUTO,-35.3632621,149.1652351,15022,0.004347270354628563,0.0026347076054662466,-0.12998566031455994,0.004892819095402956,0.0049090394750237465,-0.019345920532941818,0,0,-1000,5,5,-20,2,1,-152,1500.0
17:49:56.014,AUTO,-35.3632621,149.1652351,15022,0.004347270354628563,0.0026347076054662466,-0.12998566031455994,0.004892819095402956,0.0049090394750237465,-0.019345920532941818,0,0,-1000,5,5,-20,2,1,-152,1500.0
17:49:56.216,AUTO,-35.3632621,149.1652351,15022,0.004347270354628563,0.0026347076054662466,-0.12998566031455994,0.004892819095402956,0.0049090394750237465,-0.019345920532941818,0,0,-1000,5,5,-20,2,1,-152,1500.0
17:49:56.418,AUTO,-35.3632617,149.165235,17367,0.0065788268111646175,0.007110682316124439,-0.16252689063549042,-6.800965638831258e-05,-0.00029363392968662083,-0.017810514196753502,0,0,-999,0,1,-18,0,4,-152,1500.0
17:49:56.620,AUTO,-35.3632616,149.1652351,17758,0.0063181910663843155,0.00685481633991003,-0.16699495911598206,0.00037059327587485313,-0.0008492209017276764,-0.017104497179389,0,0,-1000,1,0,-17,-1,5,-152,1500.0
17:49:56.823,AUTO,-35.3632616,149.1652352,18149,0.006209319923073053,0.0065243905410170555,-0.17132312059402466,0.0012553485576063395,-0.0002212441759184003,-0.016241291537880898,0,-1,-1000,1,0,-16,-1,6,-152,1500.0
17:49:57.026,AUTO,-35.3632616,149.1652352,18149,0.006209319923073053,0.0065243905410170555,-0.17132312059402466,0.0012553485576063395,-0.0002212441759184003,-0.016241291537880898,0,-1,-1000,1,0,-16,-1,6,-152,1500.0
17:49:57.228,AUTO,-35.3632616,149.1652352,18149,0.006209319923073053,0.0065243905410170555,-0.17132312059402466,0.0012553485576063395,-0.0002212441759184003,-0.016241291537880898,0,-1,-1000,1,0,-16,-1,6,-152,1500.0
17:49:57.429,AUTO,-35.3632616,149.1652352,18149,0.006209319923073053,0.0065243905410170555,-0.17132312059402466,0.0012553485576063395,-0.0002212441759184003,-0.016241291537880898,0,-1,-1000,1,0,-16,-1,6,-152,1500.0
17:49:57.631,AUTO,-35.3632616,149.1652352,18149,0.006209319923073053,0.0065243905410170555,-0.17132312059402466,0.0012553485576063395,-0.0002212441759184003,-0.016241291537880898,0,-1,-1000,1,0,-16,-1,6,-152,1500.0
17:49:57.833,AUTO,-35.3632616,149.1652352,18149,0.006209319923073053,0.0065243905410170555,-0.17132312059402466,0.0012553485576063395,-0.0002212441759184003,-0.016241291537880898,0,-1,-1000,1,0,-16,-1,6,-152,1500.0
17:49:58.036,AUTO,-35.3632616,149.1652352,18149,0.006209319923073053,0.0065243905410170555,-0.17132312059402466,0.0012553485576063395,-0.0002212441759184003,-0.016241291537880898,0,-1,-1000,1,0,-16,-1,6,-152,1500.0
17:49:58.239,AUTO,-35.3632616,149.1652352,18149,0.006209319923073053,0.0065243905410170555,-0.17132312059402466,0.0012553485576063395,-0.0002212441759184003,-0.016241291537880898,0,-1,-1000,1,0,-16,-1,6,-152,1500.0
17:49:58.441,AUTO,-35.3632616,149.165236,20738,0.002003439934924245,0.004503681790083647,-0.20132622122764587,-0.0016049024416133761,-0.0015531547833234072,-0.0168544240295887,0,0,-1000,0,1,-19,-3,6,-152,1500.0
17:49:58.642,AUTO,-35.3632617,149.1652361,21128,0.0016550242435187101,0.004250580910593271,-0.20625531673431396,-0.0002869092277251184,-0.0013139152433723211,-0.02136078290641308,0,0,-1000,0,0,-21,-3,6,-152,1500.0
17:49:58.843,AUTO,-35.3632617,149.1652361,21128,0.0016550242435187101,0.004250580910593271,-0.20625531673431396,-0.0002869092277251184,-0.0013139152433723211,-0.02136078290641308,0,0,-1000,0,0,-21,-3,6,-152,1500.0
17:49:59.044,AUTO,-35.3632617,149.1652361,21128,0.0016550242435187101,0.004250580910593271,-0.20625531673431396,-0.0002869092277251184,-0.0013139152433723211,-0.02136078290641308,0,0,-1000,0,0,-21,-3,6,-152,1500.0
17:49:59.246,AUTO,-35.3632617,149.1652361,21128,0.0016550242435187101,0.004250580910593271,-0.20625531673431396,-0.0002869092277251184,-0.0013139152433723211,-0.02136078290641308,0,0,-1000,0,0,-21,-3,6,-152,1500.0
17:49:59.448,AUTO,-35.3632617,149.1652361,21128,0.0016550242435187101,0.004250580910593271,-0.20625531673431396,-0.0002869092277251184,-0.0013139152433723211,-0.02136078290641308,0,0,-1000,0,0,-21,-3,6,-152,1500.0
17:49:59.649,AUTO,-35.3632617,149.1652361,21128,0.0016550242435187101,0.004250580910593271,-0.20625531673431396,-0.0002869092277251184,-0.0013139152433723211,-0.02136078290641308,0,0,-1000,0,0,-21,-3,6,-152,1500.0
17:49:59.852,AUTO,-35.3632617,149.1652361,21128,0.0016550242435187101,0.004250580910593271,-0.20625531673431396,-0.0002869092277251184,-0.0013139152433723211,-0.02136078290641308,0,0,-1000,0,0,-21,-3,6,-152,1500.0
17:50:00.053,AUTO,-35.3632617,149.1652361,21128,0.0016550242435187101,0.004250580910593271,-0.20625531673431396,-0.0002869092277251184,-0.0013139152433723211,-0.02136078290641308,0,0,-1000,0,0,-21,-3,6,-152,1500.0
17:50:00.254,AUTO,-35.3632617,149.1652361,21128,0.0016550242435187101,0.004250580910593271,-0.20625531673431396,-0.0002869092277251184,-0.0013139152433723211,-0.02136078290641308,0,0,-1000,0,0,-21,-3,6,-152,1500.0
17:50:00.456,AUTO,-35.3632618,149.1652366,23628,0.0012512592365965247,0.0033306616824120283,-0.2383236289024353,0.002115693176165223,-0.0004983320832252502,-0.020257828757166862,0,0,-1000,2,0,-20,-3,3,-153,1500.0
17:50:00.657,AUTO,-35.3632618,149.1652367,24019,0.0012219770578667521,0.003090203506872058,-0.24322114884853363,0.0009517333819530904,0.0014249254018068314,-0.02180502936244011,0,0,-1000,2,1,-22,-3,3,-153,1500.0
17:50:00.860,AUTO,-35.3632618,149.1652367,24410,0.0015273198951035738,0.0030618507880717516,-0.24810034036636353,0.002580375410616398,-0.00015872635412961245,-0.019909672439098358,0,0,-1000,3,0,-20,-2,3,-153,1500.0
17:50:01.061,AUTO,-35.3632618,149.1652367,24410,0.0015273198951035738,0.0030618507880717516,-0.24810034036636353,0.002580375410616398,-0.00015872635412961245,-0.019909672439098358,0,0,-1000,3,0,-20,-2,3,-153,1500.0
17:50:01.262,AUTO,-35.3632618,149.1652367,24410,0.0015273198951035738,0.0030618507880717516,-0.24810034036636353,0.002580375410616398,-0.00015872635412961245,-0.019909672439098358,0,0,-1000,3,0,-20,-2,3,-153,1500.0
17:50:01.463,AUTO,-35.3632618,149.1652367,24410,0.0015273198951035738,0.0030618507880717516,-0.24810034036636353,0.002580375410616398,-0.00015872635412961245,-0.019909672439098358,0,0,-1000,3,0,-20,-2,3,-153,1500.0
17:50:01.665,AUTO,-35.3632618,149.1652367,24410,0.0015273198951035738,0.0030618507880717516,-0.24810034036636353,0.002580375410616398,-0.00015872635412961245,-0.019909672439098358,0,0,-1000,3,0,-20,-2,3,-153,1500.0
17:50:01.866,AUTO,-35.3632618,149.1652367,24410,0.0015273198951035738,0.0030618507880717516,-0.24810034036636353,0.002580375410616398,-0.00015872635412961245,-0.019909672439098358,0,0,-1000,3,0,-20,-2,3,-153,1500.0
17:50:02.071,AUTO,-35.3632618,149.1652367,24410,0.0015273198951035738,0.0030618507880717516,-0.24810034036636353,0.002580375410616398,-0.00015872635412961245,-0.019909672439098358,0,0,-1000,3,0,-20,-2,3,-153,1500.0
17:50:02.272,AUTO,-35.363262,149.1652367,26206,0.0026670328807085752,0.00505781127139926,-0.24494607746601105,0.03285149484872818,-0.004648590460419655,0.02625495195388794,0,1,-1001,33,-3,25,-5,-2,-153,1500.0
17:50:02.474,AUTO,-35.3632623,149.1652366,26989,0.011105050332844257,0.0023267834912985563,-0.23142904043197632,0.003301890566945076,-0.006387125700712204,0.026643434539437294,0,0,-999,3,-5,26,-5,1,-153,1500.0
17:50:02.675,AUTO,-35.3632623,149.1652366,27380,0.011474236845970154,0.0011562821455299854,-0.22489315271377563,-0.0029645790345966816,-0.0018610585248097777,0.025773942470550537,0,0,-999,-2,-1,25,-4,3,-153,1500.0
17:50:06.468,AUTO,-35.3632623,149.1652366,27380,0.011474236845970154,0.0011562821455299854,-0.22489315271377563,-0.0029645790345966816,-0.0018610585248097777,0.025773942470550537,0,0,-999,-2,-1,25,-4,3,-153,1500.0
17:50:06.670,AUTO,-35.3632623,149.1652366,27380,0.011474236845970154,0.0011562821455299854,-0.22489315271377563,-0.0029645790345966816,-0.0018610585248097777,0.025773942470550537,0,0,-999,-2,-1,25,-4,3,-153,1500.0
17:50:06.873,AUTO,-35.3632623,149.1652366,27380,0.011474236845970154,0.0011562821455299854,-0.22489315271377563,-0.0029645790345966816,-0.0018610585248097777,0.025773942470550537,0,0,-999,-2,-1,25,-4,3,-153,1500.0
17:50:07.075,AUTO,-35.3632623,149.1652366,27380,0.011474236845970154,0.0011562821455299854,-0.22489315271377563,-0.0029645790345966816,-0.0018610585248097777,0.025773942470550537,0,0,-999,-2,-1,25,-4,3,-153,1500.0
17:50:07.276,AUTO,-35.3632623,149.1652366,27380,0.011474236845970154,0.0011562821455299854,-0.22489315271377563,-0.0029645790345966816,-0.0018610585248097777,0.025773942470550537,0,0,-999,-2,-1,25,-4,3,-153,1500.0
17:50:07.482,AUTO,-35.3632623,149.1652366,27380,0.011474236845970154,0.0011562821455299854,-0.22489315271377563,-0.0029645790345966816,-0.0018610585248097777,0.025773942470550537,0,0,-999,-2,-1,25,-4,3,-153,1500.0
17:50:07.683,AUTO,-35.3632623,149.1652366,27380,0.011474236845970154,0.0011562821455299854,-0.22489315271377563,-0.0029645790345966816,-0.0018610585248097777,0.025773942470550537,0,0,-999,-2,-1,25,-4,3,-153,1500.0
17:50:07.884,AUTO,-35.3632625,149.165237,28937,0.00509396567940712,0.0011770935961976647,-0.20223112404346466,-0.005061837378889322,-0.0002600296284072101,0.022582553327083588,0,-1,-1000,-4,0,22,0,8,-152,1500.0
17:50:08.086,AUTO,-35.3632625,149.1652376,30109,0.00048403290566056967,0.0015944885089993477,-0.1872880458831787,-0.0028751534409821033,0.0008388933492824435,0.020754724740982056,0,-1,-1000,-2,1,20,0,7,-152,1500.0
17:50:08.287,AUTO,-35.3632625,149.1652377,30499,-0.00042587376083247364,0.001683546113781631,-0.18293432891368866,-0.003686471376568079,-1.4004181139171124e-06,0.01974487118422985,0,-1,-1000,-2,0,19,0,6,-153,1500.0
17:50:08.490,AUTO,-35.3632625,149.1652377,30499,-0.00042587376083247364,0.001683546113781631,-0.18293432891368866,-0.003686471376568079,-1.4004181139171124e-06,0.01974487118422985,0,-1,-1000,-2,0,19,0,6,-153,1500.0
17:50:08.693,AUTO,-35.3632625,149.1652377,30499,-0.00042587376083247364,0.001683546113781631,-0.18293432891368866,-0.003686471376568079,-1.4004181139171124e-06,0.01974487118422985,0,-1,-1000,-2,0,19,0,6,-153,1500.0
17:50:08.896,AUTO,-35.3632625,149.1652377,30499,-0.00042587376083247364,0.001683546113781631,-0.18293432891368866,-0.003686471376568079,-1.4004181139171124e-06,0.01974487118422985,0,-1,-1000,-2,0,19,0,6,-153,1500.0
17:50:09.098,AUTO,-35.3632625,149.1652377,30499,-0.00042587376083247364,0.001683546113781631,-0.18293432891368866,-0.003686471376568079,-1.4004181139171124e-06,0.01974487118422985,0,-1,-1000,-2,0,19,0,6,-153,1500.0
17:50:09.300,AUTO,-35.3632625,149.1652377,30499,-0.00042587376083247364,0.001683546113781631,-0.18293432891368866,-0.003686471376568079,-1.4004181139171124e-06,0.01974487118422985,0,-1,-1000,-2,0,19,0,6,-153,1500.0
17:50:09.502,AUTO,-35.3632625,149.1652377,30499,-0.00042587376083247364,0.001683546113781631,-0.18293432891368866,-0.003686471376568079,-1.4004181139171124e-06,0.01974487118422985,0,-1,-1000,-2,0,19,0,6,-153,1500.0
17:50:09.705,AUTO,-35.3632625,149.1652377,30499,-0.00042587376083247364,0.001683546113781631,-0.18293432891368866,-0.003686471376568079,-1.4004181139171124e-06,0.01974487118422985,0,-1,-1000,-2,0,19,0,6,-153,1500.0
17:50:09.907,AUTO,-35.3632625,149.1652377,30499,-0.00042587376083247364,0.001683546113781631,-0.18293432891368866,-0.003686471376568079,-1.4004181139171124e-06,0.01974487118422985,0,-1,-1000,-2,0,19,0,6,-153,1500.0
17:50:10.110,AUTO,-35.3632625,149.1652377,30499,-0.00042587376083247364,0.001683546113781631,-0.18293432891368866,-0.003686471376568079,-1.4004181139171124e-06,0.01974487118422985,0,-1,-1000,-2,0,19,0,6,-153,1500.0
17:50:10.312,AUTO,-35.3632623,149.165238,32993,0.0007937639020383358,0.0023073432967066765,-0.1538800299167633,0.001215208787471056,-0.001294828369282186,0.013631049543619156,0,0,-1000,3,2,13,0,1,-153,1500.0
17:50:10.516,AUTO,-35.3632623,149.165238,33773,0.0010131485760211945,0.0019674208015203476,-0.15056371688842773,0.002334750257432461,0.0004554362967610359,0.013633583672344685,0,0,-1000,3,1,13,0,0,-153,1500.0
17:50:10.717,AUTO,-35.3632623,149.165238,33773,0.0010131485760211945,0.0019674208015203476,-0.15056371688842773,0.002334750257432461,0.0004554362967610359,0.013633583672344685,0,0,-1000,3,1,13,0,0,-153,1500.0
17:50:10.919,AUTO,-35.3632623,149.165238,33773,0.0010131485760211945,0.0019674208015203476,-0.15056371688842773,0.002334750257432461,0.0004554362967610359,0.013633583672344685,0,0,-1000,3,1,13,0,0,-153,1500.0
17:50:11.121,AUTO,-35.3632623,149.165238,33773,0.0010131485760211945,0.0019674208015203476,-0.15056371688842773,0.002334750257432461,0.0004554362967610359,0.013633583672344685,0,0,-1000,3,1,13,0,0,-153,1500.0
17:50:11.324,AUTO,-35.3632623,149.165238,33773,0.0010131485760211945,0.0019674208015203476,-0.15056371688842773,0.002334750257432461,0.0004554362967610359,0.013633583672344685,0,0,-1000,3,1,13,0,0,-153,1500.0
17:50:11.526,AUTO,-35.3632623,149.165238,33773,0.0010131485760211945,0.0019674208015203476,-0.15056371688842773,0.002334750257432461,0.0004554362967610359,0.013633583672344685,0,0,-1000,3,1,13,0,0,-153,1500.0
17:50:11.729,AUTO,-35.3632623,149.165238,33773,0.0010131485760211945,0.0019674208015203476,-0.15056371688842773,0.002334750257432461,0.0004554362967610359,0.013633583672344685,0,0,-1000,3,1,13,0,0,-153,1500.0
17:50:11.931,AUTO,-35.3632623,149.165238,33773,0.0010131485760211945,0.0019674208015203476,-0.15056371688842773,0.002334750257432461,0.0004554362967610359,0.013633583672344685,0,0,-1000,3,1,13,0,0,-153,1500.0
17:50:12.133,AUTO,-35.3632622,149.1652378,36343,0.0017008750000968575,0.002066462067887187,-0.1307186335325241,0.002986435778439045,0.001079799490980804,0.011605363339185715,0,0,-1000,3,1,11,0,0,-153,1500.0
17:50:12.334,AUTO,-35.3632622,149.1652378,36732,0.0018483257154002786,0.0020254631526768208,-0.12867127358913422,0.00010847969679161906,-0.0009103696793317795,0.009847156703472137,0,0,-1000,1,0,9,0,0,-153,1500.0
17:50:12.536,AUTO,-35.3632622,149.1652378,36732,0.0018483257154002786,0.0020254631526768208,-0.12867127358913422,0.00010847969679161906,-0.0009103696793317795,0.009847156703472137,0,0,-1000,1,0,9,0,0,-153,1500.0
17:50:12.740,AUTO,-35.3632622,149.1652378,36732,0.0018483257154002786,0.0020254631526768208,-0.12867127358913422,0.00010847969679161906,-0.0009103696793317795,0.009847156703472137,0,0,-1000,1,0,9,0,0,-153,1500.0
17:50:12.946,AUTO,-35.3632622,149.1652378,36732,0.0018483257154002786,0.0020254631526768208,-0.12867127358913422,0.00010847969679161906,-0.0009103696793317795,0.009847156703472137,0,0,-1000,1,0,9,0,0,-153,1500.0
17:50:13.148,AUTO,-35.3632622,149.1652378,36732,0.0018483257154002786,0.0020254631526768208,-0.12867127358913422,0.00010847969679161906,-0.0009103696793317795,0.009847156703472137,0,0,-1000,1,0,9,0,0,-153,1500.0
17:50:13.351,AUTO,-35.3632622,149.1652378,36732,0.0018483257154002786,0.0020254631526768208,-0.12867127358913422,0.00010847969679161906,-0.0009103696793317795,0.009847156703472137,0,0,-1000,1,0,9,0,0,-153,1500.0
17:50:13.553,AUTO,-35.3632622,149.1652378,36732,0.0018483257154002786,0.0020254631526768208,-0.12867127358913422,0.00010847969679161906,-0.0009103696793317795,0.009847156703472137,0,0,-1000,1,0,9,0,0,-153,1500.0
17:50:13.755,AUTO,-35.3632622,149.1652378,36732,0.0018483257154002786,0.0020254631526768208,-0.12867127358913422,0.00010847969679161906,-0.0009103696793317795,0.009847156703472137,0,0,-1000,1,0,9,0,0,-153,1500.0
17:50:13.958,AUTO,-35.3632621,149.1652376,39075,0.0022463600616902113,0.0020500067621469498,-0.11475953459739685,-0.0016564661636948586,-0.0007080535870045424,0.00882524624466896,0,0,-1000,0,0,8,0,0,-153,1500.0
17:50:14.161,AUTO,-35.3632621,149.1652375,39465,0.0023496379144489765,0.002106574596837163,-0.1128673106431961,0.0017586429603397846,0.001795674441382289,0.007515713572502136,0,0,-1000,2,2,7,0,0,-153,1500.0
17:50:14.362,AUTO,-35.3632621,149.1652375,39854,0.0023095188662409782,0.0018677462358027697,-0.11071769893169403,0.0005950399208813906,-0.0014549065381288528,0.00845422688871622,0,0,-1000,1,0,8,0,0,-153,1500.0
17:50:14.564,AUTO,-35.3632621,149.1652375,39854,0.0023095188662409782,0.0018677462358027697,-0.11071769893169403,0.0005950399208813906,-0.0014549065381288528,0.00845422688871622,0,0,-1000,1,0,8,0,0,-153,1500.0
17:50:14.768,AUTO,-35.3632621,149.1652375,39854,0.0023095188662409782,0.0018677462358027697,-0.11071769893169403,0.0005950399208813906,-0.0014549065381288528,0.00845422688871622,0,0,-1000,1,0,8,0,0,-153,1500.0
17:50:14.970,AUTO,-35.3632621,149.1652375,39854,0.0023095188662409782,0.0018677462358027697,-0.11071769893169403,0.0005950399208813906,-0.0014549065381288528,0.00845422688871622,0,0,-1000,1,0,8,0,0,-153,1500.0
17:50:15.171,AUTO,-35.3632621,149.1652375,39854,0.0023095188662409782,0.0018677462358027697,-0.11071769893169403,0.0005950399208813906,-0.0014549065381288528,0.00845422688871622,0,0,-1000,1,0,8,0,0,-153,1500.0
17:50:15.373,AUTO,-35.3632621,149.1652375,39854,0.0023095188662409782,0.0018677462358027697,-0.11071769893169403,0.0005950399208813906,-0.0014549065381288528,0.00845422688871622,0,0,-1000,1,0,8,0,0,-153,1500.0
17:50:15.576,AUTO,-35.3632621,149.1652375,39854,0.0023095188662409782,0.0018677462358027697,-0.11071769893169403,0.0005950399208813906,-0.0014549065381288528,0.00845422688871622,0,0,-1000,1,0,8,0,0,-153,1500.0
17:50:15.779,AUTO,-35.3632621,149.1652375,39854,0.0023095188662409782,0.0018677462358027697,-0.11071769893169403,0.0005950399208813906,-0.0014549065381288528,0.00845422688871622,0,0,-1000,1,0,8,0,0,-153,1500.0
17:50:15.980,AUTO,-35.3632621,149.1652374,41799,0.0020632923115044832,0.0021050216164439917,-0.1022891253232956,0.00013170065358281136,0.0025440864264965057,0.0077511901035904884,0,0,-999,1,3,7,0,1,-153,1500.0
17:50:16.181,AUTO,-35.3632621,149.1652374,42579,0.0018701818771660328,0.002234090119600296,-0.09886761754751205,0.0004605526337400079,-0.00013527146074920893,0.007385186851024628,0,0,-1000,1,1,7,-1,1,-153,1500.0
17:50:16.383,AUTO,-35.3632621,149.1652374,42968,0.0018528554355725646,0.0021617936436086893,-0.09735150635242462,-0.0007076476467773318,0.000665225787088275,0.006460882257670164,0,0,-1000,0,1,6,-1,1,-153,1500.0
17:50:16.584,AUTO,-35.3632621,149.1652374,42968,0.0018528554355725646,0.0021617936436086893,-0.09735150635242462,-0.0007076476467773318,0.000665225787088275,0.006460882257670164,0,0,-1000,0,1,6,-1,1,-153,1500.0
17:50:16.786,AUTO,-35.3632621,149.1652374,42968,0.0018528554355725646,0.0021617936436086893,-0.09735150635242462,-0.0007076476467773318,0.000665225787088275,0.006460882257670164,0,0,-1000,0,1,6,-1,1,-153,1500.0
17:50:16.988,AUTO,-35.3632621,149.1652374,42968,0.0018528554355725646,0.0021617936436086893,-0.09735150635242462,-0.0007076476467773318,0.000665225787088275,0.006460882257670164,0,0,-1000,0,1,6,-1,1,-153,1500.0
17:50:17.191,AUTO,-35.3632621,149.1652374,42968,0.0018528554355725646,0.0021617936436086893,-0.09735150635242462,-0.0007076476467773318,0.000665225787088275,0.006460882257670164,0,0,-1000,0,1,6,-1,1,-153,1500.0
17:50:17.394,AUTO,-35.3632621,149.1652374,42968,0.0018528554355725646,0.0021617936436086893,-0.09735150635242462,-0.0007076476467773318,0.000665225787088275,0.006460882257670164,0,0,-1000,0,1,6,-1,1,-153,1500.0
17:50:17.596,AUTO,-35.3632621,149.1652374,42968,0.0018528554355725646,0.0021617936436086893,-0.09735150635242462,-0.0007076476467773318,0.000665225787088275,0.006460882257670164,0,0,-1000,0,1,6,-1,1,-153,1500.0
17:50:17.798,AUTO,-35.3632621,149.1652374,42968,0.0018528554355725646,0.0021617936436086893,-0.09735150635242462,-0.0007076476467773318,0.000665225787088275,0.006460882257670164,0,0,-1000,0,1,6,-1,1,-153,1500.0
17:50:17.999,AUTO,-35.363262,149.1652374,45310,0.0020235078409314156,0.001889506820589304,-0.08826600015163422,0.0007000928744673729,0.0007392560364678502,0.004859383683651686,0,0,-1000,1,1,5,-1,1,-153,1500.0
17:50:18.200,AUTO,-35.363262,149.1652374,45707,0.0018476328114047647,0.0018131434917449951,-0.08673278242349625,0.0008806120604276657,0.0017673487309366465,0.005613420158624649,0,0,-999,1,2,5,-1,1,-153,1500.0
17:50:18.402,AUTO,-35.363262,149.1652374,46097,0.0017976214876398444,0.0016879659378901124,-0.08523514866828918,0.0024871439673006535,0.0011877535143867135,0.006697882432490587,0,0,-1000,3,2,6,-1,1,-153,1500.0
17:50:18.604,AUTO,-35.363262,149.1652374,46097,0.0017976214876398444,0.0016879659378901124,-0.08523514866828918,0.0024871439673006535,0.0011877535143867135,0.006697882432490587,0,0,-1000,3,2,6,-1,1,-153,1500.0
17:50:18.807,AUTO,-35.363262,149.1652374,46097,0.0017976214876398444,0.0016879659378901124,-0.08523514866828918,0.0024871439673006535,0.0011877535143867135,0.006697882432490587,0,0,-1000,3,2,6,-1,1,-153,1500.0
17:50:19.009,AUTO,-35.363262,149.1652374,46097,0.0017976214876398444,0.0016879659378901124,-0.08523514866828918,0.0024871439673006535,0.0011877535143867135,0.006697882432490587,0,0,-1000,3,2,6,-1,1,-153,1500.0
17:50:19.210,AUTO,-35.363262,149.1652374,46097,0.0017976214876398444,0.0016879659378901124,-0.08523514866828918,0.0024871439673006535,0.0011877535143867135,0.006697882432490587,0,0,-1000,3,2,6,-1,1,-153,1500.0
17:50:19.412,AUTO,-35.363262,149.1652374,46097,0.0017976214876398444,0.0016879659378901124,-0.08523514866828918,0.0024871439673006535,0.0011877535143867135,0.006697882432490587,0,0,-1000,3,2,6,-1,1,-153,1500.0
17:50:19.613,AUTO,-35.363262,149.1652374,46097,0.0017976214876398444,0.0016879659378901124,-0.08523514866828918,0.0024871439673006535,0.0011877535143867135,0.006697882432490587,0,0,-1000,3,2,6,-1,1,-153,1500.0
17:50:19.815,AUTO,-35.363262,149.1652374,46097,0.0017976214876398444,0.0016879659378901124,-0.08523514866828918,0.0024871439673006535,0.0011877535143867135,0.006697882432490587,0,0,-1000,3,2,6,-1,1,-153,1500.0
17:50:20.017,AUTO,-35.363262,149.1652373,48399,-0.04511510580778122,0.05165743827819824,0.03780791163444519,-0.2121613621711731,0.18875129520893097,0.611016035079956,-1,-1,-949,-210,189,611,-7,-5,-136,1500.0
17:50:20.218,AUTO,-35.3632623,149.1652369,48726,-0.06619006395339966,0.07887525856494904,0.18021142482757568,0.0069363899528980255,-0.09080256521701813,0.44057539105415344,2,4,-908,8,-89,440,-21,-20,-117,1500.0
17:50:20.420,AUTO,-35.3632629,149.1652361,48997,-0.04459744691848755,0.03530782833695412,0.26190757751464844,0.08586157858371735,-0.23031151294708252,0.22753584384918213,4,7,-918,86,-229,227,-30,-34,-95,1500.0
17:50:20.624,AUTO,-35.3632629,149.1652361,48997,-0.04459744691848755,0.03530782833695412,0.26190757751464844,0.08586157858371735,-0.23031151294708252,0.22753584384918213,4,7,-918,86,-229,227,-30,-34,-95,1500.0
17:50:20.827,AUTO,-35.3632629,149.1652361,48997,-0.04459744691848755,0.03530782833695412,0.26190757751464844,0.08586157858371735,-0.23031151294708252,0.22753584384918213,4,7,-918,86,-229,227,-30,-34,-95,1500.0
17:50:21.029,AUTO,-35.3632629,149.1652361,48997,-0.04459744691848755,0.03530782833695412,0.26190757751464844,0.08586157858371735,-0.23031151294708252,0.22753584384918213,4,7,-918,86,-229,227,-30,-34,-95,1500.0
17:50:21.231,AUTO,-35.3632629,149.1652361,48997,-0.04459744691848755,0.03530782833695412,0.26190757751464844,0.08586157858371735,-0.23031151294708252,0.22753584384918213,4,7,-918,86,-229,227,-30,-34,-95,1500.0
17:50:21.433,AUTO,-35.3632629,149.1652361,48997,-0.04459744691848755,0.03530782833695412,0.26190757751464844,0.08586157858371735,-0.23031151294708252,0.22753584384918213,4,7,-918,86,-229,227,-30,-34,-95,1500.0
17:50:21.634,AUTO,-35.3632629,149.1652361,48997,-0.04459744691848755,0.03530782833695412,0.26190757751464844,0.08586157858371735,-0.23031151294708252,0.22753584384918213,4,7,-918,86,-229,227,-30,-34,-95,1500.0
17:50:21.836,AUTO,-35.3632629,149.1652361,48997,-0.04459744691848755,0.03530782833695412,0.26190757751464844,0.08586157858371735,-0.23031151294708252,0.22753584384918213,4,7,-918,86,-229,227,-30,-34,-95,1500.0
17:50:22.039,AUTO,-35.3632645,149.1652324,49793,0.04534805193543434,-0.0380183570086956,0.29362422227859497,0.13163705170154572,0.046967215836048126,-0.04721091687679291,-2,-11,-1003,128,48,-46,12,10,-26,1500.0
17:50:22.241,AUTO,-35.3632642,149.1652327,49858,0.03166147693991661,-0.025441858917474747,0.2834798991680145,-0.4835546910762787,0.050059523433446884,-0.04302952066063881,-3,-38,-977,-486,51,-42,17,19,-24,1500.0
17:50:22.443,AUTO,-35.3632638,149.1652332,49918,0.020420590415596962,-0.014941254630684853,0.2736462652683258,-0.5010584592819214,0.040425486862659454,-0.03316221386194229,-3,-18,-998,-498,41,-32,19,26,-24,1500.0
17:50:22.645,AUTO,-35.3632638,149.1652332,49918,0.020420590415596962,-0.014941254630684853,0.2736462652683258,-0.5010584592819214,0.040425486862659454,-0.03316221386194229,-3,-18,-998,-498,41,-32,19,26,-24,1500.0
17:50:22.847,AUTO,-35.3632638,149.1652332,49918,0.020420590415596962,-0.014941254630684853,0.2736462652683258,-0.5010584592819214,0.040425486862659454,-0.03316221386194229,-3,-18,-998,-498,41,-32,19,26,-24,1500.0
17:50:23.049,AUTO,-35.3632638,149.1652332,49918,0.020420590415596962,-0.014941254630684853,0.2736462652683258,-0.5010584592819214,0.040425486862659454,-0.03316221386194229,-3,-18,-998,-498,41,-32,19,26,-24,1500.0
17:50:23.252,AUTO,-35.3632638,149.1652332,49918,0.020420590415596962,-0.014941254630684853,0.2736462652683258,-0.5010584592819214,0.040425486862659454,-0.03316221386194229,-3,-18,-998,-498,41,-32,19,26,-24,1500.0
17:50:23.454,AUTO,-35.3632638,149.1652332,49918,0.020420590415596962,-0.014941254630684853,0.2736462652683258,-0.5010584592819214,0.040425486862659454,-0.03316221386194229,-3,-18,-998,-498,41,-32,19,26,-24,1500.0
17:50:23.657,AUTO,-35.3632638,149.1652332,49918,0.020420590415596962,-0.014941254630684853,0.2736462652683258,-0.5010584592819214,0.040425486862659454,-0.03316221386194229,-3,-18,-998,-498,41,-32,19,26,-24,1500.0
17:50:23.859,AUTO,-35.3632621,149.1652358,50056,0.011901864781975746,0.025875620543956757,0.23506112396717072,0.7525748014450073,0.19847552478313446,-0.040479060262441635,0,33,-931,756,199,-39,15,30,-1,1500.0
17:50:24.061,AUTO,-35.3632618,149.1652372,49996,-0.039227474480867386,0.015924442559480667,0.22403816878795624,-0.6833298802375793,-0.043138325214385986,-0.012724900618195534,0,-39,-1016,-686,-41,-12,-1,5,4,1500.0
17:50:24.262,AUTO,-35.3632618,149.1652372,49983,-0.05388293042778969,0.006994873750954866,0.21946457028388977,-0.7147971391677856,-0.028026554733514786,-0.021629638969898224,0,-21,-1018,-713,-26,-21,-2,-4,2,1500.0
17:50:24.464,AUTO,-35.3632618,149.1652372,49983,-0.05388293042778969,0.006994873750954866,0.21946457028388977,-0.7147971391677856,-0.028026554733514786,-0.021629638969898224,0,-21,-1018,-713,-26,-21,-2,-4,2,1500.0
17:50:24.667,AUTO,-35.3632618,149.1652372,49983,-0.05388293042778969,0.006994873750954866,0.21946457028388977,-0.7147971391677856,-0.028026554733514786,-0.021629638969898224,0,-21,-1018,-713,-26,-21,-2,-4,2,1500.0
17:50:24.869,AUTO,-35.3632618,149.1652372,49983,-0.05388293042778969,0.006994873750954866,0.21946457028388977,-0.7147971391677856,-0.028026554733514786,-0.021629638969898224,0,-21,-1018,-713,-26,-21,-2,-4,2,1500.0
17:50:25.072,AUTO,-35.3632618,149.1652372,49983,-0.05388293042778969,0.006994873750954866,0.21946457028388977,-0.7147971391677856,-0.028026554733514786,-0.021629638969898224,0,-21,-1018,-713,-26,-21,-2,-4,2,1500.0
17:50:25.273,AUTO,-35.3632618,149.1652372,49983,-0.05388293042778969,0.006994873750954866,0.21946457028388977,-0.7147971391677856,-0.028026554733514786,-0.021629638969898224,0,-21,-1018,-713,-26,-21,-2,-4,2,1500.0
17:50:25.476,AUTO,-35.3632618,149.1652372,49983,-0.05388293042778969,0.006994873750954866,0.21946457028388977,-0.7147971391677856,-0.028026554733514786,-0.021629638969898224,0,-21,-1018,-713,-26,-21,-2,-4,2,1500.0
17:50:25.677,AUTO,-35.3632618,149.1652372,49983,-0.05388293042778969,0.006994873750954866,0.21946457028388977,-0.7147971391677856,-0.028026554733514786,-0.021629638969898224,0,-21,-1018,-713,-26,-21,-2,-4,2,1500.0
17:50:25.879,AUTO,-35.3632613,149.1652308,49984,-0.07169235497713089,-0.03737615793943405,-0.051435645669698715,-0.7021389007568359,0.018746910616755486,-0.8073208332061768,-15,-11,-996,-700,19,-807,16,-74,-2,1500.0
17:50:26.080,AUTO,-35.3632609,149.1652285,49983,-0.06612911075353622,-0.05511124059557915,-0.2640432119369507,-0.2624853253364563,-0.012372855097055435,-0.866408109664917,-21,18,-1004,-257,-11,-866,21,-87,-1,1500.0
17:50:26.281,AUTO,-35.3632604,149.1652258,49982,-0.0455927699804306,-0.07256731390953064,-0.4786291718482971,0.46501147747039795,-0.03484548255801201,-0.853794276714325,-28,41,-1013,469,-33,-853,26,-101,-2,1500.0
17:50:26.482,AUTO,-35.3632604,149.1652258,49982,-0.0455927699804306,-0.07256731390953064,-0.4786291718482971,0.46501147747039795,-0.03484548255801201,-0.853794276714325,-28,41,-1013,469,-33,-853,26,-101,-2,1500.0
17:50:26.684,AUTO,-35.3632604,149.1652258,49982,-0.0455927699804306,-0.07256731390953064,-0.4786291718482971,0.46501147747039795,-0.03484548255801201,-0.853794276714325,-28,41,-1013,469,-33,-853,26,-101,-2,1500.0
17:50:26.887,AUTO,-35.3632604,149.1652258,49982,-0.0455927699804306,-0.07256731390953064,-0.4786291718482971,0.46501147747039795,-0.03484548255801201,-0.853794276714325,-28,41,-1013,469,-33,-853,26,-101,-2,1500.0
17:50:27.090,AUTO,-35.3632604,149.1652258,49982,-0.0455927699804306,-0.07256731390953064,-0.4786291718482971,0.46501147747039795,-0.03484548255801201,-0.853794276714325,-28,41,-1013,469,-33,-853,26,-101,-2,1500.0
17:50:27.292,AUTO,-35.3632604,149.1652258,49982,-0.0455927699804306,-0.07256731390953064,-0.4786291718482971,0.46501147747039795,-0.03484548255801201,-0.853794276714325,-28,41,-1013,469,-33,-853,26,-101,-2,1500.0
17:50:27.495,AUTO,-35.3632604,149.1652258,49982,-0.0455927699804306,-0.07256731390953064,-0.4786291718482971,0.46501147747039795,-0.03484548255801201,-0.853794276714325,-28,41,-1013,469,-33,-853,26,-101,-2,1500.0
17:50:27.701,AUTO,-35.3632604,149.1652258,49982,-0.0455927699804306,-0.07256731390953064,-0.4786291718482971,0.46501147747039795,-0.03484548255801201,-0.853794276714325,-28,41,-1013,469,-33,-853,26,-101,-2,1500.0
17:50:27.905,AUTO,-35.3632604,149.1652258,49982,-0.0455927699804306,-0.07256731390953064,-0.4786291718482971,0.46501147747039795,-0.03484548255801201,-0.853794276714325,-28,41,-1013,469,-33,-853,26,-101,-2,1500.0
17:50:28.108,AUTO,-35.3632551,149.1651988,49972,0.026479795575141907,-0.15060202777385712,-1.219344139099121,0.42755401134490967,-0.0370212122797966,0.09269440174102783,-49,-14,-1003,427,-36,93,60,-222,-1,1500.0
17:50:28.309,AUTO,-35.3632521,149.1651848,49967,0.017384016886353493,-0.15841728448867798,-1.1845344305038452,-0.34270092844963074,0.020035970956087112,0.033707957714796066,-64,-35,-1006,-340,21,34,74,-273,-3,1500.0
17:50:28.511,AUTO,-35.3632521,149.1651848,49967,0.017384016886353493,-0.15841728448867798,-1.1845344305038452,-0.34270092844963074,0.020035970956087112,0.033707957714796066,-64,-35,-1006,-340,21,34,74,-273,-3,1500.0
17:50:28.713,AUTO,-35.3632521,149.1651848,49967,0.017384016886353493,-0.15841728448867798,-1.1845344305038452,-0.34270092844963074,0.020035970956087112,0.033707957714796066,-64,-35,-1006,-340,21,34,74,-273,-3,1500.0
17:50:28.916,AUTO,-35.3632521,149.1651848,49967,0.017384016886353493,-0.15841728448867798,-1.1845344305038452,-0.34270092844963074,0.020035970956087112,0.033707957714796066,-64,-35,-1006,-340,21,34,74,-273,-3,1500.0
17:50:29.118,AUTO,-35.3632521,149.1651848,49967,0.017384016886353493,-0.15841728448867798,-1.1845344305038452,-0.34270092844963074,0.020035970956087112,0.033707957714796066,-64,-35,-1006,-340,21,34,74,-273,-3,1500.0
17:50:29.322,AUTO,-35.3632521,149.1651848,49967,0.017384016886353493,-0.15841728448867798,-1.1845344305038452,-0.34270092844963074,0.020035970956087112,0.033707957714796066,-64,-35,-1006,-340,21,34,74,-273,-3,1500.0
17:50:29.524,AUTO,-35.3632521,149.1651848,49967,0.017384016886353493,-0.15841728448867798,-1.1845344305038452,-0.34270092844963074,0.020035970956087112,0.033707957714796066,-64,-35,-1006,-340,21,34,74,-273,-3,1500.0
17:50:29.727,AUTO,-35.3632521,149.1651848,49967,0.017384016886353493,-0.15841728448867798,-1.1845344305038452,-0.34270092844963074,0.020035970956087112,0.033707957714796066,-64,-35,-1006,-340,21,34,74,-273,-3,1500.0
17:50:29.932,AUTO,-35.3632521,149.1651848,49967,0.017384016886353493,-0.15841728448867798,-1.1845344305038452,-0.34270092844963074,0.020035970956087112,0.033707957714796066,-64,-35,-1006,-340,21,34,74,-273,-3,1500.0
17:50:30.136,AUTO,-35.3632397,149.1651272,49961,0.033538009971380234,-0.19683976471424103,-1.1916158199310303,0.029776491224765778,-0.03635589778423309,0.011407877318561077,-83,-39,-991,29,-35,12,114,-416,0,1500.0
17:50:30.339,AUTO,-35.3632342,149.1651026,49955,0.03704293444752693,-0.19190473854541779,-1.1968789100646973,0.0950651466846466,0.03504583612084389,-0.01231883279979229,-98,-34,-1011,97,36,-11,127,-467,-2,1500.0
17:50:30.540,AUTO,-35.3632342,149.1651026,49955,0.03704293444752693,-0.19190473854541779,-1.1968789100646973,0.0950651466846466,0.03504583612084389,-0.01231883279979229,-98,-34,-1011,97,36,-11,127,-467,-2,1500.0
17:50:30.742,AUTO,-35.3632342,149.1651026,49955,0.03704293444752693,-0.19190473854541779,-1.1968789100646973,0.0950651466846466,0.03504583612084389,-0.01231883279979229,-98,-34,-1011,97,36,-11,127,-467,-2,1500.0
17:50:30.948,AUTO,-35.3632342,149.1651026,49955,0.03704293444752693,-0.19190473854541779,-1.1968789100646973,0.0950651466846466,0.03504583612084389,-0.01231883279979229,-98,-34,-1011,97,36,-11,127,-467,-2,1500.0
17:50:31.151,AUTO,-35.3632342,149.1651026,49955,0.03704293444752693,-0.19190473854541779,-1.1968789100646973,0.0950651466846466,0.03504583612084389,-0.01231883279979229,-98,-34,-1011,97,36,-11,127,-467,-2,1500.0
17:50:31.354,AUTO,-35.3632342,149.1651026,49955,0.03704293444752693,-0.19190473854541779,-1.1968789100646973,0.0950651466846466,0.03504583612084389,-0.01231883279979229,-98,-34,-1011,97,36,-11,127,-467,-2,1500.0
