time_stamp,MODE,roll,pitch,yaw,rollspeed,pitchspeed,yawspeed,lat,lon,relative_alt,vx,vy,vz,xacc,yacc,zacc,xgyro,ygyro,zgyro,RTL_ALT
07:08:59,AUTO,-0.0007055580790620297,0.0009889908251352608,0.02221228275448084,0.000297641905490309,0.0002463054552208632,0.0015872303629294038,-35.3632622,149.1652375,2.0,-1.0,1.0,0.0,0.0,1.0,-1000.0,0.0,0.0,0.0,20435.5
07:09:01,AUTO,-0.00044679570419248194,0.0013882460771128535,0.02170992735773325,0.0003225528635084629,0.0003342985000927001,0.0014608330093324184,-35.3632621,149.1652375,2.0,0.0,0.0,0.0,0.0,1.0,-1000.0,1.0,0.5,1.0,39371.0
07:09:02,AUTO,-0.00025341141736134887,0.0016041156777646393,0.02147978125140071,0.00032912747701629996,0.0002868476731237024,0.0014624059840571135,-35.3632621,149.1652375,1.25,0.0,0.0,0.0,0.0,1.25,-1000.0,0.75,0.75,0.25,190505.0
07:09:03,AUTO,0.0026241069426760077,0.0006336821170407347,0.021051883697509766,-0.0028621290111914277,0.0037540094926953316,0.0017213551327586174,-35.3632621,149.1652375,298.5,0.0,0.0,-85.0,0.0,0.0,-1120.0,-2.0,3.5,0.5,190505.0
07:09:05,AUTO,0.05352531559765339,0.0006129629909992218,-0.018729420378804207,-0.06315316027030349,0.05635088076815009,-0.06290033645927906,-35.3632615,149.16524025,3096.5,8.5,47.0,-146.5,2.0,-9.0,-992.0,-62.5,56.5,-63.0,188945.0
07:09:07,AUTO,-0.06706160493195057,-0.01292788702994585,-0.08870016783475876,0.04785042814910412,0.0001279014686588198,-0.0013036653690505773,-35.3632612,149.16524575,6146.5,-2.0,-30.0,-149.0,-1.5,4.0,-1002.0,48.0,0.5,-1.5,187385.0
07:09:08,AUTO,-0.022527654364239424,-0.007509161019697785,-0.08975262939929962,0.06392518524080515,0.012433052994310856,0.0029522887198254466,-35.363261275,149.1652417,7297.75,0.0,-57.75,-149.5,-6.75,10.0,-1002.25,64.0,12.5,1.75,87239.0
07:09:09,AUTO,0.05733958259224892,0.009204046335071325,-0.08519811183214188,0.06063533574342728,0.006788185564801097,0.005126861855387688,-35.363261550000004,149.16523435,9244.5,-5.0,-28.5,-153.0,-4.0,7.5,-1002.5,61.0,7.0,4.0,87239.0
07:09:11,AUTO,-0.023887215182185173,-0.006583267357200384,-0.1022331453859806,-0.005627645645290613,-0.0002369146968703717,-0.025726065039634705,-35.3632625,149.16523705,12330.5,0.5,13.5,-151.0,2.0,-3.0,-1002.5,-5.0,0.5,-25.5,117871.5
07:09:13,AUTO,0.008715020259842277,0.005498181097209454,-0.151050366461277,0.008933842182159424,0.005056309513747692,-0.015979573130607605,-35.36326185,149.16523615,15448.0,1.5,-7.0,-152.0,-2.0,0.5,-999.5,9.5,5.5,-15.5,148504.0
07:09:14,AUTO,0.010662482352927327,0.006879937369376421,-0.16117948293685913,0.0004617922750185244,0.000815752791822888,-0.012282144278287888,-35.363261675000004,149.16523565,16617.0,0.0,-1.25,-152.0,-0.75,0.0,-1000.0,1.0,1.25,-12.25,14948.0
07:09:15,AUTO,-0.049569716677069664,0.017829482909291983,-0.1482592113316059,-0.03963080886751413,0.06708578485995531,0.182088453322649,-35.363261699999995,149.16523515,18545.0,-8.0,-15.0,-146.5,-0.5,1.5,-984.0,-38.5,67.5,181.5,14948.0
07:09:17,AUTO,0.05272228270769119,-0.02669446263462305,0.043732548132538795,-0.03855762258172035,0.031668609008193016,-0.008856378961354494,-35.36326445,149.16523105,20805.5,4.0,25.0,-72.5,1.0,-4.0,-971.5,-37.0,32.0,-8.5,106115.5
07:09:19,AUTO,-0.01160499732941389,0.014383991714566946,0.03859052434563637,-0.015041837119497359,0.001218654913827777,-0.002745178062468767,-35.363261800000004,149.16523845,21795.5,9.5,25.5,-25.0,1.0,-7.0,-974.5,-14.0,2.0,-2.5,197283.0
07:09:20,AUTO,-0.025266140699386597,0.016680474625900388,0.03611622843891382,-0.06354022491723299,-0.0023724243510514498,-0.004560610221233219,-35.3632613,149.165239775,21887.75,1.75,9.25,-1.0,0.5,-4.0,-959.75,-62.75,-1.25,-4.25,199516.0
07:09:21,AUTO,0.025926758535206318,-0.04962141625583172,0.032397909089922905,0.22244302928447723,-0.05592738278210163,-0.0016896039887797087,-35.36326105,149.16523915,21704.5,13.0,-7.5,11.5,-4.0,-1.0,-1027.5,222.5,-54.5,-1.0,199516.0
07:09:23,AUTO,0.04820003919303417,-0.14425044506788254,0.285917192697525,0.36025938391685486,-0.025209324434399605,0.5800399482250214,-35.363246649999994,149.1652444,21618.5,165.0,65.0,0.0,-32.5,-19.0,-1002.5,361.0,-24.0,579.0,112063.0
07:09:25,AUTO,0.0447895135730505,-0.1237637922167778,0.4319939911365509,-0.08699510246515274,0.02397685870528221,0.0009505487323622219,-35.36319965,149.16526835000002,21611.0,338.5,141.0,-4.0,-74.0,-48.5,-998.0,-85.5,24.5,0.5,24610.0
07:09:26,AUTO,0.052757938392460346,-0.11160029657185078,0.4319668337702751,0.06449014693498611,0.012584288837388158,-0.003272596572060138,-35.363175825,149.16528055,21630.0,363.5,153.25,-2.25,-81.5,-46.0,-995.0,65.5,13.0,-3.5,63303.0
07:09:27,AUTO,0.0570599939674139,-0.0844058133661747,0.4293319582939148,0.24967025965452194,0.013330638292245567,-0.007273554801940918,-35.363133649999995,149.16530269999998,21645.5,382.5,164.5,-0.5,-85.5,-40.5,-993.5,250.5,14.5,-7.5,63303.0
07:09:29,AUTO,0.04797850362956524,-0.0268222289159894,0.4254927933216095,-0.031266242265701294,0.03984067775309086,0.011007954832166433,-35.36306645,149.16533900000002,21642.5,355.0,150.0,-1.0,-80.0,-60.0,-996.0,-31.0,40.0,11.0,120068.5
07:09:31,AUTO,0.03790144622325897,0.07155698537826538,0.42302800714969635,0.6104715168476105,0.04616756550967693,-0.008453119720797986,-35.36301485,149.16536685,21633.5,205.0,86.5,2.0,-42.0,-14.5,-1012.5,610.5,46.5,-8.0,176834.0
07:09:32,AUTO,0.010180997138377279,0.08169539272785187,0.4204941987991333,-0.16715998388826847,-0.025451239431276917,0.008877555897925049,-35.36300435,149.1653731,21614.5,126.25,53.0,2.75,-24.5,-22.25,-999.75,-166.25,-24.5,8.5,151964.0
07:09:33,AUTO,-0.009153425693511963,0.036040497943758965,0.42054079473018646,0.005181074142456055,-0.017651923932135105,0.004772731568664312,-35.36299595,149.16537855,21578.5,45.0,10.5,1.0,-8.5,1.0,-1008.0,7.0,-16.5,4.0,151964.0
07:09:35,AUTO,-0.007323781726881862,-0.004529093101155013,0.4201274514198303,-0.4275326356291771,-0.025733144022524357,-0.0029702856700168923,-35.362993349999996,149.16537935,21583.5,8.0,-11.5,-0.5,-2.5,-11.0,-996.5,-426.5,-24.5,-2.5,207743.5
07:09:37,RTL,0.010043748654425144,0.0018870215862989426,0.41629748046398163,-0.27270932495594025,0.0006339815154206008,0.003841105382889509,-35.36299205,149.1653773,21720.5,1.5,1.5,-28.0,-1.5,-5.5,-1034.0,-271.5,1.0,3.5,263523.0
07:09:38,RTL,0.01289909495972097,0.0025254701904486865,0.4164820462465286,0.03677548072300851,0.0007751792145427316,0.004448156105354428,-35.36299185,149.165376925,22067.75,-1.25,5.5,-59.5,-0.25,1.0,-1045.25,37.5,1.25,4.25,30800.0
07:09:39,RTL,0.005843241699039936,0.002766871592029929,0.415643647313118,0.004043882712721825,0.0006366243178490549,0.0010578857909422368,-35.3629918,149.16537695,23164.0,-3.0,7.0,-113.0,0.0,-0.5,-1042.5,4.5,1.0,1.0,30800.0
07:09:41,RTL,0.056617364287376404,-0.0060276135336607695,0.4113180786371231,-0.010509682819247246,0.028035002294927835,-0.03971679275855422,-35.3629923,149.16537964999998,26053.0,-10.0,42.0,-148.0,1.0,-7.0,-994.5,-9.5,29.0,-39.0,49810.0
07:09:43,RTL,-0.04751293361186981,0.003153220284730196,0.3272424191236496,0.05491533502936363,0.0029241498559713364,-0.01244207238778472,-35.36299325,149.1653842,29106.0,7.5,-33.5,-149.0,-2.5,4.0,-1000.0,55.5,3.0,-11.5,68820.0
07:09:44,RTL,-0.0025039223255589604,0.007958923233672976,0.3233155682682991,0.06296157278120518,0.009259543847292662,-0.0026003673701779917,-35.362992274999996,149.16538065,30266.5,8.25,-46.75,-150.75,-5.0,8.75,-1002.25,63.75,9.5,-1.75,2185.0
07:09:45,RTL,0.028422747738659382,-0.00616562832146883,0.3469550460577011,-0.025920945219695568,0.0045597436837852,0.01060676365159452,-35.3629914,149.16537575,32216.5,-4.0,-14.5,-150.5,-0.5,4.0,-998.0,-24.5,5.5,11.0,2185.0
07:09:47,RTL,0.0040651269955560565,0.004776985850185156,0.31788961589336395,0.003895062953233719,0.004430621862411499,-0.021070254035294056,-35.362991,149.16537505000002,35321.5,-1.0,2.0,-151.0,0.0,0.0,-1000.5,4.5,5.0,-20.0,61823.5
07:09:49,RTL,0.005382615607231855,0.007363358745351434,0.2777653932571411,0.0005326451500877738,0.0015354875940829515,-0.019163981080055237,-35.3629907,149.16537545,38447.0,-5.5,4.5,-152.0,0.0,0.0,-1000.0,1.0,2.0,-18.0,121462.0
07:09:50,RTL,0.004414479248225689,0.00717643101233989,0.26242247223854065,-0.0007144729897845536,0.00015430229541379958,-0.020606628619134426,-35.362990724999996,149.16537574999998,39620.5,-6.75,5.0,-152.0,0.0,0.0,-1000.0,0.5,0.75,-19.25,273967.0
07:09:51,RTL,0.0031647089635953307,0.0062455839943140745,0.23543696850538254,0.0010395835852250457,0.0007151097524911165,-0.02251242659986019,-35.362991,149.16537625,41562.0,-7.0,4.0,-152.0,0.0,0.0,-1000.0,1.5,1.5,-21.0,273967.0
07:09:53,RTL,0.0019897016463801265,0.005107532255351543,0.19030418246984482,-0.00010266591561958194,0.001326291763689369,-0.023750437423586845,-35.362991449999996,149.16537675,44681.0,-6.0,3.0,-152.0,0.0,0.0,-1000.0,0.5,2.0,-22.0,236488.5
07:09:55,RTL,0.002239822642877698,0.004722817102447152,0.1461053192615509,0.0014184812316671014,0.00152533472282812,-0.0214753495529294,-35.3629917,149.16537705000002,47807.0,-4.0,2.0,-153.0,0.0,0.0,-1000.0,2.0,2.5,-20.0,199010.0
07:09:56,RTL,0.0037426628405228257,0.00628890423104167,0.13759681954979897,0.0033208965905942023,0.003956661297706887,0.0018484671600162983,-35.362991825,149.165377125,48974.25,-4.5,2.25,-152.25,0.0,0.0,-999.0,4.25,4.5,3.0,210415.0
07:09:57,RTL,0.0033596596913412213,0.006432426860556006,0.16172735393047333,-0.0013999769871588796,-0.0009413642983417958,0.029734809882938862,-35.36299205,149.16537745,50913.5,-7.0,4.0,-152.0,0.0,0.0,-1000.5,0.0,0.0,30.5,210415.0
07:09:59,RTL,0.00037976954263285734,0.0025595430051907897,0.210165336728096,0.0032704820623621345,0.000974985770881176,0.02168262656778097,-35.3629925,149.1653779,54017.0,-3.0,2.0,-152.0,0.0,0.0,-1000.0,4.0,1.5,22.0,180222.0
07:10:01,RTL,0.0019159545772708952,0.0032017165794968605,0.2443765178322792,-8.707778761163354e-06,0.002429559361189604,0.01649231743067503,-35.3629925,149.16537785,57123.0,-1.0,1.0,-152.0,0.0,0.0,-999.5,1.0,3.5,17.5,150029.0
07:10:02,RTL,0.001992355508264154,0.0033637791057117283,0.25516845285892487,0.000963164959102869,0.0009323302656412125,0.013766342774033546,-35.3629924,149.1653778,58287.0,-1.0,0.25,-152.0,0.0,0.0,-1000.0,2.0,2.0,14.5,55682.0
07:10:03,RTL,0.0025598809588700533,0.003963808296248317,0.2701326608657837,0.0015905190375633538,0.0004187915474176407,0.0126610123552382,-35.3629923,149.1653777,60227.5,-1.0,0.0,-152.0,0.0,0.0,-1000.0,2.5,1.0,13.5,55682.0
07:10:05,RTL,0.0032591207418590784,0.00346786726731807,0.28934749960899353,-0.00014854513574391603,0.00027396559016779065,0.009433247148990631,-35.3629921,149.1653775,63334.0,-2.0,1.0,-152.0,0.0,0.0,-999.0,1.0,1.5,10.0,135609.0
07:10:07,RTL,0.0027052619261667132,0.004156398819759488,0.3039935529232025,0.0008640611777082086,0.0008796303882263601,0.007978018838912249,-35.362992,149.1653775,66438.0,-2.0,1.0,-152.0,0.0,0.0,-999.5,2.0,1.5,9.0,215536.0
07:10:08,RTL,0.0025311651988886297,0.0039027915918268263,0.30876699835062027,-0.00025917695893440396,-0.0006782480631954968,0.006731697358191013,-35.362992,149.1653775,67602.5,-2.75,1.0,-152.0,0.0,0.0,-1000.0,1.0,1.0,7.5,77507.0
07:10:09,RTL,0.002386690815910697,0.0035500897793099284,0.31635886430740356,0.0004198472306597978,0.0004675939562730491,0.006437558447942138,-35.362992,149.1653775,69543.5,-3.0,1.0,-152.0,0.0,0.0,-1000.0,1.5,1.5,7.0,77507.0
07:10:11,RTL,0.00152902165427804,0.00335239851847291,0.32694993913173676,-0.0006144667277112603,1.5446770703420043e-05,0.005128905642777681,-35.362992,149.1653775,72652.0,-2.0,1.0,-152.0,0.0,0.0,-1000.0,0.5,1.0,6.0,43914.5
07:10:13,RTL,0.0019525645766407251,0.0034708945313468575,0.3368988633155823,-0.0002960478886961937,0.0015192431746982038,0.00541103957220912,-35.362992,149.1653775,75757.5,-2.0,0.0,-152.0,0.0,0.0,-1000.0,1.5,3.0,6.5,10322.0
07:10:14,RTL,0.0021010166965425014,0.003021543612703681,0.34040307998657227,0.0011811452422989532,6.531900726258755e-05,0.005578344454988837,-35.362992,149.1653775,76930.5,-2.0,0.0,-152.0,0.0,0.0,-1000.0,2.5,1.25,6.5,164985.0
07:10:15,RTL,0.002121728379279375,0.003073519910685718,0.3452848047018051,0.00046944437781348825,0.0008917552186176181,0.003303906414657831,-35.362992,149.1653775,78865.0,-2.0,0.0,-152.0,0.0,0.0,-1000.5,2.0,2.0,4.5,164985.0
07:10:17,RTL,0.0028060063486918807,0.002889864845201373,0.35230499505996704,0.002170731022488326,0.002118940348736942,0.004645906155928969,-35.362992,149.1653775,81979.0,-2.0,1.0,-152.0,0.0,0.0,-1000.0,3.5,3.5,6.0,206957.0
07:10:19,RTL,0.0020555908558890224,0.0038198959082365036,0.35877764225006104,-0.0018193080322816968,0.0002930000191554427,0.006367425434291363,-35.362992,149.1653775,85084.5,-2.0,1.0,-152.0,0.0,0.0,-999.0,0.0,2.0,7.5,248929.0
07:10:20,RTL,0.001564874837640673,0.0037053623236715794,0.36058612912893295,0.0005232607654761523,-0.0010684499866329134,0.0036704919184558094,-35.362992,149.1653775,86250.5,-2.0,0.5,-152.0,0.0,0.0,-1000.0,2.25,1.0,4.25,156762.0
07:10:21,RTL,0.0016040083137340844,0.0023591277422383428,0.3637212663888931,0.001326722907833755,5.4673757404088974e-05,0.003505997359752655,-35.362992,149.1653775,88191.0,-2.0,0.0,-152.0,0.0,0.0,-999.5,2.5,1.5,4.5,156762.0
07:10:23,RTL,0.0018011450883932412,0.0025281162234023213,0.3684592992067337,-0.0005249035893939435,-2.1919142454862595e-05,0.0026545695727691054,-35.362992,149.1653775,91297.0,-1.0,0.0,-152.0,0.0,0.0,-1000.0,1.0,1.5,3.5,107409.5
07:10:25,RTL,0.002002053428441286,0.0030370124150067568,0.3725460469722748,0.0007987664430402219,0.0010857971501536667,0.003117056912742555,-35.362992,149.1653775,94404.5,-1.0,0.0,-152.0,0.0,0.0,-999.5,2.0,2.0,4.0,58057.0
07:10:26,RTL,0.0021762129035778344,0.0032667695777490735,0.3741282671689987,-0.00014820299111306667,6.990969995968044e-05,0.0015744598640594631,-35.362992,149.1653775,95568.5,-1.5,0.0,-152.0,0.0,0.0,-999.75,1.0,1.75,2.5,189442.0
07:10:27,RTL,0.0019228720921091735,0.002955736475996673,0.37635666131973267,0.0013338319840840995,-0.00044159911340102553,0.004376215161755681,-35.362992,149.1653775,97513.0,-2.0,0.0,-152.0,0.0,0.0,-1000.0,3.0,1.0,5.5,189442.0
07:10:29,RTL,0.0018541644676588476,0.0031070448458194733,0.37967872619628906,0.00039686349919065833,0.0004846203373745084,0.0034103289362974465,-35.362992,149.1653775,100618.0,-2.0,0.0,-152.0,0.0,0.0,-1000.0,2.0,2.0,4.0,154891.0
07:10:31,RTL,0.0018711235607042909,0.0028478094609454274,0.3829649090766907,-0.0008570231148041785,0.0012422615545801818,0.0028323180158622563,-35.362992,149.1653775,103732.0,-2.0,0.0,-152.0,0.0,0.0,-999.5,1.0,2.5,4.0,120340.0
07:10:32,RTL,0.0017672991671133786,0.003034249530173838,0.38352517038583755,-0.00021009784541092813,-0.00037045287899672985,0.0005952318315394223,-35.362992,149.1653775,104901.25,-2.0,0.0,-152.0,0.0,0.0,-1000.0,1.25,1.5,1.75,6788.0
07:10:33,RTL,0.002399344928562641,0.002477420144714415,0.38484564423561096,0.0011860543163493276,-0.0010598297230899334,0.002363725798204541,-35.362992,149.1653775,106835.0,-2.0,0.0,-152.0,0.0,0.0,-1000.0,2.5,0.5,3.5,6788.0
07:10:35,RTL,0.0016088839038275182,0.0031420974992215633,0.3871219605207443,-0.0005935098743066192,0.00037780788261443377,0.002589921234175563,-35.362992,149.1653775,109942.5,-1.0,1.0,-152.0,0.0,0.0,-1000.0,1.5,2.0,4.0,68584.0
07:10:37,RTL,0.001501370221376419,0.0030074919341132045,0.3886404186487198,0.0005277948221191764,-0.00100701954215765,0.0009662675438448787,-35.362992,149.1653776,113056.0,-2.0,0.0,-152.0,0.0,0.0,-999.5,2.0,1.0,2.0,130380.0
07:10:38,RTL,0.0017297288868576288,0.002889736439101398,0.3892172873020172,0.0019264027359895408,4.1478138882666826e-05,0.001953740604221821,-35.362992,149.1653776,114221.25,-2.0,0.0,-152.0,0.0,0.0,-1000.0,3.75,1.75,3.0,179222.0
07:10:39,RTL,0.0017122855642810464,0.002809894271194935,0.3902045488357544,0.0005123383016325533,0.0005218535661697388,0.00028774753445759416,-35.362992,149.1653776,116164.5,-2.0,0.0,-152.0,0.0,0.0,-1000.5,2.0,2.0,1.5,179222.0
07:10:41,RTL,0.0018835372175090015,0.0025540466886013746,0.3914916664361954,-0.001708692405372858,0.0014952169731259346,0.0017215856350958347,-35.362992,149.1653776,119270.0,-1.0,0.0,-152.0,0.0,0.0,-999.0,0.5,3.0,3.0,149263.0
07:10:43,RTL,0.001911872299388051,0.002916708937846124,0.3928278833627701,-0.0005548007320612669,0.0001662890426814556,0.0008399132639169693,-35.362992,149.1653776,122377.0,-1.0,0.0,-152.0,0.0,0.0,-1000.0,1.5,2.0,2.5,119304.0
07:10:44,RTL,0.0018613449938129634,0.003055669250898063,0.3931574746966362,0.0001782836625352502,0.00043552229180932045,0.0016235181828960776,-35.362992,149.1653776,123542.0,-1.0,0.0,-152.0,0.0,0.0,-1000.0,2.0,2.25,2.75,60015.0
07:10:45,RTL,0.00188346829963848,0.0031701315892860293,0.39377839863300323,0.0014828677522018552,0.0014259791933000088,0.004157247371040285,-35.362992,149.1653776,125484.0,-2.0,0.0,-152.0,0.0,0.0,-999.5,3.5,3.5,5.5,60015.0
07:10:47,RTL,0.0024792369222268462,0.0026274314150214195,0.3950549066066742,-0.0009329647291451693,0.0013418543385341763,0.0005233613192103803,-35.362992,149.1653775,128592.0,-2.0,1.0,-152.0,0.0,0.0,-999.0,1.0,3.0,1.5,135378.0
07:10:49,RTL,0.001074695202987641,0.00320711696986109,0.39592133462429047,-0.0015958945732563734,-0.0011411418672651052,0.0013379407464526594,-35.362992,149.1653775,131698.0,-2.0,0.0,-152.0,0.0,0.0,-1000.0,0.5,0.5,2.5,210741.0
07:10:50,RTL,0.0011373042070772499,0.0032160411356016994,0.39609064161777496,0.0017409049323759973,0.0002828309661708772,0.0011744341172743589,-35.362992,149.1653776,132863.5,-2.0,0.0,-152.0,0.0,0.0,-1000.25,3.5,2.0,2.5,72472.0
07:10:51,RTL,0.0015272426535375416,0.0025327542098239064,0.39638882875442505,-0.0002207078505307436,-0.0005295485025271773,0.0007507864502258599,-35.362992,149.1653776,134808.0,-1.0,0.0,-152.0,0.0,0.0,-999.5,1.5,1.5,2.0,72472.0
07:10:53,RTL,0.001546305837109685,0.0027246795361861587,0.39698316156864166,0.001826213556341827,0.0004172080662101507,0.0003278167569078505,-35.3629921,149.1653776,137915.0,-1.0,0.0,-152.0,0.0,0.0,-1000.0,3.5,2.0,2.0,72479.5
07:10:55,RTL,0.001953549450263381,0.0025146735133603215,0.39749085903167725,0.0004419490578584373,-8.355453610420227e-05,0.0014940649853087962,-35.362992,149.1653776,141022.5,-1.0,0.0,-152.0,0.0,0.0,-999.5,2.5,1.5,3.0,72487.0
07:10:56,RTL,0.0019054037111345679,0.0027085868641734123,0.39764992892742157,5.8104342315346e-06,0.00055001798318699,1.2438831618055701e-05,-35.362992,149.1653776,142187.25,-1.0,0.0,-152.0,0.0,0.0,-999.75,1.5,2.25,1.5,219814.0
07:10:57,RTL,0.001831264584325254,0.0031022841576486826,0.39785775542259216,5.955807864665985e-06,-0.00023419602075591683,0.0007211847696453333,-35.362992,149.1653776,144137.0,-1.0,0.0,-152.0,0.0,0.0,-1000.5,2.0,1.5,2.5,219814.0
07:10:59,RTL,0.001742091786582023,0.003014978370629251,0.39815568923950195,-0.001711904420517385,-0.0008303242502734065,0.0006219290662556887,-35.362992,149.1653776,147242.5,-2.0,0.0,-152.0,0.0,0.0,-1000.0,0.5,1.0,2.0,256097.5
07:11:01,RTL,0.0017376357573084533,0.002941298997029662,0.3984464108943939,-0.00012276554480195045,0.00036507355980575085,-0.00041723420144990087,-35.362992,149.1653776,150350.0,-2.0,0.0,-152.0,0.0,0.0,-999.5,2.0,2.5,1.0,292381.0
07:11:02,RTL,0.001617342873942107,0.00304863863857463,0.3992665484547615,0.000735276669729501,0.0010678619146347046,0.0020134132937528193,-35.362992,149.1653776,151515.0,-2.0,0.0,-152.0,0.0,0.0,-999.25,2.75,3.0,3.5,94825.0
07:11:03,RTL,0.0015208225813694298,0.002296414226293564,0.39943118393421173,-0.000653857016004622,0.0005073825595900416,-0.0001346974167972803,-35.3629921,149.1653776,153456.5,-1.0,0.0,-152.0,0.0,0.0,-1000.0,1.5,2.5,1.5,94825.0
07:11:05,RTL,0.001786343869753182,0.0026824157685041428,0.39961256086826324,-0.0017052249750122428,-0.0004522698582150042,0.001272563706152141,-35.3629921,149.1653776,156566.5,-1.0,0.0,-152.0,0.0,0.0,-999.5,0.5,1.5,2.5,97409.5
07:11:07,RTL,0.0018691668519750237,0.00263342191465199,0.3997712880373001,0.0005997966509312391,-0.00012101058382540941,-9.15618147701025e-06,-35.362992,149.1653776,159671.5,-1.0,0.0,-152.0,0.0,0.0,-1000.0,2.5,2.0,1.5,99994.0
07:11:08,RTL,0.0016771583468653262,0.0028831830713897943,0.3997819051146507,-0.0010952043812721968,0.0009077375871129334,0.0001346245117019862,-35.362992,149.1653776,160838.75,-1.0,0.0,-152.0,0.0,0.0,-999.5,1.25,2.75,1.5,169684.0
07:11:09,RTL,0.0014121861313469708,0.002883210894651711,0.3998996615409851,5.3392606787383556e-05,-0.0010541014489717782,-0.00041119614616036415,-35.362992,149.1653776,162778.5,-1.0,0.0,-152.0,0.0,0.0,-1000.0,2.0,1.0,1.0,169684.0
07:11:11,RTL,0.0016563177923671901,0.003035967005416751,0.39981915056705475,0.0009659052593633533,-0.0007285118335857987,0.0005255418363958597,-35.362992,149.1653776,165889.0,-2.0,0.0,-152.0,0.0,0.0,-1000.0,3.0,1.5,2.0,224800.0
07:11:13,RTL,0.0018331999308429658,0.002885793917812407,0.39999233186244965,0.0005588590865954757,0.0001913607120513916,0.00013210461474955082,-35.362992,149.1653776,169151.5,-2.0,0.0,-152.0,0.0,0.0,-1000.0,3.0,2.0,2.0,279916.0
07:11:14,RTL,0.0016892131243366748,0.002842214598786086,0.40008628368377686,0.0004402357735671103,0.0007723582675680518,0.000389825931051746,-35.362992025,149.1653776,170316.75,-2.0,0.0,-152.0,0.0,0.0,-1000.25,2.5,3.0,2.0,103789.0
07:11:15,RTL,0.001592279877513647,0.0025841969763860106,0.40007345378398895,0.001135097467340529,0.001479537459090352,0.0012177734170109034,-35.3629921,149.1653776,172259.0,-1.0,0.0,-152.0,0.0,0.0,-999.5,3.5,4.0,3.0,103789.0
07:11:17,RTL,0.0018601479241624475,0.002794763771817088,0.39994125068187714,0.00030294276075437665,-0.000344549014698714,-0.0002447267761453986,-35.3629921,149.1653776,175367.5,-1.0,0.0,-152.0,0.0,0.0,-1000.0,2.5,1.5,1.5,98576.5
07:11:19,RTL,0.0018508140929043293,0.002627444453537464,0.40105415880680084,-0.0007577553624287248,0.0008554168161936104,0.000981941819190979,-35.3629921,149.1653776,178477.0,-1.0,0.0,-152.0,0.0,0.0,-1000.0,1.5,3.0,2.5,93364.0
07:11:20,RTL,0.001711187040200457,0.0027964022592641413,0.4008800908923149,0.000722073542419821,0.0005708367680199444,0.0009398948168382049,-35.3629921,149.1653776,179642.25,-1.0,0.0,-152.0,0.0,0.0,-1000.0,2.75,2.75,3.0,79383.0
07:11:21,RTL,0.001749604009091854,0.0029242009622976184,0.40090133249759674,-0.0011187250493094325,0.0002481030533090234,0.00027241790667176247,-35.3629921,149.1653776,181587.0,-1.0,0.0,-152.0,0.0,0.0,-1000.0,1.0,2.5,2.5,79383.0
07:11:23,RTL,0.0018982680630870163,0.0026583316503092647,0.40059754252433777,0.0010572419269010425,0.0020264843478798866,0.0014920411631464958,-35.3629921,149.1653776,184691.5,-1.0,0.0,-152.0,0.0,0.0,-999.5,3.5,4.5,3.5,58455.5
07:11:25,RTL,0.0017027276335284114,0.0031096242601051927,0.4007502496242523,-0.00032764545176178217,-9.248161222785711e-05,0.0012418983387760818,-35.3629921,149.1653776,187806.5,-2.0,0.0,-152.0,0.0,0.0,-1000.0,2.0,2.5,3.5,37528.0
07:11:26,RTL,0.0014198759745340794,0.0031102774664759636,0.4006701111793518,0.0004822938935831189,-0.0003864137688651681,0.0009627296531107277,-35.3629921,149.1653776,188970.5,-2.0,0.0,-152.0,0.0,0.0,-1000.0,2.75,2.0,2.75,200564.0
07:11:27,RTL,0.0014006690471433103,0.003070893115364015,0.4006730616092682,-0.0001922493102028966,0.0013367229839786887,0.001038791029714048,-35.3629921,149.1653776,190912.5,-2.0,0.0,-152.0,0.0,0.0,-999.0,2.5,3.5,2.5,200564.0
07:11:29,RTL,0.0016838490264490247,0.002652695286087692,0.4007825404405594,0.0025574166793376207,0.00040469231316819787,0.0021851883502677083,-35.3629921,149.1653776,194020.5,-1.0,0.0,-152.0,0.0,0.0,-999.5,5.0,3.0,4.5,209926.5
07:11:31,RTL,0.0017474356573075056,0.0029023635433986783,0.4006044566631317,-4.097161581739783e-05,0.0009102667681872845,0.00024801178369671106,-35.3629921,149.1653776,197126.5,-1.0,0.0,-152.0,0.0,0.0,-999.5,2.5,3.5,1.5,219289.0
07:11:32,RTL,0.0016650335455778986,0.0028122825897298753,0.40060392022132874,1.866539241746068e-05,0.0006459098658524454,-3.1827366910874844e-06,-35.3629921,149.1653776,198293.0,-1.0,0.0,-152.0,0.0,0.0,-1000.0,2.5,3.0,2.0,82708.0
07:11:33,RTL,0.0016310671344399452,0.002681574784219265,0.4006185978651047,-0.0011762204812839627,-0.00046278571244329214,-0.00017977936659008265,-35.3629921,149.1653776,200233.0,-1.0,0.0,-152.0,0.0,0.0,-1000.0,1.5,2.5,1.5,82708.0
07:11:35,RTL,0.0018155724392272532,0.002651018323376775,0.40137842297554016,0.0004324251785874367,0.0014783673686906695,-0.0001494638854637742,-35.3629921,149.1653776,203340.0,-1.0,0.0,-152.0,0.0,0.0,-999.5,3.0,4.0,2.0,98172.0
07:11:37,RTL,0.0016163826803676784,0.002834246610291302,0.4011843204498291,0.0007518887287005782,-0.00042966712499037385,0.0022099774796515703,-35.3629921,149.1653776,206448.0,-1.0,0.0,-152.0,0.0,0.0,-1000.0,3.0,2.0,4.0,113636.0
07:11:38,RTL,0.0017393460439052433,0.0028802112210541964,0.4012022390961647,0.0007048064144328237,0.0002684416249394417,0.0008610716904513538,-35.3629921,149.1653776,207615.75,-1.0,0.0,-152.0,0.0,0.0,-999.75,3.25,2.75,3.0,239760.0
07:11:39,RTL,0.0016407337388955057,0.002438310766592622,0.400998517870903,0.0015603189822286367,0.0014599213609471917,-4.278041888028383e-05,-35.3629921,149.1653776,209558.5,-1.0,0.0,-152.0,0.0,0.0,-999.5,4.0,4.0,2.0,239760.0
07:11:41,RTL,0.0017935686046257615,0.0033651901176199317,0.400905042886734,0.0014028764562681317,0.0002319255145266652,0.0007513263262808323,-35.3629921,149.1653776,212665.0,-1.0,0.0,-152.0,0.0,0.0,-1000.0,4.0,3.0,2.5,163626.0
07:11:43,RTL,0.0016043834039010108,0.002805296564474702,0.4011363983154297,-0.0009494319092482328,0.0012987818336114287,0.00042034266516566277,-35.3629921,149.1653776,215772.0,-2.0,0.0,-152.0,0.0,0.0,-999.5,2.0,3.5,2.5,87492.0
07:11:44,RTL,0.001633659761864692,0.002820760477334261,0.4011329934000969,0.0001606896985322237,-0.0007461394998244941,0.0010305971663910896,-35.3629921,149.1653776,216937.25,-2.0,0.0,-152.0,0.0,0.0,-1000.0,2.75,1.75,3.0,177723.0
07:11:45,RTL,0.0015642697690054774,0.0025158242788165808,0.4009384363889694,0.0009041120065376163,-5.0551025196909904e-06,-5.1732989959418774e-05,-35.3629921,149.1653776,218887.0,-1.0,0.0,-152.0,0.0,0.0,-1000.0,3.5,2.5,2.0,177723.0
07:11:47,RTL,0.0017446348210796714,0.002697652904316783,0.4009638577699661,0.0007827155059203506,0.0003855428658425808,0.0014593570958822966,-35.3629921,149.1653776,221996.5,-1.0,0.0,-152.0,0.0,0.0,-999.5,3.5,2.5,3.5,186732.5
07:11:49,RTL,0.0017412750166840851,0.0028512546559795737,0.40086033940315247,0.0009180277120321989,8.66384943947196e-05,0.0005070471670478582,-35.3629921,149.1653776,225101.5,-1.0,0.0,-152.0,0.0,0.0,-1000.0,3.5,3.0,2.5,195742.0
07:11:50,RTL,0.0016802920144982636,0.0029919626540504396,0.40115370601415634,-6.957643199712038e-05,0.00015441339928656816,0.0020964163704775274,-35.3629921,149.1653776,226269.0,-1.25,0.0,-152.0,0.0,0.0,-999.75,2.5,2.75,4.25,132890.0
07:11:51,RTL,0.0018009889754466712,0.0025930781848728657,0.4016581177711487,0.000825620605610311,0.0006171859567984939,0.0011633258545771241,-35.3629921,149.1653776,228209.0,-1.5,0.0,-152.0,0.0,0.0,-999.5,3.5,3.0,3.0,132890.0
07:11:53,RTL,0.0016863858327269554,0.0027270588325336576,0.401390865445137,-6.10550632700324e-05,-0.00022452999837696552,-0.0009598166216164827,-35.3629921,149.1653776,231316.0,-1.0,0.0,-152.0,0.0,0.0,-1000.0,3.0,2.5,1.0,157981.0
07:11:55,RTL,0.0016061415080912411,0.002756117144599557,0.4011663347482681,0.0007270219502970576,9.912857785820961e-05,-7.084058597683907e-05,-35.3629921,149.1653776,234425.0,-1.0,0.0,-152.0,0.0,0.0,-1000.0,3.5,2.5,2.5,183072.0
07:11:56,RTL,0.0016786468913778663,0.002772252482827753,0.4011947587132454,-7.510592695325613e-05,0.0002878989325836301,0.00048436643555760384,-35.3629921,149.1653776,235591.25,-1.0,0.0,-152.0,0.0,0.0,-1000.25,2.5,3.0,2.75,296862.0
07:11:57,RTL,0.001724247238598764,0.002772384905256331,0.401222288608551,0.0005019453819841146,0.0006011425284668803,0.00042179995216429234,-35.3629921,149.1653776,237530.0,-1.0,0.0,-152.0,0.0,0.0,-1000.0,3.5,3.5,3.0,296862.0
07:11:59,RTL,0.0016200221725739539,0.002758970484137535,0.4010094255208969,-0.000805932329967618,-0.0007715725805610418,-0.00027671409770846367,-35.3629921,149.1653776,240641.5,-1.0,0.0,-152.0,0.0,0.0,-1000.0,2.0,2.0,2.0,187762.5
07:12:01,RTL,0.0012403804576024413,0.003054240602068603,0.4010908752679825,-0.0007798841688781977,0.0006068114889785647,-0.000526504241861403,-35.3629921,149.1653776,243748.0,-1.0,0.0,-152.0,0.0,0.0,-999.5,2.0,3.5,2.0,78663.0
07:12:02,RTL,0.0012969959061592817,0.0029708328074775636,0.4011067897081375,0.00032066955463960767,-6.294494960457087e-05,0.002082155435346067,-35.3629921,149.1653776,244916.75,-1.0,0.0,-152.0,0.0,0.0,-999.75,3.25,3.0,4.75,135473.0
07:12:03,RTL,0.0015367072192020714,0.03333340212702751,0.4010858088731766,0.00047248275950551033,0.050581708550453186,-0.00037561042699962854,-35.362992250000005,149.16537755000002,246849.0,-9.5,-2.5,-151.0,0.5,0.0,-999.0,3.5,53.5,2.0,135473.0
07:12:05,RTL,-0.007757279090583324,0.10522165149450302,0.40167592465877533,-0.008728825952857733,0.04351188614964485,8.68818024173379e-05,-35.3630018,149.1653727,249860.5,-115.0,-44.5,-139.5,20.0,10.0,-990.5,-5.0,46.5,2.5,212026.0
07:12:07,RTL,0.07019709795713425,0.08650397509336472,0.9210809469223022,-0.00539427250623703,-0.041804793290793896,0.07299998961389065,-35.36303795,149.16534910000001,251602.5,-284.5,-137.5,-22.0,72.5,2.0,-941.5,-2.0,-38.0,75.5,288579.0
07:12:08,RTL,0.0557681517675519,0.0947138499468565,0.9449468404054642,-0.3112190878018737,0.03026699647307396,-0.003966300981119275,-35.363058525,149.16533857500002,251607.0,-323.25,-113.75,13.5,80.25,-12.75,-959.0,-308.25,33.25,-1.0,8128.0
07:12:09,RTL,0.012300894712097943,0.12759030610322952,0.9137423634529114,-0.14856970310211182,0.008931585121899843,-0.07062278501689434,-35.36309755,149.16532285,251314.0,-369.0,-119.0,17.0,89.5,-22.5,-1001.5,-145.5,11.5,-67.0,8128.0
07:12:11,RTL,-0.030100053176283836,0.09291622415184975,0.8210336267948151,0.36276137083768845,-0.05141262896358967,-0.03789544478058815,-35.36316585,149.1652917,251204.0,-374.0,-159.5,-2.5,96.5,25.0,-999.0,365.0,-47.5,-34.5,133206.5
07:12:13,RTL,-0.039980608969926834,-0.011820619460195303,0.7497769892215729,0.14173754304647446,-0.04125162586569786,-0.007732701487839222,-35.363225299999996,149.16525810000002,251229.5,-274.0,-126.0,-1.0,67.0,41.0,-1004.5,146.5,-37.5,-4.5,258285.0
07:12:14,RTL,-0.03796012885868549,-0.04983419179916382,0.7276050597429276,-0.026969633996486664,-0.047361789271235466,-0.032307728892192245,-35.363240975000004,149.165248775,251221.5,-207.75,-94.0,0.0,50.5,4.0,-1003.0,-24.25,-43.5,-28.5,151200.0
07:12:15,RTL,-0.010844376171007752,-0.052836401388049126,0.6963541805744171,0.6952079236507416,0.04477782920002937,-0.017616428434848785,-35.363257000000004,149.16523899999999,251195.5,-90.0,-38.0,0.0,19.5,23.0,-1006.0,698.0,48.0,-14.0,151200.0
07:12:17,RTL,-0.007634257432073355,-0.013184688054025173,0.6560510993003845,-0.7192956805229187,0.01601361157372594,-0.016499153338372707,-35.363263700000005,149.16523495,251185.0,-15.0,1.0,-1.0,2.0,-26.0,-980.5,-715.0,19.0,-12.5,145359.5
07:12:19,RTL,0.004017494764411822,-0.0047988377045840025,0.6284754872322083,0.4572867676615715,-0.011931069660931826,-0.012930894270539284,-35.36326445,149.1652349,251195.0,-8.5,6.5,-2.5,0.5,25.5,-1003.5,462.0,-8.0,-9.5,139519.0
07:12:20,RTL,-0.0006086622161092237,-0.0061465807957574725,0.6199461221694946,-0.2718956582248211,0.0037471475661732256,-0.012825687881559134,-35.3632645,149.16523515,251199.0,-1.0,7.25,-1.75,0.0,-15.75,-1003.5,-268.0,6.75,-9.25,294684.0
07:12:21,RTL,0.010340802371501923,-0.0005004104823456146,0.6068819761276245,0.43856048583984375,0.006645656190812588,-0.009013112634420395,-35.363264150000006,149.16523585,251203.0,5.5,7.5,-0.5,0.0,3.5,-1007.0,441.5,9.5,-5.5,294684.0
07:12:23,RTL,-0.002998767653480172,0.004047541879117489,0.5905727446079254,-0.6464996933937073,0.0009855732787400484,-0.0075022499077022076,-35.363262950000006,149.16523654999997,251212.5,2.5,5.0,-0.5,0.0,-29.0,-990.0,-642.0,4.0,-4.0,191824.5
07:12:25,RTL,0.00592040503397584,0.002528619021177292,0.5780417323112488,-0.7668775022029877,0.0035065149422734976,-0.008445318788290024,-35.3632625,149.1652369,250231.0,1.0,2.0,106.0,0.0,-75.5,-921.0,-764.5,6.5,-5.0,88965.0
07:12:26,RTL,0.02068188600242138,0.002609106304589659,0.5739737004041672,0.24581422191113234,0.004959467158187181,0.0005665916833095253,-35.3632625,149.165236975,249349.75,1.0,1.75,114.0,1.5,-35.75,-972.25,247.0,7.75,3.5,8964.0
07:12:27,RTL,-8.392357267439365e-05,0.0030872890492901206,0.565924346446991,-0.061337485909461975,-0.005873243324458599,-0.02053840458393097,-35.363262750000004,149.1652379,248002.5,2.5,-0.5,98.5,1.0,-47.0,-990.0,-59.5,-2.0,-16.5,8964.0
07:12:29,RTL,-0.0002358088968321681,0.0014185780892148614,0.5568307638168335,0.07736986270174384,-0.0004459707997739315,0.0017814603634178638,-35.3632632,149.1652387,245958.5,8.5,-9.0,100.0,0.0,-37.5,-969.5,78.5,3.0,5.0,149684.5
07:12:31,RTL,-0.028575281612575054,0.0037710065953433514,0.5477868020534515,-1.3459789752960205,-0.0009956269059330225,-0.005529408575966954,-35.36326325,149.16523915,243922.0,10.0,-12.5,99.5,0.0,-64.5,-1013.0,-1342.5,1.5,-1.5,290405.0
07:12:32,RTL,-0.0337348822504282,0.004718719748780131,0.544982522726059,-1.3467167615890503,0.0064729879959486425,-0.014969786396250129,-35.363263325,149.16523955,243158.75,11.0,-15.5,99.0,0.75,-54.25,-989.5,-1342.75,9.5,-11.0,123522.0
07:12:33,RTL,-0.0468367300927639,0.003968302393332124,0.5408473312854767,-1.2605296969413757,0.010207566898316145,-0.011964511591941118,-35.36326365,149.16524055,241885.5,13.0,-21.5,102.5,1.5,-35.5,-1050.0,-1256.5,13.0,-8.0,123522.0
07:12:35,RTL,-0.04970169439911842,0.0027322799433022738,0.5339910089969635,-1.165275752544403,-0.0038823785725980997,0.003101073205471039,-35.3632641,149.1652415,239864.5,19.0,-33.0,101.5,0.5,-25.0,-1041.0,-1161.0,-0.5,6.5,118572.5
07:12:37,RTL,-0.03431346453726292,-0.0004847660893574357,0.5276745855808258,-0.33673156797885895,0.0013224162394180894,0.002486752229742706,-35.363264150000006,149.1652412,237825.5,19.5,-34.5,102.0,-1.5,25.5,-1022.5,-332.0,4.0,5.5,113623.0
07:12:38,RTL,-0.03062894521281123,-0.0013123613243806176,0.5254711508750916,-0.5805245619267225,0.001054118009051308,-0.00021311751333996654,-35.36326385,149.165240525,237044.0,17.5,-30.25,103.0,-3.5,22.5,-971.0,-576.5,3.75,3.0,193455.0
07:12:39,RTL,-0.01671822788193822,-0.002458336064592004,0.521646112203598,-0.4289725720882416,0.004859252134338021,-0.004803552874363959,-35.363263,149.16523875000001,235780.5,11.5,-19.5,102.0,-6.0,32.5,-974.5,-424.5,7.5,-1.5,193455.0
07:12:41,RTL,0.0056593818590044975,-0.0003510492970235646,0.5186553597450256,-0.7261173129081726,-0.00031995028257369995,0.004925755667500198,-35.363261249999994,149.1652353,233745.5,-3.5,8.5,99.5,-2.0,7.0,-1003.5,-722.0,2.5,8.0,114918.0
07:12:43,RTL,-0.009918858762830496,0.005236606579273939,0.5150451362133026,-0.45244942605495453,0.002237655338831246,0.0008879420347511768,-35.363261,149.1652355,231686.5,-10.5,19.0,103.5,0.0,28.0,-948.0,-447.5,5.0,4.0,36381.0
07:12:44,RTL,-0.008684265543706715,0.005848114029504359,0.5142876505851746,-0.3151010386645794,0.002212961786426604,-0.0024025904713198543,-35.363261175,149.165235975,230914.5,-10.0,16.0,100.75,0.25,27.0,-1004.0,-310.25,5.5,1.0,177158.0
07:12:45,RTL,-0.025795064866542816,0.004317574901506305,0.5121462345123291,-0.8836281299591064,-0.0031735391821712255,0.005203129956498742,-35.36326165,149.1652369,229621.5,-7.5,9.0,100.5,1.5,-2.5,-1003.5,-879.0,0.5,9.0,177158.0
07:12:47,RTL,-0.029206802137196064,0.0035011572763323784,0.5091439783573151,-1.013844907283783,0.004121996113099158,-0.007000401616096497,-35.36326235,149.16523805,227593.0,0.0,-0.5,98.0,2.0,-17.0,-990.0,-1010.0,7.0,-3.0,98974.0
07:12:49,RTL,-0.04884043708443642,0.005335296271368861,0.5063937306404114,-1.3466989398002625,2.4490756914019585e-05,-0.0029154190560802817,-35.3632634,149.16524049999998,225541.5,9.5,-19.5,101.0,0.5,-37.5,-1017.5,-1344.0,3.0,0.5,20790.0
07:12:50,RTL,-0.04845959693193436,0.003670753911137581,0.5052294582128525,-1.1319441497325897,-0.0012900152942165732,-0.0020107784075662494,-35.363263675,149.16524097500002,224779.0,11.25,-24.5,99.25,-1.25,-23.0,-986.25,-1128.75,2.0,1.25,55013.0
07:12:51,RTL,-0.038898130878806114,0.0004932030133204535,0.5044031739234924,-1.1339035630226135,0.002630027593113482,-0.0029647171031683683,-35.3632636,149.1652406,223509.0,13.0,-27.5,99.0,-2.5,-23.0,-937.0,-1131.0,6.0,0.5,55013.0
07:12:53,RTL,-0.017025787848979235,0.0003142976784147322,0.5019986927509308,-1.1382140219211578,0.006434836075641215,0.004864829126745462,-35.3632626,149.16523845,221448.5,7.0,-15.0,97.0,-0.5,-26.0,-996.5,-1136.0,9.5,8.0,51851.5
07:12:55,RTL,-0.01798488199710846,0.005893981317058206,0.5009875297546387,-0.201954185962677,0.008180170319974422,0.0033072892110794783,-35.36326215,149.1652378,219429.0,0.0,0.0,101.0,2.5,30.5,-984.0,-198.5,11.0,6.5,48690.0
07:12:56,RTL,-0.030966422520577908,0.007762791239656508,0.5005011111497879,0.2601691484451294,0.0025293735088780522,-0.0016176460776478052,-35.36326265,149.1652391,218660.25,2.0,-4.5,97.5,1.75,45.5,-1020.75,262.75,5.75,1.75,195291.0
07:12:57,RTL,-0.025111496448516846,0.0036422519478946924,0.4988439232110977,1.0511454045772552,-0.0038703110767528415,-0.004474755492992699,-35.3632633,149.16524055000002,217375.5,7.0,-18.5,95.5,0.0,76.0,-997.0,1053.5,0.0,-1.0,195291.0
07:12:59,RTL,0.0036709547275677323,-0.0005995109440846136,0.49853283166885376,0.5174888521432877,0.0055651848670095205,0.008395521901547909,-35.363262750000004,149.1652384,215335.0,7.5,-14.0,101.0,0.0,66.5,-992.5,519.5,9.0,12.0,156359.5
07:13:01,RTL,-0.006478964234702289,0.0036170053062960505,0.4971148669719696,1.0871700048446655,-0.007114175823517144,0.00021777767688035965,-35.3632627,149.165239,213325.5,5.5,-11.5,99.5,-1.0,72.0,-1020.0,1088.5,-4.0,3.5,117428.0
07:13:02,RTL,-0.0011632571840891615,0.0038160699186846614,0.4972236454486847,1.2614479959011078,0.003435971972066909,0.0038640236598439515,-35.363262875,149.165239225,212569.5,5.5,-12.25,101.25,-0.5,73.75,-1001.5,1262.25,6.5,7.25,163747.0
07:13:03,RTL,0.0004502447118284181,0.00458381325006485,0.4965008497238159,1.3219484686851501,-0.001267571933567524,0.007988716010004282,-35.3632629,149.1652394,211303.5,6.0,-15.5,103.0,0.5,69.0,-1014.5,1322.5,1.5,11.0,163747.0
07:13:05,RTL,0.013933505397289991,0.0022299507400020957,0.49502481520175934,0.895877331495285,0.0002195283304899931,0.0014678387669846416,-35.3632629,149.1652392,209252.0,6.5,-16.0,101.5,0.0,2.5,-1010.5,892.5,3.5,5.0,205217.5
07:13:07,RTL,0.0004232342471368611,0.004187816521152854,0.49422888457775116,0.5248823165893555,-0.0002096380339935422,-0.008331541437655687,-35.3632631,149.16523965,207206.0,8.5,-17.0,103.5,1.5,-18.5,-986.0,521.0,3.0,-4.5,246688.0
07:13:08,RTL,-0.007066019577905536,0.004401613492518663,0.49383869022130966,0.2715457659214735,-0.0010127700516022742,-0.00739326182520017,-35.3632633,149.16524015,206439.25,10.75,-20.5,103.0,1.75,-30.25,-1022.25,267.75,2.5,-3.5,47836.0
07:13:09,RTL,-0.0074989498825743794,0.0031701907282695174,0.4933965504169464,0.39796319603919983,-0.0027130487142130733,0.0022434364072978497,-35.3632638,149.165241,205166.5,14.0,-27.0,103.0,0.0,-28.5,-944.5,393.5,1.5,6.0,47836.0
07:13:11,RTL,0.014307371340692043,-0.00476104486733675,0.4924898147583008,-0.42909106612205505,-0.0013725016033276916,0.007316824048757553,-35.363263,149.16523845,203114.5,10.0,-19.0,102.0,-3.5,-49.5,-959.5,-433.5,1.5,10.5,121536.5
07:13:13,RTL,0.022564935497939587,0.0004808633602806367,0.49435630440711975,-0.9721520841121674,0.0022345345932990313,-0.00821267836727202,-35.36326135,149.1652349,201079.0,-2.0,11.0,100.5,0.0,-73.5,-986.5,-975.5,5.0,-4.0,195237.0
07:13:14,RTL,0.006268921424634755,0.0038739211158826947,0.49391670525074005,-1.1276531666517258,0.0033713970915414393,-0.008099702652543783,-35.3632613,149.1652352,200306.75,-4.75,16.25,101.25,2.0,-75.25,-991.25,-1131.25,6.25,-3.75,177207.0
07:13:15,RTL,-0.02431218884885311,0.00733609264716506,0.4940372258424759,-1.3192082643508911,0.0018987474031746387,-0.011010839603841305,-35.363262,149.1652373,199027.5,-2.0,9.0,98.0,4.0,-80.5,-985.5,-1322.0,5.0,-6.5,177207.0
07:13:17,RTL,-0.05191323906183243,0.0029907337157055736,0.49289530515670776,-1.2033651471138,-0.00035807141102850437,-0.004352674470283091,-35.363263450000005,149.1652407,196996.0,8.0,-17.5,98.5,0.0,-32.5,-997.5,-1204.5,2.5,0.0,211108.0
07:13:19,RTL,-0.0035352736013010144,-0.004364293068647385,0.4926886707544327,-0.7132828235626221,-0.003841049794573337,0.008118969155475497,-35.363262500000005,149.16523769999998,194942.0,5.0,-13.0,101.5,-5.0,13.5,-1028.5,-713.5,-0.5,12.0,245009.0
07:13:21,RTL,0.03618781454861164,-0.00046904692135285586,0.4925355464220047,1.0053716897964478,-0.0035746885696426034,-0.001032483298331499,-35.36326095,149.16523425,192915.5,-8.0,18.0,101.0,-1.5,71.0,-1020.5,1005.5,0.0,2.5,2985.0
07:13:23,RTL,0.03792739845812321,0.0022093142615631223,0.49205856025218964,1.1767252087593079,-0.0069748652167618275,-0.002711842069402337,-35.3632609,149.16523454999998,190889.0,-12.5,26.5,101.5,0.5,33.0,-962.5,1174.0,-2.5,0.5,2985.0
07:13:24,RTL,0.03997494373470545,2.8188522264827043e-05,0.491605669260025,1.2412739992141724,-0.0030677593895234168,0.006277683889493346,-35.3632609,149.16523447499998,190122.0,-12.0,24.25,102.5,-0.75,35.0,-1025.25,1239.25,0.25,9.75,131771.0
07:13:25,RTL,0.045360811054706573,0.0008499963441863656,0.4913443922996521,1.045590877532959,-0.003344048745930195,-0.0032886015251278877,-35.3632609,149.1652341,188859.0,-13.0,29.0,103.0,0.0,22.0,-1042.0,1043.5,0.5,1.0,131771.0
07:13:27,RTL,0.046581801027059555,0.00047150418686214834,0.4922855496406555,0.6711717247962952,-0.0029570632614195347,-0.003108292818069458,-35.3632608,149.1652339,186817.0,-12.5,29.0,106.0,0.0,-14.5,-982.5,668.5,0.0,1.0,153769.0
07:13:29,RTL,0.03310938458889723,0.0030071025248616934,0.4918002337217331,0.20620639622211456,-0.0024954674299806356,0.011755461571738124,-35.3632609,149.16523435,184767.5,-13.0,29.0,104.5,0.0,-30.5,-994.5,203.5,0.5,15.5,153769.0
07:13:30,RTL,0.034184728749096394,0.0008904120186343789,0.4911826550960541,-0.23289310280233622,-0.00015599181642755866,-0.0032171927159652114,-35.36326085,149.165234275,184003.5,-12.75,26.25,103.5,0.0,-50.75,-972.0,-234.75,3.0,1.0,195971.0
07:13:31,RTL,0.0480546560138464,0.00018083255008605192,0.4918478727340698,-0.07421915791928768,0.0007117601344361901,-0.005207170499488711,-35.3632607,149.16523354999998,182716.5,-14.5,30.5,103.5,0.0,-44.0,-989.0,-76.0,3.5,-0.5,195971.0
07:13:33,RTL,0.02992635779082775,0.0022947245743125677,0.49173520505428314,-0.8582442998886108,0.0012019483838230371,-0.005152868921868503,-35.3632606,149.1652335,180667.5,-14.5,33.0,100.5,2.0,-77.5,-979.5,-858.5,4.0,-1.0,40842.0
07:13:35,RTL,-0.009452955564484,0.006471307948231697,0.4909672439098358,-1.0087028443813324,0.0001169377937912941,-0.007275287294760346,-35.36326185,149.16523675,178601.5,-7.5,18.5,96.0,4.5,-79.5,-962.5,-1008.5,3.5,-3.0,40842.0
07:13:36,RTL,-0.007416014719638042,0.0064008578192442656,0.4914805740118027,-0.13602164015173912,-0.001986661402042955,-0.009571453323587775,-35.3632625,149.1652382,177833.5,-2.0,6.5,99.75,4.0,-53.75,-997.75,-136.5,1.5,-5.5,7597.0
07:13:37,RTL,-0.01575499912723899,0.005697846645489335,0.49133291840553284,-0.2800023630261421,-0.0034957164898514748,-0.004236757522448897,-35.36326335,149.1652401,176574.0,6.5,-11.5,101.5,2.0,-58.5,-944.5,-280.5,0.0,0.0,7597.0
07:13:39,RTL,-0.02798799891024828,0.0002594274701550603,0.49101829528808594,-0.832069605588913,-0.007635694462805986,0.0030143586918711662,-35.3632642,149.1652414,174540.5,16.0,-29.5,101.0,0.0,-66.5,-994.0,-832.5,-4.0,6.5,60761.0
07:13:41,RTL,-0.009151909383945167,-0.0011453182087279856,0.49152596294879913,-1.1439006924629211,-0.0010407279478386045,-0.0015059669967740774,-35.3632635,149.16523955000002,172502.5,14.5,-23.0,98.5,0.0,-65.5,-984.5,-1144.5,2.0,2.0,60761.0
07:13:42,RTL,-0.018508843379095197,0.0007403293257084442,0.49127160757780075,-1.357035756111145,-7.894929149188101e-05,0.0018528500222600996,-35.363263275,149.1652392,171731.0,13.0,-18.5,100.25,-0.5,-67.0,-992.0,-1357.0,3.0,5.25,262010.0
07:13:43,RTL,-0.026229724287986755,0.0006087993824621662,0.49145615100860596,-0.9951701462268829,0.0009132855338975787,-0.003966285148635507,-35.36326305,149.16523895,170446.5,9.5,-14.5,99.0,-1.0,-31.0,-1036.0,-1012.0,2.0,-6.0,262010.0
07:13:45,RTL,-0.015187019016593695,-0.0002352253213757649,0.4913884699344635,-0.6778994202613831,0.00020669924560934305,0.002180354902520776,-35.36326255,149.1652379,168912.5,5.0,-7.5,96.0,-2.5,12.0,-999.0,-675.5,3.0,6.5,129765.0
07:13:47,RTL,-0.00017695516968766847,-0.0016139867172266047,0.4915069043636322,-0.8998205860455831,-0.0004344657063484192,0.0011887963240345318,-35.36326163333333,149.16523576666665,166664.0,-2.0,7.0,99.66666666666667,-3.0,1.5,-960.0,-928.0,2.5,6.0,129765.0
07:13:48,RTL,0.0064443500790124135,-0.0011875176763472457,0.4914414385954539,-0.7627907395362854,0.0015070328178505104,-0.001797556256254514,-35.36326116666666,149.16523473333334,165735.66666666666,-7.0,16.666666666666668,100.0,-2.0,5.25,-1013.25,-778.75,4.0,1.5,54891.0
07:13:49,RTL,0.017008130128184955,-0.00012256859918124974,0.49158358573913574,0.1349967618783315,0.0023999286349862814,-0.0019454996411999066,-35.363260833333335,149.16523400000003,164639.33333333334,-11.0,25.0,100.0,-0.3333333333333333,42.666666666666664,-1000.6666666666666,138.33333333333334,5.0,2.0,54891.0
07:13:51,RTL,-0.0057837460190057755,0.003552742302417755,0.4915105104446411,-0.13138990104198456,-0.0006669070571660995,0.006278365384787321,-35.3632612,149.1652352,162430.0,-12.0,26.0,97.0,0.0,34.0,-948.0,-127.0,2.0,10.0,74820.0
07:13:53,RTL,0.006724362290697172,-0.0011800362553913146,0.4908314645290375,-0.1715733576565981,-0.0010432114358991385,0.001586340251378715,-35.3632612,149.1652349,160779.0,-10.0,21.0,98.0,-1.5,36.5,-980.0,-167.5,1.5,5.0,74820.0
07:13:54,RTL,0.024236530996859074,-0.0011144949530716985,0.4913671836256981,0.6529907658696175,0.002351358183659613,0.005436009261757135,-35.363261050000006,149.16523425,159762.75,-11.5,26.0,101.0,-0.5,61.75,-996.0,657.25,5.0,9.0,122563.0
07:13:55,RTL,0.025070179253816605,-0.00023571046040160581,0.49133704602718353,1.057055652141571,-0.0016865654615685344,-0.004591002594679594,-35.36326085,149.1652339,158742.0,-13.0,30.0,101.0,-1.0,73.0,-999.0,1061.5,1.0,-1.0,122563.0
07:13:57,RTL,0.033140020444989204,0.0027953285025432706,0.49231262505054474,1.1384148299694061,0.0018623380456119776,-0.0062744522001594305,-35.3632606,149.1652336,156680.0,-15.0,34.0,103.5,1.0,65.0,-1104.5,1142.5,4.5,-2.0,59712.0
07:13:59,RTL,0.012727655004709959,0.004188927123323083,0.4917650818824768,1.4089812636375427,0.003588932449929416,0.0006612385623157024,-35.3632616,149.16523615,154629.0,-10.0,23.0,98.5,3.0,50.0,-1040.5,1412.5,6.5,4.0,59712.0
07:14:00,RTL,0.007160299632232636,0.00320431892760098,0.4917358309030533,1.4032882452011108,-0.0032314711716026068,0.009070475120097399,-35.363262175,149.165237225,153608.5,-4.0,10.0,98.25,1.75,67.5,-1008.0,1407.5,-0.25,12.5,165113.0
07:14:01,RTL,0.0012589090038090944,0.001776640274329111,0.49203018844127655,0.9475985765457153,0.0001816670410335064,0.00506588991265744,-35.36326245,149.16523765,152581.5,-0.5,5.0,99.0,1.5,56.0,-1111.5,953.0,3.0,8.5,165113.0
07:14:03,RTL,-0.014986825175583363,0.004034211626276374,0.4924345016479492,1.158826619386673,-0.0007418009918183088,0.002815181273035705,-35.363263450000005,149.16523990000002,150539.5,7.5,-10.0,98.5,3.5,62.5,-1076.5,1163.0,2.5,6.0,166022.0
07:14:05,RTL,-0.010417351732030511,0.002106439642375335,0.49131031334400177,1.2361738681793213,-0.01094618858769536,0.0015162155032157898,-35.363264150000006,149.1652415,148508.5,16.0,-28.5,98.5,1.5,41.0,-991.5,1237.5,-8.0,4.5,166022.0
07:14:06,RTL,-0.006777495611459017,-0.0008098122634692118,0.491006575524807,1.2052077949047089,-0.003985070681665093,-0.0026482066605240107,-35.363264225,149.165241375,147485.75,18.5,-32.5,99.25,-1.5,35.5,-1015.0,1206.5,-1.0,0.75,7517.0
07:14:07,RTL,0.005790031456854194,-0.000601647247094661,0.49140387773513794,1.295807957649231,-0.0015086159110069275,0.0027433118084445596,-35.363263950000004,149.16524065,146474.0,18.0,-30.0,102.0,-0.5,37.5,-953.5,1296.5,1.5,5.5,7517.0
07:14:09,RTL,-0.0019478703616186976,0.0036743823438882828,0.49183855950832367,1.1691912412643433,0.0018950817175209522,0.001628531375899911,-35.36326375,149.16524065,144424.0,15.5,-24.5,95.0,1.0,26.5,-1006.0,1169.0,4.5,4.5,170035.0
07:14:11,RTL,-0.00725848414003849,0.0009921302407747135,0.49084003269672394,0.7680917978286743,-0.006351526593789458,-0.004700058372691274,-35.36326405,149.16524145,142384.0,18.0,-34.0,96.5,-0.5,5.5,-1043.5,767.0,-3.0,-1.0,170035.0
07:14:12,RTL,0.0037502909490285674,-0.0025731517234817147,0.4911114573478699,0.32810905086807907,0.0004018280887976289,0.006236982939299196,-35.363263724999996,149.165240475,141368.25,16.75,-32.75,100.5,-3.75,-23.75,-959.75,326.25,2.5,9.5,23509.0
07:14:13,RTL,0.019137929193675518,-0.003996609477326274,0.49097342789173126,-0.23640969768166542,0.003414096077904105,0.008289739955216646,-35.363262899999995,149.1652385,140338.0,13.0,-23.0,95.0,-4.0,-39.0,-1045.0,-237.5,5.5,11.5,23509.0
07:14:15,RTL,0.007355248788371682,0.00014745112275704741,0.49282434582710266,-1.2845520973205566,0.007549957488663495,-0.009227476781234145,-35.363261699999995,149.16523575,138295.0,1.0,4.5,95.5,0.0,-76.5,-976.0,-1285.5,10.0,-5.0,285153.0
07:14:17,RTL,-0.0031645912677049637,0.004026185139082372,0.4926769286394119,-0.21518465038388968,0.003076531575061381,-0.005570433160755783,-35.36326225,149.16523734999998,136244.0,0.5,5.0,98.0,3.0,-58.0,-1064.5,-216.0,5.5,-2.0,285153.0
07:14:18,RTL,-0.013698924274649471,0.004944161861203611,0.4918181896209717,-0.5443217903375626,-0.002426553866825998,-0.008946330519393086,-35.363262875000004,149.1652389,135232.0,4.5,-3.75,96.75,3.25,-63.0,-981.25,-546.0,0.5,-5.25,74602.0
07:14:19,RTL,-0.036563122645020485,0.0030696133035235107,0.4914592057466507,-1.3511179685592651,-0.006198373157531023,-0.0009376533562317491,-35.3632634,149.16524005,134223.0,9.0,-15.5,98.0,0.5,-77.0,-975.0,-1352.0,-3.0,2.5,74602.0
07:14:21,RTL,-0.013862041756510735,-0.0003691806268761866,0.49208304286003113,-0.6746834181249142,-0.0015800317050889134,0.0033326930133625865,-35.363263,149.16523875000001,132132.0,9.5,-15.5,99.5,-2.5,-4.0,-985.5,-673.5,1.0,6.5,142645.0
07:14:23,RTL,-0.0020694774575531483,0.00044098910439061,0.4922260493040085,0.19424307346343994,-0.005387454410083592,0.004301828448660672,-35.3632623,149.16523734999998,130087.5,2.5,-2.0,101.0,-0.5,36.0,-994.0,196.5,-3.0,7.5,142645.0
07:14:24,RTL,-0.0026949513267027214,0.0002615562698338181,0.4922560676932335,-0.0475556431338191,-0.0019770681392401457,0.004983633989468217,-35.363262125,149.165236875,129117.5,0.25,2.0,98.25,-0.5,41.0,-971.0,-44.75,0.5,8.5,113835.0
07:14:25,RTL,-0.0061409967020154,0.0011558669211808592,0.4914606362581253,-0.10105437319725752,0.0006315287901088595,-0.004750879947096109,-35.363262,149.16523675000002,128096.0,-1.0,5.5,100.0,-0.5,34.5,-1026.0,-98.5,2.5,-1.0,113835.0
07:14:27,RTL,0.034118263982236385,0.0010171131361857988,0.49160973727703094,0.9460519850254059,0.0009951491374522448,0.009391155559569597,-35.363261550000004,149.16523585,126015.0,-3.5,9.0,100.0,-0.5,28.5,-993.5,945.0,3.5,12.5,8763.0
07:14:29,RTL,0.006890214630402625,0.006275736028328538,0.4923085421323776,0.7853248119354248,0.0011592598166316748,-3.615720197558403e-05,-35.363262,149.16523719999998,123972.0,-3.0,9.0,100.5,3.0,2.5,-1002.5,783.5,3.0,3.5,8763.0
07:14:30,RTL,0.0003520553473208565,0.004899889347143471,0.49206021428108215,0.9962127804756165,0.0007021757774055004,0.00423698389204219,-35.36326255,149.165238575,123008.5,0.75,-0.75,100.25,1.0,18.0,-1003.0,994.75,3.25,7.25,88529.0
07:14:31,RTL,-0.011337519070366398,0.0016219811732298695,0.4918213486671448,-0.42445307970046997,-0.005772460019215941,0.0005849812878295779,-35.3632629,149.16523899999999,121946.5,4.5,-10.0,102.0,1.0,-38.5,-972.0,-426.0,-2.5,4.0,88529.0
07:14:33,RTL,-0.018230650573968887,-0.0014706666697748005,0.49206511676311493,-1.2957229018211365,-0.0045192905236035585,0.00014954397920519114,-35.3632626,149.16523769999998,119849.0,3.0,-5.0,103.5,-1.0,-39.0,-1046.0,-1294.5,-2.0,3.0,171421.0
07:14:35,RTL,-0.010007692617364228,0.0006419134442694485,0.49273762106895447,-1.1894710659980774,0.0017934584757313132,-0.001355547341518104,-35.363262,149.16523625000002,117809.0,-0.5,7.0,98.5,0.5,-23.5,-944.0,-1188.0,4.0,2.0,171421.0
07:14:36,RTL,-0.02456519939005375,0.0029822778305970132,0.4917893409729004,-1.0832273066043854,0.0003525507927406579,-8.970208000391722e-06,-35.363262150000004,149.16523695,116785.5,-0.25,7.75,101.5,1.0,-21.75,-1013.0,-1081.25,2.25,3.25,104427.0
07:14:37,RTL,-0.023518037050962448,0.0031081809429451823,0.4924551099538803,-0.3557835351675749,0.0012303116964176297,-0.0006291919853538275,-35.36326235,149.16523765,115763.0,0.5,2.5,101.0,0.0,25.5,-994.5,-353.5,3.5,2.5,104427.0
07:14:39,RTL,-0.006067850859835744,-0.00028117556212237105,0.4918399602174759,0.2163260467350483,-0.003852942492812872,0.004961877129971981,-35.3632624,149.16523734999998,113709.0,0.5,1.0,98.5,-1.0,50.0,-1039.5,218.5,-1.0,7.5,124360.0
07:14:41,RTL,0.01872345618903637,-0.0007742407033219934,0.4926181435585022,1.2688459753990173,-0.006002978305332363,0.0029978331876918674,-35.3632622,149.16523669999998,111683.0,0.0,5.5,100.0,-0.5,70.0,-1013.0,1269.5,-3.5,5.5,124360.0
07:14:42,RTL,0.026281089521944523,-0.000506198157381732,0.4925270602107048,1.4018469154834747,0.00499084236798808,0.004218593647237867,-35.3632621,149.16523645,110659.75,-0.5,7.5,100.75,-2.25,57.75,-1020.75,1401.75,7.25,7.25,90847.0
07:14:43,RTL,0.03233835939317942,-0.000433000925113447,0.4921242743730545,1.2384101152420044,-0.0006906789494678378,-0.0038744958583265543,-35.36326185,149.165236,109646.5,-2.0,9.5,98.5,-0.5,33.0,-983.5,1237.5,1.0,-0.5,90847.0
07:14:45,RTL,0.025559987872838974,0.0027639804175123572,0.49234460294246674,0.09904133901000023,0.00021156622096896172,-0.0014646040508523583,-35.363261449999996,149.16523560000002,107605.5,-6.0,15.5,100.0,0.0,-31.0,-995.0,96.5,2.0,2.0,186833.0
07:14:47,RTL,0.017607422545552254,0.002497503417544067,0.4924043118953705,-0.4986584186553955,-0.0029200796270743012,-0.004028023919090629,-35.3632615,149.1652359,105561.5,-6.0,13.0,101.0,0.5,-55.5,-1024.5,-499.5,-0.5,0.0,186833.0
07:14:48,RTL,0.00995942228473723,0.0008517246660630917,0.4926355853676796,-0.922317773103714,-0.002635784476296976,-0.005019573611207306,-35.3632615,149.16523585,104545.0,-6.0,13.25,101.75,-0.25,-68.75,-993.25,-923.0,-0.5,-1.5,267825.0
07:14:49,RTL,0.014569425489753485,-0.0011645083432085812,0.49257704615592957,-1.0164872109889984,-0.007705080788582563,-0.00197239697445184,-35.3632615,149.1652354,103524.0,-5.5,13.5,100.5,0.5,-78.5,-940.0,-1016.5,-5.0,1.5,267825.0
07:14:51,RTL,0.0038455237518064678,0.0034255628706887364,0.4928983598947525,-1.0045361518859863,0.004619478480890393,-0.008752030786126852,-35.363261699999995,149.16523575000002,101479.5,-5.0,18.0,99.5,3.0,-78.0,-1012.5,-1004.5,6.5,-5.0,284197.0
07:14:53,RTL,-0.011921233497560024,0.006793803535401821,0.49401088058948517,0.048570528626441956,0.006462777266278863,0.0030550723895430565,-35.363263200000006,149.16523949999998,99427.5,5.5,-5.0,106.0,3.0,-58.5,-939.0,47.0,8.0,6.0,284197.0
07:14:54,RTL,-0.024902915116399527,0.004798879264853895,0.49285606294870377,0.4845640822313726,-0.003005265782121569,-0.00629451428540051,-35.363264075,149.16524147500002,98405.25,13.25,-20.5,97.0,3.25,-19.75,-1004.0,482.75,-0.5,-3.0,147356.0
07:14:55,RTL,-0.03687853924930096,0.004326758906245232,0.4925609529018402,0.3506321758031845,-0.0004824493080377579,-0.0008190906373783946,-35.363264799999996,149.16524305000002,97389.0,21.0,-36.5,99.5,2.5,-27.5,-1052.0,348.5,1.5,1.5,147356.0
07:14:57,RTL,-0.027669728733599186,0.0018894078966695815,0.49196094274520874,0.07309488952159882,-0.006085934583097696,-0.004812591942027211,-35.3632651,149.16524379999998,95357.5,28.0,-53.5,97.0,-0.5,-32.0,-999.0,70.0,-3.5,-1.5,198176.0
07:14:59,RTL,-0.004343430045992136,-0.0015353220514953136,0.4917583614587784,-0.020556136965751648,-0.0026146640302613378,0.005068351747468114,-35.36326435,149.16524195,93311.5,25.0,-46.5,99.5,-3.5,-28.5,-1002.5,-24.5,0.0,8.0,198176.0
07:15:00,RTL,0.009462289526709355,-0.002072850416880101,0.49210481345653534,0.6902147382497787,-0.002351690985960886,-0.0014550777850672603,-35.363263724999996,149.16524045,92289.5,19.75,-36.0,99.75,-2.0,-1.5,-998.5,686.25,-0.25,1.5,227136.0
07:15:01,RTL,0.018456163350492716,-0.0024988967925310135,0.4928051382303238,0.45054593682289124,0.006180279888212681,0.011333919363096356,-35.36326305,149.16523890000002,91265.5,14.0,-24.0,100.5,-3.5,-9.5,-1015.5,446.0,8.0,14.0,227136.0
07:15:03,RTL,-0.0039822065737098455,-0.0007165708229877055,0.49259309470653534,-1.395757257938385,0.0008787044789642096,-0.0013083461672067642,-35.3632622,149.16523695,89223.5,3.0,-2.0,97.5,-1.0,-70.0,-987.0,-1398.5,2.5,1.5,47053.0
07:15:05,RTL,-0.0019009623065358028,0.0009089574159588665,0.49355560541152954,-1.242722988128662,-0.0006971863331273198,-0.0022501989733427763,-35.363261949999995,149.16523654999997,87171.5,1.0,3.0,92.5,0.5,-70.5,-1033.0,-1246.0,1.0,0.5,47053.0
07:15:06,RTL,-0.007825844833860174,0.002154974907170981,0.49299047142267227,-1.1862518936395645,-0.0024407906166743487,-0.005824183986987919,-35.363262175,149.165237025,86150.5,0.75,3.75,98.0,1.0,-75.25,-983.5,-1189.25,-0.25,-2.5,193997.0
07:15:07,RTL,-0.02070913091301918,0.0013575487246271223,0.49255621433258057,-1.2773040533065796,-0.0017351896967738867,-0.004964824998751283,-35.36326245,149.16523765,85129.5,2.0,0.5,95.5,1.0,-57.0,-1052.5,-1279.5,0.5,-2.0,193997.0
07:15:09,RTL,-0.019423233345150948,0.0018826668965630233,0.4932743012905121,-0.3155764192342758,-0.00408016936853528,0.006545356474816799,-35.363262750000004,149.16523825000002,83095.0,3.5,-2.0,97.0,0.5,26.5,-984.0,-315.0,-1.5,9.0,236373.0
07:15:11,RTL,0.00347274006344378,-0.0029470451991073787,0.4916273355484009,0.9082198143005371,-0.0038250653888098896,0.007798824226483703,-35.363262750000004,149.165238,81047.5,5.0,-6.5,98.0,-2.5,69.5,-1077.0,908.0,-2.0,10.0,236373.0
07:15:12,RTL,0.030530027579516172,-0.0038053824682720006,0.49130889773368835,1.1893998682498932,0.0045889391913078725,-0.0005751128774136305,-35.363261975,149.16523619999998,80025.0,0.25,2.0,97.0,-5.25,80.25,-997.0,1188.75,6.5,2.25,22698.0
07:15:13,RTL,0.04352286085486412,-0.004191624699160457,0.4920870214700699,1.283890962600708,0.001266162609681487,-0.00023473729379475117,-35.36326095,149.1652339,79008.5,-7.5,17.5,102.5,-4.0,90.0,-943.0,1284.0,2.5,2.0,22698.0
07:15:15,RTL,0.05192144960165024,0.00030657704246550566,0.4922247976064682,1.3054307699203491,0.003178467508405447,0.002944311941973865,-35.36325965,149.1652315,76991.0,-22.0,46.5,102.5,-0.5,71.5,-1001.5,1305.5,4.5,5.5,129605.0
07:15:17,RTL,0.07075117900967598,0.0022401875467039645,0.49383851885795593,1.3908749222755432,-0.0034503244096413255,-0.0022958676563575864,-35.3632589,149.1652302,74969.0,-30.5,60.0,105.5,-0.5,65.0,-1027.0,1391.5,-1.5,1.0,129605.0
07:15:18,RTL,0.06496498454362154,0.0045902052079327404,0.493853822350502,1.2687475085258484,0.0011852890602312982,-0.0068075465969741344,-35.36325885,149.16523039999998,73951.0,-31.75,60.75,100.5,1.75,31.25,-1029.5,1268.5,2.75,-3.75,296227.0
07:15:19,RTL,0.05219883471727371,0.008881009183824062,0.4950161576271057,0.839445024728775,0.00853770854882896,-0.0066035413183271885,-35.36325935,149.16523180000002,72924.5,-29.5,56.5,104.5,5.5,-5.5,-974.5,839.0,10.5,-3.5,296227.0
07:15:21,RTL,-0.032968804240226746,0.009668036364018917,0.4938035160303116,-0.8248344510793686,-0.005322373122908175,-0.0056729549542069435,-35.363262250000005,149.16523835,70855.0,-9.0,14.5,100.5,6.5,-76.5,-1019.5,-825.5,-2.5,-2.5,172417.0
07:15:23,RTL,-0.040185339748859406,0.0011680196621455252,0.49413327872753143,-1.5567944645881653,0.0010387692600488663,-0.004946460481733084,-35.363263849999996,149.1652408,68821.0,10.5,-21.5,100.5,1.0,-71.5,-943.0,-1556.5,2.5,-1.5,48607.0
07:15:24,RTL,-0.03468050993978977,0.0007466664337698603,0.49447575956583023,-1.3265567421913147,0.0022340106952469796,-0.005807424167869613,-35.36326405,149.16524092499998,67805.5,15.0,-26.0,99.25,1.0,-66.75,-1011.75,-1326.25,4.25,-3.0,64334.0
