time_stamp,MODE,lat,lon,relative_alt,roll,pitch,yaw,rollspeed,pitchspeed,yawspeed,xacc,yacc,zacc,xgyro,ygyro,zgyro,vx,vy,vz,RTL_ALT
11:57:55.792,STABILIZE,-35.3632621,149.1652374,0,-0.00024044743622653186,0.0015985443023964763,0.02696266397833824,0.00028602927341125906,0.00033993591205216944,0.0023035346530377865,0,1,-1000,0,0,0,-1,1,0,1500.0
11:57:55.993,STABILIZE,-35.3632621,149.1652374,0,-0.00024044743622653186,0.0015985443023964763,0.02696266397833824,0.00028602927341125906,0.00033993591205216944,0.0023035346530377865,0,1,-1000,0,0,0,-1,1,0,1500.0
11:57:56.195,STABILIZE,-35.3632621,149.1652374,0,-0.00024044743622653186,0.0015985443023964763,0.02696266397833824,0.00028602927341125906,0.00033993591205216944,0.0023035346530377865,0,1,-1000,0,0,0,-1,1,0,1500.0
11:57:56.397,STABILIZE,-35.3632621,149.1652374,0,-0.00024044743622653186,0.0015985443023964763,0.02696266397833824,0.00028602927341125906,0.00033993591205216944,0.0023035346530377865,0,1,-1000,0,0,0,-1,1,0,1500.0
11:57:56.598,STABILIZE,-35.3632621,149.1652374,0,-0.00033204859937541187,0.0015770622994750738,0.0264033991843462,0.00033790149609558284,0.0002555872197262943,0.0021477059926837683,0,1,-1000,0,0,0,-1,1,0,1500.0
11:57:56.798,STABILIZE,-35.3632621,149.1652374,0,-0.0003824001469183713,0.001532463007606566,0.02626989036798477,0.00019338660058565438,0.00032833285513333976,0.0022514432203024626,0,1,-1000,0,0,0,-2,1,0,1500.0
11:57:56.999,STABILIZE,-35.3632621,149.1652374,0,-0.00042945807217620313,0.0014956248924136162,0.026147451251745224,0.00011105346493422985,0.0002222007606178522,0.0022173987235873938,0,1,-1000,0,0,0,-2,1,0,1500.0
11:57:57.200,STABILIZE,-35.3632621,149.1652374,0,-0.00042945807217620313,0.0014956248924136162,0.026147451251745224,0.00011105346493422985,0.0002222007606178522,0.0022173987235873938,0,1,-1000,0,0,0,-2,1,0,1500.0
11:57:57.401,STABILIZE,-35.3632622,149.1652374,0,-0.00048399894149042666,0.0014516754308715463,0.026031795889139175,0.00021683116210624576,0.0003229341527912766,0.0021821027621626854,0,1,-1000,0,0,0,-2,1,0,1500.0
11:57:57.602,STABILIZE,-35.3632622,149.1652374,0,-0.00048399894149042666,0.0014516754308715463,0.026031795889139175,0.00021683116210624576,0.0003229341527912766,0.0021821027621626854,0,1,-1000,0,0,0,-2,1,0,1500.0
11:57:57.802,STABILIZE,-35.3632622,149.1652374,0,-0.00048399894149042666,0.0014516754308715463,0.026031795889139175,0.00021683116210624576,0.0003229341527912766,0.0021821027621626854,0,1,-1000,0,0,0,-2,1,0,1500.0
11:57:58.003,STABILIZE,-35.3632622,149.1652374,0,-0.00048399894149042666,0.0014516754308715463,0.026031795889139175,0.00021683116210624576,0.0003229341527912766,0.0021821027621626854,0,1,-1000,0,0,0,-2,1,0,1500.0
11:57:58.204,STABILIZE,-35.3632622,149.1652374,0,-0.00048399894149042666,0.0014516754308715463,0.026031795889139175,0.00021683116210624576,0.0003229341527912766,0.0021821027621626854,0,1,-1000,0,0,0,-2,1,0,1500.0
11:57:58.405,STABILIZE,-35.3632622,149.1652374,0,-0.00048399894149042666,0.0014516754308715463,0.026031795889139175,0.00021683116210624576,0.0003229341527912766,0.0021821027621626854,0,1,-1000,0,0,0,-2,1,0,1500.0
11:57:58.606,STABILIZE,-35.3632622,149.1652375,0,-0.00048399894149042666,0.0014516754308715463,0.026031795889139175,0.00021683116210624576,0.0003229341527912766,0.0021821027621626854,0,1,-1000,0,0,0,-1,1,0,1500.0
11:57:58.806,STABILIZE,-35.3632622,149.1652375,0,-0.00048399894149042666,0.0014516754308715463,0.026031795889139175,0.00021683116210624576,0.0003229341527912766,0.0021821027621626854,0,1,-1000,0,0,0,-1,1,0,1500.0
11:57:59.007,STABILIZE,-35.3632622,149.1652375,0,-0.00048399894149042666,0.0014516754308715463,0.026031795889139175,0.00021683116210624576,0.0003229341527912766,0.0021821027621626854,0,1,-1000,0,0,0,-1,1,0,1500.0
11:57:59.208,STABILIZE,-35.3632622,149.1652375,0,-0.00048399894149042666,0.0014516754308715463,0.026031795889139175,0.00021683116210624576,0.0003229341527912766,0.0021821027621626854,0,1,-1000,0,0,0,-1,1,0,1500.0
11:57:59.409,STABILIZE,-35.3632622,149.1652375,0,-0.00048399894149042666,0.0014516754308715463,0.026031795889139175,0.00021683116210624576,0.0003229341527912766,0.0021821027621626854,0,1,-1000,0,0,0,-1,1,0,1500.0
11:57:59.610,STABILIZE,-35.3632622,149.1652375,0,-0.00048399894149042666,0.0014516754308715463,0.026031795889139175,0.00021683116210624576,0.0003229341527912766,0.0021821027621626854,0,1,-1000,0,0,0,-1,1,0,1500.0
11:57:59.811,STABILIZE,-35.3632622,149.1652375,0,-0.00048399894149042666,0.0014516754308715463,0.026031795889139175,0.00021683116210624576,0.0003229341527912766,0.0021821027621626854,0,1,-1000,0,0,0,-1,1,0,1500.0
11:58:00.013,STABILIZE,-35.3632622,149.1652375,0,-0.00048399894149042666,0.0014516754308715463,0.026031795889139175,0.00021683116210624576,0.0003229341527912766,0.0021821027621626854,0,1,-1000,0,0,0,-1,1,0,1500.0
11:58:00.213,STABILIZE,-35.3632622,149.1652375,0,-0.00048399894149042666,0.0014516754308715463,0.026031795889139175,0.00021683116210624576,0.0003229341527912766,0.0021821027621626854,0,1,-1000,0,0,0,-1,1,0,1500.0
11:58:00.414,STABILIZE,-35.3632622,149.1652375,0,-0.0009133568382821977,0.0010037394240498543,0.02475372888147831,0.000274303718470037,0.00023937111836858094,0.0019145167898386717,0,1,-1000,0,0,0,-1,1,0,1500.0
11:58:00.615,STABILIZE,-35.3632622,149.1652375,0,-0.0009084233897738159,0.0009975646389648318,0.02467530407011509,0.00014663563342764974,0.0002684007922653109,0.0019392265239730477,0,1,-1000,0,0,0,-1,1,0,1500.0
11:58:00.816,STABILIZE,-35.3632622,149.1652375,0,-0.0008974792435765266,0.0009900892619043589,0.024599675089120865,0.00018978887237608433,0.00031572053558193147,0.001954354578629136,0,1,-1000,1,0,0,-1,0,0,1500.0
11:58:01.017,STABILIZE,-35.3632622,149.1652375,0,-0.0008810441358946264,0.0009821922285482287,0.0244965348392725,0.00019001157488673925,0.00028316176030784845,0.0017524531576782465,0,1,-1000,0,0,0,-1,0,0,1500.0
11:58:01.219,STABILIZE,-35.3632622,149.1652375,0,-0.0008810441358946264,0.0009821922285482287,0.0244965348392725,0.00019001157488673925,0.00028316176030784845,0.0017524531576782465,0,1,-1000,0,0,0,-1,0,0,1500.0
11:58:01.419,STABILIZE,-35.3632622,149.1652375,0,-0.0008810441358946264,0.0009821922285482287,0.0244965348392725,0.00019001157488673925,0.00028316176030784845,0.0017524531576782465,0,1,-1000,0,0,0,-1,0,0,1500.0
11:58:01.620,STABILIZE,-35.3632622,149.1652375,0,-0.0008810441358946264,0.0009821922285482287,0.0244965348392725,0.00019001157488673925,0.00028316176030784845,0.0017524531576782465,0,1,-1000,0,0,0,-1,0,0,1500.0
11:58:01.821,STABILIZE,-35.3632622,149.1652375,0,-0.0008810441358946264,0.0009821922285482287,0.0244965348392725,0.00019001157488673925,0.00028316176030784845,0.0017524531576782465,0,1,-1000,0,0,0,-1,0,0,1500.0
11:58:02.022,STABILIZE,-35.3632622,149.1652375,0,-0.0008810441358946264,0.0009821922285482287,0.0244965348392725,0.00019001157488673925,0.00028316176030784845,0.0017524531576782465,0,1,-1000,0,0,0,-1,0,0,1500.0
11:58:02.224,STABILIZE,-35.3632622,149.1652375,0,-0.0008810441358946264,0.0009821922285482287,0.0244965348392725,0.00019001157488673925,0.00028316176030784845,0.0017524531576782465,0,1,-1000,0,0,0,-1,0,0,1500.0
11:58:02.425,STABILIZE,-35.3632622,149.1652375,0,-0.0008684574859216809,0.0009458749555051327,0.02408088557422161,0.00024229002883657813,8.676559082232416e-05,0.0017548653995618224,0,2,-1000,1,0,0,-1,1,0,1500.0
11:58:02.626,STABILIZE,-35.3632622,149.1652375,0,-0.0008717809105291963,0.0009450732613913715,0.023990727961063385,0.00022418604930862784,0.0002700763870961964,0.0018805030267685652,0,2,-1000,1,0,0,-1,1,0,1500.0
11:58:02.827,STABILIZE,-35.3632622,149.1652375,0,-0.0008717809105291963,0.0009450732613913715,0.023990727961063385,0.00022418604930862784,0.0002700763870961964,0.0018805030267685652,0,1,-1000,0,0,0,-1,1,0,1500.0
11:58:03.028,STABILIZE,-35.3632622,149.1652375,0,-0.0008717809105291963,0.0009450732613913715,0.023990727961063385,0.00022418604930862784,0.0002700763870961964,0.0018805030267685652,0,33,-953,16,0,0,-1,2,1,1500.0
11:58:03.228,STABILIZE,-35.3632622,149.1652375,0,-0.0008717809105291963,0.0009450732613913715,0.023990727961063385,0.00022418604930862784,0.0002700763870961964,0.0018805030267685652,0,33,-953,16,0,0,-1,2,1,1500.0
11:58:03.429,STABILIZE,-35.3632622,149.1652375,0,-0.0005454341298900545,0.0009352386696264148,0.02373419515788555,0.00020601192954927683,0.00025954790180549026,0.0018649310804903507,0,1,-1000,0,0,0,-1,2,1,1500.0
11:58:03.630,STABILIZE,-35.3632622,149.1652375,0,-0.0005454341298900545,0.0009352386696264148,0.02373419515788555,0.00020601192954927683,0.00025954790180549026,0.0018649310804903507,0,1,-1000,0,0,0,-1,2,1,1500.0
11:58:03.831,STABILIZE,-35.3632622,149.1652375,0,-0.0005454341298900545,0.0009352386696264148,0.02373419515788555,0.00020601192954927683,0.00025954790180549026,0.0018649310804903507,0,1,-1000,0,0,0,-1,2,1,1500.0
11:58:04.033,STABILIZE,-35.3632622,149.1652375,0,-0.0005454341298900545,0.0009352386696264148,0.02373419515788555,0.00020601192954927683,0.00025954790180549026,0.0018649310804903507,0,1,-1000,0,0,0,-1,2,1,1500.0
11:58:04.234,STABILIZE,-35.3632622,149.1652375,0,-0.0005454341298900545,0.0009352386696264148,0.02373419515788555,0.00020601192954927683,0.00025954790180549026,0.0018649310804903507,0,1,-1000,0,0,0,-1,2,1,1500.0
11:58:04.435,STABILIZE,-35.3632622,149.1652375,0,-0.0005454341298900545,0.0009352386696264148,0.02373419515788555,0.00020601192954927683,0.00025954790180549026,0.0018649310804903507,0,2,-1000,0,0,0,-1,2,1,1500.0
11:58:04.636,STABILIZE,-35.3632622,149.1652375,0,-0.0005454341298900545,0.0009352386696264148,0.02373419515788555,0.00020601192954927683,0.00025954790180549026,0.0018649310804903507,0,2,-1000,0,0,0,-1,2,1,1500.0
11:58:04.836,STABILIZE,-35.3632622,149.1652375,0,-0.0005454341298900545,0.0009352386696264148,0.02373419515788555,0.00020601192954927683,0.00025954790180549026,0.0018649310804903507,0,2,-1000,0,0,0,-1,2,1,1500.0
11:58:05.037,STABILIZE,-35.3632622,149.1652375,0,-0.0005454341298900545,0.0009352386696264148,0.02373419515788555,0.00020601192954927683,0.00025954790180549026,0.0018649310804903507,0,1,-1000,0,0,0,-1,2,1,1500.0
11:58:05.239,STABILIZE,-35.3632622,149.1652375,0,-0.0005454341298900545,0.0009352386696264148,0.02373419515788555,0.00020601192954927683,0.00025954790180549026,0.0018649310804903507,0,1,-1000,0,0,0,-1,1,1,1500.0
11:58:05.440,STABILIZE,-35.3632622,149.1652375,0,-0.0005454341298900545,0.0009352386696264148,0.02373419515788555,0.00020601192954927683,0.00025954790180549026,0.0018649310804903507,0,1,-1000,0,0,0,-1,1,1,1500.0
11:58:05.641,STABILIZE,-35.3632622,149.1652375,0,-0.0005454341298900545,0.0009352386696264148,0.02373419515788555,0.00020601192954927683,0.00025954790180549026,0.0018649310804903507,0,2,-1000,0,0,0,-1,1,1,1500.0
11:58:05.842,STABILIZE,-35.3632622,149.1652375,0,-0.0005454341298900545,0.0009352386696264148,0.02373419515788555,0.00020601192954927683,0.00025954790180549026,0.0018649310804903507,0,2,-1000,0,0,0,-1,1,1,1500.0
11:58:06.043,STABILIZE,-35.3632622,149.1652375,0,-0.0005454341298900545,0.0009352386696264148,0.02373419515788555,0.00020601192954927683,0.00025954790180549026,0.0018649310804903507,0,2,-1000,0,0,0,-1,1,1,1500.0
11:58:06.245,STABILIZE,-35.3632622,149.1652375,0,-0.0005454341298900545,0.0009352386696264148,0.02373419515788555,0.00020601192954927683,0.00025954790180549026,0.0018649310804903507,0,2,-1000,0,0,0,-1,1,1,1500.0
11:58:06.446,STABILIZE,-35.3632622,149.1652375,0,-0.0005454341298900545,0.0009352386696264148,0.02373419515788555,0.00020601192954927683,0.00025954790180549026,0.0018649310804903507,0,2,-1000,0,0,0,-1,1,1,1500.0
11:58:06.647,STABILIZE,-35.3632622,149.1652375,0,-0.0005454341298900545,0.0009352386696264148,0.02373419515788555,0.00020601192954927683,0.00025954790180549026,0.0018649310804903507,0,16,-978,0,0,0,-1,3,4,1500.0
11:58:06.848,STABILIZE,-35.3632622,149.1652376,0,-0.0005454341298900545,0.0009352386696264148,0.02373419515788555,0.00020601192954927683,0.00025954790180549026,0.0018649310804903507,0,1,-1000,0,0,0,-1,3,4,1500.0
11:58:07.049,STABILIZE,-35.3632622,149.1652376,0,-0.0005454341298900545,0.0009352386696264148,0.02373419515788555,0.00020601192954927683,0.00025954790180549026,0.0018649310804903507,0,1,-1000,0,0,0,-1,3,4,1500.0
11:58:07.250,STABILIZE,-35.3632622,149.1652376,0,-0.0005454341298900545,0.0009352386696264148,0.02373419515788555,0.00020601192954927683,0.00025954790180549026,0.0018649310804903507,0,2,-1000,1,0,0,-1,3,4,1500.0
11:58:07.451,STABILIZE,-35.3632622,149.1652376,0,-0.0005454341298900545,0.0009352386696264148,0.02373419515788555,0.00020601192954927683,0.00025954790180549026,0.0018649310804903507,0,2,-1000,1,0,0,-1,3,4,1500.0
11:58:07.653,STABILIZE,-35.3632622,149.1652376,0,-0.0008856906788423657,0.0009631970315240324,0.022335762158036232,0.000267764029558748,0.0002703092759475112,0.001723150024190545,0,2,-1000,1,0,0,-1,3,4,1500.0
11:58:07.853,STABILIZE,-35.3632622,149.1652376,0,-0.0008856906788423657,0.0009631970315240324,0.022335762158036232,0.000267764029558748,0.0002703092759475112,0.001723150024190545,0,2,-1000,1,0,0,-1,3,4,1500.0
11:58:08.054,STABILIZE,-35.3632622,149.1652376,0,-0.0008856906788423657,0.0009631970315240324,0.022335762158036232,0.000267764029558748,0.0002703092759475112,0.001723150024190545,0,2,-1000,1,0,0,-1,3,4,1500.0
11:58:08.256,STABILIZE,-35.3632622,149.1652376,0,-0.0008856906788423657,0.0009631970315240324,0.022335762158036232,0.000267764029558748,0.0002703092759475112,0.001723150024190545,0,2,-1000,1,0,0,-1,3,4,1500.0
11:58:08.457,STABILIZE,-35.3632622,149.1652376,0,-0.0008856906788423657,0.0009631970315240324,0.022335762158036232,0.000267764029558748,0.0002703092759475112,0.001723150024190545,0,1,-1000,1,0,0,-1,3,4,1500.0
11:58:08.658,STABILIZE,-35.3632622,149.1652376,0,-0.0011408299906179309,0.0009724642150104046,0.022098667919635773,0.00016019103350117803,0.00019310502102598548,0.0016227078158408403,0,1,-1000,1,0,0,-1,3,4,1500.0
11:58:08.859,STABILIZE,-35.3632622,149.1652375,0,-0.001183308195322752,0.0009717413340695202,0.02203986980021,0.00028630171436816454,0.0002918083919212222,0.0016606842400506139,0,1,-1000,1,0,0,-1,1,2,1500.0
11:58:09.060,STABILIZE,-35.3632622,149.1652375,0,-0.001183308195322752,0.0009717413340695202,0.02203986980021,0.00028630171436816454,0.0002918083919212222,0.0016606842400506139,0,1,-1000,1,0,0,-1,1,2,1500.0
11:58:09.261,STABILIZE,-35.3632622,149.1652375,0,-0.001183308195322752,0.0009717413340695202,0.02203986980021,0.00028630171436816454,0.0002918083919212222,0.0016606842400506139,0,1,-1000,1,0,0,-1,1,2,1500.0
11:58:09.462,STABILIZE,-35.3632622,149.1652375,0,-0.001183308195322752,0.0009717413340695202,0.02203986980021,0.00028630171436816454,0.0002918083919212222,0.0016606842400506139,0,1,-1000,1,0,0,-1,1,2,1500.0
11:58:09.662,STABILIZE,-35.3632622,149.1652375,0,-0.001183308195322752,0.0009717413340695202,0.02203986980021,0.00028630171436816454,0.0002918083919212222,0.0016606842400506139,0,1,-1000,1,0,0,-1,1,2,1500.0
11:58:09.863,STABILIZE,-35.3632622,149.1652375,0,-0.001183308195322752,0.0009717413340695202,0.02203986980021,0.00028630171436816454,0.0002918083919212222,0.0016606842400506139,0,1,-1000,1,0,0,-1,1,2,1500.0
11:58:10.065,STABILIZE,-35.3632622,149.1652375,0,-0.001183308195322752,0.0009717413340695202,0.02203986980021,0.00028630171436816454,0.0002918083919212222,0.0016606842400506139,0,1,-1000,1,0,0,-1,1,2,1500.0
11:58:10.266,STABILIZE,-35.3632622,149.1652375,0,-0.001183308195322752,0.0009717413340695202,0.02203986980021,0.00028630171436816454,0.0002918083919212222,0.0016606842400506139,0,1,-1000,1,0,0,-1,1,2,1500.0
11:58:10.467,STABILIZE,-35.3632622,149.1652375,0,-0.001183308195322752,0.0009717413340695202,0.02203986980021,0.00028630171436816454,0.0002918083919212222,0.0016606842400506139,0,1,-1000,1,0,0,-1,1,2,1500.0
11:58:10.668,STABILIZE,-35.3632622,149.1652375,0,-0.001183308195322752,0.0009717413340695202,0.02203986980021,0.00028630171436816454,0.0002918083919212222,0.0016606842400506139,0,1,-1000,1,0,0,-1,1,2,1500.0
11:58:10.870,STABILIZE,-35.3632622,149.1652375,0,-0.001183308195322752,0.0009717413340695202,0.02203986980021,0.00028630171436816454,0.0002918083919212222,0.0016606842400506139,0,1,-1000,1,0,0,-1,1,2,1500.0
11:58:11.071,STABILIZE,-35.3632622,149.1652375,0,-0.001183308195322752,0.0009717413340695202,0.02203986980021,0.00028630171436816454,0.0002918083919212222,0.0016606842400506139,0,1,-1000,1,0,0,-1,1,2,1500.0
11:58:11.272,STABILIZE,-35.3632622,149.1652375,0,-0.001183308195322752,0.0009717413340695202,0.02203986980021,0.00028630171436816454,0.0002918083919212222,0.0016606842400506139,0,1,-1000,1,0,0,-1,1,2,1500.0
11:58:11.473,STABILIZE,-35.3632622,149.1652375,0,-0.001183308195322752,0.0009717413340695202,0.02203986980021,0.00028630171436816454,0.0002918083919212222,0.0016606842400506139,0,1,-1000,1,0,0,-1,1,2,1500.0
11:58:11.673,STABILIZE,-35.3632622,149.1652375,0,-0.001183308195322752,0.0009717413340695202,0.02203986980021,0.00028630171436816454,0.0002918083919212222,0.0016606842400506139,0,1,-1000,1,0,0,-1,1,2,1500.0
11:58:11.874,STABILIZE,-35.3632622,149.1652375,0,-0.001183308195322752,0.0009717413340695202,0.02203986980021,0.00028630171436816454,0.0002918083919212222,0.0016606842400506139,0,1,-1000,1,0,0,-1,1,2,1500.0
11:58:12.076,STABILIZE,-35.3632622,149.1652375,0,-0.001183308195322752,0.0009717413340695202,0.02203986980021,0.00028630171436816454,0.0002918083919212222,0.0016606842400506139,0,1,-1000,1,0,0,-1,1,2,1500.0
11:58:12.276,STABILIZE,-35.3632622,149.1652375,0,-0.001183308195322752,0.0009717413340695202,0.02203986980021,0.00028630171436816454,0.0002918083919212222,0.0016606842400506139,0,1,-1000,1,0,0,-1,1,2,1500.0
11:58:12.477,STABILIZE,-35.3632622,149.1652375,0,-0.001183308195322752,0.0009717413340695202,0.02203986980021,0.00028630171436816454,0.0002918083919212222,0.0016606842400506139,0,1,-1000,1,0,0,-1,1,2,1500.0
11:58:12.679,STABILIZE,-35.3632622,149.1652375,0,-0.001183308195322752,0.0009717413340695202,0.02203986980021,0.00028630171436816454,0.0002918083919212222,0.0016606842400506139,0,1,-1000,1,0,0,-1,1,2,1500.0
11:58:12.880,STABILIZE,-35.3632622,149.1652375,0,-0.001183308195322752,0.0009717413340695202,0.02203986980021,0.00028630171436816454,0.0002918083919212222,0.0016606842400506139,0,1,-1000,1,0,0,-1,1,2,1500.0
11:58:13.080,STABILIZE,-35.3632622,149.1652375,0,-0.001183308195322752,0.0009717413340695202,0.02203986980021,0.00028630171436816454,0.0002918083919212222,0.0016606842400506139,0,1,-1000,1,0,0,-1,1,2,1500.0
11:58:13.281,STABILIZE,-35.3632622,149.1652375,0,-0.001183308195322752,0.0009717413340695202,0.02203986980021,0.00028630171436816454,0.0002918083919212222,0.0016606842400506139,0,1,-1000,1,0,0,-1,1,2,1500.0
11:58:13.483,STABILIZE,-35.3632622,149.1652375,0,-0.001183308195322752,0.0009717413340695202,0.02203986980021,0.00028630171436816454,0.0002918083919212222,0.0016606842400506139,0,1,-1000,1,0,0,-1,1,2,1500.0
11:58:13.684,STABILIZE,-35.3632622,149.1652375,0,-0.001183308195322752,0.0009717413340695202,0.02203986980021,0.00028630171436816454,0.0002918083919212222,0.0016606842400506139,0,1,-1000,1,0,0,-1,1,2,1500.0
11:58:13.884,AUTO,-35.3632622,149.1652375,2,-0.001272396300919354,0.000988290412351489,0.021909695118665695,0.0002555919927544892,0.0003146399976685643,0.0015485456679016352,0,2,-1000,1,0,0,-1,0,1,1500.0
11:58:14.086,AUTO,-35.3632622,149.1652375,2,-0.001272396300919354,0.000988290412351489,0.021909695118665695,0.0002555919927544892,0.0003146399976685643,0.0015485456679016352,0,2,-1000,1,0,0,-1,0,1,1500.0
11:58:14.287,AUTO,-35.3632622,149.1652375,2,-0.001272396300919354,0.000988290412351489,0.021909695118665695,0.0002555919927544892,0.0003146399976685643,0.0015485456679016352,0,2,-1000,1,0,0,-1,0,1,1500.0
11:58:14.507,AUTO,-35.3632622,149.1652375,2,-0.001272396300919354,0.000988290412351489,0.021909695118665695,0.0002555919927544892,0.0003146399976685643,0.0015485456679016352,0,2,-1000,1,0,0,-1,0,1,1500.0
11:58:14.708,AUTO,-35.363262,149.1652378,1945,0.037475910037755966,-0.0035587302409112453,0.02080710045993328,0.044213950634002686,-0.007934431545436382,0.0030727186240255833,0,-1,-1005,45,-7,2,2,14,-148,1500.0
11:58:14.910,AUTO,-35.3632619,149.1652383,2331,0.04809914901852608,-0.005906571168452501,0.02103627286851406,0.041510649025440216,-0.010410567745566368,0.00341476546600461,0,-3,-1001,42,-9,2,3,23,-149,1500.0
11:58:15.111,AUTO,-35.3632617,149.165239,2722,0.05805005133152008,-0.008686582557857037,0.02128329873085022,0.038033828139305115,-0.011537627317011356,0.003864940721541643,2,-6,-999,38,-10,3,6,35,-149,1500.0
11:58:15.313,AUTO,-35.3632617,149.165239,2722,0.05805005133152008,-0.008686582557857037,0.02128329873085022,0.038033828139305115,-0.011537627317011356,0.003864940721541643,2,-6,-999,38,-10,3,6,35,-149,1500.0
11:58:15.514,AUTO,-35.3632615,149.1652401,3108,0.05800909921526909,-0.004149065352976322,-0.012867686338722706,-0.06363913416862488,0.07343165576457977,-0.08684331923723221,1,-8,-990,-62,74,-87,9,47,-147,1500.0
11:58:15.715,AUTO,-35.3632613,149.1652415,3487,0.026603959500789642,0.019908469170331955,-0.03725709766149521,-0.18050731718540192,0.06440719217061996,-0.09008155018091202,3,-10,-993,-179,65,-90,9,55,-145,1500.0
11:58:15.919,AUTO,-35.3632613,149.1652415,3487,0.026603959500789642,0.019908469170331955,-0.03725709766149521,-0.18050731718540192,0.06440719217061996,-0.09008155018091202,3,-10,-993,-179,65,-90,9,55,-145,1500.0
11:58:16.121,AUTO,-35.3632613,149.1652415,3487,0.026603959500789642,0.019908469170331955,-0.03725709766149521,-0.18050731718540192,0.06440719217061996,-0.09008155018091202,3,-10,-993,-179,65,-90,9,55,-145,1500.0
11:58:16.322,AUTO,-35.3632613,149.1652415,3487,0.026603959500789642,0.019908469170331955,-0.03725709766149521,-0.18050731718540192,0.06440719217061996,-0.09008155018091202,3,-10,-993,-179,65,-90,9,55,-145,1500.0
11:58:16.523,AUTO,-35.363261,149.1652453,4625,-0.03689520061016083,0.02547519840300083,-0.09223762899637222,-0.02449202351272106,-0.010898957028985023,-0.056909773498773575,6,-7,-1003,-23,-10,-57,-4,33,-150,1500.0
11:58:16.724,AUTO,-35.363261,149.165246,5011,-0.04801033437252045,0.014229753986001015,-0.09647466242313385,-0.05796432122588158,-0.06868906319141388,0.0035419361665844917,5,-4,-999,-57,-67,3,-8,21,-150,1500.0
11:58:16.925,AUTO,-35.3632612,149.1652464,5398,-0.06491328775882721,-0.005031600594520569,-0.08892767876386642,-0.0724606066942215,-0.08215989917516708,0.041177816689014435,3,-2,-999,-71,-81,40,-9,6,-149,1500.0
11:58:17.126,AUTO,-35.3632614,149.1652463,5783,-0.07470989227294922,-0.01895897090435028,-0.08113275468349457,0.003767729504033923,-0.018523210659623146,0.008227134123444557,1,1,-1004,4,-17,7,-6,-11,-149,1500.0
11:58:17.327,AUTO,-35.3632614,149.1652463,5783,-0.07470989227294922,-0.01895897090435028,-0.08113275468349457,0.003767729504033923,-0.018523210659623146,0.008227134123444557,1,1,-1004,4,-17,7,-6,-11,-149,1500.0
11:58:17.528,AUTO,-35.3632615,149.1652458,6167,-0.06695606559515,-0.019054509699344635,-0.07989466190338135,0.04605572670698166,0.002454603323712945,0.0057168691419065,-1,4,-1002,46,3,5,-2,-29,-149,1500.0
11:58:17.729,AUTO,-35.3632615,149.1652448,6552,-0.053636617958545685,-0.01846294477581978,-0.07917836308479309,0.057743873447179794,0.0028282650746405125,0.006378194782882929,-3,8,-1001,58,3,5,0,-43,-149,1500.0
11:58:17.931,AUTO,-35.3632615,149.1652448,6552,-0.053636617958545685,-0.01846294477581978,-0.07917836308479309,0.057743873447179794,0.0028282650746405125,0.006378194782882929,-3,8,-1001,58,3,5,0,-43,-149,1500.0
11:58:18.133,AUTO,-35.3632615,149.1652448,6552,-0.053636617958545685,-0.01846294477581978,-0.07917836308479309,0.057743873447179794,0.0028282650746405125,0.006378194782882929,-3,8,-1001,58,3,5,0,-43,-149,1500.0
11:58:18.333,AUTO,-35.3632615,149.1652448,6552,-0.053636617958545685,-0.01846294477581978,-0.07917836308479309,0.057743873447179794,0.0028282650746405125,0.006378194782882929,-3,8,-1001,58,3,5,0,-43,-149,1500.0
11:58:18.587,AUTO,-35.3632614,149.1652403,7710,-0.0072011686861515045,-0.009783371351659298,-0.07808078080415726,0.063844233751297,0.0171948354691267,0.005649850238114595,-8,11,-1003,64,17,5,5,-60,-151,1500.0
11:58:18.788,AUTO,-35.3632613,149.1652386,8099,0.008863400667905807,-0.005253103096038103,-0.07714781165122986,0.06293856352567673,0.01873241364955902,0.0057117268443107605,-9,14,-1004,63,19,5,5,-57,-152,1500.0
11:58:18.989,AUTO,-35.3632612,149.1652371,8489,0.024606961756944656,-0.0006707027205266058,-0.0760350450873375,0.06239687651395798,0.018052276223897934,0.005417446605861187,-8,10,-1004,63,18,5,4,-51,-153,1500.0
11:58:19.190,AUTO,-35.3632611,149.1652357,8882,0.04023919999599457,0.0034261755645275116,-0.07490294426679611,0.06150929629802704,0.01579347811639309,0.004485918674618006,-7,12,-1003,62,16,4,3,-41,-153,1500.0
11:58:19.392,AUTO,-35.363261,149.1652347,9276,0.05105460807681084,0.010506374761462212,-0.07771925628185272,0.03460300341248512,0.03619570657610893,-0.019549453631043434,-5,6,-1001,35,37,-20,2,-29,-153,1500.0
11:58:19.593,AUTO,-35.363261,149.165234,9669,0.05655723437666893,0.02197556383907795,-0.08619990944862366,0.015142997726798058,0.049460574984550476,-0.045272793620824814,-5,6,-1001,35,37,-20,-1,-14,-153,1500.0
11:58:19.794,AUTO,-35.363261,149.165234,9669,0.05655723437666893,0.02197556383907795,-0.08619990944862366,0.015142997726798058,0.049460574984550476,-0.045272793620824814,-3,4,-999,15,50,-45,-1,-14,-153,1500.0
11:58:19.995,AUTO,-35.363261,149.165234,9669,0.05655723437666893,0.02197556383907795,-0.08619990944862366,0.015142997726798058,0.049460574984550476,-0.045272793620824814,-3,4,-999,15,50,-45,-1,-14,-153,1500.0
11:58:20.196,AUTO,-35.363261,149.165234,9669,0.05655723437666893,0.02197556383907795,-0.08619990944862366,0.015142997726798058,0.049460574984550476,-0.045272793620824814,-3,4,-999,15,50,-45,-1,-14,-153,1500.0
11:58:20.397,AUTO,-35.363261,149.165234,9669,0.05655723437666893,0.02197556383907795,-0.08619990944862366,0.015142997726798058,0.049460574984550476,-0.045272793620824814,-3,4,-999,15,50,-45,-1,-14,-153,1500.0
11:58:20.598,AUTO,-35.3632619,149.1652349,11216,0.010501723736524582,0.005992436315864325,-0.09803349524736404,-0.06798326969146729,-0.045329708606004715,0.018381241708993912,6,0,-1001,-67,-44,17,-17,26,-149,1500.0
11:58:20.799,AUTO,-35.3632619,149.1652349,11216,0.010501723736524582,0.005992436315864325,-0.09803349524736404,-0.06798326969146729,-0.045329708606004715,0.018381241708993912,6,0,-1001,-67,-44,17,-17,26,-149,1500.0
11:58:21.000,AUTO,-35.3632622,149.1652355,11600,-0.004477319307625294,-0.0029281661845743656,-0.09507415443658829,-0.04681682586669922,-0.02924918755888939,0.010830320417881012,6,-2,-1004,-46,-28,10,-15,25,-150,1500.0
11:58:21.201,AUTO,-35.3632625,149.1652362,11990,-0.013631841167807579,-0.008430279791355133,-0.09457151591777802,-0.025913340970873833,-0.014807835221290588,-0.0011734128929674625,5,-2,-1003,-25,-14,-1,-12,21,-151,1500.0
11:58:21.403,AUTO,-35.3632627,149.1652367,12376,-0.018221328034996986,-0.011165489442646503,-0.0965895727276802,-0.01135970652103424,-0.00823425967246294,-0.009419725276529789,4,-2,-1002,-10,-7,-9,-8,16,-151,1500.0
11:58:21.604,AUTO,-35.3632629,149.165237,12765,-0.01884669065475464,-0.012348978780210018,-0.10062290728092194,-0.0007401222246699035,-0.0009149585384875536,-0.017951006069779396,2,-1,-1001,0,0,-18,-4,10,-152,1500.0
11:58:21.805,AUTO,-35.3632629,149.165237,12765,-0.01884669065475464,-0.012348978780210018,-0.10062290728092194,-0.0007401222246699035,-0.0009149585384875536,-0.017951006069779396,2,-1,-1001,0,0,-18,-4,10,-152,1500.0
11:58:22.006,AUTO,-35.3632629,149.165237,12765,-0.01884669065475464,-0.012348978780210018,-0.10062290728092194,-0.0007401222246699035,-0.0009149585384875536,-0.017951006069779396,2,-1,-1001,0,0,-18,-4,10,-152,1500.0
11:58:22.207,AUTO,-35.3632629,149.165237,12765,-0.01884669065475464,-0.012348978780210018,-0.10062290728092194,-0.0007401222246699035,-0.0009149585384875536,-0.017951006069779396,2,-1,-1001,0,0,-18,-4,10,-152,1500.0
11:58:22.408,AUTO,-35.3632629,149.165237,12765,-0.010512658394873142,-0.008401123806834221,-0.12009946256875992,0.015463054180145264,0.010933022014796734,-0.028087463229894638,2,-1,-1001,0,0,-18,-4,10,-152,1500.0
11:58:22.609,AUTO,-35.3632628,149.1652371,14336,-0.0057818153873085976,-0.005630604922771454,-0.12760862708091736,0.01943160779774189,0.01011635735630989,-0.027882562950253487,-2,0,-1000,20,10,-28,5,-7,-152,1500.0
11:58:22.810,AUTO,-35.3632628,149.1652371,14336,-0.0057818153873085976,-0.005630604922771454,-0.12760862708091736,0.01943160779774189,0.01011635735630989,-0.027882562950253487,-2,0,-1000,20,10,-28,5,-7,-152,1500.0
11:58:23.011,AUTO,-35.3632626,149.1652368,14728,-0.0014637656277045608,-0.0031453652773052454,-0.13441285490989685,0.016772564500570297,0.012231595814228058,-0.026234565302729607,-2,1,-1000,17,12,-26,6,-8,-153,1500.0
11:58:23.213,AUTO,-35.3632625,149.1652366,15119,0.0024957063142210245,-0.0003434524405747652,-0.1408897489309311,0.01790747418999672,0.010175079107284546,-0.024109236896038055,-3,0,-1000,18,11,-24,6,-8,-153,1500.0
11:58:23.414,AUTO,-35.3632623,149.1652363,15509,0.005658453796058893,0.0020897276699543,-0.1468520611524582,0.010962294414639473,0.009793845005333424,-0.022082459181547165,-3,0,-1000,11,10,-22,6,-8,-153,1500.0
11:58:23.616,AUTO,-35.3632621,149.1652361,15900,0.007795862387865782,0.004433901514858007,-0.15247181057929993,0.006922181695699692,0.009082041680812836,-0.021456999704241753,-3,0,-1000,7,10,-21,5,-6,-153,1500.0
11:58:23.818,AUTO,-35.3632621,149.1652361,15900,0.007795862387865782,0.004433901514858007,-0.15247181057929993,0.006922181695699692,0.009082041680812836,-0.021456999704241753,-3,0,-1000,7,10,-21,5,-6,-153,1500.0
11:58:24.019,AUTO,-35.3632621,149.1652361,15900,0.007795862387865782,0.004433901514858007,-0.15247181057929993,0.006922181695699692,0.009082041680812836,-0.021456999704241753,-3,0,-1000,7,10,-21,5,-6,-153,1500.0
11:58:24.220,AUTO,-35.3632621,149.1652361,15900,0.007795862387865782,0.004433901514858007,-0.15247181057929993,0.006922181695699692,0.009082041680812836,-0.021456999704241753,-3,0,-1000,7,10,-21,5,-6,-153,1500.0
11:58:24.422,AUTO,-35.3632621,149.1652361,15900,0.007795862387865782,0.004433901514858007,-0.15247181057929993,0.006922181695699692,0.009082041680812836,-0.021456999704241753,-3,0,-1000,7,10,-21,5,-6,-153,1500.0
11:58:24.622,AUTO,-35.3632617,149.1652356,17220,0.00944480299949646,0.008200406096875668,-0.16706112027168274,-0.0017981419805437326,0.0017443522810935974,-0.013408753089606762,-1,0,-999,-1,2,-14,1,0,-153,1500.0
11:58:24.824,AUTO,-35.3632616,149.1652356,17610,0.009089460596442223,0.00824243389070034,-0.17036202549934387,-0.002773428102955222,-0.0008886019932106137,-0.01194763369858265,0,0,-999,-1,0,-12,0,1,-153,1500.0
11:58:25.025,AUTO,-35.3632616,149.1652356,18000,0.008092493750154972,0.007748011499643326,-0.17321863770484924,-0.004911400377750397,-0.0030231522396206856,-0.009101701900362968,0,0,-1000,-4,-2,-9,0,3,-153,1500.0
11:58:25.226,AUTO,-35.3632616,149.1652356,18390,0.006904731970280409,0.006990918889641762,-0.17606042325496674,-0.005222927313297987,-0.0019487184472382069,-0.013024374842643738,0,0,-1000,-4,-1,-13,-1,4,-153,1500.0
11:58:25.427,AUTO,-35.3632616,149.1652356,18390,0.006904731970280409,0.006990918889641762,-0.17606042325496674,-0.005222927313297987,-0.0019487184472382069,-0.013024374842643738,0,0,-1000,-4,-1,-13,-1,4,-153,1500.0
11:58:25.628,AUTO,-35.3632615,149.1652356,18784,0.005657639820128679,0.006567161995917559,-0.17924821376800537,-0.004253131803125143,-0.0011153342202305794,-0.013715384528040886,0,0,-1000,-3,0,-14,-2,5,-153,1500.0
11:58:25.829,AUTO,-35.3632615,149.1652357,19175,0.004750622436404228,0.005875371862202883,-0.1823657900094986,-0.0020050168968737125,-0.0016053374856710434,-0.013220017775893211,0,0,-1000,-1,0,-13,-2,5,-153,1500.0
11:58:26.029,AUTO,-35.3632615,149.1652357,19175,0.004750622436404228,0.005875371862202883,-0.1823657900094986,-0.0020050168968737125,-0.0016053374856710434,-0.013220017775893211,0,0,-1000,-1,0,-13,-2,5,-153,1500.0
11:58:26.231,AUTO,-35.3632615,149.1652357,19175,0.004750622436404228,0.005875371862202883,-0.1823657900094986,-0.0020050168968737125,-0.0016053374856710434,-0.013220017775893211,0,0,-1000,-1,0,-13,-2,5,-153,1500.0
11:58:26.432,AUTO,-35.3632615,149.1652357,19175,0.004750622436404228,0.005875371862202883,-0.1823657900094986,-0.0020050168968737125,-0.0016053374856710434,-0.013220017775893211,0,0,-1000,-1,0,-13,-2,5,-153,1500.0
11:58:26.633,AUTO,-35.3632615,149.165236,20340,0.0023356182500720024,0.004140340723097324,-0.1932464987039566,-0.004181102849543095,-0.0009682515519671142,-0.017826002091169357,0,0,-1000,-3,0,-17,-3,6,-153,1500.0
11:58:26.841,AUTO,-35.3632616,149.1652361,20731,0.0017957777017727494,0.003858834970742464,-0.1974870264530182,0.0010154391638934612,0.0005629726219922304,-0.018445277586579323,0,0,-1000,1,1,-18,-3,6,-153,1500.0
11:58:27.042,AUTO,-35.3632616,149.1652362,21121,0.0015490037621930242,0.0036709685809910297,-0.2018643319606781,-0.00032181187998503447,-0.0018540779128670692,-0.014863654971122742,1,0,-1000,0,-1,-15,-3,5,-153,1500.0
11:58:27.244,AUTO,-35.3632616,149.1652363,21511,0.0010758382268249989,0.0034024163614958525,-0.20653656125068665,-0.0006660929066129029,-6.140582263469696e-05,-0.020572032779455185,0,0,-1000,0,0,-20,-3,5,-153,1500.0
11:58:27.445,AUTO,-35.3632616,149.1652364,21901,0.0007885146187618375,0.0032871398143470287,-0.21137024462223053,0.0025467798113822937,7.860618643462658e-05,-0.02038564160466194,0,0,-1000,0,0,-20,-3,4,-153,1500.0
11:58:27.646,AUTO,-35.3632616,149.1652364,21901,0.0007885146187618375,0.0032871398143470287,-0.21137024462223053,0.0025467798113822937,7.860618643462658e-05,-0.02038564160466194,0,0,-1001,3,0,-20,-3,4,-153,1500.0
11:58:27.847,AUTO,-35.3632617,149.1652365,22292,0.0007408893434330821,0.0028733413200825453,-0.21600137650966644,0.0008255249704234302,-0.00026924535632133484,-0.01963748224079609,0,0,-1000,1,0,-20,-3,4,-153,1500.0
11:58:28.049,AUTO,-35.3632617,149.1652365,22292,0.0007408893434330821,0.0028733413200825453,-0.21600137650966644,0.0008255249704234302,-0.00026924535632133484,-0.01963748224079609,0,0,-1000,1,0,-20,-3,4,-153,1500.0
11:58:28.250,AUTO,-35.3632617,149.1652365,22292,0.0007408893434330821,0.0028733413200825453,-0.21600137650966644,0.0008255249704234302,-0.00026924535632133484,-0.01963748224079609,0,0,-1000,1,0,-20,-3,4,-153,1500.0
11:58:28.452,AUTO,-35.3632617,149.1652365,22292,0.0007408893434330821,0.0028733413200825453,-0.21600137650966644,0.0008255249704234302,-0.00026924535632133484,-0.01963748224079609,0,0,-1000,1,0,-20,-3,4,-153,1500.0
11:58:28.652,AUTO,-35.3632617,149.1652366,23467,0.0013232359196990728,0.002588874427601695,-0.23059673607349396,0.0024295172188431025,-0.0002872004988603294,-0.019750084728002548,0,0,-1000,3,0,-20,-3,3,-153,1500.0
11:58:28.853,AUTO,-35.3632617,149.1652367,23858,0.0014052963815629482,0.0024334993213415146,-0.23541834950447083,-0.0008511524647474289,0.0009562124032527208,-0.019919168204069138,0,0,-1000,0,1,-20,-2,3,-153,1500.0
11:58:29.054,AUTO,-35.3632618,149.1652367,24247,0.001330376137048006,0.0025750580243766308,-0.240375816822052,-0.0015706706326454878,0.0007663475698791444,-0.019490880891680717,0,0,-999,0,1,-19,-2,2,-153,1500.0
11:58:29.255,AUTO,-35.3632618,149.1652367,24638,0.0016364611219614744,0.0027100013103336096,-0.2454083263874054,0.003921269439160824,8.847314165905118e-05,-0.020621908828616142,0,0,-1001,4,1,-20,-2,2,-153,1500.0
11:58:29.456,AUTO,-35.3632618,149.1652367,25029,0.0019744979217648506,0.0027628722600638866,-0.2504505217075348,0.002197916153818369,0.0011682675685733557,-0.020588451996445656,0,0,-1000,3,2,-20,-2,2,-153,1500.0
11:58:29.657,AUTO,-35.3632618,149.1652367,25029,0.0019744979217648506,0.0027628722600638866,-0.2504505217075348,0.002197916153818369,0.0011682675685733557,-0.020588451996445656,0,0,-1000,3,2,-20,-2,2,-153,1500.0
11:58:29.858,AUTO,-35.3632618,149.1652367,25417,-0.011170038022100925,0.004227429628372192,-0.25267842411994934,-0.03885752707719803,0.008505787700414658,0.0007967184064909816,0,0,-999,-38,9,0,-3,1,-152,1500.0
11:58:30.059,AUTO,-35.3632618,149.1652367,25417,-0.011170038022100925,0.004227429628372192,-0.25267842411994934,-0.03885752707719803,0.008505787700414658,0.0007967184064909816,0,0,-999,-38,9,0,-3,1,-152,1500.0
11:58:30.260,AUTO,-35.3632618,149.1652367,25417,-0.011170038022100925,0.004227429628372192,-0.25267842411994934,-0.03885752707719803,0.008505787700414658,0.0007967184064909816,0,0,-999,-38,9,0,-3,1,-152,1500.0
11:58:30.461,AUTO,-35.3632618,149.1652367,25417,-0.011170038022100925,0.004227429628372192,-0.25267842411994934,-0.03885752707719803,0.008505787700414658,0.0007967184064909816,0,0,-999,-38,9,0,-3,1,-152,1500.0
11:58:30.662,AUTO,-35.363262,149.1652365,26585,0.007137143984436989,0.0041559250093996525,-0.24179741740226746,0.021373813971877098,-0.0036424738354980946,0.025341235101222992,0,0,-999,22,-2,24,-5,-1,-153,1500.0
11:58:30.863,AUTO,-35.3632621,149.1652365,26976,0.010688628070056438,0.0027530088555067778,-0.2353808730840683,0.008200544863939285,-0.005551853217184544,0.02567337267100811,0,0,-999,9,-4,25,-5,0,-153,1500.0
11:58:31.065,AUTO,-35.3632622,149.1652365,27366,0.01163105946034193,0.0016081734793260694,-0.22904624044895172,0.0008237346773967147,-0.00267875287681818,0.024962756782770157,0,0,-999,1,-1,24,-4,2,-153,1500.0
11:58:31.266,AUTO,-35.3632623,149.1652366,27754,0.010820471681654453,0.00118839624337852,-0.22273634374141693,-0.005943048745393753,-0.00013564771506935358,0.024305719882249832,0,0,-999,-4,0,23,-3,5,-153,1500.0
11:58:31.467,AUTO,-35.3632623,149.1652366,28142,0.009024431928992271,0.0008787516271695495,-0.21672916412353516,-0.0046218279749155045,-0.00010398059384897351,0.023188669234514236,1,0,-1000,-3,0,22,-3,7,-152,1500.0
11:58:31.669,AUTO,-35.3632623,149.1652366,28142,0.009024431928992271,0.0008787516271695495,-0.21672916412353516,-0.0046218279749155045,-0.00010398059384897351,0.023188669234514236,1,0,-1000,-3,0,22,-3,7,-152,1500.0
11:58:31.871,AUTO,-35.3632624,149.1652368,28531,0.007060777395963669,0.0011217080755159259,-0.21127785742282867,-0.008612677454948425,0.0019515540916472673,0.02209838107228279,0,0,-999,-7,2,21,-2,8,-152,1500.0
11:58:32.072,AUTO,-35.3632624,149.1652368,28531,0.007060777395963669,0.0011217080755159259,-0.21127785742282867,-0.008612677454948425,0.0019515540916472673,0.02209838107228279,0,0,-999,-7,2,21,-2,8,-152,1500.0
11:58:32.274,AUTO,-35.3632624,149.1652368,28531,0.007060777395963669,0.0011217080755159259,-0.21127785742282867,-0.008612677454948425,0.0019515540916472673,0.02209838107228279,0,0,-999,-7,2,21,-2,8,-152,1500.0
11:58:32.475,AUTO,-35.3632624,149.1652368,28531,0.007060777395963669,0.0011217080755159259,-0.21127785742282867,-0.008612677454948425,0.0019515540916472673,0.02209838107228279,0,0,-999,-7,2,21,-2,8,-152,1500.0
11:58:32.676,AUTO,-35.3632624,149.1652373,29696,0.0014775152085348964,0.0015157675370573997,-0.19592519104480743,-0.006074815988540649,0.0008331938879564404,0.021599678322672844,1,-1,-1000,-5,1,21,0,8,-152,1500.0
11:58:32.877,AUTO,-35.3632624,149.1652375,30085,0.00025605360860936344,0.001664046081714332,-0.1909954994916916,-0.002875672187656164,0.0011342113139107823,0.019947407767176628,1,-1,-1000,-2,2,19,0,8,-153,1500.0
11:58:33.078,AUTO,-35.3632624,149.1652376,30482,-0.0007399193709716201,0.0017832735320553184,-0.1862955540418625,-0.005267672706395388,-0.0003308395389467478,0.01729539781808853,0,-1,-1000,-4,0,16,0,7,-153,1500.0
11:58:33.279,AUTO,-35.3632624,149.1652378,30870,-0.0012977098813280463,0.0015675569884479046,-0.1818877011537552,0.003362558549270034,0.0011470289900898933,0.01770172268152237,0,0,-1001,4,1,17,0,6,-153,1500.0
11:58:33.479,AUTO,-35.3632624,149.1652379,31259,-0.0014524200232699513,0.0015473050298169255,-0.1774648278951645,-0.0030529059004038572,-0.0003875439870171249,0.017518138512969017,0,-1,-1000,-2,0,17,0,5,-153,1500.0
11:58:33.680,AUTO,-35.3632624,149.1652379,31259,-0.0014524200232699513,0.0015473050298169255,-0.1774648278951645,-0.0030529059004038572,-0.0003875439870171249,0.017518138512969017,0,-1,-1000,-2,0,17,0,5,-153,1500.0
11:58:33.882,AUTO,-35.3632624,149.165238,31648,-0.001477119862101972,0.0013151654275134206,-0.17326034605503082,0.002249612472951412,0.0012480790028348565,0.01685512438416481,0,0,-1000,3,2,16,0,4,-153,1500.0
11:58:34.085,AUTO,-35.3632624,149.165238,31648,-0.001477119862101972,0.0013151654275134206,-0.17326034605503082,0.002249612472951412,0.0012480790028348565,0.01685512438416481,0,0,-1000,3,2,16,0,4,-153,1500.0
11:58:34.286,AUTO,-35.3632624,149.165238,31648,-0.001477119862101972,0.0013151654275134206,-0.17326034605503082,0.002249612472951412,0.0012480790028348565,0.01685512438416481,0,0,-1000,3,2,16,0,4,-153,1500.0
11:58:34.488,AUTO,-35.3632624,149.165238,31648,-0.001477119862101972,0.0013151654275134206,-0.17326034605503082,0.002249612472951412,0.0012480790028348565,0.01685512438416481,0,0,-1000,3,2,16,0,4,-153,1500.0
11:58:34.689,AUTO,-35.3632623,149.165238,32807,-0.0004071786825079471,0.0011167158372700214,-0.1616378128528595,0.002156441332772374,0.00016294728266075253,0.01520579308271408,0,0,-1000,2,1,14,0,1,-153,1500.0
11:58:34.890,AUTO,-35.3632623,149.165238,33196,0.0003232364251744002,0.001404572045430541,-0.15812423825263977,0.0037644654512405396,0.0019346477929502726,0.013921321369707584,0,0,-1000,4,2,13,0,1,-153,1500.0
11:58:35.090,AUTO,-35.3632623,149.165238,33586,0.0005939705879427493,0.0014499161625280976,-0.15459316968917847,-0.0028381207957863808,0.0005602648016065359,0.01470859069377184,0,0,-999,-1,1,14,0,0,-153,1500.0
11:58:35.291,AUTO,-35.3632623,149.165238,33975,0.0009045997867360711,0.001446321839466691,-0.1512698531150818,0.005682944320142269,0.0013293367810547352,0.013773628510534763,0,0,-1000,6,2,13,0,0,-153,1500.0
11:58:35.492,AUTO,-35.3632623,149.165238,34364,0.0009827115572988987,0.0013580872910097241,-0.14799131453037262,-0.0011039708042517304,0.0006119629251770675,0.013723916374146938,0,0,-999,0,1,13,0,0,-153,1500.0
11:58:35.693,AUTO,-35.3632623,149.165238,34364,0.0009827115572988987,0.0013580872910097241,-0.14799131453037262,-0.0011039708042517304,0.0006119629251770675,0.013723916374146938,0,0,-999,0,1,13,0,0,-153,1500.0
11:58:35.894,AUTO,-35.3632622,149.165238,34753,0.0010080542415380478,0.0012263469398021698,-0.14499633014202118,0.0011257966980338097,0.0007789413793943822,0.012727497145533562,0,0,-1000,2,1,12,0,0,-153,1500.0
11:58:36.164,AUTO,-35.3632622,149.165238,34753,0.0010080542415380478,0.0012263469398021698,-0.14499633014202118,0.0011257966980338097,0.0007789413793943822,0.012727497145533562,0,0,-1000,2,1,12,0,0,-153,1500.0
11:58:36.364,AUTO,-35.3632622,149.165238,34753,0.0010080542415380478,0.0012263469398021698,-0.14499633014202118,0.0011257966980338097,0.0007789413793943822,0.012727497145533562,0,0,-1000,2,1,12,0,0,-153,1500.0
11:58:36.566,AUTO,-35.3632622,149.1652379,35928,0.001069708145223558,0.0009252452291548252,-0.13616332411766052,0.0013004333013668656,0.001334003172814846,0.011865241453051567,0,0,-1000,2,2,11,0,0,-153,1500.0
11:58:36.767,AUTO,-35.3632622,149.1652379,36318,0.0012840066337957978,0.0010970206931233406,-0.1333954930305481,0.0030924431048333645,0.002065927255898714,0.01048852689564228,0,0,-1000,4,3,10,0,0,-153,1500.0
11:58:36.969,AUTO,-35.3632622,149.1652378,36707,0.0013398958835750818,0.001279506366699934,-0.1308487057685852,-0.00335872545838356,-0.0005497490055859089,0.01109269168227911,0,0,-1000,-2,0,11,0,0,-153,1500.0
11:58:37.169,AUTO,-35.3632622,149.1652378,36707,0.0013398958835750818,0.001279506366699934,-0.1308487057685852,-0.00335872545838356,-0.0005497490055859089,0.01109269168227911,0,0,-1000,-2,0,11,0,0,-153,1500.0
11:58:37.372,AUTO,-35.3632622,149.1652378,37096,0.0016014017164707184,0.0013700237032026052,-0.12827372550964355,0.004141625016927719,0.0015617732424288988,0.010688561014831066,0,0,-1000,5,2,10,0,0,-153,1500.0
11:58:37.573,AUTO,-35.3632622,149.1652377,37485,0.00189103651791811,0.001563448691740632,-0.12590058147907257,0.0006235918262973428,0.001495926408097148,0.009079637937247753,0,0,-1000,1,2,9,0,0,-153,1500.0
11:58:37.774,AUTO,-35.3632622,149.1652377,37875,0.0021465755999088287,0.0015242209192365408,-0.12368244677782059,0.0007857653545215726,-0.000559877953492105,0.0083994772285223,0,0,-1000,1,0,8,0,0,-153,1500.0
11:58:37.975,AUTO,-35.3632622,149.1652377,37875,0.0021465755999088287,0.0015242209192365408,-0.12368244677782059,0.0007857653545215726,-0.000559877953492105,0.0083994772285223,0,0,-1000,1,0,8,0,0,-153,1500.0
11:58:38.176,AUTO,-35.3632622,149.1652377,37875,0.0021465755999088287,0.0015242209192365408,-0.12368244677782059,0.0007857653545215726,-0.000559877953492105,0.0083994772285223,0,0,-1000,1,0,8,0,0,-153,1500.0
11:58:38.378,AUTO,-35.3632622,149.1652377,37875,0.0021465755999088287,0.0015242209192365408,-0.12368244677782059,0.0007857653545215726,-0.000559877953492105,0.0083994772285223,0,0,-1000,1,0,8,0,0,-153,1500.0
11:58:38.579,AUTO,-35.3632621,149.1652376,39042,0.002267058938741684,0.0017305233050137758,-0.1169634461402893,0.0011622312013059855,0.0029214536771178246,0.009135663509368896,0,0,-1000,2,3,9,0,0,-153,1500.0
11:58:38.780,AUTO,-35.3632621,149.1652375,39431,0.00217896094545722,0.0016082278452813625,-0.11502832174301147,0.0028837742283940315,-0.0004236125387251377,0.009324491955339909,0,0,-1000,4,0,9,0,0,-153,1500.0
11:58:38.980,AUTO,-35.3632621,149.1652375,39823,0.002006260212510824,0.001543443533591926,-0.1130436509847641,-0.001877959817647934,0.00027720117941498756,0.007506301626563072,0,0,-1000,0,1,7,0,0,-153,1500.0
11:58:39.181,AUTO,-35.3632621,149.1652375,39823,0.002006260212510824,0.001543443533591926,-0.1130436509847641,-0.001877959817647934,0.00027720117941498756,0.007506301626563072,0,0,-1000,0,1,7,0,0,-153,1500.0
11:58:39.383,AUTO,-35.3632621,149.1652375,40213,0.001780562219209969,0.0011704274220392108,-0.11093597859144211,0.0006228754064068198,-0.0008276354055851698,0.009845777414739132,0,0,-999,1,0,9,0,0,-153,1500.0
11:58:39.583,AUTO,-35.3632621,149.1652375,40602,0.0016720136627554893,0.0011751637794077396,-0.10924679040908813,-0.003088399302214384,0.0003708048025146127,0.007576611824333668,0,0,-999,-1,1,7,0,0,-153,1500.0
11:58:39.785,AUTO,-35.3632621,149.1652375,40991,0.0017944598803296685,0.0014028522418811917,-0.10747815668582916,0.0007064361125230789,0.0009406557073816657,0.009253183379769325,0,0,-1000,1,1,9,0,0,-153,1500.0
11:58:39.987,AUTO,-35.3632621,149.1652375,40991,0.0017944598803296685,0.0014028522418811917,-0.10747815668582916,0.0007064361125230789,0.0009406557073816657,0.009253183379769325,0,0,-1000,1,1,9,0,0,-153,1500.0
11:58:40.187,AUTO,-35.3632621,149.1652375,40991,0.0017944598803296685,0.0014028522418811917,-0.10747815668582916,0.0007064361125230789,0.0009406557073816657,0.009253183379769325,0,0,-1000,1,1,9,0,0,-153,1500.0
11:58:40.508,AUTO,-35.3632621,149.1652375,40991,0.0017944598803296685,0.0014028522418811917,-0.10747815668582916,0.0007064361125230789,0.0009406557073816657,0.009253183379769325,0,0,-1000,1,1,9,0,0,-153,1500.0
11:58:40.713,AUTO,-35.3632621,149.1652374,42543,0.0016204473795369267,0.0015631584683433175,-0.10100141167640686,0.0006657330086454749,-5.968031473457813e-06,0.0055283112451434135,0,0,-1000,1,1,5,-1,1,-153,1500.0
11:58:40.914,AUTO,-35.3632621,149.1652374,42543,0.0016204473795369267,0.0015631584683433175,-0.10100141167640686,0.0006657330086454749,-5.968031473457813e-06,0.0055283112451434135,0,0,-1000,1,1,5,-1,1,-153,1500.0
11:58:41.115,AUTO,-35.3632621,149.1652374,42933,0.0015661884099245071,0.0016189813613891602,-0.09937629848718643,0.0002780406503006816,0.0008846089476719499,0.007139142602682114,0,0,-1000,1,1,7,-1,1,-153,1500.0
11:58:41.316,AUTO,-35.3632621,149.1652374,43321,0.0016478709876537323,0.0014318694593384862,-0.09772896766662598,0.0031715952791273594,-0.00037642044480890036,0.007033265195786953,0,0,-1000,4,0,7,-1,1,-153,1500.0
11:58:41.517,AUTO,-35.363262,149.1652374,43710,0.0017143252771347761,0.0012391407508403063,-0.09612786024808884,0.0002509800251573324,0.0005370706785470247,0.008333518169820309,0,0,-999,1,1,8,-1,1,-153,1500.0
11:58:41.718,AUTO,-35.363262,149.1652374,44099,0.0018326692515984178,0.001246786443516612,-0.09462710469961166,0.0009079441661015153,0.0009722992544993758,0.006591987796127796,0,0,-1000,2,1,6,-1,1,-153,1500.0
11:58:41.919,AUTO,-35.363262,149.1652374,44099,0.0018326692515984178,0.001246786443516612,-0.09462710469961166,0.0009079441661015153,0.0009722992544993758,0.006591987796127796,0,0,-1000,2,1,6,-1,1,-153,1500.0
11:58:42.120,AUTO,-35.363262,149.1652374,44099,0.0018326692515984178,0.001246786443516612,-0.09462710469961166,0.0009079441661015153,0.0009722992544993758,0.006591987796127796,0,0,-1000,2,1,6,-1,1,-153,1500.0
11:58:42.322,AUTO,-35.363262,149.1652374,44099,0.0018326692515984178,0.001246786443516612,-0.09462710469961166,0.0009079441661015153,0.0009722992544993758,0.006591987796127796,0,0,-1000,2,1,6,-1,1,-153,1500.0
11:58:42.522,AUTO,-35.363262,149.1652374,45267,0.001591716194525361,0.0010364727349951863,-0.09018651396036148,0.0003256777999922633,0.0016674502985551953,0.007630249951034784,0,0,-1000,1,2,7,-1,1,-153,1500.0
11:58:42.723,AUTO,-35.363262,149.1652374,45656,0.0015410316409543157,0.0013293765950948,-0.0886780396103859,0.0012834203662350774,0.000163810676895082,0.005431751720607281,0,0,-1001,2,1,5,-1,1,-153,1500.0
11:58:42.924,AUTO,-35.363262,149.1652374,45656,0.0015410316409543157,0.0013293765950948,-0.0886780396103859,0.0012834203662350774,0.000163810676895082,0.005431751720607281,0,0,-1001,2,1,5,-1,1,-153,1500.0
11:58:43.125,AUTO,-35.363262,149.1652374,46045,0.001450521289370954,0.0011617655400186777,-0.0873214527964592,0.000798418652266264,0.0008588558994233608,0.003821977414190769,0,0,-1000,1,1,4,-1,1,-153,1500.0
11:58:43.326,AUTO,-35.363262,149.1652374,46434,0.0012067904463037848,0.001099318964406848,-0.08592382073402405,-0.001433551893569529,-0.001447286456823349,0.007182739675045013,0,0,-1000,0,0,7,-1,1,-153,1500.0
11:58:43.527,AUTO,-35.363262,149.1652374,46823,0.0012771101901307702,0.001185850938782096,-0.08476611971855164,0.0029831489082425833,4.123931284993887e-05,0.005916279274970293,0,0,-1001,4,1,6,-1,1,-153,1500.0
11:58:43.728,AUTO,-35.363262,149.1652373,47207,-0.011022943072021008,0.013131614774465561,-0.05821376293897629,-0.09181228280067444,0.09386418014764786,0.20949670672416687,0,0,-972,-90,95,209,-2,0,-148,1500.0
11:58:43.929,AUTO,-35.363262,149.1652373,47207,-0.011022943072021008,0.013131614774465561,-0.05821376293897629,-0.09181228280067444,0.09386418014764786,0.20949670672416687,0,0,-972,-90,95,209,-2,0,-148,1500.0
11:58:44.130,AUTO,-35.363262,149.1652373,47207,-0.011022943072021008,0.013131614774465561,-0.05821376293897629,-0.09181228280067444,0.09386418014764786,0.20949670672416687,0,0,-972,-90,95,209,-2,0,-148,1500.0
11:58:44.331,AUTO,-35.363262,149.1652373,47207,-0.011022943072021008,0.013131614774465561,-0.05821376293897629,-0.09181228280067444,0.09386418014764786,0.20949670672416687,0,0,-972,-90,95,209,-2,0,-148,1500.0
11:58:44.545,AUTO,-35.3632629,149.1652361,48240,-0.04504457861185074,0.03565264120697975,0.24593669176101685,0.09319590777158737,-0.2097066044807434,0.24753065407276154,3,7,-942,94,-208,247,-30,-33,-117,1500.0
11:58:44.746,AUTO,-35.3632636,149.1652351,48522,-0.016843318939208984,-0.011759749613702297,0.2903386652469635,0.10799762606620789,-0.16346727311611176,0.12057722359895706,2,10,-948,109,-162,120,-30,-38,-103,1500.0
11:58:44.947,AUTO,-35.3632636,149.1652351,48522,-0.016843318939208984,-0.011759749613702297,0.2903386652469635,0.10799762606620789,-0.16346727311611176,0.12057722359895706,2,10,-948,109,-162,120,-30,-38,-103,1500.0
11:58:45.148,AUTO,-35.3632641,149.165234,48774,0.008018851280212402,-0.04134959727525711,0.30807366967201233,0.09145544469356537,-0.08177667111158371,0.043099790811538696,3,10,-955,92,-80,43,-23,-34,-91,1500.0
11:58:45.349,AUTO,-35.3632645,149.1652332,48993,0.025267351418733597,-0.05373768135905266,0.31129762530326843,0.04807980731129646,-0.025698160752654076,-0.000289683579467237,1,7,-961,48,-24,0,-13,-25,-81,1500.0
11:58:45.551,AUTO,-35.3632647,149.1652326,49188,0.035851527005434036,-0.05504131689667702,0.3071023225784302,0.03470664098858833,0.010122958570718765,-0.023103924468159676,0,5,-966,35,11,-22,-3,-13,-71,1500.0
11:58:45.753,AUTO,-35.3632647,149.1652323,49359,0.03993270918726921,-0.0486317053437233,0.29980552196502686,0.013352183625102043,0.034102123230695724,-0.03198892995715141,-1,1,-970,14,35,-31,5,0,-63,1500.0
11:58:45.954,AUTO,-35.3632647,149.1652323,49359,0.03993270918726921,-0.0486317053437233,0.29980552196502686,0.013352183625102043,0.034102123230695724,-0.03198892995715141,-1,1,-970,14,35,-31,5,0,-63,1500.0
11:58:46.156,AUTO,-35.3632647,149.1652323,49359,0.03993270918726921,-0.0486317053437233,0.29980552196502686,0.013352183625102043,0.034102123230695724,-0.03198892995715141,-1,1,-970,14,35,-31,5,0,-63,1500.0
11:58:46.357,AUTO,-35.3632647,149.1652323,49359,0.03993270918726921,-0.0486317053437233,0.29980552196502686,0.013352183625102043,0.034102123230695724,-0.03198892995715141,-1,1,-970,14,35,-31,5,0,-63,1500.0
11:58:46.558,AUTO,-35.3632647,149.1652323,49359,0.03993270918726921,-0.0486317053437233,0.29980552196502686,0.013352183625102043,0.034102123230695724,-0.03198892995715141,-1,1,-970,14,35,-31,5,0,-63,1500.0
11:58:46.760,AUTO,-35.3632634,149.1652339,49870,0.018655292689800262,-0.005953969433903694,0.26368939876556396,-0.30766561627388,0.034975700080394745,-0.029789533466100693,-2,-20,-978,-307,36,-29,20,29,-39,1500.0
11:58:46.961,AUTO,-35.3632629,149.1652347,49962,0.00952816940844059,0.0015391234774142504,0.25529953837394714,-0.0932578518986702,0.025067418813705444,-0.027676424011588097,-2,6,-962,-90,25,-27,19,32,-32,1500.0
11:58:47.162,AUTO,-35.3632629,149.1652347,49962,0.00952816940844059,0.0015391234774142504,0.25529953837394714,-0.0932578518986702,0.025067418813705444,-0.027676424011588097,-2,6,-962,-90,25,-27,19,32,-32,1500.0
11:58:47.363,AUTO,-35.3632624,149.1652355,50032,0.01228296384215355,0.00834951177239418,0.24728098511695862,0.47916263341903687,0.02168535441160202,-0.02593943476676941,-2,23,-985,482,22,-25,18,32,-26,1500.0
11:58:47.564,AUTO,-35.363262,149.1652363,50090,0.012552691623568535,0.01272017415612936,0.24000245332717896,0.535125732421875,0.014339455403387547,-0.026588385924696922,-1,8,-974,535,15,-26,16,29,-21,1500.0
11:58:47.765,AUTO,-35.3632616,149.165237,50135,0.0025439916644245386,0.01615862175822258,0.2326146960258484,-0.16475315392017365,0.00857022125273943,-0.02874387428164482,0,-33,-971,-166,9,-28,13,26,-16,1500.0
11:58:47.966,AUTO,-35.3632616,149.165237,50135,0.0025439916644245386,0.01615862175822258,0.2326146960258484,-0.16475315392017365,0.00857022125273943,-0.02874387428164482,0,-33,-971,-166,9,-28,13,26,-16,1500.0
11:58:48.167,AUTO,-35.3632616,149.165237,50135,0.0025439916644245386,0.01615862175822258,0.2326146960258484,-0.16475315392017365,0.00857022125273943,-0.02874387428164482,0,-33,-971,-166,9,-28,13,26,-16,1500.0
11:58:48.368,AUTO,-35.3632616,149.165237,50135,0.0025439916644245386,0.01615862175822258,0.2326146960258484,-0.16475315392017365,0.00857022125273943,-0.02874387428164482,0,-33,-971,-166,9,-28,13,26,-16,1500.0
11:58:48.570,AUTO,-35.363261,149.1652386,50152,-0.047872770577669144,0.04271002486348152,0.20616880059242249,-0.4042293429374695,0.02852676808834076,-0.024949900805950165,0,1,-981,-400,29,-24,1,11,13,1500.0
11:58:48.771,AUTO,-35.363261,149.1652388,50114,-0.0427793450653553,0.024179553613066673,0.20293140411376953,0.19644923508167267,-0.12290570884943008,-0.03113025240600109,0,34,-975,201,-121,-30,-5,1,14,1500.0
11:58:48.973,AUTO,-35.363261,149.1652386,50074,-0.02334737405180931,-0.0034440404269844294,0.20115698873996735,0.7543482780456543,-0.08254699409008026,-0.010239229537546635,0,41,-1021,757,-81,-10,-5,-7,10,1500.0
11:58:49.174,AUTO,-35.363261,149.1652386,50074,-0.02334737405180931,-0.0034440404269844294,0.20115698873996735,0.7543482780456543,-0.08254699409008026,-0.010239229537546635,0,41,-1021,757,-81,-10,-5,-7,10,1500.0
11:58:49.375,AUTO,-35.3632611,149.1652383,50040,-0.014954283833503723,-0.019085483625531197,0.19822724163532257,0.7050029039382935,-0.04982050135731697,-0.012278040871024132,0,27,-1022,705,-48,-11,-1,-13,10,1500.0
11:58:49.575,AUTO,-35.3632611,149.165238,50015,-0.01715450920164585,-0.029041539877653122,0.19408011436462402,-0.012578053399920464,-0.037202682346105576,-0.012777353636920452,-2,-11,-1002,-14,-35,-12,5,-18,5,1500.0
11:58:49.776,AUTO,-35.3632609,149.1652374,49997,-0.025153938680887222,-0.03797369822859764,0.18909573554992676,-0.608741044998169,-0.03599213436245918,-0.016354214400053024,-5,-36,-1000,-609,-34,-16,13,-21,4,1500.0
11:58:49.977,AUTO,-35.3632609,149.1652374,49997,-0.025153938680887222,-0.03797369822859764,0.18909573554992676,-0.608741044998169,-0.03599213436245918,-0.016354214400053024,-5,-36,-1000,-609,-34,-16,13,-21,4,1500.0
11:58:50.178,AUTO,-35.3632609,149.1652374,49997,-0.025153938680887222,-0.03797369822859764,0.18909573554992676,-0.608741044998169,-0.03599213436245918,-0.016354214400053024,-5,-36,-1000,-609,-34,-16,13,-21,4,1500.0
11:58:50.380,AUTO,-35.3632609,149.1652374,49997,-0.025153938680887222,-0.03797369822859764,0.18909573554992676,-0.608741044998169,-0.03599213436245918,-0.016354214400053024,-5,-36,-1000,-609,-34,-16,13,-21,4,1500.0
11:58:50.581,AUTO,-35.3632591,149.1652352,49964,-0.029274508357048035,-0.07646967470645905,0.15568196773529053,0.4620669186115265,-0.08753561973571777,-0.2652041018009186,-11,32,-1009,465,-86,-264,48,-31,-1,1500.0
11:58:50.782,AUTO,-35.3632579,149.1652342,49961,-0.016303570941090584,-0.09448673576116562,0.020066678524017334,0.6571378707885742,-0.08856479078531265,-0.7375028133392334,-15,24,-1013,658,-87,-736,66,-37,0,1500.0
11:58:50.983,AUTO,-35.3632562,149.1652331,49957,-0.005352712702006102,-0.1099337786436081,-0.17780357599258423,0.15101371705532074,-0.06132331117987633,-0.710868239402771,-16,-16,-1001,149,-59,-710,85,-44,0,1500.0
11:58:51.185,AUTO,-35.3632562,149.1652331,49957,-0.005352712702006102,-0.1099337786436081,-0.17780357599258423,0.15101371705532074,-0.06132331117987633,-0.710868239402771,-16,-16,-1001,149,-59,-710,85,-44,0,1500.0
11:58:51.386,AUTO,-35.3632542,149.1652318,49955,-0.003516554832458496,-0.12197612971067429,-0.30183061957359314,-0.46395477652549744,-0.05772989243268967,-0.30874887108802795,-25,-48,-1002,-464,-56,-308,105,-54,0,1500.0
11:58:51.587,AUTO,-35.3632517,149.1652303,49953,-0.005547105334699154,-0.13389189541339874,-0.3412633538246155,-0.5190792083740234,-0.06270850449800491,-0.0513860248029232,-28,-21,-1009,-517,-61,-50,127,-63,-1,1500.0
11:58:51.789,AUTO,-35.3632487,149.1652285,49952,0.0010306414915248752,-0.143418088555336,-0.33743664622306824,0.2265550196170807,-0.0427296981215477,0.027196727693080902,-34,4,-1000,229,-41,27,150,-74,-1,1500.0
11:58:51.990,AUTO,-35.3632487,149.1652285,49952,0.0010306414915248752,-0.143418088555336,-0.33743664622306824,0.2265550196170807,-0.0427296981215477,0.027196727693080902,-34,4,-1000,229,-41,27,150,-74,-1,1500.0
11:58:52.192,AUTO,-35.3632487,149.1652285,49952,0.0010306414915248752,-0.143418088555336,-0.33743664622306824,0.2265550196170807,-0.0427296981215477,0.027196727693080902,-34,4,-1000,229,-41,27,150,-74,-1,1500.0
11:58:52.393,AUTO,-35.3632487,149.1652285,49952,0.0010306414915248752,-0.143418088555336,-0.33743664622306824,0.2265550196170807,-0.0427296981215477,0.027196727693080902,-34,4,-1000,229,-41,27,150,-74,-1,1500.0
11:58:52.594,AUTO,-35.3632365,149.1652213,49943,0.001013093744404614,-0.15721741318702698,-0.3059474527835846,-0.40346765518188477,0.07743153721094131,0.010992293246090412,-55,-49,-1016,-403,78,11,223,-111,0,1500.0
11:58:52.796,AUTO,-35.3632313,149.1652183,49945,0.007605379447340965,-0.1299690157175064,-0.30665233731269836,-0.24486161768436432,0.07811752706766129,-0.023254314437508583,-52,-26,-1008,-242,79,-23,242,-121,-2,1500.0
