time_stamp,MODE,lat,lon,relative_alt,roll,pitch,yaw,rollspeed,pitchspeed,yawspeed,xacc,yacc,zacc,xgyro,ygyro,zgyro,vx,vy,vz,RTL_ALT
10:43:34.713,STABILIZE,-35.3632621,149.1652375,0,-0.0013194839702919126,0.0009531817049719393,0.025492602959275246,0.00026366766542196274,0.00024711049627512693,0.0019290924537926912,0,1,-1000,0,0,0,-1,0,0,1500.0
10:43:34.914,STABILIZE,-35.3632621,149.1652375,0,-0.0013330538058653474,0.000940622529014945,0.025272443890571594,0.00014889787416905165,0.0002780756331048906,0.0018387887394055724,0,1,-1000,0,0,0,-1,0,0,1500.0
10:43:35.115,STABILIZE,-35.3632621,149.1652375,0,-0.0013330538058653474,0.000940622529014945,0.025272443890571594,0.00014889787416905165,0.0002780756331048906,0.0018387887394055724,0,1,-1000,0,0,0,-1,0,0,1500.0
10:43:35.316,STABILIZE,-35.3632621,149.1652375,0,-0.0013330538058653474,0.000940622529014945,0.025272443890571594,0.00014889787416905165,0.0002780756331048906,0.0018387887394055724,0,1,-1000,0,0,0,-1,0,0,1500.0
10:43:35.518,STABILIZE,-35.3632621,149.1652375,0,-0.0013330538058653474,0.000940622529014945,0.025272443890571594,0.00014889787416905165,0.0002780756331048906,0.0018387887394055724,0,1,-1000,0,0,0,-1,0,0,1500.0
10:43:35.719,STABILIZE,-35.3632621,149.1652375,0,-0.0013330538058653474,0.000940622529014945,0.025272443890571594,0.00014889787416905165,0.0002780756331048906,0.0018387887394055724,0,1,-1000,0,0,0,-1,0,0,1500.0
10:43:35.920,STABILIZE,-35.3632621,149.1652375,0,-0.0013330538058653474,0.000940622529014945,0.025272443890571594,0.00014889787416905165,0.0002780756331048906,0.0018387887394055724,0,1,-1000,0,0,0,-1,0,0,1500.0
10:43:36.121,STABILIZE,-35.3632621,149.1652375,0,-0.0013330538058653474,0.000940622529014945,0.025272443890571594,0.00014889787416905165,0.0002780756331048906,0.0018387887394055724,0,1,-1000,0,0,0,-1,0,0,1500.0
10:43:36.323,STABILIZE,-35.3632621,149.1652375,0,-0.0013330538058653474,0.000940622529014945,0.025272443890571594,0.00014889787416905165,0.0002780756331048906,0.0018387887394055724,0,1,-1000,0,0,0,-1,0,0,1500.0
10:43:36.525,STABILIZE,-35.3632621,149.1652375,0,-0.0010704750893637538,0.0009520637104287744,0.02479688823223114,0.00014602113515138626,0.000290648196823895,0.0017727279337123036,0,1,-1000,0,0,0,-1,1,0,1500.0
10:43:36.726,STABILIZE,-35.3632621,149.1652375,0,-0.0010983836837112904,0.0009545482462272048,0.024723585695028305,0.00014181918231770396,0.0002614596742205322,0.0019134182948619127,0,1,-1000,0,0,0,-1,1,0,1500.0
10:43:36.927,STABILIZE,-35.3632621,149.1652375,0,-0.0011102064745500684,0.0009585843654349446,0.024646194651722908,0.00010225619189441204,0.0002124029560945928,0.0017628070199862123,0,1,-1000,0,0,0,-1,1,0,1500.0
10:43:37.128,STABILIZE,-35.3632622,149.1652375,0,-0.0011102064745500684,0.0009585843654349446,0.024646194651722908,0.00010225619189441204,0.0002124029560945928,0.0017628070199862123,0,1,-1000,0,0,0,-1,1,0,1500.0
10:43:37.332,STABILIZE,-35.3632622,149.1652375,0,-0.0011102064745500684,0.0009585843654349446,0.024646194651722908,0.00010225619189441204,0.0002124029560945928,0.0017628070199862123,0,2,-1000,0,1,0,-1,1,0,1500.0
10:43:37.533,STABILIZE,-35.3632622,149.1652375,0,-0.0011102064745500684,0.0009585843654349446,0.024646194651722908,0.00010225619189441204,0.0002124029560945928,0.0017628070199862123,0,2,-1000,0,1,0,-1,1,0,1500.0
10:43:37.734,STABILIZE,-35.3632622,149.1652375,0,-0.0011102064745500684,0.0009585843654349446,0.024646194651722908,0.00010225619189441204,0.0002124029560945928,0.0017628070199862123,0,2,-1000,0,1,0,-1,1,0,1500.0
10:43:37.936,STABILIZE,-35.3632622,149.1652375,0,-0.0011102064745500684,0.0009585843654349446,0.024646194651722908,0.00010225619189441204,0.0002124029560945928,0.0017628070199862123,0,2,-1000,0,1,0,-1,1,0,1500.0
10:43:38.137,STABILIZE,-35.3632622,149.1652375,0,-0.0011102064745500684,0.0009585843654349446,0.024646194651722908,0.00010225619189441204,0.0002124029560945928,0.0017628070199862123,0,2,-1000,0,1,0,-1,1,0,1500.0
10:43:38.339,STABILIZE,-35.3632622,149.1652375,0,-0.0012079759035259485,0.0009659191127866507,0.024191198870539665,0.00018193828873336315,0.0002764133969321847,0.0017429633298888803,0,2,-1000,0,1,0,-1,1,0,1500.0
10:43:38.540,STABILIZE,-35.3632622,149.1652375,0,-0.0012079759035259485,0.0009659191127866507,0.024191198870539665,0.00018193828873336315,0.0002764133969321847,0.0017429633298888803,0,2,-1000,0,1,0,-1,1,0,1500.0
10:43:38.741,STABILIZE,-35.3632622,149.1652375,0,-0.0012174766743555665,0.0009710867307148874,0.02411814033985138,0.00026055064518004656,0.00030036381212994456,0.0016869452083483338,0,2,-1000,0,0,1,-1,1,0,1500.0
10:43:38.942,STABILIZE,-35.3632622,149.1652375,0,-0.0012174766743555665,0.0009710867307148874,0.02411814033985138,0.00026055064518004656,0.00030036381212994456,0.0016869452083483338,0,2,-1000,0,0,1,-1,1,0,1500.0
10:43:39.143,STABILIZE,-35.3632622,149.1652375,0,-0.0009061107411980629,0.0009768791496753693,0.02397317998111248,0.00033404940040782094,0.0001784272608347237,0.0017775492742657661,0,2,-1000,0,0,1,-1,1,0,1500.0
10:43:39.345,STABILIZE,-35.3632622,149.1652375,0,-0.0009367934544570744,0.0009708117577247322,0.023902440443634987,0.0001648238394409418,0.0002315585734322667,0.001737614395096898,0,1,-1000,0,0,0,-1,2,0,1500.0
10:43:39.546,STABILIZE,-35.3632622,149.1652375,0,-0.0009367934544570744,0.0009708117577247322,0.023902440443634987,0.0001648238394409418,0.0002315585734322667,0.001737614395096898,0,1,-1000,0,0,0,-1,2,0,1500.0
10:43:39.747,STABILIZE,-35.3632622,149.1652375,0,-0.0009367934544570744,0.0009708117577247322,0.023902440443634987,0.0001648238394409418,0.0002315585734322667,0.001737614395096898,0,1,-1000,0,0,0,-1,2,0,1500.0
10:43:39.948,STABILIZE,-35.3632622,149.1652375,0,-0.0009367934544570744,0.0009708117577247322,0.023902440443634987,0.0001648238394409418,0.0002315585734322667,0.001737614395096898,0,1,-1000,0,0,0,-1,2,0,1500.0
10:43:40.150,STABILIZE,-35.3632622,149.1652375,0,-0.0009367934544570744,0.0009708117577247322,0.023902440443634987,0.0001648238394409418,0.0002315585734322667,0.001737614395096898,0,1,-1000,0,0,0,-1,2,0,1500.0
10:43:40.351,STABILIZE,-35.3632622,149.1652375,0,-0.0010631090262904763,0.0009716456406749785,0.023607691749930382,0.00021277263294905424,0.00015234318561851978,0.0015686079859733582,0,1,-1000,0,1,0,-1,2,0,1500.0
10:43:40.554,STABILIZE,-35.3632622,149.1652375,0,-0.0010631090262904763,0.0009716456406749785,0.023607691749930382,0.00021277263294905424,0.00015234318561851978,0.0015686079859733582,0,1,-1000,0,1,0,-1,2,0,1500.0
10:43:40.756,STABILIZE,-35.3632622,149.1652375,0,-0.0010950893629342318,0.0009687745478004217,0.023533422499895096,0.00023509690072387457,0.00022462126798927784,0.001579812029376626,0,1,-1000,0,1,0,-1,1,0,1500.0
10:43:40.957,STABILIZE,-35.3632622,149.1652375,0,-0.0010950893629342318,0.0009687745478004217,0.023533422499895096,0.00023509690072387457,0.00022462126798927784,0.001579812029376626,0,1,-1000,0,1,0,-1,1,0,1500.0
10:43:41.158,STABILIZE,-35.3632622,149.1652375,0,-0.0011377619812265038,0.0009729809826239944,0.02339828573167324,0.00015484524192288518,0.00030456925742328167,0.0016215965151786804,0,1,-1000,0,1,0,-1,1,0,1500.0
10:43:41.360,STABILIZE,-35.3632622,149.1652375,0,-0.0011556684039533138,0.000976738054305315,0.023329555988311768,0.00035046914126724005,0.0002602470340207219,0.001555879134684801,0,1,-1000,1,0,0,-1,1,0,1500.0
10:43:41.561,STABILIZE,-35.3632622,149.1652375,0,-0.0011556684039533138,0.000976738054305315,0.023329555988311768,0.00035046914126724005,0.0002602470340207219,0.001555879134684801,0,1,-1000,1,0,0,-1,1,0,1500.0
10:43:41.763,AUTO,-35.3632622,149.1652375,0,-0.0011556684039533138,0.000976738054305315,0.023329555988311768,0.00035046914126724005,0.0002602470340207219,0.001555879134684801,0,1,-1000,1,0,0,-1,1,0,1500.0
10:43:41.972,AUTO,-35.3632622,149.1652375,0,-0.0011556684039533138,0.000976738054305315,0.023329555988311768,0.00035046914126724005,0.0002602470340207219,0.001555879134684801,0,1,-1000,1,0,0,-1,1,0,176996.0
10:43:42.174,AUTO,-35.3632622,149.1652375,4,-0.0011993772350251675,0.0009876108961179852,0.023150790482759476,0.00022850208915770054,0.0002164851175621152,0.0015311699826270342,0,1,-1000,0,0,0,-1,1,0,176996.0
10:43:42.375,AUTO,-35.3632622,149.1652375,8,-0.0012102320324629545,0.0009941846365109086,0.02308904565870762,0.00013717066030949354,0.00034802802838385105,0.0016007315134629607,0,4,-996,0,0,0,-1,-1,-4,176996.0
10:43:42.579,AUTO,-35.3632621,149.1652375,14,-0.0011987342732027173,0.0010139941005036235,0.023045681416988373,0.00017001089872792363,0.0001980396918952465,0.0015483819879591465,0,2,-1000,0,1,0,0,-1,-4,176996.0
10:43:42.781,AUTO,-35.3632621,149.1652375,14,-0.0011987342732027173,0.0010139941005036235,0.023045681416988373,0.00017001089872792363,0.0001980396918952465,0.0015483819879591465,0,2,-1000,0,1,0,0,-1,-4,176996.0
10:43:42.983,AUTO,-35.3632621,149.1652375,19,-0.0011465048883110285,0.0010495964670553803,0.022985797375440598,0.00021518737776204944,0.00022775103570893407,0.001602064585313201,0,1,-1000,0,1,0,0,0,-3,176996.0
10:43:43.184,AUTO,-35.3632621,149.1652374,22,-0.0010875641601160169,0.0010996022028848529,0.022913802415132523,0.00023230380611494184,0.00034878129372373223,0.0015016093384474516,0,1,-1000,0,0,0,0,0,-3,176996.0
10:43:43.387,AUTO,-35.3632621,149.1652374,24,-0.001040255301631987,0.0011548660695552826,0.02286389283835888,0.00023346045054495335,0.0003014729591086507,0.0015419097617268562,0,2,-1000,0,0,0,0,0,-3,176996.0
10:43:43.591,AUTO,-35.3632621,149.1652374,24,-0.001040255301631987,0.0011548660695552826,0.02286389283835888,0.00023346045054495335,0.0003014729591086507,0.0015419097617268562,0,2,-1000,0,0,0,0,0,-3,176996.0
10:43:43.793,AUTO,-35.3632621,149.1652374,24,-0.001040255301631987,0.0011548660695552826,0.02286389283835888,0.00023346045054495335,0.0003014729591086507,0.0015419097617268562,0,2,-1000,0,0,0,0,0,-3,176996.0
10:43:44.003,AUTO,-35.3632621,149.1652374,24,-0.001040255301631987,0.0011548660695552826,0.02286389283835888,0.00023346045054495335,0.0003014729591086507,0.0015419097617268562,0,2,-1000,0,0,0,0,0,-3,176996.0
10:43:44.208,AUTO,-35.3632621,149.1652375,28,-0.0008753241272643209,0.0013606633292511106,0.022687159478664398,0.00029372196877375245,0.0002245778450742364,0.00145186937879771,0,1,-1000,0,0,0,0,0,-3,176996.0
10:43:44.410,AUTO,-35.3632621,149.1652375,28,-0.0008205888443626463,0.0014357956824824214,0.02262188494205475,0.00035454786848276854,0.00028534780722111464,0.0015026547480374575,0,1,-1000,0,0,0,0,0,-3,176996.0
10:43:44.611,AUTO,-35.3632621,149.1652375,29,-0.0007644288125447929,0.001509408000856638,0.022533707320690155,0.00013845384819433093,0.0003662381786853075,0.0015086273197084665,0,2,-1000,0,0,0,0,0,-2,176996.0
10:43:44.813,AUTO,-35.3632621,149.1652375,29,-0.0007644288125447929,0.001509408000856638,0.022533707320690155,0.00013845384819433093,0.0003662381786853075,0.0015086273197084665,0,2,-1000,0,0,0,0,0,-2,2558.0
10:43:45.015,AUTO,-35.3632621,149.1652375,29,-0.0007059210911393166,0.0015826274175196886,0.022461308166384697,0.00035305548226460814,0.00032532704062759876,0.001491344766691327,0,1,-1000,0,0,0,0,0,-2,2558.0
10:43:45.216,AUTO,-35.3632621,149.1652375,30,-0.0006409583147615194,0.0016625499119982123,0.022386861965060234,0.00036975869443267584,0.000302707776427269,0.0015399017138406634,0,2,-1000,1,1,0,0,0,-2,2558.0
10:43:45.418,AUTO,-35.3632621,149.1652375,30,-0.000580520776566118,0.0017345745582133532,0.022299831733107567,0.00037506676744669676,0.00037864677142351866,0.0015377282397821546,0,2,-1000,0,1,0,0,0,-2,2558.0
10:43:45.620,AUTO,-35.3632621,149.1652375,30,-0.000580520776566118,0.0017345745582133532,0.022299831733107567,0.00037506676744669676,0.00037864677142351866,0.0015377282397821546,0,2,-1000,0,1,0,0,0,-2,2558.0
10:43:45.823,AUTO,-35.3632621,149.1652375,30,-0.000580520776566118,0.0017345745582133532,0.022299831733107567,0.00037506676744669676,0.00037864677142351866,0.0015377282397821546,0,2,-1000,0,1,0,0,0,-2,2558.0
10:43:46.025,AUTO,-35.3632621,149.1652375,30,-0.000580520776566118,0.0017345745582133532,0.022299831733107567,0.00037506676744669676,0.00037864677142351866,0.0015377282397821546,0,2,-1000,0,1,0,0,0,-2,2558.0
10:43:46.226,AUTO,-35.3632621,149.1652375,242,0.0017047679284587502,0.0002826428972184658,0.0222337506711483,-0.006881161592900753,0.004657604265958071,0.001343347830697894,0,0,-1130,-6,5,0,0,1,-77,2558.0
10:43:46.428,AUTO,-35.3632621,149.1652375,467,0.0011612356174737215,0.0011226420756429434,0.022221000865101814,-0.0009255062905140221,0.0015275379410013556,0.0023744397331029177,0,0,-1108,0,2,2,0,1,-105,2558.0
10:43:46.630,AUTO,-35.3632621,149.1652375,754,0.0018466983456164598,0.0015232027508318424,0.022151093930006027,0.019408684223890305,-0.0005983021110296249,0.0004914440796710551,0,0,-1083,19,0,0,0,1,-128,2558.0
10:43:46.831,AUTO,-35.3632621,149.1652375,754,0.0018466983456164598,0.0015232027508318424,0.022151093930006027,0.019408684223890305,-0.0005983021110296249,0.0004914440796710551,0,0,-1083,19,0,0,0,1,-128,2558.0
10:43:47.033,AUTO,-35.3632621,149.1652375,1092,0.012557675130665302,0.00037836332921870053,0.02208320051431656,0.04817471653223038,-0.005943366326391697,0.0020301647018641233,0,0,-1037,48,-5,1,0,2,-141,2558.0
10:43:47.235,AUTO,-35.3632621,149.1652375,1457,0.02441861480474472,-0.0013205102877691388,0.022184211760759354,0.04649864882230759,-0.007102633826434612,0.002695114351809025,0,0,-1015,47,-6,2,1,6,-147,2558.0
10:43:47.437,AUTO,-35.363262,149.1652377,1834,0.03580319136381149,-0.00325760617852211,0.02241029590368271,0.04482010751962662,-0.00801176019012928,0.003279580269008875,0,-1,-1006,45,-7,2,1,13,-149,2558.0
10:43:47.639,AUTO,-35.363262,149.1652377,1834,0.03580319136381149,-0.00325760617852211,0.02241029590368271,0.04482010751962662,-0.00801176019012928,0.003279580269008875,0,-1,-1006,45,-7,2,1,13,-149,2558.0
10:43:47.841,AUTO,-35.363262,149.1652377,1834,0.03580319136381149,-0.00325760617852211,0.02241029590368271,0.04482010751962662,-0.00801176019012928,0.003279580269008875,0,-1,-1006,45,-7,2,1,13,-149,175171.0
10:43:48.043,AUTO,-35.363262,149.1652377,1834,0.03580319136381149,-0.00325760617852211,0.02241029590368271,0.04482010751962662,-0.00801176019012928,0.003279580269008875,0,-1,-1006,45,-7,2,1,13,-149,175171.0
10:43:48.244,AUTO,-35.3632616,149.1652399,2980,0.06114605814218521,-0.007607066072523594,-0.00906695518642664,-0.027446042746305466,0.03733692318201065,-0.06286396831274033,2,-7,-992,-26,38,-63,8,45,-148,175171.0
10:43:48.446,AUTO,-35.3632614,149.1652412,3358,0.03545229509472847,0.015948360785841942,-0.03233847767114639,-0.16588661074638367,0.08220823854207993,-0.0952765941619873,2,-12,-990,-165,82,-95,9,55,-146,175171.0
10:43:48.649,AUTO,-35.3632611,149.1652426,3733,-0.005294468253850937,0.022881193086504936,-0.049876876175403595,-0.11512189358472824,-0.011097089387476444,-0.058405857533216476,6,-11,-1009,-114,-10,-58,6,54,-146,175171.0
10:43:48.851,AUTO,-35.363261,149.165244,4112,-0.021348118782043457,0.014907940290868282,-0.05873934552073479,-0.03530164808034897,-0.03401181846857071,-0.034538909792900085,5,-13,-1009,-34,-33,-34,3,47,-149,175171.0
10:43:49.054,AUTO,-35.363261,149.165244,4112,-0.021348118782043457,0.014907940290868282,-0.05873934552073479,-0.03530164808034897,-0.03401181846857071,-0.034538909792900085,5,-13,-1009,-34,-33,-34,3,47,-149,175171.0
10:43:49.256,AUTO,-35.3632609,149.1652451,4495,-0.03357967361807823,0.0077360570430755615,-0.06558451056480408,-0.06304021179676056,-0.01864759437739849,-0.033985622227191925,5,-11,-1002,-62,-17,-34,2,38,-150,175171.0
10:43:49.459,AUTO,-35.3632608,149.165246,4882,-0.054594237357378006,0.0045864032581448555,-0.0736808180809021,-0.09776667505502701,-0.005704544484615326,-0.03532445430755615,3,-6,-999,-97,-5,-35,1,25,-149,175171.0
10:43:49.662,AUTO,-35.3632608,149.165246,4882,-0.054594237357378006,0.0045864032581448555,-0.0736808180809021,-0.09776667505502701,-0.005704544484615326,-0.03532445430755615,3,-6,-999,-97,-5,-35,1,25,-149,175171.0
10:43:49.864,AUTO,-35.3632608,149.165246,4882,-0.054594237357378006,0.0045864032581448555,-0.0736808180809021,-0.09776667505502701,-0.005704544484615326,-0.03532445430755615,3,-6,-999,-97,-5,-35,1,25,-149,175171.0
10:43:50.066,AUTO,-35.3632608,149.165246,4882,-0.054594237357378006,0.0045864032581448555,-0.0736808180809021,-0.09776667505502701,-0.005704544484615326,-0.03532445430755615,3,-6,-999,-97,-5,-35,1,25,-149,175171.0
10:43:50.268,AUTO,-35.3632608,149.1652457,6028,-0.0686355009675026,-0.00011677934526233003,-0.09577895700931549,0.05234343931078911,-0.0028088241815567017,-0.017136450856924057,-3,4,-1001,53,-2,-17,-3,-32,-150,175171.0
10:43:50.470,AUTO,-35.3632609,149.1652447,6411,-0.05472160130739212,-0.00022768198687117547,-0.09975383430719376,0.05875490605831146,0.0030528719071298838,-0.011181964538991451,-3,7,-1000,59,3,-11,-4,-46,-149,175171.0
10:43:50.672,AUTO,-35.363261,149.1652433,6795,-0.03952816501259804,0.0010404671775177121,-0.102671317756176,0.06267154961824417,0.007311954163014889,-0.0070557924918830395,-5,10,-1001,63,7,-7,-6,-55,-150,175171.0
10:43:50.874,AUTO,-35.3632612,149.1652417,7179,-0.023435037583112717,0.0032397001050412655,-0.10468362271785736,0.06590373069047928,0.010413333773612976,-0.003840709337964654,-5,12,-1002,66,11,-4,-9,-60,-150,259458.0
10:43:51.076,AUTO,-35.3632612,149.1652417,7179,-0.023435037583112717,0.0032397001050412655,-0.10468362271785736,0.06590373069047928,0.010413333773612976,-0.003840709337964654,-5,12,-1002,66,11,-4,-9,-60,-150,259458.0
10:43:51.279,AUTO,-35.3632614,149.16524,7564,-0.006810217164456844,0.005959701724350452,-0.10565946251153946,0.0677047148346901,0.01073872298002243,-0.0011013586772605777,-7,12,-1003,68,11,-1,-11,-60,-151,259458.0
10:43:51.482,AUTO,-35.3632617,149.1652384,7951,0.010061468929052353,0.008689596317708492,-0.10584481060504913,0.06829986721277237,0.0103076733648777,0.0008389365975745022,-5,13,-1004,68,10,0,-14,-57,-152,259458.0
10:43:51.683,AUTO,-35.3632617,149.1652384,7951,0.010061468929052353,0.008689596317708492,-0.10584481060504913,0.06829986721277237,0.0103076733648777,0.0008389365975745022,-5,13,-1004,68,10,0,-14,-57,-152,259458.0
10:43:51.907,AUTO,-35.3632617,149.1652384,7951,0.010061468929052353,0.008689596317708492,-0.10584481060504913,0.06829986721277237,0.0103076733648777,0.0008389365975745022,-5,13,-1004,68,10,0,-14,-57,-152,259458.0
10:43:52.108,AUTO,-35.3632629,149.1652347,9124,0.059389349073171616,0.01222063135355711,-0.10292788594961166,0.06260703504085541,-0.002380561316385865,0.005056988447904587,0,10,-1002,63,-1,4,-20,-24,-153,259458.0
10:43:52.310,AUTO,-35.3632629,149.1652347,9124,0.059389349073171616,0.01222063135355711,-0.10292788594961166,0.06260703504085541,-0.002380561316385865,0.005056988447904587,0,10,-1002,63,-1,4,-20,-24,-153,259458.0
10:43:52.512,AUTO,-35.3632634,149.1652342,9520,0.07187365740537643,0.008746719919145107,-0.09939257055521011,0.016359401866793633,-0.03895207867026329,0.041499435901641846,1,5,-996,17,-38,41,-20,-6,-153,259458.0
10:43:52.714,AUTO,-35.3632638,149.1652342,9909,0.06570552289485931,-0.013776374980807304,-0.0817955806851387,-0.04606202617287636,-0.11352124810218811,0.1038997545838356,3,2,-995,-45,-112,103,-17,10,-151,259458.0
10:43:52.915,AUTO,-35.3632641,149.1652345,10294,0.04916999489068985,-0.04811634495854378,-0.05239126458764076,-0.0847458764910698,-0.12747307121753693,0.11812297999858856,5,-1,-995,-84,-127,117,-7,23,-150,259458.0
10:43:53.118,AUTO,-35.3632641,149.1652352,10676,0.020196925848722458,-0.057473357766866684,-0.0404057577252388,-0.12598274648189545,0.03608725592494011,0.004310001619160175,3,-4,-997,-125,36,3,8,29,-148,259458.0
10:43:53.320,AUTO,-35.3632641,149.1652352,10676,0.020196925848722458,-0.057473357766866684,-0.0404057577252388,-0.12598274648189545,0.03608725592494011,0.004310001619160175,3,-4,-997,-125,36,3,8,29,-148,259458.0
10:43:53.523,AUTO,-35.3632638,149.1652359,11055,-0.006983709987252951,-0.0392935611307621,-0.04963712394237518,-0.09204503893852234,0.08528555929660797,-0.05690469965338707,0,-7,-1003,-91,86,-57,20,28,-148,259458.0
10:43:53.726,AUTO,-35.3632638,149.1652359,11055,-0.006983709987252951,-0.0392935611307621,-0.04963712394237518,-0.09204503893852234,0.08528555929660797,-0.05690469965338707,0,-7,-1003,-91,86,-57,20,28,-148,259458.0
10:43:53.929,AUTO,-35.3632638,149.1652359,11055,-0.006983709987252951,-0.0392935611307621,-0.04963712394237518,-0.09204503893852234,0.08528555929660797,-0.05690469965338707,0,-7,-1003,-91,86,-57,20,28,-148,129851.0
10:43:54.131,AUTO,-35.363262,149.1652372,12206,-0.02946186065673828,0.0041387914679944515,-0.10840998589992523,0.007401556242257357,0.03766033053398132,-0.0759119763970375,-3,-5,-1003,8,38,-76,28,3,-151,129851.0
10:43:54.332,AUTO,-35.363262,149.1652372,12206,-0.02946186065673828,0.0041387914679944515,-0.10840998589992523,0.007401556242257357,0.03766033053398132,-0.0759119763970375,-3,-5,-1003,8,38,-76,28,3,-151,129851.0
10:43:54.534,AUTO,-35.3632614,149.1652372,12594,-0.025682562962174416,0.011704211123287678,-0.1266852170228958,0.026341566815972328,0.026440462097525597,-0.06212059035897255,-6,-4,-1003,26,27,-62,24,-4,-152,129851.0
10:43:54.739,AUTO,-35.3632609,149.165237,12983,-0.018329273909330368,0.017025312408804893,-0.14168626070022583,0.035432446748018265,0.02017049677670002,-0.051311127841472626,-6,-2,-1002,36,21,-51,19,-10,-153,129851.0
10:43:54.940,AUTO,-35.3632605,149.1652367,13374,-0.009579883888363838,0.020801065489649773,-0.15316160023212433,0.03603222221136093,0.01273922435939312,-0.03824274614453316,-5,-1,-1001,36,13,-38,13,-14,-153,129851.0
10:43:55.142,AUTO,-35.3632602,149.1652363,13766,-0.0008815740002319217,0.022811900824308395,-0.1609717160463333,0.03377075865864754,0.005878805182874203,-0.024932486936450005,-5,0,-1000,34,6,-25,7,-14,-153,129851.0
10:43:55.344,AUTO,-35.3632601,149.1652359,14156,0.006605029571801424,0.022794999182224274,-0.16536501049995422,0.027822870761156082,-0.002651889342814684,-0.012134682387113571,-3,1,-1000,28,-1,-12,1,-13,-153,129851.0
10:43:55.546,AUTO,-35.3632601,149.1652359,14156,0.006605029571801424,0.022794999182224274,-0.16536501049995422,0.027822870761156082,-0.002651889342814684,-0.012134682387113571,-3,1,-1000,28,-1,-12,1,-13,-153,129851.0
10:43:55.748,AUTO,-35.3632601,149.1652359,14156,0.006605029571801424,0.022794999182224274,-0.16536501049995422,0.027822870761156082,-0.002651889342814684,-0.012134682387113571,-3,1,-1000,28,-1,-12,1,-13,-153,129851.0
10:43:55.950,AUTO,-35.3632601,149.1652359,14156,0.006605029571801424,0.022794999182224274,-0.16536501049995422,0.027822870761156082,-0.002651889342814684,-0.012134682387113571,-3,1,-1000,28,-1,-12,1,-13,-153,129851.0
10:43:56.151,AUTO,-35.3632602,149.1652351,15327,0.01478493120521307,0.016180425882339478,-0.16669107973575592,-0.0018271338194608688,-0.00896303728222847,0.0007098427740857005,0,2,-999,-1,-8,0,-10,-1,-152,129851.0
10:43:56.353,AUTO,-35.3632604,149.1652351,15715,0.01387979369610548,0.01320344116538763,-0.16589578986167908,-0.0053957607597112656,-0.013105311430990696,0.0036519779823720455,1,1,-999,-4,-12,3,-12,1,-152,129851.0
10:43:56.555,AUTO,-35.3632604,149.1652351,15715,0.01387979369610548,0.01320344116538763,-0.16589578986167908,-0.0053957607597112656,-0.013105311430990696,0.0036519779823720455,1,1,-999,-4,-12,3,-12,1,-152,129851.0
10:43:56.757,AUTO,-35.3632606,149.1652351,16111,0.011751260608434677,0.009746420197188854,-0.16527871787548065,-0.008302220143377781,-0.013102130964398384,0.0011999423149973154,2,1,-1000,-7,-12,0,-13,5,-152,129851.0
10:43:56.959,AUTO,-35.3632608,149.1652351,16499,0.009071698412299156,0.006362853106111288,-0.16501609981060028,-0.011648229323327541,-0.013326404616236687,-0.00040366483153775334,3,0,-1000,-11,-12,0,-13,7,-152,120717.0
10:43:57.161,AUTO,-35.3632611,149.1652353,16886,0.006342784967273474,0.0035291453823447227,-0.16579268872737885,-0.008781851269304752,-0.009995624423027039,-0.0037361090071499348,2,0,-1000,-8,-9,-4,-12,8,-152,120717.0
10:43:57.362,AUTO,-35.3632613,149.1652355,17274,0.003941993694752455,0.0012327594449743629,-0.16751740872859955,-0.007901402190327644,-0.008293971419334412,-0.006783487740904093,2,0,-1001,-7,-7,-7,-11,9,-152,120717.0
10:43:57.565,AUTO,-35.3632613,149.1652355,17274,0.003941993694752455,0.0012327594449743629,-0.16751740872859955,-0.007901402190327644,-0.008293971419334412,-0.006783487740904093,2,0,-1001,-7,-7,-7,-11,9,-152,120717.0
10:43:57.767,AUTO,-35.3632613,149.1652355,17274,0.003941993694752455,0.0012327594449743629,-0.16751740872859955,-0.007901402190327644,-0.008293971419334412,-0.006783487740904093,2,0,-1001,-7,-7,-7,-11,9,-152,120717.0
10:43:57.969,AUTO,-35.3632613,149.1652355,17274,0.003941993694752455,0.0012327594449743629,-0.16751740872859955,-0.007901402190327644,-0.008293971419334412,-0.006783487740904093,2,0,-1001,-7,-7,-7,-11,9,-152,120717.0
10:43:58.170,AUTO,-35.3632619,149.1652361,18432,-0.0005976326065137982,-0.0022507302928715944,-0.1790316104888916,-0.0016478244215250015,6.831827340647578e-05,-0.021450268104672432,1,0,-1001,0,0,-21,-7,7,-152,120717.0
10:43:58.372,AUTO,-35.363262,149.1652362,18821,-0.0009789729956537485,-0.0023033241741359234,-0.1846003532409668,-0.00140754459425807,0.0006789578474126756,-0.024608111009001732,1,0,-1000,0,1,-25,-5,6,-152,120717.0
10:43:58.574,AUTO,-35.363262,149.1652362,18821,-0.0009789729956537485,-0.0023033241741359234,-0.1846003532409668,-0.00140754459425807,0.0006789578474126756,-0.024608111009001732,1,0,-1000,0,1,-25,-5,6,-152,120717.0
10:43:58.776,AUTO,-35.3632621,149.1652363,19210,-0.0010046166134998202,-0.0021433336660265923,-0.190597265958786,-0.00038439329364337027,0.002059117890894413,-0.02631673589348793,1,0,-1000,0,3,-26,-4,5,-152,120717.0
10:43:58.978,AUTO,-35.3632621,149.1652364,19598,-0.012107574380934238,-0.0014733875868842006,-0.19721876084804535,-0.08792652189731598,0.0038255183026194572,-0.02697666548192501,0,0,-994,-87,4,-27,-3,3,-151,120717.0
10:43:59.181,AUTO,-35.3632622,149.1652363,19983,-0.041436925530433655,-0.00035646953620016575,-0.20283615589141846,-0.11256937682628632,0.022094881162047386,0.01118246279656887,0,0,-990,-111,22,11,-4,-3,-149,120717.0
10:43:59.383,AUTO,-35.3632622,149.1652361,20358,-0.057299111038446426,0.02226192317903042,-0.16571083664894104,-0.032976508140563965,0.11730258166790009,0.2814526855945587,0,1,-978,-32,118,280,-7,-16,-144,120717.0
10:43:59.585,AUTO,-35.3632622,149.1652361,20358,-0.057299111038446426,0.02226192317903042,-0.16571083664894104,-0.032976508140563965,0.11730258166790009,0.2814526855945587,0,1,-978,-32,118,280,-7,-16,-144,120717.0
10:43:59.801,AUTO,-35.3632622,149.1652361,20358,-0.057299111038446426,0.02226192317903042,-0.16571083664894104,-0.032976508140563965,0.11730258166790009,0.2814526855945587,0,1,-978,-32,118,280,-7,-16,-144,120717.0
10:44:00.004,AUTO,-35.3632622,149.1652361,20358,-0.057299111038446426,0.02226192317903042,-0.16571083664894104,-0.032976508140563965,0.11730258166790009,0.2814526855945587,0,1,-978,-32,118,280,-7,-16,-144,148416.0
10:44:00.206,AUTO,-35.3632637,149.1652333,21367,0.0063070678152143955,-0.006290900055319071,0.07314558327198029,0.14060361683368683,-0.15260463953018188,0.06487321108579636,1,12,-951,141,-151,64,-32,-38,-113,148416.0
10:44:00.407,AUTO,-35.3632643,149.1652323,21642,0.03601964935660362,-0.03339362144470215,0.07491277158260345,0.09927523136138916,-0.07057742774486542,-0.027454780414700508,1,10,-956,100,-69,-27,-26,-30,-102,148416.0
10:44:00.609,AUTO,-35.3632648,149.1652316,21889,0.05430494621396065,-0.042536139488220215,0.06427492201328278,0.05159273371100426,-0.018189411610364914,-0.04737921431660652,0,6,-960,52,-17,-47,-17,-17,-91,148416.0
10:44:00.811,AUTO,-35.3632648,149.1652316,21889,0.05430494621396065,-0.042536139488220215,0.06427492201328278,0.05159273371100426,-0.018189411610364914,-0.04737921431660652,0,6,-960,52,-17,-47,-17,-17,-91,148416.0
10:44:01.012,AUTO,-35.363265,149.1652313,22109,0.06119593232870102,-0.042310964316129684,0.053914908319711685,0.005068482831120491,0.011171060614287853,-0.034400925040245056,0,3,-964,5,11,-34,-7,-2,-81,148416.0
10:44:01.214,AUTO,-35.3632651,149.1652313,22305,0.058721646666526794,-0.03659216687083244,0.047547247260808945,-0.023769436404109,0.02824433520436287,-0.019228432327508926,0,0,-969,-22,29,-19,1,11,-72,148416.0
10:44:01.416,AUTO,-35.3632651,149.1652316,22480,0.05049509182572365,-0.028436655178666115,0.04494331032037735,-0.0358850471675396,0.03421231359243393,-0.0055731418542563915,0,-4,-972,-34,34,-5,9,23,-65,148416.0
10:44:01.619,AUTO,-35.3632651,149.1652316,22480,0.05049509182572365,-0.028436655178666115,0.04494331032037735,-0.0358850471675396,0.03421231359243393,-0.0055731418542563915,0,-4,-972,-34,34,-5,9,23,-65,148416.0
10:44:01.822,AUTO,-35.3632651,149.1652316,22480,0.05049509182572365,-0.028436655178666115,0.04494331032037735,-0.0358850471675396,0.03421231359243393,-0.0055731418542563915,0,-4,-972,-34,34,-5,9,23,-65,148416.0
10:44:02.024,AUTO,-35.3632651,149.1652316,22480,0.05049509182572365,-0.028436655178666115,0.04494331032037735,-0.0358850471675396,0.03421231359243393,-0.0055731418542563915,0,-4,-972,-34,34,-5,9,23,-65,148416.0
10:44:02.226,AUTO,-35.3632639,149.1652341,22900,0.018098339438438416,-0.0010973511962220073,0.04348896071314812,-0.034705691039562225,0.029164547100663185,0.004753014072775841,0,-9,-978,-34,30,4,20,39,-46,148416.0
10:44:02.427,AUTO,-35.3632634,149.1652351,23011,0.008580637164413929,0.004927495028823614,0.04281165823340416,-0.03565685823559761,0.020611757412552834,-1.5091121895238757e-05,0,-11,-979,-34,21,0,20,39,-41,148416.0
10:44:02.629,AUTO,-35.3632629,149.1652361,23108,0.0009190558339469135,0.00996258482336998,0.041865233331918716,-0.03513888642191887,0.018680032342672348,0.0005196080892346799,0,-10,-978,-34,19,0,19,37,-36,148416.0
10:44:02.831,AUTO,-35.3632629,149.1652361,23108,0.0009190558339469135,0.00996258482336998,0.041865233331918716,-0.03513888642191887,0.018680032342672348,0.0005196080892346799,0,-10,-978,-34,19,0,19,37,-36,148416.0
10:44:03.033,AUTO,-35.3632625,149.1652371,23190,-0.004513499792665243,0.01360398717224598,0.04106314480304718,0.0006327909650281072,0.01251790951937437,-0.0002652670082170516,0,-8,-977,1,13,0,16,34,-30,116787.0
10:44:03.234,AUTO,-35.3632621,149.1652379,23257,-0.008944486267864704,0.015460053458809853,0.040271077305078506,-0.02451552264392376,0.004818940069526434,-0.0014456221833825111,0,-8,-975,-23,5,-1,14,29,-24,116787.0
10:44:03.436,AUTO,-35.3632618,149.1652386,23308,-0.012132428586483002,0.01586119644343853,0.03951840102672577,-0.028604742139577866,-0.0002400596858933568,-0.0016392169054597616,0,-7,-973,-27,0,-1,11,24,-17,116787.0
10:44:03.638,AUTO,-35.3632618,149.1652386,23308,-0.012132428586483002,0.01586119644343853,0.03951840102672577,-0.028604742139577866,-0.0002400596858933568,-0.0016392169054597616,0,-7,-973,-27,0,-1,11,24,-17,116787.0
10:44:03.840,AUTO,-35.3632618,149.1652386,23308,-0.012132428586483002,0.01586119644343853,0.03951840102672577,-0.028604742139577866,-0.0002400596858933568,-0.0016392169054597616,0,-7,-973,-27,0,-1,11,24,-17,116787.0
10:44:04.042,AUTO,-35.3632618,149.1652386,23308,-0.012132428586483002,0.01586119644343853,0.03951840102672577,-0.028604742139577866,-0.0002400596858933568,-0.0016392169054597616,0,-7,-973,-27,0,-1,11,24,-17,116787.0
10:44:04.244,AUTO,-35.3632613,149.1652399,23338,-0.05142288655042648,0.031169062480330467,0.035889893770217896,0.043888069689273834,0.021886194124817848,-0.005925368517637253,0,8,-957,45,22,-5,0,5,12,116787.0
10:44:04.445,AUTO,-35.3632612,149.16524,23295,-0.04210624471306801,0.024679845198988914,0.03521495312452316,0.20806549489498138,-0.03790096566081047,-0.00412268890067935,0,-3,-993,208,-37,-4,-5,-7,17,116787.0
10:44:04.647,AUTO,-35.3632613,149.1652396,23243,-0.04862029850482941,0.017946757376194,0.03441351652145386,-0.7144514322280884,-0.017669446766376495,-0.008490710519254208,0,-39,-981,-714,-16,-8,-9,-17,21,116787.0
10:44:04.849,AUTO,-35.3632615,149.165239,23188,-0.04959860071539879,0.014825846999883652,0.033699460327625275,-0.6718981862068176,-0.011803305707871914,-0.004078177269548178,0,-12,-1034,-670,-10,-4,-13,-27,17,116787.0
10:44:05.051,AUTO,-35.3632615,149.165239,23188,-0.04959860071539879,0.014825846999883652,0.033699460327625275,-0.6718981862068176,-0.011803305707871914,-0.004078177269548178,0,-12,-1034,-670,-10,-4,-13,-27,17,116787.0
10:44:05.252,AUTO,-35.3632618,149.1652382,23149,-0.046548403799533844,0.011470643803477287,0.03262484073638916,0.005394533276557922,-0.011520410887897015,-0.00537265045568347,-2,35,-1019,7,-10,-5,-16,-34,10,116787.0
10:44:05.454,AUTO,-35.3632622,149.1652371,23122,-0.037150658667087555,0.009380124509334564,0.031618084758520126,0.7096648216247559,-0.005115840118378401,-0.005203304812312126,-1,45,-1010,711,-3,-5,-18,-42,6,116787.0
10:44:05.656,AUTO,-35.3632622,149.1652371,23122,-0.037150658667087555,0.009380124509334564,0.031618084758520126,0.7096648216247559,-0.005115840118378401,-0.005203304812312126,-1,45,-1010,711,-3,-5,-18,-42,6,116787.0
10:44:05.859,AUTO,-35.3632622,149.1652371,23122,-0.037150658667087555,0.009380124509334564,0.031618084758520126,0.7096648216247559,-0.005115840118378401,-0.005203304812312126,-1,45,-1010,711,-3,-5,-18,-42,6,116787.0
10:44:06.061,AUTO,-35.3632622,149.1652371,23122,-0.037150658667087555,0.009380124509334564,0.031618084758520126,0.7096648216247559,-0.005115840118378401,-0.005203304812312126,-1,45,-1010,711,-3,-5,-18,-42,6,235212.0
10:44:06.263,AUTO,-35.3632637,149.1652324,23093,-0.06586342304944992,0.008482126519083977,0.004692192655056715,-0.35171085596084595,0.005439989268779755,-0.10756092518568039,-4,18,-1019,-350,6,-107,-26,-70,-3,235212.0
10:44:06.465,AUTO,-35.3632643,149.1652303,23096,-0.06810527294874191,0.007301083765923977,-0.023383652791380882,0.3766525685787201,0.0009798832470551133,-0.1144702136516571,-2,49,-1003,378,1,-114,-29,-81,-4,235212.0
10:44:06.667,AUTO,-35.363265,149.1652279,23102,-0.07565205544233322,0.006570172496140003,-0.04972757399082184,0.42435961961746216,0.001909636310301721,-0.09817589819431305,-6,36,-1012,425,2,-98,-33,-94,-5,235212.0
10:44:06.869,AUTO,-35.3632658,149.1652251,23111,-0.094915971159935,0.005857420619577169,-0.07334424555301666,-0.37675681710243225,-0.0008705257787369192,-0.08367399871349335,-10,0,-993,-376,0,-83,-37,-110,-5,235212.0
10:44:07.071,AUTO,-35.3632658,149.1652251,23111,-0.094915971159935,0.005857420619577169,-0.07334424555301666,-0.37675681710243225,-0.0008705257787369192,-0.08367399871349335,-10,0,-993,-376,0,-83,-37,-110,-5,235212.0
10:44:07.273,AUTO,-35.3632668,149.1652219,23121,-0.11311223357915878,0.0035218377597630024,-0.095345638692379,-0.34344011545181274,-0.00042202213080599904,-0.08538617938756943,-14,27,-1003,-342,0,-85,-42,-127,-6,235212.0
10:44:07.475,AUTO,-35.3632678,149.1652181,23132,-0.11598939448595047,-0.00016532167501281947,-0.11672842502593994,0.41258135437965393,-0.009874256327748299,-0.08873450011014938,-13,58,-1002,414,-9,-88,-48,-146,-6,235212.0
10:44:07.678,AUTO,-35.3632678,149.1652181,23132,-0.11598939448595047,-0.00016532167501281947,-0.11672842502593994,0.41258135437965393,-0.009874256327748299,-0.08873450011014938,-13,58,-1002,414,-9,-88,-48,-146,-6,235212.0
10:44:07.881,AUTO,-35.3632678,149.1652181,23132,-0.11598939448595047,-0.00016532167501281947,-0.11672842502593994,0.41258135437965393,-0.009874256327748299,-0.08873450011014938,-13,58,-1002,414,-9,-88,-48,-146,-6,235212.0
10:44:08.083,AUTO,-35.3632678,149.1652181,23132,-0.11598939448595047,-0.00016532167501281947,-0.11672842502593994,0.41258135437965393,-0.009874256327748299,-0.08873450011014938,-13,58,-1002,414,-9,-88,-48,-146,-6,235212.0
10:44:08.286,AUTO,-35.3632719,149.1652034,23166,-0.15898162126541138,-0.011746575124561787,-0.18108059465885162,0.06140141561627388,-0.00589738879352808,-0.08989722281694412,-29,68,-1008,62,-4,-90,-69,-216,-6,235212.0
10:44:08.488,AUTO,-35.3632736,149.1651971,23176,-0.1667398065328598,-0.016487115994095802,-0.20212309062480927,0.3556774854660034,-0.011362847872078419,-0.0866510421037674,-27,72,-1019,357,-10,-87,-77,-243,-5,235212.0
10:44:08.690,AUTO,-35.3632756,149.16519,23189,-0.17108161747455597,-0.02483941987156868,-0.22373546659946442,-0.13806329667568207,-0.023623794317245483,-0.07617132365703583,-33,47,-1011,-137,-22,-76,-86,-271,-6,235212.0
10:44:08.892,AUTO,-35.3632777,149.1651823,23204,-0.1756603866815567,-0.0336846262216568,-0.2443685084581375,-0.22787536680698395,-0.019737524911761284,-0.07818984240293503,-36,59,-1008,-227,-18,-78,-94,-297,-7,193296.0
10:44:09.094,AUTO,-35.36328,149.1651739,23221,-0.1729050725698471,-0.043498922139406204,-0.2811231017112732,0.18808765709400177,-0.023730484768748283,-0.2943345904350281,-36,72,-1005,189,-23,-294,-101,-323,-8,193296.0
10:44:09.296,AUTO,-35.36328,149.1651739,23221,-0.1729050725698471,-0.043498922139406204,-0.2811231017112732,0.18808765709400177,-0.023730484768748283,-0.2943345904350281,-36,72,-1005,189,-23,-294,-101,-323,-8,193296.0
10:44:09.498,AUTO,-35.3632824,149.1651646,23241,-0.16247567534446716,-0.0678759291768074,-0.4088747203350067,0.028774375095963478,-0.010964571498334408,-0.6349261403083801,-55,56,-1008,29,-9,-635,-109,-348,-9,193296.0
10:44:09.700,AUTO,-35.3632824,149.1651646,23241,-0.16247567534446716,-0.0678759291768074,-0.4088747203350067,0.028774375095963478,-0.010964571498334408,-0.6349261403083801,-55,56,-1008,29,-9,-635,-109,-348,-9,193296.0
10:44:09.908,AUTO,-35.3632824,149.1651646,23241,-0.16247567534446716,-0.0678759291768074,-0.4088747203350067,0.028774375095963478,-0.010964571498334408,-0.6349261403083801,-55,56,-1008,29,-9,-635,-109,-348,-9,193296.0
10:44:10.114,AUTO,-35.3632907,149.165133,23313,-0.12622883915901184,-0.1510518193244934,-0.9178222417831421,0.06616967916488647,0.0017925077117979527,-0.6344435214996338,-93,42,-1002,66,2,-634,-130,-420,-11,193296.0
10:44:10.317,AUTO,-35.3632907,149.165133,23313,-0.12622883915901184,-0.1510518193244934,-0.9178222417831421,0.06616967916488647,0.0017925077117979527,-0.6344435214996338,-93,42,-1002,66,2,-634,-130,-420,-11,193296.0
10:44:10.518,AUTO,-35.3632938,149.1651209,23339,-0.09964893013238907,-0.17059221863746643,-1.07334566116333,0.0031015598215162754,-0.004843280650675297,-0.604619562625885,-103,25,-1009,3,-4,-604,-140,-445,-12,193296.0
10:44:10.721,AUTO,-35.3632971,149.1651081,23370,-0.0664072185754776,-0.17711281776428223,-1.2246235609054565,-0.007761312648653984,0.03558427840471268,-0.5879848599433899,-118,8,-1016,-6,36,-587,-147,-469,-15,193296.0
10:44:10.923,AUTO,-35.3633005,149.1650948,23409,-0.032791249454021454,-0.17831571400165558,-1.3734997510910034,0.020449135452508926,0.027209922671318054,-0.5780289173126221,-127,3,-1016,21,27,-578,-153,-490,-17,193296.0
10:44:11.125,AUTO,-35.3633041,149.1650809,23454,0.0014897002838551998,-0.17778949439525604,-1.5239766836166382,0.0358726792037487,0.023995527997612953,-0.5939833521842957,-102,-39,-996,36,24,-593,-160,-508,-19,193296.0
10:44:11.327,AUTO,-35.3633041,149.1650809,23454,0.0014897002838551998,-0.17778949439525604,-1.5239766836166382,0.0358726792037487,0.023995527997612953,-0.5939833521842957,-102,-39,-996,36,24,-593,-160,-508,-19,193296.0
10:44:11.530,AUTO,-35.3633079,149.1650665,23506,0.03614385053515434,-0.16907091438770294,-1.6755987405776978,0.025819091126322746,0.01244187168776989,-0.5950285792350769,-119,-28,-998,26,13,-595,-164,-523,-21,193296.0
10:44:11.733,AUTO,-35.3633079,149.1650665,23506,0.03614385053515434,-0.16907091438770294,-1.6755987405776978,0.025819091126322746,0.01244187168776989,-0.5950285792350769,-119,-28,-998,26,13,-595,-164,-523,-21,193296.0
10:44:11.935,AUTO,-35.3633079,149.1650665,23506,0.03614385053515434,-0.16907091438770294,-1.6755987405776978,0.025819091126322746,0.01244187168776989,-0.5950285792350769,-119,-28,-998,26,13,-595,-164,-523,-21,138092.0
10:44:12.137,AUTO,-35.3633193,149.1650214,23666,0.07384459674358368,-0.1659250259399414,-1.9127072095870972,-0.0009483108296990395,-0.00822227168828249,0.04415375739336014,-116,-78,-995,0,-7,43,-174,-562,-19,138092.0
10:44:12.338,AUTO,-35.3633193,149.1650214,23666,0.07384459674358368,-0.1659250259399414,-1.9127072095870972,-0.0009483108296990395,-0.00822227168828249,0.04415375739336014,-116,-78,-995,0,-7,43,-174,-562,-19,138092.0
10:44:12.540,AUTO,-35.3633233,149.1650057,23717,0.07418183982372284,-0.16452056169509888,-1.8935643434524536,0.002514684572815895,0.03461932763457298,0.08795244246721268,-124,-76,-998,3,35,87,-178,-574,-19,138092.0
10:44:12.742,AUTO,-35.3633273,149.1649896,23769,0.07334776222705841,-0.15478086471557617,-1.871999979019165,-0.008637015707790852,0.05296310782432556,0.0727902203798294,-117,-63,-998,-7,53,72,-181,-586,-21,138092.0
10:44:12.944,AUTO,-35.3633314,149.1649731,23826,0.07118946313858032,-0.1448204517364502,-1.8586955070495605,0.024536114186048508,0.04093097895383835,0.027337541803717613,-103,-67,-986,25,41,27,-183,-595,-22,138092.0
10:44:13.146,AUTO,-35.3633354,149.1649566,23887,0.0686231479048729,-0.13935090601444244,-1.8543305397033691,0.005108924582600594,0.00798891019076109,0.0050400192849338055,-125,-77,-987,5,8,5,-184,-600,-23,138092.0
10:44:13.348,AUTO,-35.3633395,149.1649398,23948,0.06738480925559998,-0.13529787957668304,-1.8547621965408325,-0.0010858363239094615,0.024393847212195396,-0.007298371754586697,-126,-73,-988,0,25,-7,-185,-603,-23,138092.0
10:44:13.550,AUTO,-35.3633395,149.1649398,23948,0.06738480925559998,-0.13529787957668304,-1.8547621965408325,-0.0010858363239094615,0.024393847212195396,-0.007298371754586697,-126,-73,-988,0,25,-7,-185,-603,-23,138092.0
10:44:13.753,AUTO,-35.3633395,149.1649398,23948,0.06738480925559998,-0.13529787957668304,-1.8547621965408325,-0.0010858363239094615,0.024393847212195396,-0.007298371754586697,-126,-73,-988,0,25,-7,-185,-603,-23,138092.0
10:44:13.956,AUTO,-35.3633395,149.1649398,23948,0.06738480925559998,-0.13529787957668304,-1.8547621965408325,-0.0010858363239094615,0.024393847212195396,-0.007298371754586697,-126,-73,-988,0,25,-7,-185,-603,-23,138092.0
10:44:14.158,AUTO,-35.363352,149.1648894,24131,0.06881973147392273,-0.11472109705209732,-1.8590641021728516,0.00014120677951723337,-0.0051988353952765465,-0.004648702219128609,-125,-82,-979,0,-4,-4,-188,-605,-21,138092.0
10:44:14.360,AUTO,-35.3633562,149.1648726,24186,0.06989666074514389,-0.11899354308843613,-1.8592562675476074,-0.023800427094101906,-0.008668562397360802,0.0032783171627670527,-123,-67,-977,-22,-7,3,-188,-604,-18,138092.0
10:44:14.563,AUTO,-35.3633562,149.1648726,24186,0.06989666074514389,-0.11899354308843613,-1.8592562675476074,-0.023800427094101906,-0.008668562397360802,0.0032783171627670527,-123,-67,-977,-22,-7,3,-188,-604,-18,138092.0
10:44:14.765,AUTO,-35.3633604,149.1648556,24235,0.0683676078915596,-0.12189574539661407,-1.859807014465332,0.04608679562807083,0.009639584459364414,-0.011207166127860546,-134,-88,-985,47,10,-10,-189,-603,-16,138092.0
10:44:14.967,AUTO,-35.3633646,149.1648389,24280,0.07034177333116531,-0.11222904175519943,-1.860464096069336,0.005675720050930977,0.05524613708257675,-0.007880864664912224,-118,-80,-996,6,56,-7,-190,-602,-16,157431.0
10:44:15.169,AUTO,-35.3633687,149.1648223,24329,0.06885634362697601,-0.09724409133195877,-1.860835075378418,-0.04121067374944687,0.03751103952527046,0.0005323980003595352,-126,-73,-997,-40,38,0,-188,-598,-18,157431.0
10:44:15.371,AUTO,-35.3633728,149.1648059,24380,0.06697796285152435,-0.08644979447126389,-1.8608224391937256,0.000663256854750216,0.060431040823459625,0.005011478438973427,-128,-76,-997,1,61,4,-187,-591,-19,157431.0
10:44:15.573,AUTO,-35.3633728,149.1648059,24380,0.06697796285152435,-0.08644979447126389,-1.8608224391937256,0.000663256854750216,0.060431040823459625,0.005011478438973427,-128,-76,-997,1,61,4,-187,-591,-19,157431.0
10:44:15.775,AUTO,-35.3633728,149.1648059,24380,0.06697796285152435,-0.08644979447126389,-1.8608224391937256,0.000663256854750216,0.060431040823459625,0.005011478438973427,-128,-76,-997,1,61,4,-187,-591,-19,157431.0
10:44:15.977,AUTO,-35.3633728,149.1648059,24380,0.06697796285152435,-0.08644979447126389,-1.8608224391937256,0.000663256854750216,0.060431040823459625,0.005011478438973427,-128,-76,-997,1,61,4,-187,-591,-19,157431.0
10:44:16.179,AUTO,-35.3633849,149.1647579,24540,0.0671781525015831,-0.04862149432301521,-1.8597478866577148,-0.05242195352911949,0.039384935051202774,0.006095999851822853,-118,-74,-986,-51,40,5,-177,-555,-19,157431.0
10:44:16.381,AUTO,-35.3633887,149.1647428,24590,0.06488844752311707,-0.041533034294843674,-1.8597054481506348,-0.018891703337430954,0.037433136254549026,0.000764931901358068,-122,-57,-984,-17,38,0,-171,-539,-17,157431.0
10:44:16.583,AUTO,-35.3633887,149.1647428,24590,0.06488844752311707,-0.041533034294843674,-1.8597054481506348,-0.018891703337430954,0.037433136254549026,0.000764931901358068,-122,-57,-984,-17,38,0,-171,-539,-17,157431.0
10:44:16.784,AUTO,-35.3633924,149.164728,24635,0.06243353337049484,-0.028485825285315514,-1.8596898317337036,0.044719398021698,0.07053671032190323,-0.00925665907561779,-111,-68,-992,45,71,-9,-166,-522,-15,157431.0
10:44:16.987,AUTO,-35.363396,149.1647138,24677,0.06304249167442322,-0.014305684715509415,-1.8602991104125977,-0.055868152529001236,0.042785562574863434,-0.0025100575294345617,-107,-60,-991,-54,43,-2,-160,-502,-14,157431.0
10:44:17.189,AUTO,-35.3633995,149.1647002,24716,0.05957185477018356,-0.0019424166530370712,-1.8602436780929565,-0.03529571369290352,0.06531933695077896,-0.004134562332183123,-103,-58,-992,-34,66,-4,-153,-480,-13,157431.0
10:44:17.391,AUTO,-35.3634028,149.1646872,24752,0.06243698298931122,0.00995080266147852,-1.859834909439087,0.10702071338891983,0.05464319884777069,-0.0031490277033299208,-100,-56,-992,107,55,-2,-146,-457,-11,157431.0
10:44:17.593,AUTO,-35.3634028,149.1646872,24752,0.06243698298931122,0.00995080266147852,-1.859834909439087,0.10702071338891983,0.05464319884777069,-0.0031490277033299208,-100,-56,-992,107,55,-2,-146,-457,-11,157431.0
10:44:17.811,AUTO,-35.3634028,149.1646872,24752,0.06243698298931122,0.00995080266147852,-1.859834909439087,0.10702071338891983,0.05464319884777069,-0.0031490277033299208,-100,-56,-992,107,55,-2,-146,-457,-11,157431.0
10:44:18.013,AUTO,-35.3634028,149.1646872,24752,0.06243698298931122,0.00995080266147852,-1.859834909439087,0.10702071338891983,0.05464319884777069,-0.0031490277033299208,-100,-56,-992,107,55,-2,-146,-457,-11,89196.0
10:44:18.216,AUTO,-35.3634117,149.1646524,24834,0.06268629431724548,0.05002296343445778,-1.8589000701904297,0.7246731519699097,0.05259861797094345,-0.028678158298134804,-83,-20,-980,725,53,-28,-118,-375,-5,89196.0
10:44:18.417,AUTO,-35.3634142,149.1646424,24845,0.061940889805555344,0.05990280956029892,-1.8578630685806274,0.2379613220691681,0.030441850423812866,0.03010440245270729,-74,-50,-993,237,31,30,-109,-345,-1,89196.0
10:44:18.619,AUTO,-35.3634165,149.1646332,24851,0.04370655491948128,0.060896135866642,-1.8577418327331543,-0.6371031999588013,-0.007921573705971241,0.030775900930166245,-62,-84,-994,-637,-6,31,-98,-316,0,89196.0
10:44:18.822,AUTO,-35.3634165,149.1646332,24851,0.04370655491948128,0.060896135866642,-1.8577418327331543,-0.6371031999588013,-0.007921573705971241,0.030775900930166245,-62,-84,-994,-637,-6,31,-98,-316,0,89196.0
10:44:19.024,AUTO,-35.3634186,149.1646248,24853,0.030648548156023026,0.05973389744758606,-1.8577033281326294,-0.6762396097183228,-0.0021798666566610336,-0.0022947085089981556,-61,-58,-1006,-675,-1,-2,-88,-288,0,89196.0
10:44:19.226,AUTO,-35.3634204,149.1646172,24853,0.03409465402364731,0.060493823140859604,-1.8590255975723267,0.1714610755443573,0.012693297117948532,-0.02596244588494301,-54,-3,-1006,173,13,-25,-79,-261,1,89196.0
10:44:19.428,AUTO,-35.3634221,149.1646103,24854,0.0402519516646862,0.0637691393494606,-1.85957670211792,0.7316782474517822,0.010709390975534916,-0.01427931897342205,-45,-4,-1012,732,11,-14,-71,-235,0,89196.0
10:44:19.630,AUTO,-35.3634221,149.1646103,24854,0.0402519516646862,0.0637691393494606,-1.85957670211792,0.7316782474517822,0.010709390975534916,-0.01427931897342205,-45,-4,-1012,732,11,-14,-71,-235,0,89196.0
10:44:19.832,AUTO,-35.3634221,149.1646103,24854,0.0402519516646862,0.0637691393494606,-1.85957670211792,0.7316782474517822,0.010709390975534916,-0.01427931897342205,-45,-4,-1012,732,11,-14,-71,-235,0,89196.0
10:44:20.034,AUTO,-35.3634221,149.1646103,24854,0.0402519516646862,0.0637691393494606,-1.85957670211792,0.7316782474517822,0.010709390975534916,-0.01427931897342205,-45,-4,-1012,732,11,-14,-71,-235,0,89196.0
10:44:20.236,AUTO,-35.3634257,149.1645941,24869,0.010060103610157967,0.08087760955095291,-1.8608604669570923,-0.36547917127609253,0.011173820123076439,-0.0030431945342570543,-33,-31,-1004,-363,12,-2,-48,-157,-1,89196.0
10:44:20.438,AUTO,-35.3634265,149.1645901,24872,0.011890449561178684,0.07770892977714539,-1.8611552715301514,0.47408822178840637,-0.029048679396510124,-0.014926012605428696,-26,15,-1002,475,-28,-14,-40,-132,0,89196.0
10:44:20.640,AUTO,-35.3634272,149.1645867,24872,0.012997276149690151,0.06767892092466354,-1.8614383935928345,0.6104779839515686,-0.03980637341737747,0.0034357248805463314,-22,8,-1011,610,-38,3,-34,-108,0,89196.0
10:44:20.843,AUTO,-35.3634277,149.164584,24873,0.002989628119394183,0.05962469056248665,-1.8615425825119019,-0.0870261862874031,-0.029348479583859444,0.009906408376991749,-17,-33,-1003,-87,-28,10,-30,-89,0,89196.0
10:44:21.045,AUTO,-35.3634277,149.164584,24873,0.002989628119394183,0.05962469056248665,-1.8615425825119019,-0.0870261862874031,-0.029348479583859444,0.009906408376991749,-17,-33,-1003,-87,-28,10,-30,-89,0,153795.0
10:44:21.247,AUTO,-35.3634282,149.1645818,24875,-0.008689064532518387,0.05339966341853142,-1.861298680305481,-0.6230924129486084,-0.028451938182115555,0.004772587679326534,-13,-43,-1001,-622,-27,5,-27,-71,0,153795.0
10:44:21.449,AUTO,-35.3634286,149.1645801,24876,-0.0072178104892373085,0.048963118344545364,-1.8614004850387573,-0.14068526029586792,-0.018585029989480972,-0.0023298347368836403,-11,3,-998,-139,-17,-1,-23,-56,0,153795.0
10:44:21.651,AUTO,-35.3634286,149.1645801,24876,-0.0072178104892373085,0.048963118344545364,-1.8614004850387573,-0.14068526029586792,-0.018585029989480972,-0.0023298347368836403,-11,3,-998,-139,-17,-1,-23,-56,0,153795.0
10:44:21.853,AUTO,-35.3634286,149.1645801,24876,-0.0072178104892373085,0.048963118344545364,-1.8614004850387573,-0.14068526029586792,-0.018585029989480972,-0.0023298347368836403,-11,3,-998,-139,-17,-1,-23,-56,0,153795.0
10:44:22.055,AUTO,-35.3634286,149.1645801,24876,-0.0072178104892373085,0.048963118344545364,-1.8614004850387573,-0.14068526029586792,-0.018585029989480972,-0.0023298347368836403,-11,3,-998,-139,-17,-1,-23,-56,0,153795.0
10:44:22.258,AUTO,-35.3634294,149.1645771,24882,-0.010395162738859653,0.03503316268324852,-1.8620247840881348,-0.6564034223556519,-0.024433212354779243,0.0007425047224387527,-5,-31,-998,-655,-23,0,-15,-20,0,153795.0
10:44:22.459,AUTO,-35.3634296,149.1645767,24884,-0.01167143601924181,0.030104322358965874,-1.8621197938919067,-0.17624151706695557,-0.02435709349811077,-0.0002977595431730151,-2,12,-994,-174,-23,0,-12,-12,0,153795.0
10:44:22.661,AUTO,-35.3634298,149.1645765,24885,-0.00015408499166369438,0.02463347651064396,-1.8620785474777222,0.6269938349723816,-0.021692467853426933,0.0006067128852009773,-2,33,-1007,628,-20,0,-10,-5,0,153795.0
10:44:22.863,AUTO,-35.3634299,149.1645765,24887,0.0014308332465589046,0.018482793122529984,-1.8621224164962769,0.1774558275938034,-0.02720942348241806,0.004406871274113655,-2,-4,-996,177,-26,4,-9,0,0,153795.0
10:44:23.065,AUTO,-35.3634299,149.1645765,24887,0.0014308332465589046,0.018482793122529984,-1.8621224164962769,0.1774558275938034,-0.02720942348241806,0.004406871274113655,-2,-4,-996,177,-26,4,-9,0,0,153795.0
10:44:23.267,AUTO,-35.3634301,149.1645767,24888,-0.007546798791736364,0.011336345225572586,-1.8622788190841675,-0.5699360966682434,-0.0333392471075058,0.0010625291615724564,0,-31,-990,-569,-32,1,-8,3,0,153795.0
10:44:23.469,AUTO,-35.3634302,149.1645769,24889,-0.007073724642395973,0.003963664174079895,-1.8630462884902954,-0.10409807413816452,-0.030002571642398834,-0.005411952268332243,0,12,-1001,-102,-28,-5,-6,5,0,153795.0
10:44:23.671,AUTO,-35.3634302,149.1645769,24889,-0.007073724642395973,0.003963664174079895,-1.8630462884902954,-0.10409807413816452,-0.030002571642398834,-0.005411952268332243,0,12,-1001,-102,-28,-5,-6,5,0,153795.0
10:44:23.873,AUTO,-35.3634302,149.1645769,24889,-0.007073724642395973,0.003963664174079895,-1.8630462884902954,-0.10409807413816452,-0.030002571642398834,-0.005411952268332243,0,12,-1001,-102,-28,-5,-6,5,0,153795.0
10:44:24.075,AUTO,-35.3634302,149.1645769,24889,-0.007073724642395973,0.003963664174079895,-1.8630462884902954,-0.10409807413816452,-0.030002571642398834,-0.005411952268332243,0,12,-1001,-102,-28,-5,-6,5,0,272961.0
10:44:24.277,AUTO,-35.3634308,149.1645774,24890,-0.0017953445203602314,-0.009867006912827492,-1.8642339706420898,-0.6197694540023804,-0.008381550200283527,0.0009905926417559385,0,-27,-995,-619,-7,1,-6,0,0,272961.0
10:44:24.479,AUTO,-35.363431,149.1645775,24890,0.0011699694441631436,-0.01681639440357685,-1.8643467426300049,-0.17858338356018066,-0.04808326065540314,-0.0036093913950026035,0,8,-1002,-176,-47,-3,-4,-2,0,272961.0
10:44:24.681,RTL,-35.3634312,149.1645776,24888,0.015580530278384686,-0.027810392901301384,-1.8645014762878418,0.5661446452140808,-0.034263838082551956,0.0008515361696481705,-2,27,-1012,567,-33,1,-4,-8,0,272961.0
10:44:24.883,RTL,-35.3634314,149.1645774,24887,0.015558972023427486,-0.018778039142489433,-1.864923119544983,0.2869729697704315,0.09759891778230667,-0.004321720916777849,-3,0,-998,287,98,-4,-4,-14,0,272961.0
10:44:25.085,RTL,-35.3634314,149.1645774,24887,0.015558972023427486,-0.018778039142489433,-1.864923119544983,0.2869729697704315,0.09759891778230667,-0.004321720916777849,-3,0,-998,287,98,-4,-4,-14,0,272961.0
10:44:25.287,RTL,-35.3634316,149.1645771,24886,0.0019893383141607046,0.0011380240321159363,-1.8645079135894775,-0.5846087336540222,0.04313085228204727,0.0029089967720210552,-3,-31,-1005,-584,43,3,-4,-15,0,272961.0
10:44:25.489,RTL,-35.3634317,149.1645768,24889,0.001344773219898343,0.006927951704710722,-1.8647328615188599,-0.2180003821849823,0.007404153700917959,0.0017056467477232218,-2,0,-1017,-216,8,2,-1,-14,-2,272961.0
10:44:25.691,RTL,-35.3634317,149.1645768,24889,0.001344773219898343,0.006927951704710722,-1.8647328615188599,-0.2180003821849823,0.007404153700917959,0.0017056467477232218,-2,0,-1017,-216,8,2,-1,-14,-2,272961.0
10:44:25.893,RTL,-35.3634317,149.1645768,24889,0.001344773219898343,0.006927951704710722,-1.8647328615188599,-0.2180003821849823,0.007404153700917959,0.0017056467477232218,-2,0,-1017,-216,8,2,-1,-14,-2,272961.0
10:44:26.102,RTL,-35.3634317,149.1645768,24889,0.001344773219898343,0.006927951704710722,-1.8647328615188599,-0.2180003821849823,0.007404153700917959,0.0017056467477232218,-2,0,-1017,-216,8,2,-1,-14,-2,272961.0
10:44:26.304,RTL,-35.363432,149.1645761,24978,0.0010782362660393119,0.009558149613440037,-1.8651820421218872,-0.38152357935905457,-0.0025587966665625572,3.060634480789304e-05,-1,-26,-1040,-381,-1,0,1,-8,-22,272961.0
10:44:26.506,RTL,-35.363432,149.164576,25049,-0.0016887047095224261,0.008831589482724667,-1.8650139570236206,-0.09088646620512009,-0.0011289705289527774,0.0015939280856400728,-1,0,-1047,-89,0,2,2,-6,-32,272961.0
10:44:26.708,RTL,-35.363432,149.1645759,25160,0.004531946033239365,0.008099852129817009,-1.8651108741760254,0.33860138058662415,-0.0011891963658854365,-0.000323729298543185,0,13,-1041,339,0,0,3,-4,-51,272961.0
10:44:26.909,RTL,-35.363432,149.1645758,25299,-0.0018615472363308072,0.007198621053248644,-1.8655980825424194,-0.1656140387058258,-0.0049884505569934845,-0.0006535109714604914,1,-15,-1033,-165,-4,0,2,-3,-60,272961.0
10:44:27.111,RTL,-35.3634319,149.1645758,25462,-0.005619331728667021,0.006234469823539257,-1.8658161163330078,-0.17745237052440643,-0.006218289956450462,9.209098061546683e-05,0,-4,-1037,-176,-5,0,3,-1,-69,178030.0
10:44:27.313,RTL,-35.3634319,149.1645758,25462,-0.005619331728667021,0.006234469823539257,-1.8658161163330078,-0.17745237052440643,-0.006218289956450462,9.209098061546683e-05,0,-4,-1037,-176,-5,0,3,-1,-69,178030.0
10:44:27.515,RTL,-35.3634319,149.1645758,25648,-0.0008539375849068165,0.005353464744985104,-1.8662012815475464,0.1992751806974411,4.546006675809622e-05,-0.0029975741636008024,0,10,-1039,200,0,-2,2,0,-78,178030.0
10:44:27.717,RTL,-35.3634319,149.1645758,25648,-0.0008539375849068165,0.005353464744985104,-1.8662012815475464,0.1992751806974411,4.546006675809622e-05,-0.0029975741636008024,0,10,-1039,200,0,-2,2,0,-78,178030.0
10:44:27.919,RTL,-35.3634319,149.1645758,25648,-0.0008539375849068165,0.005353464744985104,-1.8662012815475464,0.1992751806974411,4.546006675809622e-05,-0.0029975741636008024,0,10,-1039,200,0,-2,2,0,-78,178030.0
10:44:28.121,RTL,-35.3634317,149.1645758,26348,-0.004064838867634535,0.0029639857821166515,-1.8669458627700806,0.07759487628936768,-0.005096609238535166,-0.00018547370564192533,1,4,-1041,78,-4,0,1,0,-106,178030.0
10:44:28.323,RTL,-35.3634317,149.1645758,26348,-0.004064838867634535,0.0029639857821166515,-1.8669458627700806,0.07759487628936768,-0.005096609238535166,-0.00018547370564192533,1,4,-1041,78,-4,0,1,0,-106,178030.0
10:44:28.525,RTL,-35.3634316,149.1645759,26633,-0.004441957920789719,0.0025573517195880413,-1.8671320676803589,0.012609416618943214,-0.00023332936689257622,-0.0013710048515349627,0,-1,-1041,13,0,0,0,1,-116,178030.0
10:44:28.727,RTL,-35.3634315,149.1645759,26944,-0.0050821793265640736,0.0023693975526839495,-1.8672773838043213,-0.030846644192934036,-0.0011183979222550988,-0.0014115420635789633,0,-1,-1041,-29,0,0,0,1,-127,178030.0
10:44:28.929,RTL,-35.3634315,149.164576,27281,-0.00385097274556756,0.002187594771385193,-1.8675384521484375,0.0032633300870656967,-0.0017097785603255033,-0.0016130030853673816,0,0,-1041,4,-1,-1,0,1,-137,178030.0
10:44:29.131,RTL,-35.3634315,149.164576,27643,0.004495162051171064,0.0011541255516931415,-1.867968201637268,0.04639676213264465,-0.006743669509887695,-0.0006441620062105358,0,0,-1021,47,-5,0,0,1,-144,178030.0
10:44:29.333,RTL,-35.3634315,149.164576,27643,0.004495162051171064,0.0011541255516931415,-1.867968201637268,0.04639676213264465,-0.006743669509887695,-0.0006441620062105358,0,0,-1021,47,-5,0,0,1,-144,178030.0
10:44:29.535,RTL,-35.3634314,149.164576,28025,0.016676809638738632,-0.0008356556063517928,-1.8679245710372925,0.047570593655109406,-0.00820874609053135,0.000715346890501678,0,0,-1009,48,-7,1,2,0,-148,178030.0
10:44:29.737,RTL,-35.3634314,149.164576,28025,0.016676809638738632,-0.0008356556063517928,-1.8679245710372925,0.047570593655109406,-0.00820874609053135,0.000715346890501678,0,0,-1009,48,-7,1,2,0,-148,178030.0
10:44:29.939,RTL,-35.3634314,149.164576,28025,0.016676809638738632,-0.0008356556063517928,-1.8679245710372925,0.047570593655109406,-0.00820874609053135,0.000715346890501678,0,0,-1009,48,-7,1,2,0,-148,178030.0
10:44:30.141,RTL,-35.3634305,149.1645756,29175,0.050031960010528564,-0.007857897318899632,-1.8666292428970337,0.04007839038968086,-0.010621283203363419,0.003041396616026759,0,-4,-999,40,-9,3,24,-13,-150,262854.0
10:44:30.343,RTL,-35.3634305,149.1645756,29175,0.050031960010528564,-0.007857897318899632,-1.8666292428970337,0.04007839038968086,-0.010621283203363419,0.003041396616026759,0,-4,-999,40,-9,3,24,-13,-150,262854.0
10:44:30.544,RTL,-35.3634299,149.1645752,29559,0.05725586786866188,-0.009072945453226566,-1.868801474571228,-0.01029607467353344,0.02291594259440899,-0.04224367067217827,2,-7,-992,-9,23,-41,35,-19,-149,262854.0
10:44:30.746,RTL,-35.363429,149.1645746,29939,0.03708743304014206,0.012886537238955498,-1.8910109996795654,-0.13324087858200073,0.09261035174131393,-0.09711804986000061,2,-11,-991,-132,93,-96,44,-23,-146,262854.0
10:44:30.948,RTL,-35.3634279,149.164574,30314,-0.006957537028938532,0.023040149360895157,-1.9099349975585938,-0.18420512974262238,-0.0012580929324030876,-0.05898083746433258,4,-13,-1000,-183,0,-58,46,-20,-145,262854.0
