time_stamp,roll,pitch,yaw,rollspeed,pitchspeed,yawspeed,alt,lat,lon,relative_alt,vx,vy,vz,MODE,xacc,yacc,zacc,xgyro,ygyro,zgyro
18:10:49,0.0001874007381654034,0.001449318331045409,0.027790942539771397,0.0002535756890817235,0.00032910356336894136,0.0024135427083820105,583990.0,-35.3632621,149.1652374,6.0,-0.3333333333333333,0.6666666666666666,0.0,STABILIZE,0.0,1.0,-1000.0,0.0,0.0,0.0
18:10:54,-0.0008721202029846609,0.001052103005349636,0.02490315493196249,0.0002564172027632594,0.00022056592570152134,0.0019667809829115868,583970.0,-35.3632622,149.1652375,0.0,-1.0,1.0,0.0,STABILIZE,0.0,1.0,-1000.0,0.0,0.0,0.0
18:11:00,-0.001341638620942831,0.0009624396625440568,0.02295872289687395,0.00025749506312422454,0.00021762101096101105,0.0015689083375036716,583950.0,-35.3632622,149.1652375,0.0,-1.0,1.0,2.0,STABILIZE,0.0,1.5,-1000.0,0.0,0.0,0.0
18:11:01,-0.0014515455113723874,0.0009690696024335921,0.022626765072345734,0.00018288055434823036,0.0002412261674180627,0.0016230422770604491,583955.0,-35.3632622,149.1652375,0.0,-1.0,0.0,0.5,STABILIZE,0.0,1.0,-1000.0,0.0,0.0,0.0
18:11:04,-0.0013385192141868174,0.0009806253365240991,0.022223840467631817,0.00022358616115525365,0.00032838727929629385,0.0015539884916506708,583970.0,-35.3632622,149.1652375,0.0,-1.0,0.0,0.0,AUTO,0.0,2.0,-1000.0,1.0,0.0,0.0
18:11:05,-0.0012415987148415297,0.0010067074617836624,0.0220123203471303,0.00020063784904778004,0.0002581152366474271,0.0015458552516065538,583985.0,-35.36326215,149.16523745,10.5,-0.5,-0.5,-3.0,AUTO,0.0,2.25,-999.25,0.75,0.5,0.5
18:11:06,-0.0010792756220325828,0.0011119331466034055,0.021877387538552284,0.00033863086719065905,0.00024994020350277424,0.0015542923938483,584000.0,-35.3632621,149.1652374,23.0,0.0,0.0,-3.0,AUTO,0.0,1.5,-1000.0,0.5,0.0,0.5
18:11:07,-0.0007858187309466302,0.0014517857052851468,0.021596111822873354,0.0003147538227494806,0.00028304854640737176,0.0014090304321143776,584002.5,-35.3632621,149.1652375,29.0,0.0,0.25,-2.5,AUTO,0.0,1.25,-1000.0,0.75,1.0,0.25
18:11:08,-0.0005921605625189841,0.0016657342785038054,0.021396853029727936,0.00032311544055119157,0.00026754551799967885,0.0014535010559484363,584010.0,-35.3632621,149.1652375,30.5,0.0,1.0,-2.0,AUTO,0.0,1.5,-1000.0,0.0,0.5,0.0
18:11:09,0.0035241078585386276,0.0008487107952532824,0.021020091138780117,0.011491938537801616,0.0005563962185988203,0.0009443103335797787,584562.5,-35.3632621,149.1652375,586.0,0.0,1.0,-108.0,AUTO,0.0,0.0,-1095.25,12.0,0.75,0.0
18:11:10,0.027851102873682976,-0.001807549298973754,0.02067443821579218,0.046443985775113106,-0.007235913071781397,0.002445524442009628,585555.0,-35.36326205,149.1652376,1581.0,0.5,8.0,-147.5,AUTO,0.0,0.0,-1013.0,47.0,-6.5,1.5
18:11:11,0.0216323462955188,0.010585528332740068,-0.03543315175920725,-0.08424641725287074,0.021079474594444036,-0.061940278857946396,587455.0,-35.3632613,149.165241625,3477.5,6.75,50.5,-147.0,AUTO,3.25,-9.5,-999.5,-83.25,21.5,-61.5
18:11:12,-0.03739256411790848,0.006520797964185476,-0.06801054254174232,-0.05886676162481308,-0.0167404068633914,-0.03267444670200348,588595.0,-35.36326085,149.16524535000002,4618.5,1.5,34.0,-150.0,AUTO,4.0,-8.5,-1002.0,-58.0,-15.5,-33.0
18:11:13,-0.050663300324231386,0.0010747742428520723,-0.09930930286645889,0.0582091398537159,0.003460412088315934,-0.011702266288921237,590512.5,-35.3632609,149.16524425,6537.75,-5.0,-44.25,-149.5,AUTO,-3.75,7.0,-1001.25,58.5,3.75,-11.5
18:11:14,-0.0032172820065170527,0.00695990095846355,-0.10492831468582153,0.06738697364926338,0.011078221257776022,-0.0012814062793040648,591665.0,-35.363261449999996,149.1652397,7692.5,-11.5,-59.0,-151.0,AUTO,-6.0,13.0,-1003.5,67.5,11.0,-1.5
18:11:15,0.06210153363645077,-0.004342192783951759,-0.08848459459841251,0.003946739248931408,-0.06169597430562135,0.060735086735803634,593627.5,-35.36326335,149.165234475,9650.75,-17.75,-3.0,-152.0,AUTO,1.25,4.75,-998.5,4.75,-60.75,60.0
18:11:16,0.014285532764915843,-0.05209588445723057,-0.043173426762223244,-0.10923986881971359,0.040006494615226984,-0.006208280101418495,594790.0,-35.363264,149.16523545,10814.0,9.5,29.0,-148.0,AUTO,1.5,-4.5,-999.5,-108.5,40.5,-6.5
18:11:17,-0.023134946823120117,0.011449013720266521,-0.12932557053864002,0.02334185058134608,0.025200186297297478,-0.05889378488063812,596715.0,-35.3632613,149.165237175,12738.75,21.75,-5.0,-152.0,AUTO,-4.75,-2.75,-1002.5,23.5,25.5,-58.75
18:11:19,0.01498259836807847,0.015119947027415037,-0.16664106398820877,-0.0008496828377246857,-0.011976933106780052,0.0021179697941988707,599450.0,-35.3632603,149.16523515,15475.0,-10.0,-1.5,-152.0,AUTO,0.0,1.5,-999.0,0.0,-11.0,1.5
18:11:20,0.008573653874918818,0.005724595248466358,-0.1655563749372959,-0.01001428160816431,-0.010259343078359962,-0.0034862439497374,600615.0,-35.36326095,149.165235275,16642.5,-12.0,6.75,-152.0,AUTO,1.75,0.5,-999.75,-8.75,-9.0,-3.5
18:11:21,-0.0005710716941393912,-0.0021208598045632243,-0.1805604323744774,-0.0026912273606285453,0.0003888410865329206,-0.022086825221776962,602565.0,-35.36326185,149.16523610000002,18588.5,-6.5,6.5,-152.0,AUTO,1.5,0.0,-1000.0,-1.5,1.0,-22.0
18:11:22,-0.0001807798780646408,-0.0011075609254476149,-0.19897634163498878,0.003409640776226297,0.0025426924985367805,-0.025386611931025982,603735.0,-35.363262075,149.1652364,19761.5,-2.5,3.5,-153.0,AUTO,0.25,0.0,-1000.0,3.75,3.0,-25.25
18:11:23,0.0027219647308811545,0.002265127724967897,-0.23041503131389618,0.0019641993567347527,0.003694887738674879,-0.024578453041613102,605685.0,-35.3632621,149.1652365,21710.5,0.0,2.0,-153.0,AUTO,0.0,0.0,-1000.0,2.0,3.5,-24.5
18:11:24,0.0034951682901009917,0.0034013805561698973,-0.24685635790228844,0.0006139725737739354,0.0009503460169071332,-0.019658789969980717,606855.0,-35.3632621,149.16523652499998,22880.5,-0.5,2.5,-153.0,AUTO,0.0,0.0,-999.75,1.5,1.5,-19.25
18:11:25,0.00227549416013062,0.003151273471303284,-0.27053897082805634,4.894513403996825e-05,0.0006883565511088818,-0.018044840544462204,608805.0,-35.3632621,149.1652367,24831.5,-1.0,3.0,-153.0,AUTO,0.0,0.0,-1000.0,1.0,1.0,-18.0
18:11:26,-0.0019892905838787556,0.005499076680280268,-0.26351889967918396,0.018577305367216468,0.0001595367502886802,0.021645615343004465,609975.0,-35.363262125,149.16523665,25997.5,-4.0,0.0,-152.5,AUTO,0.0,0.0,-1001.75,19.25,1.5,20.75
18:11:27,0.00864999508485198,0.0018757082871161401,-0.23112843185663223,-0.006016322877258062,-0.00042762080556713045,0.024338262155652046,611920.0,-35.3632624,149.16523675000002,27943.5,-2.5,6.5,-152.0,AUTO,0.5,0.0,-999.5,-4.5,0.0,23.5
18:11:28,0.0030368235893547535,0.0016065869422163814,-0.21509450674057007,-0.005820479069370776,0.00038020845386199653,0.020919058937579393,613085.0,-35.3632624,149.165237275,29111.75,-1.0,8.0,-152.0,AUTO,0.75,-1.0,-999.75,-4.5,1.0,20.25
18:11:29,-0.0014220653101801872,0.001288435305468738,-0.1919679120182991,0.00011036015348508954,-6.80994417052716e-05,0.01886880025267601,615025.0,-35.3632624,149.16523795,31052.0,0.0,4.5,-153.0,AUTO,0.0,-0.5,-1000.0,1.0,0.0,18.5
18:11:30,-0.0008023173904803116,0.0011090188927482814,-0.17994249239563942,0.00259532846393995,-0.0006452457600971684,0.015477002365514636,616195.0,-35.3632624,149.1652381,32219.5,0.0,2.0,-153.0,AUTO,0.0,0.0,-1000.75,3.25,0.25,14.75
18:11:31,0.0008846471610013396,0.0009716908098198473,-0.16226082295179367,0.0020492132171057165,0.001437866099877283,0.013369791209697723,618145.0,-35.3632623,149.1652381,34168.0,0.0,0.0,-153.0,AUTO,0.0,0.0,-1000.0,2.5,2.0,13.0
18:11:32,0.0010493977315491065,0.001320173847489059,-0.15336517989635468,0.0007389964303001761,0.0005730027914978564,0.01210452034138143,619312.5,-35.363262250000005,149.165238025,35336.75,0.0,0.0,-153.0,AUTO,0.0,0.0,-999.75,1.75,1.0,11.75
18:11:33,0.0016530566499568522,0.0012528930674307048,-0.14031006395816803,0.0015362752019427717,0.0012218219926580787,0.009958530776202679,621255.0,-35.3632622,149.16523784999998,37280.5,0.0,0.0,-153.0,AUTO,0.0,0.0,-1000.0,2.0,2.0,9.5
18:11:34,0.002547336946008727,0.001603990123840049,-0.13356507197022438,0.0017994719091802835,0.0017492314073024318,0.008759051910601556,622425.0,-35.36326215,149.16523772500003,38447.0,0.0,0.0,-153.0,LOITER,0.0,0.0,-999.75,2.75,2.5,8.25
18:11:35,-0.047419700771570206,0.04097503004595637,0.20535831898450851,0.12750981003046036,-0.21014977246522903,0.20006750151515007,624010.0,-35.363262899999995,149.16523645,40035.5,-29.5,-30.0,-43.0,LOITER,3.5,8.5,-810.0,128.0,-209.0,199.5
18:11:36,0.026403891650261357,-0.04878772795200348,0.23451991751790047,-0.9113433584570885,-0.04693474806845188,-0.02042170986533165,623730.0,-35.363264525000005,149.16523385,39755.5,-16.0,-24.25,101.75,LOITER,0.5,-66.5,-811.0,-913.75,-45.75,-20.25
18:11:37,0.04102249816060066,-0.01835329970344901,0.1947082057595253,1.2993775010108948,0.043050533160567284,-0.019528282806277275,621585.0,-35.363264400000006,149.1652344,37610.0,16.5,39.0,198.0,LOITER,-2.5,89.0,-1010.5,1305.5,44.0,-19.0
18:11:38,-0.033523192163556814,0.003852431254927069,0.1760033816099167,-1.568807065486908,0.013429878512397408,-0.015081231482326984,620070.0,-35.363263075,149.16523740000002,36096.25,19.5,32.75,187.0,LOITER,-1.5,-53.5,-1020.75,-1566.0,14.0,-14.25
18:11:39,0.012653514393605292,0.00662052258849144,0.15386423468589783,1.1202578246593475,-0.01025450136512518,-0.015205508098006248,617870.0,-35.3632613,149.1652397,33897.0,9.5,8.5,103.0,AUTO,0.5,38.5,-1199.0,1121.0,-9.0,-14.5
18:11:40,0.00021462200675159693,0.004012248129583895,0.14193486794829369,0.07490547001361847,-0.006494714412838221,-0.015224481699988246,617360.0,-35.363260875,149.1652404,33381.75,5.75,3.75,36.75,AUTO,1.5,-15.75,-1077.25,73.5,-5.0,-14.75
18:11:41,-0.007659396156668663,-0.0007627281302120537,0.12234083190560341,0.31344492733478546,-0.004338681465014815,-0.007119684014469385,617280.0,-35.3632608,149.16524155000002,33302.0,4.0,-3.5,-28.0,AUTO,1.0,12.0,-1042.5,314.5,-3.0,-6.5
18:11:42,-0.009277348697651178,-0.001709472417132929,0.11384146101772785,-0.04277200624346733,-0.004288968746550381,-0.005542361061088741,617610.0,-35.363260875,149.165241825,33634.75,4.0,-7.5,-62.75,AUTO,0.25,-2.5,-1048.75,-42.0,-2.75,-4.75
18:11:43,-0.0017444249242544174,-0.003803820116445422,0.10138979181647301,0.039869550382718444,-0.0028676301590166986,-0.007649925304576755,618740.0,-35.3632609,149.16524164999998,34765.5,4.5,-8.5,-120.5,AUTO,0.0,2.0,-1046.0,40.5,-1.5,-6.5
18:11:44,0.0053854885045439005,-0.002649020701937843,0.09441655315458775,-0.012648496776819229,0.0027280088543193415,-0.008439782541245222,619775.0,-35.3632609,149.165241425,35799.5,4.75,-3.5,-140.0,LOITER,-0.25,0.25,-996.25,-12.0,3.5,-7.5
18:11:45,-0.0024095097614917904,-0.00016077610371212359,0.08460283651947975,0.011105245910584927,-0.002245291252620518,-0.007202086504548788,621040.0,-35.3632608,149.1652412,37066.5,3.0,-5.5,-12.0,LOITER,-1.0,0.0,-827.5,11.5,-0.5,-6.5
18:11:46,0.018457127502188087,1.5565508419967955e-05,0.07890810817480087,0.09519244823604822,0.0009018606797326356,-0.010164439911022782,620605.0,-35.363260624999995,149.16524075,36629.25,2.25,-4.75,119.5,LOITER,-0.5,-25.0,-827.0,92.5,1.5,-9.5
18:11:47,0.015486618969589472,0.002220759750343859,0.06862891465425491,1.3577789068222046,0.005345763056538999,-0.01224991725757718,618300.0,-35.3632604,149.16524045,34326.5,0.0,7.0,202.5,LOITER,-1.5,103.5,-1025.0,1364.0,5.5,-11.5
18:11:48,-0.01742179977009073,0.002067517692921683,0.06597020663321018,-1.5526677966117859,-0.004165483929682523,-0.006563641014508903,616797.5,-35.363260350000004,149.1652404,32822.5,0.0,4.5,186.5,LOITER,0.0,-56.25,-1018.75,-1552.0,-2.75,-5.75
18:11:49,0.020038911141455173,-0.00037281218101270497,0.059246692806482315,0.7574496865272522,-0.0027106725610792637,-0.003230361035093665,614690.0,-35.3632603,149.16524025,30715.5,0.0,4.5,100.0,AUTO,0.0,7.0,-1171.0,755.0,-1.5,-2.5
18:11:50,0.010168885986786336,-0.0006113770941738039,0.05504439398646355,-0.19318748451769352,-0.002666330081410706,-0.006334910285659134,614187.5,-35.363260325,149.16523995,30212.75,0.0,4.5,38.0,AUTO,0.0,-25.5,-1054.0,-194.5,-1.25,-5.25
18:11:51,0.014367022551596165,-0.0010503682133276016,0.04909316450357437,-0.07147204875946045,-0.0019156597554683685,-0.006902318214997649,614120.0,-35.36326045,149.16523925,30141.5,0.0,9.5,-26.5,AUTO,1.0,-12.5,-1046.5,-71.5,-0.5,-6.0
18:11:52,0.009970644256100059,-0.0006558715904247947,0.045605205930769444,-0.018626604229211807,-0.0008860797388479114,-0.0034472163824830204,614455.0,-35.363260525,149.16523915,30480.5,0.75,12.0,-63.0,AUTO,0.0,0.75,-1049.75,-17.25,-0.25,-2.25
18:11:53,0.007042183540761471,-0.0003937819419661537,0.0397066306322813,-0.024056190624833107,-1.931995211634785e-05,-0.0028169723227620125,615605.0,-35.3632606,149.1652394,31628.0,2.0,12.0,-121.5,AUTO,0.0,-2.0,-1046.0,-22.5,0.0,-1.5
18:11:54,0.024849336361512542,-0.002487379824742675,0.03675245959311724,0.03886315831914544,-0.006002203372190706,-0.0018339877715334296,616647.5,-35.3632606,149.1652397,32670.75,2.75,17.0,-143.75,AUTO,0.0,-0.75,-1016.0,40.25,-4.75,-1.25
18:11:55,0.045676494017243385,0.007329551270231605,0.01459329464705661,-0.10439198091626167,0.07414113730192184,-0.09178183972835541,618530.0,-35.36326005,149.1652433,34554.0,10.5,58.5,-145.0,AUTO,0.5,-11.0,-992.5,-102.0,74.5,-90.5
18:11:56,-0.05425951723009348,0.015073725138790905,-0.03488852921873331,-0.08748344040941447,-0.021597093669697642,-0.04228920582681894,619652.5,-35.363259575,149.1652471,35678.0,1.25,35.5,-145.75,AUTO,3.25,-8.75,-1006.5,-85.75,-20.25,-41.25
18:11:57,-0.03855067119002342,0.0033934868406504393,-0.061548054218292236,0.058446988463401794,0.00518047739751637,-0.008122921688482165,621570.0,-35.3632595,149.1652459,37593.5,-5.0,-43.0,-148.0,AUTO,-4.0,6.5,-1000.5,60.0,5.5,-7.0
18:11:58,0.007755889255349757,0.009494406636804342,-0.06160456035286188,0.06318448670208454,0.008507945341989398,-0.0003531871334416792,622735.0,-35.363259825,149.16524172500002,38760.75,-10.5,-46.25,-150.25,AUTO,-4.75,9.5,-1002.75,64.25,9.0,0.25
18:11:59,0.03501362632960081,-0.01868680026382208,-0.02799920830875635,-0.060639871284365654,-0.02654673019424081,0.03527177032083273,624680.0,-35.3632609,149.16523795,40705.5,-9.5,3.0,-149.5,AUTO,1.0,1.0,-996.0,-58.5,-26.0,35.5
18:12:00,-0.001955809711944312,-0.005376411252655089,-0.040206761099398136,-0.0299636023119092,0.02410667622461915,-0.03288522129878402,625837.5,-35.363260775,149.16523847500002,41862.25,3.5,8.25,-149.0,AUTO,-0.25,-2.25,-1001.25,-27.5,24.5,-31.5
18:12:01,-0.004367183544673026,0.010312119964510202,-0.08595441281795502,0.013597631826996803,0.005778253544121981,-0.02620804402977228,627785.0,-35.3632597,149.1652389,43813.5,3.0,-3.5,-151.0,AUTO,-2.0,-1.0,-1000.0,15.0,6.5,-24.5
18:12:02,0.0024683280535100494,0.012348026735708117,-0.10242077894508839,0.005324061698047444,0.0016406626091338694,-0.016590783838182688,628965.0,-35.363259325,149.16523870000003,44986.5,-2.0,-2.5,-151.0,AUTO,-0.75,0.0,-999.5,6.5,2.0,-15.25
18:12:03,0.003017050214111805,0.008765108417719603,-0.1209239736199379,-0.003940982976928353,-0.0021257915068417788,-0.01400393946096301,630915.0,-35.36325925,149.16523875000001,46939.0,-7.5,2.5,-151.0,AUTO,0.5,0.0,-999.5,-1.5,-0.5,-13.0
18:12:04,-0.058146842289716005,0.026447212789207697,-0.0789712406694889,-0.08031463623046875,0.022875172406202182,0.16736448323354125,632047.5,-35.363259525,149.16523862499997,48074.25,-12.5,-13.5,-132.0,LOITER,0.5,0.75,-927.5,-78.0,24.25,168.25
18:12:05,0.05749274976551533,-0.029381055384874344,0.0530807301402092,-0.1185530312359333,-0.024875516071915627,-0.03340343199670315,632690.0,-35.3632616,149.1652342,48715.5,-21.0,-28.5,66.0,LOITER,0.0,0.5,-813.5,-116.5,-23.0,-32.0
18:12:06,0.06071826256811619,-0.022111123893409967,0.04128857795149088,-1.403864324092865,0.024096768000163138,-0.008080583182163537,631612.5,-35.363262025,149.16523385000002,47638.0,-1.5,15.5,187.25,LOITER,3.5,-75.75,-892.75,-1403.75,25.0,-6.75
18:12:07,-0.004820211790502071,0.013282491825520992,0.03555853106081486,1.3200531005859375,0.029040834866464138,0.012096832040697336,629000.0,-35.36326095,149.16524015,45025.0,11.5,53.5,193.0,LOITER,5.5,89.0,-1063.5,1327.0,30.0,13.0
18:12:08,-0.06404141522943974,0.016086877323687077,0.03142995527014136,-1.3368882834911346,-0.0026719863526523113,0.0006202239310368896,627577.5,-35.3632602,149.16524425,43602.75,7.0,22.25,173.5,LOITER,1.25,-59.5,-1019.5,-1335.25,-1.0,1.75
18:12:09,0.0003243469400331378,0.0017243896145373583,0.02799282129853964,0.41868599504232407,-0.008750308421440423,-0.007419629720970988,625570.0,-35.3632598,149.165246,41595.5,0.0,-15.5,95.5,AUTO,-0.5,-10.5,-1128.5,416.0,-7.5,-6.0
18:12:10,-0.006671765702776611,0.0002531052705307957,0.02466420317068696,-0.5640826672315598,-0.0009468730131629854,-0.002187654929002747,625062.5,-35.3632598,149.16524555,41085.5,0.0,-15.75,37.75,AUTO,-1.75,-30.5,-1055.0,-564.0,-0.25,-0.75
18:12:11,0.005087277648271993,0.0007841521874070168,0.02028523199260235,-0.060436032712459564,-0.0009329398162662983,-0.0028965940000489354,624970.0,-35.3632598,149.16524485000002,40990.5,1.0,-7.0,-27.0,AUTO,0.5,-8.0,-1047.0,-60.5,0.5,-1.5
18:12:12,0.001315792280365713,0.0016535536269657314,0.018240593373775482,-0.05266542546451092,0.0007691590872127563,-0.0018159012688556686,625295.0,-35.3632598,149.1652448,41322.0,1.0,-2.25,-63.75,AUTO,-0.25,0.75,-1050.25,-51.0,1.5,-0.5
18:12:13,-0.0014715799188707024,0.002609035116620362,0.014353664591908455,-0.030574606731534004,-0.0003812820359598845,-0.002667179680429399,626435.0,-35.3632598,149.16524505,42457.0,1.0,0.0,-122.5,AUTO,0.0,-2.0,-1046.5,-29.0,0.0,-1.0
18:12:14,0.004860862783971243,0.0021725138467445504,0.010234111337922513,-0.025832742277998477,0.007268609420862049,-0.006760281481547281,627472.5,-35.36325975,149.1652455,43496.75,2.0,3.25,-143.5,LOITER,0.25,-1.75,-1004.25,-25.25,8.5,-5.5
18:12:15,-0.0173324435018003,0.0054820270743221045,0.008829543832689524,0.029922179877758026,-0.008847646415233612,-0.000593575881794095,628845.0,-35.3632597,149.1652461,44874.0,0.0,-10.0,-24.5,LOITER,-0.5,0.5,-826.0,31.0,-7.0,0.5
18:12:16,-0.005865142273250967,0.0018260983051732183,0.0070600457256659865,-0.8507974119856954,-0.000977155810687691,-0.0051441219402477145,628502.5,-35.3632597,149.16524555,44524.25,0.0,-11.25,108.25,LOITER,-0.5,-40.0,-811.5,-851.25,0.5,-3.5
18:12:17,0.010651964228600264,0.004086534259840846,0.003378610243089497,1.5906904339790344,0.004159857053309679,-0.0013485592789947987,626245.0,-35.3632597,149.16524505,42269.5,0.0,1.5,206.5,LOITER,0.0,98.0,-1022.0,1597.0,5.0,0.0
18:12:18,-0.01908730436116457,0.0047250776551663876,0.0016674748330842704,-1.4144547432661057,0.0006357603124342859,-0.013651538291014731,624722.5,-35.3632596,149.16524517499997,40744.75,0.0,1.0,190.0,LOITER,-1.25,-50.75,-1007.75,-1413.0,1.5,-12.0
18:12:19,0.020233715884387493,0.0013133005995769054,-0.0005248774577921722,0.8113979995250702,-0.005347023950889707,-0.0024516245466656983,622600.0,-35.3632595,149.16524505,38621.0,0.0,2.5,97.5,AUTO,-0.5,16.0,-1140.5,810.0,-3.5,-1.0
18:12:20,0.007518643338698894,0.0019821931491605937,-0.0015984542842488736,-0.4775876849889755,0.0011621512530837208,-0.002268934709718451,622100.0,-35.3632595,149.165244525,38124.5,0.0,4.25,39.75,AUTO,-0.5,-28.5,-1063.5,-477.5,2.25,-0.5
18:12:21,0.007248661946505308,0.002828334574587643,-0.0038916440680623055,0.048591285943984985,0.001045058510499075,-0.0020818189077544957,622005.0,-35.3632596,149.16524445,38030.5,0.0,7.5,-24.5,AUTO,0.5,-11.0,-1044.5,48.5,1.5,-0.5
18:12:22,-0.0007079060160322115,0.0028277544188313186,-0.0054789603454992175,-0.02531139412894845,-0.0009269433794543147,-0.001206546279718168,622345.0,-35.363259625,149.1652449,38369.5,0.25,6.5,-61.0,AUTO,0.5,-1.25,-1049.0,-23.75,0.25,0.25
18:12:24,0.0032509044103790075,0.002122975798556581,-0.008236009045504034,0.008387337438762188,-0.0022160134103614837,-6.80726661812514e-05,623817.5,-35.3632597,149.1652454,39842.25,1.0,2.0,-129.0,AUTO,0.0,-0.75,-1037.5,9.5,-1.0,0.75
18:12:25,0.030530321411788464,-0.0012142512277932838,-0.008741511963307858,0.045854222029447556,-0.006894309539347887,0.0018226599204353988,624895.0,-35.3632597,149.1652456,40920.0,2.5,10.5,-145.5,AUTO,0.0,-0.5,-1005.0,47.0,-5.0,2.5
18:12:26,0.011535472935065627,0.0140559165738523,-0.042814606335014105,-0.12061158567667007,0.02316946384962648,-0.06640006601810455,626782.5,-35.363258925000004,149.1652498,42805.5,7.75,50.75,-143.5,AUTO,3.0,-11.25,-999.25,-118.5,24.25,-64.25
18:12:27,-0.06862378120422363,0.008746779058128595,-0.08083968982100487,-0.01553162356140092,-0.018544807098805904,-0.029583757743239403,627910.0,-35.363258450000004,149.165253,43935.0,0.5,17.5,-147.0,AUTO,2.5,-6.0,-1008.0,-14.0,-16.5,-27.5
18:12:28,-0.02144139591837302,0.007071939064189792,-0.10057082585990429,0.06084570940583944,0.007830654853023589,-0.005860478297108784,629837.5,-35.363258525000006,149.1652499,45859.75,-7.75,-42.25,-148.5,AUTO,-4.5,8.25,-1001.5,61.75,8.5,-4.25
18:12:29,0.01953410543501377,0.009140138747170568,-0.09644035249948502,0.0167793994769454,-0.026494397781789303,0.030004939646460116,631005.0,-35.363259,149.165246,47026.5,-13.5,-37.5,-150.0,LOITER,-4.0,9.0,-999.0,18.0,-25.0,31.0
18:12:30,-0.014950408600270748,0.0019367812346899882,-0.005980741698294878,0.1406613748986274,-0.009832588490098715,0.06870118295773864,632645.0,-35.363259924999994,149.165239475,48671.25,-11.0,-56.25,-64.0,LOITER,-4.0,11.0,-830.0,142.0,-8.5,70.25
18:12:31,0.08582398295402527,-0.012734814081341028,0.004053622600622475,-0.44221262633800507,0.0020749764516949654,-0.015765145886689425,632710.0,-35.36326045,149.16523504999998,48732.0,-7.5,-28.5,73.5,LOITER,-3.0,-29.5,-791.5,-442.5,3.0,-14.0
18:12:32,0.0658979588188231,0.01062322809593752,0.0012489529617596418,1.5979053676128387,0.018971293466165662,0.014927786076441407,630592.5,-35.363260125000004,149.16523660000001,46615.5,4.0,50.25,206.5,LOITER,6.0,58.25,-1004.0,1600.5,19.75,16.25
18:12:33,-0.028740568552166224,0.02000400237739086,0.0008801414369372651,-0.718124657869339,0.010382909793406725,0.01576551841571927,629035.0,-35.3632596,149.16524099999998,45059.5,3.0,54.5,195.0,LOITER,7.5,19.5,-1017.5,-710.0,11.0,17.0
18:12:34,-0.025484886951744556,0.01520691392943263,-0.0021942333842162043,0.6408033296465874,-0.01646796870045364,-0.010694836208131164,626720.0,-35.3632592,149.1652472,42743.0,-3.5,7.25,168.25,AUTO,5.5,-25.75,-1015.75,637.75,-14.75,-9.5
18:12:35,-0.011690098326653242,0.005618520779535174,-0.002195358625613153,1.1570259928703308,-0.011689928767737001,-0.0011808255221694708,625600.0,-35.36325935,149.16524875,41624.0,-4.5,-16.0,95.5,AUTO,3.5,34.0,-1141.5,1157.0,-10.0,0.5
18:12:36,-0.030356539878994226,0.0034673682530410588,-0.004568640957586467,-0.27350011467933655,-0.0034092555288225412,-0.0008300427871290594,624980.0,-35.3632597,149.165250025,41007.0,-2.0,-26.25,9.25,AUTO,1.25,-9.5,-1048.25,-272.25,-1.25,0.75
18:12:37,-0.015997770708054304,0.0016373886610381305,-0.006169320084154606,0.03819262981414795,-0.0026087027799803764,-0.001459494058508426,625045.0,-35.363259850000006,149.1652502,41066.5,-0.5,-30.5,-28.0,AUTO,-1.0,-3.5,-1048.5,38.0,-1.5,0.0
18:12:38,-0.0007455674931406975,-0.00015002476629888406,-0.007514561293646693,0.01748459693044424,-0.000690260058036074,0.00045905844308435917,625775.0,-35.363260049999994,149.16524905,41799.25,0.75,-23.5,-86.5,AUTO,-1.5,2.25,-1047.0,18.0,0.5,1.75
18:12:39,0.0037117977626621723,0.000840297929244116,-0.00837683817371726,-0.02573157614096999,0.001868239778559655,0.0002929956535808742,626555.0,-35.3632601,149.1652483,42579.0,2.0,-16.0,-121.0,AUTO,-1.5,1.5,-1046.5,-24.5,3.0,1.5
18:12:40,0.0513848839327693,-0.0005335919195204042,-0.008739892859011889,0.04639417305588722,-0.0049578932812437415,0.002087936532916501,628350.0,-35.363259875,149.165248175,44377.0,4.75,15.5,-146.75,AUTO,-0.5,-1.75,-1002.5,46.5,-3.25,3.5
18:12:41,0.0497433478012681,0.010705063352361321,-0.025799795985221863,-0.12809222750365734,0.05110736284404993,-0.07423010468482971,629485.0,-35.363259400000004,149.1652507,45513.0,9.0,53.5,-143.5,AUTO,2.5,-9.0,-989.5,-127.0,52.0,-72.0
18:12:42,-0.10343888215720654,0.007579310680739582,-0.0829312913119793,-0.05981163773685694,-0.0021969430381432176,-0.02630912815220654,631362.5,-35.363258625,149.16525415,47388.0,-1.0,-17.0,-144.5,AUTO,-1.5,1.5,-999.25,-59.0,-1.25,-24.25
18:12:43,-0.0922943577170372,0.02424165140837431,-0.0491217952221632,0.21869804710149765,0.00940604880452156,0.15794625133275986,632455.0,-35.36325885,149.16524925,48478.5,-14.5,-96.5,-127.0,AUTO,-9.0,19.5,-952.5,219.0,10.5,159.0
18:12:44,0.11422194167971611,-0.018252507550641894,-0.012967531336471438,0.006158402655273676,0.006847597425803542,-0.012398199294693768,633665.0,-35.363260625,149.165237275,49689.5,-10.25,-23.5,-60.25,AUTO,-3.5,8.25,-955.25,7.0,7.75,-9.75
18:12:45,0.0746411606669426,-0.002828964643413201,-0.01608182303607464,-0.06937179318629205,0.028443398885428905,0.001753414107952267,634030.0,-35.3632607,149.1652368,50057.5,3.5,41.5,-29.5,AUTO,1.5,-4.0,-972.5,-68.5,29.0,3.0
18:12:46,0.002996775438077748,0.021919652819633484,-0.015737560112029314,0.26542071253061295,0.020426059141755104,-0.004143214668147266,634217.5,-35.3632596,149.165242975,50241.75,5.25,55.0,5.25,AUTO,4.0,3.5,-972.5,266.25,21.75,-2.5
18:12:47,-0.014993316028267145,0.04074855335056782,-0.015256010461598635,-0.5010959357023239,0.02461918070912361,0.0002574959071353078,634115.0,-35.36325925,149.16524605,50139.5,-7.0,32.5,19.5,AUTO,3.0,-41.0,-1008.5,-502.0,25.5,1.5
18:12:48,0.05420681927353144,0.07508978247642517,0.07204586965963244,0.23840493150055408,0.031066101510077715,0.34785874420776963,633977.5,-35.3632625,149.16524967499998,49998.5,-60.25,48.0,4.25,AUTO,18.5,0.75,-1012.5,238.25,32.25,349.0
18:12:49,0.09859543666243553,0.06050599180161953,0.5713074952363968,-0.19421596452593803,0.0225662961602211,0.8397486805915833,633950.0,-35.3632677,149.16525405,49974.5,-106.0,80.5,1.0,AUTO,25.5,-10.0,-998.5,-191.5,23.5,841.5
18:12:50,0.17122818157076836,-0.05935697560198605,1.4782624542713165,0.017670217901468277,-0.006020312721375376,0.7029426246881485,633930.0,-35.36328535,149.16526875,49954.0,-216.0,154.5,1.25,AUTO,6.25,-57.25,-1003.25,19.0,-4.5,704.0
18:12:51,0.13127532973885536,-0.14029250293970108,2.0063987374305725,-0.2411174401640892,-0.004266677424311638,0.7148482203483582,633910.0,-35.36330205,149.16528235,49937.0,-293.0,204.5,1.0,AUTO,-31.0,-88.0,-1007.5,-240.0,-2.5,716.0
18:12:52,0.045945050194859505,-0.19754542782902718,2.617230534553528,-0.014157220954075456,0.018439938547089696,0.054252287838608027,633902.5,-35.3633405,149.1653139,49925.5,-401.0,273.25,0.0,AUTO,-97.75,-56.0,-1000.5,-12.75,19.5,56.0
18:12:53,0.06412879750132561,-0.1740964725613594,2.5773658752441406,0.031198199838399887,0.04968515411019325,-0.04150554724037647,633915.0,-35.3633686,149.16533705,49938.5,-450.0,303.0,-3.0,LOITER,-108.0,-64.5,-1004.0,33.0,51.0,-39.5
18:12:54,0.11939668096601963,0.28392068669199944,2.610957086086273,1.1392532624304295,0.33775819465518,-0.014211990841431543,633937.5,-35.36341735,149.16537675,49963.0,-351.75,221.75,34.5,LOITER,-77.25,-20.25,-896.5,1138.25,339.25,-12.0
18:12:55,0.05227120220661163,0.30208566784858704,2.618253707885742,1.069379299879074,-0.16374295949935913,-0.07016661576926708,633275.0,-35.36343515,149.16539004999998,49301.0,-149.5,70.5,144.5,LOITER,-24.5,74.5,-970.0,1075.5,-161.5,-68.0
18:12:56,-0.02186269621597603,0.04114263493102044,2.6163529753684998,-1.1793823316693306,-0.11321873497217894,0.004999630036763847,630960.0,-35.363441175,149.1653916,46984.0,3.25,-12.25,206.5,LOITER,4.75,-88.0,-974.25,-1182.25,-110.75,6.5
18:12:57,0.01709352247416973,-0.002923959749750793,2.6160953044891357,1.7983457446098328,-0.021657669916749,-0.005311188520863652,629355.0,-35.36344095,149.16539035,45377.5,12.0,-8.0,208.0,LOITER,3.0,50.5,-1011.0,1797.0,-19.5,-3.0
18:12:58,-0.042893155943602324,0.004845552888582461,2.6154342889785767,-1.3964599519968033,0.02022157097235322,0.004545203410089016,626825.0,-35.36344115,149.165389525,42847.25,13.25,11.75,184.25,AUTO,-0.5,-60.25,-1040.5,-1395.5,21.5,6.25
18:12:59,-0.003812439063040074,0.0006364681757986546,2.615517020225525,-0.0014533549547195435,-0.04219704493880272,0.011095056077465415,625535.0,-35.3634415,149.16538965,41560.0,18.0,20.5,134.5,AUTO,-0.5,-48.0,-1088.0,-6.0,-40.0,13.0
18:13:00,-0.029210646636784077,-0.035409229807555676,2.6144466400146484,-0.13113203644752502,-0.0266690026037395,-0.03674019931349903,624675.0,-35.36344402499999,149.16539095000002,40701.25,-9.25,41.75,18.5,AUTO,-7.5,-7.75,-1057.5,-129.5,-24.25,-34.75
18:13:01,-0.01870073564350605,-0.061168475076556206,2.575588345527649,0.017893165349960327,-0.04403975047171116,-0.05239578615874052,624655.0,-35.3634476,149.1653933,40677.0,-35.5,65.5,-12.0,AUTO,-15.5,-22.5,-1029.5,16.5,-41.5,-50.5
18:13:02,0.0007233544311020523,-0.11606502532958984,2.5700384378433228,0.07618052698671818,-0.03927335515618324,-0.007967310724779963,625075.0,-35.363458824999995,149.16540325,41102.0,-111.0,119.25,-49.75,AUTO,-35.0,-16.25,-1031.5,75.75,-36.5,-6.5
18:13:03,0.021414107643067837,-0.13163495808839798,2.566714286804199,-0.00687941606156528,0.010639519896358252,-0.0070562101900577545,625545.0,-35.36346965,149.16541360000002,41571.0,-172.5,155.0,-73.5,AUTO,-49.5,-29.5,-1037.0,-7.5,13.0,-5.5
18:13:04,0.04709330573678017,-0.09751923754811287,2.5615434050559998,0.011900366225745529,0.029326063115149736,-0.012457381701096892,626755.0,-35.3634954,149.165437575,42778.0,-249.0,182.5,-108.25,AUTO,-64.0,-31.0,-1016.5,11.0,31.5,-10.5
18:13:05,0.05156240426003933,-0.07278815284371376,2.5465444326400757,0.0069773748982697725,0.025324185378849506,-0.03779950365424156,627635.0,-35.363513499999996,149.16545365000002,43659.0,-272.5,186.0,-119.0,AUTO,-69.5,-46.0,-1008.5,6.5,27.5,-36.0
18:13:06,0.056643554009497166,-0.0708211101591587,2.4875208139419556,-0.0029921800596639514,-0.0053413137211464345,-0.05447129253298044,629210.0,-35.363545275,149.1654807,45233.25,-289.0,184.0,-121.25,AUTO,-67.0,-46.5,-997.0,-3.25,-2.5,-53.0
18:13:07,0.060337310656905174,-0.07913817837834358,2.439679741859436,-0.00461990968324244,-0.006624600384384394,-0.06881263665854931,630155.0,-35.36356495,149.16549705,46179.5,-299.0,186.5,-119.0,AUTO,-62.5,-44.5,-992.0,-4.5,-3.5,-67.5
18:13:08,0.0873550083488226,-0.057285375893116,2.436444103717804,0.04714344767853618,0.057980329496786,0.17514750151894987,631710.0,-35.36359885,149.165524925,47732.25,-312.5,186.25,-116.75,AUTO,-62.25,-54.25,-986.5,46.5,60.25,176.0
18:13:09,0.08460494503378868,0.01593067473731935,2.5941752195358276,-0.09035536274313927,0.18246950209140778,0.06309760268777609,632590.0,-35.3636195,149.1655405,48617.0,-307.0,152.0,-106.5,AUTO,-65.5,-45.0,-980.5,-90.0,185.0,64.0
18:13:10,0.015278859762474895,0.11318078078329563,2.584554970264435,-0.04550218069925904,0.08610387169755995,-0.00649729062570259,633660.0,-35.363646075000005,149.16555785,49684.0,-170.5,80.75,-53.5,LOITER,-35.0,-30.25,-958.0,-45.25,88.5,-5.25
18:13:11,0.014320651069283485,0.19055023044347763,2.582747459411621,0.37370163202285767,-0.028762303292751312,0.02013970259577036,633925.0,-35.3636542,149.1655635,49950.5,-64.5,30.0,8.0,LOITER,-7.5,-13.5,-853.5,372.0,-26.0,21.5
18:13:12,0.014854518551146612,-0.00012289639562368393,2.5835867524147034,1.4386242777109146,-0.06882685981690884,-0.003318768460303545,632645.0,-35.36365505,149.16556425000002,48668.75,3.5,-13.5,163.0,LOITER,0.25,88.0,-951.5,1441.5,-65.5,-2.25
18:13:13,-0.010814203415066004,-0.02781511005014181,2.582635998725891,-1.0284303426742554,0.0008654065895825624,-0.01899746246635914,631275.0,-35.36365405,149.1655643,47300.0,-4.0,-10.0,187.5,LOITER,-5.0,12.5,-991.5,-1023.0,3.5,-17.5
18:13:14,0.06401666812598705,-0.010956278769299388,2.5782524943351746,1.0418105125427246,0.020557060604915023,-0.00476360296306666,628950.0,-35.3636535,149.1655669,44975.25,-25.75,-10.5,173.5,LOITER,-6.0,7.75,-1012.0,1039.5,22.5,-3.5
18:13:15,0.03275471646338701,0.005491520627401769,2.577773690223694,0.6898016538470984,0.017890370450913906,0.02183454588521272,627625.0,-35.363654350000004,149.16556839999998,43648.5,-33.0,-20.5,168.0,AUTO,-4.0,77.0,-1001.5,697.0,20.0,22.5
18:13:16,-0.004184122042109569,0.020497598374883335,2.575225909550985,-0.5090723782777786,-0.0003922573911647002,0.0006271119927987456,625710.0,-35.363656666666664,149.1655688,41732.333333333336,-23.0,-31.0,103.0,AUTO,0.3333333333333333,2.6666666666666665,-1109.6666666666667,-503.3333333333333,3.0,2.0
18:13:17,0.009202083960796395,0.015550801840921244,2.576485554377238,0.5554500023523966,-0.0033177612349390984,0.007888406980782747,625246.6666666666,-35.3636576,149.1655683,41273.666666666664,-10.333333333333334,-27.0,17.666666666666668,AUTO,0.6666666666666666,20.333333333333332,-1086.3333333333333,557.3333333333334,-0.6666666666666666,9.333333333333334
18:13:18,-0.00237683167506475,0.009077427326701581,2.5751494765281677,-0.0547384456731379,-0.002667828870471567,0.0008394055184908211,625560.0,-35.363658275,149.16556755,41584.75,0.5,-18.0,-60.25,AUTO,1.5,-3.5,-1044.5,-52.25,0.5,2.25
18:13:19,-0.0028835746343247592,0.006142087047919631,2.5743316411972046,-0.02988026663661003,-0.004462084034457803,6.636342732235789e-05,626115.0,-35.3636585,149.16556724999998,42142.5,3.0,-12.5,-90.0,AUTO,0.5,0.0,-1037.5,-28.0,-1.0,1.0
18:13:20,-0.0022178931588617465,0.0033666429420312247,2.5727086861928306,0.011724684077004591,-0.0009954820076624553,-0.0016408377171804507,627530.0,-35.363658433333335,149.165567,43552.666666666664,5.0,-6.0,-134.33333333333334,AUTO,0.0,-0.6666666666666666,-1031.3333333333333,13.0,1.6666666666666667,0.0
18:13:21,0.023406881218155224,-0.002648750135752683,2.5711797873179116,0.04626249521970749,-0.0107340511555473,0.0008508116394902269,628630.0,-35.363658433333335,149.16556676666667,44652.0,-0.6666666666666666,-9.333333333333334,-147.0,AUTO,0.3333333333333333,-0.6666666666666666,-1005.0,47.666666666666664,-7.0,2.0
18:13:22,0.002863422967493534,0.011790037276057319,2.529776394367218,-0.11612464813515544,0.014344395138323307,-0.060441684909164906,630555.0,-35.36366065,149.165563875,46580.25,-25.75,-34.75,-145.0,AUTO,4.0,-9.0,-999.0,-113.75,17.5,-58.25
18:13:23,-0.0889488086104393,0.004184632329270244,2.493746042251587,-0.08263759687542915,-0.0171644389629364,-0.03125519212335348,631685.0,-35.36366205,149.1655618,47709.5,-2.0,-8.5,-146.0,AUTO,2.5,-5.0,-1003.0,-80.0,-13.5,-29.0
18:13:24,-0.0414146741386503,0.00019522273214533925,2.556428551673889,0.22191129997372627,-0.04243095405399799,0.11383774306159467,633440.0,-35.36365765,149.165567525,49464.75,71.5,74.75,-108.5,AUTO,-8.25,22.5,-938.5,223.5,-39.0,115.0
18:13:25,0.09875824302434921,-0.04397878050804138,2.5799776315689087,0.05421332106925547,-0.009045691695064306,-0.014008721802383661,634125.0,-35.3636528,149.16557305,50146.0,45.5,45.0,-57.0,AUTO,-6.0,15.5,-933.0,56.0,-6.0,-12.0
18:13:26,0.06628163283069928,-0.007269991949821512,2.575451930363973,0.3436134109894435,0.03791253020366033,-7.688448143502076e-05,634386.6666666666,-35.3636521,149.16557450000002,50409.666666666664,-32.0,-23.333333333333332,12.666666666666666,AUTO,1.3333333333333333,-1.0,-952.6666666666666,344.3333333333333,40.666666666666664,1.3333333333333333
18:13:27,0.008922441862523556,0.012344054877758026,2.575331687927246,-0.6932056744893392,0.01516229628274838,-0.00043402255202333134,634223.3333333334,-35.36365446666667,149.16557256666667,50248.666666666664,-39.333333333333336,-35.333333333333336,25.333333333333332,LOITER,1.6666666666666667,-45.666666666666664,-1000.3333333333334,-692.3333333333334,18.0,1.3333333333333333
18:13:28,-0.0035942114579180875,0.013771707812945047,2.5746570428212485,1.4837270577748616,-0.024646850302815437,-0.002673157180349032,633816.6666666666,-35.363657333333336,149.1655696,49841.666666666664,-13.666666666666666,-22.333333333333332,75.33333333333333,LOITER,0.6666666666666666,63.333333333333336,-861.3333333333334,1487.0,-20.666666666666668,-0.6666666666666666
18:13:29,-0.00965889636427164,0.003458844575410088,2.5733510653177896,-0.6108662088712057,-0.0020570874524613223,-0.0002198726094017426,632866.6666666666,-35.36365766666666,149.16556896666665,48891.0,-7.333333333333333,-17.333333333333332,162.66666666666666,LOITER,-0.3333333333333333,15.333333333333334,-939.0,-603.6666666666666,1.3333333333333333,2.0
18:13:30,0.02494529200096925,0.0017687380701924364,2.5723764896392822,0.2624700032174587,-0.0004180067917332053,-0.007639770706494649,630576.6666666666,-35.3636581,149.16556826666667,46602.333333333336,-6.333333333333333,-14.333333333333334,180.66666666666666,LOITER,0.0,-46.333333333333336,-985.3333333333334,258.6666666666667,2.6666666666666665,-5.0
18:13:31,0.021569145532945793,0.003521550369138519,2.572828928629557,1.6153750816980998,0.004206815734505653,-0.0032066861167550087,629200.0,-35.36365826666667,149.16556836666666,45226.666666666664,-6.333333333333333,-14.666666666666666,173.0,LOITER,-1.6666666666666667,86.66666666666667,-1026.0,1620.6666666666667,7.666666666666667,-1.3333333333333333
18:13:32,-0.005517965493102868,0.008217903630187115,2.5704933802286782,-1.6870426734288533,0.001851454998056094,-0.0031875201190511384,626990.0,-35.36365850000001,149.1655688,43012.666666666664,-2.6666666666666665,-12.666666666666666,168.33333333333334,AUTO,-0.3333333333333333,-89.33333333333333,-1006.0,-1687.0,5.0,-1.0
18:13:33,0.023193882778286934,0.0076595825764040155,2.570343255996704,0.5211462279160818,0.0006792704419543346,0.001028137281537056,625750.0,-35.3636586,149.16556903333333,41772.666666666664,-0.3333333333333333,-13.666666666666666,134.0,AUTO,0.0,-19.666666666666668,-1098.0,518.6666666666666,3.6666666666666665,3.3333333333333335
18:13:34,0.005757426998267571,0.008355553261935711,2.56973926226298,-0.2854304611682892,0.004874702154969175,-0.0014564883507167299,624950.0,-35.3636587,149.16556946666668,40973.666666666664,0.0,-15.666666666666666,-2.3333333333333335,AUTO,0.0,-7.0,-1075.6666666666667,-281.6666666666667,8.0,0.3333333333333333
18:13:35,0.007207457223557867,0.00877857239296039,2.5689926942189536,0.024541251361370087,-0.000848384186004599,-0.0015871106491734583,625130.0,-35.3636587,149.16556946666665,41154.0,0.3333333333333333,-16.333333333333332,-46.0,AUTO,0.6666666666666666,-4.666666666666667,-1048.0,26.666666666666668,2.3333333333333335,0.3333333333333333
18:13:36,-0.004437772557139397,0.007834188950558504,2.56767471631368,-0.014441745976607004,0.0010749960783869028,-0.00012858219755192599,626040.0,-35.363659,149.1655688,42063.0,3.3333333333333335,-12.666666666666666,-95.66666666666667,AUTO,1.3333333333333333,-2.0,-1036.3333333333333,-11.333333333333334,4.333333333333333,1.3333333333333333
18:13:37,-0.006626913168778022,0.005335239538302024,2.567067543665568,-0.011445829644799232,-0.0037314967873195806,0.0010436581602940957,626876.6666666666,-35.36365906666666,149.1655683333333,42900.333333333336,6.0,-8.333333333333334,-122.33333333333333,AUTO,1.3333333333333333,-1.6666666666666667,-1036.3333333333333,-8.0,0.0,2.6666666666666665
18:13:38,0.028636178622643154,-0.00711786188185215,2.5641634464263916,0.04442313313484192,-0.014634009761114916,0.0016330776270478964,628666.6666666666,-35.363659000000006,149.16556736666666,44691.333333333336,-3.0,-12.333333333333334,-146.66666666666666,AUTO,1.3333333333333333,-1.0,-1002.3333333333334,47.0,-10.333333333333334,3.3333333333333335
18:13:39,0.03819001962741216,-0.0007161013782024384,2.545539140701294,-0.06201791949570179,0.04902274999767542,-0.07212755084037781,629810.0,-35.363660133333326,149.16556566666668,45834.0,-26.333333333333332,-29.666666666666668,-145.66666666666666,AUTO,2.0,-7.0,-994.0,-58.666666666666664,52.333333333333336,-69.0
18:13:40,-0.09036751588185628,0.00046902741693581146,2.473142703374227,-0.049974857519070305,-0.018959705096979935,-0.02511305424074332,631690.0,-35.3636622,149.16556213333334,47717.0,8.0,2.6666666666666665,-146.66666666666666,AUTO,2.3333333333333335,-0.6666666666666666,-1001.3333333333334,-46.333333333333336,-14.666666666666666,-22.0
18:13:41,-0.11723628391822179,0.003692562381426493,2.4856768449147544,0.045105051870147385,0.017085586519291002,0.11713122172902028,632813.3333333334,-35.36366026666666,149.16556426666668,48836.666666666664,52.666666666666664,58.333333333333336,-135.33333333333334,AUTO,-5.333333333333333,13.0,-966.3333333333334,48.333333333333336,21.0,119.66666666666667
18:13:42,0.09312430272499721,-0.04673854261636734,2.578320105870565,0.06381713451507191,-0.01242076155419151,-0.012647473563750585,634116.6666666666,-35.36365233333333,149.1655729,50140.0,42.666666666666664,43.666666666666664,-56.666666666666664,AUTO,-4.666666666666667,15.333333333333334,-933.3333333333334,66.33333333333333,-9.0,-9.666666666666666
18:13:43,0.08313108732302983,-0.027405433356761932,2.572868506113688,-0.06407582635680835,0.04016777624686559,-0.001219790040825804,634386.6666666666,-35.36365106666667,149.16557450000002,50410.0,-14.0,-2.3333333333333335,-10.0,AUTO,-1.0,-1.3333333333333333,-950.3333333333334,-60.666666666666664,43.666666666666664,1.3333333333333333
18:13:44,-0.0017035381558040779,0.01211528666317463,2.5742034117380777,-0.38743841151396435,0.016702281932036083,0.003206317274210354,634230.0,-35.36365466666666,149.16557179999998,50250.666666666664,-40.0,-31.0,28.333333333333332,AUTO,2.3333333333333335,-7.0,-999.0,-382.3333333333333,20.0,5.333333333333333
18:13:45,-0.008044833317399025,0.015541251748800278,2.5732746918996177,0.5276621853311857,-0.0017711888067424297,0.0007113210158422589,634056.6666666666,-35.36365696666667,149.16556943333333,50079.666666666664,-26.666666666666668,-24.666666666666668,14.333333333333334,LOITER,4.333333333333333,11.333333333333334,-1026.3333333333333,530.6666666666666,2.0,2.6666666666666665
18:13:46,-0.04621001581350962,0.005218741561596592,2.5722011725107827,-0.4867305140942335,-0.010902849491685629,-0.009769640862941742,633796.6666666666,-35.363658799999996,149.1655667,49819.666666666664,-2.3333333333333335,-5.0,63.0,LOITER,0.0,14.666666666666666,-853.0,-479.6666666666667,-7.0,-7.333333333333333
18:13:47,-0.028145041627188522,-0.0002354855532757938,2.5713229974110923,-1.7280187209447224,-0.0025484655052423477,-0.007592770891884963,632900.0,-35.36365906666666,149.16556606666668,48924.333333333336,1.6666666666666667,2.0,159.33333333333334,LOITER,1.0,-83.33333333333333,-918.3333333333334,-1726.0,0.6666666666666666,-5.0
18:13:48,0.012896912366462251,0.001789263726095669,2.5701932112375894,1.8204566637674968,0.010208856624861559,0.012891887997587522,630610.0,-35.3636594,149.16556549999999,46637.0,1.0,3.0,179.0,LOITER,-0.3333333333333333,68.0,-1034.0,1823.3333333333333,13.666666666666666,15.333333333333334
18:13:49,-0.03057851456105709,0.004405842628329992,2.570134162902832,-0.2654882570107778,0.0011833629881342251,0.01472899162520965,629233.3333333334,-35.36365983333334,149.16556526666668,45256.0,3.0,5.0,174.33333333333334,LOITER,-0.3333333333333333,37.666666666666664,-1001.3333333333334,-256.6666666666667,5.0,17.0
18:13:50,0.008830180391669273,0.008230977226048708,2.568759560585022,0.8925284445285797,-0.0045985509641468525,-0.0171373775228858,627230.0,-35.36366045,149.16556494999998,43254.0,9.5,10.0,171.0,LOITER,2.0,-24.0,-982.0,889.5,-0.5,-14.0
