time_stamp,MODE,lat,lon,relative_alt,roll,pitch,yaw,rollspeed,pitchspeed,yawspeed,xacc,yacc,zacc,xgyro,ygyro,zgyro,vx,vy,vz,RTL_ALT
07:45:40.583,STABILIZE,-35.3632621,149.1652374,0,0.0006919216830283403,0.0015891892835497856,0.027099216356873512,0.00018375387298874557,0.00027118553407490253,0.00239748228341341,0,1,-1000,0,0,0,-1,1,1,1500.0
07:45:40.784,STABILIZE,-35.3632621,149.1652374,0,0.0006919216830283403,0.0015891892835497856,0.027099216356873512,0.00018375387298874557,0.00027118553407490253,0.00239748228341341,0,1,-1000,0,0,0,-1,1,1,1500.0
07:45:40.985,STABILIZE,-35.3632621,149.1652374,0,0.0006919216830283403,0.0015891892835497856,0.027099216356873512,0.00018375387298874557,0.00027118553407490253,0.00239748228341341,0,1,-1000,0,0,0,-1,1,1,1500.0
07:45:41.187,STABILIZE,-35.3632621,149.1652374,0,0.0006919216830283403,0.0015891892835497856,0.027099216356873512,0.00018375387298874557,0.00027118553407490253,0.00239748228341341,0,1,-1000,0,0,0,-1,1,1,1500.0
07:45:41.388,STABILIZE,-35.3632622,149.1652375,0,0.0006919216830283403,0.0015891892835497856,0.027099216356873512,0.00018375387298874557,0.00027118553407490253,0.00239748228341341,0,1,-1000,0,0,0,-1,1,1,1500.0
07:45:41.589,STABILIZE,-35.3632622,149.1652375,0,-0.00037519558100029826,0.0011480641551315784,0.0251255352050066,0.0002764885139185935,0.0001793275587260723,0.0020964713767170906,0,1,-1000,0,0,0,-1,1,1,1500.0
07:45:41.790,STABILIZE,-35.3632622,149.1652375,0,-0.00044492920278571546,0.0011083801509812474,0.025013865903019905,0.00013819488231092691,0.0001172211195807904,0.002051618183031678,0,1,-1000,0,0,0,-1,1,1,1500.0
07:45:41.992,STABILIZE,-35.3632622,149.1652375,0,-0.0005111366626806557,0.0010819927556440234,0.024904966354370117,0.00017808220582082868,0.0002559505228418857,0.0022243873681873083,0,1,-1000,0,0,0,-1,1,0,1500.0
07:45:42.193,STABILIZE,-35.3632622,149.1652375,0,-0.0005111366626806557,0.0010819927556440234,0.024904966354370117,0.00017808220582082868,0.0002559505228418857,0.0022243873681873083,0,1,-1000,0,0,0,-1,1,0,1500.0
07:45:42.395,STABILIZE,-35.3632622,149.1652375,0,-0.0005698056193068624,0.0010548634454607964,0.024805067107081413,0.0003206819237675518,0.0002598743885755539,0.001914317486807704,0,1,-1000,0,0,0,-1,1,0,1500.0
07:45:42.596,STABILIZE,-35.3632622,149.1652375,0,-0.0005698056193068624,0.0010548634454607964,0.024805067107081413,0.0003206819237675518,0.0002598743885755539,0.001914317486807704,0,1,-1000,0,0,0,-1,1,0,1500.0
07:45:42.798,STABILIZE,-35.3632622,149.1652375,0,-0.0005698056193068624,0.0010548634454607964,0.024805067107081413,0.0003206819237675518,0.0002598743885755539,0.001914317486807704,0,1,-1000,0,0,0,-1,1,0,1500.0
07:45:42.999,STABILIZE,-35.3632622,149.1652375,0,-0.0005698056193068624,0.0010548634454607964,0.024805067107081413,0.0003206819237675518,0.0002598743885755539,0.001914317486807704,0,1,-1000,0,0,0,-1,1,0,1500.0
07:45:43.201,STABILIZE,-35.3632622,149.1652375,0,-0.0005698056193068624,0.0010548634454607964,0.024805067107081413,0.0003206819237675518,0.0002598743885755539,0.001914317486807704,0,1,-1000,0,0,0,-1,1,0,1500.0
07:45:43.402,STABILIZE,-35.3632621,149.1652375,0,-0.0006628926494158804,0.0009832462528720498,0.02444906160235405,9.934802073985338e-05,0.00022312934743240476,0.0019053751602768898,0,1,-1000,0,0,0,-1,0,-1,1500.0
07:45:43.603,STABILIZE,-35.3632621,149.1652375,0,-0.0006628926494158804,0.0009832462528720498,0.02444906160235405,9.934802073985338e-05,0.00022312934743240476,0.0019053751602768898,0,1,-1000,0,0,0,-1,0,-1,1500.0
07:45:43.805,STABILIZE,-35.3632621,149.1652375,0,-0.0006628926494158804,0.0009832462528720498,0.02444906160235405,9.934802073985338e-05,0.00022312934743240476,0.0019053751602768898,0,1,-1000,0,0,0,-1,0,-1,1500.0
07:45:44.006,STABILIZE,-35.3632621,149.1652375,0,-0.0006628926494158804,0.0009832462528720498,0.02444906160235405,9.934802073985338e-05,0.00022312934743240476,0.0019053751602768898,0,1,-1000,0,0,0,-1,0,-1,1500.0
07:45:44.207,STABILIZE,-35.3632621,149.1652375,0,-0.0006628926494158804,0.0009832462528720498,0.02444906160235405,9.934802073985338e-05,0.00022312934743240476,0.0019053751602768898,0,1,-1000,0,0,0,-1,0,-1,1500.0
07:45:44.408,STABILIZE,-35.3632621,149.1652375,0,-0.0006628926494158804,0.0009832462528720498,0.02444906160235405,9.934802073985338e-05,0.00022312934743240476,0.0019053751602768898,0,1,-1000,0,0,0,-1,0,-1,1500.0
07:45:44.609,STABILIZE,-35.3632621,149.1652375,0,-0.0006628926494158804,0.0009832462528720498,0.02444906160235405,9.934802073985338e-05,0.00022312934743240476,0.0019053751602768898,0,1,-1000,0,0,0,-1,0,-1,1500.0
07:45:44.823,STABILIZE,-35.3632621,149.1652375,0,-0.0006628926494158804,0.0009832462528720498,0.02444906160235405,9.934802073985338e-05,0.00022312934743240476,0.0019053751602768898,0,1,-1000,0,0,0,-1,0,-1,1500.0
07:45:45.028,STABILIZE,-35.3632621,149.1652375,0,-0.0006628926494158804,0.0009832462528720498,0.02444906160235405,9.934802073985338e-05,0.00022312934743240476,0.0019053751602768898,0,1,-1000,0,0,0,-1,0,-1,1500.0
07:45:45.229,STABILIZE,-35.3632621,149.1652375,0,-0.0004915127065032721,0.0009394415537826717,0.023864664137363434,0.0002826963900588453,0.00020564513397403061,0.0018395490478724241,0,1,-1000,0,0,0,-1,1,0,1500.0
07:45:45.431,STABILIZE,-35.3632621,149.1652375,0,-0.0004915127065032721,0.0009394415537826717,0.023864664137363434,0.0002826963900588453,0.00020564513397403061,0.0018395490478724241,0,1,-1000,0,0,0,-1,1,0,1500.0
07:45:45.632,STABILIZE,-35.3632621,149.1652375,0,-0.0004915127065032721,0.0009394415537826717,0.023864664137363434,0.0002826963900588453,0.00020564513397403061,0.0018395490478724241,0,1,-1000,0,0,0,-1,1,0,1500.0
07:45:45.834,STABILIZE,-35.3632621,149.1652375,0,-0.0004992663743905723,0.0009280972881242633,0.02358522266149521,0.00027391751063987613,0.00030871789203956723,0.0018425898160785437,0,1,-1000,0,0,0,-1,1,0,1500.0
07:45:46.036,STABILIZE,-35.3632621,149.1652375,0,-0.0004992663743905723,0.0009280972881242633,0.02358522266149521,0.00027391751063987613,0.00030871789203956723,0.0018425898160785437,0,1,-1000,1,0,1,-1,1,0,1500.0
07:45:46.238,STABILIZE,-35.3632621,149.1652375,0,-0.0004992663743905723,0.0009280972881242633,0.02358522266149521,0.00027391751063987613,0.00030871789203956723,0.0018425898160785437,0,1,-1000,1,0,1,-1,1,0,1500.0
07:45:46.440,STABILIZE,-35.3632621,149.1652375,0,-0.0001849471009336412,0.0009357407689094543,0.023392584174871445,0.0003307760343886912,0.00036847381852567196,0.0017229137010872364,0,1,-1000,0,0,0,-1,2,1,1500.0
07:45:46.641,STABILIZE,-35.3632621,149.1652375,0,-0.0001849471009336412,0.0009357407689094543,0.023392584174871445,0.0003307760343886912,0.00036847381852567196,0.0017229137010872364,0,1,-1000,0,0,0,-1,2,1,1500.0
07:45:46.842,STABILIZE,-35.3632621,149.1652375,0,-0.0001849471009336412,0.0009357407689094543,0.023392584174871445,0.0003307760343886912,0.00036847381852567196,0.0017229137010872364,0,1,-1000,0,0,0,-1,2,1,1500.0
07:45:47.043,STABILIZE,-35.3632621,149.1652375,0,-0.0003263521066401154,0.0009306546999141574,0.023097310215234756,0.00018806842854246497,0.0002448896993882954,0.001765999011695385,0,1,-1000,1,0,0,-1,2,1,1500.0
07:45:47.245,STABILIZE,-35.3632621,149.1652375,0,-0.0003263521066401154,0.0009306546999141574,0.023097310215234756,0.00018806842854246497,0.0002448896993882954,0.001765999011695385,0,1,-1000,1,0,0,-1,2,1,1500.0
07:45:47.446,STABILIZE,-35.3632621,149.1652375,0,-0.0003263521066401154,0.0009306546999141574,0.023097310215234756,0.00018806842854246497,0.0002448896993882954,0.001765999011695385,0,1,-1000,1,0,0,-1,2,1,1500.0
07:45:47.647,STABILIZE,-35.3632621,149.1652375,0,-0.0004255397943779826,0.0009406760800629854,0.022919679060578346,0.00029114261269569397,0.0002367122215218842,0.0017777394969016314,0,1,-1000,1,0,0,-1,2,1,1500.0
07:45:47.849,STABILIZE,-35.3632621,149.1652375,0,-0.0004255397943779826,0.0009406760800629854,0.022919679060578346,0.00029114261269569397,0.0002367122215218842,0.0017777394969016314,0,1,-1000,1,0,0,-1,2,1,1500.0
07:45:48.050,STABILIZE,-35.3632622,149.1652375,0,-0.0005263303173705935,0.0009407355100847781,0.02273792214691639,0.00026123650604858994,0.0003291770117357373,0.0018093071412295103,0,1,-1000,1,0,0,-1,2,1,1500.0
07:45:48.251,STABILIZE,-35.3632622,149.1652375,0,-0.0005263303173705935,0.0009407355100847781,0.02273792214691639,0.00026123650604858994,0.0003291770117357373,0.0018093071412295103,0,1,-1000,1,0,0,-1,2,1,1500.0
07:45:48.453,STABILIZE,-35.3632622,149.1652375,0,-0.0005769322742708027,0.0009510174277238548,0.02266802452504635,0.00034256128128618,0.00027029792545363307,0.0017227388452738523,0,1,-1000,0,0,0,-1,2,1,1500.0
07:45:48.655,STABILIZE,-35.3632622,149.1652375,0,-0.0005769322742708027,0.0009510174277238548,0.02266802452504635,0.00034256128128618,0.00027029792545363307,0.0017227388452738523,0,1,-1000,0,0,0,-1,2,1,1500.0
07:45:48.856,STABILIZE,-35.3632622,149.1652375,0,-0.0005769322742708027,0.0009510174277238548,0.02266802452504635,0.00034256128128618,0.00027029792545363307,0.0017227388452738523,0,1,-1000,0,0,0,-1,2,1,1500.0
07:45:49.057,STABILIZE,-35.3632622,149.1652375,0,-0.0007235739030875266,0.0009543836349621415,0.02243170328438282,0.0002611149102449417,0.0002567184856161475,0.001667524455115199,0,1,-1000,0,1,0,-1,2,1,1500.0
07:45:49.259,STABILIZE,-35.3632622,149.1652375,0,-0.0007235739030875266,0.0009543836349621415,0.02243170328438282,0.0002611149102449417,0.0002567184856161475,0.001667524455115199,0,1,-1000,0,1,0,-1,2,1,1500.0
07:45:49.460,STABILIZE,-35.3632622,149.1652375,0,-0.0007235739030875266,0.0009543836349621415,0.02243170328438282,0.0002611149102449417,0.0002567184856161475,0.001667524455115199,0,1,-1000,0,1,0,-1,2,1,1500.0
07:45:49.661,STABILIZE,-35.3632622,149.1652375,0,-0.0008140322170220315,0.0009679039940237999,0.022283092141151428,0.0003272427711635828,0.0003167006652802229,0.001536714960820973,0,2,-1000,0,0,0,-1,1,1,1500.0
07:45:49.862,STABILIZE,-35.3632622,149.1652375,0,-0.0006827274337410927,0.0009616480092518032,0.022212330251932144,0.00028489966643974185,0.00020878942450508475,0.0016953295562416315,0,1,-1000,0,1,0,-1,0,0,1500.0
07:45:50.064,STABILIZE,-35.3632622,149.1652375,0,-0.0006827274337410927,0.0009616480092518032,0.022212330251932144,0.00028489966643974185,0.00020878942450508475,0.0016953295562416315,0,1,-1000,0,1,0,-1,0,0,1500.0
07:45:50.265,STABILIZE,-35.3632622,149.1652375,0,-0.0006827274337410927,0.0009616480092518032,0.022212330251932144,0.00028489966643974185,0.00020878942450508475,0.0016953295562416315,0,1,-1000,0,1,0,-1,0,0,1500.0
07:45:50.467,STABILIZE,-35.3632622,149.1652375,0,-0.0006827274337410927,0.0009616480092518032,0.022212330251932144,0.00028489966643974185,0.00020878942450508475,0.0016953295562416315,0,1,-1000,0,1,0,-1,0,0,1500.0
07:45:50.668,STABILIZE,-35.3632622,149.1652375,0,-0.0006827274337410927,0.0009616480092518032,0.022212330251932144,0.00028489966643974185,0.00020878942450508475,0.0016953295562416315,0,1,-1000,0,1,0,-1,0,0,1500.0
07:45:50.869,STABILIZE,-35.3632622,149.1652375,0,-0.0006827274337410927,0.0009616480092518032,0.022212330251932144,0.00028489966643974185,0.00020878942450508475,0.0016953295562416315,0,1,-1000,0,1,0,-1,0,0,1500.0
07:45:51.071,STABILIZE,-35.3632622,149.1652375,0,-0.000687593303155154,0.0009697067434899509,0.021926134824752808,0.00020540138939395547,0.00040589901618659496,0.0016656012739986181,0,1,-1000,1,0,0,-1,1,0,1500.0
07:45:51.272,STABILIZE,-35.3632622,149.1652375,0,-0.000698687566909939,0.0009704498224891722,0.02185949496924877,0.00034986622631549835,0.0003347934689372778,0.0015829750336706638,0,1,-1000,1,0,0,-1,1,0,1500.0
07:45:51.473,STABILIZE,-35.3632622,149.1652375,0,-0.000698687566909939,0.0009704498224891722,0.02185949496924877,0.00034986622631549835,0.0003347934689372778,0.0015829750336706638,0,1,-1000,1,0,0,-1,1,0,1500.0
07:45:51.675,STABILIZE,-35.3632622,149.1652375,0,-0.0007001248304732144,0.0009671798325143754,0.02181335538625717,0.0003122038906440139,0.000316003046464175,0.0015419481787830591,0,1,-1000,0,0,0,-1,1,0,1500.0
07:45:51.876,STABILIZE,-35.3632622,149.1652375,0,-0.0007001248304732144,0.0009671798325143754,0.02181335538625717,0.0003122038906440139,0.000316003046464175,0.0015419481787830591,0,1,-1000,0,0,0,-1,1,0,1500.0
07:45:52.077,STABILIZE,-35.3632622,149.1652375,0,-0.0007072581793181598,0.0009674847824499011,0.02168378233909607,0.00011841009836643934,0.00014263158664107323,0.0016082552028819919,0,1,-1000,0,0,0,-1,1,0,1500.0
07:45:52.279,STABILIZE,-35.3632622,149.1652375,0,-0.0007184920250438154,0.0009697166969999671,0.0216227900236845,0.0002847887808457017,0.0002940151607617736,0.0015323101542890072,0,2,-1000,1,0,0,-1,1,0,1500.0
07:45:52.480,STABILIZE,-35.3632622,149.1652375,0,-0.0007184920250438154,0.0009697166969999671,0.0216227900236845,0.0002847887808457017,0.0002940151607617736,0.0015323101542890072,0,2,-1000,1,0,0,-1,1,0,1500.0
07:45:52.682,STABILIZE,-35.3632622,149.1652375,0,-0.0007184920250438154,0.0009697166969999671,0.0216227900236845,0.0002847887808457017,0.0002940151607617736,0.0015323101542890072,0,2,-1000,1,0,0,-1,1,0,1500.0
07:45:52.884,STABILIZE,-35.3632622,149.1652375,0,-0.0007184920250438154,0.0009697166969999671,0.0216227900236845,0.0002847887808457017,0.0002940151607617736,0.0015323101542890072,0,2,-1000,1,0,0,-1,1,0,1500.0
07:45:53.085,STABILIZE,-35.3632622,149.1652375,0,-0.0007432211423292756,0.0009878008859232068,0.021445931866765022,0.00035117543302476406,0.0003561287303455174,0.0015558031154796481,0,2,-1000,0,0,0,-1,1,0,1500.0
07:45:53.287,STABILIZE,-35.3632622,149.1652375,0,-0.0007432211423292756,0.0009878008859232068,0.021445931866765022,0.00035117543302476406,0.0003561287303455174,0.0015558031154796481,0,2,-1000,0,0,0,-1,1,0,1500.0
07:45:53.488,STABILIZE,-35.3632622,149.1652375,0,-0.0007432211423292756,0.0009878008859232068,0.021445931866765022,0.00035117543302476406,0.0003561287303455174,0.0015558031154796481,0,2,-1000,0,0,0,-1,1,0,1500.0
07:45:53.690,STABILIZE,-35.3632622,149.1652375,0,-0.0007432211423292756,0.0009878008859232068,0.021445931866765022,0.00035117543302476406,0.0003561287303455174,0.0015558031154796481,0,2,-1000,0,0,0,-1,1,0,1500.0
07:45:53.891,STABILIZE,-35.3632622,149.1652375,0,-0.000542759255040437,0.000994427944533527,0.021271411329507828,0.0004149514134041965,0.00030608620727434754,0.0015240376815199852,0,2,-1000,1,0,0,-1,2,1,1500.0
07:45:54.093,STABILIZE,-35.3632622,149.1652375,0,-0.000542759255040437,0.000994427944533527,0.021271411329507828,0.0004149514134041965,0.00030608620727434754,0.0015240376815199852,0,2,-1000,1,0,0,-1,2,1,1500.0
07:45:54.294,STABILIZE,-35.3632622,149.1652375,0,-0.000645448628347367,0.000988796236924827,0.021164676174521446,0.0002846192801371217,0.00026205298490822315,0.001511212671175599,0,1,-1000,0,0,0,-1,2,1,1500.0
07:45:54.495,STABILIZE,-35.3632622,149.1652375,0,-0.000645448628347367,0.000988796236924827,0.021164676174521446,0.0002846192801371217,0.00026205298490822315,0.001511212671175599,0,1,-1000,0,0,0,-1,2,1,1500.0
07:45:54.697,STABILIZE,-35.3632622,149.1652375,0,-0.000645448628347367,0.000988796236924827,0.021164676174521446,0.0002846192801371217,0.00026205298490822315,0.001511212671175599,0,1,-1000,0,0,0,-1,2,1,1500.0
07:45:54.899,STABILIZE,-35.3632622,149.1652375,0,-0.000645448628347367,0.000988796236924827,0.021164676174521446,0.0002846192801371217,0.00026205298490822315,0.001511212671175599,0,1,-1000,0,0,0,-1,2,1,1500.0
07:45:55.100,STABILIZE,-35.3632622,149.1652375,0,-0.0007758767460472882,0.0009997249580919743,0.021020205691456795,0.00034639996010810137,0.00021015462698414922,0.001525317202322185,0,2,-1000,1,1,0,-1,2,1,1500.0
07:45:55.301,STABILIZE,-35.3632622,149.1652375,0,-0.0007758767460472882,0.0009997249580919743,0.021020205691456795,0.00034639996010810137,0.00021015462698414922,0.001525317202322185,0,2,-1000,1,1,0,-1,2,1,1500.0
07:45:55.503,STABILIZE,-35.3632622,149.1652375,0,-0.0007758767460472882,0.0009997249580919743,0.021020205691456795,0.00034639996010810137,0.00021015462698414922,0.001525317202322185,0,2,-1000,1,1,0,-1,2,1,1500.0
07:45:55.704,STABILIZE,-35.3632622,149.1652375,0,-0.0007758767460472882,0.0009997249580919743,0.021020205691456795,0.00034639996010810137,0.00021015462698414922,0.001525317202322185,0,1,-1000,0,1,0,-1,2,1,1500.0
07:45:55.905,STABILIZE,-35.3632622,149.1652375,0,-0.0007758767460472882,0.0009997249580919743,0.021020205691456795,0.00034639996010810137,0.00021015462698414922,0.001525317202322185,0,1,-1000,0,1,0,-1,2,1,1500.0
07:45:56.107,STABILIZE,-35.3632622,149.1652375,0,-0.0007758767460472882,0.0009997249580919743,0.021020205691456795,0.00034639996010810137,0.00021015462698414922,0.001525317202322185,0,1,-1000,0,1,0,-1,2,1,1500.0
07:45:56.308,STABILIZE,-35.3632622,149.1652375,0,-0.0009586889063939452,0.0010043096262961626,0.020768417045474052,0.00010532652959227562,0.000272026052698493,0.0013206659350544214,0,1,-1000,0,1,0,-1,1,1,1500.0
07:45:56.509,STABILIZE,-35.3632622,149.1652375,0,-0.0009586889063939452,0.0010043096262961626,0.020768417045474052,0.00010532652959227562,0.000272026052698493,0.0013206659350544214,0,1,-1000,0,1,0,-1,1,1,1500.0
07:45:56.711,AUTO,-35.3632622,149.1652375,0,-0.0009586889063939452,0.0010043096262961626,0.020768417045474052,0.00010532652959227562,0.000272026052698493,0.0013206659350544214,0,1,-1000,0,1,0,-1,1,1,1500.0
07:45:56.912,AUTO,-35.3632622,149.1652375,0,-0.0009586889063939452,0.0010043096262961626,0.020768417045474052,0.00010532652959227562,0.000272026052698493,0.0013206659350544214,0,1,-1000,0,1,0,-1,1,1,1500.0
07:45:57.114,AUTO,-35.3632622,149.1652375,0,-0.0009179888875223696,0.000989011488854885,0.020670093595981598,0.0002506545861251652,0.00012675137259066105,0.0015252899611368775,0,1,-1000,0,1,0,-1,2,2,1500.0
07:45:57.315,AUTO,-35.3632622,149.1652375,0,-0.0009531084215268493,0.0009949716040864587,0.02064640447497368,0.00021841336274519563,0.00024410878540948033,0.0014359469059854746,0,1,-1000,1,1,1,-1,1,2,1500.0
07:45:57.517,AUTO,-35.3632622,149.1652375,0,-0.0009531084215268493,0.0009949716040864587,0.02064640447497368,0.00021841336274519563,0.00024410878540948033,0.0014359469059854746,0,1,-1000,1,1,1,-1,1,2,1500.0
07:45:57.719,AUTO,-35.3632621,149.1652375,0,-0.00097363640088588,0.0010145254200324416,0.020615650340914726,0.0002664279309101403,0.0002980796271003783,0.0013584023108705878,0,2,-1000,1,0,1,0,1,2,1500.0
07:45:57.920,AUTO,-35.3632621,149.1652375,0,-0.0009687619749456644,0.001047105179168284,0.020571131259202957,0.00021809071768075228,0.0003743156557902694,0.0014698009472340345,0,1,-1000,1,0,0,0,0,1,1500.0
07:45:58.122,AUTO,-35.3632621,149.1652375,0,-0.0009453918901272118,0.0010928489500656724,0.020545225590467453,0.00032458791974931955,0.00022663763957098126,0.0015809658216312528,0,2,-1000,0,0,1,0,0,1,1500.0
07:45:58.323,AUTO,-35.3632621,149.1652375,0,-0.0009050060762092471,0.0011548666516318917,0.020515259355306625,0.0003483507316559553,0.0002841491368599236,0.0014105606824159622,0,1,-1000,0,0,1,0,0,1,1500.0
07:45:58.525,AUTO,-35.3632621,149.1652375,0,-0.0009050060762092471,0.0011548666516318917,0.020515259355306625,0.0003483507316559553,0.0002841491368599236,0.0014105606824159622,0,1,-1000,0,0,1,0,0,1,1500.0
07:45:58.726,AUTO,-35.3632621,149.1652375,0,-0.0009050060762092471,0.0011548666516318917,0.020515259355306625,0.0003483507316559553,0.0002841491368599236,0.0014105606824159622,0,1,-1000,0,0,1,0,0,1,1500.0
07:45:58.931,AUTO,-35.3632621,149.1652375,0,-0.0009050060762092471,0.0011548666516318917,0.020515259355306625,0.0003483507316559553,0.0002841491368599236,0.0014105606824159622,0,1,-1000,0,0,1,0,0,1,1500.0
07:45:59.136,AUTO,-35.3632621,149.1652375,0,-0.0007456602179445326,0.0013514208840206265,0.02041015587747097,0.0002976314281113446,0.00033021747367456555,0.001381710171699524,0,1,-1000,0,0,0,0,0,1,1500.0
07:45:59.434,AUTO,-35.3632621,149.1652374,0,-0.0006846856558695436,0.0014208441134542227,0.02036232315003872,0.00027234817389398813,0.00024056877009570599,0.0013368066865950823,0,2,-1000,0,1,0,0,0,1,1500.0
07:45:59.654,AUTO,-35.3632621,149.1652374,0,-0.0006295419298112392,0.0014938261592760682,0.020304644480347633,0.0003572706482373178,0.00023483927361667156,0.001341989845968783,0,2,-1000,0,1,0,0,0,1,1500.0
07:45:59.867,AUTO,-35.3632621,149.1652374,0,-0.0005753242876380682,0.0015685951802879572,0.020262671634554863,0.00021750060841441154,0.0003044535405933857,0.0013832554686814547,0,2,-1000,1,0,0,0,0,0,1500.0
07:46:00.156,AUTO,-35.3632621,149.1652374,0,-0.0005126945907250047,0.0016428176313638687,0.02021493762731552,0.00037916185101494193,0.0003164784284308553,0.0013722722651436925,0,1,-1000,0,0,0,0,0,0,1500.0
07:46:00.369,AUTO,-35.3632621,149.1652374,0,-0.00044853778672404587,0.001714270911179483,0.020154722034931183,0.00037273840280249715,0.0002907173475250602,0.0014044318813830614,0,1,-1000,1,0,0,0,0,0,1500.0
07:46:00.570,AUTO,-35.3632621,149.1652374,0,-0.00044853778672404587,0.001714270911179483,0.020154722034931183,0.00037273840280249715,0.0002907173475250602,0.0014044318813830614,0,1,-1000,1,0,0,0,0,0,1500.0
07:46:00.772,AUTO,-35.3632621,149.1652374,0,-0.00044853778672404587,0.001714270911179483,0.020154722034931183,0.00037273840280249715,0.0002907173475250602,0.0014044318813830614,0,1,-1000,1,0,0,0,0,0,1500.0
07:46:00.974,AUTO,-35.3632621,149.1652374,0,-0.00044853778672404587,0.001714270911179483,0.020154722034931183,0.00037273840280249715,0.0002907173475250602,0.0014044318813830614,0,1,-1000,1,0,0,0,0,0,1500.0
07:46:01.176,AUTO,-35.3632621,149.1652375,175,0.003196638310328126,9.90908665698953e-05,0.02013244666159153,0.0009636504109948874,0.005798632279038429,0.001531517133116722,0,0,-1131,1,6,1,0,0,-68,20437.0
07:46:01.377,AUTO,-35.3632621,149.1652375,382,0.001987551338970661,0.0011253530392423272,0.02001219615340233,-0.002216764260083437,0.0032950202003121376,0.00020835788745898753,0,0,-1110,-1,3,0,0,0,-97,20437.0
07:46:01.579,AUTO,-35.3632621,149.1652375,660,0.0011861207894980907,0.0016921969363465905,0.01987868919968605,-0.0037299899850040674,-7.213983917608857e-05,-0.0003625648678280413,0,0,-1090,-2,0,0,0,0,-121,20437.0
07:46:01.781,AUTO,-35.3632621,149.1652375,993,0.009407700039446354,0.0010145122651010752,0.019342467188835144,0.0473957397043705,-0.00561682740226388,0.0005505307344719768,0,0,-1044,48,-5,0,0,1,-137,20437.0
07:46:01.983,AUTO,-35.3632621,149.1652375,993,0.009407700039446354,0.0010145122651010752,0.019342467188835144,0.0473957397043705,-0.00561682740226388,0.0005505307344719768,0,0,-1044,48,-5,0,0,1,-137,20437.0
07:46:02.185,AUTO,-35.363262,149.1652375,1359,0.021219925954937935,-0.0006928052753210068,0.019190365448594093,0.04668733477592468,-0.00725474301725626,0.0016368930228054523,0,0,-1019,47,-6,1,0,4,-144,20437.0
07:46:02.387,AUTO,-35.363262,149.1652377,1738,0.03266977518796921,-0.0026075933128595352,0.019253354519605637,0.044558875262737274,-0.008041895925998688,0.002434195950627327,0,-1,-1008,45,-7,1,1,10,-147,20437.0
07:46:02.589,AUTO,-35.363262,149.1652377,1738,0.03266977518796921,-0.0026075933128595352,0.019253354519605637,0.044558875262737274,-0.008041895925998688,0.002434195950627327,0,-1,-1008,45,-7,1,1,10,-147,20437.0
07:46:02.791,AUTO,-35.363262,149.1652377,1738,0.03266977518796921,-0.0026075933128595352,0.019253354519605637,0.044558875262737274,-0.008041895925998688,0.002434195950627327,0,-1,-1008,45,-7,1,1,10,-147,20437.0
07:46:02.993,AUTO,-35.363262,149.1652377,1738,0.03266977518796921,-0.0026075933128595352,0.019253354519605637,0.044558875262737274,-0.008041895925998688,0.002434195950627327,0,-1,-1008,45,-7,1,1,10,-147,20437.0
07:46:03.195,AUTO,-35.3632616,149.1652396,2891,0.061877574771642685,-0.009560100734233856,-0.006969852838665247,0.008296004496514797,0.006627318449318409,-0.024764979258179665,1,-8,-995,9,7,-24,8,41,-148,20437.0
07:46:03.396,AUTO,-35.3632614,149.1652409,3273,0.04457845538854599,0.01024712435901165,-0.028054673224687576,-0.12392903864383698,0.10451812297105789,-0.10385672003030777,3,-10,-991,-122,105,-104,10,52,-145,20437.0
07:46:03.598,AUTO,-35.3632612,149.1652424,3649,0.0012530122185125947,0.023773809894919395,-0.04917564243078232,-0.17917461693286896,0.00951363518834114,-0.0755205899477005,4,-9,-998,-178,10,-75,7,54,-144,20437.0
07:46:03.801,AUTO,-35.363261,149.1652437,4026,-0.025594523176550865,0.02170312963426113,-0.06486314535140991,-0.0644286572933197,-0.013156550005078316,-0.06092660501599312,5,-11,-1010,-63,-12,-61,3,47,-147,20437.0
07:46:04.003,AUTO,-35.363261,149.1652437,4026,-0.025594523176550865,0.02170312963426113,-0.06486314535140991,-0.0644286572933197,-0.013156550005078316,-0.06092660501599312,5,-11,-1010,-63,-12,-61,3,47,-147,20437.0
07:46:04.205,AUTO,-35.3632609,149.1652449,4409,-0.03467314690351486,0.017328767105937004,-0.07693558931350708,-0.021976381540298462,-0.013295432552695274,-0.05046595260500908,4,-9,-1007,-21,-12,-50,0,37,-149,20437.0
07:46:04.407,AUTO,-35.3632609,149.1652458,4795,-0.044547874480485916,0.011348330415785313,-0.08499028533697128,-0.05690433084964752,-0.026798399165272713,-0.026352258399128914,4,-6,-1000,-56,-26,-26,-2,25,-149,20437.0
07:46:04.609,AUTO,-35.3632609,149.1652458,4795,-0.044547874480485916,0.011348330415785313,-0.08499028533697128,-0.05690433084964752,-0.026798399165272713,-0.026352258399128914,4,-6,-1000,-56,-26,-26,-2,25,-149,20437.0
07:46:04.811,AUTO,-35.3632609,149.1652458,4795,-0.044547874480485916,0.011348330415785313,-0.08499028533697128,-0.05690433084964752,-0.026798399165272713,-0.026352258399128914,4,-6,-1000,-56,-26,-26,-2,25,-149,20437.0
07:46:05.013,AUTO,-35.3632609,149.1652458,4795,-0.044547874480485916,0.011348330415785313,-0.08499028533697128,-0.05690433084964752,-0.026798399165272713,-0.026352258399128914,4,-6,-1000,-56,-26,-26,-2,25,-149,20437.0
07:46:05.267,AUTO,-35.363261,149.1652459,5949,-0.06941363215446472,-0.008810756728053093,-0.08813339471817017,0.046779192984104156,-0.0025090561248362064,-0.006817213259637356,0,2,-1002,47,-1,-7,-2,-25,-149,20437.0
07:46:05.540,AUTO,-35.3632611,149.1652438,6719,-0.0413016714155674,-0.008088788017630577,-0.09191302210092545,0.06141038239002228,0.006526761222630739,-0.0010057869367301464,-5,10,-1001,62,7,-1,-1,-50,-149,20437.0
07:46:05.913,AUTO,-35.3632612,149.1652423,7103,-0.02576606161892414,-0.0058050029911100864,-0.09259671717882156,0.0628514438867569,0.010960353538393974,0.0005666743963956833,-7,13,-1002,63,11,0,-2,-56,-149,20437.0
07:46:06.172,AUTO,-35.3632612,149.1652407,7489,-0.00979797262698412,-0.002702106721699238,-0.0926472395658493,0.06649760156869888,0.013772860169410706,0.0014764952939003706,-7,14,-1003,67,14,1,-2,-58,-150,20437.0
07:46:06.464,AUTO,-35.3632613,149.1652391,7877,0.006489137187600136,0.0007388092344626784,-0.09223015606403351,0.06503187865018845,0.014096464961767197,0.002477149711921811,-7,12,-1003,65,14,2,-3,-57,-151,20437.0
07:46:06.667,AUTO,-35.3632613,149.1652391,7877,0.006489137187600136,0.0007388092344626784,-0.09223015606403351,0.06503187865018845,0.014096464961767197,0.002477149711921811,-7,12,-1003,65,14,2,-3,-57,-151,20437.0
07:46:06.869,AUTO,-35.3632613,149.1652391,7877,0.006489137187600136,0.0007388092344626784,-0.09223015606403351,0.06503187865018845,0.014096464961767197,0.002477149711921811,-7,12,-1003,65,14,2,-3,-57,-151,20437.0
07:46:07.071,AUTO,-35.3632617,149.1652351,9053,0.05421189218759537,0.008658823557198048,-0.0893302783370018,0.06114298105239868,0.005115042440593243,0.0043860250152647495,-3,6,-1002,61,5,4,-8,-28,-153,20437.0
07:46:07.274,AUTO,-35.3632619,149.1652345,9448,0.06663672626018524,0.007921482436358929,-0.08680739253759384,0.01595311053097248,-0.018572844564914703,0.02174309641122818,-1,5,-996,16,-17,21,-8,-12,-153,19031.0
07:46:07.476,AUTO,-35.3632619,149.1652345,9448,0.06663672626018524,0.007921482436358929,-0.08680739253759384,0.01595311053097248,-0.018572844564914703,0.02174309641122818,-1,5,-996,16,-17,21,-8,-12,-153,19031.0
07:46:07.678,AUTO,-35.3632621,149.1652343,9842,0.05685289204120636,0.0019297907128930092,-0.08225692808628082,-0.07105250656604767,-0.019770944491028786,0.016335785388946533,1,1,-993,-70,-18,15,-8,2,-151,19031.0
07:46:07.880,AUTO,-35.3632623,149.1652345,10228,0.03598769009113312,-0.0016186268767341971,-0.08033526688814163,-0.08603329956531525,-0.008585949428379536,0.0035819022450596094,1,0,-996,-85,-7,3,-6,13,-149,19031.0
07:46:08.082,AUTO,-35.3632624,149.1652347,10611,0.01620672270655632,-0.0033427239395678043,-0.08107572048902512,-0.0705852210521698,-0.005217608530074358,-0.00763579411432147,2,-2,-1000,-69,-4,-8,-4,18,-149,19031.0
07:46:08.285,AUTO,-35.3632624,149.1652352,10995,0.001583494828082621,-0.004147109109908342,-0.08418454974889755,-0.049980826675891876,-0.0020386199466884136,-0.015566025860607624,2,-2,-1002,-49,-1,-15,-2,18,-150,19031.0
07:46:08.487,AUTO,-35.3632624,149.1652352,10995,0.001583494828082621,-0.004147109109908342,-0.08418454974889755,-0.049980826675891876,-0.0020386199466884136,-0.015566025860607624,2,-2,-1002,-49,-1,-15,-2,18,-150,19031.0
07:46:08.688,AUTO,-35.3632624,149.1652352,10995,0.001583494828082621,-0.004147109109908342,-0.08418454974889755,-0.049980826675891876,-0.0020386199466884136,-0.015566025860607624,2,-2,-1002,-49,-1,-15,-2,18,-150,19031.0
07:46:08.890,AUTO,-35.3632624,149.1652352,10995,0.001583494828082621,-0.004147109109908342,-0.08418454974889755,-0.049980826675891876,-0.0020386199466884136,-0.015566025860607624,2,-2,-1002,-49,-1,-15,-2,18,-150,19031.0
07:46:09.092,AUTO,-35.3632624,149.1652363,12150,-0.01404432114213705,-0.0035810412373393774,-0.10191717743873596,-0.0008757508476264775,0.0037068561650812626,-0.02597617730498314,0,-2,-1001,0,4,-26,2,7,-151,19031.0
07:46:09.293,AUTO,-35.3632624,149.1652364,12539,-0.012747655622661114,-0.0026633357629179955,-0.10878552496433258,0.010074058547616005,0.003961835987865925,-0.025206955149769783,0,-1,-1001,10,4,-25,3,2,-152,19031.0
07:46:09.495,AUTO,-35.3632624,149.1652364,12539,-0.012747655622661114,-0.0026633357629179955,-0.10878552496433258,0.010074058547616005,0.003961835987865925,-0.025206955149769783,0,-1,-1001,10,4,-25,3,2,-152,19031.0
07:46:09.697,AUTO,-35.3632623,149.1652364,12929,-0.009914339520037174,-0.0015309419250115752,-0.11553642898797989,0.013972331769764423,0.005672052036970854,-0.025975992903113365,-1,0,-1000,14,6,-26,4,-1,-152,19031.0
07:46:09.899,AUTO,-35.3632622,149.1652364,13318,-0.006249710451811552,-0.00010192734043812379,-0.12207818031311035,0.015823516994714737,0.006285032257437706,-0.024037625640630722,-1,0,-1000,16,6,-24,4,-3,-152,19031.0
07:46:10.101,AUTO,-35.3632621,149.1652363,13708,-0.0023873893078416586,0.0015655383467674255,-0.12836892902851105,0.015179590322077274,0.008049724623560905,-0.02291785553097725,-1,0,-1000,15,8,-23,4,-5,-152,19031.0
07:46:10.302,AUTO,-35.363262,149.1652361,14099,0.0011258535087108612,0.0032233502715826035,-0.1341271698474884,0.014466973021626472,0.005789644084870815,-0.018735341727733612,-2,0,-1000,15,6,-19,3,-5,-152,19031.0
07:46:10.504,AUTO,-35.363262,149.1652361,14099,0.0011258535087108612,0.0032233502715826035,-0.1341271698474884,0.014466973021626472,0.005789644084870815,-0.018735341727733612,-2,0,-1000,15,6,-19,3,-5,-152,19031.0
07:46:10.706,AUTO,-35.363262,149.1652361,14099,0.0011258535087108612,0.0032233502715826035,-0.1341271698474884,0.014466973021626472,0.005789644084870815,-0.018735341727733612,-2,0,-1000,15,6,-19,3,-5,-152,19031.0
07:46:10.908,AUTO,-35.363262,149.1652361,14099,0.0011258535087108612,0.0032233502715826035,-0.1341271698474884,0.014466973021626472,0.005789644084870815,-0.018735341727733612,-2,0,-1000,15,6,-19,3,-5,-152,19031.0
07:46:11.109,AUTO,-35.3632617,149.1652357,15273,0.007717063184827566,0.006210405845195055,-0.14836759865283966,0.004957410041242838,0.0018956840503960848,-0.016728408634662628,-1,0,-999,5,2,-17,0,-3,-152,19031.0
07:46:11.395,AUTO,-35.3632617,149.1652356,15662,0.008391662500798702,0.006434873212128878,-0.15209542214870453,0.0023756460286676884,0.0023704119957983494,-0.013814644888043404,0,0,-1000,3,3,-14,0,-1,-152,19031.0
07:46:11.778,AUTO,-35.3632616,149.1652355,16441,0.008283458650112152,0.006007211748510599,-0.15852224826812744,-0.0041466583497822285,-0.0011833880562335253,-0.012297911569476128,0,0,-999,-3,0,-12,-1,1,-152,19031.0
07:46:12.028,AUTO,-35.3632616,149.1652355,16441,0.008283458650112152,0.006007211748510599,-0.15852224826812744,-0.0041466583497822285,-0.0011833880562335253,-0.012297911569476128,0,0,-999,-3,0,-12,-1,1,-152,19031.0
07:46:12.291,AUTO,-35.3632617,149.1652355,17224,-0.02619680017232895,0.005075331777334213,-0.1655259132385254,-0.09542185813188553,-0.0008947455789893866,-0.016057174652814865,0,0,-997,-94,0,-16,-3,-2,-150,19031.0
07:46:12.493,AUTO,-35.3632617,149.1652355,17224,-0.02619680017232895,0.005075331777334213,-0.1655259132385254,-0.09542185813188553,-0.0008947455789893866,-0.016057174652814865,0,0,-997,-94,0,-16,-3,-2,-150,19031.0
07:46:12.696,AUTO,-35.3632617,149.1652355,17224,-0.02619680017232895,0.005075331777334213,-0.1655259132385254,-0.09542185813188553,-0.0008947455789893866,-0.016057174652814865,0,0,-997,-94,0,-16,-3,-2,-150,19031.0
07:46:12.898,AUTO,-35.3632617,149.1652355,17224,-0.02619680017232895,0.005075331777334213,-0.1655259132385254,-0.09542185813188553,-0.0008947455789893866,-0.016057174652814865,0,0,-997,-94,0,-16,-3,-2,-150,19031.0
07:46:13.100,AUTO,-35.3632621,149.1652338,18334,-0.04287325218319893,0.050759200006723404,-0.016403572633862495,0.08420997858047485,-0.028765132650732994,0.36096981167793274,-1,8,-957,84,-28,360,-21,-34,-137,52941.0
07:46:13.302,AUTO,-35.3632626,149.1652328,18670,-0.006878589279949665,0.0209504347294569,0.04801710695028305,0.15425987541675568,-0.1637069582939148,0.16010335087776184,1,10,-954,155,-162,159,-30,-38,-125,52941.0
07:46:13.504,AUTO,-35.3632626,149.1652328,18670,-0.006878589279949665,0.0209504347294569,0.04801710695028305,0.15425987541675568,-0.1637069582939148,0.16010335087776184,1,10,-954,155,-162,159,-30,-38,-125,52941.0
07:46:13.706,AUTO,-35.3632633,149.1652317,18976,0.028484907001256943,-0.014671272598206997,0.06812674552202225,0.12208099663257599,-0.1093083843588829,0.019064011052250862,1,11,-957,122,-108,18,-29,-33,-114,52941.0
07:46:13.908,AUTO,-35.3632638,149.1652308,19256,0.05263031646609306,-0.03245219588279724,0.06451813131570816,0.06901873648166656,-0.04414843022823334,-0.037440456449985504,1,8,-960,69,-43,-37,-23,-22,-104,52941.0
07:46:14.112,AUTO,-35.3632642,149.1652304,19509,0.06425223499536514,-0.037067312747240067,0.05445962771773338,0.026012198999524117,-0.004771628882735968,-0.04436258226633072,1,5,-963,26,-3,-44,-14,-6,-94,52941.0
07:46:14.314,AUTO,-35.3632644,149.1652303,19737,0.06447902321815491,-0.03469235822558403,0.04610874131321907,-0.016454976052045822,0.015838677063584328,-0.028380852192640305,1,0,-966,-15,16,-28,-6,8,-85,52941.0
07:46:14.517,AUTO,-35.3632644,149.1652303,19737,0.06447902321815491,-0.03469235822558403,0.04610874131321907,-0.016454976052045822,0.015838677063584328,-0.028380852192640305,1,0,-966,-15,16,-28,-6,8,-85,52941.0
07:46:14.719,AUTO,-35.3632644,149.1652303,19737,0.06447902321815491,-0.03469235822558403,0.04610874131321907,-0.016454976052045822,0.015838677063584328,-0.028380852192640305,1,0,-966,-15,16,-28,-6,8,-85,52941.0
07:46:14.921,AUTO,-35.3632644,149.1652303,19737,0.06447902321815491,-0.03469235822558403,0.04610874131321907,-0.016454976052045822,0.015838677063584328,-0.028380852192640305,1,0,-966,-15,16,-28,-6,8,-85,52941.0
07:46:15.123,AUTO,-35.3632641,149.1652321,20299,0.03427660092711449,-0.012448023073375225,0.03918558731675148,-0.04274136573076248,0.034823909401893616,0.0027510258369147778,1,-9,-975,-42,35,2,12,39,-63,52941.0
07:46:15.325,AUTO,-35.3632637,149.1652331,20452,0.02256532944738865,-0.004351363517343998,0.03907179832458496,-0.045141469687223434,0.03193674236536026,0.003880357602611184,1,-10,-976,-44,32,3,15,43,-57,52941.0
07:46:15.527,AUTO,-35.3632633,149.1652343,20590,0.011425311677157879,0.0026072997134178877,0.03871383145451546,-0.041809599846601486,0.022162441164255142,0.002263976028189063,1,-10,-977,-40,23,2,16,43,-51,52941.0
07:46:15.728,AUTO,-35.3632633,149.1652343,20590,0.011425311677157879,0.0026072997134178877,0.03871383145451546,-0.041809599846601486,0.022162441164255142,0.002263976028189063,1,-10,-977,-40,23,2,16,43,-51,52941.0
07:46:15.930,AUTO,-35.3632629,149.1652354,20712,0.0022438010200858116,0.007431281730532646,0.03830805793404579,-0.0333869569003582,0.01796307973563671,0.0033078764099627733,1,-11,-977,-32,18,3,16,42,-46,52941.0
07:46:16.216,AUTO,-35.3632626,149.1652364,20821,-0.00444072438403964,0.011346845887601376,0.037993766367435455,-0.02528480999171734,0.013340974226593971,0.0018046769546344876,1,-10,-977,-24,14,1,14,38,-40,52941.0
07:46:16.483,AUTO,-35.3632622,149.1652374,20914,-0.008960063569247723,0.013894560746848583,0.03730577230453491,-0.013113472610712051,0.009235880337655544,-0.0003983242786489427,1,-8,-977,-12,9,0,12,33,-34,52941.0
07:46:16.723,AUTO,-35.3632622,149.1652374,20914,-0.008960063569247723,0.013894560746848583,0.03730577230453491,-0.013113472610712051,0.009235880337655544,-0.0003983242786489427,1,-8,-977,-12,9,0,12,33,-34,52941.0
07:46:17.036,AUTO,-35.3632622,149.1652374,20914,-0.008960063569247723,0.013894560746848583,0.03730577230453491,-0.013113472610712051,0.009235880337655544,-0.0003983242786489427,1,-8,-977,-12,9,0,12,33,-34,52941.0
07:46:17.240,AUTO,-35.3632615,149.1652394,21100,-0.013701846823096275,0.013895128853619099,0.035451680421829224,-0.001308045000769198,-0.004250859841704369,-0.0013942221412435174,0,-4,-972,0,-3,-1,5,18,-15,52941.0
07:46:17.443,AUTO,-35.3632613,149.1652398,21127,-0.012830544263124466,0.01222100481390953,0.034813933074474335,0.019952120259404182,-0.005362159106880426,-0.0027357647195458412,0,-2,-968,20,-4,-3,2,13,-8,52941.0
07:46:17.647,AUTO,-35.3632612,149.1652401,21131,-0.03149712085723877,0.01922513358294964,0.03374601528048515,-0.05109438672661781,0.05563421547412872,-0.005121144931763411,2,3,-922,-50,56,-5,0,7,3,52941.0
07:46:17.849,AUTO,-35.3632612,149.1652401,21098,-0.04839015752077103,0.025224588811397552,0.032834507524967194,-0.45925045013427734,-0.0004057385085616261,-0.004231184720993042,0,-22,-974,-458,0,-4,-4,-3,15,52941.0
07:46:18.056,AUTO,-35.3632613,149.1652398,21045,-0.023957084864377975,0.026849960908293724,0.032780516892671585,0.1213565543293953,0.019352486357092857,0.004384664818644524,0,21,-995,123,20,4,-9,-10,21,101814.0
07:46:18.259,AUTO,-35.3632613,149.1652398,21045,-0.023957084864377975,0.026849960908293724,0.032780516892671585,0.1213565543293953,0.019352486357092857,0.004384664818644524,0,21,-995,123,20,4,-9,-10,21,101814.0
07:46:18.461,AUTO,-35.3632615,149.1652396,20988,0.004994765855371952,0.03365471214056015,0.033078644424676895,0.5187402963638306,0.03406281769275665,0.0020626664627343416,1,47,-1024,521,34,1,-16,-10,19,101814.0
07:46:18.662,AUTO,-35.3632615,149.1652396,20988,0.004994765855371952,0.03365471214056015,0.033078644424676895,0.5187402963638306,0.03406281769275665,0.0020626664627343416,1,47,-1024,521,34,1,-16,-10,19,101814.0
07:46:18.864,AUTO,-35.3632615,149.1652396,20988,0.004994765855371952,0.03365471214056015,0.033078644424676895,0.5187402963638306,0.03406281769275665,0.0020626664627343416,1,47,-1024,521,34,1,-16,-10,19,101814.0
07:46:19.066,AUTO,-35.3632634,149.1652393,20888,0.04468325898051262,0.057154107838869095,0.03138197585940361,-0.5045000314712524,0.04017500579357147,-0.014813007786870003,11,-30,-1018,-504,41,-14,-45,10,5,101814.0
07:46:19.269,AUTO,-35.3632634,149.1652393,20888,0.04468325898051262,0.057154107838869095,0.03138197585940361,-0.5045000314712524,0.04017500579357147,-0.014813007786870003,11,-30,-1018,-504,41,-14,-45,10,5,101814.0
07:46:19.471,AUTO,-35.3632645,149.1652397,20875,0.041533682495355606,0.06647156924009323,0.04020612686872482,-0.4338642358779907,0.03911522775888443,0.14733323454856873,14,-6,-1013,-432,40,147,-57,23,1,101814.0
07:46:19.673,AUTO,-35.3632659,149.1652405,20868,0.05722499638795853,0.07150886952877045,0.14595693349838257,0.1614191234111786,0.046116478741168976,0.65228271484375,17,17,-1024,163,47,652,-71,35,-1,101814.0
07:46:19.875,AUTO,-35.3632676,149.1652416,20868,0.08575008064508438,0.06794704496860504,0.3351629972457886,0.5635758638381958,0.058935146778821945,0.8059825897216797,20,12,-1009,564,59,805,-86,48,-3,101814.0
07:46:20.077,AUTO,-35.3632697,149.165243,20872,0.10299301892518997,0.05936359986662865,0.5328528881072998,-0.09282657504081726,0.03489052876830101,0.7553004026412964,26,-27,-1004,-92,35,755,-103,61,-3,101814.0
07:46:20.279,AUTO,-35.3632697,149.165243,20872,0.10299301892518997,0.05936359986662865,0.5328528881072998,-0.09282657504081726,0.03489052876830101,0.7553004026412964,26,-27,-1004,-92,35,755,-103,61,-3,101814.0
07:46:20.481,AUTO,-35.3632722,149.1652448,20875,0.11444893479347229,0.04748013615608215,0.7188282608985901,-0.45840343832969666,0.020671749487519264,0.7082322239875793,27,-45,-1005,-457,21,708,-121,75,-3,101814.0
07:46:20.684,AUTO,-35.3632722,149.1652448,20875,0.11444893479347229,0.04748013615608215,0.7188282608985901,-0.45840343832969666,0.020671749487519264,0.7082322239875793,27,-45,-1005,-457,21,708,-121,75,-3,101814.0
07:46:20.889,AUTO,-35.3632722,149.1652448,20875,0.11444893479347229,0.04748013615608215,0.7188282608985901,-0.45840343832969666,0.020671749487519264,0.7082322239875793,27,-45,-1005,-457,21,708,-121,75,-3,101814.0
07:46:21.091,AUTO,-35.3632825,149.1652525,20887,0.17126554250717163,-0.012616707012057304,1.2122845649719238,0.02361345663666725,0.010786375030875206,0.636698305606842,18,-64,-998,23,11,636,-187,123,-2,101814.0
07:46:21.293,AUTO,-35.363287,149.1652559,20891,0.16521432995796204,-0.03865388035774231,1.3718072175979614,-0.31591376662254333,-0.007869335822761059,0.6419552564620972,11,-63,-1007,-314,-6,641,-213,139,-3,101814.0
07:46:21.537,AUTO,-35.3632921,149.1652597,20897,0.16007138788700104,-0.059886444360017776,1.5328272581100464,0.18437139689922333,0.044451337307691574,0.6514059901237488,3,-51,-1015,186,45,651,-237,155,-4,101814.0
07:46:21.978,AUTO,-35.3632977,149.165264,20907,0.14355552196502686,-0.07087011635303497,1.6957210302352905,0.06011134386062622,0.058744434267282486,0.6478093266487122,-7,-73,-1009,60,59,647,-257,168,-6,101814.0
07:46:22.192,AUTO,-35.3633037,149.1652686,20921,0.1159362643957138,-0.07870703935623169,1.8592579364776611,-0.34650886058807373,0.04350787401199341,0.6479189395904541,-21,-85,-1006,-345,44,647,-274,179,-8,101814.0
07:46:22.460,AUTO,-35.36331,149.1652735,20941,0.10057327151298523,-0.08726248145103455,2.0227324962615967,0.13437676429748535,0.028331952169537544,0.6534899473190308,-30,-53,-1005,135,29,653,-288,187,-9,101814.0
07:46:22.684,AUTO,-35.36331,149.1652735,20941,0.10057327151298523,-0.08726248145103455,2.0227324962615967,0.13437676429748535,0.028331952169537544,0.6534899473190308,-30,-53,-1005,135,29,653,-288,187,-9,101814.0
07:46:22.936,AUTO,-35.36331,149.1652735,20941,0.10057327151298523,-0.08726248145103455,2.0227324962615967,0.13437676429748535,0.028331952169537544,0.6534899473190308,-30,-53,-1005,135,29,653,-288,187,-9,101814.0
07:46:23.147,AUTO,-35.3633333,149.1652917,21021,0.0543215274810791,-0.10722260922193527,2.576575756072998,0.3288402557373047,0.006195004563778639,0.589171826839447,-76,-42,-996,330,7,589,-318,205,-10,101814.0
07:46:23.349,AUTO,-35.3633333,149.1652917,21021,0.0543215274810791,-0.10722260922193527,2.576575756072998,0.3288402557373047,0.006195004563778639,0.589171826839447,-76,-42,-996,330,7,589,-318,205,-10,101814.0
07:46:23.553,AUTO,-35.3633405,149.1652972,21044,0.04528900980949402,-0.11367105692625046,2.6729941368103027,-0.16096599400043488,7.973186438903213e-05,0.22361816465854645,-80,-60,-991,-160,0,223,-323,208,-9,134720.0
07:46:23.755,AUTO,-35.3633478,149.1653029,21064,0.039401210844516754,-0.11436628550291061,2.6885476112365723,-0.2984234392642975,0.03816947340965271,-0.024692093953490257,-83,-49,-993,-296,38,-24,-331,209,-8,134720.0
07:46:23.957,AUTO,-35.3633553,149.1653086,21083,0.046816062182188034,-0.1054474338889122,2.6691112518310547,0.22729209065437317,0.02904452569782734,-0.11061704158782959,-83,-22,-999,229,29,-110,-338,210,-8,134720.0
07:46:24.159,AUTO,-35.363363,149.1653144,21102,0.05092351883649826,-0.1010415330529213,2.646199941635132,0.19447572529315948,0.013014504685997963,-0.07719630748033524,-84,-43,-994,195,13,-77,-342,212,-8,134720.0
07:46:24.361,AUTO,-35.363363,149.1653144,21102,0.05092351883649826,-0.1010415330529213,2.646199941635132,0.19447572529315948,0.013014504685997963,-0.07719630748033524,-84,-43,-994,195,13,-77,-342,212,-8,134720.0
07:46:24.563,AUTO,-35.3633707,149.1653202,21121,0.04505036398768425,-0.09430944174528122,2.631746292114258,-0.32920727133750916,0.02989385277032852,-0.027646318078041077,-82,-67,-994,-328,30,-27,-345,214,-8,134720.0
07:46:24.765,AUTO,-35.3633707,149.1653202,21121,0.04505036398768425,-0.09430944174528122,2.631746292114258,-0.32920727133750916,0.02989385277032852,-0.027646318078041077,-82,-67,-994,-328,30,-27,-345,214,-8,134720.0
07:46:24.967,AUTO,-35.3633707,149.1653202,21121,0.04505036398768425,-0.09430944174528122,2.631746292114258,-0.32920727133750916,0.02989385277032852,-0.027646318078041077,-82,-67,-994,-328,30,-27,-345,214,-8,134720.0
07:46:25.170,AUTO,-35.3633944,149.1653375,21179,0.04117272421717644,-0.07166273891925812,2.6263134479522705,-0.3032432794570923,-0.012364332564175129,0.03408624604344368,-78,-66,-987,-302,-11,34,-345,211,-8,134720.0
07:46:25.372,AUTO,-35.3633944,149.1653375,21179,0.04117272421717644,-0.07166273891925812,2.6263134479522705,-0.3032432794570923,-0.012364332564175129,0.03408624604344368,-78,-66,-987,-302,-11,34,-345,211,-8,134720.0
07:46:25.574,AUTO,-35.3634024,149.1653433,21196,0.03874561935663223,-0.07456260174512863,2.6252143383026123,-0.082786425948143,-0.002309409435838461,-0.012012184597551823,-86,-47,-995,-80,-1,-12,-343,211,-7,134720.0
07:46:25.776,AUTO,-35.3634102,149.165349,21212,0.046891145408153534,-0.06969337910413742,2.6260170936584473,0.40004411339759827,0.04734976962208748,-0.002517030341550708,-77,-43,-999,401,48,-2,-342,210,-6,134720.0
07:46:25.978,AUTO,-35.3634179,149.1653546,21230,0.038113463670015335,-0.056196022778749466,2.6267149448394775,-0.2255595177412033,0.059318408370018005,0.015701521188020706,-81,-65,-997,-225,60,15,-338,209,-7,134720.0
07:46:26.180,AUTO,-35.3634256,149.1653601,21250,0.033989179879426956,-0.04017581418156624,2.626598358154297,-0.2819054424762726,0.05554850026965141,-0.0020016436465084553,-83,-50,-1000,-280,56,-2,-331,205,-9,134720.0
07:46:26.384,AUTO,-35.3634331,149.1653656,21271,0.04516349360346794,-0.02479114942252636,2.6256067752838135,0.5298534631729126,0.05774833634495735,-0.028011338785290718,-79,-23,-999,531,58,-27,-321,200,-8,134720.0
07:46:26.587,AUTO,-35.3634331,149.1653656,21271,0.04516349360346794,-0.02479114942252636,2.6256067752838135,0.5298534631729126,0.05774833634495735,-0.028011338785290718,-79,-23,-999,531,58,-27,-321,200,-8,134720.0
07:46:26.789,AUTO,-35.3634331,149.1653656,21271,0.04516349360346794,-0.02479114942252636,2.6256067752838135,0.5298534631729126,0.05774833634495735,-0.028011338785290718,-79,-23,-999,531,58,-27,-321,200,-8,134720.0
07:46:26.993,AUTO,-35.3634331,149.1653656,21271,0.04516349360346794,-0.02479114942252636,2.6256067752838135,0.5298534631729126,0.05774833634495735,-0.028011338785290718,-79,-23,-999,531,58,-27,-321,200,-8,134720.0
07:46:27.293,AUTO,-35.363454,149.1653809,21324,0.0314747616648674,0.011828912422060966,2.6241350173950195,-0.2272055596113205,0.04401756078004837,-0.000598372018430382,-69,-33,-996,-225,44,0,-281,175,-5,134720.0
07:46:27.531,AUTO,-35.3634603,149.1653855,21338,0.03943618759512901,0.024722836911678314,2.623892307281494,0.5901004076004028,0.05438634753227234,-0.021760525181889534,-69,-12,-995,592,55,-21,-264,165,-5,134720.0
07:46:27.828,AUTO,-35.3634662,149.1653899,21350,0.04363182187080383,0.036244429647922516,2.6236140727996826,0.4193742275238037,0.03491944074630737,0.011828213930130005,-55,-35,-999,419,35,11,-245,155,-4,134720.0
07:46:28.097,AUTO,-35.3634717,149.1653939,21361,0.03229515254497528,0.04812869802117348,2.6229476928710938,-0.3421201705932617,0.0419183149933815,0.01850024238228798,-50,-69,-981,-342,42,18,-224,143,-3,134720.0
07:46:28.345,AUTO,-35.3634767,149.1653976,21368,0.02737221121788025,0.06206124648451805,2.6235523223876953,-0.6206806302070618,0.05062589794397354,0.011065061204135418,-51,-59,-1006,-619,51,11,-203,128,-3,134720.0
07:46:28.547,AUTO,-35.3634813,149.1654009,21374,0.023540537804365158,0.07484789192676544,2.623664379119873,-0.04061126336455345,0.051825955510139465,-0.009573896415531635,-47,-14,-1003,-38,52,-9,-181,112,-1,134720.0
07:46:28.751,AUTO,-35.3634813,149.1654009,21374,0.023540537804365158,0.07484789192676544,2.623664379119873,-0.04061126336455345,0.051825955510139465,-0.009573896415531635,-47,-14,-1003,-38,52,-9,-181,112,-1,134720.0
07:46:28.958,AUTO,-35.3634813,149.1654009,21374,0.023540537804365158,0.07484789192676544,2.623664379119873,-0.04061126336455345,0.051825955510139465,-0.009573896415531635,-47,-14,-1003,-38,52,-9,-181,112,-1,134720.0
07:46:29.165,AUTO,-35.3634914,149.1654083,21373,0.02758914977312088,0.09146098047494888,2.6234538555145264,0.6734881401062012,-0.01695498451590538,0.0011217005085200071,-28,10,-1008,674,-16,1,-106,65,2,14939.0
07:46:29.371,AUTO,-35.3634914,149.1654083,21373,0.02758914977312088,0.09146098047494888,2.6234538555145264,0.6734881401062012,-0.01695498451590538,0.0011217005085200071,-28,10,-1008,674,-16,1,-106,65,2,14939.0
07:46:29.572,AUTO,-35.3634937,149.1654101,21370,0.019579607993364334,0.08010265231132507,2.6240153312683105,-0.016770139336586,-0.06062812730669975,0.015073888935148716,-23,-28,-1010,-16,-59,15,-84,52,2,14939.0
07:46:29.774,AUTO,-35.3634955,149.1654116,21367,0.011116625741124153,0.06441032886505127,2.623446464538574,-0.629755973815918,-0.058177705854177475,0.0012870868667960167,-19,-37,-1003,-629,-56,1,-66,41,2,14939.0
07:46:29.977,AUTO,-35.3634969,149.1654128,21365,0.006867360323667526,0.05282226577401161,2.6229777336120605,-0.3532261252403259,-0.0416540801525116,-0.00966356135904789,-16,-6,-985,-351,-40,-9,-52,30,2,14939.0
07:46:30.179,AUTO,-35.3634979,149.1654138,21363,0.01568480394780636,0.04556829482316971,2.622410774230957,0.37416887283325195,-0.02224237285554409,-0.014165190979838371,-13,25,-1003,376,-21,-13,-41,21,2,14939.0
07:46:30.382,AUTO,-35.3634988,149.1654147,21360,0.020349949598312378,0.039629977196455,2.6222124099731445,0.6789615750312805,-0.022619016468524933,-0.009619154036045074,-10,24,-1013,680,-21,-9,-31,15,1,14939.0
07:46:30.585,AUTO,-35.3634988,149.1654147,21360,0.020349949598312378,0.039629977196455,2.6222124099731445,0.6789615750312805,-0.022619016468524933,-0.009619154036045074,-10,24,-1013,680,-21,-9,-31,15,1,14939.0
07:46:30.787,AUTO,-35.3634988,149.1654147,21360,0.020349949598312378,0.039629977196455,2.6222124099731445,0.6789615750312805,-0.022619016468524933,-0.009619154036045074,-10,24,-1013,680,-21,-9,-31,15,1,14939.0
07:46:30.989,AUTO,-35.3634988,149.1654147,21360,0.020349949598312378,0.039629977196455,2.6222124099731445,0.6789615750312805,-0.022619016468524933,-0.009619154036045074,-10,24,-1013,680,-21,-9,-31,15,1,14939.0
07:46:31.193,AUTO,-35.3635002,149.1654162,21362,0.0037716208025813103,0.028423825278878212,2.6200766563415527,-0.6389567852020264,-0.018085654824972153,-0.00679133040830493,-4,-21,-993,-637,-16,-6,-11,-1,0,14939.0
07:46:31.396,AUTO,-35.3635004,149.1654165,21365,0.006071978248655796,0.024746568873524666,2.6190710067749023,0.24321886897087097,-0.017061419785022736,-0.008018073625862598,-3,22,-1002,245,-15,-7,-7,-5,0,14939.0
07:46:31.598,AUTO,-35.3635004,149.1654165,21365,0.006071978248655796,0.024746568873524666,2.6190710067749023,0.24321886897087097,-0.017061419785022736,-0.008018073625862598,-3,22,-1002,245,-15,-7,-7,-5,0,14939.0
07:46:31.800,AUTO,-35.3635005,149.1654167,21367,0.01547380443662405,0.020559679716825485,2.6185126304626465,0.6405477523803711,-0.013391025364398956,-0.003039146773517132,-1,22,-1006,641,-12,-2,-3,-7,1,14939.0
07:46:32.002,AUTO,-35.3635006,149.1654168,21369,0.009004232473671436,0.015882177278399467,2.6178653240203857,-0.0581120029091835,-0.01827571541070938,0.0016728730406612158,-1,-17,-999,-58,-16,1,0,-8,0,14939.0
07:46:32.204,AUTO,-35.3635006,149.1654168,21372,-0.004827225115150213,0.009962175972759724,2.617129325866699,-0.6205688714981079,-0.02675442397594452,-0.005491126794368029,-1,-21,-1000,-619,-25,-5,0,-10,0,14939.0
07:46:32.407,AUTO,-35.3635006,149.1654169,21372,-0.0040327939204871655,0.003070547478273511,2.6165874004364014,-0.24277597665786743,-0.03066354990005493,-0.0007399277528747916,0,2,-995,-240,-29,0,0,-10,2,14939.0
07:46:32.611,RTL,-35.3635006,149.1654169,21372,-0.0040327939204871655,0.003070547478273511,2.6165874004364014,-0.24277597665786743,-0.03066354990005493,-0.0007399277528747916,0,2,-995,-240,-29,0,0,-10,2,14939.0
07:46:32.813,RTL,-35.3635006,149.1654169,21372,-0.0040327939204871655,0.003070547478273511,2.6165874004364014,-0.24277597665786743,-0.03066354990005493,-0.0007399277528747916,0,2,-995,-240,-29,0,0,-10,2,14939.0
07:46:33.015,RTL,-35.3635006,149.1654169,21372,-0.0040327939204871655,0.003070547478273511,2.6165874004364014,-0.24277597665786743,-0.03066354990005493,-0.0007399277528747916,0,2,-995,-240,-29,0,0,-10,2,14939.0
07:46:33.225,RTL,-35.3635008,149.1654172,21377,0.005290468689054251,0.008751838468015194,2.615379571914673,-0.34871670603752136,0.00809076614677906,0.0018407008610665798,0,-25,-998,-348,9,1,0,-8,0,14939.0
07:46:33.656,RTL,-35.3635009,149.1654172,21401,0.0006552457925863564,0.010581315495073795,2.6145219802856445,0.09164049476385117,0.002594458172097802,0.003429603762924671,0,10,-1031,94,4,3,0,-10,-9,14939.0
07:46:34.038,RTL,-35.363501,149.1654172,21436,0.006908651441335678,0.010929941199719906,2.613999366760254,0.4528106451034546,0.008601696230471134,0.00048006215365603566,0,16,-1040,454,10,0,0,-10,-16,14939.0
07:46:34.272,RTL,-35.3635011,149.1654171,21490,0.002719686133787036,0.010978396050632,2.6137242317199707,0.1260494738817215,0.00464512687176466,0.003241086145862937,0,-11,-1026,126,5,3,1,-10,-25,14939.0
07:46:34.475,RTL,-35.3635012,149.165417,21569,-0.00635620066896081,0.011374050751328468,2.613793134689331,-0.37886399030685425,-0.004110914655029774,0.000694966409355402,0,-20,-1048,-377,-2,0,2,-9,-35,14939.0
07:46:34.677,RTL,-35.3635012,149.165417,21569,-0.00635620066896081,0.011374050751328468,2.613793134689331,-0.37886399030685425,-0.004110914655029774,0.000694966409355402,0,-20,-1048,-377,-2,0,2,-9,-35,14939.0
07:46:34.880,RTL,-35.3635012,149.165417,21569,-0.00635620066896081,0.011374050751328468,2.613793134689331,-0.37886399030685425,-0.004110914655029774,0.000694966409355402,0,-20,-1048,-377,-2,0,2,-9,-35,14939.0
07:46:35.087,RTL,-35.3635012,149.165417,21569,-0.00635620066896081,0.011374050751328468,2.613793134689331,-0.37886399030685425,-0.004110914655029774,0.000694966409355402,0,-20,-1048,-377,-2,0,2,-9,-35,46970.0
07:46:35.289,RTL,-35.3635015,149.1654164,21978,-0.010202672332525253,0.010025261901319027,2.612457036972046,-0.06466758251190186,0.005095843691378832,-0.0034991526044905186,2,-8,-1045,-63,6,-3,5,-7,-70,46970.0
07:46:35.491,RTL,-35.3635017,149.1654162,22173,-0.015651466324925423,0.010610616765916348,2.6121842861175537,-0.08613339066505432,-0.003466344438493252,-0.004231252241879702,2,-6,-1044,-84,-1,-4,6,-6,-81,46970.0
07:46:35.693,RTL,-35.3635019,149.1654159,22396,-0.014797531068325043,0.009623507969081402,2.61187744140625,0.041052959859371185,-0.001407915260642767,-0.0022491696290671825,1,0,-1043,42,0,-2,7,-4,-92,46970.0
07:46:35.896,RTL,-35.3635019,149.1654157,22646,-0.01627965085208416,0.009079071693122387,2.6116702556610107,-0.010578177869319916,0.002093424554914236,-0.0031393414828926325,1,-2,-1043,-9,3,-3,9,-2,-103,46970.0
07:46:36.098,RTL,-35.3635019,149.1654157,22646,-0.01627965085208416,0.009079071693122387,2.6116702556610107,-0.010578177869319916,0.002093424554914236,-0.0031393414828926325,1,-2,-1043,-9,3,-3,9,-2,-103,46970.0
07:46:36.300,RTL,-35.3635019,149.1654156,22924,-0.016090797260403633,0.007947441190481186,2.611314296722412,-0.007849663496017456,-0.00348629686050117,-0.0023899090010672808,1,-1,-1044,-6,-1,-2,10,-1,-114,46970.0
07:46:36.502,RTL,-35.3635019,149.1654154,23229,-0.014711298979818821,0.00647143367677927,2.6111650466918945,0.0068721529096364975,-0.004790895152837038,-0.003218750935047865,1,0,-1043,8,-3,-3,11,0,-124,46970.0
07:46:36.704,RTL,-35.3635019,149.1654154,23229,-0.014711298979818821,0.00647143367677927,2.6111650466918945,0.0068721529096364975,-0.004790895152837038,-0.003218750935047865,1,0,-1043,8,-3,-3,11,0,-124,46970.0
07:46:36.906,RTL,-35.3635019,149.1654154,23229,-0.014711298979818821,0.00647143367677927,2.6111650466918945,0.0068721529096364975,-0.004790895152837038,-0.003218750935047865,1,0,-1043,8,-3,-3,11,0,-124,46970.0
07:46:37.108,RTL,-35.3635019,149.1654154,23229,-0.014711298979818821,0.00647143367677927,2.6111650466918945,0.0068721529096364975,-0.004790895152837038,-0.003218750935047865,1,0,-1043,8,-3,-3,11,0,-124,46970.0
07:46:37.310,RTL,-35.3635018,149.1654152,24294,0.005941942799836397,0.000933423696551472,2.6105332374572754,0.04807327315211296,-0.010850345715880394,7.270903734024614e-05,1,0,-1010,49,-9,0,10,0,-147,46970.0
07:46:37.512,RTL,-35.3635018,149.165415,24678,0.018318239599466324,-0.002153148176148534,2.6111233234405518,0.04686402902007103,-0.011196225881576538,0.0016407931689172983,1,0,-1004,48,-9,1,5,-3,-149,46970.0
07:46:37.714,RTL,-35.3635019,149.1654148,25063,0.030132697895169258,-0.005291281268000603,2.611865997314453,0.04510858282446861,-0.012063223868608475,0.0026188718620687723,1,-1,-1001,46,-10,2,0,-8,-149,46970.0
07:46:37.916,RTL,-35.3635021,149.1654143,25448,0.041363924741744995,-0.008713380433619022,2.612671375274658,0.04233430698513985,-0.013246464543044567,0.0033579575829207897,2,-3,-999,43,-11,3,-7,-15,-149,46970.0
07:46:38.118,RTL,-35.3635021,149.1654143,25448,0.041363924741744995,-0.008713380433619022,2.612671375274658,0.04233430698513985,-0.013246464543044567,0.0033579575829207897,2,-3,-999,43,-11,3,-7,-15,-149,46970.0
07:46:38.320,RTL,-35.3635025,149.1654137,25833,0.051229193806648254,-0.012088310904800892,2.612574815750122,0.022347284480929375,-0.004702898673713207,-0.023913461714982986,1,-5,-995,23,-2,-23,-17,-24,-149,46970.0
07:46:38.522,RTL,-35.3635031,149.1654129,26214,0.038051437586545944,0.0055349827744066715,2.5923655033111572,-0.09473276883363724,0.11271108686923981,-0.119701087474823,2,-8,-992,-93,114,-119,-25,-32,-147,46970.0
07:46:38.724,RTL,-35.3635031,149.1654129,26214,0.038051437586545944,0.0055349827744066715,2.5923655033111572,-0.09473276883363724,0.11271108686923981,-0.119701087474823,2,-8,-992,-93,114,-119,-25,-32,-147,46970.0
07:46:38.926,RTL,-35.3635031,149.1654129,26214,0.038051437586545944,0.0055349827744066715,2.5923655033111572,-0.09473276883363724,0.11271108686923981,-0.119701087474823,2,-8,-992,-93,114,-119,-25,-32,-147,46970.0
07:46:39.141,RTL,-35.3635031,149.1654129,26214,0.038051437586545944,0.0055349827744066715,2.5923655033111572,-0.09473276883363724,0.11271108686923981,-0.119701087474823,2,-8,-992,-93,114,-119,-25,-32,-147,46970.0
07:46:39.438,RTL,-35.3635049,149.1654096,27727,-0.06353673338890076,-0.005103204865008593,2.549999952316284,0.004402304068207741,-0.027377532795071602,-0.008724814280867577,2,-2,-1005,5,-25,-8,-2,-8,-150,46970.0
07:46:39.666,RTL,-35.363505,149.1654095,28113,-0.06342514604330063,-0.007209026720374823,2.5443873405456543,-0.032199468463659286,0.0271866824477911,-0.05277428403496742,0,-1,-996,-31,28,-52,3,5,-150,46970.0
07:46:39.902,RTL,-35.3635049,149.1654097,28498,-0.06605680286884308,0.0017594994278624654,2.5309925079345703,0.024751516059041023,0.024549158290028572,-0.03951767832040787,-1,2,-1002,25,26,-39,11,17,-149,46970.0
07:46:40.179,RTL,-35.3635047,149.1654102,28885,-0.05503120273351669,0.0032656085677444935,2.5230536460876465,0.052391283214092255,0.00036805844865739346,-0.025203784927725792,-3,5,-1001,53,2,-25,19,27,-149,46970.0
07:46:40.381,RTL,-35.3635047,149.1654102,28885,-0.05503120273351669,0.0032656085677444935,2.5230536460876465,0.052391283214092255,0.00036805844865739346,-0.025203784927725792,-3,5,-1001,53,2,-25,19,27,-149,46970.0
