time_stamp,MODE,lat,lon,relative_alt,roll,pitch,yaw,rollspeed,pitchspeed,yawspeed,xacc,yacc,zacc,xgyro,ygyro,zgyro,vx,vy,vz,RTL_ALT
12:21:47.843,STABILIZE,-35.3632621,149.1652374,0,0.00017903641855809838,0.0015291940653696656,0.0288748349994421,0.0001270991051569581,0.00021687697153538465,0.0023728765081614256,0,1,-1000,0,0,0,-1,1,0,1500.0
12:21:48.043,STABILIZE,-35.3632621,149.1652374,0,0.00017903641855809838,0.0015291940653696656,0.0288748349994421,0.0001270991051569581,0.00021687697153538465,0.0023728765081614256,0,1,-1000,0,0,0,-1,1,0,1500.0
12:21:48.244,STABILIZE,-35.3632621,149.1652374,0,0.00019947437976952642,0.0015903505263850093,0.028506584465503693,0.0001766901696100831,0.0002173610555473715,0.002407786902040243,0,1,-1000,0,0,0,-1,1,0,1500.0
12:21:48.445,STABILIZE,-35.3632621,149.1652374,0,0.00019947437976952642,0.0015903505263850093,0.028506584465503693,0.0001766901696100831,0.0002173610555473715,0.002407786902040243,0,1,-1000,0,0,0,-1,1,0,1500.0
12:21:48.646,STABILIZE,-35.3632621,149.1652374,0,0.00019947437976952642,0.0015903505263850093,0.028506584465503693,0.0001766901696100831,0.0002173610555473715,0.002407786902040243,0,1,-1000,0,0,0,-1,1,0,1500.0
12:21:48.847,STABILIZE,-35.3632621,149.1652374,0,0.00019947437976952642,0.0015903505263850093,0.028506584465503693,0.0001766901696100831,0.0002173610555473715,0.002407786902040243,0,1,-1000,0,0,0,-1,1,0,1500.0
12:21:49.048,STABILIZE,-35.3632621,149.1652374,0,0.00019947437976952642,0.0015903505263850093,0.028506584465503693,0.0001766901696100831,0.0002173610555473715,0.002407786902040243,0,1,-1000,0,0,0,-1,1,0,1500.0
12:21:49.248,STABILIZE,-35.3632621,149.1652374,0,0.00019947437976952642,0.0015903505263850093,0.028506584465503693,0.0001766901696100831,0.0002173610555473715,0.002407786902040243,0,1,-1000,0,0,0,-1,1,0,1500.0
12:21:49.449,STABILIZE,-35.3632621,149.1652374,0,0.00019947437976952642,0.0015903505263850093,0.028506584465503693,0.0001766901696100831,0.0002173610555473715,0.002407786902040243,0,1,-1000,0,0,0,-1,1,0,1500.0
12:21:49.650,STABILIZE,-35.3632621,149.1652374,0,0.00019947437976952642,0.0015903505263850093,0.028506584465503693,0.0001766901696100831,0.0002173610555473715,0.002407786902040243,0,1,-1000,0,0,0,-1,1,0,1500.0
12:21:49.851,STABILIZE,-35.3632622,149.1652375,0,4.114141847821884e-05,0.0014709954848513007,0.027424456551671028,0.0002271395642310381,0.0002409934822935611,0.0021531390957534313,0,1,-1000,0,0,0,-2,2,0,1500.0
12:21:50.052,STABILIZE,-35.3632622,149.1652375,0,-5.290702392812818e-05,0.0014334707520902157,0.027269938960671425,0.0002638357109390199,0.00027724503888748586,0.002236828440800309,0,1,-1000,0,0,0,-2,2,0,1500.0
12:21:50.253,STABILIZE,-35.3632622,149.1652375,0,-5.290702392812818e-05,0.0014334707520902157,0.027269938960671425,0.0002638357109390199,0.00027724503888748586,0.002236828440800309,0,1,-1000,0,0,0,-2,2,0,1500.0
12:21:50.455,STABILIZE,-35.3632622,149.1652375,0,-5.290702392812818e-05,0.0014334707520902157,0.027269938960671425,0.0002638357109390199,0.00027724503888748586,0.002236828440800309,0,1,-1000,0,0,0,-2,2,0,1500.0
12:21:50.656,STABILIZE,-35.3632622,149.1652375,0,-5.290702392812818e-05,0.0014334707520902157,0.027269938960671425,0.0002638357109390199,0.00027724503888748586,0.002236828440800309,0,1,-1000,0,0,0,-2,2,0,1500.0
12:21:50.857,STABILIZE,-35.3632622,149.1652375,0,-5.290702392812818e-05,0.0014334707520902157,0.027269938960671425,0.0002638357109390199,0.00027724503888748586,0.002236828440800309,0,1,-1000,0,0,0,-2,2,0,1500.0
12:21:51.058,STABILIZE,-35.3632622,149.1652375,0,-5.290702392812818e-05,0.0014334707520902157,0.027269938960671425,0.0002638357109390199,0.00027724503888748586,0.002236828440800309,0,1,-1000,0,0,0,-2,2,0,1500.0
12:21:51.260,STABILIZE,-35.3632622,149.1652375,0,-5.290702392812818e-05,0.0014334707520902157,0.027269938960671425,0.0002638357109390199,0.00027724503888748586,0.002236828440800309,0,1,-1000,0,0,0,-2,2,0,1500.0
12:21:51.461,STABILIZE,-35.3632622,149.1652375,0,-0.0005057404050603509,0.0011917640222236514,0.02653861604630947,0.00029655761318281293,0.00023803379735909402,0.0020276932045817375,0,1,-1000,0,0,0,-1,1,0,1500.0
12:21:51.662,STABILIZE,-35.3632622,149.1652375,0,-0.0005057404050603509,0.0011917640222236514,0.02653861604630947,0.00029655761318281293,0.00023803379735909402,0.0020276932045817375,0,1,-1000,0,0,0,-1,1,0,1500.0
12:21:51.863,STABILIZE,-35.3632622,149.1652375,0,-0.0006578490720130503,0.0010998762445524335,0.02631179802119732,0.0002639254671521485,0.00023903491091914475,0.0021456661634147167,0,1,-1000,0,0,1,-1,1,0,1500.0
12:21:52.064,STABILIZE,-35.3632622,149.1652375,0,-0.0006578490720130503,0.0010998762445524335,0.02631179802119732,0.0002639254671521485,0.00023903491091914475,0.0021456661634147167,0,1,-1000,0,0,1,-1,1,0,1500.0
12:21:52.269,STABILIZE,-35.3632622,149.1652375,0,-0.0007653066422790289,0.0010504021774977446,0.0260800588876009,0.00010831467807292938,0.0002820277586579323,0.0020087487064301968,0,1,-1000,0,0,1,-1,1,0,1500.0
12:21:52.470,STABILIZE,-35.3632622,149.1652375,0,-0.0007653066422790289,0.0010504021774977446,0.0260800588876009,0.00010831467807292938,0.0002820277586579323,0.0020087487064301968,0,1,-1000,0,0,1,-1,1,0,1500.0
12:21:52.672,STABILIZE,-35.3632622,149.1652375,0,-0.0007653066422790289,0.0010504021774977446,0.0260800588876009,0.00010831467807292938,0.0002820277586579323,0.0020087487064301968,0,1,-1000,0,0,1,-1,1,0,1500.0
12:21:52.873,STABILIZE,-35.3632622,149.1652375,0,-0.0007653066422790289,0.0010504021774977446,0.0260800588876009,0.00010831467807292938,0.0002820277586579323,0.0020087487064301968,0,1,-1000,0,0,1,-1,1,0,1500.0
12:21:53.074,STABILIZE,-35.3632621,149.1652375,0,-0.0005724042421206832,0.0009929290972650051,0.02575894445180893,0.00021220120834186673,0.00032148382160812616,0.0017554110381752253,0,1,-1000,0,0,0,-1,2,1,1500.0
12:21:53.275,STABILIZE,-35.3632621,149.1652375,0,-0.0005724042421206832,0.0009929290972650051,0.02575894445180893,0.00021220120834186673,0.00032148382160812616,0.0017554110381752253,0,1,-1000,0,0,0,-1,2,1,1500.0
12:21:53.476,STABILIZE,-35.3632621,149.1652375,0,-0.0005724042421206832,0.0009929290972650051,0.02575894445180893,0.00021220120834186673,0.00032148382160812616,0.0017554110381752253,0,1,-1000,0,0,0,-1,2,1,1500.0
12:21:53.678,STABILIZE,-35.3632621,149.1652375,0,-0.0005724042421206832,0.0009929290972650051,0.02575894445180893,0.00021220120834186673,0.00032148382160812616,0.0017554110381752253,0,1,-1000,0,0,0,-1,2,1,1500.0
12:21:53.879,STABILIZE,-35.3632621,149.1652375,0,-0.0005724042421206832,0.0009929290972650051,0.02575894445180893,0.00021220120834186673,0.00032148382160812616,0.0017554110381752253,0,1,-1000,0,0,0,-1,2,1,1500.0
12:21:54.080,STABILIZE,-35.3632621,149.1652375,0,-0.0007992418832145631,0.0009567996603436768,0.025347238406538963,0.00021733116591349244,0.00017802944057621062,0.0018453102093189955,0,1,-1000,0,0,0,-1,1,0,1500.0
12:21:54.282,STABILIZE,-35.3632621,149.1652375,0,-0.0008447435684502125,0.0009515781421214342,0.025253864005208015,0.0001415837905369699,0.00015838205581530929,0.0019246875308454037,0,1,-1000,0,0,0,-1,1,0,1500.0
12:21:54.483,STABILIZE,-35.3632621,149.1652375,0,-0.0008447435684502125,0.0009515781421214342,0.025253864005208015,0.0001415837905369699,0.00015838205581530929,0.0019246875308454037,0,1,-1000,0,0,0,-1,1,0,1500.0
12:21:54.684,STABILIZE,-35.3632621,149.1652375,0,-0.0008447435684502125,0.0009515781421214342,0.025253864005208015,0.0001415837905369699,0.00015838205581530929,0.0019246875308454037,0,1,-1000,0,0,0,-1,1,0,1500.0
12:21:54.885,STABILIZE,-35.3632621,149.1652375,0,-0.0008447435684502125,0.0009515781421214342,0.025253864005208015,0.0001415837905369699,0.00015838205581530929,0.0019246875308454037,0,1,-1000,0,0,0,-1,1,0,1500.0
12:21:55.087,STABILIZE,-35.3632621,149.1652375,0,-0.0009725813870318234,0.0009420973947271705,0.024992357939481735,0.00018817384261637926,0.0003134360013063997,0.00190118164755404,0,1,-1000,0,0,0,-1,1,0,1500.0
12:21:55.288,STABILIZE,-35.3632621,149.1652375,0,-0.0009969769744202495,0.0009344129939563572,0.024892549961805344,0.00016427680384367704,0.00020388502161949873,0.0017348366091027856,0,1,-1000,0,0,0,-1,1,0,1500.0
12:21:55.489,STABILIZE,-35.3632621,149.1652375,0,-0.0009969769744202495,0.0009344129939563572,0.024892549961805344,0.00016427680384367704,0.00020388502161949873,0.0017348366091027856,0,1,-1000,0,0,0,-1,1,0,1500.0
12:21:55.691,STABILIZE,-35.3632621,149.1652375,0,-0.0010263754520565271,0.0009361094562336802,0.024812718853354454,0.00020114693325012922,0.00023746868828311563,0.0018345501739531755,0,1,-1000,0,0,0,-1,1,0,1500.0
12:21:55.892,STABILIZE,-35.3632621,149.1652375,0,-0.00104850297793746,0.0009365624864585698,0.024738993495702744,0.0001479503116570413,0.0002780576469376683,0.0018087535863742232,0,1,-1000,1,0,0,-1,1,0,1500.0
12:21:56.093,STABILIZE,-35.3632621,149.1652375,0,-0.0010625645518302917,0.0009323370759375393,0.024649692699313164,0.0003638208145275712,0.0003146433155052364,0.0019353555981069803,0,1,-1000,0,1,1,-1,1,0,1500.0
12:21:56.295,STABILIZE,-35.3632621,149.1652375,0,-0.0010625645518302917,0.0009323370759375393,0.024649692699313164,0.0003638208145275712,0.0003146433155052364,0.0019353555981069803,0,60,-912,11,0,0,-1,1,0,1500.0
12:21:56.496,STABILIZE,-35.3632621,149.1652375,0,-0.0010625645518302917,0.0009323370759375393,0.024649692699313164,0.0003638208145275712,0.0003146433155052364,0.0019353555981069803,0,60,-912,11,0,0,-1,1,0,1500.0
12:21:56.697,STABILIZE,-35.3632621,149.1652375,0,-0.0010625645518302917,0.0009323370759375393,0.024649692699313164,0.0003638208145275712,0.0003146433155052364,0.0019353555981069803,0,60,-912,11,0,0,-1,1,0,1500.0
12:21:56.899,STABILIZE,-35.3632621,149.1652375,0,-0.0010625645518302917,0.0009323370759375393,0.024649692699313164,0.0003638208145275712,0.0003146433155052364,0.0019353555981069803,0,60,-912,11,0,0,-1,1,0,1500.0
12:21:57.101,STABILIZE,-35.3632621,149.1652375,0,-0.0008986673201434314,0.0009370467741973698,0.024291865527629852,0.0002522710128687322,0.00029824813827872276,0.0018731100717559457,0,1,-1000,1,1,0,-1,2,2,1500.0
12:21:57.302,STABILIZE,-35.3632622,149.1652375,0,-0.0008986673201434314,0.0009370467741973698,0.024291865527629852,0.0002522710128687322,0.00029824813827872276,0.0018731100717559457,0,1,-1000,0,0,0,-1,2,2,1500.0
12:21:57.504,STABILIZE,-35.3632622,149.1652375,0,-0.0008986673201434314,0.0009370467741973698,0.024291865527629852,0.0002522710128687322,0.00029824813827872276,0.0018731100717559457,0,1,-1000,0,0,0,-1,2,2,1500.0
12:21:57.705,STABILIZE,-35.3632622,149.1652375,0,-0.0008986673201434314,0.0009370467741973698,0.024291865527629852,0.0002522710128687322,0.00029824813827872276,0.0018731100717559457,0,1,-1000,0,0,0,-1,2,2,1500.0
12:21:57.906,STABILIZE,-35.3632621,149.1652375,0,-0.0008986673201434314,0.0009370467741973698,0.024291865527629852,0.0002522710128687322,0.00029824813827872276,0.0018731100717559457,0,2,-1000,0,0,0,-1,1,1,1500.0
12:21:58.108,STABILIZE,-35.3632621,149.1652375,0,-0.0008986673201434314,0.0009370467741973698,0.024291865527629852,0.0002522710128687322,0.00029824813827872276,0.0018731100717559457,0,1,-1000,0,0,0,-1,1,1,1500.0
12:21:58.309,STABILIZE,-35.3632622,149.1652375,0,-0.0008986673201434314,0.0009370467741973698,0.024291865527629852,0.0002522710128687322,0.00029824813827872276,0.0018731100717559457,0,1,-1000,0,0,0,-1,1,1,1500.0
12:21:58.511,STABILIZE,-35.3632622,149.1652375,0,-0.0008986673201434314,0.0009370467741973698,0.024291865527629852,0.0002522710128687322,0.00029824813827872276,0.0018731100717559457,0,1,-1000,0,0,0,-1,1,1,1500.0
12:21:58.712,STABILIZE,-35.3632622,149.1652375,0,-0.0008986673201434314,0.0009370467741973698,0.024291865527629852,0.0002522710128687322,0.00029824813827872276,0.0018731100717559457,0,1,-1000,0,0,0,-1,1,1,1500.0
12:21:58.914,STABILIZE,-35.3632622,149.1652375,0,-0.0008986673201434314,0.0009370467741973698,0.024291865527629852,0.0002522710128687322,0.00029824813827872276,0.0018731100717559457,0,1,-1000,0,0,0,-1,1,1,1500.0
12:21:59.116,STABILIZE,-35.3632622,149.1652375,0,-0.0013109627179801464,0.0009582892525941133,0.023714661598205566,0.0002653311821632087,0.00034072244307026267,0.001720304018817842,0,1,-1000,0,0,0,-1,1,0,1500.0
12:21:59.318,STABILIZE,-35.3632622,149.1652375,0,-0.0013520587235689163,0.0009669730206951499,0.023651091381907463,6.540713366121054e-05,0.0002929758629761636,0.0015900463331490755,0,1,-1000,0,0,0,-1,1,0,1500.0
12:21:59.519,STABILIZE,-35.3632622,149.1652375,0,-0.0013686706079170108,0.0009661040385253727,0.023584667593240738,0.000383088830858469,0.00029673962853848934,0.0016442943597212434,0,2,-1000,0,0,0,-1,0,0,1500.0
12:21:59.720,STABILIZE,-35.3632622,149.1652375,0,-0.0013686706079170108,0.0009661040385253727,0.023584667593240738,0.000383088830858469,0.00029673962853848934,0.0016442943597212434,0,2,-1000,0,0,0,-1,0,0,1500.0
12:21:59.922,STABILIZE,-35.3632622,149.1652375,0,-0.0013686706079170108,0.0009661040385253727,0.023584667593240738,0.000383088830858469,0.00029673962853848934,0.0016442943597212434,0,2,-1000,0,0,0,-1,0,0,1500.0
12:22:00.123,STABILIZE,-35.3632622,149.1652375,0,-0.0013686706079170108,0.0009661040385253727,0.023584667593240738,0.000383088830858469,0.00029673962853848934,0.0016442943597212434,0,1,-1000,0,1,1,-1,0,0,1500.0
12:22:00.324,STABILIZE,-35.3632622,149.1652375,0,-0.0013686706079170108,0.0009661040385253727,0.023584667593240738,0.000383088830858469,0.00029673962853848934,0.0016442943597212434,0,1,-1000,0,1,0,-1,2,2,1500.0
12:22:00.530,STABILIZE,-35.3632622,149.1652375,0,-0.0013686706079170108,0.0009661040385253727,0.023584667593240738,0.000383088830858469,0.00029673962853848934,0.0016442943597212434,0,1,-1000,0,1,0,-1,2,2,1500.0
12:22:00.734,STABILIZE,-35.3632622,149.1652375,0,-0.0013686706079170108,0.0009661040385253727,0.023584667593240738,0.000383088830858469,0.00029673962853848934,0.0016442943597212434,0,1,-1000,0,1,0,-1,2,2,1500.0
12:22:00.936,STABILIZE,-35.3632622,149.1652375,0,-0.0013686706079170108,0.0009661040385253727,0.023584667593240738,0.000383088830858469,0.00029673962853848934,0.0016442943597212434,0,1,-1000,0,1,0,-1,2,2,1500.0
12:22:01.138,STABILIZE,-35.3632622,149.1652375,0,-0.0013686706079170108,0.0009661040385253727,0.023584667593240738,0.000383088830858469,0.00029673962853848934,0.0016442943597212434,0,1,-1000,0,1,0,-1,2,2,1500.0
12:22:01.339,STABILIZE,-35.3632622,149.1652375,0,-0.00139261141885072,0.0009649670100770891,0.023173170164227486,0.00024005328305065632,0.0003137773019261658,0.0017072561895474792,0,1,-1000,1,0,1,-1,1,1,1500.0
12:22:01.540,STABILIZE,-35.3632622,149.1652375,0,-0.00139261141885072,0.0009649670100770891,0.023173170164227486,0.00024005328305065632,0.0003137773019261658,0.0017072561895474792,0,1,-1000,0,0,1,-1,1,1,1500.0
12:22:01.742,STABILIZE,-35.3632622,149.1652375,0,-0.00139261141885072,0.0009649670100770891,0.023173170164227486,0.00024005328305065632,0.0003137773019261658,0.0017072561895474792,0,1,-1000,0,0,1,-1,1,1,1500.0
12:22:01.943,STABILIZE,-35.3632622,149.1652375,0,-0.00139261141885072,0.0009649670100770891,0.023173170164227486,0.00024005328305065632,0.0003137773019261658,0.0017072561895474792,0,1,-1000,0,0,1,-1,1,1,1500.0
12:22:02.145,STABILIZE,-35.3632622,149.1652375,0,-0.0014729334507137537,0.0009597092866897583,0.02303336374461651,0.0002030360046774149,0.00018767319852486253,0.0016153546748682857,0,1,-1000,0,0,0,-1,1,0,1500.0
12:22:02.347,STABILIZE,-35.3632622,149.1652375,0,-0.0014729334507137537,0.0009597092866897583,0.02303336374461651,0.0002030360046774149,0.00018767319852486253,0.0016153546748682857,0,1,-1000,0,0,0,-1,1,0,1500.0
12:22:02.550,AUTO,-35.3632622,149.1652375,0,-0.0014729334507137537,0.0009597092866897583,0.02303336374461651,0.0002030360046774149,0.00018767319852486253,0.0016153546748682857,0,1,-1000,0,0,0,-1,1,0,1500.0
12:22:02.751,AUTO,-35.3632622,149.1652375,0,-0.0014729334507137537,0.0009597092866897583,0.02303336374461651,0.0002030360046774149,0.00018767319852486253,0.0016153546748682857,0,1,-1000,0,0,0,-1,1,0,1500.0
12:22:02.953,AUTO,-35.3632622,149.1652375,0,-0.0014729334507137537,0.0009597092866897583,0.02303336374461651,0.0002030360046774149,0.00018767319852486253,0.0016153546748682857,0,1,-1000,0,0,0,-1,1,0,1500.0
12:22:03.155,AUTO,-35.3632622,149.1652375,9,-0.0015022665029391646,0.000978115713223815,0.022858716547489166,0.00038111605681478977,0.0004212094936519861,0.0015660480130463839,0,1,-1000,0,0,0,-1,0,0,225905.0
12:22:03.356,AUTO,-35.3632621,149.1652375,8,-0.0011840767692774534,0.0009924947516992688,0.022833140566945076,0.0001917981426231563,0.00020590669009834528,0.0015252302400767803,0,0,-1002,0,1,0,-1,1,1,225905.0
12:22:03.558,AUTO,-35.3632621,149.1652375,5,-0.0011717978632077575,0.0010212103370577097,0.02277958206832409,8.42012232169509e-05,0.00036032957723364234,0.0013747303746640682,0,2,-1000,1,0,0,0,1,1,225905.0
12:22:03.759,AUTO,-35.3632621,149.1652375,5,-0.0011717978632077575,0.0010212103370577097,0.02277958206832409,8.42012232169509e-05,0.00036032957723364234,0.0013747303746640682,0,2,-1000,1,0,0,0,1,1,225905.0
12:22:03.961,AUTO,-35.3632621,149.1652375,4,-0.0011643399484455585,0.0010558017529547215,0.02272919751703739,0.00025940401246771216,0.00025671609910205007,0.0015972019173204899,0,2,-1000,1,0,1,0,0,1,225905.0
12:22:04.162,AUTO,-35.3632621,149.1652375,3,-0.0011378973722457886,0.0011008502915501595,0.02268175780773163,0.00016589165898039937,0.00024408689932897687,0.0016432381235063076,0,2,-1000,0,0,0,0,0,0,225905.0
12:22:04.364,AUTO,-35.3632621,149.1652375,3,-0.0011079412652179599,0.001156481564976275,0.022621648386120796,0.00036225077928975224,0.00023857789346948266,0.0016200372483581305,0,1,-1000,0,0,0,0,0,0,225905.0
12:22:04.566,AUTO,-35.3632621,149.1652375,3,-0.0011079412652179599,0.001156481564976275,0.022621648386120796,0.00036225077928975224,0.00023857789346948266,0.0016200372483581305,0,1,-1000,0,0,0,0,0,0,225905.0
12:22:04.768,AUTO,-35.3632621,149.1652375,3,-0.0011079412652179599,0.001156481564976275,0.022621648386120796,0.00036225077928975224,0.00023857789346948266,0.0016200372483581305,0,1,-1000,0,0,0,0,0,0,225905.0
12:22:04.969,AUTO,-35.3632621,149.1652375,3,-0.0011079412652179599,0.001156481564976275,0.022621648386120796,0.00036225077928975224,0.00023857789346948266,0.0016200372483581305,0,1,-1000,0,0,0,0,0,0,225905.0
12:22:05.171,AUTO,-35.3632621,149.1652375,5,-0.0009758561500348151,0.0013661745470017195,0.022475501522421837,0.00032425200333818793,0.00022274459479376674,0.0014825129183009267,0,2,-1000,0,0,0,0,0,0,225905.0
12:22:05.372,AUTO,-35.3632621,149.1652375,6,-0.0009292815229855478,0.0014415326295420527,0.02240150049328804,0.00028099765768274665,0.0002983378362841904,0.001498701749369502,0,2,-1000,1,0,0,0,0,0,225905.0
12:22:05.574,AUTO,-35.3632621,149.1652374,7,-0.0008780236239545047,0.0015154883731156588,0.022337567061185837,0.0002084969892166555,0.00032364059006795287,0.0014723213389515877,0,1,-1000,0,0,0,0,0,0,225905.0
12:22:05.775,AUTO,-35.3632621,149.1652374,8,-0.000820632092654705,0.001587579259648919,0.02228236012160778,0.00020598253468051553,0.0002649646485224366,0.0014334993902593851,0,1,-1000,1,0,0,0,0,0,225905.0
12:22:05.977,AUTO,-35.3632621,149.1652374,8,-0.000820632092654705,0.001587579259648919,0.02228236012160778,0.00020598253468051553,0.0002649646485224366,0.0014334993902593851,0,1,-1000,1,0,0,0,0,0,225905.0
12:22:06.179,AUTO,-35.3632621,149.1652374,9,-0.000761401082854718,0.001659669796936214,0.022198667749762535,0.00024899072013795376,0.0003257805365137756,0.0014198599383234978,0,2,-1000,1,0,0,0,0,0,225905.0
12:22:06.381,AUTO,-35.3632621,149.1652374,10,-0.0006993308197706938,0.0017331845592707396,0.022127587348222733,0.0002802621456794441,0.0002746585523709655,0.0014454401098191738,0,1,-1000,1,1,0,0,0,0,225905.0
12:22:06.582,AUTO,-35.3632621,149.1652374,10,-0.0006993308197706938,0.0017331845592707396,0.022127587348222733,0.0002802621456794441,0.0002746585523709655,0.0014454401098191738,0,1,-1000,1,1,0,0,0,0,225905.0
12:22:06.784,AUTO,-35.3632621,149.1652374,10,-0.0006993308197706938,0.0017331845592707396,0.022127587348222733,0.0002802621456794441,0.0002746585523709655,0.0014454401098191738,0,1,-1000,1,1,0,0,0,0,225905.0
12:22:06.986,AUTO,-35.3632621,149.1652374,10,-0.0006993308197706938,0.0017331845592707396,0.022127587348222733,0.0002802621456794441,0.0002746585523709655,0.0014454401098191738,0,1,-1000,1,1,0,0,0,0,225905.0
12:22:07.188,AUTO,-35.3632621,149.1652375,240,0.002676327945664525,0.00039026254671625793,0.022049175575375557,-0.011915089562535286,0.005090822000056505,6.252329330891371e-05,0,0,-1126,-11,5,0,0,0,-77,200.0
12:22:07.389,AUTO,-35.3632621,149.1652375,470,0.0015194837469607592,0.0012654465390369296,0.02195928432047367,0.003606061451137066,0.0023423414677381516,0.001570337451994419,0,0,-1105,4,2,1,0,1,-106,200.0
12:22:07.590,AUTO,-35.3632621,149.1652375,766,0.0018337846267968416,0.0016856174916028976,0.021644262596964836,0.019760144874453545,-0.0010369878727942705,-0.0008982917061075568,0,0,-1080,20,0,-1,0,0,-128,200.0
12:22:07.792,AUTO,-35.3632621,149.1652375,1114,0.01234459225088358,0.00047325255582109094,0.021309617906808853,0.04741194471716881,-0.006731115747243166,0.0011535587254911661,0,0,-1035,48,-6,0,0,2,-141,200.0
12:22:07.993,AUTO,-35.3632621,149.1652375,1114,0.01234459225088358,0.00047325255582109094,0.021309617906808853,0.04741194471716881,-0.006731115747243166,0.0011535587254911661,0,0,-1035,48,-6,0,0,2,-141,200.0
12:22:08.195,AUTO,-35.363262,149.1652375,1485,0.024125251919031143,-0.0013197649968788028,0.02125363051891327,0.046492330729961395,-0.007344706449657679,0.0021983275655657053,0,0,-1015,47,-7,1,1,6,-147,200.0
12:22:08.397,AUTO,-35.363262,149.1652378,1866,0.03542846813797951,-0.003315169829875231,0.021361051127314568,0.0449754074215889,-0.008154059760272503,0.002841497538611293,0,-1,-1006,45,-7,2,2,12,-149,200.0
12:22:08.599,AUTO,-35.363262,149.1652378,1866,0.03542846813797951,-0.003315169829875231,0.021361051127314568,0.0449754074215889,-0.008154059760272503,0.002841497538611293,0,-1,-1006,45,-7,2,2,12,-149,200.0
12:22:08.800,AUTO,-35.363262,149.1652378,1866,0.03542846813797951,-0.003315169829875231,0.021361051127314568,0.0449754074215889,-0.008154059760272503,0.002841497538611293,0,-1,-1006,45,-7,2,2,12,-149,200.0
12:22:09.002,AUTO,-35.363262,149.1652378,1866,0.03542846813797951,-0.003315169829875231,0.021361051127314568,0.0449754074215889,-0.008154059760272503,0.002841497538611293,0,-1,-1006,45,-7,2,2,12,-149,200.0
12:22:09.204,AUTO,-35.3632616,149.16524,3016,0.060250066220760345,-0.007530144415795803,-0.01049602497369051,-0.03710396960377693,0.044591449201107025,-0.06685825437307358,1,-9,-991,-36,45,-67,9,45,-149,200.0
12:22:09.405,AUTO,-35.3632613,149.1652413,3397,0.03424040973186493,0.016860458999872208,-0.034615639597177505,-0.16087131202220917,0.08622515201568604,-0.09825567901134491,2,-10,-991,-160,86,-98,9,54,-146,200.0
12:22:09.607,AUTO,-35.3632611,149.1652427,3773,-0.009075244888663292,0.023904528468847275,-0.053634028881788254,-0.13540415465831757,-0.0024033605586737394,-0.07017263770103455,4,-13,-1009,-134,-1,-70,5,53,-146,200.0
12:22:09.809,AUTO,-35.363261,149.1652441,4153,-0.02916974574327469,0.020439105108380318,-0.06790672987699509,-0.04653170704841614,-0.013392940163612366,-0.05811182036995888,5,-10,-1010,-45,-12,-58,2,44,-149,200.0
12:22:10.011,AUTO,-35.363261,149.1652441,4153,-0.02916974574327469,0.020439105108380318,-0.06790672987699509,-0.04653170704841614,-0.013392940163612366,-0.05811182036995888,5,-10,-1010,-45,-12,-58,2,44,-149,200.0
12:22:10.213,AUTO,-35.3632609,149.1652451,4538,-0.03730592504143715,0.016188614070415497,-0.07947716116905212,-0.03488386794924736,-0.014558494091033936,-0.043998926877975464,5,-9,-1004,-34,-13,-44,0,34,-151,200.0
12:22:10.416,AUTO,-35.3632609,149.1652459,4933,-0.05092514306306839,0.008834234438836575,-0.08586589246988297,-0.06910257041454315,-0.036598123610019684,-0.01613752171397209,4,-5,-999,-68,-36,-16,-3,21,-151,200.0
12:22:10.618,AUTO,-35.3632609,149.1652459,4933,-0.05092514306306839,0.008834234438836575,-0.08586589246988297,-0.06910257041454315,-0.036598123610019684,-0.01613752171397209,4,-5,-999,-68,-36,-16,-3,21,-151,200.0
12:22:10.819,AUTO,-35.3632609,149.1652459,4933,-0.05092514306306839,0.008834234438836575,-0.08586589246988297,-0.06910257041454315,-0.036598123610019684,-0.01613752171397209,4,-5,-999,-68,-36,-16,-3,21,-151,200.0
12:22:11.021,AUTO,-35.3632609,149.1652459,4933,-0.05092514306306839,0.008834234438836575,-0.08586589246988297,-0.06910257041454315,-0.036598123610019684,-0.01613752171397209,4,-5,-999,-68,-36,-16,-3,21,-151,200.0
12:22:11.233,AUTO,-35.3632611,149.1652456,6080,-0.06530869007110596,-0.00876588188111782,-0.08899606019258499,0.05209250748157501,-0.0020641651935875416,-0.005080363247543573,-2,5,-1002,52,-1,-5,-2,-30,-151,269752.0
12:22:11.435,AUTO,-35.3632611,149.1652447,6466,-0.05148627981543541,-0.008723685517907143,-0.09071672707796097,0.05781835690140724,0.0026404608506709337,-0.0023311579134315252,-4,7,-1001,58,3,-2,-2,-44,-151,269752.0
12:22:11.637,AUTO,-35.3632612,149.1652433,6850,-0.03640950843691826,-0.007267697714269161,-0.09204299747943878,0.06235259771347046,0.008340262807905674,-0.0005253865383565426,-6,12,-1001,62,8,0,-1,-53,-151,269752.0
12:22:11.840,AUTO,-35.3632612,149.1652418,7235,-0.02070596255362034,-0.004683414474129677,-0.09260756522417068,0.06472989171743393,0.011724986135959625,0.0012169621186330914,-6,8,-1002,65,12,0,-2,-58,-151,269752.0
12:22:12.043,AUTO,-35.3632613,149.1652401,7623,-0.004469222854822874,-0.0014088019961491227,-0.09262068569660187,0.06427930295467377,0.01338741835206747,0.0022181335370987654,-8,13,-1003,65,14,1,-3,-59,-152,269752.0
12:22:12.247,AUTO,-35.3632613,149.1652401,7623,-0.004469222854822874,-0.0014088019961491227,-0.09262068569660187,0.06427930295467377,0.01338741835206747,0.0022181335370987654,-8,13,-1003,65,14,1,-3,-59,-152,269752.0
12:22:12.449,AUTO,-35.3632614,149.1652385,8012,0.011998943984508514,0.0020456670317798853,-0.09214852005243301,0.06609692424535751,0.013637044467031956,0.002994077280163765,-7,12,-1004,66,14,2,-4,-55,-153,269752.0
12:22:12.652,AUTO,-35.3632614,149.1652385,8012,0.011998943984508514,0.0020456670317798853,-0.09214852005243301,0.06609692424535751,0.013637044467031956,0.002994077280163765,-7,12,-1004,66,14,2,-4,-55,-153,269752.0
12:22:12.854,AUTO,-35.3632614,149.1652385,8012,0.011998943984508514,0.0020456670317798853,-0.09214852005243301,0.06609692424535751,0.013637044467031956,0.002994077280163765,-7,12,-1004,66,14,2,-4,-55,-153,269752.0
12:22:13.056,AUTO,-35.3632618,149.1652349,9191,0.059448838233947754,0.009087576530873775,-0.08902889490127563,0.06000626087188721,0.003509547095745802,0.004355020821094513,-2,7,-1002,60,3,4,-8,-23,-155,269752.0
12:22:13.257,AUTO,-35.3632618,149.1652349,9191,0.059448838233947754,0.009087576530873775,-0.08902889490127563,0.06000626087188721,0.003509547095745802,0.004355020821094513,-2,7,-1002,60,3,4,-8,-23,-155,269752.0
12:22:13.459,AUTO,-35.363262,149.1652344,9593,0.06715761870145798,0.0057932185009121895,-0.08474329113960266,-0.021056316792964935,-0.028003208339214325,0.025352194905281067,-1,4,-993,-20,-27,24,-9,-6,-154,269752.0
12:22:13.661,AUTO,-35.3632622,149.1652343,9981,0.05119704455137253,-0.00039997458225116134,-0.08011923730373383,-0.08720480650663376,-0.017460620030760765,0.014843607321381569,0,2,-993,-86,-16,14,-7,8,-152,269752.0
12:22:13.863,AUTO,-35.3632623,149.1652346,10366,0.029010046273469925,-0.0034682343248277903,-0.07858976721763611,-0.08519577234983444,-0.007097060792148113,-0.0003704800910782069,2,-1,-998,-84,-6,0,-5,16,-150,269752.0
12:22:14.065,AUTO,-35.3632624,149.165235,10749,0.010110710747539997,-0.004515492357313633,-0.08021945506334305,-0.0641431212425232,-0.002808082615956664,-0.008224460296332836,3,-3,-1002,-63,-2,-8,-3,19,-151,269752.0
12:22:14.266,AUTO,-35.3632624,149.165235,10749,0.010110710747539997,-0.004515492357313633,-0.08021945506334305,-0.0641431212425232,-0.002808082615956664,-0.008224460296332836,3,-3,-1002,-63,-2,-8,-3,19,-151,269752.0
12:22:14.468,AUTO,-35.3632625,149.1652354,11133,-0.0031260927207767963,-0.004730910528451204,-0.08425243198871613,-0.042307768017053604,-8.80336738191545e-05,-0.01690986193716526,2,-3,-1003,-41,0,-17,0,18,-151,269752.0
12:22:14.670,AUTO,-35.3632625,149.1652354,11133,-0.0031260927207767963,-0.004730910528451204,-0.08425243198871613,-0.042307768017053604,-8.80336738191545e-05,-0.01690986193716526,2,-3,-1003,-41,0,-17,0,18,-151,269752.0
12:22:14.871,AUTO,-35.3632625,149.1652354,11133,-0.0031260927207767963,-0.004730910528451204,-0.08425243198871613,-0.042307768017053604,-8.80336738191545e-05,-0.01690986193716526,2,-3,-1003,-41,0,-17,0,18,-151,269752.0
12:22:15.073,AUTO,-35.3632624,149.1652363,12293,-0.014218360185623169,-0.003178801154717803,-0.10365559160709381,0.006488726008683443,0.006223895121365786,-0.028614262118935585,0,-1,-1002,7,6,-29,3,5,-153,269752.0
12:22:15.276,AUTO,-35.3632623,149.1652364,12683,-0.011752832680940628,-0.001956275897100568,-0.11073818057775497,0.012296714819967747,0.005779305938631296,-0.025572406128048897,0,-1,-1001,12,6,-25,4,1,-153,200.0
12:22:15.478,AUTO,-35.3632623,149.1652364,12683,-0.011752832680940628,-0.001956275897100568,-0.11073818057775497,0.012296714819967747,0.005779305938631296,-0.025572406128048897,0,-1,-1001,12,6,-25,4,1,-153,200.0
12:22:15.680,AUTO,-35.3632622,149.1652364,13073,-0.008073192089796066,-0.0007732136291451752,-0.11731275171041489,0.016229018568992615,0.004733647219836712,-0.023261532187461853,-1,0,-1000,16,5,-23,4,-1,-153,200.0
12:22:15.882,AUTO,-35.3632621,149.1652363,13462,-0.004154471680521965,0.0005490168114192784,-0.12355590611696243,0.016171088442206383,0.006792315281927586,-0.0222579687833786,-2,0,-1000,16,7,-22,4,-4,-153,200.0
12:22:16.084,AUTO,-35.363262,149.1652362,13852,-0.0004502906813286245,0.0022380317095667124,-0.1295662224292755,0.013142886571586132,0.007869832217693329,-0.022119848057627678,-2,0,-1000,14,8,-22,4,-5,-154,200.0
12:22:16.286,AUTO,-35.3632619,149.165236,14247,0.0028347503393888474,0.0038437407929450274,-0.1351260244846344,0.01108501385897398,0.006656518206000328,-0.019553858786821365,-2,0,-999,11,7,-20,3,-5,-154,200.0
12:22:16.487,AUTO,-35.3632619,149.165236,14247,0.0028347503393888474,0.0038437407929450274,-0.1351260244846344,0.01108501385897398,0.006656518206000328,-0.019553858786821365,-2,0,-999,11,7,-20,3,-5,-154,200.0
12:22:16.689,AUTO,-35.3632619,149.165236,14247,0.0028347503393888474,0.0038437407929450274,-0.1351260244846344,0.01108501385897398,0.006656518206000328,-0.019553858786821365,-2,0,-999,11,7,-20,3,-5,-154,200.0
12:22:16.891,AUTO,-35.3632619,149.165236,14247,0.0028347503393888474,0.0038437407929450274,-0.1351260244846344,0.01108501385897398,0.006656518206000328,-0.019553858786821365,-2,0,-999,11,7,-20,3,-5,-154,200.0
12:22:17.092,AUTO,-35.3632617,149.1652355,15412,0.00841036718338728,0.006733928341418505,-0.14888155460357666,0.004534863866865635,0.002742575481534004,-0.01621854305267334,-1,0,-1000,5,3,-16,0,-2,-154,200.0
12:22:17.294,AUTO,-35.3632616,149.1652355,15802,0.008994443342089653,0.006864992436021566,-0.15241669118404388,0.00014069984899833798,0.0007665173034183681,-0.012534189969301224,0,0,-1000,0,1,-13,0,0,-153,200.0
12:22:17.495,AUTO,-35.3632616,149.1652355,15802,0.008994443342089653,0.006864992436021566,-0.15241669118404388,0.00014069984899833798,0.0007665173034183681,-0.012534189969301224,0,0,-1000,0,1,-13,0,0,-153,200.0
12:22:17.697,AUTO,-35.3632616,149.1652354,16192,0.008785027079284191,0.006722533609718084,-0.15573851764202118,-0.0007399205933324993,-0.0009641607757657766,-0.013488796539604664,0,0,-1000,0,0,-13,-1,1,-153,200.0
12:22:17.899,AUTO,-35.3632616,149.1652354,16581,0.008332825265824795,0.0061738016083836555,-0.15877510607242584,-0.0011119056725874543,-0.0026524835266172886,-0.013150320388376713,0,0,-1000,0,-1,-13,-1,2,-153,200.0
12:22:18.100,AUTO,-35.3632616,149.1652354,16970,0.007692540530115366,0.005669627338647842,-0.1619306355714798,-0.0022411379031836987,-0.0009809951297938824,-0.012601626105606556,0,0,-1000,-1,0,-13,-2,4,-153,200.0
12:22:18.302,AUTO,-35.3632616,149.1652354,17359,0.006793268024921417,0.005312378518283367,-0.1653691679239273,-0.004877031780779362,-0.0008117050747387111,-0.014156980440020561,0,0,-1000,-4,0,-14,-2,5,-153,200.0
12:22:18.504,AUTO,-35.3632616,149.1652354,17359,0.006793268024921417,0.005312378518283367,-0.1653691679239273,-0.004877031780779362,-0.0008117050747387111,-0.014156980440020561,0,0,-1000,-4,0,-14,-2,5,-153,200.0
12:22:18.705,AUTO,-35.3632616,149.1652354,17359,0.006793268024921417,0.005312378518283367,-0.1653691679239273,-0.004877031780779362,-0.0008117050747387111,-0.014156980440020561,0,0,-1000,-4,0,-14,-2,5,-153,200.0
12:22:18.907,AUTO,-35.3632616,149.1652354,17359,0.006793268024921417,0.005312378518283367,-0.1653691679239273,-0.004877031780779362,-0.0008117050747387111,-0.014156980440020561,0,0,-1000,-4,0,-14,-2,5,-153,200.0
12:22:19.109,AUTO,-35.3632617,149.1652354,18516,-0.04911321401596069,0.007313888985663652,-0.17147624492645264,-0.05704112723469734,0.04907182604074478,0.07857252657413483,0,0,-985,-56,49,78,-6,-9,-150,200.0
12:22:19.310,AUTO,-35.3632618,149.1652349,18889,-0.05283574014902115,0.03209079056978226,-0.11868011951446533,-0.0021378863602876663,0.10466097295284271,0.3369644284248352,-1,3,-980,-1,105,336,-12,-21,-145,178335.0
12:22:19.512,AUTO,-35.3632618,149.1652349,18889,-0.05283574014902115,0.03209079056978226,-0.11868011951446533,-0.0021378863602876663,0.10466097295284271,0.3369644284248352,-1,3,-980,-1,105,336,-12,-21,-145,178335.0
12:22:19.713,AUTO,-35.3632621,149.1652341,19250,-0.044693514704704285,0.0521564856171608,-0.014846445061266422,0.07322675734758377,-0.033843692392110825,0.3813121020793915,1,8,-958,74,-33,380,-23,-31,-138,178335.0
12:22:19.915,AUTO,-35.3632627,149.1652331,19585,-0.011215314269065857,0.022237541154026985,0.0531572625041008,0.14455966651439667,-0.1703111082315445,0.16834679245948792,1,10,-954,145,-169,168,-31,-37,-127,178335.0
12:22:20.118,AUTO,-35.3632633,149.1652321,19892,0.023135226219892502,-0.014838360249996185,0.07461520284414291,0.12495739012956619,-0.11609853804111481,0.021262262016534805,0,11,-956,125,-115,20,-30,-33,-115,178335.0
12:22:20.322,AUTO,-35.3632639,149.1652313,20171,0.04776294529438019,-0.03373149037361145,0.07097463309764862,0.07777039706707001,-0.04733194783329964,-0.03826041892170906,2,10,-959,78,-46,-38,-24,-22,-105,178335.0
12:22:20.524,AUTO,-35.3632639,149.1652313,20171,0.04776294529438019,-0.03373149037361145,0.07097463309764862,0.07777039706707001,-0.04733194783329964,-0.03826041892170906,2,10,-959,78,-46,-38,-24,-22,-105,178335.0
12:22:20.740,AUTO,-35.3632639,149.1652313,20171,0.04776294529438019,-0.03373149037361145,0.07097463309764862,0.07777039706707001,-0.04733194783329964,-0.03826041892170906,2,10,-959,78,-46,-38,-24,-22,-105,178335.0
12:22:20.945,AUTO,-35.3632639,149.1652313,20171,0.04776294529438019,-0.03373149037361145,0.07097463309764862,0.07777039706707001,-0.04733194783329964,-0.03826041892170906,2,10,-959,78,-46,-38,-24,-22,-105,178335.0
12:22:21.147,AUTO,-35.3632645,149.165231,20858,0.055425021797418594,-0.0305847879499197,0.046974219381809235,-0.03399689495563507,0.026850448921322823,-0.013670627027750015,1,-2,-970,-33,27,-13,1,20,-77,178335.0
12:22:21.349,AUTO,-35.3632645,149.1652315,21044,0.04623958468437195,-0.022588316351175308,0.044993769377470016,-0.040949802845716476,0.035724278539419174,-0.0023346352390944958,1,-6,-974,-40,36,-2,8,30,-70,178335.0
12:22:21.551,AUTO,-35.3632642,149.1652323,21213,0.034416746348142624,-0.013636087067425251,0.04451103135943413,-0.04892776161432266,0.03712838143110275,0.0028862054459750652,1,-9,-975,-48,37,2,13,37,-64,178335.0
12:22:21.753,AUTO,-35.3632642,149.1652323,21213,0.034416746348142624,-0.013636087067425251,0.04451103135943413,-0.04892776161432266,0.03712838143110275,0.0028862054459750652,1,-9,-975,-48,37,2,13,37,-64,178335.0
12:22:21.955,AUTO,-35.3632639,149.1652334,21364,0.02207937091588974,-0.005838334560394287,0.044126834720373154,-0.049422070384025574,0.029542595148086548,0.00040896105929277837,1,-10,-976,-48,30,0,16,41,-58,178335.0
12:22:22.157,AUTO,-35.3632634,149.1652344,21503,0.011371162720024586,0.0013088075211271644,0.0435672253370285,-0.03527548536658287,0.026396920904517174,0.002348247217014432,1,-10,-978,-34,27,2,17,42,-52,178335.0
12:22:22.360,AUTO,-35.363263,149.1652355,21625,0.002975014504045248,0.007301459554582834,0.042975399643182755,-0.03034146875143051,0.021441562101244926,0.0017425185069441795,0,-10,-977,-29,22,1,17,40,-47,178335.0
12:22:22.562,AUTO,-35.363263,149.1652355,21625,0.002975014504045248,0.007301459554582834,0.042975399643182755,-0.03034146875143051,0.021441562101244926,0.0017425185069441795,0,-10,-977,-29,22,1,17,40,-47,178335.0
12:22:22.763,AUTO,-35.363263,149.1652355,21625,0.002975014504045248,0.007301459554582834,0.042975399643182755,-0.03034146875143051,0.021441562101244926,0.0017425185069441795,0,-10,-977,-29,22,1,17,40,-47,178335.0
12:22:22.965,AUTO,-35.363263,149.1652355,21625,0.002975014504045248,0.007301459554582834,0.042975399643182755,-0.03034146875143051,0.021441562101244926,0.0017425185069441795,0,-10,-977,-29,22,1,17,40,-47,178335.0
12:22:23.167,AUTO,-35.3632619,149.1652382,21903,-0.011426378972828388,0.014709302224218845,0.041250862181186676,-0.007016654592007399,0.0035886468831449747,-0.0013734357198700309,0,-7,-975,-6,4,-1,11,27,-29,178335.0
12:22:23.369,AUTO,-35.3632617,149.1652389,21965,-0.013162242248654366,0.014853022992610931,0.04059542715549469,-0.026080723851919174,-0.00022911926498636603,-0.0016675452934578061,0,-6,-974,-25,0,-2,8,22,-23,102449.0
12:22:23.571,AUTO,-35.3632615,149.1652394,22010,-0.012907424941658974,0.013944843783974648,0.039929162710905075,0.04044755548238754,-0.005193130578845739,-0.0024497152771800756,0,-2,-972,41,-4,-2,5,17,-16,102449.0
12:22:23.774,AUTO,-35.3632613,149.1652398,22037,-0.012004715390503407,0.012712999247014523,0.03923576697707176,0.014102748595178127,-0.006264481693506241,-0.004067164845764637,0,-5,-966,14,-5,-4,3,12,-8,102449.0
12:22:23.976,AUTO,-35.3632613,149.1652398,22037,-0.012004715390503407,0.012712999247014523,0.03923576697707176,0.014102748595178127,-0.006264481693506241,-0.004067164845764637,0,-5,-966,14,-5,-4,3,12,-8,102449.0
12:22:24.178,AUTO,-35.3632612,149.1652401,22041,-0.03517088294029236,0.020848242565989494,0.038128528743982315,-0.3093349039554596,0.0564868189394474,-0.004741284996271133,2,-5,-921,-308,57,-5,0,7,3,102449.0
12:22:24.380,AUTO,-35.3632612,149.1652401,22010,-0.04984613507986069,0.02093156985938549,0.03711377829313278,0.018647491931915283,-0.05705970525741577,-0.010977886617183685,0,12,-978,20,-56,-11,-3,-3,14,102449.0
12:22:24.582,AUTO,-35.3632612,149.1652401,22010,-0.04984613507986069,0.02093156985938549,0.03711377829313278,0.018647491931915283,-0.05705970525741577,-0.010977886617183685,0,12,-978,20,-56,-11,-3,-3,14,102449.0
12:22:24.784,AUTO,-35.3632612,149.1652401,22010,-0.04984613507986069,0.02093156985938549,0.03711377829313278,0.018647491931915283,-0.05705970525741577,-0.010977886617183685,0,12,-978,20,-56,-11,-3,-3,14,102449.0
12:22:24.986,AUTO,-35.3632612,149.1652401,22010,-0.04984613507986069,0.02093156985938549,0.03711377829313278,0.018647491931915283,-0.05705970525741577,-0.010977886617183685,0,12,-978,20,-56,-11,-3,-3,14,102449.0
12:22:25.188,AUTO,-35.3632612,149.1652387,21860,-0.02638348378241062,-0.029368026182055473,0.035671085119247437,-0.4983186423778534,-0.039881374686956406,-0.0008279266767203808,-5,-31,-1032,-498,-39,-1,2,-27,12,102449.0
12:22:25.390,AUTO,-35.3632611,149.1652379,21827,-0.030679969117045403,-0.038470618426799774,0.03404897078871727,-0.498140424489975,-0.02987462654709816,-0.011119832284748554,-7,-9,-1019,-496,-29,-11,10,-31,8,102449.0
12:22:25.591,AUTO,-35.3632608,149.165237,21803,-0.021557079628109932,-0.0475904680788517,0.0325811468064785,0.38008397817611694,-0.034686699509620667,-0.009619138203561306,-9,35,-1008,382,-33,-9,19,-35,4,102449.0
12:22:25.793,AUTO,-35.3632602,149.165236,21788,-0.017365731298923492,-0.055712632834911346,0.03166759014129639,0.4897197484970093,-0.030548997223377228,-0.0029425090178847313,-11,17,-1014,490,-29,-3,30,-40,1,102449.0
12:22:25.995,AUTO,-35.3632602,149.165236,21788,-0.017365731298923492,-0.055712632834911346,0.03166759014129639,0.4897197484970093,-0.030548997223377228,-0.0029425090178847313,-11,17,-1014,490,-29,-3,30,-40,1,102449.0
12:22:26.197,AUTO,-35.3632594,149.1652348,21780,-0.028767311945557594,-0.06383950263261795,0.01691673882305622,-0.327833354473114,-0.01988767646253109,-0.18477030098438263,-16,-26,-1002,-327,-18,-185,41,-47,0,102449.0
12:22:26.399,AUTO,-35.3632584,149.1652334,21775,-0.027947215363383293,-0.07527512311935425,-0.10744909942150116,-0.5253644585609436,-0.004378387704491615,-0.7240761518478394,-22,-15,-1006,-524,-3,-724,54,-53,0,102449.0
12:22:26.600,AUTO,-35.3632584,149.1652334,21775,-0.027947215363383293,-0.07527512311935425,-0.10744909942150116,-0.5253644585609436,-0.004378387704491615,-0.7240761518478394,-22,-15,-1006,-524,-3,-724,54,-53,0,102449.0
12:22:26.803,AUTO,-35.3632584,149.1652334,21775,-0.027947215363383293,-0.07527512311935425,-0.10744909942150116,-0.5253644585609436,-0.004378387704491615,-0.7240761518478394,-22,-15,-1006,-524,-3,-724,54,-53,0,102449.0
12:22:27.004,AUTO,-35.3632584,149.1652334,21775,-0.027947215363383293,-0.07527512311935425,-0.10744909942150116,-0.5253644585609436,-0.004378387704491615,-0.7240761518478394,-22,-15,-1006,-524,-3,-724,54,-53,0,102449.0
12:22:27.208,AUTO,-35.3632533,149.165228,21768,0.028570974245667458,-0.1048007383942604,-0.6554103493690491,0.14629265666007996,-0.038128599524497986,-0.27035704255104065,-25,-28,-1005,146,-37,-270,98,-80,-1,253253.0
12:22:27.410,AUTO,-35.3632509,149.1652256,21765,0.021524913609027863,-0.11519985646009445,-0.6799429655075073,-0.49555110931396484,-0.05495842546224594,0.030620215460658073,-28,-46,-1002,-494,-54,30,115,-92,-1,253253.0
12:22:27.612,AUTO,-35.3632482,149.1652229,21761,0.023957252502441406,-0.12797118723392487,-0.6612288355827332,-0.07281694561243057,-0.05444279685616493,0.09517263621091843,-34,-10,-998,-71,-53,95,133,-104,0,253253.0
12:22:27.814,AUTO,-35.363245,149.1652197,21753,0.035456329584121704,-0.13968060910701752,-0.6363298296928406,0.4813566207885742,-0.03808492422103882,0.09058079868555069,-42,-1,-1008,482,-37,90,153,-118,-1,253253.0
12:22:28.017,AUTO,-35.363245,149.1652197,21753,0.035456329584121704,-0.13968060910701752,-0.6363298296928406,0.4813566207885742,-0.03808492422103882,0.09058079868555069,-42,-1,-1008,482,-37,90,153,-118,-1,253253.0
12:22:28.219,AUTO,-35.3632414,149.1652162,21746,0.029896007850766182,-0.15226976573467255,-0.619600236415863,-0.26227709650993347,-0.05525391921401024,0.0680784210562706,-46,-42,-1000,-262,-54,67,174,-133,0,253253.0
12:22:28.421,AUTO,-35.3632373,149.1652123,21738,0.026324938982725143,-0.16539376974105835,-0.6135442852973938,-0.2927016615867615,-0.05177701637148857,0.006592694669961929,-52,-32,-1001,-291,-51,6,196,-148,0,253253.0
12:22:28.623,AUTO,-35.3632373,149.1652123,21738,0.026324938982725143,-0.16539376974105835,-0.6135442852973938,-0.2927016615867615,-0.05177701637148857,0.006592694669961929,-52,-32,-1001,-291,-51,6,196,-148,0,253253.0
12:22:28.825,AUTO,-35.3632373,149.1652123,21738,0.026324938982725143,-0.16539376974105835,-0.6135442852973938,-0.2927016615867615,-0.05177701637148857,0.006592694669961929,-52,-32,-1001,-291,-51,6,196,-148,0,253253.0
12:22:29.027,AUTO,-35.3632373,149.1652123,21738,0.026324938982725143,-0.16539376974105835,-0.6135442852973938,-0.2927016615867615,-0.05177701637148857,0.006592694669961929,-52,-32,-1001,-291,-51,6,196,-148,0,253253.0
12:22:29.229,AUTO,-35.3632219,149.1651977,21708,0.03812775760889053,-0.17137953639030457,-0.6203871965408325,-0.20742245018482208,-0.005141662899404764,-0.0036474631633609533,-62,-46,-1003,-205,-4,-3,264,-197,0,253253.0
12:22:29.430,AUTO,-35.3632158,149.165192,21700,0.04588800296187401,-0.17434199154376984,-0.6224067807197571,0.2479265034198761,-0.0200540479272604,-0.007532777264714241,-73,-28,-1002,249,-19,-7,285,-212,0,253253.0
12:22:29.632,AUTO,-35.3632092,149.1651858,21691,0.04901508986949921,-0.1818794310092926,-0.6235752701759338,-0.08002270758152008,-0.03433576226234436,0.00730887008830905,-75,-51,-996,-79,-33,7,305,-228,1,253253.0
12:22:29.834,AUTO,-35.3632022,149.1651792,21679,0.04823337122797966,-0.18645407259464264,-0.6245565414428711,-0.04319261759519577,-0.019885821267962456,0.004612579010426998,-83,-45,-1002,-41,-18,4,327,-243,2,253253.0
12:22:30.036,AUTO,-35.3631946,149.1651721,21667,0.0534013994038105,-0.19169746339321136,-0.6250381469726562,0.11941802501678467,-0.03470918908715248,-0.00041244574822485447,-93,-51,-1001,120,-33,0,348,-259,2,253253.0
12:22:30.238,AUTO,-35.3631946,149.1651721,21667,0.0534013994038105,-0.19169746339321136,-0.6250381469726562,0.11941802501678467,-0.03470918908715248,-0.00041244574822485447,-93,-51,-1001,120,-33,0,348,-259,2,253253.0
12:22:30.441,AUTO,-35.3631866,149.1651647,21654,0.05593401938676834,-0.1996852308511734,-0.6256867051124573,-0.027249542996287346,-0.029260719195008278,0.001834200695157051,-93,-51,-998,-26,-28,1,369,-275,3,253253.0
12:22:30.643,AUTO,-35.3631866,149.1651647,21654,0.05593401938676834,-0.1996852308511734,-0.6256867051124573,-0.027249542996287346,-0.029260719195008278,0.001834200695157051,-93,-51,-998,-26,-28,1,369,-275,3,253253.0
12:22:30.845,AUTO,-35.3631866,149.1651647,21654,0.05593401938676834,-0.1996852308511734,-0.6256867051124573,-0.027249542996287346,-0.029260719195008278,0.001834200695157051,-93,-51,-998,-26,-28,1,369,-275,3,253253.0
12:22:31.048,AUTO,-35.36316,149.16514,21610,0.059509363025426865,-0.20319592952728271,-0.6272156834602356,-0.00708464439958334,0.04701187089085579,0.005740354768931866,-111,-58,-1011,-5,47,5,433,-322,3,253253.0
12:22:31.250,AUTO,-35.36316,149.16514,21610,0.059509363025426865,-0.20319592952728271,-0.6272156834602356,-0.00708464439958334,0.04701187089085579,0.005740354768931866,-111,-58,-1011,-5,47,5,433,-322,3,49282.0
12:22:31.452,AUTO,-35.3631501,149.1651309,21602,0.06036640331149101,-0.19600358605384827,-0.6274517178535461,0.0003454117104411125,0.006972163449972868,-0.0045763179659843445,-114,-49,-1002,1,7,-4,451,-334,1,49282.0
12:22:31.654,AUTO,-35.3631399,149.1651215,21598,0.06317408382892609,-0.1893691122531891,-0.6279790997505188,0.00669339532032609,0.023472076281905174,0.002994322683662176,-126,-62,-1003,7,24,2,467,-347,0,49282.0
12:22:31.856,AUTO,-35.3631293,149.1651117,21598,0.06602150201797485,-0.18270598351955414,-0.6283313632011414,0.024333328008651733,0.01702672801911831,-0.0040883286856114864,-122,-64,-1000,25,17,-4,481,-359,0,49282.0
12:22:32.058,AUTO,-35.3631183,149.1651016,21600,0.06879111379384995,-0.17349489033222198,-0.6284504532814026,0.03322799503803253,0.0050413780845701694,-0.0018296397756785154,-121,-60,-994,34,5,-1,492,-368,-2,49282.0
12:22:32.260,AUTO,-35.3631183,149.1651016,21600,0.06879111379384995,-0.17349489033222198,-0.6284504532814026,0.03322799503803253,0.0050413780845701694,-0.0018296397756785154,-121,-60,-994,34,5,-1,492,-368,-2,49282.0
12:22:32.462,AUTO,-35.3631071,149.1650913,21604,0.06864827871322632,-0.16829048097133636,-0.6282204389572144,0.0062026698142290115,0.02587888017296791,-0.010858757421374321,-137,-64,-1001,6,27,-10,503,-376,-2,49282.0
12:22:32.664,AUTO,-35.3631071,149.1650913,21604,0.06864827871322632,-0.16829048097133636,-0.6282204389572144,0.0062026698142290115,0.02587888017296791,-0.010858757421374321,-137,-64,-1001,6,27,-10,503,-376,-2,49282.0
12:22:32.866,AUTO,-35.3631071,149.1650913,21604,0.06864827871322632,-0.16829048097133636,-0.6282204389572144,0.0062026698142290115,0.02587888017296791,-0.010858757421374321,-137,-64,-1001,6,27,-10,503,-376,-2,49282.0
12:22:33.068,AUTO,-35.3630723,149.1650594,21612,0.07292814552783966,-0.16269998252391815,-0.6295560598373413,0.0019903071224689484,0.04461761191487312,-0.001147315721027553,-125,-70,-987,2,45,-1,527,-395,1,49282.0
12:22:33.270,AUTO,-35.3630723,149.1650594,21612,0.07292814552783966,-0.16269998252391815,-0.6295560598373413,0.0019903071224689484,0.04461761191487312,-0.001147315721027553,-125,-70,-987,2,45,-1,527,-395,1,49282.0
12:22:33.471,AUTO,-35.3630604,149.1650484,21612,0.07335002720355988,-0.15316277742385864,-0.6298023462295532,-0.023719074204564095,0.022753793746232986,-0.0010713221272453666,-115,-75,-983,-22,23,-1,532,-400,0,49282.0
12:22:33.673,AUTO,-35.3630484,149.1650374,21613,0.07376330345869064,-0.15067414939403534,-0.630330502986908,-0.0005325910169631243,0.010866052471101284,-0.0033097616396844387,-134,-68,-982,0,11,-3,536,-403,0,49282.0
12:22:33.875,AUTO,-35.3630363,149.1650263,21613,0.07532761991024017,-0.14815708994865417,-0.6306757926940918,0.05419975146651268,-0.0016606776043772697,-0.0027648727409541607,-135,-84,-979,55,0,-2,537,-405,0,49282.0
12:22:34.076,AUTO,-35.3630241,149.1650151,21610,0.07353626191616058,-0.1374742090702057,-0.6301482319831848,-0.04016219824552536,0.07505952566862106,-0.01146873738616705,-143,-82,-1000,-38,75,-11,540,-406,1,49282.0
12:22:34.278,AUTO,-35.3630241,149.1650151,21610,0.07353626191616058,-0.1374742090702057,-0.6301482319831848,-0.04016219824552536,0.07505952566862106,-0.01146873738616705,-143,-82,-1000,-38,75,-11,540,-406,1,49282.0
12:22:34.482,AUTO,-35.3630118,149.1650038,21610,0.07820300757884979,-0.1241036206483841,-0.6305791139602661,0.04909948632121086,0.03751706704497337,-0.008690152317285538,-137,-76,-991,49,38,-8,539,-408,0,49282.0
12:22:34.684,AUTO,-35.3630118,149.1650038,21610,0.07820300757884979,-0.1241036206483841,-0.6305791139602661,0.04909948632121086,0.03751706704497337,-0.008690152317285538,-137,-76,-991,49,38,-8,539,-408,0,49282.0
12:22:34.886,AUTO,-35.3630118,149.1650038,21610,0.07820300757884979,-0.1241036206483841,-0.6305791139602661,0.04909948632121086,0.03751706704497337,-0.008690152317285538,-137,-76,-991,49,38,-8,539,-408,0,49282.0
12:22:35.088,AUTO,-35.3629754,149.1649703,21592,0.07633743435144424,-0.13792744278907776,-0.6331397294998169,-0.00672503188252449,-0.035771921277046204,0.001709640258923173,-148,-72,-975,-5,-34,1,536,-405,7,49282.0
12:22:35.290,AUTO,-35.3629632,149.1649591,21571,0.07876408100128174,-0.1411125808954239,-0.6337277293205261,0.005031751934438944,0.0029606304597109556,-0.004965872038155794,-139,-70,-984,5,3,-4,537,-406,9,47345.0
12:22:35.492,AUTO,-35.3629632,149.1649591,21571,0.07876408100128174,-0.1411125808954239,-0.6337277293205261,0.005031751934438944,0.0029606304597109556,-0.004965872038155794,-139,-70,-984,5,3,-4,537,-406,9,47345.0
12:22:35.693,AUTO,-35.3629508,149.1649477,21548,0.07913541793823242,-0.14033271372318268,-0.6339718699455261,0.04956703633069992,-0.00482220109552145,-0.00155624037142843,-135,-80,-985,50,-3,-1,538,-409,8,47345.0
12:22:35.895,AUTO,-35.3629385,149.1649364,21525,0.07809364050626755,-0.13506300747394562,-0.6337926387786865,-0.027729541063308716,0.04654014855623245,0.0064298552460968494,-134,-78,-993,-26,47,6,540,-409,8,47345.0
12:22:36.097,AUTO,-35.3629262,149.1649251,21509,0.07592994719743729,-0.11883215606212616,-0.6330235600471497,0.010243439115583897,0.08013632148504257,0.004126440268009901,-143,-72,-1004,11,81,4,539,-408,4,47345.0
12:22:36.299,AUTO,-35.362914,149.1649139,21502,0.07449744641780853,-0.10000532865524292,-0.632951021194458,0.0032656993716955185,0.05711183696985245,-0.003241956699639559,-138,-75,-1004,4,58,-3,535,-405,0,47345.0
12:22:36.501,AUTO,-35.362914,149.1649139,21502,0.07449744641780853,-0.10000532865524292,-0.632951021194458,0.0032656993716955185,0.05711183696985245,-0.003241956699639559,-138,-75,-1004,4,58,-3,535,-405,0,47345.0
12:22:36.703,AUTO,-35.362914,149.1649139,21502,0.07449744641780853,-0.10000532865524292,-0.632951021194458,0.0032656993716955185,0.05711183696985245,-0.003241956699639559,-138,-75,-1004,4,58,-3,535,-405,0,47345.0
12:22:36.906,AUTO,-35.362914,149.1649139,21502,0.07449744641780853,-0.10000532865524292,-0.632951021194458,0.0032656993716955185,0.05711183696985245,-0.003241956699639559,-138,-75,-1004,4,58,-3,535,-405,0,47345.0
12:22:37.108,AUTO,-35.3628785,149.164881,21510,0.07759780436754227,-0.06000269204378128,-0.6318688988685608,0.06915431469678879,0.030312618240714073,0.005293480586260557,-128,-74,-987,69,31,5,505,-384,-2,47345.0
12:22:37.310,AUTO,-35.3628672,149.1648705,21512,0.07967912405729294,-0.04907187819480896,-0.6310187578201294,-0.08752521127462387,0.06722631305456161,0.0006863445159979165,-131,-72,-993,-86,68,0,492,-374,0,47345.0
12:22:37.512,AUTO,-35.3628672,149.1648705,21512,0.07967912405729294,-0.04907187819480896,-0.6310187578201294,-0.08752521127462387,0.06722631305456161,0.0006863445159979165,-131,-72,-993,-86,68,0,492,-374,0,47345.0
12:22:37.714,AUTO,-35.3628562,149.1648602,21512,0.07820677757263184,-0.03617000952363014,-0.6312812566757202,-0.051325004547834396,0.043183255940675735,-0.009808829985558987,-121,-77,-992,-50,44,-9,477,-362,0,47345.0
12:22:37.916,AUTO,-35.3628456,149.1648503,21509,0.08299888670444489,-0.025866340845823288,-0.6315591931343079,0.21198402345180511,0.03146584704518318,-0.0209527388215065,-119,-60,-989,213,32,-21,461,-348,0,47345.0
12:22:38.118,AUTO,-35.3628354,149.1648407,21503,0.07706859707832336,-0.014820058830082417,-0.6310561895370483,-0.2617069184780121,0.06676347553730011,0.00949622131884098,-123,-92,-994,-261,67,9,444,-334,2,47345.0
12:22:38.322,AUTO,-35.3628255,149.1648315,21494,0.07262518256902695,-0.0030520695727318525,-0.6311425566673279,-0.11483532190322876,0.05303724855184555,-0.016484804451465607,-101,-66,-988,-113,54,-16,426,-318,3,47345.0
12:22:38.524,AUTO,-35.3628255,149.1648315,21494,0.07262518256902695,-0.0030520695727318525,-0.6311425566673279,-0.11483532190322876,0.05303724855184555,-0.016484804451465607,-101,-66,-988,-113,54,-16,426,-318,3,47345.0
12:22:38.726,AUTO,-35.3628255,149.1648315,21494,0.07262518256902695,-0.0030520695727318525,-0.6311425566673279,-0.11483532190322876,0.05303724855184555,-0.016484804451465607,-101,-66,-988,-113,54,-16,426,-318,3,47345.0
12:22:38.928,AUTO,-35.3628255,149.1648315,21494,0.07262518256902695,-0.0030520695727318525,-0.6311425566673279,-0.11483532190322876,0.05303724855184555,-0.016484804451465607,-101,-66,-988,-113,54,-16,426,-318,3,47345.0
12:22:39.130,AUTO,-35.3627988,149.1648067,21436,0.07418984174728394,0.03310095891356468,-0.6292939782142639,-0.14385682344436646,0.049487773329019547,0.02734432741999626,-93,-84,-984,-144,50,27,360,-265,7,47345.0
12:22:39.336,AUTO,-35.3627909,149.1647994,21414,0.06052296608686447,0.04773378744721413,-0.6298032999038696,-0.774976909160614,0.048140253871679306,0.031875576823949814,-89,-88,-1014,-774,49,31,337,-245,7,209439.0
12:22:39.538,AUTO,-35.3627835,149.1647927,21396,0.053871218115091324,0.053602878004312515,-0.6296042203903198,-0.4595445990562439,-0.00947820395231247,-0.015859290957450867,-78,-57,-1013,-457,-8,-15,312,-226,5,209439.0
12:22:39.739,AUTO,-35.3627835,149.1647927,21396,0.053871218115091324,0.053602878004312515,-0.6296042203903198,-0.4595445990562439,-0.00947820395231247,-0.015859290957450867,-78,-57,-1013,-457,-8,-15,312,-226,5,209439.0
12:22:39.941,AUTO,-35.3627767,149.1647866,21379,0.060308702290058136,0.052910465747117996,-0.6308504343032837,0.499389111995697,-0.0009662960073910654,-0.04540354758501053,-73,-9,-1004,501,0,-45,289,-206,6,209439.0
12:22:40.144,AUTO,-35.3627705,149.164781,21358,0.0615721195936203,0.05059414356946945,-0.6311171650886536,0.7821488380432129,-0.006271613761782646,-0.026303065940737724,-71,-9,-1012,783,-5,-26,266,-189,7,209439.0
12:22:40.346,AUTO,-35.3627648,149.1647759,21338,0.058062341064214706,0.050221022218465805,-0.6311384439468384,0.31111252307891846,0.0019529428100213408,0.014946280978620052,-59,-48,-996,311,3,15,244,-173,6,209439.0
12:22:40.549,AUTO,-35.3627648,149.1647759,21338,0.058062341064214706,0.050221022218465805,-0.6311384439468384,0.31111252307891846,0.0019529428100213408,0.014946280978620052,-59,-48,-996,311,3,15,244,-173,6,209439.0
12:22:40.751,AUTO,-35.3627648,149.1647759,21338,0.058062341064214706,0.050221022218465805,-0.6311384439468384,0.31111252307891846,0.0019529428100213408,0.014946280978620052,-59,-48,-996,311,3,15,244,-173,6,209439.0
12:22:40.953,AUTO,-35.3627648,149.1647759,21338,0.058062341064214706,0.050221022218465805,-0.6311384439468384,0.31111252307891846,0.0019529428100213408,0.014946280978620052,-59,-48,-996,311,3,15,244,-173,6,209439.0
12:22:41.155,AUTO,-35.3627505,149.1647636,21293,0.027840470895171165,0.0671188235282898,-0.6322405338287354,0.21696613729000092,0.026543572545051575,-0.015498925000429153,-42,-4,-1008,219,27,-15,181,-125,2,209439.0
12:22:41.357,AUTO,-35.3627467,149.1647604,21283,0.029548591002821922,0.07265334576368332,-0.6329809427261353,0.694496750831604,0.01978525146842003,-0.021586021408438683,-38,15,-995,696,20,-21,158,-109,3,209439.0
12:22:41.559,AUTO,-35.3627434,149.1647576,21275,0.024366430938243866,0.07726896554231644,-0.6328192353248596,0.08126652240753174,0.007592497859150171,0.006454979069530964,-30,-36,-1005,81,8,6,135,-95,0,209439.0
12:22:41.761,AUTO,-35.3627434,149.1647576,21275,0.024366430938243866,0.07726896554231644,-0.6328192353248596,0.08126652240753174,0.007592497859150171,0.006454979069530964,-30,-36,-1005,81,8,6,135,-95,0,209439.0
12:22:41.963,AUTO,-35.3627406,149.1647553,21269,0.012184441089630127,0.07468728721141815,-0.6325473189353943,-0.6154217720031738,-0.022944388911128044,0.012494842521846294,-27,-65,-1000,-615,-21,12,112,-80,0,209439.0
12:22:42.164,AUTO,-35.3627384,149.1647535,21265,0.0050232503563165665,0.0652797520160675,-0.6332940459251404,-0.3733009994029999,-0.037842534482479095,-0.0074090370908379555,-22,-14,-998,-371,-36,-7,94,-66,0,209439.0
12:22:42.366,AUTO,-35.3627365,149.1647519,21261,0.007100189104676247,0.057097796350717545,-0.6339734196662903,0.4125783145427704,-0.028035907074809074,-0.012449766509234905,-16,21,-1009,414,-27,-12,77,-55,0,209439.0
12:22:42.568,AUTO,-35.3627365,149.1647519,21261,0.007100189104676247,0.057097796350717545,-0.6339734196662903,0.4125783145427704,-0.028035907074809074,-0.012449766509234905,-16,21,-1009,414,-27,-12,77,-55,0,209439.0
12:22:42.770,AUTO,-35.3627365,149.1647519,21261,0.007100189104676247,0.057097796350717545,-0.6339734196662903,0.4125783145427704,-0.028035907074809074,-0.012449766509234905,-16,21,-1009,414,-27,-12,77,-55,0,209439.0
12:22:42.972,AUTO,-35.3627365,149.1647519,21261,0.007100189104676247,0.057097796350717545,-0.6339734196662903,0.4125783145427704,-0.028035907074809074,-0.012449766509234905,-16,21,-1009,414,-27,-12,77,-55,0,209439.0
12:22:43.174,AUTO,-35.362733,149.1647489,21254,-0.004220525734126568,0.04035211727023125,-0.6336028575897217,-0.7350141406059265,-0.01827109605073929,0.0019165140110999346,-8,-32,-1000,-734,-16,1,37,-31,0,209439.0
12:22:43.375,AUTO,-35.3627323,149.1647483,21252,-0.0035967302974313498,0.03553762659430504,-0.6339519619941711,0.08401267975568771,-0.023364506661891937,-0.0033013608772307634,-6,14,-1016,86,-22,-3,28,-23,-1,69434.0
12:22:43.577,AUTO,-35.3627319,149.1647479,21255,0.005443389527499676,0.029965311288833618,-0.6347665786743164,0.595736026763916,-0.022808263078331947,-0.0036482217255979776,-4,19,-1002,596,-21,-3,19,-18,-1,69434.0
12:22:43.779,AUTO,-35.3627319,149.1647479,21255,0.005443389527499676,0.029965311288833618,-0.6347665786743164,0.595736026763916,-0.022808263078331947,-0.0036482217255979776,-4,19,-1002,596,-21,-3,19,-18,-1,69434.0
12:22:43.981,AUTO,-35.3627317,149.1647476,21257,0.0006321549299173057,0.024950752034783363,-0.6351020932197571,-0.2536180317401886,-0.018435807898640633,0.001551395864225924,-3,-25,-995,-253,-17,1,11,-15,-2,69434.0
12:22:44.182,AUTO,-35.3627317,149.1647474,21259,-0.005994591861963272,0.0195785965770483,-0.6354376673698425,-0.6021899580955505,-0.020545560866594315,0.0026171850040555,-1,-29,-996,-601,-19,2,5,-11,-1,69434.0
12:22:44.384,AUTO,-35.3627317,149.1647472,21260,-0.004384971689432859,0.0136380884796381,-0.63569575548172,-0.021175546571612358,-0.02419799193739891,0.0005088511970825493,0,15,-1001,-19,-23,0,1,-7,-2,69434.0
