time_stamp,MODE,lat,lon,relative_alt,roll,pitch,yaw,rollspeed,pitchspeed,yawspeed,xacc,yacc,zacc,xgyro,ygyro,zgyro,vx,vy,vz,RTL_ALT
08:41:40.548,STABILIZE,-35.3632622,149.1652375,0,-0.0007044912781566381,0.0010594041086733341,0.025362983345985413,0.00035107400617562234,0.0003842198057100177,0.0021046383772045374,0,1,-1000,0,0,0,-1,1,0,1500.0
08:41:40.749,STABILIZE,-35.3632622,149.1652375,0,-0.0007044912781566381,0.0010594041086733341,0.025362983345985413,0.00035107400617562234,0.0003842198057100177,0.0021046383772045374,0,1,-1000,0,0,0,-1,1,0,1500.0
08:41:40.950,STABILIZE,-35.3632622,149.1652375,0,-0.0007044912781566381,0.0010594041086733341,0.025362983345985413,0.00035107400617562234,0.0003842198057100177,0.0021046383772045374,0,1,-1000,0,0,0,-1,1,0,1500.0
08:41:41.152,STABILIZE,-35.3632622,149.1652375,0,-0.0007044912781566381,0.0010594041086733341,0.025362983345985413,0.00035107400617562234,0.0003842198057100177,0.0021046383772045374,0,1,-1000,0,0,0,-1,1,0,1500.0
08:41:41.353,STABILIZE,-35.3632621,149.1652375,0,-0.0006647783447988331,0.0009827872272580862,0.024949543178081512,0.0003044642508029938,0.00019729245104826987,0.0019284181762486696,0,1,-1000,0,0,0,-1,1,0,1500.0
08:41:41.554,STABILIZE,-35.3632621,149.1652374,0,-0.000689733715262264,0.0009639300988055766,0.02486664615571499,0.00020166224567219615,0.00017844996182247996,0.001936485292389989,0,1,-1000,0,0,0,-1,1,0,1500.0
08:41:41.756,STABILIZE,-35.3632621,149.1652374,0,-0.000689733715262264,0.0009639300988055766,0.02486664615571499,0.00020166224567219615,0.00017844996182247996,0.001936485292389989,0,1,-1000,0,0,0,-1,1,0,1500.0
08:41:41.957,STABILIZE,-35.3632621,149.1652374,0,-0.000689733715262264,0.0009639300988055766,0.02486664615571499,0.00020166224567219615,0.00017844996182247996,0.001936485292389989,0,1,-1000,0,0,0,-1,1,0,1500.0
08:41:42.158,STABILIZE,-35.3632621,149.1652374,0,-0.0007190274773165584,0.0009449178469367325,0.024666525423526764,0.0002729678526520729,0.00032282929169014096,0.0018916672561317682,0,1,-1000,1,0,0,-1,1,0,1500.0
08:41:42.360,STABILIZE,-35.3632621,149.1652374,0,-0.0007190274773165584,0.0009449178469367325,0.024666525423526764,0.0002729678526520729,0.00032282929169014096,0.0018916672561317682,0,1,-1000,1,0,0,-1,1,0,1500.0
08:41:42.561,STABILIZE,-35.3632621,149.1652374,0,-0.0007190274773165584,0.0009449178469367325,0.024666525423526764,0.0002729678526520729,0.00032282929169014096,0.0018916672561317682,0,1,-1000,1,0,0,-1,1,0,1500.0
08:41:42.763,STABILIZE,-35.3632621,149.1652374,0,-0.0007190274773165584,0.0009449178469367325,0.024666525423526764,0.0002729678526520729,0.00032282929169014096,0.0018916672561317682,0,1,-1000,1,0,0,-1,1,0,1500.0
08:41:42.964,STABILIZE,-35.3632621,149.1652374,0,-0.0007190274773165584,0.0009449178469367325,0.024666525423526764,0.0002729678526520729,0.00032282929169014096,0.0018916672561317682,0,1,-1000,1,0,0,-1,1,0,1500.0
08:41:43.165,STABILIZE,-35.3632621,149.1652374,0,-0.0007190274773165584,0.0009449178469367325,0.024666525423526764,0.0002729678526520729,0.00032282929169014096,0.0018916672561317682,0,1,-1000,1,0,0,-1,1,0,1500.0
08:41:43.367,STABILIZE,-35.3632621,149.1652374,0,-0.0007190274773165584,0.0009449178469367325,0.024666525423526764,0.0002729678526520729,0.00032282929169014096,0.0018916672561317682,0,1,-1000,1,0,0,-1,1,0,1500.0
08:41:43.568,STABILIZE,-35.3632621,149.1652374,0,-0.0008347778348252177,0.0009268069406971335,0.024130860343575478,0.00027374335331842303,0.00020339159527793527,0.001931387814693153,0,1,-1000,0,0,0,-1,1,0,1500.0
08:41:43.770,STABILIZE,-35.3632621,149.1652374,0,-0.0008347778348252177,0.0009268069406971335,0.024130860343575478,0.00027374335331842303,0.00020339159527793527,0.001931387814693153,0,1,-1000,0,0,0,-1,1,0,1500.0
08:41:43.971,STABILIZE,-35.3632621,149.1652374,0,-0.0008347778348252177,0.0009268069406971335,0.024130860343575478,0.00027374335331842303,0.00020339159527793527,0.001931387814693153,0,1,-1000,0,0,0,-1,1,0,1500.0
08:41:44.173,STABILIZE,-35.3632621,149.1652374,0,-0.000695139984600246,0.0009298273944295943,0.023981040343642235,0.000158080889377743,0.00020259653683751822,0.0017931668553501368,0,-1,-1004,0,1,0,-1,0,-1,1500.0
08:41:44.374,STABILIZE,-35.3632621,149.1652374,0,-0.0006838265690021217,0.000931885268073529,0.02390623651444912,0.0003958622692152858,0.00014547311002388597,0.0018391853664070368,0,1,-1000,0,1,0,-1,0,-1,1500.0
08:41:44.575,STABILIZE,-35.3632621,149.1652374,0,-0.0006838265690021217,0.000931885268073529,0.02390623651444912,0.0003958622692152858,0.00014547311002388597,0.0018391853664070368,0,1,-1000,0,1,0,-1,0,-1,1500.0
08:41:44.777,STABILIZE,-35.3632621,149.1652374,0,-0.0006838265690021217,0.000931885268073529,0.02390623651444912,0.0003958622692152858,0.00014547311002388597,0.0018391853664070368,0,1,-1000,0,1,0,-1,0,-1,1500.0
08:41:44.979,STABILIZE,-35.3632621,149.1652374,0,-0.0006838265690021217,0.000931885268073529,0.02390623651444912,0.0003958622692152858,0.00014547311002388597,0.0018391853664070368,0,1,-1000,0,1,0,-1,0,-1,1500.0
08:41:45.181,STABILIZE,-35.3632621,149.1652374,0,-0.0006838265690021217,0.000931885268073529,0.02390623651444912,0.0003958622692152858,0.00014547311002388597,0.0018391853664070368,0,1,-1000,0,1,0,-1,0,-1,1500.0
08:41:45.382,STABILIZE,-35.3632621,149.1652374,0,-0.0006838265690021217,0.000931885268073529,0.02390623651444912,0.0003958622692152858,0.00014547311002388597,0.0018391853664070368,0,1,-1000,0,0,0,-1,1,-1,1500.0
08:41:45.583,STABILIZE,-35.3632621,149.1652374,0,-0.0006838265690021217,0.000931885268073529,0.02390623651444912,0.0003958622692152858,0.00014547311002388597,0.0018391853664070368,0,1,-1000,1,0,0,-1,1,-1,1500.0
08:41:45.784,STABILIZE,-35.3632621,149.1652374,0,-0.0006838265690021217,0.000931885268073529,0.02390623651444912,0.0003958622692152858,0.00014547311002388597,0.0018391853664070368,0,1,-1000,1,0,0,-1,1,-1,1500.0
08:41:45.986,STABILIZE,-35.3632621,149.1652374,0,-0.0006838265690021217,0.000931885268073529,0.02390623651444912,0.0003958622692152858,0.00014547311002388597,0.0018391853664070368,0,1,-1000,1,0,0,-1,1,-1,1500.0
08:41:46.188,STABILIZE,-35.3632621,149.1652374,0,-0.0006838265690021217,0.000931885268073529,0.02390623651444912,0.0003958622692152858,0.00014547311002388597,0.0018391853664070368,0,1,-1000,1,0,0,-1,1,-1,1500.0
08:41:46.390,STABILIZE,-35.3632621,149.1652374,0,-0.0006838265690021217,0.000931885268073529,0.02390623651444912,0.0003958622692152858,0.00014547311002388597,0.0018391853664070368,0,2,-1000,0,0,0,-1,1,-1,1500.0
08:41:46.602,STABILIZE,-35.3632621,149.1652374,0,-0.0006838265690021217,0.000931885268073529,0.02390623651444912,0.0003958622692152858,0.00014547311002388597,0.0018391853664070368,0,2,-1000,0,0,0,-1,1,-1,1500.0
08:41:46.803,STABILIZE,-35.3632621,149.1652374,0,-0.0006838265690021217,0.000931885268073529,0.02390623651444912,0.0003958622692152858,0.00014547311002388597,0.0018391853664070368,0,2,-1000,0,0,0,-1,1,-1,1500.0
08:41:47.005,STABILIZE,-35.3632622,149.1652375,0,-0.000673648260999471,0.0009496355196461082,0.022962134331464767,0.00013211282202973962,0.00033062760485336185,0.0017198283458128572,0,2,-1000,0,1,1,-1,1,0,1500.0
08:41:47.207,STABILIZE,-35.3632622,149.1652375,0,-0.000673648260999471,0.0009496355196461082,0.022962134331464767,0.00013211282202973962,0.00033062760485336185,0.0017198283458128572,0,2,-1000,0,1,1,-1,1,0,1500.0
08:41:47.408,STABILIZE,-35.3632622,149.1652375,0,-0.0006916061392985284,0.0009626121027395129,0.022877588868141174,0.0002289704862050712,0.00023053347831591964,0.0015938575379550457,0,1,-1000,0,0,0,-1,1,0,1500.0
08:41:47.609,STABILIZE,-35.3632622,149.1652375,0,-0.0005474068457260728,0.0009599729091860354,0.022807665169239044,0.0002503679716028273,0.0002517098328098655,0.001692536287009716,0,0,-1002,0,1,0,-1,2,0,1500.0
08:41:47.810,STABILIZE,-35.3632622,149.1652375,0,-0.0005474068457260728,0.0009599729091860354,0.022807665169239044,0.0002503679716028273,0.0002517098328098655,0.001692536287009716,0,0,-1002,0,1,0,-1,2,0,1500.0
08:41:48.012,STABILIZE,-35.3632622,149.1652375,0,-0.0005474068457260728,0.0009599729091860354,0.022807665169239044,0.0002503679716028273,0.0002517098328098655,0.001692536287009716,0,2,-1000,0,0,0,-1,2,0,1500.0
08:41:48.214,STABILIZE,-35.3632622,149.1652375,0,-0.0005474068457260728,0.0009599729091860354,0.022807665169239044,0.0002503679716028273,0.0002517098328098655,0.001692536287009716,0,2,-1000,0,0,0,-1,2,0,1500.0
08:41:48.415,STABILIZE,-35.3632622,149.1652375,0,-0.0006748548476025462,0.0009648725390434265,0.02257227525115013,0.0002696830779314041,0.00029867503326386213,0.00157507648691535,0,1,-1000,0,1,0,-1,2,0,1500.0
08:41:48.617,STABILIZE,-35.3632622,149.1652375,0,-0.0006748548476025462,0.0009648725390434265,0.02257227525115013,0.0002696830779314041,0.00029867503326386213,0.00157507648691535,0,1,-1000,0,1,0,-1,2,0,1500.0
08:41:48.818,STABILIZE,-35.3632622,149.1652375,0,-0.0006748548476025462,0.0009648725390434265,0.02257227525115013,0.0002696830779314041,0.00029867503326386213,0.00157507648691535,0,1,-1000,0,1,0,-1,2,0,1500.0
08:41:49.020,STABILIZE,-35.3632622,149.1652375,0,-0.0008194857509806752,0.0009727376163937151,0.02235107310116291,0.00024130253586918116,0.00029395450837910175,0.0016073391307145357,0,2,-1000,0,0,0,-1,2,0,1500.0
08:41:49.221,STABILIZE,-35.3632622,149.1652375,0,-0.0008194857509806752,0.0009727376163937151,0.02235107310116291,0.00024130253586918116,0.00029395450837910175,0.0016073391307145357,0,2,-1000,0,0,0,-1,2,0,1500.0
08:41:49.424,STABILIZE,-35.3632622,149.1652375,0,-0.0008194857509806752,0.0009727376163937151,0.02235107310116291,0.00024130253586918116,0.00029395450837910175,0.0016073391307145357,0,2,-1000,0,0,0,-1,2,0,1500.0
08:41:49.625,STABILIZE,-35.3632622,149.1652375,0,-0.0008857486536726356,0.000973593327216804,0.022212518379092216,0.00027179549215361476,0.000346793734934181,0.0015506451018154621,0,1,-1000,0,0,0,-1,1,0,1500.0
08:41:49.827,STABILIZE,-35.3632622,149.1652375,0,-0.0009184930822812021,0.0009786841692402959,0.022145450115203857,0.000213439401704818,0.00027579121524468064,0.0014770710840821266,0,2,-1000,0,0,0,-1,1,0,1500.0
08:41:50.028,STABILIZE,-35.3632622,149.1652375,0,-0.0009531307150609791,0.0009816361125558615,0.022099507972598076,0.00032821932109072804,0.0003859444404952228,0.0015376622322946787,0,2,-1000,0,0,0,-1,1,0,1500.0
08:41:50.229,STABILIZE,-35.3632622,149.1652375,0,-0.0009531307150609791,0.0009816361125558615,0.022099507972598076,0.00032821932109072804,0.0003859444404952228,0.0015376622322946787,0,2,-1000,0,0,0,-1,1,0,1500.0
08:41:50.431,STABILIZE,-35.3632622,149.1652375,0,-0.0009687676792964339,0.0009886638727039099,0.022024005651474,0.00022248225286602974,0.0002904128050431609,0.0015317020006477833,0,2,-1000,0,0,1,-1,1,0,1500.0
08:41:50.634,STABILIZE,-35.3632622,149.1652375,0,-0.0009687676792964339,0.0009886638727039099,0.022024005651474,0.00022248225286602974,0.0002904128050431609,0.0015317020006477833,0,2,-1000,0,0,1,-1,1,0,1500.0
08:41:50.835,STABILIZE,-35.3632622,149.1652375,0,-0.0009687676792964339,0.0009886638727039099,0.022024005651474,0.00022248225286602974,0.0002904128050431609,0.0015317020006477833,0,2,-1000,0,0,1,-1,1,0,1500.0
08:41:51.037,STABILIZE,-35.3632622,149.1652375,0,-0.0008758800104260445,0.001011035405099392,0.021846389397978783,0.0002542582806199789,0.000332640134729445,0.0014143455773591995,0,2,-1000,0,0,0,-1,1,0,1500.0
08:41:51.238,STABILIZE,-35.3632622,149.1652375,0,-0.0008758800104260445,0.001011035405099392,0.021846389397978783,0.0002542582806199789,0.000332640134729445,0.0014143455773591995,0,2,-1000,0,0,0,-1,1,0,1500.0
08:41:51.440,STABILIZE,-35.3632622,149.1652375,0,-0.0008758800104260445,0.001011035405099392,0.021846389397978783,0.0002542582806199789,0.000332640134729445,0.0014143455773591995,0,2,-1000,0,0,0,-1,1,0,1500.0
08:41:51.644,AUTO,-35.3632622,149.1652375,0,-0.0009010203648358583,0.0010117912897840142,0.021735019981861115,0.00038138340460136533,0.0002374261966906488,0.0015991248656064272,0,2,-1000,1,0,0,-1,1,0,1500.0
08:41:51.845,AUTO,-35.3632622,149.1652375,6,-0.0009114608983509243,0.0010141389211639762,0.021682342514395714,0.0003051274106837809,0.00030269328271970153,0.0014975450467318296,0,1,-1000,0,1,1,-1,1,0,1500.0
08:41:52.047,AUTO,-35.3632622,149.1652375,6,-0.000931085436604917,0.0010082682128995657,0.02163475565612316,0.00019198463996872306,0.00015797431115061045,0.0015705819241702557,0,1,-1000,0,0,0,-1,1,0,1500.0
08:41:52.248,AUTO,-35.3632622,149.1652375,5,-0.0009282758692279458,0.00101816700771451,0.021600665524601936,0.00033553788671270013,0.00026231398805975914,0.0016032035928219557,0,1,-1000,1,0,0,-1,1,0,1500.0
08:41:52.450,AUTO,-35.3632622,149.1652375,5,-0.0009282758692279458,0.00101816700771451,0.021600665524601936,0.00033553788671270013,0.00026231398805975914,0.0016032035928219557,0,1,-1000,1,0,0,-1,1,0,1500.0
08:41:52.652,AUTO,-35.3632622,149.1652375,5,-0.0009282758692279458,0.00101816700771451,0.021600665524601936,0.00033553788671270013,0.00026231398805975914,0.0016032035928219557,0,1,-1000,1,0,0,-1,1,0,1500.0
08:41:52.853,AUTO,-35.3632622,149.1652375,5,-0.0009282758692279458,0.00101816700771451,0.021600665524601936,0.00033553788671270013,0.00026231398805975914,0.0016032035928219557,0,1,-1000,1,0,0,-1,1,0,1500.0
08:41:53.056,AUTO,-35.3632621,149.1652375,5,-0.0008594709797762334,0.0011306742671877146,0.02143966220319271,0.0002964411396533251,0.0002548135817050934,0.0014001349918544292,0,2,-1000,1,0,0,0,0,0,1500.0
08:41:53.292,AUTO,-35.3632621,149.1652375,5,-0.000815878389403224,0.0011918549425899982,0.021390527486801147,0.00028194981859996915,0.0003402727306820452,0.0015318068908527493,0,2,-1000,1,0,0,0,0,0,1500.0
08:41:53.566,AUTO,-35.3632621,149.1652375,5,-0.0007625844446010888,0.0012487503699958324,0.021330466493964195,0.00029739353340119123,0.00038774003041908145,0.0015661756042391062,0,1,-1000,0,0,0,0,0,0,1500.0
08:41:53.892,AUTO,-35.3632621,149.1652375,5,-0.0007105719996616244,0.0013129754224792123,0.021267307922244072,0.0002931780181825161,0.000313931901473552,0.0014494985807687044,0,1,-1000,0,0,0,0,0,0,1500.0
08:41:54.140,AUTO,-35.3632621,149.1652375,5,-0.000657320546451956,0.0013886831002309918,0.02120250277221203,0.0002944131847470999,0.0003052651882171631,0.0014309632824733853,0,1,-1000,1,0,0,0,0,0,1500.0
08:41:54.368,AUTO,-35.3632621,149.1652375,5,-0.0006072676042094827,0.0014537661336362362,0.021147960796952248,0.00028803094755858183,0.0003229020512662828,0.0014638130087405443,0,2,-1000,0,0,0,0,0,0,1500.0
08:41:54.570,AUTO,-35.3632621,149.1652375,5,-0.0006072676042094827,0.0014537661336362362,0.021147960796952248,0.00028803094755858183,0.0003229020512662828,0.0014638130087405443,0,2,-1000,0,0,0,0,0,0,1500.0
08:41:54.773,AUTO,-35.3632621,149.1652375,5,-0.0006072676042094827,0.0014537661336362362,0.021147960796952248,0.00028803094755858183,0.0003229020512662828,0.0014638130087405443,0,2,-1000,0,0,0,0,0,0,1500.0
08:41:54.975,AUTO,-35.3632621,149.1652375,5,-0.0006072676042094827,0.0014537661336362362,0.021147960796952248,0.00028803094755858183,0.0003229020512662828,0.0014638130087405443,0,2,-1000,0,0,0,0,0,0,1500.0
08:41:55.177,AUTO,-35.3632621,149.1652375,5,-0.00027074883109889925,0.0016770119545981288,0.020951395854353905,0.0002996399998664856,0.0003414651728235185,0.0013975201873108745,0,1,-1000,0,1,1,0,0,0,20082.0
08:41:55.379,AUTO,-35.3632621,149.1652375,5,-0.00019860973407048732,0.0017550494521856308,0.020875325426459312,0.00028763263253495097,0.00031590997241437435,0.0014915134524926543,0,1,-1000,1,0,0,0,0,0,20082.0
08:41:55.580,AUTO,-35.3632621,149.1652375,8,0.0009890629444271326,0.0010373078985139728,0.020876599475741386,0.01069075707346201,-0.010156563483178616,0.0017235086997970939,0,0,-1095,11,-9,1,0,0,-5,20082.0
08:41:55.782,AUTO,-35.3632621,149.1652375,64,0.003731392789632082,-0.0006748853484168649,0.02084803208708763,0.010472411289811134,-0.0011868058936670423,0.002076162723824382,0,0,-1140,11,0,1,0,0,-39,20082.0
08:41:55.983,AUTO,-35.3632621,149.1652375,64,0.003731392789632082,-0.0006748853484168649,0.02084803208708763,0.010472411289811134,-0.0011868058936670423,0.002076162723824382,0,0,-1140,11,0,1,0,0,-39,20082.0
08:41:56.185,AUTO,-35.3632621,149.1652375,206,0.0028132523875683546,0.00031379415304400027,0.020752621814608574,-0.007083304692059755,0.005896144080907106,-2.930033951997757e-05,0,0,-1129,-6,6,0,0,0,-72,20082.0
08:41:56.388,AUTO,-35.3632621,149.1652375,427,0.0017947157612070441,0.0013463712530210614,0.020635554566979408,-0.0057741133496165276,0.0036526168696582317,-3.269407898187637e-05,0,0,-1108,-5,4,0,0,1,-101,20082.0
08:41:56.596,AUTO,-35.3632621,149.1652375,427,0.0017947157612070441,0.0013463712530210614,0.020635554566979408,-0.0057741133496165276,0.0036526168696582317,-3.269407898187637e-05,0,0,-1108,-5,4,0,0,1,-101,20082.0
08:41:56.799,AUTO,-35.3632621,149.1652375,427,0.0017947157612070441,0.0013463712530210614,0.020635554566979408,-0.0057741133496165276,0.0036526168696582317,-3.269407898187637e-05,0,0,-1108,-5,4,0,0,1,-101,20082.0
08:41:57.006,AUTO,-35.3632621,149.1652375,427,0.0017947157612070441,0.0013463712530210614,0.020635554566979408,-0.0057741133496165276,0.0036526168696582317,-3.269407898187637e-05,0,0,-1108,-5,4,0,0,1,-101,20082.0
08:41:57.214,AUTO,-35.363262,149.1652375,1415,0.022312412038445473,-0.0008485960424877703,0.02035464346408844,0.04674900323152542,-0.007126795127987862,0.0022697248496115208,0,0,-1017,47,-6,1,1,5,-145,20082.0
08:41:57.416,AUTO,-35.363262,149.1652377,1793,0.03374915197491646,-0.002791309030726552,0.02048148773610592,0.04543808847665787,-0.008254747837781906,0.0028725338634103537,0,-1,-1007,45,-7,2,1,11,-147,20082.0
08:41:57.617,AUTO,-35.3632619,149.1652381,2175,0.04464445635676384,-0.004960066173225641,0.020716773346066475,0.04229440540075302,-0.008975527249276638,0.003204494249075651,0,-2,-1002,42,-8,3,3,20,-148,20082.0
08:41:57.819,AUTO,-35.3632618,149.1652387,2560,0.05484373867511749,-0.007609337102621794,0.020981909707188606,0.03967434912919998,-0.010837212204933167,0.00391487218439579,1,-5,-1000,40,-10,3,5,30,-148,20082.0
08:41:58.021,AUTO,-35.3632616,149.1652397,2945,0.06197993457317352,-0.008985411375761032,-0.007980713620781898,-0.004456085152924061,0.017186228185892105,-0.028748244047164917,0,-7,-994,-3,17,-29,8,43,-148,20082.0
08:41:58.223,AUTO,-35.3632616,149.1652397,2945,0.06197993457317352,-0.008985411375761032,-0.007980713620781898,-0.004456085152924061,0.017186228185892105,-0.028748244047164917,0,-7,-994,-3,17,-29,8,43,-148,20082.0
08:41:58.425,AUTO,-35.3632614,149.165241,3324,0.04260162264108658,0.011959485709667206,-0.02985384501516819,-0.13309620320796967,0.09918807446956635,-0.10147479921579361,3,-11,-991,-132,99,-101,9,53,-145,20082.0
08:41:58.627,AUTO,-35.3632614,149.165241,3324,0.04260162264108658,0.011959485709667206,-0.02985384501516819,-0.13309620320796967,0.09918807446956635,-0.10147479921579361,3,-11,-991,-132,99,-101,9,53,-145,20082.0
08:41:58.829,AUTO,-35.3632614,149.165241,3324,0.04260162264108658,0.011959485709667206,-0.02985384501516819,-0.13309620320796967,0.09918807446956635,-0.10147479921579361,3,-11,-991,-132,99,-101,9,53,-145,20082.0
08:41:59.031,AUTO,-35.363261,149.1652449,4458,-0.03539396822452545,0.03227921575307846,-0.09544293582439423,-0.019360283389687538,0.007988940924406052,-0.08424422889947891,4,-10,-1006,-18,8,-84,-4,37,-149,20082.0
08:41:59.237,AUTO,-35.363261,149.1652449,4458,-0.03539396822452545,0.03227921575307846,-0.09544293582439423,-0.019360283389687538,0.007988940924406052,-0.08424422889947891,4,-10,-1006,-18,8,-84,-4,37,-149,20082.0
08:41:59.503,AUTO,-35.363261,149.1652458,4843,-0.0434664711356163,0.02406439743936062,-0.10476485639810562,-0.04565563052892685,-0.06630304455757141,-0.006677557248622179,5,-6,-1001,-45,-65,-6,-10,25,-149,20082.0
08:41:59.751,AUTO,-35.3632615,149.1652464,5620,-0.07095484435558319,-0.02296372503042221,-0.07950033247470856,-0.023095156997442245,-0.0585448294878006,0.03248223662376404,3,1,-1003,-22,-58,32,-9,-5,-149,20082.0
08:42:00.002,AUTO,-35.3632617,149.1652461,6003,-0.06846163421869278,-0.025062408298254013,-0.07644709199666977,0.030282096937298775,0.009472927078604698,0.006902969442307949,0,3,-1002,31,10,6,-4,-23,-149,20082.0
08:42:00.285,AUTO,-35.3632618,149.1652453,6387,-0.057746272534132004,-0.0226444099098444,-0.07689949870109558,0.05151472985744476,0.006642310414463282,0.0057150088250637054,-3,7,-1001,52,7,5,0,-37,-149,20082.0
08:42:00.489,AUTO,-35.3632618,149.1652453,6387,-0.057746272534132004,-0.0226444099098444,-0.07689949870109558,0.05151472985744476,0.006642310414463282,0.0057150088250637054,-3,7,-1001,52,7,5,0,-37,-149,20082.0
08:42:00.704,AUTO,-35.3632618,149.1652453,6387,-0.057746272534132004,-0.0226444099098444,-0.07689949870109558,0.05151472985744476,0.006642310414463282,0.0057150088250637054,-3,7,-1001,52,7,5,0,-37,-149,20082.0
08:42:00.912,AUTO,-35.3632618,149.1652453,6387,-0.057746272534132004,-0.0226444099098444,-0.07689949870109558,0.05151472985744476,0.006642310414463282,0.0057150088250637054,-3,7,-1001,52,7,5,0,-37,-149,20082.0
08:42:01.118,AUTO,-35.3632616,149.165241,7531,-0.013176515698432922,-0.014174625277519226,-0.07557640969753265,0.06385877728462219,0.01741158775985241,0.005775317084044218,-9,12,-1003,64,17,5,8,-59,-150,29919.0
08:42:01.320,AUTO,-35.3632614,149.1652393,7918,0.0027071014046669006,-0.00939262192696333,-0.07507835328578949,0.06393864005804062,0.019717885181307793,0.0055319457314908504,-10,9,-1003,64,20,5,9,-58,-151,29919.0
08:42:01.522,AUTO,-35.3632612,149.1652377,8307,0.018708346411585808,-0.004325765650719404,-0.07454661279916763,0.06258761882781982,0.02104058302938938,0.0039002704434096813,-9,12,-1003,63,21,3,9,-54,-152,29919.0
08:42:01.724,AUTO,-35.3632612,149.1652377,8307,0.018708346411585808,-0.004325765650719404,-0.07454661279916763,0.06258761882781982,0.02104058302938938,0.0039002704434096813,-9,12,-1003,63,21,3,9,-54,-152,29919.0
08:42:01.926,AUTO,-35.363261,149.1652362,8697,0.033028461039066315,0.0017254977719858289,-0.07499540597200394,0.05362936109304428,0.028180429711937904,-0.004070395138114691,-8,7,-1003,54,28,-4,8,-46,-152,29919.0
08:42:02.128,AUTO,-35.3632609,149.165235,9090,0.04323450103402138,0.010971996001899242,-0.07914634048938751,0.03384596109390259,0.04300956800580025,-0.023708263412117958,-7,7,-1001,34,43,-24,6,-35,-153,29919.0
08:42:02.331,AUTO,-35.3632608,149.1652341,9491,0.05140145495533943,0.021876156330108643,-0.08670155704021454,0.030180545523762703,0.0404239259660244,-0.03798482194542885,-5,6,-1000,30,41,-38,1,-22,-153,29919.0
08:42:02.533,AUTO,-35.3632608,149.1652341,9491,0.05140145495533943,0.021876156330108643,-0.08670155704021454,0.030180545523762703,0.0404239259660244,-0.03798482194542885,-5,6,-1000,30,41,-38,1,-22,-153,29919.0
08:42:02.735,AUTO,-35.3632608,149.1652341,9491,0.05140145495533943,0.021876156330108643,-0.08670155704021454,0.030180545523762703,0.0404239259660244,-0.03798482194542885,-5,6,-1000,30,41,-38,1,-22,-153,29919.0
08:42:02.938,AUTO,-35.3632608,149.1652341,9491,0.05140145495533943,0.021876156330108643,-0.08670155704021454,0.030180545523762703,0.0404239259660244,-0.03798482194542885,-5,6,-1000,30,41,-38,1,-22,-153,29919.0
08:42:03.140,AUTO,-35.3632612,149.1652336,10659,0.0458698496222496,0.031199628487229347,-0.10831498354673386,-0.0732058733701706,-0.05670758709311485,0.01685093715786934,4,0,-995,-72,-56,16,-17,19,-149,29919.0
08:42:03.342,AUTO,-35.3632616,149.1652342,11041,0.025568077340722084,0.015415824018418789,-0.10327672958374023,-0.08273676782846451,-0.059364769607782364,0.026246892288327217,6,0,-998,-81,-58,25,-20,27,-148,29919.0
08:42:03.544,AUTO,-35.363262,149.1652349,11422,0.0075052171014249325,0.002295940648764372,-0.0975625291466713,-0.06354998797178268,-0.04341244325041771,0.020889434963464737,8,-2,-1002,-62,-42,20,-19,29,-149,29919.0
08:42:03.745,AUTO,-35.363262,149.1652349,11422,0.0075052171014249325,0.002295940648764372,-0.0975625291466713,-0.06354998797178268,-0.04341244325041771,0.020889434963464737,8,-2,-1002,-62,-42,20,-19,29,-149,29919.0
08:42:03.947,AUTO,-35.3632624,149.1652356,11805,-0.006679999642074108,-0.0059972042217850685,-0.09422419220209122,-0.0457884706556797,-0.026419352740049362,0.00853234063833952,7,-2,-1004,-44,-25,8,-16,27,-150,29919.0
08:42:04.230,AUTO,-35.3632627,149.1652363,12191,-0.015101202763617039,-0.011195682920515537,-0.0934639647603035,-0.02259383350610733,-0.01480081770569086,-0.004430451430380344,5,-2,-1004,-22,-14,-4,-13,22,-151,29919.0
08:42:04.467,AUTO,-35.363263,149.1652368,12578,-0.018835945054888725,-0.013857370242476463,-0.09536197036504745,-0.00648592971265316,-0.006661469582468271,-0.012230420485138893,4,-2,-1003,-5,-5,-12,-8,16,-151,29919.0
08:42:04.785,AUTO,-35.363263,149.1652368,12578,-0.018835945054888725,-0.013857370242476463,-0.09536197036504745,-0.00648592971265316,-0.006661469582468271,-0.012230420485138893,4,-2,-1003,-5,-5,-12,-8,16,-151,29919.0
08:42:04.999,AUTO,-35.363263,149.1652368,12578,-0.018835945054888725,-0.013857370242476463,-0.09536197036504745,-0.00648592971265316,-0.006661469582468271,-0.012230420485138893,4,-2,-1003,-5,-5,-12,-8,16,-151,29919.0
08:42:05.221,AUTO,-35.3632631,149.1652373,13746,-0.013892827555537224,-0.012050803750753403,-0.1127311959862709,0.014924786053597927,0.008854554034769535,-0.02751302905380726,0,0,-1000,15,9,-27,2,0,-152,29919.0
08:42:05.424,AUTO,-35.3632631,149.1652373,14140,-0.009561707265675068,-0.009492459706962109,-0.12041329592466354,0.018662482500076294,0.012277510948479176,-0.030091339722275734,-1,0,-1000,19,12,-30,5,-4,-152,29919.0
08:42:05.626,AUTO,-35.3632629,149.1652371,14530,-0.005091892555356026,-0.006187725346535444,-0.12843842804431915,0.018450995907187462,0.014451241120696068,-0.030879857018589973,-2,0,-1000,19,15,-31,7,-7,-152,29919.0
08:42:05.828,AUTO,-35.3632627,149.1652369,14918,-0.0006532220868393779,-0.002765297656878829,-0.13617727160453796,0.017132043838500977,0.012030968442559242,-0.028193451464176178,-3,0,-1000,18,12,-28,8,-8,-152,202725.0
08:42:06.031,AUTO,-35.3632625,149.1652366,15308,0.0035072772298008204,0.00035452854353934526,-0.14332330226898193,0.01726454310119152,0.011778282932937145,-0.027951549738645554,-3,0,-1000,17,12,-28,8,-9,-152,202725.0
08:42:06.233,AUTO,-35.3632625,149.1652366,15308,0.0035072772298008204,0.00035452854353934526,-0.14332330226898193,0.01726454310119152,0.011778282932937145,-0.027951549738645554,-3,0,-1000,17,12,-28,8,-9,-152,202725.0
08:42:06.434,AUTO,-35.3632623,149.1652363,15699,0.0065180957317352295,0.00306619331240654,-0.14959482848644257,0.009409901686012745,0.010801224038004875,-0.023493139073252678,-3,0,-1000,10,11,-23,7,-8,-152,202725.0
08:42:06.636,AUTO,-35.3632623,149.1652363,15699,0.0065180957317352295,0.00306619331240654,-0.14959482848644257,0.009409901686012745,0.010801224038004875,-0.023493139073252678,-3,0,-1000,10,11,-23,7,-8,-152,202725.0
08:42:06.838,AUTO,-35.3632623,149.1652363,15699,0.0065180957317352295,0.00306619331240654,-0.14959482848644257,0.009409901686012745,0.010801224038004875,-0.023493139073252678,-3,0,-1000,10,11,-23,7,-8,-152,202725.0
08:42:07.040,AUTO,-35.3632618,149.1652357,16865,0.010802991688251495,0.008209853433072567,-0.16416418552398682,0.002118445700034499,0.005787970498204231,-0.01754309982061386,-1,0,-1000,2,6,-17,4,-2,-152,202725.0
08:42:07.241,AUTO,-35.3632618,149.1652357,16865,0.010802991688251495,0.008209853433072567,-0.16416418552398682,0.002118445700034499,0.005787970498204231,-0.01754309982061386,-1,0,-1000,2,6,-17,4,-2,-152,202725.0
08:42:07.443,AUTO,-35.3632617,149.1652356,17255,0.010649889707565308,0.008955550380051136,-0.16785238683223724,0.0002030053292401135,0.003104591742157936,-0.014213834889233112,-1,0,-1000,0,3,-14,2,0,-152,202725.0
08:42:07.644,AUTO,-35.3632616,149.1652355,17644,0.010082927532494068,0.009177098050713539,-0.171129509806633,-0.0025091711431741714,0.0002507971948944032,-0.010849564336240292,-1,0,-1000,-1,0,-11,1,1,-152,202725.0
08:42:07.846,AUTO,-35.3632615,149.1652355,18034,0.009146320633590221,0.008883786387741566,-0.17415057122707367,-0.0019533659797161818,-0.0011428138241171837,-0.013116944581270218,0,0,-1000,-1,0,-13,0,3,-152,202725.0
08:42:08.048,AUTO,-35.3632615,149.1652356,18423,0.008029667660593987,0.008391586132347584,-0.17706166207790375,-0.002512976061552763,-0.0004831708502024412,-0.01268788892775774,0,0,-1000,-1,0,-13,-1,4,-152,202725.0
08:42:08.249,AUTO,-35.3632615,149.1652356,18423,0.008029667660593987,0.008391586132347584,-0.17706166207790375,-0.002512976061552763,-0.0004831708502024412,-0.01268788892775774,0,0,-1000,-1,0,-13,-1,4,-152,202725.0
08:42:08.452,AUTO,-35.3632614,149.1652356,18815,0.006757095921784639,0.007682522293180227,-0.17993484437465668,-0.004731298424303532,-0.002066991990432143,-0.012152193114161491,0,0,-1000,-3,-1,-12,-2,5,-152,202725.0
08:42:08.654,AUTO,-35.3632614,149.1652356,18815,0.006757095921784639,0.007682522293180227,-0.17993484437465668,-0.004731298424303532,-0.002066991990432143,-0.012152193114161491,0,0,-1000,-3,-1,-12,-2,5,-152,202725.0
08:42:08.856,AUTO,-35.3632614,149.1652356,18815,0.006757095921784639,0.007682522293180227,-0.17993484437465668,-0.004731298424303532,-0.002066991990432143,-0.012152193114161491,0,0,-1000,-3,-1,-12,-2,5,-152,202725.0
08:42:09.058,AUTO,-35.3632614,149.1652359,19979,0.0037721372209489346,0.005215449258685112,-0.18923842906951904,-0.00115753966383636,-0.0010916986502707005,-0.0153504004701972,0,0,-1000,0,0,-15,-3,6,-152,202725.0
08:42:09.260,AUTO,-35.3632615,149.165236,20368,-0.005839881021529436,0.004569073673337698,-0.19298280775547028,-0.06618493795394897,-0.0014352650614455342,-0.016669757664203644,1,-1,-995,-65,0,-16,-4,5,-152,202725.0
08:42:09.469,AUTO,-35.3632615,149.165236,20368,-0.005839881021529436,0.004569073673337698,-0.19298280775547028,-0.06618493795394897,-0.0014352650614455342,-0.016669757664203644,1,-1,-995,-65,0,-16,-4,5,-152,202725.0
08:42:09.742,AUTO,-35.3632615,149.165236,20754,-0.02629046142101288,0.004032817669212818,-0.19734850525856018,-0.08952730894088745,-0.002057694597169757,-0.01909266784787178,1,-1,-997,-88,-1,-19,-5,1,-151,202725.0
08:42:10.044,AUTO,-35.3632617,149.1652356,21510,-0.044798389077186584,0.0356847308576107,-0.12521035969257355,-0.012392782606184483,0.08965812623500824,0.361606627702713,0,2,-983,-11,90,361,-13,-17,-144,202725.0
08:42:10.257,AUTO,-35.3632621,149.1652349,21871,-0.04364890977740288,0.05460084602236748,-0.011825325898826122,0.015300964005291462,-0.017221109941601753,0.43830209970474243,0,7,-965,16,-16,438,-25,-27,-138,202725.0
08:42:10.459,AUTO,-35.3632621,149.1652349,21871,-0.04364890977740288,0.05460084602236748,-0.011825325898826122,0.015300964005291462,-0.017221109941601753,0.43830209970474243,0,7,-965,16,-16,438,-25,-27,-138,202725.0
08:42:10.662,AUTO,-35.3632621,149.1652349,21871,-0.04364890977740288,0.05460084602236748,-0.011825325898826122,0.015300964005291462,-0.017221109941601753,0.43830209970474243,0,7,-965,16,-16,438,-25,-27,-138,202725.0
08:42:10.865,AUTO,-35.3632621,149.1652349,21871,-0.04364890977740288,0.05460084602236748,-0.011825325898826122,0.015300964005291462,-0.017221109941601753,0.43830209970474243,0,7,-965,16,-16,438,-25,-27,-138,202725.0
08:42:11.069,AUTO,-35.3632641,149.1652323,22807,0.03745654597878456,-0.036449678242206573,0.09142821282148361,0.08181021362543106,-0.05899125337600708,-0.03787895292043686,2,8,-960,82,-58,-37,-26,-23,-106,202725.0
08:42:11.271,AUTO,-35.3632645,149.1652317,23070,0.05181039497256279,-0.04367605969309807,0.0795779824256897,0.03511989861726761,-0.01023146789520979,-0.04655837267637253,1,5,-963,35,-9,-46,-16,-10,-96,202725.0
08:42:11.473,AUTO,-35.3632645,149.1652317,23070,0.05181039497256279,-0.04367605969309807,0.0795779824256897,0.03511989861726761,-0.01023146789520979,-0.04655837267637253,1,5,-963,35,-9,-46,-16,-10,-96,174563.0
08:42:11.675,AUTO,-35.3632648,149.1652316,23305,0.055678050965070724,-0.04177495837211609,0.06977757811546326,-0.0014585695462301373,0.015335885807871819,-0.033862680196762085,1,2,-966,0,16,-34,-6,3,-87,174563.0
08:42:11.877,AUTO,-35.3632648,149.1652317,23517,0.052219316363334656,-0.03576524183154106,0.06431117653846741,-0.0237993486225605,0.028543120250105858,-0.014973833225667477,0,-2,-970,-23,29,-14,2,15,-79,174563.0
08:42:12.079,AUTO,-35.3632647,149.1652322,23710,0.044374581426382065,-0.027135619893670082,0.06206079572439194,-0.03462119773030281,0.038472339510917664,-0.0049218228086829185,1,-5,-973,-33,39,-5,9,25,-72,174563.0
08:42:12.281,AUTO,-35.3632645,149.1652328,23884,0.03384251520037651,-0.01733970455825329,0.061558980494737625,-0.04689383506774902,0.03967260196805,0.0016554793110117316,0,-7,-975,-45,40,1,14,32,-65,174563.0
08:42:12.483,AUTO,-35.3632645,149.1652328,23884,0.03384251520037651,-0.01733970455825329,0.061558980494737625,-0.04689383506774902,0.03967260196805,0.0016554793110117316,0,-7,-975,-45,40,1,14,32,-65,174563.0
08:42:12.685,AUTO,-35.3632645,149.1652328,23884,0.03384251520037651,-0.01733970455825329,0.061558980494737625,-0.04689383506774902,0.03967260196805,0.0016554793110117316,0,-7,-975,-45,40,1,14,32,-65,174563.0
08:42:12.887,AUTO,-35.3632645,149.1652328,23884,0.03384251520037651,-0.01733970455825329,0.061558980494737625,-0.04689383506774902,0.03967260196805,0.0016554793110117316,0,-7,-975,-45,40,1,14,32,-65,174563.0
08:42:13.089,AUTO,-35.3632631,149.1652356,24312,0.005872601643204689,0.006085946224629879,0.059570539742708206,-0.03519674390554428,0.022498685866594315,-0.0008116149110719562,0,-10,-977,-34,23,-1,19,37,-48,174563.0
08:42:13.291,AUTO,-35.3632627,149.1652366,24424,-0.0005795540055260062,0.010521570220589638,0.05873662605881691,-0.0218849778175354,0.015214554034173489,-0.0005614956025965512,0,-9,-977,-20,16,0,17,34,-42,174563.0
08:42:13.493,AUTO,-35.3632627,149.1652366,24424,-0.0005795540055260062,0.010521570220589638,0.05873662605881691,-0.0218849778175354,0.015214554034173489,-0.0005614956025965512,0,-9,-977,-20,16,0,17,34,-42,174563.0
08:42:13.696,AUTO,-35.3632623,149.1652374,24522,-0.005151670426130295,0.013277599588036537,0.05774010717868805,-0.009537114761769772,0.008441735059022903,-0.0019215729553252459,0,-8,-976,-8,9,-2,15,30,-36,174563.0
08:42:13.897,AUTO,-35.3632619,149.1652382,24605,-0.008624470792710781,0.014674536883831024,0.0568242110311985,-0.019006580114364624,0.0036188866943120956,-0.0015458730049431324,0,-8,-975,-17,4,-1,13,26,-30,174563.0
08:42:14.099,AUTO,-35.3632616,149.1652388,24672,-0.010948589071631432,0.015230448916554451,0.055804070085287094,-0.017581447958946228,0.001003454439342022,-0.0034435498528182507,0,-6,-974,-16,1,-3,10,21,-24,174563.0
08:42:14.301,AUTO,-35.3632614,149.1652393,24722,-0.010941460728645325,0.014627097174525261,0.05474837124347687,0.033631179481744766,-0.003998570144176483,-0.003989589866250753,0,-2,-972,34,-2,-4,7,17,-17,174563.0
08:42:14.511,AUTO,-35.3632614,149.1652393,24722,-0.010941460728645325,0.014627097174525261,0.05474837124347687,0.033631179481744766,-0.003998570144176483,-0.003989589866250753,0,-2,-972,34,-2,-4,7,17,-17,174563.0
08:42:14.713,AUTO,-35.3632614,149.1652393,24722,-0.010941460728645325,0.014627097174525261,0.05474837124347687,0.033631179481744766,-0.003998570144176483,-0.003989589866250753,0,-2,-972,34,-2,-4,7,17,-17,174563.0
08:42:14.915,AUTO,-35.3632614,149.1652393,24722,-0.010941460728645325,0.014627097174525261,0.05474837124347687,0.033631179481744766,-0.003998570144176483,-0.003989589866250753,0,-2,-972,34,-2,-4,7,17,-17,174563.0
08:42:15.118,AUTO,-35.3632611,149.16524,24741,-0.04759827256202698,0.029751572757959366,0.05117334425449371,-0.12924028933048248,0.0022381478920578957,-0.0065021454356610775,0,2,-967,-127,3,-6,-2,0,14,174563.0
08:42:15.332,AUTO,-35.3632611,149.1652399,24694,-0.02347072958946228,0.02884056605398655,0.050516460090875626,0.8349988460540771,0.004552753642201424,-0.0018811607733368874,0,43,-969,836,5,-1,-8,-10,20,174563.0
08:42:15.677,AUTO,-35.3632613,149.1652395,24636,-0.0032849556300789118,0.03200548514723778,0.04983372986316681,0.7414712905883789,0.014035671018064022,-0.005879396107047796,1,28,-1007,742,15,-5,-15,-15,20,174563.0
08:42:16.052,AUTO,-35.3632623,149.1652385,24545,-0.013771990314126015,0.04158586636185646,0.047985002398490906,-0.7835443615913391,0.02345398999750614,-0.009883581660687923,3,-21,-1022,-783,24,-10,-31,-19,10,174563.0
08:42:16.400,AUTO,-35.3632631,149.165238,24514,-0.013593620620667934,0.04871250316500664,0.047224678099155426,-0.5459718704223633,0.02997479774057865,-0.003936904016882181,6,-5,-1034,-544,31,-4,-40,-18,7,174563.0
08:42:16.615,AUTO,-35.3632631,149.165238,24514,-0.013593620620667934,0.04871250316500664,0.047224678099155426,-0.5459718704223633,0.02997479774057865,-0.003936904016882181,6,-5,-1034,-544,31,-4,-40,-18,7,174563.0
08:42:16.825,AUTO,-35.3632631,149.165238,24514,-0.013593620620667934,0.04871250316500664,0.047224678099155426,-0.5459718704223633,0.02997479774057865,-0.003936904016882181,6,-5,-1034,-544,31,-4,-40,-18,7,174563.0
08:42:17.030,AUTO,-35.3632631,149.165238,24514,-0.013593620620667934,0.04871250316500664,0.047224678099155426,-0.5459718704223633,0.02997479774057865,-0.003936904016882181,6,-5,-1034,-544,31,-4,-40,-18,7,174563.0
08:42:17.240,AUTO,-35.3632676,149.1652367,24461,-0.026843447238206863,0.07443838566541672,-0.0744415670633316,-0.5871503949165344,0.04675591364502907,-0.3752637207508087,15,-9,-995,-586,47,-375,-82,-16,2,68655.0
08:42:17.442,AUTO,-35.3632696,149.1652365,24449,-0.04337954521179199,0.07983683049678802,-0.16719497740268707,0.18368135392665863,0.03423814848065376,-0.28404316306114197,15,43,-1001,185,35,-284,-97,-16,2,68655.0
08:42:17.643,AUTO,-35.363272,149.1652362,24434,-0.04827684164047241,0.08404719084501266,-0.22490693628787994,0.5590735077857971,0.03068854846060276,-0.17047280073165894,15,46,-1002,559,31,-170,-114,-18,4,68655.0
08:42:17.845,AUTO,-35.363272,149.1652362,24434,-0.04827684164047241,0.08404719084501266,-0.22490693628787994,0.5590735077857971,0.03068854846060276,-0.17047280073165894,15,46,-1002,559,31,-170,-114,-18,4,68655.0
08:42:18.047,AUTO,-35.3632748,149.1652359,24417,-0.06703916937112808,0.08969616144895554,-0.2656133770942688,-0.224400594830513,0.041560832411050797,-0.14619265496730804,17,7,-994,-224,42,-146,-133,-23,4,68655.0
08:42:18.249,AUTO,-35.3632781,149.1652354,24397,-0.08896805346012115,0.0965951606631279,-0.302908718585968,-0.630426287651062,0.04381059110164642,-0.13722136616706848,18,13,-993,-629,44,-137,-153,-27,7,68655.0
08:42:18.451,AUTO,-35.3632818,149.1652348,24368,-0.0936059057712555,0.10350897908210754,-0.34094616770744324,0.01591239869594574,0.03359043225646019,-0.13487835228443146,20,52,-995,18,34,-134,-175,-30,9,68655.0
08:42:18.653,AUTO,-35.3632818,149.1652348,24368,-0.0936059057712555,0.10350897908210754,-0.34094616770744324,0.01591239869594574,0.03359043225646019,-0.13487835228443146,20,52,-995,18,34,-134,-175,-30,9,68655.0
08:42:18.855,AUTO,-35.3632818,149.1652348,24368,-0.0936059057712555,0.10350897908210754,-0.34094616770744324,0.01591239869594574,0.03359043225646019,-0.13487835228443146,20,52,-995,18,34,-134,-175,-30,9,68655.0
08:42:19.058,AUTO,-35.3632818,149.1652348,24368,-0.0936059057712555,0.10350897908210754,-0.34094616770744324,0.01591239869594574,0.03359043225646019,-0.13487835228443146,20,52,-995,18,34,-134,-175,-30,9,68655.0
08:42:19.260,AUTO,-35.3632964,149.1652319,24253,-0.12855923175811768,0.11359740793704987,-0.4652594327926636,-0.4704841077327728,0.010604139417409897,-0.1722169816493988,22,35,-997,-470,11,-172,-253,-45,14,68655.0
08:42:19.462,AUTO,-35.3633024,149.1652306,24208,-0.13234320282936096,0.10822281986474991,-0.5073708891868591,0.018164848908782005,-0.0071288831532001495,-0.1762857437133789,25,82,-1001,20,-6,-176,-280,-48,15,68655.0
08:42:19.664,AUTO,-35.3633091,149.1652291,24161,-0.12306210398674011,0.09501808881759644,-0.5489786863327026,0.4990972578525543,-0.050163041800260544,-0.1686999797821045,24,97,-1008,499,-49,-168,-305,-52,16,68655.0
08:42:19.866,AUTO,-35.3633163,149.1652275,24114,-0.12125155329704285,0.07881919294595718,-0.5901245474815369,-0.15190786123275757,-0.04521496966481209,-0.1767284870147705,16,62,-1000,-151,-44,-176,-326,-56,15,68655.0
08:42:20.068,AUTO,-35.3633163,149.1652275,24114,-0.12125155329704285,0.07881919294595718,-0.5901245474815369,-0.15190786123275757,-0.04521496966481209,-0.1767284870147705,16,62,-1000,-151,-44,-176,-326,-56,15,68655.0
08:42:20.269,AUTO,-35.363324,149.1652259,24068,-0.12649472057819366,0.06382168084383011,-0.6312472224235535,-0.3817753493785858,-0.030345182865858078,-0.17488305270671844,18,65,-990,-380,-29,-174,-343,-58,16,68655.0
08:42:20.472,AUTO,-35.3633319,149.1652243,24019,-0.11955269426107407,0.05198134109377861,-0.672234833240509,0.34201014041900635,-0.02153211273252964,-0.1677437275648117,12,104,-991,343,-20,-167,-358,-59,17,68655.0
08:42:20.674,AUTO,-35.3633319,149.1652243,24019,-0.11955269426107407,0.05198134109377861,-0.672234833240509,0.34201014041900635,-0.02153211273252964,-0.1677437275648117,12,104,-991,343,-20,-167,-358,-59,17,68655.0
08:42:20.876,AUTO,-35.3633319,149.1652243,24019,-0.11955269426107407,0.05198134109377861,-0.672234833240509,0.34201014041900635,-0.02153211273252964,-0.1677437275648117,12,104,-991,343,-20,-167,-358,-59,17,68655.0
08:42:21.079,AUTO,-35.3633541,149.1652196,23882,-0.12490569055080414,0.029875842854380608,-0.7816628217697144,-0.4228695333003998,-0.0017870377050712705,-0.17205940186977386,6,79,-995,-422,0,-171,-388,-64,19,68655.0
08:42:21.309,AUTO,-35.3633631,149.1652177,23825,-0.12148930877447128,0.022504454478621483,-0.8237768411636353,0.16279520094394684,-0.025305964052677155,-0.17490209639072418,-4,117,-994,164,-24,-174,-397,-65,21,68655.0
08:42:21.601,AUTO,-35.3633722,149.1652159,23766,-0.1146102249622345,0.01533370278775692,-0.8663128614425659,0.4813118577003479,-0.014069811441004276,-0.18231253325939178,1,124,-999,482,-13,-182,-405,-66,22,68655.0
08:42:21.942,AUTO,-35.3633817,149.1652139,23703,-0.12313591688871384,0.007506960071623325,-0.9086326956748962,-0.4042774736881256,-0.021696673706173897,-0.16566979885101318,-5,76,-998,-404,-20,-165,-413,-67,23,68655.0
08:42:22.190,AUTO,-35.3633912,149.1652119,23641,-0.12078655511140823,-0.002236377215012908,-0.950553297996521,0.0026960826944559813,-0.018909214064478874,-0.1727026402950287,-11,106,-994,4,-17,-172,-420,-68,23,68655.0
08:42:22.410,AUTO,-35.3634008,149.1652099,23576,-0.10203837603330612,-0.008536718785762787,-0.9929764270782471,0.49073728919029236,-0.003515168558806181,-0.17968858778476715,-18,118,-999,491,-2,-179,-424,-69,24,68655.0
08:42:22.615,AUTO,-35.3634008,149.1652099,23576,-0.10203837603330612,-0.008536718785762787,-0.9929764270782471,0.49073728919029236,-0.003515168558806181,-0.17968858778476715,-18,118,-999,491,-2,-179,-424,-69,24,68655.0
08:42:22.822,AUTO,-35.3634008,149.1652099,23576,-0.10203837603330612,-0.008536718785762787,-0.9929764270782471,0.49073728919029236,-0.003515168558806181,-0.17968858778476715,-18,118,-999,491,-2,-179,-424,-69,24,68655.0
08:42:23.036,AUTO,-35.3634008,149.1652099,23576,-0.10203837603330612,-0.008536718785762787,-0.9929764270782471,0.49073728919029236,-0.003515168558806181,-0.17968858778476715,-18,118,-999,491,-2,-179,-424,-69,24,68655.0
08:42:23.238,AUTO,-35.3634337,149.1652029,23358,-0.08170313388109207,-0.028895488008856773,-1.1359864473342896,0.652401328086853,-0.007647341582924128,-0.16722512245178223,-29,106,-996,653,-7,-167,-430,-71,24,36454.0
08:42:23.440,AUTO,-35.3634434,149.1652008,23294,-0.08296241611242294,-0.033879220485687256,-1.1883666515350342,-0.011453214101493359,-0.01546037569642067,-0.30308061838150024,-47,83,-970,-11,-14,-303,-429,-69,26,36454.0
08:42:23.644,AUTO,-35.363453,149.1651988,23226,-0.09689200669527054,-0.046373408287763596,-1.3042596578598022,-0.579082190990448,0.03357994183897972,-0.5192543864250183,-44,65,-992,-578,34,-519,-429,-70,27,36454.0
08:42:23.847,AUTO,-35.363453,149.1651988,23226,-0.09689200669527054,-0.046373408287763596,-1.3042596578598022,-0.579082190990448,0.03357994183897972,-0.5192543864250183,-44,65,-992,-578,34,-519,-429,-70,27,36454.0
08:42:24.049,AUTO,-35.3634626,149.1651968,23157,-0.08668193221092224,-0.05239080265164375,-1.4439376592636108,-0.3086996078491211,0.02387753501534462,-0.5688928961753845,-63,88,-997,-306,24,-568,-428,-70,26,36454.0
08:42:24.251,AUTO,-35.3634721,149.1651948,23090,-0.05655485391616821,-0.06063815578818321,-1.5836799144744873,0.5730136036872864,0.0003873822861351073,-0.5683676600456238,-68,104,-1005,574,1,-568,-427,-69,24,36454.0
08:42:24.453,AUTO,-35.3634816,149.1651928,23027,-0.031656280159950256,-0.06287693232297897,-1.7145320177078247,0.47270289063453674,0.008816146291792393,-0.5067119598388672,-76,74,-1002,472,9,-506,-422,-68,24,36454.0
08:42:24.655,AUTO,-35.3634816,149.1651928,23027,-0.031656280159950256,-0.06287693232297897,-1.7145320177078247,0.47270289063453674,0.008816146291792393,-0.5067119598388672,-76,74,-1002,472,9,-506,-422,-68,24,36454.0
08:42:24.857,AUTO,-35.3634816,149.1651928,23027,-0.031656280159950256,-0.06287693232297897,-1.7145320177078247,0.47270289063453674,0.008816146291792393,-0.5067119598388672,-76,74,-1002,472,9,-506,-422,-68,24,36454.0
08:42:25.059,AUTO,-35.3634816,149.1651928,23027,-0.031656280159950256,-0.06287693232297897,-1.7145320177078247,0.47270289063453674,0.008816146291792393,-0.5067119598388672,-76,74,-1002,472,9,-506,-422,-68,24,36454.0
08:42:25.261,AUTO,-35.3635089,149.1651872,22853,0.012849177233874798,-0.054987117648124695,-2.087653636932373,0.1938479244709015,0.05322293937206268,-0.5175294280052185,-88,52,-990,196,53,-517,-391,-63,21,36454.0
08:42:25.463,AUTO,-35.3635174,149.1651855,22799,0.03765205666422844,-0.0437493771314621,-2.209317445755005,0.7428743839263916,0.02323109284043312,-0.5164521336555481,-90,55,-998,743,23,-516,-375,-62,20,36454.0
08:42:25.666,AUTO,-35.3635255,149.1651838,22745,0.04669980704784393,-0.03131437301635742,-2.329899311065674,0.31673604249954224,0.03505248948931694,-0.47665244340896606,-87,-2,-995,316,36,-476,-358,-60,21,36454.0
08:42:25.868,AUTO,-35.3635332,149.1651821,22690,0.045739978551864624,-0.015375567600131035,-2.4519588947296143,-0.5647908449172974,0.045464832335710526,-0.4557352066040039,-84,-43,-1012,-565,46,-455,-340,-56,20,36454.0
08:42:26.070,AUTO,-35.3635332,149.1651821,22690,0.045739978551864624,-0.015375567600131035,-2.4519588947296143,-0.5647908449172974,0.045464832335710526,-0.4557352066040039,-84,-43,-1012,-565,46,-455,-340,-56,20,36454.0
08:42:26.272,AUTO,-35.3635406,149.1651805,22639,0.043323662132024765,0.0032082160469144583,-2.57753849029541,-0.6227326393127441,0.06130942329764366,-0.49651405215263367,-84,-36,-1008,-620,62,-496,-318,-54,19,36454.0
08:42:26.474,AUTO,-35.3635474,149.1651791,22592,0.054990556091070175,0.023276332765817642,-2.699765920639038,0.13535508513450623,0.04911123588681221,-0.5145067572593689,-67,-1,-1005,137,50,-514,-295,-52,17,36454.0
08:42:26.676,AUTO,-35.3635474,149.1651791,22592,0.054990556091070175,0.023276332765817642,-2.699765920639038,0.13535508513450623,0.04911123588681221,-0.5145067572593689,-67,-1,-1005,137,50,-514,-295,-52,17,36454.0
08:42:26.878,AUTO,-35.3635474,149.1651791,22592,0.054990556091070175,0.023276332765817642,-2.699765920639038,0.13535508513450623,0.04911123588681221,-0.5145067572593689,-67,-1,-1005,137,50,-514,-295,-52,17,36454.0
08:42:27.080,AUTO,-35.3635474,149.1651791,22592,0.054990556091070175,0.023276332765817642,-2.699765920639038,0.13535508513450623,0.04911123588681221,-0.5145067572593689,-67,-1,-1005,137,50,-514,-295,-52,17,36454.0
08:42:27.289,AUTO,-35.3635644,149.1651753,22468,0.040249019861221313,0.07889527082443237,-2.9949145317077637,0.12256322056055069,0.043580397963523865,-0.11009513586759567,-45,-45,-1024,122,44,-109,-214,-41,13,36454.0
08:42:27.506,AUTO,-35.3635689,149.1651743,22436,0.027551326900720596,0.08740312606096268,-2.997676134109497,-0.6181811094284058,0.012870343402028084,0.05373754724860191,-46,-67,-1016,-618,13,53,-183,-36,11,36454.0
08:42:27.855,AUTO,-35.3635727,149.1651736,22405,0.022600797936320305,0.08721328526735306,-2.9816997051239014,-0.7380841374397278,-0.0013482221402227879,0.06415378302335739,-30,-52,-1020,-737,0,64,-154,-32,10,36454.0
08:42:28.104,AUTO,-35.363576,149.165173,22378,0.027465755119919777,0.08138157427310944,-2.967041015625,-0.43212881684303284,-0.035479649901390076,0.019009282812476158,-29,-19,-1011,-430,-34,18,-127,-29,10,36454.0
08:42:28.420,AUTO,-35.363581,149.1651724,22340,0.04355121776461601,0.05919943377375603,-2.95654034614563,0.34683629870414734,-0.03449805825948715,-0.00039538409328088164,-19,-5,-1010,346,-33,0,-83,-24,5,36454.0
08:42:28.626,AUTO,-35.363581,149.1651724,22340,0.04355121776461601,0.05919943377375603,-2.95654034614563,0.34683629870414734,-0.03449805825948715,-0.00039538409328088164,-19,-5,-1010,346,-33,0,-83,-24,5,36454.0
08:42:28.832,AUTO,-35.363581,149.1651724,22340,0.04355121776461601,0.05919943377375603,-2.95654034614563,0.34683629870414734,-0.03449805825948715,-0.00039538409328088164,-19,-5,-1010,346,-33,0,-83,-24,5,36454.0
08:42:29.035,AUTO,-35.363581,149.1651724,22340,0.04355121776461601,0.05919943377375603,-2.95654034614563,0.34683629870414734,-0.03449805825948715,-0.00039538409328088164,-19,-5,-1010,346,-33,0,-83,-24,5,36454.0
08:42:29.238,AUTO,-35.3635856,149.1651721,22315,0.04014091193675995,0.04647576063871384,-2.959674835205078,0.5706984996795654,-0.011679373681545258,-0.018044715747237206,-12,25,-1012,572,-10,-18,-38,-24,2,45190.0
08:42:29.441,AUTO,-35.3635866,149.1651721,22312,0.04008425027132034,0.04300934821367264,-2.9614903926849365,0.36933231353759766,-0.01862967200577259,-0.011451476253569126,-9,-2,-993,369,-17,-11,-26,-24,2,45190.0
08:42:29.643,AUTO,-35.3635873,149.1651721,22310,0.028211668133735657,0.040551699697971344,-2.9622981548309326,-0.4566878080368042,-0.007460055407136679,-0.0005117293912917376,-7,-31,-1006,-456,-6,0,-16,-23,0,45190.0
08:42:29.845,AUTO,-35.3635873,149.1651721,22310,0.028211668133735657,0.040551699697971344,-2.9622981548309326,-0.4566878080368042,-0.007460055407136679,-0.0005117293912917376,-7,-31,-1006,-456,-6,0,-16,-23,0,45190.0
08:42:30.047,AUTO,-35.3635879,149.1651721,22312,0.02262055315077305,0.036748938262462616,-2.962913990020752,-0.4526054263114929,-0.011006267741322517,-0.003741566091775894,-5,-10,-1002,-451,-10,-4,-7,-24,0,45190.0
08:42:30.249,AUTO,-35.3635883,149.1651722,22316,0.030138924717903137,0.03409111499786377,-2.962984561920166,0.30332106351852417,-0.012951045297086239,-0.006625315174460411,-3,26,-1001,305,-11,-6,0,-24,0,45190.0
08:42:30.451,AUTO,-35.3635885,149.1651723,22321,0.03930278867483139,0.029505005106329918,-2.963498115539551,0.6275150179862976,-0.029733773320913315,-0.002123347483575344,-2,25,-1004,628,-29,-2,6,-24,-1,45190.0
08:42:30.653,AUTO,-35.3635885,149.1651723,22321,0.03930278867483139,0.029505005106329918,-2.963498115539551,0.6275150179862976,-0.029733773320913315,-0.002123347483575344,-2,25,-1004,628,-29,-2,6,-24,-1,45190.0
08:42:30.855,AUTO,-35.3635885,149.1651723,22321,0.03930278867483139,0.029505005106329918,-2.963498115539551,0.6275150179862976,-0.029733773320913315,-0.002123347483575344,-2,25,-1004,628,-29,-2,6,-24,-1,45190.0
08:42:31.057,AUTO,-35.3635885,149.1651723,22321,0.03930278867483139,0.029505005106329918,-2.963498115539551,0.6275150179862976,-0.029733773320913315,-0.002123347483575344,-2,25,-1004,628,-29,-2,6,-24,-1,45190.0
08:42:31.259,AUTO,-35.3635888,149.1651728,22338,0.030032465234398842,0.010010841302573681,-2.9661624431610107,0.15096591413021088,-0.028384627774357796,-0.0006401760037988424,-2,27,-990,153,-27,-1,14,-25,0,45190.0
08:42:31.461,AUTO,-35.363589,149.1651731,22342,0.03980995714664459,0.0056144059635698795,-2.96709942817688,0.6641945838928223,-0.011426752433180809,0.002537838649004698,-1,29,-994,665,-10,2,13,-26,0,45190.0
08:42:31.663,RTL,-35.3635891,149.1651733,22347,0.04203591123223305,0.006910921540111303,-2.9677608013153076,0.2746109366416931,0.0036522767040878534,0.00471488805487752,-2,5,-1002,275,4,4,12,-26,0,45190.0
08:42:31.865,RTL,-35.3635891,149.1651733,22350,0.03217209503054619,0.011897934600710869,-2.9678902626037598,-0.42362597584724426,0.03175630792975426,0.007422515191137791,-1,-27,-999,-423,32,7,11,-28,0,45190.0
08:42:32.067,RTL,-35.3635891,149.1651733,22350,0.03217209503054619,0.011897934600710869,-2.9678902626037598,-0.42362597584724426,0.03175630792975426,0.007422515191137791,-1,-27,-999,-423,32,7,11,-28,0,45190.0
08:42:32.269,RTL,-35.3635892,149.1651734,22355,0.025247270241379738,0.01597515307366848,-2.9680721759796143,-0.15913385152816772,0.011152002029120922,0.007026157807558775,-1,5,-1003,-156,12,7,12,-30,-1,45190.0
08:42:32.470,RTL,-35.3635894,149.1651735,22365,0.040257666260004044,0.017464417964220047,-2.9687764644622803,0.5081630349159241,-0.002659850288182497,0.0106810312718153,-1,22,-1024,510,-1,10,13,-30,-4,45190.0
08:42:32.672,RTL,-35.3635894,149.1651735,22365,0.040257666260004044,0.017464417964220047,-2.9687764644622803,0.5081630349159241,-0.002659850288182497,0.0106810312718153,-1,22,-1024,510,-1,10,13,-30,-4,45190.0
08:42:32.875,RTL,-35.3635894,149.1651735,22365,0.040257666260004044,0.017464417964220047,-2.9687764644622803,0.5081630349159241,-0.002659850288182497,0.0106810312718153,-1,22,-1024,510,-1,10,13,-30,-4,45190.0
08:42:33.077,RTL,-35.3635894,149.1651735,22365,0.040257666260004044,0.017464417964220047,-2.9687764644622803,0.5081630349159241,-0.002659850288182497,0.0106810312718153,-1,22,-1024,510,-1,10,13,-30,-4,45190.0
08:42:33.312,RTL,-35.3635895,149.1651735,22479,0.02996303141117096,0.01782027631998062,-2.9685299396514893,0.1271691620349884,0.003531272988766432,0.011639535427093506,0,17,-1040,129,4,11,15,-31,-24,45190.0
08:42:33.576,RTL,-35.3635896,149.1651734,22559,0.03350506350398064,0.018057243898510933,-2.9681789875030518,0.2106613963842392,-0.008169716224074364,0.00985467154532671,0,4,-1045,211,-7,10,16,-31,-35,45190.0
08:42:33.849,RTL,-35.3635896,149.1651732,22666,0.022339584305882454,0.017598018050193787,-2.967660903930664,-0.2658757269382477,0.006948739290237427,0.009014767594635487,0,-21,-1044,-264,8,9,16,-30,-47,45190.0
08:42:34.139,RTL,-35.3635895,149.1651728,22965,0.02451014146208763,0.016909822821617126,-2.966932773590088,0.1382126361131668,0.003159149317070842,0.0054338895715773106,1,1,-1044,140,4,5,17,-28,-69,45190.0
08:42:34.446,RTL,-35.3635895,149.1651726,23156,0.018877148628234863,0.016426628455519676,-2.9669601917266846,-0.08826744556427002,0.00247406680136919,0.007018580567091703,1,-8,-1044,-86,3,7,17,-27,-80,45190.0
08:42:34.649,RTL,-35.3635895,149.1651726,23156,0.018877148628234863,0.016426628455519676,-2.9669601917266846,-0.08826744556427002,0.00247406680136919,0.007018580567091703,1,-8,-1044,-86,3,7,17,-27,-80,45190.0
08:42:34.851,RTL,-35.3635895,149.1651726,23156,0.018877148628234863,0.016426628455519676,-2.9669601917266846,-0.08826744556427002,0.00247406680136919,0.007018580567091703,1,-8,-1044,-86,3,7,17,-27,-80,45190.0
08:42:35.060,RTL,-35.3635895,149.1651726,23156,0.018877148628234863,0.016426628455519676,-2.9669601917266846,-0.08826744556427002,0.00247406680136919,0.007018580567091703,1,-8,-1044,-86,3,7,17,-27,-80,45190.0
08:42:35.263,RTL,-35.3635894,149.165172,23894,0.015539352782070637,0.0164446160197258,-2.9668450355529785,-0.00932969618588686,0.0019158533541485667,0.002893867902457714,2,-3,-1043,-7,3,3,17,-22,-112,213039.0
08:42:35.464,RTL,-35.3635893,149.1651718,24195,0.013896578922867775,0.015646640211343765,-2.966719627380371,-0.004449327010661364,-0.003468072973191738,0.0037775058299303055,2,-1,-1043,-2,-2,3,16,-20,-123,213039.0
08:42:35.666,RTL,-35.3635893,149.1651716,24523,0.013432850129902363,0.015410386957228184,-2.96671986579895,0.005152097903192043,0.002385443076491356,0.0014850050210952759,1,-1,-1043,7,3,1,16,-19,-133,213039.0
08:42:35.868,RTL,-35.3635892,149.1651714,24877,0.015918100252747536,0.013518434949219227,-2.96659517288208,0.03544134646654129,-0.01234133169054985,0.0023848717100918293,2,-2,-1029,37,-11,2,16,-17,-142,213039.0
08:42:36.070,RTL,-35.3635892,149.1651714,24877,0.015918100252747536,0.013518434949219227,-2.96659517288208,0.03544134646654129,-0.01234133169054985,0.0023848717100918293,2,-2,-1029,37,-11,2,16,-17,-142,213039.0
08:42:36.272,RTL,-35.3635891,149.1651711,25249,0.02589762583374977,0.009464044123888016,-2.9662656784057617,0.0427534319460392,-0.015404445119202137,0.0029679774306714535,2,-2,-1012,45,-13,3,15,-18,-147,213039.0
08:42:36.474,RTL,-35.363589,149.1651708,25628,0.0360843725502491,0.005094184540212154,-2.9657089710235596,0.04130669683218002,-0.016053583472967148,0.003932867664843798,2,-2,-1004,43,-14,4,14,-21,-149,213039.0
08:42:36.676,RTL,-35.363589,149.1651708,25628,0.0360843725502491,0.005094184540212154,-2.9657089710235596,0.04130669683218002,-0.016053583472967148,0.003932867664843798,2,-2,-1004,43,-14,4,14,-21,-149,213039.0
08:42:36.877,RTL,-35.363589,149.1651708,25628,0.0360843725502491,0.005094184540212154,-2.9657089710235596,0.04130669683218002,-0.016053583472967148,0.003932867664843798,2,-2,-1004,43,-14,4,14,-21,-149,213039.0
08:42:37.079,RTL,-35.363589,149.1651708,25628,0.0360843725502491,0.005094184540212154,-2.9657089710235596,0.04130669683218002,-0.016053583472967148,0.003932867664843798,2,-2,-1004,43,-14,4,14,-21,-149,213039.0
08:42:37.281,RTL,-35.3635888,149.1651685,26780,0.06322323530912399,-0.008897693827748299,-2.9642295837402344,0.0199954342097044,-0.010086869820952415,-0.02212178334593773,3,-7,-996,22,-8,-21,6,-46,-149,213039.0
08:42:37.483,RTL,-35.3635887,149.1651672,27160,0.04817749559879303,0.007854669354856014,-2.9844696521759033,-0.09940173476934433,0.11336911469697952,-0.12981314957141876,4,-11,-993,-96,114,-129,4,-55,-147,213039.0
08:42:37.685,RTL,-35.3635887,149.1651657,27537,0.016459621489048004,0.03537632152438164,-3.01739764213562,-0.15311896800994873,0.06093106418848038,-0.1141422688961029,7,-13,-998,-150,62,-113,6,-57,-146,213039.0
08:42:37.887,RTL,-35.3635887,149.1651643,27913,-0.025361714884638786,0.035014159977436066,-3.037555456161499,-0.15837208926677704,-0.03887001425027847,-0.05823761597275734,8,-11,-1005,-155,-37,-57,10,-49,-147,213039.0
08:42:38.089,RTL,-35.3635887,149.1651643,27913,-0.025361714884638786,0.035014159977436066,-3.037555456161499,-0.15837208926677704,-0.03887001425027847,-0.05823761597275734,8,-11,-1005,-155,-37,-57,10,-49,-147,213039.0
08:42:38.292,RTL,-35.3635885,149.1651631,28296,-0.05702880769968033,0.02167133428156376,-3.047349214553833,-0.08109547942876816,-0.05761795490980148,-0.026015151292085648,6,-11,-1011,-78,-56,-25,12,-33,-148,213039.0
08:42:38.495,RTL,-35.3635883,149.1651624,28679,-0.06637576222419739,0.009721586480736732,-3.052344799041748,-0.012974846176803112,-0.037229716777801514,-0.01733204908668995,4,-4,-1007,-10,-35,-17,11,-14,-150,213039.0
08:42:38.697,RTL,-35.3635883,149.1651624,28679,-0.06637576222419739,0.009721586480736732,-3.052344799041748,-0.012974846176803112,-0.037229716777801514,-0.01733204908668995,4,-4,-1007,-10,-35,-17,11,-14,-150,213039.0
08:42:38.899,RTL,-35.3635883,149.1651624,28679,-0.06637576222419739,0.009721586480736732,-3.052344799041748,-0.012974846176803112,-0.037229716777801514,-0.01733204908668995,4,-4,-1007,-10,-35,-17,11,-14,-150,213039.0
08:42:39.101,RTL,-35.3635883,149.1651624,28679,-0.06637576222419739,0.009721586480736732,-3.052344799041748,-0.012974846176803112,-0.037229716777801514,-0.01733204908668995,4,-4,-1007,-10,-35,-17,11,-14,-150,213039.0
08:42:39.368,RTL,-35.3635879,149.1651639,30223,-0.03451697155833244,2.675598079804331e-05,-3.0693726539611816,0.05677230656147003,-0.000251570250838995,-0.008182610385119915,-1,7,-1000,59,1,-7,0,45,-150,213039.0
08:42:39.686,RTL,-35.363588,149.1651651,30610,-0.019769344478845596,0.0003109386598225683,-3.070786952972412,0.05937298759818077,0.003255426650866866,-0.004659272730350494,-2,9,-1001,61,4,-4,-1,51,-150,213039.0
08:42:39.941,RTL,-35.363588,149.1651664,30997,-0.00451830355450511,0.0014404215617105365,-3.071491241455078,0.060752637684345245,0.006470064166933298,-0.0021208415273576975,-4,10,-1002,63,8,-1,-1,53,-151,213039.0
08:42:40.256,RTL,-35.3635881,149.1651677,31387,0.010909217409789562,0.0030304056126624346,-3.0716869831085205,0.060369398444890976,0.006434803828597069,-0.0009880397701635957,-7,9,-1002,62,7,0,-1,51,-152,213039.0
