time_stamp,MODE,RTL_ALT,roll,pitch,yaw,rollspeed,pitchspeed,yawspeed,lat,lon,relative_alt,vx,vy,vz,xacc,yacc,zacc,xgyro,ygyro,zgyro
03:14:16,STABILIZE,1500.0,-0.001178640212553243,0.0009703317967553934,0.025124833608667057,0.00021292752353474498,0.00026634157984517515,0.001934383763000369,-35.3632621,149.1652375,0.0,-1.0,1.0,2.0,0.0,1.0,-1000.0,0.0,0.0,0.0
03:14:18,STABILIZE,1500.0,-0.0014061392284929752,0.0009466768824495375,0.024587688967585564,8.002098184078932e-05,0.0003343759453855455,0.001852396409958601,-35.3632621,149.1652375,0.0,-1.0,0.0,0.0,0.0,1.0,-1000.0,1.0,0.0,0.0
03:14:20,STABILIZE,1500.0,-0.0013333223760128021,0.0009689440485090017,0.024102775380015373,0.00020355649758130312,0.0002969711786136031,0.0018016304820775986,-35.3632622,149.1652375,0.0,-1.0,0.0,0.0,0.0,1.0,-1000.0,0.0,0.0,0.0
03:14:25,AUTO,137789.0,-0.0010786393540911376,0.0009788656025193632,0.022794073447585106,0.00036462832940742373,0.0001989151642192155,0.0016020143521018326,-35.3632622,149.1652375,0.0,-1.0,1.0,-1.0,0.0,2.0,-1000.0,0.0,0.5,0.0
03:14:26,AUTO,137789.0,-0.0010657388096054394,0.000983027508482337,0.02262051651875178,0.00026328723955278593,0.0002818956078651051,0.001438395120203495,-35.3632622,149.1652375,11.0,-1.0,0.6666666666666666,-1.0,0.0,1.3333333333333333,-1000.0,0.3333333333333333,0.0,0.3333333333333333
03:14:28,AUTO,137789.0,-0.0007266997902964553,0.0013627309041718643,0.022132064526279766,0.0002802315284498036,0.000287482359757026,0.0014849705233549078,-35.3632621,149.1652375,15.666666666666666,0.0,0.0,-1.0,0.0,1.6666666666666667,-1000.0,0.6666666666666666,0.3333333333333333,0.3333333333333333
03:14:29,AUTO,59879.0,5.7221497020994626e-05,0.001443335902877152,0.021779539063572884,0.003197493380866945,-0.0027155266531432667,0.0012072576986004908,-35.3632621,149.1652375,16.666666666666668,0.0,0.0,-2.3333333333333335,0.0,0.6666666666666666,-1032.6666666666667,3.3333333333333335,-2.6666666666666665,0.3333333333333333
03:14:30,AUTO,59879.0,0.0025877985171973705,0.0003554158902261406,0.021768992766737938,-0.0008493908680975437,0.0024471485909695425,0.0029658955366661153,-35.3632621,149.1652375,248.66666666666666,0.0,0.3333333333333333,-72.33333333333333,0.0,0.0,-1125.3333333333333,0.0,2.6666666666666665,1.6666666666666667
03:14:32,AUTO,184592.0,0.0521987018485864,-0.0009553814306855202,-0.006141483162840207,-0.040792741191883884,0.03679534730811914,-0.04837987610759834,-35.363261599999994,149.1652399,2956.3333333333335,7.666666666666667,42.333333333333336,-147.66666666666666,1.6666666666666667,-8.0,-994.3333333333334,-40.333333333333336,37.0,-48.666666666666664
03:14:34,AUTO,184592.0,-0.0815721129377683,0.022821748008330662,-0.115912526845932,0.018475310256083805,0.01606925142308076,-0.06011843557159106,-35.36325983333334,149.16524616666666,6000.333333333333,0.0,-25.333333333333332,-148.66666666666666,-2.6666666666666665,2.0,-1004.0,19.0,16.666666666666668,-59.666666666666664
03:14:35,AUTO,199260.0,-0.0042256684973835945,0.027962395300467808,-0.1483882119258245,0.07451208680868149,0.003981177268239359,-0.007384993989641468,-35.363261933333334,149.16523856666666,7912.333333333333,-38.333333333333336,-65.66666666666667,-150.0,-3.3333333333333335,17.0,-1004.0,74.66666666666667,4.0,-7.333333333333333
03:14:36,AUTO,199260.0,0.03500893712043762,0.009342914447188377,-0.13152305285135904,0.008787060777346293,-0.07672026862079899,0.06809843026955302,-35.363265033333334,149.16523396666665,9075.0,-51.0,-37.666666666666664,-151.33333333333334,2.0,15.666666666666666,-1001.3333333333334,9.333333333333334,-76.0,67.0
03:14:38,AUTO,164276.0,0.048874061554670334,-0.0702928031484286,-0.01853173039853573,-0.08637292000154655,0.07662689344336589,-0.0427587628364563,-35.36326596666666,149.16523486666668,12166.0,65.0,53.0,-144.66666666666666,-5.666666666666667,-16.0,-996.0,-85.33333333333333,77.0,-43.0
03:14:40,AUTO,164276.0,-0.06838010996580124,0.05188592771689097,-0.2024284452199936,0.03474655747413635,0.02786116860806942,-0.04661508401234945,-35.36325423333333,149.1652409,15230.0,18.666666666666668,-25.0,-152.66666666666666,-7.666666666666667,-1.3333333333333333,-1002.6666666666666,35.333333333333336,28.0,-46.666666666666664
03:14:41,AUTO,291778.0,0.004568043475349744,0.061694543808698654,-0.22313883900642395,0.07320611427227657,-0.006130055990070105,-0.0045153813941093785,-35.36325626666667,149.16523476666666,17167.0,-60.0,-44.333333333333336,-151.0,1.0,15.333333333333334,-1002.0,73.33333333333333,-5.0,-4.333333333333333
03:14:42,AUTO,291778.0,0.05983844896157583,0.045298383881648384,-0.21970181663831076,0.07266359031200409,-0.036141431579987206,0.006590794771909714,-35.3632612,149.16523229999999,18325.0,-86.33333333333333,-3.6666666666666665,-151.0,11.333333333333334,15.333333333333334,-1003.0,73.33333333333333,-35.0,6.0
03:14:44,AUTO,218883.0,-0.06316920680304368,-0.09790130952994029,-0.12972154219945273,-0.15252265085776648,0.15222407380739847,-0.15170101821422577,-35.36326716666667,149.16524339999998,21368.666666666668,71.33333333333333,49.0,-145.33333333333334,-1.3333333333333333,-18.666666666666668,-1008.6666666666666,-151.33333333333334,152.66666666666666,-151.66666666666666
03:14:46,AUTO,218883.0,-0.05416072532534599,0.05834695821007093,-0.35957635442415875,0.07117736339569092,0.0662669725716114,-0.028773434460163116,-35.3632558,149.16523056666665,24388.0,1.0,-126.66666666666667,-149.0,-24.666666666666668,9.0,-1006.6666666666666,71.66666666666667,66.66666666666667,-28.666666666666668
03:14:47,AUTO,89469.0,0.049490973353385925,0.10779821376005809,-0.3722534974416097,0.09236851086219151,0.004125915002077818,0.0025081048564364514,-35.363261466666664,149.16521576666665,26293.333333333332,-105.66666666666667,-62.666666666666664,-150.0,-1.0,28.333333333333332,-1004.6666666666666,93.0,5.0,2.0
03:14:48,AUTO,89469.0,0.11601923654476802,0.08456511547168095,-0.36957859992980957,0.08359191815058391,-0.0611464890340964,0.012801136200626692,-35.3632697,149.1652143,27426.333333333332,-136.33333333333334,34.666666666666664,-145.0,21.333333333333332,21.666666666666668,-1002.0,84.0,-60.0,12.0
03:14:50,AUTO,94849.0,-0.006353098588685195,-0.21543686588605246,-0.21203934649626413,-0.20228405793507895,0.0330268070101738,-0.0012744876245657604,-35.36327896666666,149.16524623333333,30246.0,117.66666666666667,175.33333333333334,-131.33333333333334,12.333333333333334,-42.333333333333336,-1017.6666666666666,-201.0,33.666666666666664,-1.3333333333333333
03:14:52,AUTO,94849.0,-0.09827176481485367,0.09602087984482448,-0.41396064559618634,0.036722381909688316,0.11841853708028793,0.002762474042053024,-35.363246633333326,149.16525006666666,33121.333333333336,108.66666666666667,-107.66666666666667,-157.0,-36.666666666666664,-7.0,-1022.0,37.0,119.0,2.3333333333333335
03:14:53,AUTO,81588.0,-0.020594119870414335,0.18311350047588348,-0.42266687750816345,0.09088686605294545,0.01870604914923509,0.0037225724081508815,-35.363246600000004,149.16523506666667,35069.333333333336,-110.66666666666667,-84.0,-142.33333333333334,-4.666666666666667,29.0,-995.0,91.0,19.666666666666668,3.0
03:14:54,AUTO,81588.0,0.033365458250045776,0.1384229063987732,-0.39108996589978534,0.035209909081459045,-0.13946412007013956,0.0954871599872907,-35.36325756666667,149.16523126666667,36103.666666666664,-204.33333333333334,-6.333333333333333,-129.66666666666666,26.666666666666668,38.666666666666664,-1004.6666666666666,35.333333333333336,-138.0,95.0
03:14:56,AUTO,50851.0,0.07486080502470334,-0.21114130318164825,-0.1947419891754786,-0.0859980545938015,-0.14029490699370703,0.11458766460418701,-35.36328733333333,149.1652508,39046.666666666664,-12.0,155.0,-150.33333333333334,29.0,-15.666666666666666,-1006.6666666666666,-84.66666666666667,-139.0,114.0
03:14:58,AUTO,50851.0,-0.15618846317132315,-0.00815898459404707,-0.4331796665986379,0.05554362013936043,0.22878848512967428,-0.018602314094702404,-35.36325953333333,149.16526146666666,41745.666666666664,193.33333333333334,-127.66666666666667,-134.66666666666666,-46.0,-27.333333333333332,-1042.6666666666667,56.0,229.33333333333334,-18.666666666666668
03:14:59,AUTO,65173.0,-0.08383779972791672,0.18511133392651877,-0.46164119243621826,0.08326341956853867,0.10675247261921565,-0.00039603939512744546,-35.36324930000001,149.1652375,43600.666666666664,-35.333333333333336,-185.33333333333334,-148.0,-36.333333333333336,23.0,-1011.0,83.66666666666667,107.33333333333333,-0.3333333333333333
03:15:00,AUTO,65173.0,-0.021782109203437965,0.2148153136173884,-0.4416721264521281,0.04427516677727302,-0.06467956801255544,0.08671587907398741,-35.36325683333333,149.16522460000002,44667.333333333336,-189.66666666666666,-119.33333333333333,-128.33333333333334,-5.0,47.666666666666664,-991.3333333333334,44.666666666666664,-63.666666666666664,86.33333333333333
03:15:02,AUTO,156491.0,0.11778623362382253,-0.12475801880160968,-0.20771261056264242,-0.07628257075945537,-0.3718055933713913,0.23010979841152826,-35.36330126666667,149.16522350000002,47411.0,-183.0,116.66666666666667,-154.33333333333334,53.0,18.0,-1030.0,-75.33333333333333,-370.0,230.0
03:15:04,AUTO,156491.0,0.026767735679944355,0.13380775352319083,-0.11572322497765224,0.10596246959175915,0.3358375281095505,-0.11268054942289989,-35.363277366666665,149.16523656666666,49274.666666666664,284.3333333333333,-24.0,-54.0,-57.0,-40.333333333333336,-993.3333333333334,106.66666666666667,336.3333333333333,-111.66666666666667
03:15:05,AUTO,49159.0,0.00531450379639864,0.16344302892684937,-0.17764083544413248,0.6006106932957967,-0.03343227505683899,-0.02129429765045643,-35.36325886666667,149.16523500000002,49471.333333333336,47.333333333333336,6.666666666666667,15.666666666666666,-5.333333333333333,25.666666666666668,-978.3333333333334,601.6666666666666,-32.333333333333336,-20.333333333333332
03:15:06,AUTO,49159.0,-0.015234341534475485,0.10150357708334923,-0.19336540003617605,-0.1264430433511734,-0.19262907654047012,-0.00459603996326526,-35.363259,149.16523646666667,49289.666666666664,-52.666666666666664,15.0,21.666666666666668,14.333333333333334,-18.333333333333332,-1018.0,-126.33333333333333,-191.0,-4.0
03:15:08,AUTO,39176.0,0.03794412439068159,0.03877248366673788,0.2732071702678998,-0.48472051943341893,0.0260338361064593,0.8250246445337931,-35.36327323333333,149.16524583333333,48902.666666666664,-88.66666666666667,55.333333333333336,23.0,27.333333333333332,-15.666666666666666,-995.3333333333334,-483.3333333333333,26.333333333333332,825.6666666666666
03:15:10,AUTO,39176.0,0.11414701491594315,-0.07218300551176071,1.7275428771972656,-0.6727779308954874,0.023511893736819427,0.6973628401756287,-35.363298300000004,149.16527203333334,47884.333333333336,-202.66666666666666,170.0,68.66666666666667,-15.666666666666666,-86.66666666666667,-980.3333333333334,-671.6666666666666,24.0,698.0
03:15:11,AUTO,263801.0,0.05598153546452522,-0.12809297194083533,2.558246692021688,0.6292503029108047,0.013803841701398293,0.41592758893966675,-35.363324266666666,149.16529936666666,46811.0,-263.0,215.66666666666666,89.66666666666667,-76.66666666666667,-32.666666666666664,-991.6666666666666,628.3333333333334,14.333333333333334,416.3333333333333
03:15:12,AUTO,263801.0,0.03781605760256449,-0.12380474557479222,2.62011988957723,-0.8793565134207407,0.010208176293720802,-0.04531306307762861,-35.3633423,149.16531813333333,46075.333333333336,-288.6666666666667,232.66666666666666,96.0,-83.0,-86.33333333333333,-988.0,-879.0,10.666666666666666,-43.666666666666664
03:15:14,AUTO,190116.0,0.06428018460671107,-0.0887001504500707,2.558383305867513,0.8361878196398417,-0.005252285006766518,-0.012650347935656706,-35.3633963,149.1653711666667,44034.666666666664,-308.6666666666667,244.0,95.66666666666667,-84.0,-35.0,-975.6666666666666,835.3333333333334,-5.0,-11.333333333333334
03:15:16,AUTO,190116.0,0.042612820863723755,-0.07672768334547679,2.546842177708944,0.6786706546942393,-0.00366302696056664,-0.04961353912949562,-35.36345276666667,149.1654253,42010.0,-308.0,249.33333333333334,95.0,-82.66666666666667,4.666666666666667,-994.0,680.0,-2.6666666666666665,-48.0
03:15:17,AUTO,117630.0,0.057154866556326546,-0.0761450504263242,2.5392885208129883,0.31810277203718823,-6.579297284285228e-05,0.03004097193479538,-35.36348793333334,149.16545943333333,40752.666666666664,-297.3333333333333,253.0,96.0,-84.66666666666667,-71.0,-978.6666666666666,316.6666666666667,0.6666666666666666,30.666666666666668
03:15:18,AUTO,117630.0,0.038269871224959694,-0.07229385028282802,2.5368876457214355,-0.8929412364959717,-0.0030252565629780293,0.032552243365595736,-35.36350886666667,149.1654802,40003.0,-294.6666666666667,251.33333333333334,95.66666666666667,-84.66666666666667,-91.33333333333333,-987.6666666666666,-893.0,-2.0,33.333333333333336
03:15:20,AUTO,149121.0,0.07496157040198644,-0.07057480762402217,2.52524201075236,1.1075375477472942,0.002741096696505944,-0.03548036701977253,-35.36356383333334,149.1655362,37986.0,-293.3333333333333,240.66666666666666,97.66666666666667,-88.33333333333333,-5.0,-998.3333333333334,1107.6666666666667,4.0,-33.666666666666664
03:15:22,AUTO,149121.0,0.057989039768775306,-0.01945942360907793,2.5193163553873696,-0.9354031880696615,0.04608714208006859,0.004759761815269788,-35.363617033333334,149.16559163333332,35998.0,-278.6666666666667,208.0,93.0,-79.66666666666667,-59.333333333333336,-998.3333333333334,-933.3333333333334,47.333333333333336,5.0
03:15:23,AUTO,48519.0,0.08354833473761876,0.03777703270316124,2.5170652071634927,1.0941805044809978,0.05385066817204157,-0.04427619526783625,-35.3636451,149.16562066666665,34933.333333333336,-222.66666666666666,143.66666666666666,71.0,-58.666666666666664,20.666666666666668,-1039.3333333333333,1095.3333333333333,55.333333333333336,-43.0
03:15:24,AUTO,48519.0,0.07487331082423528,0.07416745523611705,2.516942342122396,0.7902113497257233,0.05821143835783005,-0.01713022543117404,-35.363658066666666,149.16563343333334,34448.666666666664,-171.0,95.66666666666667,53.666666666666664,-40.0,-14.666666666666666,-1046.6666666666667,790.3333333333334,60.0,-16.333333333333332
03:15:26,AUTO,28665.0,0.019923184687892597,0.047505309184392296,2.5097273190816245,-0.0024472480484594903,-0.018100671470165253,-0.00529668868208925,-35.36367463333334,149.16564730000002,33882.666666666664,-39.0,-6.0,9.333333333333334,-6.333333333333333,-18.666666666666668,-1021.6666666666666,-1.3333333333333333,-15.666666666666666,-4.666666666666667
03:15:28,AUTO,28665.0,0.025109006091952324,0.0012618516338989139,2.5005698204040527,-0.3529314895470937,-0.019323456722001236,0.005161997900965313,-35.36367550000001,149.1656495,33894.666666666664,-4.0,-23.333333333333332,-2.3333333333333335,-1.6666666666666667,-11.0,-997.6666666666666,-350.0,-16.666666666666668,5.0
03:15:29,RTL,170863.0,0.04039697349071503,0.009141458353648583,2.493932326634725,-0.33449334899584454,0.007090653292834759,0.013656794093549252,-35.3636744,149.16565153333335,33939.666666666664,-18.0,-30.333333333333332,-4.666666666666667,-1.3333333333333333,-11.666666666666666,-1013.3333333333334,-331.0,9.0,13.666666666666666
03:15:30,RTL,170863.0,0.03830912460883459,0.011687046537796656,2.4925618966420493,0.09670803944269817,0.0002085348435988029,0.01495941293736299,-35.3636742,149.1656521,34061.0,-21.666666666666668,-37.666666666666664,-27.333333333333332,0.0,1.3333333333333333,-1044.6666666666667,100.0,2.6666666666666665,15.333333333333334
03:15:32,RTL,135152.0,0.0036341703574483595,0.011204744689166546,2.4910910924275718,-0.0180947274590532,-0.002271848963573575,0.005779418628662825,-35.363675199999996,149.1656502,35634.333333333336,-16.333333333333332,-31.0,-123.66666666666667,3.0,-5.666666666666667,-1046.3333333333333,-14.0,0.0,6.666666666666667
03:15:34,RTL,135152.0,0.013243375966946283,0.01532856747508049,2.452539841334025,-0.1017656996846199,0.07341895500818889,-0.1153818890452385,-35.3636789,149.16564533333332,38591.333333333336,-40.666666666666664,-33.666666666666664,-146.0,4.0,-13.0,-996.6666666666666,-97.0,75.33333333333333,-113.33333333333333
03:15:35,RTL,56259.0,-0.08558763563632965,0.0037385333562269807,2.3804078102111816,0.017846161499619484,-0.018924970800677936,-0.02035693358629942,-35.36368123333333,149.1656417,40493.666666666664,16.666666666666668,9.666666666666666,-149.0,2.0,-1.3333333333333333,-1003.0,21.666666666666668,-15.666666666666666,-18.0
03:15:36,RTL,56259.0,-0.04967706402142843,-0.0031413560888419547,2.3719698588053384,0.05728620787461599,-0.0012870996724814177,-0.005893634011348088,-35.363679600000005,149.16564303333334,41656.0,43.0,41.666666666666664,-149.0,-2.0,6.666666666666667,-1000.3333333333334,61.0,1.0,-3.6666666666666665
03:15:38,RTL,212144.0,0.019184432302912075,-0.005613502115011215,2.378675858179728,-0.05633133774002393,-0.002332628626997272,-0.002540799672715366,-35.36367453333333,149.16564796666668,44772.666666666664,9.0,11.0,-150.0,0.3333333333333333,1.6666666666666667,-997.0,-52.0,0.0,-1.0
03:15:40,RTL,212144.0,-0.01249035851409038,0.0016782314438993733,2.3386088212331138,0.006121222240229447,0.004589225243156155,-0.02314970518151919,-35.363675166666674,149.16564763333335,47878.0,2.6666666666666665,16.666666666666668,-151.33333333333334,-0.6666666666666666,0.0,-999.6666666666666,9.0,6.333333333333333,-21.0
03:15:41,RTL,262780.0,-0.004161814072479804,0.004948231081167857,2.3148895104726157,-0.001368287019431591,-0.0008275771979242563,-0.0158482501283288,-35.3636754,149.16564813333332,49830.666666666664,4.0,12.666666666666666,-152.0,0.0,0.0,-999.3333333333334,1.6666666666666667,1.3333333333333333,-13.666666666666666
03:15:42,RTL,262780.0,-0.004252178827300668,0.004542780884852012,2.3037586212158203,-0.004386750981211662,-0.0015589380636811256,-0.01479780829201142,-35.3636754,149.16564813333332,51001.666666666664,3.0,9.0,-152.0,0.0,0.0,-999.6666666666666,-1.0,0.6666666666666666,-12.666666666666666
03:15:44,RTL,21806.0,-0.006614254166682561,0.0033174448957045874,2.2698511282602944,-0.002993157288680474,-0.0011412531215076644,-0.018540744359294575,-35.36367573333334,149.16564776666667,54119.0,3.0,5.333333333333333,-152.0,0.0,0.0,-1000.0,0.0,1.0,-16.0
03:15:46,RTL,21806.0,-0.005395451250175635,0.003151328923801581,2.233010689417521,0.0005838054542740186,0.0004289628316958745,-0.02014909063776334,-35.3636759,149.1656474,57234.666666666664,3.0,5.666666666666667,-152.0,0.0,0.0,-1000.0,3.0,2.3333333333333335,-18.0
03:15:47,RTL,88051.0,-0.002605652359003822,0.005392307570825021,2.217564821243286,0.001996481791138649,0.0024431459605693817,0.004892683898409207,-35.363676,149.1656474,59182.333333333336,3.0,4.0,-152.0,0.0,0.0,-999.3333333333334,4.666666666666667,4.0,6.333333333333333
03:15:48,RTL,88051.0,-0.0015124183458586533,0.005929526562492053,2.230297406514486,-0.0006046968046575785,-0.0010982578387483954,0.024395768841107685,-35.363676,149.16564723333332,60347.333333333336,2.3333333333333335,1.3333333333333333,-152.0,0.0,0.0,-999.6666666666666,2.3333333333333335,1.0,25.666666666666668
03:15:50,RTL,94564.0,-0.005494953443606694,0.003192749572917819,2.2772185802459717,0.0012564160861074924,-0.00036918317588667077,0.020427100360393524,-35.3636762,149.1656466,63455.0,2.0,1.6666666666666667,-152.0,0.0,0.0,-1000.3333333333334,3.6666666666666665,1.3333333333333333,21.333333333333332
03:15:52,RTL,94564.0,-0.003536563521871964,0.0036571791085104146,2.311112642288208,0.0003242198145017028,0.00029039654570321244,0.015287878302236399,-35.3636762,149.16564663333335,66561.0,2.6666666666666665,4.0,-152.0,0.0,0.0,-1000.0,2.3333333333333335,2.0,16.333333333333332
03:15:53,RTL,66040.0,-0.002442151696110765,0.004587180912494659,2.3276447455088296,-0.0010523539191732805,0.0003913979744538665,0.012785354939599832,-35.3636762,149.16564686666666,68505.0,2.0,4.0,-152.0,0.0,0.0,-999.6666666666666,1.3333333333333333,2.3333333333333335,13.666666666666666
03:15:54,RTL,66040.0,-0.0020260203164070845,0.004873724654316902,2.3364195823669434,0.0008565596072003245,0.00041287097459038097,0.012395952517787615,-35.3636762,149.16564703333333,69675.0,2.0,3.0,-152.0,0.0,0.0,-1000.0,2.6666666666666665,2.0,13.666666666666666
03:15:56,RTL,184289.0,-0.001544493289353947,0.004805176984518766,2.3556960423787436,-0.000689463340677321,0.00024337437935173512,0.008875461295247078,-35.3636761,149.1656473,72777.33333333333,1.6666666666666667,1.6666666666666667,-152.0,0.0,0.0,-999.6666666666666,1.3333333333333333,2.0,10.333333333333334
03:15:58,RTL,184289.0,-0.0016647571076949437,0.004659733114143212,2.370546817779541,-0.00041099734759579104,-0.0007565008709207177,0.008468202936152617,-35.3636761,149.1656474,75885.33333333333,1.0,1.0,-152.0,0.0,0.0,-1000.3333333333334,1.6666666666666667,1.0,9.666666666666666
03:15:59,RTL,283938.0,-0.001191449468024075,0.004442212327073018,2.37874444325765,0.00030129790926973027,0.0009212265722453594,0.006676378970344861,-35.3636761,149.16564743333333,77825.33333333333,1.0,1.0,-152.0,0.0,0.0,-1000.0,2.3333333333333335,3.0,7.666666666666667
03:16:00,RTL,283938.0,-0.000814030373779436,0.0051938616670668125,2.3828901449839273,0.00044284989902128774,0.00036052831759055454,0.005908468117316564,-35.3636761,149.1656475,78989.66666666667,1.0,1.0,-152.0,0.0,0.0,-999.6666666666666,2.3333333333333335,2.3333333333333335,7.0
03:16:02,RTL,142932.0,-0.001088743544338892,0.005116649592916171,2.393864313761393,-0.0005726939610516032,0.00029578401396671933,0.005200984266897042,-35.3636761,149.1656476,82099.33333333333,1.0,0.0,-152.0,0.0,0.0,-1000.0,1.3333333333333333,2.0,6.333333333333333
03:16:04,RTL,142932.0,-0.0008506943898585936,0.005217041354626417,2.402919054031372,-0.00047153773872802657,-0.0005882270634174347,0.005524523556232452,-35.3636761,149.1656476,85201.66666666667,1.0,0.0,-152.0,0.0,0.0,-999.6666666666666,1.3333333333333333,1.0,6.666666666666667
03:16:05,RTL,43845.0,-0.0006645245205921432,0.005517933207253615,2.408162752787272,0.00016488460823893547,0.0007325217593461275,0.004865618888288736,-35.3636761,149.1656476,87140.66666666667,1.0,0.0,-152.0,0.0,0.0,-1000.0,2.0,2.3333333333333335,6.0
03:16:06,RTL,43845.0,-0.0007127623539417982,0.005418373582263787,2.411054770151774,-0.0004508449152732889,-0.0005481664557009935,0.004778341390192509,-35.3636761,149.1656476,88306.0,1.0,0.0,-152.0,0.0,0.0,-1000.0,1.3333333333333333,1.0,5.666666666666667
03:16:08,RTL,287363.0,-0.000581388691595445,0.005409282011290391,2.418133815129598,0.000788021677484115,-0.0005625278766577443,0.003253906616009772,-35.3636761,149.1656477,91411.66666666667,1.0,0.0,-152.0,0.0,0.0,-1000.3333333333334,3.0,1.0,4.333333333333333
03:16:10,RTL,287363.0,0.00014379889519962793,0.00536171222726504,2.4241908391316733,2.164626494050026e-06,-9.126631387819846e-05,0.0038956136365110674,-35.363676,149.1656477,94521.66666666667,0.0,0.0,-152.0,0.0,0.0,-999.6666666666666,2.0,1.6666666666666667,5.0
03:16:11,RTL,238328.0,-0.00022508470283355564,0.005312611038486163,2.4277145067850747,-0.0017942514192933838,-0.0012023676342020433,0.0032808660374333463,-35.363676,149.1656477,96462.66666666667,0.0,0.0,-152.0,0.0,0.0,-1000.0,0.3333333333333333,0.6666666666666666,4.666666666666667
03:16:12,RTL,238328.0,-0.00029329709165419143,0.005315900004158418,2.429544528325399,0.0009406990914915999,-0.0002750112519909938,0.005359355825930834,-35.363676,149.1656477,97627.66666666667,0.0,0.0,-152.0,0.0,0.0,-1000.0,2.6666666666666665,1.6666666666666667,6.666666666666667
03:16:14,RTL,41401.0,7.805024506524205e-05,0.005770774092525244,2.434715906778971,-0.0012980732135474682,-0.00014480277119825283,0.004122768606369694,-35.363676,149.1656478,100741.33333333333,0.0,-1.0,-152.0,0.0,0.0,-1000.0,1.0,1.6666666666666667,5.666666666666667
03:16:17,RTL,147256.0,-0.0003054252059276526,0.005304629914462566,2.4411478837331138,-0.0006734790125240883,-0.00070496314826111,0.003059363147864739,-35.363676,149.1656478,105789.0,0.0,0.0,-152.0,0.0,0.0,-1000.0,1.6666666666666667,1.3333333333333333,4.333333333333333
03:16:18,RTL,253111.0,0.00010226270266381714,0.005376648623496294,2.442479689915975,0.0023531039090206227,0.0006493801095833381,0.002586834287891785,-35.363676,149.1656478,106954.33333333333,0.0,0.0,-152.0,0.0,0.0,-1000.0,4.333333333333333,2.3333333333333335,4.0
03:16:20,RTL,217320.0,0.0007032898623341074,0.005986332582930724,2.445486307144165,-0.00031147936048607033,-8.607322039703529e-05,0.0018287313869222999,-35.363676,149.1656478,110065.33333333333,0.0,-1.0,-152.0,0.0,0.0,-999.6666666666666,1.6666666666666667,2.0,3.0
03:16:21,RTL,217320.0,0.00023233106185216457,0.005774283781647682,2.4471853971481323,-0.0007737539708614349,0.0011728976387530565,0.000632589275483042,-35.363676,149.1656478,111961.0,0.0,-1.0,-152.0,0.0,0.0,-1000.0,1.0,3.0,2.0
03:16:22,RTL,217320.0,0.0002484330634615617,0.005837449687533081,2.4481080770492554,-7.512621232308447e-05,0.0004905176465399563,0.0016367596690542996,-35.363676,149.1656478,113125.0,0.0,-1.0,-152.0,0.0,0.0,-1000.0,2.0,2.5,2.75
03:16:23,RTL,1537.0,0.0003565286460798234,0.006374398013576865,2.4496980905532837,0.00014988344628363848,0.000978926313109696,0.0005400952650234103,-35.363676,149.1656479,115069.5,0.0,-1.5,-152.0,0.0,0.0,-1000.0,2.0,3.0,2.0
03:16:25,RTL,1537.0,0.0006171695713419467,0.005454996135085821,2.4515146017074585,0.0003401744179427624,0.00019539869390428066,0.0005146992625668645,-35.363676,149.1656479,118181.5,0.0,-2.0,-152.0,0.0,0.0,-1000.5,2.5,2.5,2.5
03:16:26,RTL,182118.0,0.00035068378929281607,0.005316279362887144,2.452501952648163,0.0006778666866011918,0.00030427146703004837,0.002075875352602452,-35.363676,149.1656479,119348.25,0.0,-1.25,-152.0,0.0,0.0,-1000.0,2.75,2.25,3.5
03:16:27,RTL,182118.0,0.0002546642062952742,0.005700907902792096,2.4536399841308594,0.0006119305035099387,-0.00018877722322940826,0.001982004498131573,-35.363676,149.1656479,121287.0,0.0,-1.0,-152.0,0.0,0.0,-1000.0,2.5,2.0,3.5
03:16:29,RTL,152899.0,0.0013020235928706825,0.005023283418267965,2.455554723739624,0.0009866284672170877,0.0025690088514238596,0.0010584606789052486,-35.3636759,149.1656479,124394.5,0.0,-1.0,-152.0,0.0,0.0,-1000.0,3.0,4.0,2.5
03:16:31,RTL,123680.0,0.00021325006673578173,0.006457650335505605,2.4574005603790283,0.000998223666101694,0.001573597313836217,1.2784148566424847e-05,-35.3636759,149.1656479,127502.0,0.0,-1.0,-152.0,0.0,0.0,-1000.0,3.5,3.5,2.0
03:16:32,RTL,187779.0,0.00023127480017137714,0.006115805474109948,2.4577434062957764,0.00042522992589510977,0.00018738119979389012,0.0012814823421649635,-35.3636759,149.1656479,128669.0,0.0,-1.0,-152.0,0.0,0.0,-999.75,2.75,2.5,3.0
03:16:33,RTL,187779.0,0.00023811178834876046,0.006087239598855376,2.4585378170013428,0.0006484240293502808,0.00039176573045551777,0.002709937747567892,-35.363676,149.1656479,130606.5,0.0,-1.0,-152.0,0.0,0.0,-1000.0,3.0,2.5,4.5
03:16:35,RTL,97484.5,0.0007548870053142309,0.005669115111231804,2.459428071975708,0.0007072635926306248,0.0004161430988460779,0.0004055567551404238,-35.363676,149.1656479,133713.0,0.0,-2.0,-152.0,0.0,0.0,-999.5,3.0,2.5,2.5
03:16:37,RTL,7190.0,0.0004925743996864185,0.005788988433778286,2.4602489471435547,-0.0005873455083929002,-0.0006804477889090776,0.001589520717971027,-35.363676,149.1656479,136821.5,0.0,-2.0,-152.0,0.0,0.0,-1000.0,1.5,1.5,3.5
03:16:38,RTL,266400.0,0.0005699432585970499,0.005816732067614794,2.460322618484497,0.0014131199568510056,-0.0001858297036960721,0.0003016451373696327,-35.363676,149.1656479,137990.5,0.0,-2.0,-152.0,0.0,0.0,-999.75,3.75,2.25,2.0
03:16:39,RTL,266400.0,0.001193864969536662,0.005015838658437133,2.460925579071045,0.0008210967062041163,0.0008585532195866108,0.0013217513915151358,-35.3636759,149.1656479,139928.5,0.0,-2.0,-152.0,0.0,0.0,-1000.0,3.0,3.0,3.0
03:16:41,RTL,153513.0,-4.6734958232264034e-05,0.006133729591965675,2.461854934692383,-0.0007205576403066516,0.0024416656233370304,0.002183926641009748,-35.3636759,149.1656479,143034.0,0.0,-2.0,-152.0,0.0,0.0,-999.0,1.5,4.5,4.0
03:16:43,RTL,40626.0,0.0007101841329131275,0.005830815527588129,2.462238311767578,0.0005485195433720946,-0.0003109712852165103,0.0006095273420214653,-35.3636759,149.1656479,146140.0,0.0,-2.0,-152.0,0.0,0.0,-1000.0,2.5,2.0,2.5
03:16:44,RTL,244155.0,0.0008015839848667383,0.00581483356654644,2.4625548124313354,0.0009206728427670896,0.0010361180757172406,0.0011128792830277234,-35.3636759,149.1656479,147312.75,0.0,-2.0,-152.0,0.0,0.0,-999.75,3.0,3.25,2.5
03:16:45,RTL,244155.0,0.0009545867505948991,0.006027221214026213,2.462889552116394,0.0016141049563884735,0.00033573817927390337,0.0007774194236844778,-35.3636759,149.1656479,149253.5,0.0,-2.0,-152.0,0.0,0.0,-1000.0,4.0,2.5,2.5
03:16:47,RTL,216333.5,0.0007407433877233416,0.00583927147090435,2.4641367197036743,0.0014552207430824637,-0.0012520651216618717,0.000780131493229419,-35.3636759,149.1656479,152360.0,0.0,-2.0,-152.0,0.0,0.0,-1000.5,3.5,0.5,2.5
03:16:49,RTL,188512.0,0.0007406801450997591,0.0058598865289241076,2.4644042253494263,0.0015909542562440038,0.0002005287678912282,0.0008524027653038502,-35.3636759,149.1656479,155467.0,0.0,-2.0,-152.0,0.0,0.0,-1000.5,4.0,2.5,2.5
03:16:50,RTL,42770.0,0.0007368394726654515,0.005978104425594211,2.4642807841300964,-9.26140055526048e-05,-0.00040434510447084904,0.0012816957314498723,-35.3636759,149.1656479,156632.0,0.0,-2.0,-152.0,0.0,0.0,-999.75,2.25,2.0,3.0
03:16:51,RTL,42770.0,0.001155779988039285,0.005092481849715114,2.4644856452941895,-5.206093192100525e-06,-0.0011127663310617208,-0.0007886794628575444,-35.3636759,149.1656479,158574.0,0.0,-2.0,-152.0,0.0,0.0,-1000.0,2.0,1.5,1.0
03:16:53,RTL,111465.5,0.0008283421630039811,0.005792875541374087,2.464646100997925,-5.458737723529339e-05,0.0022639877861365676,-0.0005424373084679246,-35.3636759,149.1656479,161681.5,0.0,-2.0,-152.0,0.0,0.0,-999.5,2.5,4.5,1.0
03:16:55,RTL,180161.0,0.0004242677823640406,0.00572010432370007,2.4650204181671143,-0.00025971041759476066,-0.00019134703325107694,0.0011370113352313638,-35.3636759,149.1656479,164788.0,0.0,-2.0,-152.0,0.0,0.0,-1000.0,2.5,2.0,3.0
03:16:56,RTL,275662.0,0.0007432247221004218,0.005906381760723889,2.464976727962494,-3.1201052479445934e-06,-4.2061234125867486e-05,0.0005865407874807715,-35.3636759,149.1656479,165953.25,0.0,-2.0,-152.0,0.0,0.0,-1000.0,2.5,2.25,2.25
03:16:57,RTL,275662.0,0.0006414724048227072,0.005988165503367782,2.4649873971939087,0.0014618313871324062,0.0004723011516034603,0.0015398930991068482,-35.3636759,149.1656479,167897.0,0.0,-2.0,-152.0,0.0,0.0,-1000.0,4.0,2.5,3.5
03:16:59,RTL,221389.0,0.0007617849914822727,0.005892109591513872,2.465356945991516,0.0012854035012423992,0.0004456454189494252,0.0017623614985495806,-35.3636759,149.1656479,171005.0,0.0,-2.0,-152.0,0.0,0.0,-999.5,3.5,3.0,4.0
03:17:01,RTL,167116.0,-0.0005737698620578158,0.05847674049437046,2.4652764797210693,-0.0017637161072343588,0.034686362370848656,0.0013428451493382454,-35.36367515,149.16564705,174100.0,23.0,-21.0,-149.5,3.5,2.0,-998.5,1.5,37.0,3.5
03:17:02,RTL,118133.0,-0.004538232926279306,0.08304807916283607,2.4656582474708557,-0.00849061319604516,0.03454155661165714,0.001989900309126824,-35.363672475,149.16564425,175238.0,55.25,-48.5,-145.75,12.75,6.0,-994.5,-5.0,36.75,4.0
03:17:03,RTL,118133.0,-0.03879076801240444,0.18369080871343613,2.599989891052246,-0.13439460471272469,0.1464124619960785,0.4578009694814682,-35.363662500000004,149.16563435,176980.0,141.0,-106.0,-115.0,32.0,12.5,-953.0,-131.0,149.0,459.5
03:17:05,RTL,136685.5,0.1057019792497158,0.14258724451065063,3.0726845264434814,-0.0026285741478204727,0.06948806717991829,0.045645615085959435,-35.3636206,149.1655989,178028.0,274.0,-244.5,7.5,84.0,-6.5,-954.0,0.5,72.0,48.0
03:17:07,RTL,155238.0,0.03422430530190468,0.20223987102508545,3.0463792085647583,-0.01330757886171341,-0.004621843574568629,-0.03044881671667099,-35.3635592,149.16552940000003,177620.5,412.0,-371.5,6.5,128.5,-6.0,-1011.0,-10.0,-1.5,-27.5
03:17:08,RTL,282417.0,0.014122148975729942,0.19041898101568222,3.0123740434646606,-0.0527513261185959,-0.010866209515370429,-0.04472812078893185,-35.3635297,149.16549842499998,177585.75,454.75,-386.5,-1.75,139.75,-3.75,-1002.25,-49.5,-7.5,-41.75
03:17:09,RTL,282417.0,-0.00426519091706723,0.15764718502759933,2.95894718170166,-0.03818205278366804,-0.03076428221538663,-0.041629608720541,-35.363476399999996,149.16544545,177615.0,489.5,-392.5,-7.0,136.0,6.0,-984.5,-34.5,-27.5,-38.5
03:17:11,RTL,259593.5,-0.038498738780617714,0.0967029519379139,2.8876012563705444,-0.22026502527296543,-0.03411396872252226,-0.051987649872899055,-35.3633895,149.16536109999998,177683.5,464.0,-367.0,-5.0,141.5,5.0,-984.5,-217.5,-31.0,-49.0
03:17:13,RTL,236770.0,-0.056141072884202003,-0.00036958162672817707,2.838226795196533,0.523969367146492,-0.0632153544574976,-0.022194830584339797,-35.3633163,149.16529045,177676.5,335.5,-264.5,-1.0,100.0,32.0,-1005.5,526.0,-59.5,-19.5
03:17:14,RTL,213662.0,-0.06892111990600824,-0.03193598845973611,2.8238868713378906,-0.35294223576784134,-0.022732879384420812,-0.02328837919048965,-35.363296425,149.16527145,177652.0,265.75,-205.0,0.25,78.25,3.75,-991.25,-349.25,-19.25,-20.25
03:17:15,RTL,213662.0,-0.0370944794267416,-0.0535748116672039,2.799981713294983,-0.1894751377403736,-0.020706959068775177,-0.03524312190711498,-35.3632731,149.1652499,177602.0,153.5,-116.0,-0.5,45.0,-19.0,-990.0,-187.0,-17.0,-32.0
03:17:17,RTL,131885.5,-0.015938473399728537,-0.024356091395020485,2.770278215408325,-0.11217863112688065,0.014439603313803673,-0.007313492009416223,-35.36325945,149.16523735,177585.0,30.5,-29.0,-3.5,6.5,12.5,-999.0,-107.5,17.0,-4.0
03:17:19,RTL,50109.0,0.00940300989896059,0.017566297203302383,2.749043822288513,-0.13680966198444366,0.004569214303046465,-0.008206052705645561,-35.36325895,149.1652363,177615.0,3.0,-8.5,-3.0,0.0,-24.5,-990.0,-134.0,8.5,-5.0
03:17:20,RTL,159838.0,0.005197837686864659,0.005216090241447091,2.742465615272522,0.1225973516702652,-0.006043027970008552,-0.010749791515991092,-35.36325915,149.1652362,177625.25,2.0,-9.5,-1.75,0.0,6.0,-996.5,126.25,-2.25,-7.5
03:17:21,RTL,159838.0,0.001921382499858737,0.006256976164877415,2.7333099842071533,0.4020903594791889,0.006809158716350794,-0.00463745859451592,-35.36325995,149.1652363,177635.5,-3.0,-4.5,-1.0,0.0,22.0,-1000.0,406.0,10.0,-1.5
03:17:23,RTL,182409.5,-0.0010802330798469484,0.008641587570309639,2.720995783805847,-0.46515822410583496,-0.0032230144133791327,-0.004687544656917453,-35.36326135,149.1652369,177649.0,0.0,0.0,0.0,-2.0,-27.5,-995.0,-461.0,0.0,-2.0
03:17:25,RTL,204981.0,0.01956286747008562,0.0074903450440615416,2.7088325023651123,0.919732928276062,-0.005542479921132326,-0.009343004319816828,-35.363261449999996,149.16523885,177393.5,-1.5,-10.5,58.0,-1.5,64.0,-914.0,924.5,-1.0,-6.0
03:17:26,RTL,221611.0,0.03395704785361886,0.009854591451585293,2.7040746212005615,1.5068537592887878,0.007038217387162149,0.00034194474574178457,-35.363261525,149.165239275,176772.25,-3.0,-14.0,101.0,0.0,66.25,-966.0,1511.0,10.5,3.0
03:17:27,RTL,221611.0,0.023332253098487854,0.009328607935458422,2.6983530521392822,1.4046726822853088,-0.005240694503299892,-0.006734970840625465,-35.36326185,149.16523899999999,175346.0,-2.5,-16.0,106.5,3.0,45.0,-1041.0,1408.5,-1.0,-3.5
03:17:29,RTL,179043.5,0.002568709314800799,0.010585528798401356,2.69061815738678,-0.40199585258960724,-0.008033992955461144,-0.007026360835880041,-35.363262750000004,149.16523755,173261.0,4.5,-3.0,102.0,0.5,-64.0,-942.0,-399.5,-3.0,-3.5
03:17:31,RTL,136476.0,-0.006856486666947603,0.011212521232664585,2.6828194856643677,-1.0059941709041595,-0.005903381039388478,-0.004887451883405447,-35.363262950000006,149.1652374,171212.5,7.5,0.0,98.0,1.5,-74.0,-1001.0,-1003.0,-1.5,-2.0
03:17:32,RTL,157431.0,-0.02140870876610279,0.009389352751895785,2.680641233921051,-1.3428289592266083,-0.002945557003840804,-0.0037009045481681824,-35.363263025,149.16523717500002,170447.0,8.5,0.75,99.5,0.0,-62.0,-994.5,-1338.75,1.5,-1.0
03:17:33,RTL,157431.0,-0.02628269884735346,0.00807966897264123,2.67676317691803,-0.3841448202729225,-0.004728398052975535,-0.0021035298705101013,-35.3632631,149.16523695,169188.0,8.5,1.5,100.5,0.0,18.5,-952.0,-378.0,0.0,0.5
03:17:35,RTL,146892.5,0.008182916048099287,0.0058579344768077135,2.670336365699768,1.0290862321853638,0.0003575105220079422,0.00011200865264981985,-35.36326255,149.1652378,167125.5,5.5,-1.5,98.0,-2.0,72.0,-998.0,1034.5,4.5,2.5
03:17:37,RTL,136354.0,0.014233240392059088,0.010137804318219423,2.6657110452651978,1.33091801404953,-0.0014854862820357084,-0.0024341169046238065,-35.3632625,149.16523825000002,165090.5,2.5,-6.0,99.0,0.0,61.0,-1020.5,1335.5,2.5,0.0
03:17:38,RTL,99734.0,0.013066255487501621,0.01053461804986,2.6644827723503113,1.3747543692588806,0.00327302108053118,0.001922341645695269,-35.3632627,149.165237975,164323.0,3.0,-5.75,98.5,0.5,55.75,-1020.75,1378.75,7.5,4.5
03:17:39,RTL,99734.0,0.01558502297848463,0.008843709249049425,2.662133812904358,0.9816896021366119,-0.0006101585458964109,-0.0026339637115597725,-35.3632629,149.16523765,163050.5,6.5,-1.0,99.0,0.5,17.0,-1013.5,984.0,4.0,0.5
03:17:41,RTL,72725.5,0.028054414317011833,0.006648948881775141,2.6572325229644775,1.1015457510948181,0.006114320829510689,0.003227183362469077,-35.3632625,149.1652382,161005.5,4.0,-3.5,98.5,0.5,16.5,-998.0,1104.5,10.5,6.5
03:17:43,RTL,45717.0,-0.008020523935556412,0.010072662495076656,2.6549206972122192,-0.6683255136013031,-0.0015057825949043036,-0.00877748749917373,-35.36326285,149.1652371,158968.5,5.0,0.0,100.0,2.5,-66.0,-1012.5,-666.0,3.5,-6.0
03:17:44,RTL,204620.0,-0.015531729251961224,0.009951546555384994,2.653603434562683,-0.5284071192145348,0.0003095334395766258,-0.004178748175036162,-35.363263225,149.165236275,158187.5,7.25,5.0,97.25,2.0,-54.0,-996.25,-526.0,5.0,-1.0
03:17:45,RTL,204620.0,-0.03015549946576357,0.007602964760735631,2.6525633335113525,-1.3285198211669922,-0.005733482190407813,-0.002043357933871448,-35.36326355,149.1652354,156904.0,13.0,14.5,97.0,1.5,-68.5,-997.5,-1325.0,-0.5,0.5
03:17:47,RTL,141457.5,-0.011115053435787559,0.005002579186111689,2.650058627128601,1.0204614996910095,-0.005257076467387378,-0.004833949962630868,-35.36326355,149.16523519999998,154863.5,14.5,18.0,97.5,-2.5,73.5,-1010.5,1025.0,0.0,-1.5
03:17:49,RTL,78295.0,0.007710953010246158,0.003312604851089418,2.648068070411682,1.0831323862075806,-0.004673921503126621,-0.006720976147335023,-35.3632626,149.1652371,152833.5,7.5,7.0,95.0,-2.0,79.0,-969.5,1087.0,0.5,-3.5
03:17:50,RTL,231913.0,0.027225514873862267,0.0015696031987317838,2.6471776962280273,1.3615538477897644,-0.005222538020461798,-0.0030858524842187762,-35.363262075,149.16523812499997,152079.5,3.75,1.25,97.5,-2.5,64.25,-1029.5,1365.0,0.5,0.25
03:17:51,RTL,231913.0,0.04876897856593132,0.002374974195845425,2.644941568374634,0.8316822946071625,0.002610351424664259,0.00995605275966227,-35.36326115,149.16524005,150824.0,-4.0,-10.5,99.5,-1.0,2.0,-1002.0,833.5,7.5,13.0
03:17:53,RTL,258251.0,0.01999538019299507,0.00801346660591662,2.6437031030654907,-0.5745658129453659,0.0016772507224231958,-0.007313453359529376,-35.3632612,149.16524040000002,148790.0,-11.0,-23.0,100.5,0.0,-57.5,-1020.5,-572.5,7.0,-3.5
03:17:55,RTL,284589.0,-0.004518293077126145,0.005605253390967846,2.642579197883606,-1.3231979012489319,-0.003083506366237998,0.0028886895161122084,-35.3632617,149.1652392,146751.0,-4.0,-14.0,100.0,1.0,-71.5,-989.0,-1319.5,2.0,6.0
03:17:56,RTL,169737.0,-0.010349849588237703,0.005737790488637984,2.6416603326797485,-1.3551163077354431,0.00026861822698265314,-0.0017788053373806179,-35.3632617,149.16523905,145982.5,-4.0,-13.75,100.75,0.5,-51.25,-1015.5,-1350.5,5.5,1.5
03:17:57,RTL,169737.0,-0.01724480278789997,0.006615943741053343,2.641214370727539,-1.1686318516731262,-0.002940347883850336,0.0063501212280243635,-35.363261949999995,149.16523855,144702.5,-3.5,-11.0,99.0,1.5,-46.5,-1018.0,-1163.5,2.5,9.0
03:17:59,RTL,96709.0,-0.03685445711016655,0.010004820767790079,2.6405017375946045,-1.1259166598320007,-0.001213171286508441,-0.0027390847681090236,-35.36326285,149.16523684999999,142671.0,2.0,-0.5,100.5,0.5,-31.5,-1028.0,-1121.0,4.0,0.5
03:18:01,RTL,23681.0,-0.02486872673034668,0.005354655673727393,2.6403284072875977,-0.14137949794530869,-0.0010525318793952465,-0.005162171204574406,-35.3632632,149.16523595,140632.0,10.0,10.0,105.0,-1.5,37.5,-998.5,-135.0,4.5,-1.5
03:18:02,RTL,26190.0,-0.011884086881764233,0.003912130719982088,2.6394619941711426,0.557621106505394,-0.0009095082059502602,-0.0022065461380407214,-35.36326295,149.165236325,139858.75,8.75,8.75,100.75,-0.75,66.0,-987.5,563.0,4.0,1.25
03:18:03,RTL,26190.0,0.0064326864667236805,0.004856573883444071,2.638685703277588,0.961647093296051,0.006331722950562835,-0.0018138702725991607,-35.3632626,149.16523705,138588.0,4.5,4.5,98.0,-0.5,66.5,-1048.5,966.5,11.5,1.0
03:18:05,RTL,117734.5,0.016991205047816038,0.006135900039225817,2.638762593269348,1.027534931898117,0.0033222544007003307,-0.001444519031792879,-35.3632626,149.16523725000002,136520.0,4.0,3.0,100.0,-1.0,22.5,-1023.0,1030.0,8.5,2.5
03:18:07,RTL,209279.0,0.006927057635039091,0.007466842420399189,2.6369739770889282,0.18352548778057098,-0.003550591063685715,0.0025577074848115444,-35.363262649999996,149.1652371,134476.5,3.0,1.0,98.0,2.5,-34.0,-1007.5,185.0,1.5,6.0
03:18:08,RTL,164295.0,-0.00433067380436114,0.005638636299408972,2.637552320957184,-0.32926915120333433,0.00032757455483078957,0.004656943492591381,-35.363262775,149.1652366,133715.75,5.5,5.5,100.25,0.25,-55.75,-963.75,-327.25,5.5,8.25
03:18:09,RTL,164295.0,0.000562808127142489,0.004100938327610493,2.6372708082199097,-0.40452635288238525,-0.0006017147097736597,0.004847108386456966,-35.363262750000004,149.16523654999997,132437.5,7.0,8.5,98.5,0.0,-54.0,-1026.5,-402.5,4.5,8.0
03:18:11,RTL,153196.5,0.012885001255199313,0.003756257123313844,2.6370197534561157,-0.6069464385509491,0.004213201231323183,0.01250113220885396,-35.3632621,149.16523784999998,130402.5,1.0,1.5,102.5,-1.0,-73.0,-955.0,-605.0,9.0,16.0
03:18:13,RTL,142098.0,0.0061916455160826445,0.003938498208299279,2.636237382888794,-1.218903362751007,-0.001410315977409482,-0.0012421442661434412,-35.36326165,149.1652391,128369.5,-2.5,-8.5,99.5,-3.0,-68.0,-1002.0,-1216.0,3.5,1.5
03:18:14,RTL,46647.0,0.009991325670853257,0.0038697730051353574,2.636045217514038,-1.3609709441661835,-0.0029321981128305197,0.0008487068116664886,-35.363261324999996,149.1652399,127597.75,-5.25,-14.25,100.25,-1.5,-63.5,-994.75,-1357.5,2.25,4.0
03:18:15,RTL,46647.0,0.013493707869201899,0.005851045483723283,2.6360450983047485,-1.3913933038711548,0.000351879745721817,-0.005673855310305953,-35.3632609,149.16524095,126332.0,-10.0,-22.5,101.0,-0.5,-66.0,-1026.5,-1387.0,5.5,-2.0
03:18:17,RTL,64181.5,-0.011674513574689627,0.008212524000555277,2.63556969165802,-1.3154191374778748,-0.0019240259425714612,0.000795816769823432,-35.363261550000004,149.1652397,124290.0,-9.5,-23.0,99.0,0.5,-53.0,-1028.5,-1310.0,3.0,4.0
03:18:19,RTL,81716.0,-0.016610012389719486,0.006916114827618003,2.635310649871826,-1.0165287852287292,-0.003363472642377019,0.004987472551874816,-35.3632619,149.16523855,122254.0,-4.0,-11.5,99.0,1.5,-20.5,-1012.5,-1010.5,2.5,8.0
03:18:20,RTL,104580.0,-0.02074853633530438,0.007403509342111647,2.6347829699516296,-0.6586218774318695,0.00279860757291317,-0.0011235784622840583,-35.363262150000004,149.165237975,121487.5,-2.75,-9.0,101.25,1.0,3.25,-992.75,-651.75,8.0,2.25
03:18:21,RTL,104580.0,-0.03270702436566353,0.007919120136648417,2.6349270343780518,-0.7588905990123749,0.0009696104098111391,-0.0007071261061355472,-35.363262649999996,149.1652369,120206.0,1.0,-1.0,99.5,0.0,-3.0,-1015.5,-752.0,6.0,2.5
03:18:23,RTL,156719.5,0.008995938813313842,0.0030891222413629293,2.6345754861831665,0.9460403621196747,0.0035533756017684937,-0.006075750337913632,-35.36326235,149.16523745,118164.0,3.5,1.0,97.0,-1.5,73.0,-1020.0,952.5,9.0,-1.5
03:18:25,RTL,208859.0,0.04330419562757015,0.003703674767166376,2.6341938972473145,1.2644504308700562,0.002320272149518132,0.0009124721400439739,-35.36326135,149.16523975,116111.5,-4.5,-12.0,98.0,-2.5,41.5,-1020.5,1268.5,7.5,5.0
03:18:26,RTL,285491.0,0.04644089564681053,0.004641320556402206,2.634913384914398,0.9462006092071533,0.006342751323245466,0.009654346853494644,-35.36326105,149.165240525,115347.25,-8.5,-18.75,100.75,-0.75,14.0,-1000.25,950.0,11.75,12.75
03:18:27,RTL,285491.0,0.03805193677544594,0.007240064674988389,2.634546399116516,0.24409949034452438,0.00034411344677209854,0.0012258797651156783,-35.3632609,149.165241,114081.0,-12.0,-26.5,97.5,0.5,-28.5,-1001.5,247.5,6.0,4.5
03:18:29,RTL,255042.0,0.01835528016090393,0.005785584216937423,2.6345858573913574,-0.8492676019668579,-0.00014381820801645517,0.0013251174241304398,-35.3632609,149.16524084999998,112038.5,-12.0,-27.0,100.0,1.5,-72.0,-996.0,-844.5,5.0,4.5
03:18:31,RTL,224593.0,-0.0021464333403855562,0.00692475400865078,2.634490728378296,-1.1499823033809662,-0.0031490656547248363,-0.0021339876111596823,-35.363261449999996,149.16523935,109993.5,-9.5,-20.0,96.5,1.5,-74.0,-978.5,-1144.5,2.5,1.5
03:18:32,RTL,82982.0,-0.011676497757434845,0.0063543845899403095,2.6344484090805054,-1.3968381583690643,-0.0011938688112422824,-0.0018491724040359259,-35.3632617,149.16523877500003,109227.5,-6.5,-15.0,99.75,0.75,-67.0,-1001.5,-1390.75,4.25,1.5
03:18:33,RTL,82982.0,-0.017766157165169716,0.007441563997417688,2.633994698524475,-1.3918063044548035,0.0006109629757702351,-0.0005722268251702189,-35.36326205,149.1652381,107954.5,-3.5,-8.0,98.0,1.0,-56.0,-1003.0,-1384.5,6.0,2.5
03:18:35,RTL,71027.0,-0.030397841706871986,0.006272837985306978,2.6345134973526,0.09520180523395538,-0.0030858907848596573,-0.005134538747370243,-35.363263,149.16523595,105926.5,4.0,5.0,102.0,0.5,42.0,-956.5,104.0,2.5,-1.0
03:18:37,RTL,59072.0,-0.006496545567642897,0.0028269027825444937,2.6349000930786133,1.1278217434883118,0.0012604428920894861,-0.005238601937890053,-35.36326305,149.16523560000002,103891.0,9.0,14.0,101.5,-1.5,77.5,-1001.0,1135.0,6.5,-1.0
03:18:38,RTL,191898.0,0.012491484812926501,0.0023609565396327525,2.6343116760253906,1.2123409509658813,0.0023799112532287836,0.0012993087293580174,-35.363262750000004,149.165236175,103123.75,7.0,12.0,100.0,-0.5,54.0,-1014.5,1218.25,7.75,4.75
03:18:39,RTL,191898.0,0.02195483911782503,0.003248891676776111,2.634089708328247,1.289057433605194,0.0017790759447962046,0.0034685335122048855,-35.36326245,149.165237,101851.0,4.0,7.5,102.0,-2.5,27.0,-1023.5,1294.0,7.0,7.0
03:18:41,RTL,198391.0,0.003925903118215501,0.0055197253823280334,2.6336309909820557,-0.34067463874816895,-0.0016264012083411217,0.001723466208204627,-35.36326215,149.16523765,99813.5,0.0,0.0,100.5,0.0,-55.5,-970.5,-336.0,3.5,5.0
03:18:43,RTL,204884.0,-0.018799723125994205,0.0070281848311424255,2.6342166662216187,-1.2253918051719666,-0.003147295559756458,-0.004386858316138387,-35.36326255,149.165237,97760.0,1.5,3.5,99.0,2.0,-73.0,-1024.0,-1220.0,2.5,-0.5
03:18:44,RTL,34380.0,-0.03220152761787176,0.006056384649127722,2.633613109588623,-1.3882485032081604,-0.0011050605098716915,-0.003457937389612198,-35.363262725,149.16523647500003,96999.0,3.25,5.25,100.25,0.0,-50.25,-998.75,-1381.75,4.5,0.25
03:18:45,RTL,34380.0,-0.026097659021615982,0.0026186880422756076,2.634811520576477,-0.5919504761695862,-0.000778840621933341,0.0008582375012338161,-35.3632628,149.16523615,95717.5,6.0,9.5,100.0,-1.5,2.5,-999.0,-584.5,4.5,5.0
03:18:47,RTL,166781.5,-0.009422423783689737,0.0021245164098218083,2.6335543394088745,0.2932034134864807,0.003630072111263871,-0.01124084834009409,-35.3632623,149.16523695,93670.0,0.5,5.0,99.5,-1.0,57.0,-976.5,300.5,9.0,-6.5
03:18:49,RTL,299183.0,0.006868253112770617,0.0021301438100636005,2.6339889764785767,0.6759578287601471,-0.0018707142444327474,-0.0032802121713757515,-35.36326175,149.1652381,91643.5,-2.5,-2.0,99.0,-1.5,66.0,-971.0,683.5,3.5,1.0
03:18:50,RTL,50173.0,0.008434490533545613,0.002306539914570749,2.6347045302391052,0.7830652371048927,-6.496446439996362e-05,-0.003832473885267973,-35.363261625,149.165238525,90877.0,-4.75,-7.0,101.25,-2.5,70.0,-1020.5,790.5,5.25,0.0
03:18:51,RTL,50173.0,0.02393902651965618,0.0013133759493939579,2.634372115135193,0.7908731400966644,0.0025903000496327877,-0.007210008800029755,-35.36326115,149.16523975,89600.0,-8.5,-14.5,100.5,-3.0,79.0,-1032.0,798.5,8.0,-3.0
03:18:53,RTL,48360.5,0.04293237067759037,0.005050691543146968,2.633797526359558,1.3865121603012085,0.007198977051302791,0.0011881758691743016,-35.3632602,149.16524195,87556.0,-19.5,-32.0,101.0,1.0,68.5,-992.0,1394.0,13.0,4.5
03:18:55,RTL,46548.0,-2.6904046535491943e-05,0.010325210634618998,2.633404016494751,1.3269030451774597,0.00221707159653306,0.010492321569472551,-35.36326185,149.16523855,85498.5,-13.0,-21.5,97.0,5.0,46.5,-1042.5,1334.0,7.5,14.0
03:18:56,RTL,117156.0,-0.006985866522882134,0.009553597075864673,2.6338139176368713,1.0862159579992294,-0.0010163207771256566,-0.0028024917701259255,-35.363262675,149.165236625,84725.5,-4.0,-7.0,98.75,3.5,17.25,-1036.5,1091.75,4.75,1.0
03:18:57,RTL,117156.0,-0.010077281389385462,0.004543367773294449,2.634284734725952,0.6517547965049744,-0.007821657229214907,-0.002926932182163,-35.3632635,149.16523465,83449.5,9.5,14.5,101.0,1.0,0.5,-1022.5,656.5,-1.5,1.5
03:18:59,RTL,146251.0,-0.02064788993448019,0.00346857204567641,2.634287714958191,-0.9815922379493713,-0.001567490166053176,-0.0036062151193618774,-35.3632634,149.1652347,81417.0,12.0,22.5,98.0,0.0,-68.0,-1003.5,-976.5,3.5,0.5
03:19:01,RTL,175346.0,-0.02666513342410326,0.0031470846151933074,2.635871171951294,-1.2545632123947144,0.0018481973093003035,-0.008494774112477899,-35.363263149999995,149.1652354,79383.5,10.5,19.5,100.0,-2.5,-42.0,-990.0,-1248.0,7.5,-4.5
03:19:02,RTL,225181.0,-0.023070859722793102,0.0028797686100006104,2.6342089772224426,-0.9613381326198578,-0.0005054464563727379,-0.0005104098818264902,-35.363262850000005,149.16523604999998,78617.75,8.75,15.25,100.5,-2.25,-8.25,-985.5,-953.5,4.75,3.5
03:19:03,RTL,225181.0,-0.006216679234057665,0.002621683932375163,2.634884238243103,0.23766954988241196,0.004302674904465675,0.006356102996505797,-35.36326245,149.16523684999999,77338.0,4.0,8.0,97.5,0.0,48.0,-999.5,245.0,9.5,10.0
03:19:05,RTL,224907.0,0.015218925196677446,0.0030128705548122525,2.635309338569641,1.3820397853851318,-0.006982887978665531,-0.007752208271995187,-35.3632622,149.1652374,75307.0,1.0,2.0,99.0,-0.5,51.0,-1011.5,1387.5,-1.5,-3.0
03:19:07,RTL,224633.0,0.003005916252732277,0.004705301020294428,2.634517192840576,-0.5126515030860901,-0.0028226561844348907,-0.0017819751519709826,-35.3632622,149.1652373,73291.0,0.0,3.0,106.0,2.0,-66.0,-960.0,-508.0,3.0,2.0
03:19:08,RTL,156256.0,-0.017928409157320857,0.0053300098516047,2.635141134262085,-1.0630759596824646,0.0033986096968874335,-0.0072459387592971325,-35.36326244999999,149.16523675,72664.0,0.75,4.25,99.5,2.0,-75.5,-978.25,-1058.25,8.75,-2.75
03:19:09,RTL,156256.0,-0.028950619511306286,0.005060202907770872,2.6349185705184937,-1.3414963483810425,-0.0010069457348436117,-0.00214093504473567,-35.36326285,149.16523575,71646.0,4.0,10.5,98.0,2.5,-71.5,-1011.0,-1336.5,4.5,2.0
03:19:11,RTL,227078.0,-0.030223213757077854,0.0031639706964294114,2.635418176651001,-1.2300026615460713,0.0027262240958710513,-0.005379949541141589,-35.363263,149.16523526666666,69468.33333333333,8.0,18.333333333333332,101.33333333333333,0.6666666666666666,-50.333333333333336,-1041.3333333333333,-1224.6666666666667,8.0,-0.6666666666666666
03:19:13,RTL,297900.0,-0.0439531896263361,0.004882675828412175,2.6345309019088745,-1.3563251495361328,-0.0027398631209507585,-0.0019983844831585884,-35.3632636,149.16523415,67156.5,11.5,24.5,100.5,0.5,-48.0,-1038.0,-1351.0,3.0,2.0
03:19:14,RTL,251681.0,-0.04693091008812189,0.0031244305428117514,2.6348621249198914,-1.0978405624628067,-0.003165824629832059,-0.0027402308769524097,-35.363263675,149.165233875,66400.5,13.5,27.25,100.5,-0.75,-23.5,-991.75,-1092.25,2.25,1.25
03:19:15,RTL,251681.0,-0.012791721383109689,-0.0005672463958035223,2.6348739862442017,0.6754420548677444,-3.1505944207310677e-05,-0.012392447795718908,-35.3632632,149.1652348,65130.5,13.5,26.0,104.0,-4.0,60.5,-979.0,681.0,5.5,-8.0
03:19:17,RTL,139930.0,0.03360758442431688,-0.00017449978622607887,2.634885787963867,1.4868664145469666,-0.0022853121627122164,-0.0047805956564843655,-35.363261449999996,149.16523865,63076.5,-1.0,1.5,102.0,-2.0,69.5,-1025.5,1491.5,3.5,-1.0
03:19:19,RTL,28179.0,0.02279715985059738,0.003781063249334693,2.634744167327881,0.009669656865298748,-0.003751961048692465,-0.013980970717966557,-35.3632612,149.1652395,61056.0,-9.0,-11.0,100.0,0.0,-42.0,-1001.0,12.0,2.0,-9.0
03:19:20,RTL,293093.0,0.009480233013164252,0.0047893928131088614,2.6346680521965027,-0.733204796910286,0.0008171935332939029,-0.0004009023541584611,-35.363261324999996,149.16523917499998,60421.75,-8.75,-10.75,101.25,2.0,-71.5,-961.5,-730.25,6.25,3.25
03:19:21,RTL,293093.0,-0.01373653340851888,0.006655741250142455,2.634387969970703,-1.1412186026573181,-0.0005468064919114113,-0.001131075550802052,-35.36326185,149.16523815,59407.0,-6.5,-7.5,100.5,1.0,-68.0,-1015.0,-1137.5,4.5,2.5
03:19:23,RTL,279643.5,-0.035047220066189766,0.004244395182467997,2.6354644298553467,-0.8457487225532532,0.0050939819775521755,-0.011590973241254687,-35.3632628,149.1652358,57373.5,3.5,8.5,105.0,0.0,-3.5,-972.0,-839.5,10.5,-7.0
03:19:25,RTL,266194.0,0.005009964224882424,0.0007574974079034291,2.635698080062866,1.2261313796043396,-0.007247476954944432,-0.005383860785514116,-35.363262500000005,149.16523625,55333.0,3.5,10.0,102.0,-3.0,78.0,-1026.5,1231.0,-2.0,-1.0
03:19:26,RTL,187533.0,0.0290314513258636,-0.0009339578100480139,2.634758412837982,1.388994574546814,-0.0015372788766399026,-0.005646585836075246,-35.363261875000006,149.1652375,54304.5,1.0,5.0,103.0,-2.75,62.25,-1013.75,1393.0,3.75,-1.5
03:19:27,RTL,187533.0,0.04246886260807514,-0.0006899390427861363,2.6351723670959473,1.1543700098991394,0.003661607624962926,-0.0025907399831339717,-35.3632612,149.16523895,53286.5,-4.5,-3.5,100.5,-1.5,31.0,-1014.0,1157.5,8.5,1.5
03:19:29,RTL,94335.0,0.040684888139367104,0.0030279436614364386,2.634667992591858,1.1391848921775818,0.004720400087535381,0.007914084708318114,-35.3632607,149.16524040000002,51237.0,-14.5,-20.5,105.5,-1.0,29.5,-1050.5,1142.5,9.5,11.0
03:19:31,RTL,1137.0,0.035015154629945755,0.0029870668658986688,2.6354209184646606,0.020408805925399065,0.0019494534935802221,0.0031169268768280745,-35.36326045,149.1652409,49184.5,-17.0,-26.0,102.5,0.0,-42.0,-1021.5,23.5,7.0,6.5
03:19:32,RTL,139014.0,0.030466821044683456,0.0032012959709391,2.6354721188545227,-0.2867231834679842,-0.00226900028064847,-0.0004487789119593799,-35.363260525,149.1652407,48162.0,-17.25,-25.5,99.25,2.0,-54.5,-979.5,-282.5,3.0,3.5
03:19:33,RTL,139014.0,0.004822070186492056,0.0062375725246965885,2.6355706453323364,-1.0212330222129822,0.0030693584121763706,-0.009784782771021128,-35.36326105,149.1652397,47143.0,-15.5,-21.5,99.5,4.0,-72.0,-1010.5,-1016.5,8.0,-6.0
03:19:35,RTL,219163.0,-0.053627192974090576,0.008426739135757089,2.634580612182617,-1.2071313858032227,-0.0039038415998220444,-0.0037354393862187862,-35.3632631,149.16523535,45099.5,-0.5,4.0,100.0,4.5,-37.0,-1013.5,-1201.0,2.0,0.0
03:19:37,RTL,299312.0,-0.038112057372927666,0.003517107106745243,2.635000228881836,0.4855581298470497,-0.0018741816747933626,0.0009678382193669677,-35.36326405,149.16523285,43068.0,16.0,31.5,98.5,-0.5,55.0,-1016.0,492.0,4.0,4.5
03:19:38,RTL,60871.0,-0.024554310366511345,0.001111222751205787,2.6359366178512573,1.082900583744049,-0.0017170060891658068,-0.0036448989412747324,-35.363263925,149.16523287500002,42045.75,17.25,34.5,99.75,-1.5,75.25,-1011.0,1088.75,3.5,0.25
03:19:39,RTL,60871.0,-0.014885727083310485,-0.0005127125477883965,2.636021852493286,0.9594011902809143,-0.005694456398487091,-0.008991261944174767,-35.36326345,149.1652338,41022.5,16.0,32.5,100.0,-3.0,78.5,-993.5,965.0,-0.5,-4.5
03:19:41,RTL,104232.5,0.017292804084718227,0.0026264404878020287,2.635879397392273,1.4024565815925598,0.0014264746569097042,0.001242204918526113,-35.363262399999996,149.16523655,38986.5,5.0,13.5,99.5,-1.5,58.0,-1024.5,1406.5,6.0,5.0
03:19:43,RTL,147594.0,0.0030788756703259423,0.004132725531235337,2.6356184482574463,-0.45594823360443115,-0.0012942636385560036,-0.0012838942930102348,-35.3632623,149.16523725000002,36938.0,2.0,6.5,98.0,0.0,-53.0,-995.0,-453.5,3.5,2.5
03:19:44,RTL,170184.0,-0.002367317547395942,0.003636514418758452,2.6357139945030212,-0.8369237631559372,-0.0031145422253757715,-0.0014127849717624485,-35.3632623,149.1652373,35918.5,2.0,5.0,100.25,0.0,-72.0,-968.5,-834.5,1.5,2.0
03:19:45,RTL,170184.0,-0.014730401802808046,0.003236170974560082,2.635548949241638,-1.45648854970932,-0.004807009128853679,-0.003315765759907663,-35.363262250000005,149.1652373,34902.0,0.5,3.5,97.5,0.5,-62.5,-1005.5,-1453.5,0.5,0.5
03:19:47,RTL,122231.0,-0.016657262109220028,0.0022896206937730312,2.6356191635131836,-0.9426335394382477,-0.0031187019776552916,-0.0005396637134253979,-35.3632621,149.16523734999998,32858.5,0.0,2.5,97.0,-1.0,-20.5,-1024.0,-937.5,2.0,2.5
03:19:49,RTL,74278.0,0.013660826720297337,0.0008352850854862481,2.6357158422470093,0.8036935925483704,0.0007720836438238621,-0.0047598680248484015,-35.36326135,149.1652388,30825.5,-5.5,-6.5,100.0,-2.0,69.0,-973.5,809.0,5.5,-1.0
03:19:50,RTL,70970.0,0.019155029440298676,0.0015228796401061118,2.6354926228523254,0.8996088206768036,0.004010087403003126,0.000994263682514429,-35.363261,149.1652396,29809.25,-9.75,-14.0,100.5,-1.25,75.75,-1002.75,905.0,8.75,4.5
03:19:51,RTL,70970.0,0.02661812398582697,0.0034269029274582863,2.635616183280945,1.2838523387908936,-0.0016505327075719833,0.0020916538778692484,-35.36326085,149.16524005000002,28797.5,-13.0,-18.5,101.0,0.5,67.0,-1017.0,1289.5,3.0,5.0
03:19:53,RTL,71382.0,0.026497558690607548,0.0046787315513938665,2.6358139514923096,0.7740971148014069,-0.0018057662528008223,0.001755016390234232,-35.36326115,149.1652396,26760.5,-11.5,-18.0,101.0,0.5,5.0,-990.0,777.0,3.0,5.0
03:19:55,RTL,71794.0,-0.010269613936543465,0.007252014009281993,2.6352670192718506,-1.1123159527778625,-0.002602189197205007,-0.0052674023900181055,-35.36326195,149.165238,24728.0,-6.0,-8.5,103.0,2.0,-83.5,-993.5,-1108.5,2.0,-1.5
03:19:57,RTL,255167.0,-0.017600684892386198,0.002559341141022742,2.636290431022644,-0.7566522061824799,-0.0022028927924111485,-0.0012015976244583726,-35.3632623,149.16523695,22682.5,0.5,2.0,102.0,-0.5,-8.5,-1048.0,-750.0,2.5,2.0
03:19:59,RTL,255167.0,-0.015253165271133184,0.0041662551229819655,2.6359089612960815,0.40051932260394096,0.0026538234669715166,0.0008199202129617333,-35.3632623,149.1652369,20636.0,-0.5,1.0,103.5,0.0,55.5,-957.0,407.0,7.0,3.5
03:20:00,RTL,96022.0,-0.014066168339923024,0.0039538072305731475,2.635839343070984,0.6168463975191116,-8.153374074026942e-05,0.00045167296775616705,-35.363262399999996,149.1652366,19613.75,0.0,2.75,101.75,0.0,66.0,-994.25,623.25,4.5,3.75
03:20:01,RTL,96022.0,0.0016363225877285004,0.002904971712268889,2.6360431909561157,1.1750809252262115,-0.0018289510626345873,0.0010499788913875818,-35.36326245,149.16523665,18594.0,1.0,5.0,101.0,-0.5,69.5,-987.0,1180.5,3.0,4.0
03:20:03,RTL,226819.0,0.01732045505195856,0.002824268420226872,2.636045217514038,0.44332560896873474,-0.001556099858134985,0.0007393793202936649,-35.36326205,149.1652374,16558.5,0.0,3.5,101.5,0.0,-15.5,-1010.0,446.0,3.0,3.5
03:20:05,RTL,226819.0,-0.022262301295995712,0.00616950704716146,2.6360535621643066,-1.2480156421661377,-0.004225327633321285,-0.005720138782635331,-35.36326255,149.16523635,14509.5,1.0,6.0,101.0,2.0,-73.5,-993.0,-1244.5,0.0,-2.0
03:20:06,RTL,125396.0,-0.03735999949276447,0.004727835883386433,2.6357977986335754,-1.3738144040107727,-0.008873538754414767,-0.004679162229876965,-35.363263025,149.165235275,13485.25,6.0,14.5,102.0,1.0,-63.0,-1006.25,-1369.25,-3.5,-1.25
03:20:07,RTL,125396.0,-0.03989310935139656,0.00482458621263504,2.636182188987732,-1.358975887298584,-0.002063784282654524,-0.004323867149651051,-35.3632633,149.16523475,12466.0,9.5,20.5,100.0,0.5,-53.5,-1002.5,-1354.0,2.5,-1.0
03:20:09,RTL,182692.0,-0.023630278650671244,0.0045613746624439955,2.6363619565963745,-0.01761135458946228,-0.0018817761447280645,0.0018748848233371973,-35.36326365,149.1652341,11104.0,13.0,25.5,29.5,1.0,-7.5,-1028.5,-14.5,2.5,4.5
