time_stamp,MODE,lat,lon,relative_alt,roll,pitch,yaw,rollspeed,pitchspeed,yawspeed,xacc,yacc,zacc,xgyro,ygyro,zgyro,vx,vy,vz,RTL_ALT
03:14:11.692,STABILIZE,-35.3632621,149.1652374,0,-0.00021710382134187967,0.0015566878719255328,0.027158621698617935,0.00024140957975760102,0.0002331782889086753,0.0021315133199095726,0,1,-1000,0,0,0,-2,1,0,1500.0
03:14:11.893,STABILIZE,-35.3632621,149.1652374,0,-0.00021710382134187967,0.0015566878719255328,0.027158621698617935,0.00024140957975760102,0.0002331782889086753,0.0021315133199095726,0,1,-1000,0,0,0,-2,1,0,1500.0
03:14:12.094,STABILIZE,-35.3632621,149.1652375,0,5.296981908031739e-05,0.0015230911085382104,0.026998426765203476,0.00024685554672032595,0.0003765521105378866,0.0022687073796987534,0,0,-1001,0,0,0,-2,3,2,1500.0
03:14:12.294,STABILIZE,-35.3632621,149.1652375,0,5.296981908031739e-05,0.0015230911085382104,0.026998426765203476,0.00024685554672032595,0.0003765521105378866,0.0022687073796987534,0,0,-1001,0,0,0,-2,3,2,1500.0
03:14:12.495,STABILIZE,-35.3632622,149.1652375,0,-0.00019733810040634125,0.0014228569343686104,0.02672683075070381,0.00011378701310604811,0.0003313914639875293,0.0021850368939340115,0,0,-1001,0,0,0,-2,3,2,1500.0
03:14:12.696,STABILIZE,-35.3632622,149.1652375,0,-0.0003596710739657283,0.0013637351803481579,0.026578117161989212,0.00025642086984589696,0.000230524834478274,0.002177055459469557,0,1,-1000,0,0,0,-2,2,2,1500.0
03:14:12.897,STABILIZE,-35.3632622,149.1652375,0,-0.0003596710739657283,0.0013637351803481579,0.026578117161989212,0.00025642086984589696,0.000230524834478274,0.002177055459469557,0,1,-1000,0,0,0,-2,2,2,1500.0
03:14:13.099,STABILIZE,-35.3632622,149.1652375,0,-0.0003596710739657283,0.0013637351803481579,0.026578117161989212,0.00025642086984589696,0.000230524834478274,0.002177055459469557,0,1,-1000,0,0,0,-2,2,2,1500.0
03:14:13.300,STABILIZE,-35.3632622,149.1652375,0,-0.0003596710739657283,0.0013637351803481579,0.026578117161989212,0.00025642086984589696,0.000230524834478274,0.002177055459469557,0,1,-1000,0,0,0,-2,2,2,1500.0
03:14:13.501,STABILIZE,-35.3632622,149.1652375,0,-0.0007433606078848243,0.00120302545838058,0.02620474062860012,0.00031353102531284094,0.0003016990958712995,0.002038043923676014,0,1,-1000,0,0,0,-1,2,1,1500.0
03:14:13.703,STABILIZE,-35.3632622,149.1652375,0,-0.0008496012887917459,0.001164257642813027,0.026103561744093895,0.0001963087124750018,0.00022625314886681736,0.0021375175565481186,0,1,-1000,0,0,0,-1,2,1,1500.0
03:14:13.904,STABILIZE,-35.3632622,149.1652375,0,-0.0008496012887917459,0.001164257642813027,0.026103561744093895,0.0001963087124750018,0.00022625314886681736,0.0021375175565481186,0,1,-1000,0,0,0,-1,2,1,1500.0
03:14:14.105,STABILIZE,-35.3632622,149.1652375,0,-0.0009307275176979601,0.0011217861901968718,0.02600431628525257,0.00022711430210620165,0.0002488470054231584,0.0020726195070892572,0,1,-1000,0,0,0,-1,2,1,1500.0
03:14:14.306,STABILIZE,-35.3632622,149.1652375,0,-0.0009307275176979601,0.0011217861901968718,0.02600431628525257,0.00022711430210620165,0.0002488470054231584,0.0020726195070892572,0,1,-1000,0,0,0,-1,2,1,1500.0
03:14:14.508,STABILIZE,-35.3632622,149.1652375,0,-0.0010566762648522854,0.0010627320734784007,0.025794949382543564,0.000210006779525429,0.0003806348249781877,0.0020232698880136013,0,1,-1000,0,0,0,-1,1,1,1500.0
03:14:14.709,STABILIZE,-35.3632621,149.1652375,0,-0.0010566762648522854,0.0010627320734784007,0.025794949382543564,0.000210006779525429,0.0003806348249781877,0.0020232698880136013,0,1,-1000,0,0,0,-1,0,1,1500.0
03:14:14.910,STABILIZE,-35.3632621,149.1652375,0,-0.0010566762648522854,0.0010627320734784007,0.025794949382543564,0.000210006779525429,0.0003806348249781877,0.0020232698880136013,0,1,-1000,0,0,0,-1,0,1,1500.0
03:14:15.111,STABILIZE,-35.3632621,149.1652375,0,-0.0010566762648522854,0.0010627320734784007,0.025794949382543564,0.000210006779525429,0.0003806348249781877,0.0020232698880136013,0,1,-1000,0,0,0,-1,0,1,1500.0
03:14:15.312,STABILIZE,-35.3632621,149.1652375,0,-0.0010566762648522854,0.0010627320734784007,0.025794949382543564,0.000210006779525429,0.0003806348249781877,0.0020232698880136013,0,1,-1000,0,0,0,-1,0,1,1500.0
03:14:15.513,STABILIZE,-35.3632621,149.1652375,0,-0.0008867746219038963,0.0009895663242787123,0.025460025295615196,5.738931940868497e-05,0.00028552781441248953,0.0020837862975895405,0,1,-1000,0,0,0,-1,2,3,1500.0
03:14:15.715,STABILIZE,-35.3632621,149.1652375,0,-0.0009644838282838464,0.0009735403000377119,0.025370009243488312,0.0002130918437615037,0.0002797874913085252,0.0019587124697864056,0,1,-1000,0,0,0,-1,2,3,1500.0
03:14:15.916,STABILIZE,-35.3632621,149.1652375,0,-0.0009644838282838464,0.0009735403000377119,0.025370009243488312,0.0002130918437615037,0.0002797874913085252,0.0019587124697864056,0,1,-1000,0,0,0,-1,2,3,1500.0
03:14:16.117,STABILIZE,-35.3632621,149.1652375,0,-0.0009644838282838464,0.0009735403000377119,0.025370009243488312,0.0002130918437615037,0.0002797874913085252,0.0019587124697864056,0,1,-1000,0,1,0,-1,2,3,1500.0
03:14:16.318,STABILIZE,-35.3632621,149.1652375,0,-0.0011226049391552806,0.0009736524662002921,0.02520136721432209,0.0003264975966885686,0.00022309133782982826,0.0019750676583498716,0,1,-1000,0,1,0,-1,2,3,1500.0
03:14:16.520,STABILIZE,-35.3632621,149.1652375,0,-0.0011769327102229,0.0009698836365714669,0.025121944025158882,0.00024396914523094893,0.00020935569773428142,0.001959205139428377,0,1,-1000,0,1,0,-1,2,3,1500.0
03:14:16.721,STABILIZE,-35.3632621,149.1652375,0,-0.001236382988281548,0.000967459287494421,0.025051189586520195,6.831582868471742e-05,0.00036657770397141576,0.0018688784912228584,0,1,-1000,0,0,0,-1,1,2,1500.0
03:14:16.922,STABILIZE,-35.3632621,149.1652375,0,-0.001236382988281548,0.000967459287494421,0.025051189586520195,6.831582868471742e-05,0.00036657770397141576,0.0018688784912228584,0,1,-1000,0,0,0,-1,1,2,1500.0
03:14:17.123,STABILIZE,-35.3632621,149.1652375,0,-0.001236382988281548,0.000967459287494421,0.025051189586520195,6.831582868471742e-05,0.00036657770397141576,0.0018688784912228584,0,1,-1000,0,0,0,-1,1,2,1500.0
03:14:17.325,STABILIZE,-35.3632621,149.1652375,0,-0.001236382988281548,0.000967459287494421,0.025051189586520195,6.831582868471742e-05,0.00036657770397141576,0.0018688784912228584,0,1,-1000,0,0,0,-1,1,2,1500.0
03:14:17.526,STABILIZE,-35.3632621,149.1652375,0,-0.0013542488450184464,0.0009591754642315209,0.02483920380473137,0.00018145598005503416,0.0002204636693932116,0.0019260060507804155,0,1,-1000,0,0,0,-1,0,1,1500.0
03:14:17.727,STABILIZE,-35.3632621,149.1652375,0,-0.0013542488450184464,0.0009591754642315209,0.02483920380473137,0.00018145598005503416,0.0002204636693932116,0.0019260060507804155,0,1,-1000,0,0,0,-1,0,1,1500.0
03:14:17.929,STABILIZE,-35.3632621,149.1652375,0,-0.0013542488450184464,0.0009591754642315209,0.02483920380473137,0.00018145598005503416,0.0002204636693932116,0.0019260060507804155,0,1,-1000,0,0,0,-1,0,1,1500.0
03:14:18.130,STABILIZE,-35.3632621,149.1652375,0,-0.0013542488450184464,0.0009591754642315209,0.02483920380473137,0.00018145598005503416,0.0002204636693932116,0.0019260060507804155,0,1,-1000,0,0,0,-1,0,1,1500.0
03:14:18.332,STABILIZE,-35.3632621,149.1652375,0,-0.0013542488450184464,0.0009591754642315209,0.02483920380473137,0.00018145598005503416,0.0002204636693932116,0.0019260060507804155,0,1,-1000,0,0,0,-1,0,1,1500.0
03:14:18.533,STABILIZE,-35.3632621,149.1652375,0,-0.0014061392284929752,0.0009466768824495375,0.024587688967585564,8.002098184078932e-05,0.0003343759453855455,0.001852396409958601,0,1,-1000,1,0,0,-1,0,0,1500.0
03:14:18.734,STABILIZE,-35.3632621,149.1652375,0,-0.0014061392284929752,0.0009466768824495375,0.024587688967585564,8.002098184078932e-05,0.0003343759453855455,0.001852396409958601,0,1,-1000,1,0,0,-1,0,0,1500.0
03:14:18.935,STABILIZE,-35.3632621,149.1652375,0,-0.0014061392284929752,0.0009466768824495375,0.024587688967585564,8.002098184078932e-05,0.0003343759453855455,0.001852396409958601,0,1,-1000,1,0,0,-1,0,0,1500.0
03:14:19.137,STABILIZE,-35.3632621,149.1652375,0,-0.0014061392284929752,0.0009466768824495375,0.024587688967585564,8.002098184078932e-05,0.0003343759453855455,0.001852396409958601,0,1,-1000,1,0,0,-1,0,0,1500.0
03:14:19.341,STABILIZE,-35.3632621,149.1652375,0,-0.0014061392284929752,0.0009466768824495375,0.024587688967585564,8.002098184078932e-05,0.0003343759453855455,0.001852396409958601,0,1,-1000,1,0,0,-1,0,0,1500.0
03:14:19.542,STABILIZE,-35.3632621,149.1652375,0,-0.0014061392284929752,0.0009466768824495375,0.024587688967585564,8.002098184078932e-05,0.0003343759453855455,0.001852396409958601,0,1,-1000,1,0,0,-1,0,0,1500.0
03:14:19.743,STABILIZE,-35.3632621,149.1652375,0,-0.001373753068037331,0.0009573136921972036,0.024271128699183464,0.0001888300757855177,0.0002726492239162326,0.001863032695837319,0,1,-1000,0,1,0,-1,0,0,1500.0
03:14:19.944,STABILIZE,-35.3632621,149.1652375,0,-0.001373753068037331,0.0009573136921972036,0.024271128699183464,0.0001888300757855177,0.0002726492239162326,0.001863032695837319,0,1,-1000,0,1,0,-1,0,0,1500.0
03:14:20.146,STABILIZE,-35.3632621,149.1652375,0,-0.001373753068037331,0.0009573136921972036,0.024271128699183464,0.0001888300757855177,0.0002726492239162326,0.001863032695837319,0,1,-1000,0,1,0,-1,0,0,1500.0
03:14:20.347,STABILIZE,-35.3632621,149.1652375,0,-0.001373753068037331,0.0009573136921972036,0.024271128699183464,0.0001888300757855177,0.0002726492239162326,0.001863032695837319,0,1,-1000,0,1,0,-1,0,0,1500.0
03:14:20.548,STABILIZE,-35.3632622,149.1652375,0,-0.0013333223760128021,0.0009689440485090017,0.024102775380015373,0.00020355649758130312,0.0002969711786136031,0.0018016304820775986,0,1,-1000,0,0,0,-1,0,0,1500.0
03:14:20.749,STABILIZE,-35.3632622,149.1652375,0,-0.0013333223760128021,0.0009689440485090017,0.024102775380015373,0.00020355649758130312,0.0002969711786136031,0.0018016304820775986,0,1,-1000,0,0,0,-1,0,0,1500.0
03:14:20.956,STABILIZE,-35.3632622,149.1652375,0,-0.0013333223760128021,0.0009689440485090017,0.024102775380015373,0.00020355649758130312,0.0002969711786136031,0.0018016304820775986,0,1,-1000,0,0,0,-1,0,0,1500.0
03:14:21.157,STABILIZE,-35.3632622,149.1652375,0,-0.0013333223760128021,0.0009689440485090017,0.024102775380015373,0.00020355649758130312,0.0002969711786136031,0.0018016304820775986,0,1,-1000,0,0,0,-1,0,0,1500.0
03:14:21.358,STABILIZE,-35.3632622,149.1652375,0,-0.0013333223760128021,0.0009689440485090017,0.024102775380015373,0.00020355649758130312,0.0002969711786136031,0.0018016304820775986,0,1,-1000,0,0,0,-1,0,0,1500.0
03:14:21.559,STABILIZE,-35.3632622,149.1652375,0,-0.001272155437618494,0.0009674141765572131,0.023848606273531914,0.00020792556460946798,0.0003207992413081229,0.0016149354632943869,0,1,-1000,0,0,0,-1,0,0,1500.0
03:14:21.760,STABILIZE,-35.3632622,149.1652375,0,-0.001272155437618494,0.0009674141765572131,0.023848606273531914,0.00020792556460946798,0.0003207992413081229,0.0016149354632943869,0,1,-1000,0,1,0,-1,0,0,1500.0
03:14:21.962,STABILIZE,-35.3632622,149.1652375,0,-0.001272155437618494,0.0009674141765572131,0.023848606273531914,0.00020792556460946798,0.0003207992413081229,0.0016149354632943869,0,1,-1000,0,1,0,-1,0,0,1500.0
03:14:22.163,STABILIZE,-35.3632622,149.1652375,0,-0.001272155437618494,0.0009674141765572131,0.023848606273531914,0.00020792556460946798,0.0003207992413081229,0.0016149354632943869,0,1,-1000,0,1,0,-1,0,0,1500.0
03:14:22.364,STABILIZE,-35.3632622,149.1652375,0,-0.001272155437618494,0.0009674141765572131,0.023848606273531914,0.00020792556460946798,0.0003207992413081229,0.0016149354632943869,0,1,-1000,0,1,0,-1,0,0,1500.0
03:14:22.565,STABILIZE,-35.3632622,149.1652375,0,-0.001272155437618494,0.0009674141765572131,0.023848606273531914,0.00020792556460946798,0.0003207992413081229,0.0016149354632943869,0,1,-1000,0,0,1,-1,0,0,1500.0
03:14:22.767,STABILIZE,-35.3632622,149.1652375,0,-0.001272155437618494,0.0009674141765572131,0.023848606273531914,0.00020792556460946798,0.0003207992413081229,0.0016149354632943869,0,1,-1000,0,0,1,-1,0,0,1500.0
03:14:22.968,STABILIZE,-35.3632622,149.1652375,0,-0.001272155437618494,0.0009674141765572131,0.023848606273531914,0.00020792556460946798,0.0003207992413081229,0.0016149354632943869,0,1,-1000,0,0,1,-1,0,0,1500.0
03:14:23.169,STABILIZE,-35.3632622,149.1652375,0,-0.001272155437618494,0.0009674141765572131,0.023848606273531914,0.00020792556460946798,0.0003207992413081229,0.0016149354632943869,0,1,-1000,0,0,1,-1,0,0,1500.0
03:14:23.371,STABILIZE,-35.3632622,149.1652375,0,-0.001272155437618494,0.0009674141765572131,0.023848606273531914,0.00020792556460946798,0.0003207992413081229,0.0016149354632943869,0,1,-1000,0,0,1,-1,0,0,1500.0
03:14:23.572,STABILIZE,-35.3632622,149.1652375,0,-0.001272155437618494,0.0009674141765572131,0.023848606273531914,0.00020792556460946798,0.0003207992413081229,0.0016149354632943869,0,1,-1000,0,0,1,-1,0,0,1500.0
03:14:23.773,STABILIZE,-35.3632622,149.1652375,0,-0.001272155437618494,0.0009674141765572131,0.023848606273531914,0.00020792556460946798,0.0003207992413081229,0.0016149354632943869,0,1,-1000,0,1,0,-1,0,-1,1500.0
03:14:23.975,STABILIZE,-35.3632622,149.1652375,0,-0.001141793210990727,0.0009609624976292253,0.023232683539390564,0.000340997998137027,0.00026143062859773636,0.0016048114048317075,0,1,-1000,0,0,0,-1,0,-1,1500.0
03:14:24.176,STABILIZE,-35.3632622,149.1652375,0,-0.001141793210990727,0.0009609624976292253,0.023232683539390564,0.000340997998137027,0.00026143062859773636,0.0016048114048317075,0,1,-1000,0,0,0,-1,0,-1,1500.0
03:14:24.377,STABILIZE,-35.3632622,149.1652375,0,-0.001141793210990727,0.0009609624976292253,0.023232683539390564,0.000340997998137027,0.00026143062859773636,0.0016048114048317075,0,1,-1000,0,0,0,-1,0,-1,1500.0
03:14:24.579,STABILIZE,-35.3632622,149.1652375,0,-0.001141793210990727,0.0009609624976292253,0.023232683539390564,0.000340997998137027,0.00026143062859773636,0.0016048114048317075,0,1,-1000,0,0,0,-1,0,-1,1500.0
03:14:24.780,STABILIZE,-35.3632622,149.1652375,0,-0.0011059397365897894,0.0009666384430602193,0.023037580773234367,0.00028243771521374583,0.00027804874116554856,0.001625572913326323,0,2,-1000,0,1,0,-1,0,-1,1500.0
03:14:24.981,STABILIZE,-35.3632622,149.1652375,0,-0.0011059397365897894,0.0009666384430602193,0.023037580773234367,0.00028243771521374583,0.00027804874116554856,0.001625572913326323,0,2,-1000,0,1,0,-1,0,-1,1500.0
03:14:25.183,STABILIZE,-35.3632622,149.1652375,0,-0.0011059397365897894,0.0009666384430602193,0.023037580773234367,0.00028243771521374583,0.00027804874116554856,0.001625572913326323,0,2,-1000,0,1,0,-1,0,-1,1500.0
03:14:25.384,STABILIZE,-35.3632622,149.1652375,0,-0.0011059397365897894,0.0009666384430602193,0.023037580773234367,0.00028243771521374583,0.00027804874116554856,0.001625572913326323,0,2,-1000,0,1,0,-1,0,-1,1500.0
03:14:25.585,STABILIZE,-35.3632622,149.1652375,0,-0.00107881473377347,0.0009773722849786282,0.022851867601275444,0.0003260571393184364,0.0001855742302723229,0.0016822670586407185,0,2,-1000,0,0,0,-1,1,-1,1500.0
03:14:25.787,STABILIZE,-35.3632622,149.1652375,0,-0.00107881473377347,0.0009773722849786282,0.022851867601275444,0.0003260571393184364,0.0001855742302723229,0.0016822670586407185,0,2,-1000,0,0,0,-1,1,-1,1500.0
03:14:25.989,AUTO,-35.3632622,149.1652375,0,-0.0010784639744088054,0.0009803589200600982,0.022736279293894768,0.0004031995194964111,0.00021225609816610813,0.0015217616455629468,0,2,-1000,0,1,0,-1,1,-1,1500.0
03:14:26.191,AUTO,-35.3632622,149.1652375,0,-0.0010784639744088054,0.0009803589200600982,0.022736279293894768,0.0004031995194964111,0.00021225609816610813,0.0015217616455629468,0,2,-1000,0,1,0,-1,1,-1,137789.0
03:14:26.393,AUTO,-35.3632622,149.1652375,10,-0.0010766315972432494,0.000977708725258708,0.022673871368169785,0.0002719412441365421,0.0003005892504006624,0.001494763302616775,0,1,-1000,0,0,0,-1,1,-1,137789.0
03:14:26.595,AUTO,-35.3632622,149.1652375,11,-0.0010643709683790803,0.000979676260612905,0.022620106115937233,0.00027852982748299837,0.0002488313475623727,0.0014116911916062236,0,2,-1000,1,0,0,-1,1,-1,137789.0
03:14:26.798,AUTO,-35.3632622,149.1652375,12,-0.0010562138631939888,0.000991697539575398,0.022567572072148323,0.0002393906470388174,0.0002962662256322801,0.0014087308663874865,0,1,-1000,0,0,1,-1,0,-1,137789.0
03:14:27.001,AUTO,-35.3632622,149.1652375,12,-0.0010562138631939888,0.000991697539575398,0.022567572072148323,0.0002393906470388174,0.0002962662256322801,0.0014087308663874865,0,1,-1000,0,0,1,-1,0,-1,137789.0
03:14:27.203,AUTO,-35.3632622,149.1652375,12,-0.0010562138631939888,0.000991697539575398,0.022567572072148323,0.0002393906470388174,0.0002962662256322801,0.0014087308663874865,0,1,-1000,0,0,1,-1,0,-1,137789.0
03:14:27.405,AUTO,-35.3632622,149.1652375,12,-0.0010562138631939888,0.000991697539575398,0.022567572072148323,0.0002393906470388174,0.0002962662256322801,0.0014087308663874865,0,1,-1000,0,0,1,-1,0,-1,137789.0
03:14:27.607,AUTO,-35.3632621,149.1652375,14,-0.0009475568658672273,0.0011063016718253493,0.022406557574868202,0.0004214626387692988,0.0002955010859295726,0.0015296328347176313,0,1,-1000,0,1,0,0,0,-1,137789.0
03:14:27.809,AUTO,-35.3632621,149.1652375,15,-0.0009008045308291912,0.0011643875623121858,0.022343279793858528,0.0003243823884986341,0.0003471391391940415,0.0016074832528829575,0,1,-1000,1,0,1,0,0,-1,137789.0
03:14:28.010,AUTO,-35.3632621,149.1652375,15,-0.0008443160331808031,0.0012245202669873834,0.022269224748015404,0.00039391848258674145,0.0002637323923408985,0.0014073388883844018,0,1,-1000,0,1,1,0,0,-1,137789.0
03:14:28.212,AUTO,-35.3632621,149.1652375,15,-0.0007862964412197471,0.0012924943584948778,0.022207336500287056,0.000276985636446625,0.00028159836074337363,0.0015526032075285912,0,1,-1000,1,0,0,0,0,-1,137789.0
03:14:28.413,AUTO,-35.3632621,149.1652375,15,-0.0007862964412197471,0.0012924943584948778,0.022207336500287056,0.000276985636446625,0.00028159836074337363,0.0015526032075285912,0,1,-1000,1,0,0,0,0,-1,137789.0
03:14:28.615,AUTO,-35.3632621,149.1652375,16,-0.0007252911454997957,0.0013646859442815185,0.022128531709313393,0.00031788955675438046,0.0002963893348351121,0.0014032881008461118,0,2,-1000,1,0,0,0,0,-1,137789.0
03:14:28.817,AUTO,-35.3632621,149.1652375,16,-0.0006685117841698229,0.0014310124097391963,0.022060325369238853,0.0002458193921484053,0.0002844593836925924,0.0014990202616900206,0,2,-1000,0,1,1,0,0,-1,137789.0
03:14:29.018,AUTO,-35.3632621,149.1652375,16,-0.0006685117841698229,0.0014310124097391963,0.022060325369238853,0.0002458193921484053,0.0002844593836925924,0.0014990202616900206,0,2,-1000,0,1,1,0,0,-1,59879.0
03:14:29.220,AUTO,-35.3632621,149.1652375,16,-0.0006685117841698229,0.0014310124097391963,0.022060325369238853,0.0002458193921484053,0.0002844593836925924,0.0014990202616900206,0,2,-1000,0,1,1,0,0,-1,59879.0
03:14:29.422,AUTO,-35.3632621,149.1652375,16,-0.0006685117841698229,0.0014310124097391963,0.022060325369238853,0.0002458193921484053,0.0002844593836925924,0.0014990202616900206,0,2,-1000,0,1,1,0,0,-1,59879.0
03:14:29.623,AUTO,-35.3632621,149.1652375,16,-0.00036115877446718514,0.001638970454223454,0.0218484066426754,0.00034273997880518436,0.0003470048541203141,0.00138440215960145,0,1,-1000,1,0,1,0,0,0,59879.0
03:14:29.825,AUTO,-35.3632621,149.1652375,16,-0.0002841672976501286,0.001712982775643468,0.021767983213067055,0.0003998539177700877,0.00030580698512494564,0.001427119947038591,0,1,-1000,0,0,0,0,0,0,59879.0
03:14:30.026,AUTO,-35.3632621,149.1652375,18,0.0008169905631802976,0.000978054478764534,0.021722227334976196,0.008849886246025562,-0.00879939179867506,0.0008102509891614318,0,0,-1098,9,-8,0,0,0,-7,59879.0
03:14:30.228,AUTO,-35.3632621,149.1652375,78,0.003455409547314048,-0.00048049373435787857,0.021748563274741173,0.012676564045250416,0.00012575264554470778,0.004351411480456591,0,0,-1140,13,0,3,0,0,-41,59879.0
03:14:30.430,AUTO,-35.3632621,149.1652375,78,0.003455409547314048,-0.00048049373435787857,0.021748563274741173,0.012676564045250416,0.00012575264554470778,0.004351411480456591,0,0,-1140,13,0,3,0,0,-41,59879.0
03:14:30.631,AUTO,-35.3632621,149.1652375,224,0.002636928344145417,0.0003304111887700856,0.021819645538926125,-0.009315979667007923,0.004893794655799866,0.0025700044352561235,0,0,-1128,-8,5,1,0,0,-74,59879.0
03:14:30.833,AUTO,-35.3632621,149.1652375,444,0.0016710576601326466,0.0012163302162662148,0.021738769486546516,-0.005908756982535124,0.0023218984715640545,0.001976270694285631,0,0,-1108,-5,3,1,0,1,-102,59879.0
03:14:31.035,AUTO,-35.3632621,149.1652375,444,0.0016710576601326466,0.0012163302162662148,0.021738769486546516,-0.005908756982535124,0.0023218984715640545,0.001976270694285631,0,0,-1108,-5,3,1,0,1,-102,59879.0
03:14:31.237,AUTO,-35.3632621,149.1652375,444,0.0016710576601326466,0.0012163302162662148,0.021738769486546516,-0.005908756982535124,0.0023218984715640545,0.001976270694285631,0,0,-1108,-5,3,1,0,1,-102,59879.0
03:14:31.439,AUTO,-35.3632621,149.1652375,444,0.0016710576601326466,0.0012163302162662148,0.021738769486546516,-0.005908756982535124,0.0023218984715640545,0.001976270694285631,0,0,-1108,-5,3,1,0,1,-102,59879.0
03:14:31.640,AUTO,-35.3632621,149.1652375,1429,0.022998591884970665,-0.001037606387399137,0.020940370857715607,0.046983297914266586,-0.007357800845056772,0.0019210594473406672,0,0,-1017,47,-6,1,0,5,-146,59879.0
03:14:31.842,AUTO,-35.363262,149.1652377,1806,0.03441937267780304,-0.00293408683501184,0.020997915416955948,0.04474712163209915,-0.008189396001398563,0.002441307995468378,0,-1,-1007,45,-7,2,1,12,-148,59879.0
03:14:32.043,AUTO,-35.3632619,149.1652381,2189,0.04526112228631973,-0.005231122486293316,0.02113453671336174,0.04237857460975647,-0.010085850022733212,0.0030802397523075342,0,-3,-1002,42,-9,2,3,20,-149,184592.0
03:14:32.245,AUTO,-35.3632618,149.1652388,2573,0.05534785985946655,-0.00790866557508707,0.021319635212421417,0.03889915719628334,-0.010863175615668297,0.003379790810868144,0,-4,-1000,39,-10,2,5,31,-149,184592.0
03:14:32.447,AUTO,-35.3632616,149.1652398,2957,0.06182596832513809,-0.008949080482125282,-0.008185038343071938,-0.01552498061209917,0.02542971447110176,-0.04706122726202011,2,-9,-992,-15,25,-47,8,43,-148,184592.0
03:14:32.649,AUTO,-35.3632616,149.1652398,2957,0.06182596832513809,-0.008949080482125282,-0.008185038343071938,-0.01552498061209917,0.02542971447110176,-0.04706122726202011,2,-9,-992,-15,25,-47,8,43,-148,184592.0
03:14:32.851,AUTO,-35.3632614,149.1652411,3339,0.039422277361154556,0.013991601765155792,-0.0315590463578701,-0.14575240015983582,0.09581950306892395,-0.10145819187164307,3,-11,-991,-145,96,-101,10,53,-146,184592.0
03:14:33.062,AUTO,-35.3632614,149.1652411,3339,0.039422277361154556,0.013991601765155792,-0.0315590463578701,-0.14575240015983582,0.09581950306892395,-0.10145819187164307,3,-11,-991,-145,96,-101,10,53,-146,184592.0
03:14:33.267,AUTO,-35.3632614,149.1652411,3339,0.039422277361154556,0.013991601765155792,-0.0315590463578701,-0.14575240015983582,0.09581950306892395,-0.10145819187164307,3,-11,-991,-145,96,-101,10,53,-146,184592.0
03:14:33.469,AUTO,-35.3632608,149.1652451,4470,-0.022661970928311348,-0.01568637043237686,-0.03906700015068054,-0.032518092542886734,-0.046132732182741165,0.0050866687670350075,1,-9,-1002,-31,-45,4,8,39,-149,184592.0
03:14:33.672,AUTO,-35.3632608,149.1652451,4470,-0.022661970928311348,-0.01568637043237686,-0.03906700015068054,-0.032518092542886734,-0.046132732182741165,0.0050866687670350075,1,-9,-1002,-31,-45,4,8,39,-149,184592.0
03:14:33.874,AUTO,-35.3632605,149.165246,4854,-0.038728583604097366,-0.011345732025802135,-0.04880693927407265,-0.0846346840262413,0.06417731940746307,-0.0724053755402565,2,-9,-999,-84,64,-72,13,29,-149,184592.0
03:14:34.076,AUTO,-35.3632601,149.1652466,5237,-0.06283564865589142,0.007210616488009691,-0.07305554300546646,-0.10562693327665329,0.07934341579675674,-0.10289526730775833,0,-7,-999,-104,80,-103,13,14,-149,184592.0
03:14:34.278,AUTO,-35.3632599,149.1652468,5618,-0.08875157684087753,0.021907931193709373,-0.10027244687080383,-0.04735248163342476,0.042249616235494614,-0.08118581026792526,-1,-2,-1008,-46,43,-81,8,-5,-148,184592.0
03:14:34.480,AUTO,-35.3632598,149.1652463,6000,-0.08436049520969391,0.023415712639689445,-0.11764250695705414,0.04625684395432472,0.002409787615761161,-0.057823408395051956,-2,2,-1004,46,3,-57,0,-27,-149,184592.0
03:14:34.682,AUTO,-35.3632598,149.1652463,6000,-0.08436049520969391,0.023415712639689445,-0.11764250695705414,0.04625684395432472,0.002409787615761161,-0.057823408395051956,-2,2,-1004,46,3,-57,0,-27,-149,184592.0
03:14:34.884,AUTO,-35.3632598,149.1652454,6383,-0.07160426676273346,0.02314160019159317,-0.12982262670993805,0.056521568447351456,0.003548350417986512,-0.04134608805179596,-5,6,-1000,57,4,-41,-8,-44,-149,184592.0
03:14:35.087,AUTO,-35.3632598,149.1652454,6383,-0.07160426676273346,0.02314160019159317,-0.12982262670993805,0.056521568447351456,0.003548350417986512,-0.04134608805179596,-5,6,-1000,57,4,-41,-8,-44,-149,199260.0
03:14:35.290,AUTO,-35.3632598,149.1652454,6383,-0.07160426676273346,0.02314160019159317,-0.12982262670993805,0.056521568447351456,0.003548350417986512,-0.04134608805179596,-5,6,-1000,57,4,-41,-8,-44,-149,199260.0
03:14:35.493,AUTO,-35.3632611,149.1652405,7526,-0.02285267971456051,0.026847168803215027,-0.14716482162475586,0.0715809166431427,0.007035908289253712,-0.013053227216005325,-3,16,-1003,72,7,-13,-31,-69,-149,199260.0
03:14:35.694,AUTO,-35.3632611,149.1652405,7526,-0.02285267971456051,0.026847168803215027,-0.14716482162475586,0.0715809166431427,0.007035908289253712,-0.013053227216005325,-3,16,-1003,72,7,-13,-31,-69,-149,199260.0
03:14:35.896,AUTO,-35.3632619,149.1652385,7913,-0.004298971965909004,0.028265634551644325,-0.14891000092029572,0.07539694011211395,0.003935050219297409,-0.006041115149855614,-4,20,-1004,75,4,-6,-39,-67,-150,199260.0
03:14:36.098,AUTO,-35.3632628,149.1652367,8298,0.01447464618831873,0.028774382546544075,-0.14908981323242188,0.07655840367078781,0.0009725732961669564,-0.003060639603063464,-3,15,-1005,77,1,-3,-45,-61,-151,199260.0
03:14:36.300,AUTO,-35.3632639,149.1652351,8686,0.03341757506132126,0.028026698157191277,-0.14819349348545074,0.07548382878303528,-0.005685802083462477,0.0009397921967320144,0,18,-1005,75,-5,0,-50,-50,-152,199260.0
03:14:36.503,AUTO,-35.363265,149.1652339,9076,0.04067661613225937,0.016412634402513504,-0.13684962689876556,-0.025330886244773865,-0.09679856151342392,0.0884472206234932,1,15,-996,-24,-96,87,-53,-37,-151,199260.0
03:14:36.705,AUTO,-35.3632662,149.1652329,9463,0.03093262016773224,-0.01641058921813965,-0.10952603816986084,-0.023791760206222534,-0.12767644226551056,0.11490827798843384,5,14,-1003,-23,-127,114,-50,-26,-151,199260.0
03:14:36.908,AUTO,-35.3632662,149.1652329,9463,0.03093262016773224,-0.01641058921813965,-0.10952603816986084,-0.023791760206222534,-0.12767644226551056,0.11490827798843384,5,14,-1003,-23,-127,114,-50,-26,-151,199260.0
03:14:37.110,AUTO,-35.3632662,149.1652329,9463,0.03093262016773224,-0.01641058921813965,-0.10952603816986084,-0.023791760206222534,-0.12767644226551056,0.11490827798843384,5,14,-1003,-23,-127,114,-50,-26,-151,199260.0
03:14:37.312,AUTO,-35.3632662,149.1652329,9463,0.03093262016773224,-0.01641058921813965,-0.10952603816986084,-0.023791760206222534,-0.12767644226551056,0.11490827798843384,5,14,-1003,-23,-127,114,-50,-26,-151,199260.0
03:14:37.514,AUTO,-35.3632684,149.1652317,10635,0.05695918947458267,-0.06045878678560257,-0.04969041794538498,0.0504964143037796,-0.023415548726916313,0.05708618834614754,3,3,-1001,50,-22,56,-10,4,-153,199260.0
03:14:37.716,AUTO,-35.3632685,149.1652319,11025,0.06306114792823792,-0.07016612589359283,-0.03492280840873718,0.015497163869440556,-0.04455990716814995,0.06919156014919281,1,0,-997,16,-43,68,7,18,-152,199260.0
03:14:37.917,AUTO,-35.3632685,149.1652319,11025,0.06306114792823792,-0.07016612589359283,-0.03492280840873718,0.015497163869440556,-0.04455990716814995,0.06919156014919281,1,0,-997,16,-43,68,7,18,-152,199260.0
03:14:38.119,AUTO,-35.3632682,149.1652325,11412,0.06592491269111633,-0.08129037171602249,-0.020568199455738068,0.018060864880681038,-0.03401156887412071,0.06198233738541603,0,-5,-997,18,-33,61,26,31,-150,164276.0
03:14:38.321,AUTO,-35.3632674,149.1652335,11794,0.07132907956838608,-0.08637912571430206,-0.009677642956376076,0.02965027652680874,-0.005998733453452587,0.04398481920361519,-4,-10,-995,30,-5,43,47,44,-148,164276.0
03:14:38.523,AUTO,-35.3632661,149.1652348,12168,0.05920089781284332,-0.08032131940126419,-0.009308349341154099,-0.14199700951576233,0.08458251506090164,-0.053923558443784714,-5,-18,-984,-141,85,-54,67,56,-144,164276.0
03:14:38.725,AUTO,-35.3632644,149.1652363,12536,0.0160922072827816,-0.04417796432971954,-0.03660919889807701,-0.14677202701568604,0.15129689872264862,-0.11833754926919937,-8,-20,-1009,-145,151,-118,81,59,-142,164276.0
03:14:38.927,AUTO,-35.3632644,149.1652363,12536,0.0160922072827816,-0.04417796432971954,-0.03660919889807701,-0.14677202701568604,0.15129689872264862,-0.11833754926919937,-8,-20,-1009,-145,151,-118,81,59,-142,164276.0
03:14:39.128,AUTO,-35.3632644,149.1652363,12536,0.0160922072827816,-0.04417796432971954,-0.03660919889807701,-0.14677202701568604,0.15129689872264862,-0.11833754926919937,-8,-20,-1009,-145,151,-118,81,59,-142,164276.0
03:14:39.330,AUTO,-35.3632644,149.1652363,12536,0.0160922072827816,-0.04417796432971954,-0.03660919889807701,-0.14677202701568604,0.15129689872264862,-0.11833754926919937,-8,-20,-1009,-145,151,-118,81,59,-142,164276.0
03:14:39.532,AUTO,-35.3632588,149.1652403,13667,-0.022745592519640923,0.0277548898011446,-0.13600175082683563,-0.010547022335231304,0.05722904950380325,-0.10720967501401901,-10,-18,-1011,-10,58,-107,75,35,-153,164276.0
03:14:39.734,AUTO,-35.3632572,149.1652411,14059,-0.03890233486890793,0.0347081683576107,-0.15607862174510956,-0.3498271107673645,-0.024613019078969955,-0.03597565367817879,-7,-22,-961,-348,-23,-36,64,25,-152,164276.0
03:14:39.936,AUTO,-35.3632572,149.1652411,14059,-0.03890233486890793,0.0347081683576107,-0.15607862174510956,-0.3498271107673645,-0.024613019078969955,-0.03597565367817879,-7,-22,-961,-348,-23,-36,64,25,-152,164276.0
03:14:40.137,AUTO,-35.3632558,149.1652416,14447,-0.0734168291091919,0.03586064279079437,-0.1722947210073471,-0.058623380959033966,0.03796624392271042,-0.06741797924041748,-7,-13,-1009,-58,38,-67,51,8,-152,164276.0
03:14:40.339,AUTO,-35.3632548,149.1652415,14838,-0.0767240896821022,0.046123847365379333,-0.190669447183609,0.012581150978803635,0.04453200101852417,-0.06369353085756302,-7,-7,-1006,13,45,-64,36,-10,-153,164276.0
03:14:40.541,AUTO,-35.3632541,149.165241,15231,-0.06981217116117477,0.052884895354509354,-0.20391713082790375,0.04127431660890579,0.02201467752456665,-0.04394899308681488,-9,-2,-1002,42,22,-44,19,-26,-153,164276.0
03:14:40.743,AUTO,-35.3632538,149.1652402,15621,-0.05860406905412674,0.056649040430784225,-0.21269875764846802,0.05038420483469963,0.01703682728111744,-0.03220272809267044,-7,5,-1000,51,17,-32,1,-39,-152,164276.0
03:14:40.946,AUTO,-35.3632538,149.1652402,15621,-0.05860406905412674,0.056649040430784225,-0.21269875764846802,0.05038420483469963,0.01703682728111744,-0.03220272809267044,-7,5,-1000,51,17,-32,1,-39,-152,164276.0
03:14:41.147,AUTO,-35.3632538,149.1652402,15621,-0.05860406905412674,0.056649040430784225,-0.21269875764846802,0.05038420483469963,0.01703682728111744,-0.03220272809267044,-7,5,-1000,51,17,-32,1,-39,-152,291778.0
03:14:41.360,AUTO,-35.3632538,149.1652402,15621,-0.05860406905412674,0.056649040430784225,-0.21269875764846802,0.05038420483469963,0.01703682728111744,-0.03220272809267044,-7,5,-1000,51,17,-32,1,-39,-152,291778.0
03:14:41.562,AUTO,-35.363255,149.1652361,16780,-0.013627779670059681,0.06309357285499573,-0.2231348305940628,0.07090239226818085,0.0026360605843365192,-0.009453145787119865,-2,15,-1001,71,3,-9,-47,-51,-151,291778.0
03:14:41.763,AUTO,-35.3632562,149.1652347,17168,0.004399321042001247,0.06238458305597305,-0.22337670624256134,0.0733552873134613,-0.006080916151404381,-0.004123433027416468,2,14,-1002,74,-5,-4,-61,-46,-151,291778.0
03:14:41.965,AUTO,-35.3632576,149.1652335,17553,0.022932589054107666,0.05960547551512718,-0.2229049801826477,0.07536066323518753,-0.014945312403142452,3.043463220819831e-05,3,17,-1003,75,-13,0,-72,-36,-151,291778.0
03:14:42.167,AUTO,-35.3632576,149.1652335,17553,0.022932589054107666,0.05960547551512718,-0.2229049801826477,0.07536066323518753,-0.014945312403142452,3.043463220819831e-05,3,17,-1003,75,-13,0,-72,-36,-151,291778.0
03:14:42.369,AUTO,-35.3632593,149.1652326,17939,0.041660185903310776,0.05432949587702751,-0.22173628211021423,0.07533923536539078,-0.024359658360481262,0.003534416202455759,5,18,-1003,76,-23,3,-82,-22,-151,291778.0
03:14:42.571,AUTO,-35.3632612,149.1652322,18325,0.06009132042527199,0.04616832733154297,-0.2198619544506073,0.07309708744287491,-0.03668957203626633,0.0069291661493480206,14,15,-1003,74,-36,6,-88,-4,-151,291778.0
03:14:42.774,AUTO,-35.3632631,149.1652321,18711,0.07776384055614471,0.035397328436374664,-0.21750721335411072,0.06955444812774658,-0.047375064343214035,0.009308801963925362,15,13,-1003,70,-46,9,-89,15,-151,291778.0
03:14:42.976,AUTO,-35.3632631,149.1652321,18711,0.07776384055614471,0.035397328436374664,-0.21750721335411072,0.06955444812774658,-0.047375064343214035,0.009308801963925362,15,13,-1003,70,-46,9,-89,15,-151,291778.0
03:14:43.178,AUTO,-35.3632631,149.1652321,18711,0.07776384055614471,0.035397328436374664,-0.21750721335411072,0.06955444812774658,-0.047375064343214035,0.009308801963925362,15,13,-1003,70,-46,9,-89,15,-151,291778.0
03:14:43.380,AUTO,-35.3632631,149.1652321,18711,0.07776384055614471,0.035397328436374664,-0.21750721335411072,0.06955444812774658,-0.047375064343214035,0.009308801963925362,15,13,-1003,70,-46,9,-89,15,-151,291778.0
03:14:43.582,AUTO,-35.3632683,149.1652357,19856,0.06575237214565277,-0.06914042681455612,-0.15641482174396515,-0.049463722854852676,-0.17743447422981262,0.14907000958919525,19,-3,-1010,-48,-176,148,-56,72,-150,291778.0
03:14:43.784,AUTO,-35.3632692,149.1652377,20240,0.05037437751889229,-0.113350048661232,-0.11880389600992203,-0.05952601134777069,-0.16578270494937897,0.17653824388980865,18,-6,-1007,-58,-164,176,-26,80,-151,291778.0
03:14:43.986,AUTO,-35.3632694,149.1652399,20622,0.019408321008086205,-0.15073740482330322,-0.08255133777856827,-0.15813647210597992,-0.06031380966305733,0.08049517869949341,13,-13,-997,-157,-59,80,11,82,-148,291778.0
03:14:44.188,AUTO,-35.3632694,149.1652399,20622,0.019408321008086205,-0.15073740482330322,-0.08255133777856827,-0.15813647210597992,-0.06031380966305733,0.08049517869949341,13,-13,-997,-157,-59,80,11,82,-148,218883.0
03:14:44.390,AUTO,-35.3632687,149.165242,20997,-0.0265094805508852,-0.13547922670841217,-0.08714903146028519,-0.18496942520141602,0.13636460900306702,-0.07782599329948425,6,-20,-1002,-184,137,-78,49,72,-145,218883.0
03:14:44.592,AUTO,-35.3632673,149.1652436,21367,-0.0659722238779068,-0.09715156257152557,-0.12450770288705826,-0.15803028643131256,0.16204415261745453,-0.17392197251319885,-5,-18,-1010,-157,162,-174,75,52,-145,218883.0
03:14:44.794,AUTO,-35.3632655,149.1652446,21742,-0.09702591598033905,-0.06107313930988312,-0.1775078922510147,-0.11456824094057083,0.1582634598016739,-0.2033550888299942,-5,-18,-1014,-113,159,-203,90,23,-146,218883.0
03:14:44.996,AUTO,-35.3632655,149.1652446,21742,-0.09702591598033905,-0.06107313930988312,-0.1775078922510147,-0.11456824094057083,0.1582634598016739,-0.2033550888299942,-5,-18,-1014,-113,159,-203,90,23,-146,218883.0
03:14:45.197,AUTO,-35.3632655,149.1652446,21742,-0.09702591598033905,-0.06107313930988312,-0.1775078922510147,-0.11456824094057083,0.1582634598016739,-0.2033550888299942,-5,-18,-1014,-113,159,-203,90,23,-146,218883.0
03:14:45.400,AUTO,-35.3632655,149.1652446,21742,-0.09702591598033905,-0.06107313930988312,-0.1775078922510147,-0.11456824094057083,0.1582634598016739,-0.2033550888299942,-5,-18,-1014,-113,159,-203,90,23,-146,218883.0
03:14:45.601,AUTO,-35.3632596,149.1652425,22872,-0.10768046975135803,-0.001898313988931477,-0.3006691336631775,0.03662361577153206,0.05562487244606018,-0.09535225480794907,-16,0,-1004,37,56,-95,73,-69,-149,218883.0
03:14:45.803,AUTO,-35.3632581,149.1652403,23251,-0.09759489446878433,0.010683167725801468,-0.32229042053222656,0.04660630598664284,0.06178544834256172,-0.0715586394071579,-25,-1,-1003,47,62,-71,60,-92,-148,218883.0
03:14:46.005,AUTO,-35.3632568,149.1652375,23625,-0.08561369776725769,0.025569694116711617,-0.3387605547904968,0.056368324905633926,0.06678570806980133,-0.05336290970444679,-29,0,-1004,57,67,-53,43,-110,-148,218883.0
03:14:46.207,AUTO,-35.363256,149.1652341,24009,-0.07108946889638901,0.042085494846105576,-0.35158571600914,0.06517045944929123,0.06923782080411911,-0.03935334086418152,-27,6,-1006,66,70,-39,23,-122,-148,218883.0
03:14:46.409,AUTO,-35.363256,149.1652341,24009,-0.07108946889638901,0.042085494846105576,-0.35158571600914,0.06517045944929123,0.06923782080411911,-0.03935334086418152,-27,6,-1006,66,70,-39,23,-122,-148,218883.0
03:14:46.611,AUTO,-35.3632557,149.1652306,24387,-0.05483497679233551,0.05858930945396423,-0.36054158210754395,0.06971012055873871,0.06776934862136841,-0.027815736830234528,-25,9,-1007,70,68,-28,1,-129,-149,218883.0
03:14:46.813,AUTO,-35.3632557,149.165227,24768,-0.03655773028731346,0.07436607033014297,-0.36660176515579224,0.07865151017904282,0.061793748289346695,-0.019151225686073303,-22,12,-1007,79,62,-19,-21,-129,-150,218883.0
03:14:47.015,AUTO,-35.3632557,149.165227,24768,-0.03655773028731346,0.07436607033014297,-0.36660176515579224,0.07865151017904282,0.061793748289346695,-0.019151225686073303,-22,12,-1007,79,62,-19,-21,-129,-150,218883.0
03:14:47.217,AUTO,-35.3632557,149.165227,24768,-0.03655773028731346,0.07436607033014297,-0.36660176515579224,0.07865151017904282,0.061793748289346695,-0.019151225686073303,-22,12,-1007,79,62,-19,-21,-129,-150,89469.0
03:14:47.418,AUTO,-35.3632557,149.165227,24768,-0.03655773028731346,0.07436607033014297,-0.36660176515579224,0.07865151017904282,0.061793748289346695,-0.019151225686073303,-22,12,-1007,79,62,-19,-21,-129,-150,89469.0
03:14:47.620,AUTO,-35.3632592,149.1652177,25910,0.02650303766131401,0.10658913105726242,-0.3728565275669098,0.09247462451457977,0.02431120164692402,-0.0020916550420224667,-6,26,-1006,93,25,-2,-88,-89,-151,89469.0
03:14:47.822,AUTO,-35.3632613,149.1652155,26294,0.04945353791117668,0.10956594347953796,-0.3724733591079712,0.09231092780828476,0.004717924166470766,0.0019629455637186766,-6,32,-1005,93,5,1,-107,-64,-150,89469.0
03:14:48.024,AUTO,-35.3632639,149.1652141,26676,0.07251634448766708,0.10723956674337387,-0.3714306056499481,0.09231998026371002,-0.01665138080716133,0.007653024047613144,9,27,-1003,93,-15,7,-122,-35,-149,89469.0
03:14:48.226,AUTO,-35.3632667,149.1652136,27055,0.09499683976173401,0.09965962171554565,-0.370320200920105,0.0884990245103836,-0.039391499012708664,0.009048901498317719,12,26,-1002,89,-38,8,-133,-1,-147,89469.0
03:14:48.428,AUTO,-35.3632667,149.1652136,27055,0.09499683976173401,0.09965962171554565,-0.370320200920105,0.0884990245103836,-0.039391499012708664,0.009048901498317719,12,26,-1002,89,-38,8,-133,-1,-147,89469.0
03:14:48.630,AUTO,-35.3632697,149.165214,27428,0.11647539585828781,0.08637570589780807,-0.3695800006389618,0.08469978719949722,-0.06199106574058533,0.012282850220799446,20,21,-1002,85,-61,12,-139,34,-145,89469.0
03:14:48.832,AUTO,-35.3632727,149.1652153,27796,0.13658547401428223,0.06766001880168915,-0.36883559823036194,0.07757694274187088,-0.08205690234899521,0.01707165688276291,32,18,-1002,78,-81,16,-137,71,-143,89469.0
03:14:49.034,AUTO,-35.3632727,149.1652153,27796,0.13658547401428223,0.06766001880168915,-0.36883559823036194,0.07757694274187088,-0.08205690234899521,0.01707165688276291,32,18,-1002,78,-81,16,-137,71,-143,89469.0
03:14:49.236,AUTO,-35.3632727,149.1652153,27796,0.13658547401428223,0.06766001880168915,-0.36883559823036194,0.07757694274187088,-0.08205690234899521,0.01707165688276291,32,18,-1002,78,-81,16,-137,71,-143,89469.0
03:14:49.438,AUTO,-35.3632727,149.1652153,27796,0.13658547401428223,0.06766001880168915,-0.36883559823036194,0.07757694274187088,-0.08205690234899521,0.01707165688276291,32,18,-1002,78,-81,16,-137,71,-143,89469.0
03:14:49.640,AUTO,-35.3632804,149.1652254,28866,0.15679003298282623,-0.04230913147330284,-0.345858097076416,-0.03765628859400749,-0.20452047884464264,0.11311978846788406,37,-3,-1007,-36,-203,113,-82,174,-136,89469.0
03:14:49.841,AUTO,-35.3632818,149.1652304,29214,0.13276059925556183,-0.10230906307697296,-0.3178299367427826,-0.11414232850074768,-0.2336818426847458,0.1864428073167801,42,-21,-1016,-113,-232,186,-44,196,-136,89469.0
03:14:50.043,AUTO,-35.3632822,149.1652358,29563,0.09366703778505325,-0.16867540776729584,-0.2694641947746277,-0.13696719706058502,-0.24239717423915863,0.25398871302604675,37,-27,-1023,-136,-241,253,3,203,-136,89469.0
03:14:50.245,AUTO,-35.3632814,149.1652413,29910,0.045820847153663635,-0.2261892706155777,-0.2126713991165161,-0.17245011031627655,-0.1472283899784088,0.1717851758003235,22,-31,-1013,-171,-146,171,62,199,-135,94849.0
03:14:50.448,AUTO,-35.3632814,149.1652413,29910,0.045820847153663635,-0.2261892706155777,-0.2126713991165161,-0.17245011031627655,-0.1472283899784088,0.1717851758003235,22,-31,-1013,-171,-146,171,62,199,-135,94849.0
03:14:50.650,AUTO,-35.3632794,149.1652465,30248,-0.007994639687240124,-0.22690793871879578,-0.19760072231292725,-0.214291512966156,0.09775767475366592,-0.019134435802698135,15,-45,-1014,-213,98,-19,121,180,-130,94849.0
03:14:50.852,AUTO,-35.3632761,149.1652509,30580,-0.056885503232479095,-0.19321338832378387,-0.22584591805934906,-0.22011055052280426,0.14855113625526428,-0.15647420287132263,0,-51,-1026,-219,149,-156,170,147,-129,94849.0
03:14:51.065,AUTO,-35.3632761,149.1652509,30580,-0.056885503232479095,-0.19321338832378387,-0.22584591805934906,-0.22011055052280426,0.14855113625526428,-0.15647420287132263,0,-51,-1026,-219,149,-156,170,147,-129,94849.0
03:14:51.268,AUTO,-35.3632761,149.1652509,30580,-0.056885503232479095,-0.19321338832378387,-0.22584591805934906,-0.22011055052280426,0.14855113625526428,-0.15647420287132263,0,-51,-1026,-219,149,-156,170,147,-129,94849.0
03:14:51.475,AUTO,-35.3632623,149.1652573,31597,-0.1374080628156662,-0.07457824051380157,-0.379639595746994,-0.005900694523006678,0.22601951658725739,-0.09365607053041458,-31,-43,-1033,-5,226,-93,221,4,-137,94849.0
03:14:51.677,AUTO,-35.3632623,149.1652573,31597,-0.1374080628156662,-0.07457824051380157,-0.379639595746994,-0.005900694523006678,0.22601951658725739,-0.09365607053041458,-31,-43,-1033,-5,226,-93,221,4,-137,94849.0
03:14:51.879,AUTO,-35.3632575,149.1652569,31954,-0.1298767477273941,-0.02221156843006611,-0.4022522270679474,0.04731661453843117,0.21551017463207245,-0.030611159279942513,-27,-47,-1038,48,216,-30,208,-39,-142,94849.0
03:14:52.081,AUTO,-35.363253,149.1652553,32333,-0.11677676439285278,0.02738899551331997,-0.4100091755390167,0.04198383912444115,0.17304356396198273,0.004489729646593332,-37,-36,-1039,42,173,4,183,-72,-150,94849.0
03:14:52.283,AUTO,-35.3632493,149.165253,32721,-0.10685387998819351,0.06643839180469513,-0.4118715822696686,0.03481028601527214,0.14268362522125244,0.007837663404643536,-42,-11,-1031,35,143,7,149,-94,-155,94849.0
03:14:52.486,AUTO,-35.3632463,149.1652502,33120,-0.09859814494848251,0.0977899581193924,-0.41359275579452515,0.03241791948676109,0.11433394998311996,0.002385239815339446,-36,-10,-1022,33,115,2,110,-110,-158,94849.0
03:14:52.688,AUTO,-35.3632463,149.1652502,33120,-0.09859814494848251,0.0977899581193924,-0.41359275579452515,0.03241791948676109,0.11433394998311996,0.002385239815339446,-36,-10,-1022,33,115,2,110,-110,-158,94849.0
03:14:52.892,AUTO,-35.3632443,149.165247,33523,-0.08936326950788498,0.1238342896103859,-0.41641759872436523,0.04293894022703171,0.0982380360364914,-0.0019354810938239098,-32,0,-1013,43,99,-2,67,-119,-158,94849.0
03:14:53.094,AUTO,-35.3632443,149.165247,33523,-0.08936326950788498,0.1238342896103859,-0.41641759872436523,0.04293894022703171,0.0982380360364914,-0.0019354810938239098,-32,0,-1013,43,99,-2,67,-119,-158,81588.0
03:14:53.296,AUTO,-35.3632443,149.165247,33523,-0.08936326950788498,0.1238342896103859,-0.41641759872436523,0.04293894022703171,0.0982380360364914,-0.0019354810938239098,-32,0,-1013,43,99,-2,67,-119,-158,81588.0
03:14:53.497,AUTO,-35.3632443,149.1652375,34703,-0.04333202540874481,0.1775190383195877,-0.4226638972759247,0.08175226300954819,0.04339354485273361,0.00046133791329339147,-12,21,-996,82,44,0,-69,-104,-148,81588.0
03:14:53.699,AUTO,-35.3632443,149.1652375,34703,-0.04333202540874481,0.1775190383195877,-0.4226638972759247,0.08175226300954819,0.04339354485273361,0.00046133791329339147,-12,21,-996,82,44,0,-69,-104,-148,81588.0
03:14:53.901,AUTO,-35.3632463,149.1652349,35074,-0.021410776302218437,0.1852588802576065,-0.4229891300201416,0.091340571641922,0.01870499737560749,0.0021873649675399065,-4,26,-994,91,19,1,-112,-86,-142,81588.0
03:14:54.103,AUTO,-35.3632492,149.1652328,35431,0.0029604420997202396,0.18656258285045624,-0.4223476052284241,0.09956776350736618,-0.005980394780635834,0.008519014343619347,2,40,-995,100,-4,8,-151,-62,-137,81588.0
03:14:54.305,AUTO,-35.363253,149.1652315,35774,0.023671559989452362,0.17604036629199982,-0.41440990567207336,0.03098994307219982,-0.09418372809886932,0.07027396559715271,11,36,-990,31,-93,70,-183,-34,-131,81588.0
03:14:54.507,AUTO,-35.3632574,149.165231,36104,0.032197944819927216,0.14086219668388367,-0.3925076723098755,0.02367759682238102,-0.15814587473869324,0.10689417272806168,32,42,-1004,24,-157,106,-208,-5,-128,81588.0
03:14:54.711,AUTO,-35.3632623,149.1652313,36433,0.04422686994075775,0.0983661562204361,-0.3663523197174072,0.050962187349796295,-0.16606275737285614,0.10929334163665771,37,38,-1020,51,-164,109,-222,20,-130,81588.0
03:14:54.912,AUTO,-35.3632623,149.1652313,36433,0.04422686994075775,0.0983661562204361,-0.3663523197174072,0.050962187349796295,-0.16606275737285614,0.10929334163665771,37,38,-1020,51,-164,109,-222,20,-130,81588.0
03:14:55.115,AUTO,-35.3632623,149.1652313,36433,0.04422686994075775,0.0983661562204361,-0.3663523197174072,0.050962187349796295,-0.16606275737285614,0.10929334163665771,37,38,-1020,51,-164,109,-222,20,-130,81588.0
03:14:55.316,AUTO,-35.3632623,149.1652313,36433,0.04422686994075775,0.0983661562204361,-0.3663523197174072,0.050962187349796295,-0.16606275737285614,0.10929334163665771,37,38,-1020,51,-164,109,-222,20,-130,81588.0
03:14:55.519,AUTO,-35.363277,149.165236,37493,0.10593215376138687,-0.019718537107110023,-0.3048948049545288,0.0508769191801548,-0.16812144219875336,0.09876760840415955,48,22,-1029,51,-167,98,-194,95,-148,81588.0
03:14:55.721,AUTO,-35.3632811,149.165239,37874,0.1095200702548027,-0.06724391132593155,-0.28174182772636414,0.006295057013630867,-0.18374508619308472,0.12025043368339539,47,8,-1029,7,-182,120,-163,119,-152,81588.0
03:14:55.922,AUTO,-35.3632811,149.165239,37874,0.1095200702548027,-0.06724391132593155,-0.28174182772636414,0.006295057013630867,-0.18374508619308472,0.12025043368339539,47,8,-1029,7,-182,120,-163,119,-152,81588.0
03:14:56.124,AUTO,-35.3632844,149.1652426,38264,0.1057632640004158,-0.11692986637353897,-0.2546108365058899,-0.009980381466448307,-0.18215058743953705,0.12752899527549744,49,1,-1028,-9,-181,127,-122,138,-155,50851.0
03:14:56.326,AUTO,-35.3632867,149.1652465,38660,0.1002616286277771,-0.16547271609306335,-0.22674091160297394,-0.01627330109477043,-0.18408289551734924,0.1373043805360794,42,-3,-1018,-15,-183,137,-72,151,-156,50851.0
03:14:56.528,AUTO,-35.3632878,149.1652508,39052,0.08066819608211517,-0.21615444123744965,-0.19202777743339539,-0.07153040915727615,-0.19395117461681366,0.1636774241924286,33,-17,-1009,-70,-192,163,-14,158,-152,50851.0
03:14:56.730,AUTO,-35.3632875,149.1652551,39428,0.04365259036421776,-0.25179675221443176,-0.16545727849006653,-0.1701904535293579,-0.04285065084695816,0.04278118908405304,12,-27,-993,-169,-42,42,50,156,-143,50851.0
03:14:56.931,AUTO,-35.3632875,149.1652551,39428,0.04365259036421776,-0.25179675221443176,-0.16545727849006653,-0.1701904535293579,-0.04285065084695816,0.04278118908405304,12,-27,-993,-169,-42,42,50,156,-143,50851.0
03:14:57.133,AUTO,-35.3632875,149.1652551,39428,0.04365259036421776,-0.25179675221443176,-0.16545727849006653,-0.1701904535293579,-0.04285065084695816,0.04278118908405304,12,-27,-993,-169,-42,42,50,156,-143,50851.0
03:14:57.335,AUTO,-35.3632875,149.1652551,39428,0.04365259036421776,-0.25179675221443176,-0.16545727849006653,-0.1701904535293579,-0.04285065084695816,0.04278118908405304,12,-27,-993,-169,-42,42,50,156,-143,50851.0
03:14:57.537,AUTO,-35.3632789,149.1652652,40434,-0.09806355088949203,-0.17961221933364868,-0.25599032640457153,-0.23877479135990143,0.13828785717487335,-0.2082531452178955,-10,-58,-1021,-237,139,-208,199,73,-126,50851.0
03:14:57.739,AUTO,-35.3632742,149.1652666,40756,-0.14059703052043915,-0.15166343748569489,-0.3179810047149658,-0.20148810744285583,0.14555184543132782,-0.23802311718463898,-24,-45,-1029,-200,146,-237,222,23,-127,50851.0
03:14:57.941,AUTO,-35.3632742,149.1652666,40756,-0.14059703052043915,-0.15166343748569489,-0.3179810047149658,-0.20148810744285583,0.14555184543132782,-0.23802311718463898,-24,-45,-1029,-200,146,-237,222,23,-127,50851.0
03:14:58.142,AUTO,-35.3632691,149.1652664,41084,-0.1719653606414795,-0.11927735060453415,-0.3826504945755005,-0.10137635469436646,0.20185023546218872,-0.17775480449199677,-33,-37,-1022,-100,202,-177,229,-35,-127,50851.0
03:14:58.344,AUTO,-35.363264,149.1652648,41408,-0.17461565136909485,-0.06544072180986404,-0.4208398163318634,0.031838688999414444,0.2582038342952728,-0.06511855870485306,-40,-32,-1032,32,259,-65,220,-89,-128,50851.0
03:14:58.546,AUTO,-35.3632593,149.1652618,41739,-0.15543730556964874,-0.006216623820364475,-0.4361419081687927,0.08539971709251404,0.23628120124340057,0.007272325921803713,-45,-36,-1047,86,237,7,197,-132,-134,50851.0
03:14:58.748,AUTO,-35.3632553,149.1652578,42090,-0.13851243257522583,0.04718039184808731,-0.44255727529525757,0.0493924543261528,0.19188041985034943,0.0020392904989421368,-53,-14,-1049,50,192,2,163,-162,-142,50851.0
03:14:58.950,AUTO,-35.3632553,149.1652578,42090,-0.13851243257522583,0.04718039184808731,-0.44255727529525757,0.0493924543261528,0.19188041985034943,0.0020392904989421368,-53,-14,-1049,50,192,2,163,-162,-142,50851.0
03:14:59.152,AUTO,-35.3632553,149.1652578,42090,-0.13851243257522583,0.04718039184808731,-0.44255727529525757,0.0493924543261528,0.19188041985034943,0.0020392904989421368,-53,-14,-1049,50,192,2,163,-162,-142,65173.0
03:14:59.354,AUTO,-35.3632553,149.1652578,42090,-0.13851243257522583,0.04718039184808731,-0.44255727529525757,0.0493924543261528,0.19188041985034943,0.0020392904989421368,-53,-14,-1049,50,192,2,163,-162,-142,65173.0
03:14:59.555,AUTO,-35.3632488,149.1652427,43221,-0.10392481088638306,0.1577720046043396,-0.4588219225406647,0.06847170740365982,0.12819375097751617,-0.0037931117694824934,-45,14,-1018,69,129,-3,19,-195,-151,65173.0
03:14:59.758,AUTO,-35.3632489,149.1652374,43604,-0.08510177582502365,0.18693895637989044,-0.46207839250564575,0.08485066890716553,0.10829731076955795,0.00030495418468490243,-39,23,-1011,85,109,0,-35,-188,-149,65173.0
03:14:59.960,AUTO,-35.3632502,149.1652324,43977,-0.062486812472343445,0.21062304079532623,-0.46402326226234436,0.09646788239479065,0.08376635611057281,0.0023000393994152546,-25,32,-1004,97,84,2,-90,-173,-144,65173.0
03:15:00.163,AUTO,-35.3632502,149.1652324,43977,-0.062486812472343445,0.21062304079532623,-0.46402326226234436,0.09646788239479065,0.08376635611057281,0.0023000393994152546,-25,32,-1004,97,84,2,-90,-173,-144,65173.0
03:15:00.365,AUTO,-35.3632528,149.165228,44335,-0.035740215331315994,0.22775766253471375,-0.46399474143981934,0.11355315893888474,0.054068125784397125,0.0063013494946062565,-19,41,-999,114,54,6,-144,-149,-137,65173.0
03:15:00.567,AUTO,-35.3632565,149.1652243,44675,-0.018620528280735016,0.22472773492336273,-0.44773995876312256,0.007752447389066219,-0.08179184049367905,0.10835309326648712,-1,46,-984,8,-80,108,-192,-119,-128,65173.0
03:15:00.769,AUTO,-35.3632612,149.1652215,44992,-0.010985583998262882,0.19196054339408875,-0.4132816791534424,0.011519894003868103,-0.1663149893283844,0.14549319446086884,5,56,-991,12,-165,145,-233,-90,-120,65173.0
03:15:00.971,AUTO,-35.3632612,149.1652215,44992,-0.010985583998262882,0.19196054339408875,-0.4132816791534424,0.011519894003868103,-0.1663149893283844,0.14549319446086884,5,56,-991,12,-165,145,-233,-90,-120,65173.0
03:15:01.173,AUTO,-35.3632612,149.1652215,44992,-0.010985583998262882,0.19196054339408875,-0.4132816791534424,0.011519894003868103,-0.1663149893283844,0.14549319446086884,5,56,-991,12,-165,145,-233,-90,-120,65173.0
03:15:01.376,AUTO,-35.3632612,149.1652215,44992,-0.010985583998262882,0.19196054339408875,-0.4132816791534424,0.011519894003868103,-0.1663149893283844,0.14549319446086884,5,56,-991,12,-165,145,-233,-90,-120,65173.0
03:15:01.578,AUTO,-35.3632791,149.1652174,45923,0.056755177676677704,0.07160142064094543,-0.31078198552131653,0.12166127562522888,-0.13791663944721222,0.11347228288650513,28,51,-1040,122,-136,113,-285,-11,-131,65173.0
03:15:01.779,AUTO,-35.3632854,149.1652175,46268,0.08935144543647766,0.035611897706985474,-0.2875831127166748,0.12381458282470703,-0.13576588034629822,0.09669547528028488,36,45,-1042,124,-134,96,-277,19,-140,65173.0
03:15:01.981,AUTO,-35.3632914,149.1652184,46633,0.11982470750808716,-0.003013140056282282,-0.2692417800426483,0.1130317971110344,-0.1473492830991745,0.08682798594236374,73,49,-1046,113,-146,87,-258,53,-148,65173.0
03:15:02.183,AUTO,-35.3632914,149.1652184,46633,0.11982470750808716,-0.003013140056282282,-0.2692417800426483,0.1130317971110344,-0.1473492830991745,0.08682798594236374,73,49,-1046,113,-146,87,-258,53,-148,156491.0
03:15:02.385,AUTO,-35.3632969,149.1652204,47017,0.1457553505897522,-0.043633799999952316,-0.25440549850463867,0.1017937958240509,-0.15974734723567963,0.08199270814657211,57,33,-1037,102,-158,82,-229,89,-154,156491.0
03:15:02.586,AUTO,-35.3633016,149.1652233,47411,0.13406260311603546,-0.10315313935279846,-0.21986284852027893,-0.14981220662593842,-0.30074360966682434,0.2592802345752716,48,13,-1021,-148,-299,259,-189,122,-155,156491.0
03:15:02.788,AUTO,-35.3633053,149.1652268,47805,0.07354074716567993,-0.22748711705207825,-0.14886948466300964,-0.18082930147647858,-0.6549258232116699,0.3490564525127411,54,8,-1032,-180,-653,349,-131,139,-154,156491.0
03:15:02.990,AUTO,-35.3633053,149.1652268,47805,0.07354074716567993,-0.22748711705207825,-0.14886948466300964,-0.18082930147647858,-0.6549258232116699,0.3490564525127411,54,8,-1032,-180,-653,349,-131,139,-154,156491.0
03:15:03.192,AUTO,-35.3633053,149.1652268,47805,0.07354074716567993,-0.22748711705207825,-0.14886948466300964,-0.18082930147647858,-0.6549258232116699,0.3490564525127411,54,8,-1032,-180,-653,349,-131,139,-154,156491.0
03:15:03.395,AUTO,-35.3633053,149.1652268,47805,0.07354074716567993,-0.22748711705207825,-0.14886948466300964,-0.18082930147647858,-0.6549258232116699,0.3490564525127411,54,8,-1032,-180,-653,349,-131,139,-154,156491.0
03:15:03.597,AUTO,-35.3633039,149.1652364,48739,-0.11307327449321747,-0.5066191554069519,-0.06073155254125595,-0.014730184338986874,0.5032321810722351,0.055561576038599014,-16,-34,-967,-13,504,55,203,69,-67,156491.0
03:15:03.799,AUTO,-35.3632985,149.1652377,48879,-0.102943055331707,-0.3567431569099426,-0.05680890008807182,0.09027864038944244,0.6656679511070251,0.11002976447343826,-53,-38,-994,91,666,110,290,28,-41,156491.0
03:15:04.000,AUTO,-35.3632915,149.1652379,48990,-0.06320971250534058,-0.15506796538829803,-0.04602016136050224,0.29331323504447937,0.8788938522338867,-0.016949467360973358,-68,-47,-1071,294,879,-16,338,-8,-45,156491.0
03:15:04.202,AUTO,-35.3632915,149.1652379,48990,-0.06320971250534058,-0.15506796538829803,-0.04602016136050224,0.29331323504447937,0.8788938522338867,-0.016949467360973358,-68,-47,-1071,294,879,-16,338,-8,-45,156491.0
03:15:04.404,AUTO,-35.363284,149.1652374,49129,0.008776802569627762,0.04451747238636017,-0.08787082880735397,0.18475691974163055,0.6523957848548889,-0.14821845293045044,-68,-42,-1036,185,653,-147,332,-25,-59,156491.0
03:15:04.606,AUTO,-35.363277,149.1652365,49282,0.03396777808666229,0.15944544970989227,-0.11862099170684814,0.13405464589595795,0.2826157808303833,-0.1139855831861496,-57,-36,-988,135,283,-113,288,-26,-59,156491.0
03:15:04.808,AUTO,-35.3632711,149.1652358,49413,0.037558626383543015,0.19746033847332,-0.14067785441875458,-0.0009241568623110652,0.07250101864337921,-0.07583761215209961,-46,-43,-956,0,73,-75,233,-21,-44,156491.0
03:15:05.010,AUTO,-35.3632711,149.1652358,49413,0.037558626383543015,0.19746033847332,-0.14067785441875458,-0.0009241568623110652,0.07250101864337921,-0.07583761215209961,-46,-43,-956,0,73,-75,233,-21,-44,156491.0
03:15:05.212,AUTO,-35.3632711,149.1652358,49413,0.037558626383543015,0.19746033847332,-0.14067785441875458,-0.0009241568623110652,0.07250101864337921,-0.07583761215209961,-46,-43,-956,0,73,-75,233,-21,-44,49159.0
03:15:05.413,AUTO,-35.3632711,149.1652358,49413,0.037558626383543015,0.19746033847332,-0.14067785441875458,-0.0009241568623110652,0.07250101864337921,-0.07583761215209961,-46,-43,-956,0,73,-75,233,-21,-44,49159.0
03:15:05.615,AUTO,-35.3632602,149.1652348,49512,0.011311565525829792,0.16469721496105194,-0.17116133868694305,0.2138577103614807,-0.11618871241807938,-0.05006213113665581,-16,8,-985,215,-115,-49,84,1,7,49159.0
03:15:05.817,AUTO,-35.3632586,149.165235,49478,0.011813527904450893,0.13530957698822021,-0.17583519220352173,0.6858932375907898,-0.11129968613386154,-0.03235747292637825,-4,36,-977,687,-110,-31,48,8,16,49159.0
03:15:06.019,AUTO,-35.3632578,149.1652352,49424,-0.007181582041084766,0.19032229483127594,-0.18592597544193268,0.9020811319351196,0.12719157338142395,0.018536711111664772,4,33,-973,903,128,19,10,11,24,49159.0
03:15:06.220,AUTO,-35.363258,149.1652358,49353,-0.01400875486433506,0.1519528329372406,-0.1897124946117401,0.4466450810432434,-0.27316465973854065,0.008403416723012924,11,3,-1032,446,-272,8,-30,13,25,49159.0
03:15:06.422,AUTO,-35.363258,149.1652358,49353,-0.01400875486433506,0.1519528329372406,-0.1897124946117401,0.4466450810432434,-0.27316465973854065,0.008403416723012924,11,3,-1032,446,-272,8,-30,13,25,49159.0
03:15:06.624,AUTO,-35.3632588,149.1652364,49287,-0.013182328082621098,0.09345228224992752,-0.19351744651794434,-0.15939520299434662,-0.19201605021953583,-0.007330828346312046,15,-26,-1003,-159,-190,-6,-57,15,23,49159.0
03:15:06.826,AUTO,-35.3632602,149.1652372,49229,-0.0185119416564703,0.05910561606287956,-0.1968662589788437,-0.666579008102417,-0.11270651966333389,-0.014860708266496658,17,-32,-1019,-666,-111,-14,-71,17,17,49159.0
03:15:07.028,AUTO,-35.3632602,149.1652372,49229,-0.0185119416564703,0.05910561606287956,-0.1968662589788437,-0.666579008102417,-0.11270651966333389,-0.014860708266496658,17,-32,-1019,-666,-111,-14,-71,17,17,49159.0
03:15:07.229,AUTO,-35.3632602,149.1652372,49229,-0.0185119416564703,0.05910561606287956,-0.1968662589788437,-0.666579008102417,-0.11270651966333389,-0.014860708266496658,17,-32,-1019,-666,-111,-14,-71,17,17,49159.0
03:15:07.431,AUTO,-35.3632602,149.1652372,49229,-0.0185119416564703,0.05910561606287956,-0.1968662589788437,-0.666579008102417,-0.11270651966333389,-0.014860708266496658,17,-32,-1019,-666,-111,-14,-71,17,17,49159.0
03:15:07.633,AUTO,-35.3632655,149.1652401,49103,0.008251091465353966,0.02103804424405098,-0.20536765456199646,0.8010004162788391,-0.012434598989784718,0.0037081451155245304,20,50,-1016,802,-11,4,-80,28,11,49159.0
03:15:07.835,AUTO,-35.3632674,149.1652413,49064,0.01778058521449566,0.023838920518755913,-0.20640107989311218,0.6962314248085022,0.024229377508163452,0.04239194095134735,23,22,-995,696,25,42,-80,31,14,49159.0
03:15:08.036,AUTO,-35.3632692,149.1652426,49020,0.02174641378223896,0.031842757016420364,-0.13079208135604858,-0.0046173809096217155,0.040423303842544556,0.5547017455101013,24,-19,-994,-5,41,555,-80,37,14,49159.0
