time_stamp,RTL_ALT,MODE,roll,pitch,yaw,rollspeed,pitchspeed,yawspeed,lat,lon,relative_alt,vx,vy,vz,xacc,yacc,zacc,xgyro,ygyro,zgyro
06:01:18,1500.0,STABILIZE,-0.00015681098739150912,0.0013984304387122393,0.026417311280965805,0.00026960307150147855,0.00026516313664615154,0.0021307645365595818,-35.3632622,149.1652374,0.0,-2.0,0.0,-2.0,0.0,1.0,-1000.0,0.0,0.0,0.0
06:01:22,1500.0,STABILIZE,-0.00046996081073302776,0.0009466171031817794,0.024491547606885433,0.00013495603343471885,0.0002493999636499211,0.001998607534915209,-35.3632621,149.1652375,0.0,-1.0,2.0,0.0,0.0,1.0,-1000.0,0.0,0.0,0.0
06:01:24,1500.0,STABILIZE,-0.0008642469183541834,0.0009309379965998232,0.023816803470253944,0.00019781553419306874,0.0001878446782939136,0.0018171301344409585,-35.3632621,149.1652375,0.0,-1.0,1.0,0.0,0.0,1.0,-1000.0,0.0,0.0,0.0
06:01:28,1500.0,STABILIZE,-0.0009043503669090569,0.0009615442249923944,0.022608892992138863,0.0003320722025819123,0.0002792529412545264,0.0016947955591604114,-35.3632622,149.1652375,0.0,-1.0,2.0,1.0,0.0,1.5,-1000.0,0.0,0.0,0.0
06:01:29,78595.0,AUTO,-0.0010497725161258131,0.0009664471581345424,0.022360884584486485,0.00021515808475669473,0.00024702848168089986,0.0016344661416951567,-35.3632622,149.1652375,3.5,-1.0,1.0,0.25,0.0,1.75,-1000.0,0.5,0.5,0.0
06:01:30,78595.0,AUTO,-0.0011008699657395482,0.0009744636190589517,0.02220564614981413,0.0002499898546375334,0.00018850091146305203,0.0015715184854343534,-35.36326215,149.1652375,6.0,-1.0,0.5,0.0,0.0,2.0,-1000.0,0.5,1.0,0.5
06:01:32,56648.0,AUTO,-0.0004886882816208526,0.0014029438607394695,0.02172767836600542,0.0002956433454528451,0.00026610714849084616,0.0015077644493430853,-35.3632621,149.1652375,0.0,0.0,0.0,2.0,0.0,1.5,-1000.0,1.0,0.0,0.5
06:01:34,56648.0,AUTO,0.0030855765799060464,0.0010013374267145991,0.021276874467730522,-0.002367996145039797,0.0039557465352118015,0.002041355473920703,-35.3632621,149.1652375,354.0,0.0,1.0,-91.5,0.0,0.0,-1113.5,-1.5,4.0,0.5
06:01:35,119942.0,AUTO,0.040901366621255875,-0.00467466443660669,0.021504221484065056,0.04238778352737427,-0.00938552082516253,0.0033127033966593444,-35.363261924999996,149.16523825000002,2059.5,3.0,18.5,-147.0,0.5,-2.75,-1005.25,42.5,-8.0,2.5
06:01:36,119942.0,AUTO,0.04564500227570534,0.0056847629602998495,-0.022788011003285646,-0.1038240771740675,0.06488239020109177,-0.08561282604932785,-35.363261449999996,149.1652408,3214.0,9.0,49.0,-146.0,2.5,-10.5,-991.0,-102.5,65.0,-85.5
06:01:38,80225.0,AUTO,-0.06286719627678394,0.009638070594519377,-0.11143328249454498,0.05576355941593647,0.001508329383796081,-0.026159086264669895,-35.3632605,149.16524525,6277.5,-5.0,-39.0,-149.0,-2.5,6.0,-1001.0,56.5,2.0,-26.0
06:01:40,80225.0,AUTO,0.055512405931949615,0.002129380125552416,-0.10844742134213448,-0.00798366079106927,-0.07816130481660366,0.07431674003601074,-35.36326435,149.16523435,9386.5,-32.0,-15.0,-152.5,3.0,8.5,-997.5,-7.0,-77.0,73.0
06:01:41,284542.0,AUTO,0.01961083570495248,-0.05703479144722223,-0.030453276121988893,-0.07107366528362036,0.06396357621997595,-0.03471405920572579,-35.36326465,149.16523562499998,11317.25,35.0,29.25,-148.75,-1.25,-8.0,-998.75,-70.0,64.75,-34.75
06:01:42,284542.0,AUTO,-0.036691607907414436,0.01146300754044205,-0.1052604392170906,-0.02460449538193643,0.06903295405209064,-0.11411799862980843,-35.3632615,149.16523755,12458.0,51.0,11.5,-151.0,-7.0,-11.5,-1009.0,-23.0,69.0,-114.0
06:01:44,274778.0,AUTO,0.0264328233897686,0.03281083330512047,-0.18934587389230728,0.011507581686601043,-0.05242143198847771,0.037953296676278114,-35.363259,149.1652349,15591.0,-26.0,-3.5,-153.0,1.5,4.5,-998.0,12.0,-51.0,37.0
06:01:46,265014.0,AUTO,-0.0061993340495973825,-0.004646929446607828,-0.17329807579517365,0.0021596267470158637,0.006929773837327957,-0.0353553406894207,-35.363261949999995,149.16523645,18703.0,-5.0,6.0,-153.0,1.0,0.0,-1000.5,2.5,7.0,-35.0
06:01:47,270468.0,AUTO,-0.01571992490789853,0.0038347285153577104,-0.21168255433440208,-0.04666695953346789,0.023814701475203037,0.010501715820282698,-35.3632621,149.1652364,20646.75,-2.25,-3.5,-151.75,-0.75,0.25,-992.0,-45.5,24.25,10.5
06:01:48,270468.0,AUTO,-0.04939889907836914,0.05020658113062382,-0.08206335548311472,0.014815052971243858,0.023861534893512726,0.4196818172931671,-35.363262399999996,149.1652353,21770.5,-18.5,-27.0,-138.5,0.0,6.0,-965.0,16.0,24.5,419.0
06:01:50,207903.5,AUTO,0.04088916629552841,-0.021016455255448818,0.03674835525453091,-0.043878791853785515,0.039737552404403687,-0.001108169584767893,-35.36326495,149.1652322,23726.5,13.5,31.5,-60.5,0.0,-7.0,-975.0,-42.5,40.0,-1.0
06:01:52,145339.0,AUTO,-0.012062680907547474,0.014984490349888802,0.030506009235978127,-0.030321981757879257,-0.0026504333945922554,-0.0035485948901623487,-35.363261699999995,149.1652391,24470.5,8.5,19.5,-13.5,0.0,-7.5,-970.5,-29.5,-1.5,-3.5
06:01:53,180959.0,AUTO,-0.030611176509410143,0.030657898169010878,0.024922747164964676,-0.17557591199874878,0.004196646739728749,-0.005098238558275625,-35.3632617,149.165239175,24342.5,-16.5,-19.0,15.0,0.5,-11.5,-1008.75,-174.75,5.0,-5.25
06:01:54,180959.0,AUTO,-0.026573590002954006,0.039335036650300026,0.02169696893543005,0.41975224018096924,0.014321577735245228,-0.003116017789579928,-35.36326335,149.16523715,24249.5,-39.0,-33.0,1.5,4.0,34.5,-1013.5,420.5,15.0,-3.0
06:01:56,117575.5,AUTO,-0.013001073151826859,-0.12401068955659866,-2.206730842590332,0.3072264939546585,-0.057640086859464645,-1.378128170967102,-35.3632786,149.16522425,24236.5,-142.5,-97.0,-2.5,-38.5,6.5,-1004.5,308.0,-56.5,-1377.5
06:01:58,54192.0,AUTO,0.049950139597058296,-0.09375912323594093,-2.490636467933655,0.18574428651481867,0.019645730033516884,-0.012395878264214844,-35.363316999999995,149.16519195,24278.0,-254.5,-183.5,-6.5,-59.5,-28.0,-996.0,186.0,20.0,-12.0
06:01:59,34595.0,AUTO,0.04717935249209404,-0.07723861001431942,-2.4997907876968384,0.07529016211628914,0.023775959853082895,-0.0021590126561932266,-35.36334744999999,149.1651649,24328.5,-276.25,-203.0,-5.5,-68.75,-41.0,-995.75,76.25,24.25,-2.25
06:02:00,34595.0,AUTO,0.042597249150276184,-0.05954175442457199,-2.4997072219848633,-0.2505703940987587,0.013167411991162226,0.006732155103236437,-35.3633665,149.16514775000002,24358.0,-279.5,-204.5,-4.5,-70.0,-57.5,-996.0,-249.5,13.5,6.5
06:02:02,147065.5,AUTO,0.04041925258934498,0.004079265869222581,-2.502224326133728,-0.48039525747299194,0.05635402724146843,-0.0007215575315058231,-35.36341605,149.1651042,24417.0,-245.0,-179.0,-4.0,-63.5,-59.5,-1002.0,-478.5,57.0,-1.0
06:02:04,259536.0,AUTO,0.025535608641803265,0.09018801897764206,-2.504863977432251,0.4719557613134384,-0.005155620630830526,0.004431101959198713,-35.3634488,149.16507389999998,24443.5,-100.0,-76.5,0.5,-25.0,-6.5,-1002.0,472.0,-4.5,4.5
06:02:05,266384.0,AUTO,0.004694321425631642,0.04040441429242492,-2.504248082637787,-0.02627817541360855,-0.025996524840593338,-0.0026603398437146097,-35.3634555,149.165067325,24424.5,-29.25,-20.5,1.0,-8.5,-6.25,-1002.0,-25.25,-24.5,-2.5
06:02:06,266384.0,AUTO,0.004271611862350255,0.02480282261967659,-2.5056647062301636,0.27520309016108513,-0.016182375140488148,-0.004034036188386381,-35.363457100000005,149.16506615,24420.0,-10.0,-5.5,0.0,-3.0,23.0,-1006.5,277.0,-14.5,-3.5
06:02:08,258818.0,RTL,0.0036182412077323534,-0.004631133691873401,-2.5091089010238647,-0.232571080327034,-0.020387503667734563,-0.0018462517036823556,-35.3634585,149.1650665,24430.0,-0.5,-4.5,0.0,-2.0,2.5,-1000.5,-231.0,-19.0,-2.0
06:02:10,251252.0,RTL,0.0035173987271264195,0.01447081845253706,-2.5105860233306885,-0.22249355912208557,-0.002410294720903039,0.0027941688895225525,-35.363460149999995,149.16506545,24624.0,4.0,-4.0,-37.5,-0.5,-10.5,-1051.0,-221.0,-1.0,2.5
06:02:11,265546.0,RTL,-0.001248002539796289,0.009431547950953245,-2.5106975436210632,-0.009909017477184534,-0.0025355280231451616,0.0007769989824737422,-35.36346005,149.165064975,25560.75,7.75,0.5,-107.0,0.75,-0.5,-1049.75,-8.5,-1.25,0.25
06:02:12,265546.0,RTL,-0.0005525606393348426,0.006413210881873965,-2.5114182233810425,0.02805597148835659,-0.0033147388603538275,-0.0014657764695584774,-35.3634598,149.1650649,26486.0,6.5,2.5,-136.0,1.0,0.0,-1036.0,28.5,-1.5,-1.0
06:02:14,167624.5,RTL,0.00033558905124664307,0.02530997060239315,-2.5590749979019165,-0.1671941578388214,0.02355292998254299,-0.07830065302550793,-35.363457800000006,149.1650607,29500.5,25.5,-41.5,-145.0,4.0,-12.0,-998.5,-165.5,25.0,-77.5
06:02:16,69703.0,RTL,-0.01900865649804473,0.0019818373839370906,-2.6055036783218384,0.06374900415539742,0.007729328004643321,-0.0024864485603757203,-35.36345795,149.16506249999998,32574.5,-24.0,50.5,-150.0,-5.5,12.0,-1002.5,64.5,8.5,-1.5
06:02:17,198314.0,RTL,0.04675854090601206,-0.005247300956398249,-2.5911749601364136,0.008054573088884354,-0.043026108178310096,0.047525030735414475,-35.363459649999996,149.1650685,34521.25,-0.5,22.75,-152.25,-1.0,7.0,-998.75,9.5,-41.5,47.0
06:02:18,198314.0,RTL,0.019573365338146687,-0.029024130664765835,-2.561265707015991,-0.06127976253628731,0.03977386653423309,-0.013972403714433312,-35.363459649999996,149.1650693,35692.5,1.0,-11.0,-149.5,0.0,-1.0,-998.5,-59.5,40.5,-13.5
06:02:20,230508.0,RTL,0.004407854634337127,0.013870449271053076,-2.637752652168274,0.01196602312847972,0.0007908491534180939,-0.018385091796517372,-35.3634613,149.1650674,38804.5,-4.5,-1.5,-152.0,-1.5,0.0,-999.5,13.0,1.5,-17.5
06:02:22,262702.0,RTL,0.005133465630933642,0.005286893341690302,-2.663967490196228,-0.002778329886496067,-0.005125548457726836,-0.014201187994331121,-35.3634609,149.1650673,41929.0,9.0,-3.5,-152.0,1.0,0.0,-1000.0,-1.0,-3.5,-13.0
06:02:23,256330.0,RTL,0.001575144095113501,0.0016975782054942101,-2.6885629892349243,-0.0011177296401001513,0.00025248026940971613,-0.021872276905924082,-35.363460175,149.165066975,43873.25,6.25,-3.75,-152.5,0.75,0.0,-1000.0,0.25,1.5,-21.0
06:02:24,256330.0,RTL,0.001838305324781686,0.0020339111797511578,-2.7068521976470947,0.0026773172430694103,0.000733855355065316,-0.023643571883440018,-35.3634599,149.1650668,45045.0,3.5,-3.0,-153.0,0.0,0.0,-1000.0,3.5,1.5,-23.0
06:02:26,194866.5,RTL,0.0036769858561456203,0.004336935700848699,-2.75449800491333,-0.0016908483230508864,0.0006550471880473197,-0.02220469806343317,-35.3634597,149.1650665,48161.0,2.0,-3.0,-153.0,0.0,0.0,-999.5,-0.5,2.0,-21.0
06:02:28,133403.0,RTL,0.004388498957268894,0.005518097896128893,-2.792256236076355,0.006838866509497166,0.004907604539766908,0.0005710609257221222,-35.3634595,149.1650662,51281.0,2.5,-2.0,-152.5,0.0,0.0,-999.0,7.5,5.5,1.0
06:02:29,234574.0,RTL,0.004155435657594353,0.0051896796794608235,-2.7694445848464966,-0.003816355252638459,-0.001989818410947919,0.027270950376987457,-35.3634592,149.16506595,53217.0,5.0,-3.75,-152.0,0.25,0.0,-1000.0,-1.75,-0.25,27.5
06:02:30,234574.0,RTL,0.0017106756567955017,0.0033743130043148994,-2.7493035793304443,-0.0013683297438547015,-0.0011445768759585917,0.02763480320572853,-35.363458949999995,149.16506575,54382.0,5.0,-3.5,-152.0,0.0,0.0,-999.5,0.0,0.0,27.5
06:02:32,246033.5,RTL,0.0017603682354092598,0.0021441795397549868,-2.7061574459075928,0.0020183277083560824,0.000937405216973275,0.01963258907198906,-35.3634587,149.1650655,57485.0,0.5,-1.0,-152.0,0.0,0.0,-999.5,3.0,2.5,19.5
06:02:34,257493.0,RTL,0.004295416176319122,0.0032423994271084666,-2.674695611000061,0.004120536148548126,0.0014706008951179683,0.015612380113452673,-35.36345885,149.16506565,60594.0,0.0,-1.0,-152.0,0.0,0.0,-1000.0,5.0,3.0,15.5
06:02:35,55341.0,RTL,0.004274573060683906,0.0035230391076765954,-2.658935070037842,0.001109709992306307,0.0006304378330241889,0.013739153277128935,-35.36345905,149.16506575,62534.25,0.0,-1.75,-152.0,0.0,0.0,-1000.25,2.5,2.0,13.75
06:02:36,55341.0,RTL,0.0035401831846684217,0.0034938446478918195,-2.650917887687683,0.0007055211463011801,0.0006612445577047765,0.012505540624260902,-35.3634591,149.1650658,63699.0,1.0,-2.0,-152.0,0.0,0.0,-1000.0,2.0,2.0,13.0
06:02:38,95989.0,RTL,0.0038926084525883198,0.00424784398637712,-2.6332417726516724,0.0008066400187090039,0.00037241849349811673,0.00910933781415224,-35.363459250000005,149.1650658,66811.0,1.0,-1.0,-152.0,0.0,0.0,-1000.0,2.5,1.5,9.5
06:02:40,136637.0,RTL,0.0034599537029862404,0.003545359941199422,-2.6193982362747192,0.0015819182735867798,0.0013229197938926518,0.008527257014065981,-35.3634593,149.1650658,69912.5,1.0,-1.0,-152.0,0.0,0.0,-999.5,3.0,2.5,9.0
06:02:41,187266.0,RTL,0.0033564638579264283,0.0035932795726694167,-2.6119179129600525,-0.00027553486870601773,-0.0003314612549729645,0.006996749667450786,-35.3634593,149.1650658,71858.25,1.0,-1.0,-152.0,0.0,0.0,-1000.0,1.0,1.0,7.75
06:02:42,187266.0,RTL,0.0034673946211114526,0.003617724170908332,-2.6074248552322388,0.0007086381083354354,0.0011147847981192172,0.007119087502360344,-35.3634593,149.1650658,73023.0,1.0,-1.0,-152.0,0.0,0.0,-999.5,2.0,2.5,7.5
06:02:44,180110.5,RTL,0.0031408972572535276,0.0037209742004051805,-2.5965038537979126,0.0003600345808081329,-0.000974666269030422,0.005688053090125322,-35.3634593,149.1650658,76127.5,2.0,-1.0,-152.0,0.0,0.0,-1000.0,1.5,0.5,6.5
06:02:46,172955.0,RTL,0.0029789790278300643,0.0035294056870043278,-2.587621331214905,0.0020229374640621245,0.0002665232168510556,0.0038812613347545266,-35.3634593,149.1650658,79237.0,1.5,-1.0,-152.0,0.0,0.0,-1000.0,3.5,1.5,4.5
06:02:47,257133.0,RTL,0.0032216915278695524,0.0036751787993125618,-2.5826385021209717,0.0005126837932039052,0.00015147533849813044,0.005108366487547755,-35.363459325,149.1650658,81173.75,1.0,-1.0,-152.0,0.0,0.0,-1000.0,2.0,1.5,5.75
06:02:48,257133.0,RTL,0.003120364621281624,0.0036624351050704718,-2.579894781112671,-0.0008370807627215981,0.0001838583848439157,0.0043547258246690035,-35.3634594,149.1650658,82339.0,1.0,-1.0,-152.0,0.0,0.0,-1000.0,1.0,1.5,5.0
06:02:50,164452.0,RTL,0.0031687903683632612,0.0036369612207636237,-2.5730470418930054,-0.0006719615194015205,-0.0002727125829551369,0.0027634428115561604,-35.3634594,149.1650658,85443.0,1.0,-1.0,-152.0,0.0,0.0,-1000.0,0.5,0.5,3.5
06:02:52,71771.0,RTL,0.003225461463443935,0.0038382417988032103,-2.5670474767684937,-4.148727748543024e-05,-0.0011828168935608119,0.004871669923886657,-35.3634594,149.1650658,88549.0,2.0,-1.0,-152.0,0.0,0.0,-1000.0,1.5,0.5,5.5
06:02:53,233732.0,RTL,0.0031340461573563516,0.003885404032189399,-2.563791573047638,0.00018627307144924998,-0.0003197058686055243,0.0041628178441897035,-35.3634594,149.1650658,90490.5,2.0,-1.0,-152.0,0.0,0.0,-1000.0,1.75,1.0,5.0
06:02:54,233732.0,RTL,0.0031907408265396953,0.0039881253615021706,-2.561854362487793,0.0004185490543022752,0.00018311029998585582,0.0028933669673278928,-35.3634594,149.1650658,91658.5,2.0,-1.0,-152.0,0.0,0.0,-1000.0,2.0,1.5,4.0
06:02:56,249451.5,RTL,0.0029167719185352325,0.0034780834103003144,-2.5571852922439575,6.954476702958345e-05,0.0011281301849521697,0.002554448670707643,-35.3634594,149.1650658,94771.0,2.0,0.0,-152.0,0.0,0.0,-999.5,1.5,2.5,4.0
06:02:58,265171.0,RTL,0.0025128048146143556,0.004158682422712445,-2.553276777267456,-0.0001101706875488162,0.0015220215427689254,0.0011546266614459455,-35.3634594,149.1650658,97878.0,1.0,0.0,-152.0,0.0,0.0,-1000.0,2.0,3.0,2.5
06:02:59,180415.0,RTL,0.0025769314961507916,0.013139128568582237,-2.5510259866714478,-0.00011276593431830406,0.030419603688642383,0.0030875311349518597,-35.3634594,149.1650658,99811.0,3.0,0.75,-151.5,0.0,0.0,-998.75,1.75,31.75,4.5
06:03:00,180415.0,RTL,0.0014588947524316609,0.04625430144369602,-2.5492098331451416,-0.0009257564088329673,0.04159928485751152,0.002585014095529914,-35.36345905,149.16506605,100967.0,16.5,9.5,-150.5,2.0,1.0,-999.5,1.0,43.0,3.5
06:03:02,180415.0,RTL,-0.025785166770219803,0.13697142526507378,-2.5073606967926025,-0.10202271118760109,0.139022558927536,0.22830914705991745,-35.3634481,149.16507515,103934.5,120.0,82.5,-129.0,23.5,17.0,-956.5,-99.5,140.5,229.5
06:03:03,141623.0,RTL,0.030676737136673182,0.11085029691457748,-2.087519347667694,0.05079914256930351,-0.13120842538774014,0.14185512997210026,-35.36342945,149.165095125,105087.5,208.0,185.5,-52.75,59.25,15.75,-941.25,52.0,-128.5,142.5
06:03:04,141623.0,RTL,0.05311373621225357,0.06839452683925629,-2.0478159189224243,0.011470815166831017,0.019029133953154087,-0.00795940961688757,-35.36341435,149.1651103,105347.5,245.5,172.5,-9.0,66.5,10.5,-941.5,13.5,20.5,-6.0
06:03:06,138885.0,RTL,-0.020220115780830383,0.10755324736237526,-2.131941318511963,-0.4833708703517914,-0.028304502367973328,-0.04830472730100155,-35.36336465,149.1651474,104990.0,301.5,178.0,10.5,82.0,-5.0,-1008.5,-480.5,-26.0,-46.0
06:03:08,138885.0,RTL,-0.029404161497950554,0.037480718456208706,-2.2144527435302734,-0.4767787605524063,-0.054389266297221184,-0.05191066302359104,-35.3633134,149.16519125000002,104922.5,278.0,190.0,-4.0,79.5,-3.5,-1000.0,-474.0,-51.5,-49.5
06:03:09,24355.0,RTL,-0.02928465185686946,-0.025343823013827205,-2.256878674030304,-0.20249665901064873,-0.04990301746875048,-0.034579438623040915,-35.36328715,149.16521585,104932.5,210.75,141.0,-2.25,58.0,6.5,-1000.0,-199.75,-47.5,-32.0
06:03:10,24355.0,RTL,-0.02707231603562832,-0.06262274831533432,-2.2780455350875854,0.5978711545467377,-0.04705606587231159,-0.001013286062516272,-35.3632753,149.16522700000002,104928.0,154.0,98.5,-1.0,38.5,53.0,-1007.0,601.5,-44.5,1.0
06:03:12,172044.0,RTL,-0.0011067622108384967,-0.022167647257447243,-2.3225150108337402,-0.3764124885201454,0.01595614943653345,-0.02174404263496399,-35.36326255,149.16523899999999,104899.0,30.5,14.5,-1.5,5.5,-24.0,-1005.5,-374.0,17.5,-19.0
06:03:14,172044.0,RTL,0.026285620406270027,0.009585380554199219,-2.3531233072280884,0.31952182948589325,0.007465076167136431,-0.012696575373411179,-35.3632619,149.1652412,104916.5,16.0,-7.0,-2.5,-1.0,22.0,-1002.0,323.0,9.5,-10.0
06:03:15,172597.0,RTL,0.01971400063484907,-0.003831407055258751,-2.3691424131393433,0.03527510166168213,0.0012077526189386845,-0.015533550409600139,-35.363261825,149.16524164999998,104926.75,17.25,-15.5,-0.25,0.0,1.0,-997.25,38.75,3.0,-13.0
06:03:16,172597.0,RTL,0.008105846121907234,-2.8404174372553825e-06,-2.3784143924713135,-0.5657157599925995,0.007018545176833868,-0.014015046879649162,-35.3632618,149.16524114999999,104932.0,12.5,-19.0,0.0,0.0,-32.0,-994.5,-562.0,8.5,-11.5
06:03:18,288820.0,RTL,0.005929374601691961,0.006522060837596655,-2.3978123664855957,0.36302362382411957,0.0007272267248481512,-0.012335442937910557,-35.3632617,149.16523875000001,104939.0,3.5,-9.0,0.0,0.5,8.0,-1001.0,366.5,2.5,-10.0
06:03:20,288820.0,RTL,-0.0079154830891639,0.005105304764583707,-2.4117660522460938,-1.0450336337089539,-0.002262685215100646,-0.007689021993428469,-35.363261949999995,149.1652379,104694.0,1.0,-1.5,55.0,-0.5,-48.5,-931.0,-1041.0,0.0,-5.0
06:03:21,270683.0,RTL,-0.01603041891939938,0.00414281792473048,-2.4196548461914062,-1.399065524339676,0.004313068755436689,-0.0126382599119097,-35.363262125,149.1652379,103529.5,2.5,-2.25,113.0,-2.0,-33.0,-1013.75,-1393.5,6.0,-10.5
06:03:22,270683.0,RTL,-0.013122155796736479,0.003464230918325484,-2.424474596977234,-1.5130228400230408,-0.0008353207958862185,-0.0028020250611007214,-35.36326235,149.1652379,102646.0,4.0,-2.5,105.5,-2.5,-50.0,-1018.0,-1508.5,1.5,-1.0
06:03:24,69007.0,RTL,0.001300546427955851,0.008354247082024813,-2.4355432987213135,-1.3937013149261475,0.007372481748461723,-0.009104626253247261,-35.3632635,149.16523890000002,100563.0,10.0,-9.0,96.0,1.5,-73.5,-986.5,-1389.5,9.0,-6.5
06:03:26,69007.0,RTL,-0.04603743366897106,0.010740351863205433,-2.4438692331314087,-1.102992981672287,-0.008015857543796301,-0.0011962800053879619,-35.36326175,149.16523575,98531.0,1.5,4.0,99.0,2.0,-26.5,-993.0,-1097.5,-5.0,0.5
06:03:27,57923.0,RTL,-0.036375051364302635,0.005630008294247091,-2.449060022830963,-0.49018364399671555,-0.0030380476964637637,0.0010054460726678371,-35.363260925,149.16523495,97266.75,-7.0,16.25,99.5,0.0,13.25,-986.75,-483.5,-0.5,2.75
06:03:28,57923.0,RTL,-0.027421966195106506,0.0023269819794222713,-2.4518563747406006,0.06780296191573143,-0.0038792358245700598,-0.014042450580745935,-35.3632608,149.16523515,96505.5,-9.5,18.5,100.5,-2.0,43.0,-997.5,74.0,-0.5,-11.5
06:03:30,69785.0,RTL,0.002664678617293248,0.0008949790790211409,-2.4591050148010254,0.546740710735321,0.004586216527968645,0.010807538870722055,-35.3632621,149.1652376,94448.5,-3.5,5.0,102.0,-2.0,70.5,-967.5,552.5,6.5,12.5
06:03:32,69785.0,RTL,-0.0062535100150853395,0.006981375860050321,-2.465420365333557,0.5780972540378571,0.002028640592470765,0.007154923863708973,-35.363262649999996,149.1652378,92418.0,4.0,-4.5,98.0,1.0,57.5,-960.5,584.0,4.5,8.5
06:03:33,162603.0,RTL,-0.021520474227145314,0.007100424147211015,-2.4681034684181213,0.22245464101433754,-0.0032948788430076092,0.0016417200677096844,-35.363262,149.16523665,91146.0,0.75,1.0,100.25,0.75,49.75,-968.75,228.25,-1.0,3.25
06:03:34,162603.0,RTL,-0.01841572765260935,0.004979713354259729,-2.4708279371261597,0.38785961270332336,-0.001215943950228393,-0.0005290814442560077,-35.3632617,149.1652363,90379.5,-1.5,6.0,98.5,-0.5,55.0,-944.0,393.5,1.0,1.0
06:03:36,225949.0,RTL,0.028232429176568985,-0.0017192503437399864,-2.4741138219833374,1.368129014968872,-0.0017281705513596535,-0.003302775672636926,-35.363262399999996,149.16523790000002,88318.5,0.0,2.5,100.0,-3.5,70.5,-997.5,1371.5,1.0,-1.5
06:03:38,225949.0,RTL,0.07081054896116257,-0.00039175699930638075,-2.4786938428878784,1.374974250793457,0.0028604668332263827,-0.005030352622270584,-35.36326495,149.16524195,86290.0,20.0,-25.5,99.0,-4.0,54.0,-994.5,1379.0,5.0,-2.0
06:03:39,6290.0,RTL,0.07178325206041336,0.004465015605092049,-2.480928361415863,0.9977606534957886,0.004739081836305559,-0.0005944780423305929,-35.363266025,149.165243125,85026.5,32.75,-41.5,99.0,-0.5,17.0,-1025.0,1001.25,6.5,1.25
06:03:40,6290.0,RTL,0.06482856161892414,0.007531727664172649,-2.482410192489624,0.7947996854782104,0.000309307302813977,-0.0034075883449986577,-35.3632662,149.16524305000002,84267.5,37.0,-46.0,96.5,1.0,-3.0,-1024.5,798.5,2.0,-1.5
06:03:42,268682.0,RTL,0.03989504463970661,0.008835044223815203,-2.4848568439483643,0.36384403705596924,-0.0039672242710366845,-0.00117578636854887,-35.363265150000004,149.1652411,82224.5,32.5,-36.0,98.5,3.0,-30.5,-1013.0,367.5,-1.5,1.0
06:03:44,268682.0,RTL,-0.015796263236552477,0.014026464894413948,-2.488250255584717,-0.831672340631485,0.003890743595547974,-0.0071295383386313915,-35.363262899999995,149.16523740000002,80175.5,15.5,-15.0,99.0,6.5,-82.5,-982.5,-827.0,6.0,-4.5
06:03:45,133565.0,RTL,-0.05405450239777565,0.011515934951603413,-2.4889851808547974,-1.2232893109321594,-0.0008001207606866956,-0.007665357086807489,-35.36326085,149.165234425,78897.25,-2.25,10.5,98.0,4.0,-48.0,-1003.5,-1216.25,2.0,-5.0
06:03:46,133565.0,RTL,-0.06395922787487507,0.009892635513097048,-2.4899635314941406,-1.072689950466156,-0.0042842901311814785,0.007344260113313794,-35.36325985,149.165233,78133.0,-11.0,22.0,100.0,4.5,-20.0,-1021.5,-1065.0,-1.0,9.0
06:03:48,213373.0,RTL,-0.044954076409339905,0.0023032822646200657,-2.491538166999817,-0.44642116874456406,-0.0017619474092498422,0.006103378371335566,-35.3632592,149.16523254999998,76100.5,-27.5,42.0,100.0,0.5,15.5,-1006.5,-438.5,1.0,8.0
06:03:50,213373.0,RTL,-0.04510828107595444,0.0023617380065843463,-2.492669939994812,-0.8985387980937958,0.0019068198162131011,-0.007060692412778735,-35.3632595,149.16523335,74046.5,-28.0,39.0,101.0,-2.0,-9.5,-1022.0,-892.0,4.0,-4.0
06:03:51,49169.0,RTL,-0.033760183956474066,0.002926842833403498,-2.494664788246155,-0.6123472601175308,-0.004050968564115465,0.004501895688008517,-35.363260125,149.165234075,72777.75,-23.5,33.0,97.5,-1.75,10.75,-1003.75,-606.0,-1.0,6.5
06:03:52,49169.0,RTL,-0.018681845627725124,0.002982540405355394,-2.494730234146118,0.491569459438324,0.004303311230614781,0.003169108764268458,-35.36326045,149.16523454999998,72018.5,-20.5,29.5,97.5,-2.5,62.5,-979.0,497.5,7.0,5.0
06:03:54,200592.0,RTL,0.0021066206973046064,0.005064435303211212,-2.496024966239929,1.3677999377250671,-0.004685197491198778,-0.0010876358719542623,-35.3632611,149.16523515,69978.5,-13.0,22.0,99.5,-2.0,62.5,-1022.5,1371.0,-1.5,1.0
06:03:56,200592.0,RTL,0.009910385357216,0.0027512277010828257,-2.497621774673462,0.3876909054815769,-0.0038721913006156683,-0.006541623384691775,-35.3632617,149.16523635,67950.5,-7.5,14.5,100.0,-1.0,-15.0,-1001.0,388.0,-1.0,-4.5
06:03:57,275151.0,RTL,0.007540164398960769,0.0018417528190184385,-2.4979036450386047,-0.842433974146843,-1.781916944310069e-05,-0.0006820458802394569,-35.363262125,149.16523715,66689.75,-4.5,9.5,103.0,-2.0,-66.5,-986.75,-841.25,2.75,1.75
06:03:58,275151.0,RTL,0.009176678955554962,0.001484194421209395,-2.4982696771621704,-1.0234349966049194,-0.0037239037919789553,0.0023223445750772953,-35.36326255,149.1652379,65922.5,-0.5,4.0,101.0,-2.5,-67.5,-1002.5,-1022.5,-0.5,4.5
06:04:00,140941.0,RTL,0.012488273670896888,0.005438334541395307,-2.4996399879455566,-1.3159096837043762,0.004909945302642882,-0.001933158258907497,-35.36326375,149.1652396,63895.5,10.0,-12.5,103.0,0.5,-68.5,-971.0,-1313.0,8.0,0.5
06:04:02,140941.0,RTL,-0.007405335005993645,0.00749754145120581,-2.500547409057617,0.002857829133669535,-0.0010348462965339422,0.010926271167894205,-35.3632633,149.16523846666666,61871.0,12.333333333333334,-11.666666666666666,103.0,0.0,37.666666666666664,-989.6666666666666,9.0,1.6666666666666667,13.0
06:04:03,184308.0,RTL,-0.012054795088867346,0.0057830011161665125,-2.5005764166514077,-0.4640614986419678,-0.0056795695175727206,-0.0013494277372956276,-35.3632629,149.16523806666666,60597.333333333336,8.0,-6.0,102.33333333333333,1.6666666666666667,17.0,-993.3333333333334,-458.0,-2.6666666666666665,1.0
06:04:04,184308.0,RTL,-0.01373952409873406,0.005286859658857186,-2.500086784362793,-0.10945337017377217,0.003488735373442372,-0.0006624256105472645,-35.36326259999999,149.16523766666668,59833.0,7.666666666666667,-5.666666666666667,101.66666666666667,0.3333333333333333,33.333333333333336,-1015.6666666666666,-103.66666666666667,6.0,1.6666666666666667
06:04:06,187055.0,RTL,0.01129712350666523,0.0024038366973400116,-2.5015709400177,1.0337848265965779,0.00020939142753680548,0.002000785587976376,-35.3632625,149.1652379,57779.666666666664,3.0,-1.0,102.66666666666667,0.3333333333333333,71.33333333333333,-995.6666666666666,1039.6666666666667,3.0,4.333333333333333
06:04:08,187055.0,RTL,-0.022197335337599117,0.0064138565212488174,-2.5013410250345864,0.05327994624773661,-0.0022628181613981724,-0.00019075030771394572,-35.363262033333335,149.16523686666667,55743.0,1.0,-0.3333333333333333,98.33333333333333,0.3333333333333333,37.666666666666664,-995.3333333333334,59.333333333333336,0.3333333333333333,2.0
06:04:09,240148.0,RTL,-0.014203759375959635,0.0031054716964717954,-2.5023942589759827,-0.33852030150592327,-0.00428776879562065,0.0027111134259030223,-35.363262025,149.1652369,54422.75,0.0,4.25,100.5,-1.75,27.0,-1001.5,-332.5,-1.0,4.75
06:04:10,240148.0,RTL,0.003425164904911071,0.001631263003218919,-2.5026254653930664,0.3627009466290474,0.002492158440873027,-0.00716673128772527,-35.363262250000005,149.1652375,53663.0,0.0,2.5,101.0,-1.5,61.0,-960.5,368.5,5.0,-4.5
06:04:12,98036.0,RTL,0.026222694665193558,0.00672763679176569,-2.502763271331787,1.3521949648857117,0.004666867549531162,0.00020302669145166874,-35.363262950000006,149.16523845,51638.5,6.0,-8.0,102.5,0.0,47.0,-1006.5,1355.0,7.5,2.0
06:04:14,98036.0,RTL,-0.02789453665415446,0.011896606845160326,-2.5038224856058755,-1.0133580168088276,-0.002269422790656487,-0.007471276835228006,-35.36326153333333,149.16523553333332,49623.0,-1.3333333333333333,4.333333333333333,101.66666666666667,5.666666666666667,-75.0,-989.0,-1012.0,1.0,-4.666666666666667
06:04:15,31172.0,RTL,-0.05375955378015836,0.009855690412223339,-2.502568165461222,-1.2076013882954915,0.000176693390433987,-0.007329864039396246,-35.363259766666665,149.16523273333334,48348.666666666664,-15.666666666666666,27.0,101.0,3.6666666666666665,-80.0,-988.0,-1206.3333333333333,3.3333333333333335,-4.333333333333333
06:04:16,31172.0,RTL,-0.04843015099565188,0.006266265797118346,-2.5030367374420166,-1.0044935941696167,-0.008155087164292732,0.003045510190228621,-35.36325926666667,149.16523203333335,47575.666666666664,-23.666666666666668,39.333333333333336,103.0,1.3333333333333333,-75.33333333333333,-991.6666666666666,-1003.6666666666666,-4.333333333333333,5.666666666666667
06:04:18,101446.0,RTL,-0.02622675523161888,-0.0004948643909301609,-2.502803643544515,-1.043777863184611,-0.004445393259326617,-0.01066672538096706,-35.3632594,149.16523303333335,45531.666666666664,-29.0,44.0,100.0,-2.6666666666666665,-66.33333333333333,-999.0,-1043.3333333333333,-0.6666666666666666,-8.0
06:04:20,101446.0,RTL,-0.0055789028604825335,-0.0023744027906407914,-2.5027130444844565,-0.8458464741706848,0.002550595672801137,-0.00017182839413483938,-35.363261566666665,149.16523673333333,43480.0,-14.0,20.0,99.33333333333333,-5.0,-1.0,-1008.0,-842.0,5.333333333333333,2.6666666666666665
06:04:21,234708.0,RTL,0.007810340418169896,0.0011340828884082537,-2.5027785301208496,-0.9380082289377848,0.0025885713597138724,-0.0010005396713192265,-35.36326296666667,149.16523883333335,42191.333333333336,-0.3333333333333333,0.3333333333333333,97.66666666666667,-3.3333333333333335,-17.666666666666668,-1066.6666666666667,-935.0,5.666666666666667,1.6666666666666667
06:04:22,234708.0,RTL,0.0055791963047037525,0.0023945480352267623,-2.5035462379455566,-0.6756838262081146,0.001195090590044856,0.005651031155139208,-35.363263499999995,149.16523943333334,41441.333333333336,6.0,-8.333333333333334,100.66666666666667,-2.3333333333333335,11.0,-988.3333333333334,-671.6666666666666,4.0,8.0
06:04:24,123333.0,RTL,0.014819142719109854,0.004796148898700873,-2.5033717155456543,-0.31848684946695965,0.002191479473064343,0.007804295513778925,-35.36326426666667,149.1652404,39402.333333333336,16.666666666666668,-20.666666666666668,98.66666666666667,0.6666666666666666,17.666666666666668,-982.0,-314.0,5.0,10.0
06:04:26,123333.0,RTL,-0.011243609401086966,0.009380538326998552,-2.5034544467926025,-0.2658681968847911,0.002279430627822876,0.00517942663282156,-35.3632634,149.16523866666668,37375.0,14.333333333333334,-17.0,100.66666666666667,0.6666666666666666,17.333333333333332,-994.3333333333334,-261.0,6.0,7.666666666666667
06:04:27,172096.0,RTL,-0.023356111099322636,0.008681935568650564,-2.503281354904175,0.3315645108620326,9.602723487963279e-05,-0.005332003813236952,-35.363262166666665,149.16523676666668,36111.333333333336,6.666666666666667,-4.666666666666667,101.0,1.6666666666666667,47.333333333333336,-1010.0,335.6666666666667,3.0,-1.6666666666666667
06:04:28,172096.0,RTL,-0.01438981108367443,0.00536257098428905,-2.5038599967956543,1.0542032519976299,-0.0015877664554864168,-0.0027900961382935443,-35.3632617,149.1652361,35348.0,1.3333333333333333,3.0,102.33333333333333,-0.3333333333333333,72.0,-1020.6666666666666,1058.3333333333333,1.6666666666666667,-0.3333333333333333
06:04:30,235762.0,RTL,0.05421674872438113,-0.0030658990144729614,-2.5031678676605225,1.3541855017344158,-0.001645741518586874,-0.003824543751155337,-35.3632631,149.16523919999997,33291.666666666664,3.3333333333333335,-1.0,103.33333333333333,-5.333333333333333,58.0,-993.3333333333334,1356.0,2.0,-1.0
06:04:32,235762.0,RTL,0.0462077260017395,0.00500525813549757,-2.5033511320749917,-0.6503498057524363,0.00531531668578585,0.003222314640879631,-35.363265033333334,149.16524213333332,31263.0,22.666666666666668,-32.666666666666664,104.33333333333333,0.0,-62.0,-972.6666666666666,-649.0,8.333333333333334,5.333333333333333
06:04:33,235937.0,RTL,0.03301973889271418,0.008256492825845877,-2.5039334297180176,-0.4183048258225123,-0.0003892281868805488,-0.009621948702260852,-35.3632649,149.16524136666666,29981.0,26.0,-34.666666666666664,101.66666666666667,1.3333333333333333,-62.666666666666664,-977.6666666666666,-417.0,2.3333333333333335,-6.666666666666667
06:04:34,235937.0,RTL,0.019798332825303078,0.00985345213363568,-2.5036909580230713,-0.6019723912080129,0.0026462009021391473,-0.010298315590868393,-35.3632644,149.16524036666667,29215.333333333332,24.0,-30.666666666666668,103.66666666666667,3.0,-69.0,-1017.0,-600.0,5.666666666666667,-7.0
06:04:36,198857.0,RTL,0.01719168635706107,0.005251274909824133,-2.5042041142781577,-0.4324123064676921,-0.001259227516129613,-0.0061505647997061414,-35.3632631,149.1652385,27169.666666666668,11.666666666666666,-11.333333333333334,102.33333333333333,2.3333333333333335,-59.666666666666664,-977.0,-430.3333333333333,2.0,-2.6666666666666665
06:04:38,198857.0,RTL,-0.01602630379299323,0.008152203789601723,-2.5033926169077554,-1.0260707934697468,-0.004079302617659171,-0.0007080399276067814,-35.36326196666667,149.1652366,25124.0,1.6666666666666667,0.6666666666666666,100.33333333333333,2.3333333333333335,-80.33333333333333,-976.3333333333334,-1023.6666666666666,-0.6666666666666666,2.3333333333333335
06:04:39,43088.0,RTL,-0.023539743696649868,0.004666812717914581,-2.5037291049957275,-1.37793763478597,-0.0038052291298906007,0.0004606853860119979,-35.36326143333333,149.16523593333332,23833.666666666668,-3.6666666666666665,10.0,100.66666666666667,0.0,-62.666666666666664,-1019.0,-1374.0,0.3333333333333333,3.3333333333333335
06:04:40,43088.0,RTL,-0.025237641607721645,0.00416139792650938,-2.503389040629069,-0.962541937828064,0.0021612270890424647,-0.0034604820733269057,-35.3632614,149.165236,23064.333333333332,-4.666666666666667,11.0,100.0,-1.6666666666666667,-9.0,-981.6666666666666,-956.6666666666666,5.333333333333333,-0.3333333333333333
06:04:42,104290.0,RTL,-0.018920795371135075,0.00425500290778776,-2.50378155708313,-0.2867921131352584,-0.0016707781081398327,-0.004785714282964666,-35.36326156666667,149.16523623333333,21021.0,-4.333333333333333,9.666666666666666,99.66666666666667,-1.6666666666666667,27.333333333333332,-1018.6666666666666,-280.3333333333333,1.3333333333333333,-1.6666666666666667
06:04:44,104290.0,RTL,0.00976579263806343,0.001626476024587949,-2.503103494644165,0.4705299437046051,0.0011240496144940455,0.0038849911652505398,-35.3632627,149.1652381,18983.0,1.6666666666666667,0.6666666666666666,99.0,-3.0,63.0,-1001.0,476.3333333333333,4.333333333333333,6.333333333333333
06:04:45,127593.0,RTL,0.0133525092775623,0.00401142262853682,-2.5037670930226645,0.47436927755673725,0.004776263143867254,0.0025781927009423575,-35.36326333333333,149.16523906666666,17709.666666666668,9.0,-9.666666666666666,98.33333333333333,-1.0,55.666666666666664,-997.6666666666666,480.3333333333333,8.333333333333334,5.333333333333333
06:04:46,127593.0,RTL,0.015094307872156302,0.0056904680095613,-2.5034542878468833,0.8208707769711813,0.001783056107039253,-0.002027470308045546,-35.363263466666666,149.1652392,16935.666666666668,11.0,-12.333333333333334,98.66666666666667,-0.6666666666666666,60.666666666666664,-1041.0,827.0,5.333333333333333,0.3333333333333333
06:04:48,148229.0,RTL,0.003962864400818944,0.005852330010384321,-2.5027491251627603,0.5151053965091705,-0.0024378275653968253,0.005145882644380133,-35.36326346666667,149.16523886666664,14883.666666666666,13.666666666666666,-13.333333333333334,100.66666666666667,-1.0,62.333333333333336,-993.6666666666666,521.3333333333334,1.3333333333333333,8.0
06:04:50,148229.0,RTL,0.0580290121336778,-0.0008200151884617904,-2.503794272740682,1.240706245104472,0.0017915830637017887,0.0014144624971474211,-35.363264300000004,149.16524086666666,12850.666666666666,18.0,-20.0,97.66666666666667,-4.0,46.0,-990.6666666666666,1245.0,5.333333333333333,4.0
06:04:51,97381.0,RTL,0.053448256105184555,0.0014633136452175677,-2.503971576690674,-0.021194008489449818,0.0028432346880435944,-0.001486985944211483,-35.36326523333334,149.16524246666665,11659.666666666666,26.0,-33.666666666666664,69.66666666666667,-2.3333333333333335,-25.333333333333332,-1048.3333333333333,-17.0,6.333333333333333,1.3333333333333333
06:04:52,97381.0,RTL,0.04364140580097834,0.0036746196759243808,-2.504143317540487,-0.4697682273884614,0.005220909447719653,0.004465669238318999,-35.36326566666666,149.165243,11281.0,31.666666666666668,-41.666666666666664,30.0,-0.3333333333333333,-11.333333333333334,-1035.3333333333333,-463.0,9.0,7.0
06:04:54,291203.0,RTL,0.013781721082826456,0.009877029806375504,-2.504014730453491,-0.05721969654162725,0.0024681432793537774,0.004281732564171155,-35.363265000000006,149.16524129999996,10772.666666666666,31.666666666666668,-40.333333333333336,34.0,2.6666666666666665,9.666666666666666,-991.3333333333334,-49.333333333333336,5.666666666666667,7.0
06:04:56,291203.0,RTL,-0.016301733441650867,0.008459065885593494,-2.502959887186686,0.1849328875541687,-0.0026766275987029076,0.00040631601586937904,-35.3632625,149.1652375,10092.666666666666,13.0,-13.666666666666666,33.666666666666664,2.6666666666666665,17.0,-1006.3333333333334,193.0,1.3333333333333333,3.3333333333333335
06:04:57,93727.0,RTL,-0.017222922916213673,0.003393359404678146,-2.503052314122518,-0.7894265453020731,-0.0026596384899069867,-8.076072360078494e-05,-35.36326163333333,149.16523656666666,9657.333333333334,0.6666666666666666,1.6666666666666667,34.333333333333336,1.6666666666666667,-35.666666666666664,-999.0,-782.3333333333334,1.3333333333333333,3.0
06:04:58,93727.0,RTL,-0.008676918596999409,0.003952979731063048,-2.5030845006306968,0.31657858689626056,0.001023068247983853,0.0031248037703335285,-35.363261466666664,149.16523636666668,9395.666666666666,-2.0,4.0,32.333333333333336,1.0,24.666666666666668,-1013.3333333333334,324.6666666666667,4.666666666666667,6.0
06:05:00,255502.0,RTL,-0.011743557949860891,0.004833688338597615,-2.503570795059204,0.2957202206986646,-0.0017160937810937564,-0.0024944254740451774,-35.36326113333333,149.1652358,8779.333333333334,-7.666666666666667,10.666666666666666,9.333333333333334,0.3333333333333333,20.0,-1053.3333333333333,302.3333333333333,2.3333333333333335,0.6666666666666666
06:05:02,255502.0,RTL,-0.02343457533667485,0.005668144828329484,-2.5033833980560303,-0.34226899097363156,0.0015491655406852562,0.0006209954153746367,-35.36326076666666,149.16523493333332,8867.0,-11.666666666666666,18.0,-3.0,0.3333333333333333,-15.0,-996.6666666666666,-336.0,5.0,3.6666666666666665
06:05:03,152565.0,RTL,-0.023099122568964958,0.0050012220939000445,-2.503084977467855,-0.4883314197262128,0.00010773306712508202,-0.0018036541684220235,-35.3632607,149.16523476666669,8872.666666666666,-14.0,22.0,8.333333333333334,-0.6666666666666666,-20.333333333333332,-969.3333333333334,-482.3333333333333,3.6666666666666665,1.6666666666666667
06:05:04,152565.0,RTL,-0.008407638951515159,0.004046939391021927,-2.503377358118693,0.4678690234820048,-0.002671754608551661,-0.0003342533018440008,-35.363260833333335,149.16523500000002,8783.0,-13.333333333333334,21.666666666666668,6.666666666666667,-0.3333333333333333,25.333333333333332,-1027.6666666666667,474.0,1.3333333333333333,2.6666666666666665
06:05:06,221340.0,RTL,-0.002440699919437369,0.0017098708000654976,-2.503819306691488,-0.3491530468066533,0.0010017723155518372,2.2907741367816925e-05,-35.36326160000001,149.1652364,8786.333333333334,-8.666666666666666,14.666666666666666,0.0,-2.3333333333333335,-10.0,-994.6666666666666,-343.0,4.666666666666667,3.3333333333333335
06:05:08,221340.0,RTL,0.005053907710437973,0.0034805721758554378,-2.503258466720581,0.28425643344720203,-0.0036698651189605394,-0.0012212219492842753,-35.3632623,149.16523733333335,8793.0,-0.6666666666666666,4.0,0.3333333333333333,-0.6666666666666666,23.666666666666668,-998.6666666666666,290.6666666666667,0.3333333333333333,1.6666666666666667
06:05:09,138040.0,RTL,0.01725557850052913,0.003615481313318014,-2.503507693608602,0.41460393865903217,0.0002698382983605067,-0.0009783453618486722,-35.3632628,149.16523813333333,8797.666666666666,2.6666666666666665,-1.0,0.3333333333333333,-0.6666666666666666,20.333333333333332,-1002.6666666666666,420.0,4.0,2.3333333333333335
06:05:10,138040.0,RTL,0.005714767981165399,0.004637357002745072,-2.5036511421203613,-0.2794555425643921,0.0017987340688705444,0.002508004351208607,-35.3632629,149.1652383,8798.333333333334,5.0,-3.6666666666666665,0.3333333333333333,0.0,-7.333333333333333,-1002.0,-273.6666666666667,5.333333333333333,5.666666666666667
06:05:12,113524.0,RTL,-0.0036153242884514234,0.0057631417488058405,-2.5027315616607666,0.00917544960975647,0.0005019522892932097,0.002075393140936891,-35.363262866666666,149.16523803333334,8289.333333333334,6.0,-5.0,41.333333333333336,0.0,21.0,-1006.3333333333334,16.333333333333332,4.333333333333333,5.0
06:05:14,113524.0,RTL,-0.017967090321083862,0.00680882390588522,-2.5025241374969482,-0.10491934915383656,0.003450557589530945,0.002175755721206466,-35.363262133333336,149.1652369,7552.666666666667,2.0,0.0,34.333333333333336,2.0,8.666666666666666,-995.3333333333334,-98.0,7.333333333333333,5.333333333333333
06:05:15,292284.0,RTL,-0.007784199512874086,0.003423018380999565,-2.502331256866455,-0.3701104124387105,-0.0006292355246841908,-0.0031232415543248257,-35.363261666666666,149.1652364,7124.333333333333,-3.3333333333333335,8.333333333333334,34.0,0.0,-29.666666666666668,-998.6666666666666,-365.6666666666667,3.3333333333333335,0.0
06:05:16,292284.0,RTL,-0.003483415270845095,0.002278742923711737,-2.5025747617085776,0.09295766366024812,-0.0007460497630139192,0.0012809563583383958,-35.363261666666666,149.1652366,6868.333333333333,-3.3333333333333335,7.666666666666667,33.0,-1.0,21.0,-999.3333333333334,99.33333333333333,3.0,4.0
06:05:18,33836.0,RTL,0.016976880530516308,0.0015779629660149415,-2.5026743412017822,0.5811080286900202,0.0007559514294068018,-0.0024683515851696334,-35.36326243333333,149.16523809999998,6189.666666666667,0.3333333333333333,-0.6666666666666666,33.333333333333336,-3.0,36.0,-1003.3333333333334,587.0,5.0,0.6666666666666666
06:05:20,33836.0,RTL,0.021672166263063748,0.0037582647055387497,-2.5026862621307373,0.5151817401250204,0.0029142556401590505,-6.958283483982086e-05,-35.3632632,149.1652393,5510.333333333333,8.333333333333334,-12.0,32.666666666666664,-0.3333333333333333,24.333333333333332,-992.3333333333334,521.0,6.666666666666667,3.0
06:05:21,261565.0,RTL,0.001677800784818828,0.006732938190301259,-2.503512223561605,-0.21907530228296915,0.00206391808266441,0.005677384013930957,-35.36326326666667,149.1652389,5085.333333333333,10.666666666666666,-14.333333333333334,34.333333333333336,0.3333333333333333,7.333333333333333,-994.0,-211.66666666666666,6.0,8.666666666666666
06:05:22,261565.0,RTL,0.010864430107176304,0.007588135699431102,-2.502696911493937,0.7090660929679871,0.0017935216116408508,0.0023765990044921637,-35.36326303333333,149.1652383,4827.666666666667,9.666666666666666,-11.0,34.0,0.0,20.333333333333332,-999.3333333333334,714.0,5.666666666666667,5.333333333333333
06:05:24,269154.0,RTL,0.01982256956398487,0.004058149332801501,-2.5033323764801025,0.38582998514175415,0.0008642026223242283,0.0005165558153142532,-35.36326293333334,149.1652382,4142.0,7.333333333333333,-5.333333333333333,33.666666666666664,0.0,2.3333333333333335,-1006.0,390.6666666666667,5.0,3.6666666666666665
06:05:26,269154.0,RTL,0.00863314641173929,0.005449328726778428,-2.5028704007466636,-0.09949041654666264,-0.0004893085764100155,-0.0008703134953975677,-35.3632628,149.165238,3466.3333333333335,5.333333333333333,-3.6666666666666665,33.666666666666664,0.0,-20.666666666666668,-996.0,-94.33333333333333,3.6666666666666665,2.3333333333333335
06:05:27,147301.0,RTL,0.008597115830828747,0.004186435524995129,-2.5024604002634683,0.561072881023089,-0.0010756168824930985,0.00028716532203058404,-35.3632628,149.165238,3038.0,6.666666666666667,-5.0,33.666666666666664,0.0,38.0,-1001.6666666666666,568.3333333333334,3.3333333333333335,3.6666666666666665
06:05:28,147301.0,RTL,0.016508884107073147,0.0026071321529646716,-2.5025033950805664,0.18707271416982016,-0.0006065379517773787,-0.0018227677792310715,-35.3632628,149.1652382,2776.3333333333335,6.0,-4.333333333333333,32.666666666666664,-0.6666666666666666,-12.0,-999.3333333333334,192.0,3.3333333333333335,1.3333333333333333
06:05:30,41549.0,RTL,0.019632927762965362,0.00432398139188687,-2.5032643477121987,-0.17778223752975464,0.002668455553551515,0.0008269754859308401,-35.36326333333333,149.1652393,2097.0,10.333333333333334,-12.333333333333334,32.666666666666664,0.0,-19.0,-989.3333333333334,-171.66666666666666,6.666666666666667,4.0
06:05:32,41549.0,RTL,0.005031393181222181,0.007437040098011494,-2.503557046254476,-0.4793071697155635,0.00034705114861329395,-0.00032782422689100105,-35.3632634,149.1652389666667,1419.3333333333333,11.666666666666666,-14.0,32.666666666666664,1.3333333333333333,-21.666666666666668,-994.0,-471.6666666666667,4.666666666666667,3.0
06:05:33,5407.0,RTL,0.0051032984629273415,0.0067093693651258945,-2.503084421157837,0.1416636606057485,0.000841715062657992,0.002680912846699357,-35.363262766666665,149.1652379,990.3333333333334,8.0,-7.666666666666667,32.333333333333336,1.3333333333333333,-13.333333333333334,-1005.0,148.0,5.0,6.0
06:05:34,5407.0,RTL,-0.011685277335345745,0.004870238558699687,-2.5029818216959634,-0.44515947500864667,-0.0009315685989956061,0.0023541790433228016,-35.3632624,149.1652375,735.3333333333334,5.0,-3.3333333333333335,33.0,0.3333333333333333,-10.666666666666666,-992.0,-437.0,3.6666666666666665,5.666666666666667
06:05:36,73306.0,RTL,-0.005846479597191016,0.002361253408404688,-2.5053762594858804,-0.1495109386742115,-0.0014525086929400761,0.002342058656116327,-35.36326193333333,149.16523700000002,92.66666666666667,-5.0,5.666666666666667,17.333333333333332,2.0,6.666666666666667,-983.3333333333334,-142.33333333333334,2.6666666666666665,5.666666666666667
06:05:38,73306.0,RTL,-0.003348050250982245,0.0016178778217484553,-2.50685183207194,-0.0028458405286073685,-0.00033702561631798744,0.00037226080894470215,-35.3632621,149.1652372,0.0,-7.0,5.0,7.333333333333333,0.0,0.0,-1000.0,4.0,4.0,4.0
06:05:39,159813.0,RTL,-0.004997682136793931,0.0016333500389009714,-2.5072263876597085,-0.0027159216503302255,-0.00036089324081937474,0.0002716534460584323,-35.3632621,149.1652372,0.0,-7.0,5.333333333333333,5.666666666666667,0.0,0.0,-1000.0,4.0,4.0,4.0
06:05:40,159813.0,RTL,-0.005816553098460038,0.0016663118731230497,-2.5073350270589194,-0.00272709953909119,-0.0003558386427660783,0.00029495544731616974,-35.363262166666665,149.16523723333333,0.0,-7.666666666666667,6.333333333333333,4.666666666666667,0.0,0.0,-1000.0,4.0,4.0,3.6666666666666665
06:05:42,159813.0,RTL,-0.0069608270811537904,0.0018501646506289642,-2.506724993387858,-0.002475164830684662,-0.0003596229168275992,0.00022040454981227717,-35.36326223333334,149.1652374,0.0,-9.0,8.0,3.0,0.0,0.0,-1000.0,4.0,4.0,3.6666666666666665
06:05:44,159813.0,RTL,-0.007168959205349286,0.0019722091189275184,-2.506657044092814,-0.0023886443426211676,-0.0003084091780086358,0.00024890612500409287,-35.3632623,149.1652375,0.0,-9.0,9.0,1.3333333333333333,0.0,0.0,-1000.0,3.6666666666666665,3.3333333333333335,3.6666666666666665
