time_stamp,RTL_ALT,lat,lon,relative_alt,vx,vy,vz,xacc,yacc,zacc,xgyro,ygyro,zgyro,roll,pitch,yaw,rollspeed,pitchspeed,yawspeed,MODE
01:08:18,1500.0,-35.3632621,149.1652375,0.0,-1.0,1.0,1.0,0.0,1.0,-1000.0,0.0,1.0,0.0,-0.000888122885953635,0.0009346952429041266,0.02458605170249939,0.00018198660109192133,0.00022182223619893193,0.0018426632741466165,STABILIZE
01:08:26,1500.0,-35.3632622,149.1652375,0.0,-1.0,1.0,0.0,0.0,1.5,-1000.0,0.0,0.0,0.0,-0.0008874901686795056,0.0009665498801041394,0.022614545188844204,0.00020358574693091214,0.000309399445541203,0.0015524587943218648,STABILIZE
01:08:29,17871.0,-35.3632622,149.1652375,0.5,-1.0,1.0,0.0,0.0,1.5,-1000.0,0.25,1.0,0.75,-0.0009068653453141451,0.0010029538534581661,0.021916332344214123,0.0002818912228879829,0.0002485158814427753,0.001539567019790411,AUTO
01:08:30,17871.0,-35.36326215,149.1652375,3.0,-0.5,0.5,-0.5,0.0,1.5,-1000.0,0.0,1.0,0.5,-0.0007915983442217112,0.0010478165931999683,0.02174325566738844,0.00029337021987885237,0.00023120632977224886,0.0015382354613393545,AUTO
01:08:32,79465.5,-35.3632621,149.1652375,7.0,0.0,0.0,0.0,0.0,1.5,-1000.0,0.0,1.0,0.5,-0.0002710035696509294,0.0015167564852163196,0.021286058239638805,0.0003022019227501005,0.0003186431713402271,0.0014288038946688175,AUTO
01:08:34,141060.0,-35.3632621,149.1652375,924.5,0.0,2.5,-123.5,0.0,0.0,-1062.0,23.0,-1.5,0.5,0.012694137927610427,-1.5368452295660973e-05,0.020735924132168293,0.02255109720863402,-0.002196755609475076,0.0017929865280166268,AUTO
01:08:35,147499.0,-35.363261824999995,149.1652386,2377.75,4.25,27.25,-147.5,0.75,-4.75,-1000.0,26.0,2.0,-11.5,0.04999055713415146,-0.00619992904830724,0.013336584204807878,0.025867808144539595,0.0009288375731557608,-0.010925152222625911,AUTO
01:08:36,147499.0,-35.3632611,149.16524305000002,3898.0,6.5,46.0,-147.0,3.0,-8.5,-997.0,-92.5,39.5,-64.0,0.00481941644102335,0.007622813587659039,-0.045924676582217216,-0.0936370138078928,0.038390102330595255,-0.0640280432999134,AUTO
01:08:38,163072.0,-35.3632609,149.1652426,6955.5,-11.5,-53.5,-148.5,-4.5,10.0,-1001.5,63.5,6.5,-12.5,-0.036372201051563025,0.009284683037549257,-0.11520852893590927,0.06324830465018749,0.006043532979674637,-0.01238426216877997,AUTO
01:08:40,178645.0,-35.363264799999996,149.16523410000002,10063.0,-15.0,8.0,-151.0,3.0,3.0,-999.0,5.0,-62.5,80.0,0.05843506194651127,-0.02955268556252122,-0.07424300909042358,0.004494350519962609,-0.0637432374060154,0.0806268472224474,AUTO
01:08:41,139271.0,-35.36326405,149.165236475,11597.0,39.75,32.5,-146.75,-2.0,-10.75,-1001.25,-92.25,83.75,-71.75,-0.0009594731964170933,-0.044217578368261456,-0.04625153820961714,-0.09332963079214096,0.08335641003213823,-0.07172760041430593,AUTO
01:08:42,139271.0,-35.3632602,149.1652378,13131.5,34.0,-5.5,-151.0,-7.5,-5.0,-1004.5,15.5,38.5,-79.5,-0.03413708787411451,0.023049117997288704,-0.14658132568001747,0.014733635354787111,0.03850195091217756,-0.07972181029617786,AUTO
01:08:44,130442.5,-35.36326005,149.165235,16257.0,-24.0,6.0,-151.0,3.5,2.5,-998.5,-15.0,-27.5,25.5,0.02378530241549015,0.011032771319150925,-0.17625588178634644,-0.015466687269508839,-0.028779414016753435,0.026498938910663128,AUTO
01:08:46,121614.0,-35.36326205,149.1652366,19363.0,-2.5,3.0,-152.0,0.5,0.0,-1000.0,7.0,6.0,-34.5,-0.005118470289744437,-0.0023158661933848634,-0.19549386948347092,0.007194988080300391,0.005994369043037295,-0.03449295833706856,AUTO
01:08:47,296228.0,-35.3632621,149.165236475,20925.25,-1.0,-0.75,-152.0,0.0,0.0,-1000.0,7.25,4.5,-25.75,0.0031085841765161604,0.0026969673635903746,-0.22727258130908012,0.006850139528978616,0.004152518464252353,-0.025988171342760324,AUTO
01:08:48,296228.0,-35.3632621,149.1652363,22483.5,-1.5,1.5,-152.0,0.0,0.0,-1000.0,1.5,2.0,-20.5,0.005669024307280779,0.003918975125998259,-0.24945418536663055,0.0009346333099529147,0.0016920171910896897,-0.020683936774730682,AUTO
01:08:50,297049.5,-35.36326215,149.16523645,25594.5,-3.0,1.5,-152.5,0.0,-1.0,-995.5,-11.5,0.0,-1.5,0.0016709333867765963,0.004018876352347434,-0.2805335968732834,-0.012320361100137234,-0.0004690053465310484,-0.0012859702110290527,AUTO
01:08:52,297871.0,-35.3632625,149.1652369,28702.5,-1.0,8.5,-152.0,0.5,-0.5,-999.5,-5.5,0.5,23.5,0.005871657864190638,0.0016156077035702765,-0.24257923662662506,-0.006739011267200112,-0.00015504169277846813,0.02392845693975687,AUTO
01:08:53,221091.0,-35.3632625,149.165237675,30256.25,0.0,7.25,-152.0,0.25,-0.75,-1000.25,-1.25,1.25,19.5,-0.0004690656060120091,0.0013180409732740372,-0.2215166725218296,-0.002259106549900025,0.0007751959201414138,0.020060591399669647,AUTO
01:08:54,221091.0,-35.36326245,149.16523805,31809.5,0.0,3.0,-152.0,0.0,0.0,-999.5,0.0,1.5,16.0,-0.0009099476010305807,0.0016477113240398467,-0.20382044464349747,-0.00041512626921758056,0.0010247679892927408,0.016526694409549236,AUTO
01:08:56,159754.0,-35.3632623,149.16523805,34917.0,0.0,0.0,-152.0,0.0,0.0,-1000.0,0.5,0.0,12.0,0.001348550315015018,0.0012365373549982905,-0.17542174458503723,-0.0005348301492631435,-0.00038472574669867754,0.012475335504859686,AUTO
01:08:58,98417.0,-35.3632622,149.1652377,38026.5,0.0,0.0,-152.0,0.0,0.0,-999.5,1.5,2.0,10.0,0.002418258343823254,0.0015163389616645873,-0.15408144891262054,0.00014015345368534327,0.0011256098514422774,0.010660970583558083,AUTO
01:08:59,1476.0,-35.3632621,149.16523755,39575.5,0.0,0.25,-152.0,0.0,0.0,-999.75,1.25,1.0,9.25,0.002446821192279458,0.0016607728321105242,-0.14537698775529861,0.0003484969784040004,0.0005733646539738402,0.009371470427140594,AUTO
01:09:00,1476.0,-35.36326245,149.165237,41066.0,-16.0,-15.0,-132.5,1.5,2.5,-954.0,8.5,-66.0,207.0,-0.02706283761654049,0.02682755538262427,0.024237029254436493,0.007229868322610855,-0.06693040207028389,0.20752249658107758,AUTO
01:09:02,98275.0,-35.3632646,149.16523295000002,42857.5,11.0,11.0,-49.5,-1.0,7.0,-972.5,226.0,33.5,-32.0,0.03933008573949337,-0.03435083106160164,0.2099929079413414,0.22540416941046715,0.03271903283894062,-0.03295923862606287,AUTO
01:09:04,195074.0,-35.36326135,149.1652378,43383.0,8.0,18.5,1.5,0.5,1.5,-967.0,47.0,-4.0,-29.0,-0.017535572638735175,0.030307739973068237,0.15681517124176025,0.0457727424800396,-0.0048576234839856625,-0.02968650497496128,AUTO
01:09:05,254551.0,-35.363261200000004,149.16523915,43279.75,-4.25,5.75,13.0,2.25,-4.0,-1007.75,232.25,-70.5,-7.5,0.01887502707540989,-0.005490213516168296,0.14041777327656746,0.23154759034514427,-0.07230537105351686,-0.008286998025141656,AUTO
01:09:06,254551.0,-35.36326085,149.1652423,43144.0,19.0,53.5,12.5,0.0,-13.5,-995.5,16.5,-16.0,420.0,0.07152554579079151,-0.05359658598899841,0.26549863815307617,0.015351533889770508,-0.017723393393680453,0.4195880424231291,AUTO
01:09:08,244131.5,-35.3632511,149.16527259999998,42575.5,96.5,244.5,45.0,-54.0,-21.0,-982.0,116.5,-28.5,212.5,0.004533241735771298,-0.19086524099111557,1.3852655291557312,0.11514735221862793,-0.02924762456677854,0.2119988426566124,AUTO
01:09:10,233712.0,-35.363227249999994,149.16535,41230.0,170.0,453.5,81.5,-99.5,-74.5,-979.0,-296.0,32.5,11.0,0.03974171355366707,-0.18858209997415543,1.3321895599365234,-0.29728997498750687,0.032120645977556705,0.010533111169934273,AUTO
01:09:11,65331.0,-35.363211625,149.165403225,40326.75,189.75,509.0,93.0,-119.0,-59.0,-987.0,75.0,15.25,-25.75,0.05125086382031441,-0.16156653314828873,1.3235357999801636,0.07358622550964355,0.014825013931840658,-0.02636663243174553,AUTO
01:09:12,65331.0,-35.36319475,149.1654618,39318.5,201.0,536.5,99.5,-124.5,-65.0,-982.0,64.0,42.5,-10.5,0.054909538477659225,-0.1366523802280426,1.314940333366394,0.06260465830564499,0.04205428622663021,-0.010979922488331795,AUTO
01:09:14,157864.0,-35.36316005,149.16558279999998,37243.0,206.0,535.0,99.5,-119.5,-66.0,-990.5,-59.5,-17.0,8.5,0.049717286601662636,-0.1162148155272007,1.3037983775138855,-0.06055089831352234,-0.017704257974401116,0.007789241150021553,AUTO
01:09:16,250397.0,-35.363124,149.16570375,35200.5,210.5,537.0,98.5,-129.5,-49.5,-995.0,201.5,71.0,-23.5,0.06461304426193237,-0.10990295186638832,1.290634572505951,0.20093916356563568,0.07014734856784344,-0.024885748978704214,AUTO
01:09:17,220981.0,-35.363105774999994,149.16576392500002,34207.5,198.25,515.0,93.25,-117.25,-83.5,-999.5,-771.25,51.0,16.0,0.056298376992344856,-0.06094208639115095,1.2888983488082886,-0.7725685611367226,0.05008413572795689,0.015268195886164904,AUTO
01:09:18,220981.0,-35.36308935,149.1658185,33286.0,170.0,455.0,86.0,-102.0,1.0,-983.5,744.5,41.0,-58.0,0.06596710905432701,-0.018691765377297997,1.2858752608299255,0.7429909706115723,0.0403817780315876,-0.059602513909339905,AUTO
01:09:20,168602.5,-35.3630652,149.1659013,31864.5,95.5,265.0,49.0,-55.0,-83.0,-1030.5,-717.0,34.0,25.0,0.03566812910139561,0.06548848375678062,1.2816777229309082,-0.717452272772789,0.03316565218847245,0.023913299664855003,AUTO
01:09:22,116224.0,-35.363055,149.16593835,31258.5,28.5,74.0,14.5,-18.0,-5.5,-1013.0,183.5,-23.0,2.0,0.009160605957731605,0.057548293843865395,1.2735482454299927,0.18350056931376457,-0.02545107901096344,0.00112318922765553,AUTO
01:09:23,157468.0,-35.36305312499999,149.1659442,31190.25,11.75,21.25,4.0,-6.75,-8.75,-1007.0,-87.75,-13.75,0.75,0.0005561508005484939,0.040685538202524185,1.2701897621154785,-0.08817370235919952,-0.01623041182756424,-0.000723140750778839,AUTO
01:09:24,157468.0,-35.36305215,149.16594525,31200.5,1.0,-4.0,-0.5,-2.0,10.5,-997.5,-17.0,-19.5,-2.5,-0.0010613561607897282,0.019701508339494467,1.2666190266609192,-0.01750558614730835,-0.02175376284867525,-0.0038565449649468064,AUTO
01:09:26,164389.5,-35.36305085,149.16594455,31307.5,-6.5,-3.5,-15.5,-0.5,-15.5,-1026.0,-299.0,6.0,0.5,0.005978981265798211,0.006582709727808833,1.2597261667251587,-0.30049132090061903,0.004836834967136383,-0.00028450600802898407,RTL
01:09:28,171311.0,-35.36305125,149.1659446,32553.5,-7.5,-3.5,-107.5,0.5,2.5,-1048.0,57.0,3.5,-0.5,-0.005559427198022604,0.007105572149157524,1.2545143961906433,0.05650900024920702,0.0018199830083176494,-0.0020775003940798342,RTL
01:09:29,179873.0,-35.3630516,149.165944625,33865.25,-8.25,-2.75,-143.75,0.25,-0.25,-1018.25,39.75,-6.0,-0.75,0.01140249753370881,0.0027776807837653905,1.2517841458320618,0.03933884343132377,-0.008707854547537863,-0.0021330531599232927,RTL
01:09:30,179873.0,-35.36305325,149.16594550000002,35386.5,-34.5,13.5,-146.5,1.5,-6.5,-996.5,-46.0,41.5,-50.5,0.03494367375969887,0.006488304119557142,1.2358286380767822,-0.04723398573696613,0.03966508898884058,-0.05220980156445876,RTL
01:09:32,137368.0,-35.36305595,149.16594665,38439.5,29.5,-16.0,-149.0,-1.5,7.5,-1001.5,54.0,1.0,-10.5,-0.056053053587675095,-0.0001902405929286033,1.164419174194336,0.053730905055999756,-0.0009225001558661461,-0.012532539665699005,RTL
01:09:34,94863.0,-35.3630493,149.16594179999998,41552.5,6.5,-9.0,-151.0,-1.0,4.5,-999.0,-5.5,7.0,7.5,0.038326782174408436,-0.008813888765871525,1.1768366694450378,-0.006748553365468979,0.004857296706177294,0.006592463701963425,RTL
01:09:35,211918.0,-35.36304935,149.1659415,43102.5,-9.5,13.75,-149.5,0.25,-2.25,-1001.0,-30.75,23.75,-31.5,-8.951907511800528e-05,-0.010474275797605515,1.1789859533309937,-0.03240666724741459,0.02217151364311576,-0.033557877875864506,RTL
01:09:36,211918.0,-35.3630495,149.16594265,44656.5,-1.0,12.5,-151.5,-1.0,-1.0,-1001.0,9.5,10.5,-30.5,-0.00746649457141757,0.0033238125761272386,1.1428461074829102,0.00933528644964099,0.00878006056882441,-0.03263733256608248,RTL
01:09:38,131096.0,-35.36304925,149.1659433,47784.5,-6.0,2.5,-152.0,0.5,0.0,-999.5,-1.5,0.0,-14.0,0.0038807012606412172,0.006246863631531596,1.1019574403762817,-0.0024575222050771117,-0.0024399670655839145,-0.015764662064611912,RTL
01:09:40,50274.0,-35.3630502,149.1659433,50904.5,-7.5,3.0,-152.0,1.0,0.0,-1000.0,0.0,1.0,-20.5,-0.0024160860339179635,0.002130000269971788,1.0651361346244812,-0.001616376277524978,-0.00046744319843128324,-0.022145533002912998,RTL
01:09:41,248893.0,-35.363050550000004,149.1659433,52468.75,-5.25,3.0,-153.0,0.25,0.0,-999.75,1.5,2.0,-22.75,-0.001755634817527607,0.002121147990692407,1.04194176197052,0.0002696783049032092,2.9024668037891388e-05,-0.02436650265008211,RTL
01:09:42,248893.0,-35.363050799999996,149.1659433,54028.5,-4.5,3.0,-153.0,0.0,0.0,-1000.0,2.0,2.0,-20.0,-0.001486024644691497,0.002607113216072321,1.0191084742546082,0.0009390454506501555,0.0008548272307962179,-0.021694183349609375,RTL
01:09:44,249197.5,-35.363051150000004,149.1659434,57150.5,-3.5,2.5,-153.0,0.0,0.0,-1000.0,2.0,1.5,-19.0,-0.001506033877376467,0.002735248184762895,0.977084755897522,0.0005846580024808645,0.0002523536095395684,-0.020660335198044777,RTL
01:09:46,249502.0,-35.36305155,149.1659435,60260.0,-5.5,1.5,-152.0,0.0,0.0,-1000.0,-0.5,1.5,26.0,-3.12095507979393e-05,0.005536380689591169,0.982720285654068,-0.002045360393822193,-0.0007902293000370264,0.025320356711745262,RTL
01:09:47,9245.0,-35.363051950000006,149.1659435,61811.75,-5.5,1.0,-152.0,0.0,0.0,-999.75,0.25,0.25,25.25,-0.0030939067364670336,0.003409318276681006,1.007998839020729,-0.0012023353774566203,-0.001511708163889125,0.02431328548118472,RTL
01:09:48,9245.0,-35.36305215,149.1659435,63439.5,-3.0,1.0,-152.0,0.0,0.0,-1000.5,4.5,1.0,21.0,-0.003620360163040459,0.002482078270986676,1.030278742313385,0.0031108178081922233,-0.00030092603992670774,0.020107649266719818,RTL
01:09:50,132082.5,-35.363052100000004,149.1659436,66625.5,0.0,1.0,-152.0,0.0,0.0,-1000.0,4.5,2.0,16.5,-0.0013369641092140228,0.0029922183603048325,1.0647461414337158,0.003443975409027189,0.00036568607902154326,0.015746580436825752,RTL
01:09:52,254920.0,-35.3630518,149.1659437,69734.5,-1.0,1.0,-152.0,0.0,0.0,-1000.5,3.5,2.5,10.5,-0.0010884723160415888,0.0038747816579416394,1.0900059938430786,0.0021693416056223214,0.0005482534761540592,0.009532319381833076,RTL
01:09:53,172002.0,-35.3630517,149.1659437,71289.0,-1.75,1.0,-152.0,0.0,0.0,-999.75,2.25,2.0,11.75,-0.0008283567003672943,0.003914607630576938,1.1003901660442352,0.0010990348237100989,0.0004402436316013336,0.01067793695256114,RTL
01:09:54,172002.0,-35.3630516,149.1659438,72841.5,-2.0,0.5,-152.0,0.0,0.0,-1000.0,0.0,1.5,9.5,-0.0011578009580262005,0.004540594760328531,1.1090196371078491,-0.0011455613421276212,-0.0006647958653047681,0.0086057772859931,RTL
01:09:56,91401.5,-35.3630516,149.1659439,75944.5,-2.0,0.0,-152.0,0.0,0.0,-999.0,0.0,2.5,9.0,-0.0018831471097655594,0.0041474150493741035,1.1240985989570618,-0.0016753593226894736,0.0008666743524372578,0.007724748691543937,RTL
01:09:58,10801.0,-35.3630516,149.1659439,79049.5,-2.0,0.0,-152.0,0.0,0.0,-1000.0,0.5,1.5,5.5,-0.0017737713642418385,0.0039551842492073774,1.1364431977272034,-0.0009037855197675526,-8.481316035613418e-05,0.004724112339317799,RTL
01:09:59,212828.0,-35.3630516,149.1659439,80606.0,-2.0,0.0,-152.0,0.0,0.0,-1000.25,2.0,1.25,7.25,-0.0019059083133470267,0.0038059966173022985,1.1418688595294952,0.0006225034594535828,-0.00021582687622867525,0.006164237973280251,RTL
01:10:00,212828.0,-35.3630516,149.1659439,82156.0,-2.0,0.0,-152.0,0.0,0.0,-1000.0,1.5,2.5,6.0,-0.002534706494770944,0.003642965806648135,1.1468330025672913,-0.0006458925781771541,0.000898730184417218,0.004534908104687929,RTL
01:10:02,138656.0,-35.3630516,149.1659439,85262.0,-1.0,0.0,-152.0,0.0,0.0,-1000.0,0.0,2.0,4.0,-0.0021715484326705337,0.003954319516196847,1.1562635898590088,-0.0009677180205471814,0.0005237804725766182,0.0028981612995266914,RTL
01:10:04,64484.0,-35.3630515,149.1659439,88367.0,-2.0,0.0,-152.0,0.0,0.0,-1001.0,4.0,1.5,4.5,-0.0014318308676593006,0.004215028136968613,1.1642512083053589,0.0026958207599818707,-9.90533153526485e-05,0.003076210618019104,RTL
01:10:05,88785.0,-35.3630515,149.1659439,89922.25,-2.0,0.0,-152.0,0.0,0.0,-1000.25,1.75,1.0,3.75,-0.001873850473202765,0.0039787659188732505,1.167781949043274,-5.4667587392032146e-05,-0.0003047918726224452,0.0029114317731000483,RTL
01:10:06,88785.0,-35.3630515,149.1659439,91477.5,-2.0,0.0,-152.0,0.0,0.0,-999.0,2.0,3.5,5.0,-0.0019718598341569304,0.004052748903632164,1.1711273789405823,0.00024496554397046566,0.0017514197388663888,0.0038566768635064363,RTL
01:10:08,65869.0,-35.3630515,149.1659439,94579.0,-2.0,0.0,-152.0,0.0,0.0,-999.5,1.0,2.0,5.5,-0.002472428313922137,0.003798741032369435,1.1775936484336853,-0.0006406481261365116,0.0005606977501884103,0.004400164587423205,RTL
01:10:10,42953.0,-35.363051549999994,149.1659439,97685.0,-1.0,0.0,-152.0,0.0,0.0,-1000.0,3.0,2.0,5.5,-0.0024154300335794687,0.003876609029248357,1.1826887130737305,0.00143248972017318,0.0003854729584418237,0.003980954643338919,RTL
01:10:11,290745.0,-35.3630515,149.165943925,99243.75,-1.0,0.0,-152.0,0.0,0.0,-1000.0,1.25,1.5,5.0,-0.002244631410576403,0.004067460889928043,1.185165137052536,-0.0004914360761176795,-0.00019996825722046196,0.003685490955831483,RTL
01:10:12,290745.0,-35.3630515,149.165944,100797.5,-1.0,0.0,-152.0,0.0,0.0,-1000.0,3.5,2.5,5.0,-0.002431794535368681,0.004290137905627489,1.187816560268402,0.0015943484613671899,0.0004757444839924574,0.003299504052847624,RTL
01:10:14,290150.5,-35.3630515,149.165944,103905.5,-2.0,0.0,-152.0,0.0,0.0,-999.5,2.0,3.0,4.5,-0.0017857916536740959,0.004257757682353258,1.1922507882118225,0.00048052286729216576,0.0007742330199107528,0.003212491748854518,RTL
01:10:16,289556.0,-35.3630515,149.165944,107010.5,-2.0,0.0,-152.0,0.0,0.0,-999.0,1.5,3.5,4.0,-0.002679393975995481,0.00404473883099854,1.1956183910369873,-0.0003441214794293046,0.0017731566913425922,0.002527603879570961,RTL
01:10:17,169709.0,-35.3630516,149.165944,108563.5,-1.25,0.0,-152.0,0.0,0.0,-1000.5,3.5,2.5,3.75,-0.002999861375428736,0.003951981372665614,1.1971786618232727,0.0018222428625449538,0.0005823837709613144,0.002585908805485815,RTL
01:10:18,169709.0,-35.3630516,149.165944,110116.0,-1.0,0.0,-152.0,0.0,0.0,-1000.0,2.5,3.0,1.5,-0.0024711890146136284,0.004081716760993004,1.198687732219696,0.0006082990439608693,0.0008165074978023767,-5.951657658442855e-05,RTL
01:10:20,147793.0,-35.3630516,149.165944,113225.0,-1.0,0.0,-152.0,0.0,0.0,-1000.0,2.0,2.5,2.5,-0.002455184468999505,0.004097387194633484,1.2012834548950195,-8.486828301101923e-05,0.0007858689641579986,0.0013760452275164425,RTL
01:10:22,125877.0,-35.3630516,149.165944,116332.5,-1.0,0.0,-152.0,0.0,0.0,-999.5,0.0,2.5,2.0,-0.0023330883122980595,0.003997191553935409,1.2034223675727844,-0.001958581560757011,0.0006449538050219417,0.0011130475904792547,RTL
01:10:23,93548.0,-35.3630516,149.165944,117883.75,-1.0,0.0,-152.0,0.0,0.0,-1000.0,3.5,2.0,3.25,-0.002209623344242573,0.004087264707777649,1.2045855820178986,0.001530801469925791,0.0001536397321615368,0.001587098988238722,RTL
01:10:24,93548.0,-35.363051549999994,149.165944,119439.5,-1.5,0.0,-152.0,0.0,0.0,-1000.0,2.0,2.5,4.5,-0.001549037522636354,0.004456066992133856,1.2057589888572693,0.00039926019962877035,0.0005437623476609588,0.003220560261979699,RTL
01:10:26,145884.0,-35.3630515,149.165944,122551.5,-2.0,-0.5,-152.0,0.0,0.0,-999.5,1.5,0.0,5.0,-0.002699853735975921,0.004023137153126299,1.2073224186897278,-0.00018723617540672421,-0.0017788716359063983,0.003278337186202407,RTL
01:10:28,198220.0,-35.3630516,149.165944,125653.5,-1.0,-1.0,-152.0,0.0,0.0,-1000.5,5.0,2.5,4.0,-0.0025704383151605725,0.004175309557467699,1.2092097401618958,0.002847156720235944,0.0004504735115915537,0.002463665441609919,RTL
01:10:29,250978.0,-35.3630516,149.165944,127207.0,-1.0,-1.0,-152.0,0.0,0.0,-999.75,2.0,1.5,3.25,-0.002380900550633669,0.003938543610274792,1.2103078365325928,-0.00010701714199967682,-0.0002839833905454725,0.0013876652519684285,RTL
01:10:30,250978.0,-35.363051549999994,149.165944,128760.0,-1.0,0.0,-152.0,0.0,0.0,-1000.0,3.0,2.5,2.5,-0.002382916514761746,0.004026124952360988,1.2106797099113464,0.0012427064357325435,0.0005760507774539292,0.0013704800512641668,RTL
01:10:32,159194.5,-35.3630515,149.165944,131874.5,-1.0,0.0,-152.0,0.0,0.0,-1000.0,4.5,3.0,5.0,-0.0023030241718515754,0.004108059452846646,1.211912453174591,0.0024431529454886913,0.0010474803857505322,0.0033286642283201218,RTL
01:10:34,67411.0,-35.3630515,149.165944,134980.5,-1.0,-0.5,-152.0,0.0,0.0,-1000.0,0.5,2.5,4.0,-0.0024899403797462583,0.004534808220341802,1.2128896117210388,-0.0010429451940581203,2.0963780116289854e-05,0.0022575241746380925,RTL
01:10:35,170846.0,-35.3630515,149.16594405,136534.0,-1.25,-1.0,-152.0,0.0,0.0,-1000.0,3.0,2.25,2.0,-0.002131762041244656,0.0048744045197963715,1.213357836008072,0.0011169860372319818,0.00040624759276397526,0.0004390195244923234,RTL
01:10:36,170846.0,-35.3630515,149.1659441,138087.5,-2.0,-1.0,-152.0,0.0,0.0,-1000.0,1.5,2.5,1.5,-0.001927004661411047,0.0046798125840723515,1.2136381268501282,-0.0011201832676306367,0.0005298781907185912,-5.196966230869293e-05,RTL
01:10:38,140614.5,-35.3630515,149.1659441,140614.0,-2.0,-1.0,-152.0,0.0,0.0,-1000.0,1.0,2.0,3.0,-0.0028667303267866373,0.003558599855750799,1.2143863439559937,-0.0011200979351997375,-0.0005028177984058857,0.0010333484970033169,RTL
01:10:40,110383.0,-35.3630516,149.1659441,144301.0,-1.0,-0.5,-152.0,0.0,0.0,-999.5,2.5,3.0,3.5,-0.002774037653580308,0.003922519041225314,1.2149308919906616,0.00024280801881104708,0.0007931689033284783,0.00193599215708673,RTL
01:10:41,140781.0,-35.3630516,149.1659441,145852.75,-1.0,-0.25,-152.0,0.0,0.0,-1000.0,3.0,2.25,2.25,-0.002212664403486997,0.0039823680417612195,1.2153398394584656,0.00117040507029742,0.00013750532525591552,0.00033616353175602853,RTL
01:10:42,140781.0,-35.3630516,149.1659441,147406.5,-1.0,0.0,-152.0,0.0,0.0,-1000.0,2.5,2.5,4.0,-0.0021516855340451,0.004155983682721853,1.2155821323394775,-2.0331935957074165e-05,0.0005737114697694778,0.001958823180757463,RTL
01:10:44,128294.0,-35.3630516,149.1659441,149931.0,-2.0,-1.0,-152.0,0.0,0.0,-999.0,2.0,4.0,3.0,-0.0015141222393140197,0.00434114271774888,1.2161318063735962,-0.00012279395014047623,0.0021723981481045485,0.0009757054504007101,RTL
01:10:46,115807.0,-35.3630516,149.1659441,153622.5,-2.0,-1.0,-152.0,0.0,0.0,-999.5,1.5,4.0,3.5,-0.0030036800308153033,0.004626600770279765,1.2170581817626953,-0.0007325307815335691,0.0016269631450995803,0.001757512567564845,RTL
01:10:47,43787.0,-35.3630516,149.1659441,155176.0,-1.0,-1.0,-152.0,0.0,0.0,-999.5,3.75,2.5,2.75,-0.0031554370652884245,0.004335860721766949,1.2171149551868439,0.0013077752373646945,8.421513484790921e-05,0.0010008688550442457,RTL
01:10:48,43787.0,-35.3630516,149.1659441,156146.0,-1.0,-1.0,-152.0,0.0,0.0,-1000.0,3.0,3.0,4.0,-0.00303588411770761,0.004060253966599703,1.2174123525619507,0.0008916410151869059,0.0007325268816202879,0.0023072275798767805,RTL
01:10:50,107280.0,-35.3630516,149.1659441,159260.0,-1.0,0.0,-152.0,0.0,0.0,-999.0,2.0,3.0,2.0,-0.0023640189319849014,0.0037109064869582653,1.2177586555480957,0.00029944139532744884,0.0011214425321668386,-0.00014787516556680202,RTL
01:10:52,170773.0,-35.3630516,149.1659441,162367.0,-1.0,0.0,-152.0,0.0,0.0,-1001.0,4.0,3.0,2.0,-0.0023903953842818737,0.003877814393490553,1.217726469039917,0.0015739593654870987,0.00043321307748556137,-0.00039159716106951237,RTL
01:10:53,29031.0,-35.3630516,149.1659441,164308.0,-1.4,-0.6,-152.0,0.0,0.0,-1000.0,3.4,3.0,2.6,-0.0018342507304623724,0.004387187585234642,1.2178430080413818,0.0013892104849219321,0.0005050400272011757,0.0008423123741522432,RTL
01:10:54,29031.0,-35.3630516,149.1659441,165473.0,-2.0,-1.0,-152.0,0.0,0.0,-1000.0,3.0,2.0,2.0,-0.0013666822342202067,0.004350862465798855,1.2181541919708252,0.00045674946159124374,-0.00029586837626993656,-0.0002012194599956274,RTL
01:10:56,49575.5,-35.3630516,149.1659441,168579.0,-2.0,-1.0,-152.0,0.0,0.0,-1000.0,3.0,2.0,4.0,-0.003149916883558035,0.004033807665109634,1.218053936958313,0.00021674949675798416,-0.0006449997890740633,0.001439276384189725,RTL
01:10:58,70120.0,-35.3630516,149.1659441,171688.0,-1.0,-1.0,-152.0,0.0,0.0,-1000.0,3.0,2.0,4.0,-0.002841893583536148,0.004243372939527035,1.2183244228363037,0.0009066807106137276,-0.00019203778356313705,0.0017157369293272495,RTL
01:10:59,64593.0,-35.3630516,149.1659441,173627.4,-1.0,-1.0,-152.0,0.0,0.0,-999.8,2.2,2.0,2.0,-0.002480204589664936,0.0038196372799575327,1.218304419517517,9.760612156242132e-05,-0.0004024173831567168,0.00016143617685884237,RTL
01:11:00,64593.0,-35.3630516,149.1659441,174796.0,-1.0,-1.0,-152.0,0.0,0.0,-1000.0,5.0,3.0,2.0,-0.002075551077723503,0.0034490216057747602,1.2181625366210938,0.002272819634526968,-9.209709241986275e-05,0.0004616586957126856,RTL
01:11:02,72128.0,-35.3630516,149.165944,177899.0,-1.0,-1.0,-152.0,0.0,0.0,-1000.0,4.0,4.0,3.0,-0.0022469311952590942,0.0038409775588661432,1.2191861867904663,0.0015014377422630787,0.0009555714204907417,0.001140747917816043,RTL
01:11:04,79663.0,-35.3630516,149.1659441,181006.0,-2.0,-1.0,-152.0,0.0,0.0,-999.0,2.0,3.0,4.0,-0.0017464625416323543,0.004300928208976984,1.2190216779708862,-0.0005326720420271158,0.0005626985803246498,0.0017616914119571447,RTL
01:11:05,70929.0,-35.3630516,149.1659441,182949.4,-2.0,-0.6,-152.0,0.0,0.0,-999.8,1.4,2.6,2.6,-0.00268650334328413,0.00410811542533338,1.2193330764770507,-0.001081532984972,0.0004053066484630108,0.0005562056321650743,RTL
01:11:06,70929.0,-35.3630516,149.1659441,184116.0,-2.0,-1.0,-152.0,0.0,0.0,-1000.0,4.0,3.0,3.0,-0.0031118690967559814,0.004182169679552317,1.219395399093628,0.0016479049809277058,7.801549509167671e-05,0.0009437899570912123,RTL
01:11:08,114213.5,-35.3630516,149.1659441,187221.0,-1.0,-1.0,-152.0,0.0,0.0,-999.0,5.0,3.0,5.0,-0.002852554200217128,0.004491977859288454,1.219077467918396,0.002352959243580699,-5.6774821132421494e-05,0.0032114500645548105,RTL
01:11:10,157498.0,-35.3630516,149.1659441,190142.0,-1.0,-1.0,-152.0,0.0,0.0,-1000.0,4.0,2.0,2.0,-0.0024118167348206043,0.003501922474242747,1.2193949818611145,0.0019525432726368308,-0.0005319432239048183,-0.00013783946633338928,RTL
01:11:11,122983.0,-35.3630516,149.1659441,192270.8,-1.4,-0.8,-152.0,0.0,0.0,-999.8,2.4,2.6,2.6,-0.0020735202357172965,0.003938818303868175,1.219258427619934,-0.00013522643130272626,0.0001228010980412364,0.00044512040913105013,RTL
01:11:12,122983.0,-35.3630516,149.1659441,193436.0,-1.0,0.0,-152.0,0.0,0.0,-999.0,5.0,6.0,3.0,-0.0023487373255193233,0.004018467850983143,1.2192983627319336,0.0023972338531166315,0.0038778549060225487,0.0006392935756593943,RTL
01:11:14,124518.0,-35.3630516,149.1659441,196356.5,-1.0,-1.0,-152.0,0.0,0.0,-1000.0,2.0,3.0,2.0,-0.002423961297608912,0.004042415646836162,1.2192553877830505,-0.00044228683691471815,0.0003124041249975562,-0.000248853350058198,RTL
01:11:16,126053.0,-35.3630516,149.1659441,199466.0,-1.5,-1.0,-152.0,0.0,0.0,-998.5,1.5,20.0,1.0,-0.0025122739607468247,0.006195801077410579,1.2191895246505737,-0.001131836324930191,0.01739434991031885,-0.0009846586035564542,RTL
01:11:17,15674.0,-35.36305205,149.16594247499998,201386.0,-13.75,-33.25,-149.25,4.75,2.0,-998.0,-0.75,39.0,3.75,-0.004028907977044582,0.060271055437624454,1.2196591794490814,-0.0038823307841084898,0.03608249267563224,0.0014994387747719884,RTL
01:11:18,15674.0,-35.363053300000004,149.1659385,202522.0,-29.5,-72.5,-145.5,11.5,8.0,-995.5,-1.0,36.0,3.0,-0.007448762655258179,0.08486524596810341,1.2201220989227295,-0.004637406673282385,0.03280813526362181,0.0007201444823294878,RTL
01:11:20,27334.0,-35.363061650000006,149.16590365000002,204894.0,-59.0,-274.0,-59.5,57.0,14.0,-938.0,107.0,-120.0,228.5,0.03612698148936033,0.15033923834562302,1.6856305599212646,0.10410978272557259,-0.12424853071570396,0.22647865116596222,RTL
01:11:22,38994.0,-35.36308385,149.16583,205009.0,-191.5,-414.5,27.0,103.5,-10.0,-998.0,-11.5,64.5,-15.0,0.08844604343175888,0.20396188646554947,1.8271549940109253,-0.015230163931846619,0.06145949475467205,-0.01884782873094082,RTL
01:11:23,207643.0,-35.3631077,149.165763425,204747.75,-223.5,-542.5,5.75,132.25,-12.5,-1013.0,5.0,-14.5,-38.5,0.03503314405679703,0.2153964340686798,1.7795262336730957,0.0021329002920538187,-0.018348013516515493,-0.041847520507872105,RTL
01:11:24,207643.0,-35.36312305,149.16571675,204716.5,-226.5,-596.0,-3.0,139.0,-8.0,-999.0,-27.0,-6.5,-43.5,0.008668177528306842,0.2056739777326584,1.7455207109451294,-0.030089215375483036,-0.010734667768701911,-0.04695519618690014,RTL
01:11:26,215150.5,-35.36316415,149.16557790000002,204804.5,-222.5,-644.0,-8.5,159.5,9.0,-984.0,-28.0,-10.0,-35.0,-0.02430456131696701,0.15502947568893433,1.6672329306602478,-0.031979875639081,-0.013266289606690407,-0.03792883642017841,RTL
01:11:28,222658.0,-35.363203850000005,149.16543860000002,204859.0,-208.0,-596.0,-7.0,148.5,23.0,-988.5,-90.5,-36.0,-34.5,-0.05481819808483124,0.08959416672587395,1.6033812165260315,-0.09313778206706047,-0.04003811255097389,-0.03786453790962696,RTL
01:11:29,56008.0,-35.36322525,149.16536332500002,204854.5,-174.25,-498.0,-0.25,123.0,22.25,-992.0,-189.25,-42.25,-26.0,-0.06635137274861336,0.028940794058144093,1.5738197565078735,-0.19253972172737122,-0.04614264890551567,-0.029171878937631845,RTL
01:11:30,56008.0,-35.36323605,149.1653249,204827.5,-147.5,-420.5,0.0,101.5,52.0,-1017.5,664.0,-53.5,3.5,-0.059468528255820274,-0.00875792495207861,1.5602755546569824,0.6615732312202454,-0.05762386694550514,0.0007110666483640671,RTL
01:11:32,150368.0,-35.36325545,149.16525755,204769.5,-69.0,-204.5,-1.0,51.0,-20.5,-1001.5,-342.0,-31.5,-34.0,-0.05695153772830963,-0.050705092027783394,1.5259267687797546,-0.34528314974159,-0.03483700752258301,-0.03773096576333046,RTL
01:11:34,244728.0,-35.363262500000005,149.1652339,204761.0,-9.5,-44.0,-3.0,8.0,28.5,-1006.0,529.5,16.5,-5.5,-0.020144185051321983,-0.03368296101689339,1.501313328742981,0.5267812311649323,0.013627182692289352,-0.008876193081960082,RTL
01:11:35,84997.0,-35.363263275,149.16523225,204772.5,3.75,-5.0,-2.25,-0.5,1.25,-997.25,81.25,29.0,-6.0,-0.01020042534219101,-0.007923928555101156,1.4877852499485016,0.07870812900364399,0.0256847832351923,-0.009480067645199597,RTL
01:11:36,84997.0,-35.3632633,149.1652327,204779.5,4.0,-1.0,-2.0,0.0,8.0,-997.5,-61.0,21.0,-1.5,-0.006233007763512433,0.012652083300054073,1.481633484363556,-0.06491975486278534,0.017833625664934516,-0.004416623385623097,RTL
01:11:38,54361.5,-35.36326285,149.16523385,204798.5,2.5,2.5,-1.5,-3.0,-26.5,-992.5,-461.5,5.0,-1.5,-0.0030182201880961657,-3.3864635042846203e-06,1.4680672883987427,-0.464203417301178,0.0014813215238973498,-0.00537645211443305,RTL
01:11:40,23726.0,-35.3632619,149.16523605,204799.5,-3.0,1.5,-1.0,-1.5,19.0,-998.0,509.5,7.0,-2.0,0.010458058677613735,0.007661965908482671,1.456505298614502,0.5070651769638062,0.003187940688803792,-0.005285790888592601,RTL
01:11:42,44888.0,-35.363261249999994,149.16523715,204624.0,-8.5,-2.0,47.5,-0.5,-31.0,-946.5,-1010.5,3.5,-4.0,-0.009115693625062704,0.007644785335287452,1.44582200050354,-1.0141653418540955,0.00016537553165107965,-0.0074388692155480385,RTL
01:11:44,44888.0,-35.3632614,149.16523775000002,202668.5,-11.5,-3.0,107.0,0.5,18.5,-1024.0,-446.0,5.0,4.5,-0.01895594410598278,0.0074111775029450655,1.4365063309669495,-0.4517848938703537,0.0013016483280807734,0.002123009297065437,RTL
01:11:45,124770.0,-35.3632615,149.16523787499997,201346.5,-8.75,-4.0,99.25,-0.25,48.5,-995.75,164.25,6.0,5.0,-0.009777914034202695,0.007328422972932458,1.4310198426246643,0.15915260463953018,0.0022326017497107387,0.001946762204170227,RTL
01:11:46,124770.0,-35.363261550000004,149.16523795,200572.5,-8.5,-4.0,96.5,0.5,69.5,-995.5,1061.0,3.5,-1.0,0.0023400215432047844,0.0069810745771974325,1.4281079769134521,1.0560477077960968,-0.0009613193105906248,-0.004314119752962142,RTL
01:11:48,120718.0,-35.363262500000005,149.16523825000002,198527.0,-0.5,-5.5,99.0,0.5,-57.5,-981.5,-391.0,3.5,0.0,-0.005276389711070806,0.008553120773285627,1.4211044907569885,-0.3927997127175331,-0.000159944174811244,-0.0030294506577774882,RTL
01:11:50,120718.0,-35.363262649999996,149.1652382,196486.0,5.0,-7.0,97.0,0.0,-69.0,-1005.0,-1174.5,2.0,1.5,-0.010817992500960827,0.006269077071920037,1.415977120399475,-1.1769799888134003,-0.002053977339528501,-0.0016483314102515578,RTL
01:11:51,182489.0,-35.363262425,149.16523805,195218.0,3.0,-5.5,98.5,-0.5,-40.75,-1015.25,-1254.0,5.25,0.75,-0.022105706855654716,0.004415757255628705,1.4121135473251343,-1.2586080729961395,0.0011046816944144666,-0.002738390292506665,RTL
01:11:52,182489.0,-35.3632624,149.165238,194454.5,1.5,-5.0,100.0,0.0,-34.0,-977.5,-1253.5,1.0,1.0,-0.026598336175084114,0.004653335781767964,1.4102622270584106,-1.2580711841583252,-0.003081182250753045,-0.002554702339693904,RTL
01:11:54,263396.0,-35.363263200000006,149.16523825000002,192423.0,3.0,-4.0,98.5,1.5,64.0,-970.0,564.5,5.0,3.0,-0.026163028553128242,0.008342594373971224,1.4054408073425293,0.5599997043609619,0.0009020178113132715,7.64953438192606e-06,RTL
01:11:56,263396.0,-35.3632643,149.1652384,190374.5,18.5,-7.0,99.0,0.5,50.0,-1011.0,1350.0,0.5,1.5,-0.004248288227245212,0.00488571054302156,1.4015924334526062,1.347724974155426,-0.003603440709412098,-0.000743052689358592,RTL
01:11:57,289469.0,-35.363264025,149.165238225,189101.75,20.5,-7.0,98.75,-0.5,0.75,-1001.75,633.0,4.0,-1.25,0.0013645235376316123,0.0031223647529259324,1.399202585220337,0.6322188097983599,-3.0872062779963017e-05,-0.004960079852025956,RTL
01:11:58,289469.0,-35.3632639,149.16523815,188337.0,19.0,-6.0,100.0,0.0,-60.5,-978.5,-536.5,0.5,0.0,-0.008740712888538837,0.0031312203500419855,1.3980249166488647,-0.5377750396728516,-0.003617412061430514,-0.002987310755997896,RTL
01:12:00,124759.0,-35.36326405,149.16523815,186297.0,18.5,-5.0,98.0,0.5,-67.0,-989.5,-697.0,5.0,4.0,-0.017876972444355488,0.004113857168704271,1.3953810930252075,-0.6977227926254272,0.0006555111613124609,0.0011480767279863358,RTL
01:12:02,124759.0,-35.363264650000005,149.16523834999998,184261.0,25.0,-7.0,101.0,-0.5,-53.0,-1005.0,-1370.0,3.5,0.5,-0.04150202497839928,0.004612067248672247,1.3923760056495667,-1.3719856142997742,-0.001167474314570427,-0.002008529263548553,RTL
01:12:03,13086.0,-35.36326460000001,149.165238375,182982.5,25.0,-7.5,99.0,-0.75,17.0,-998.5,-485.25,3.25,5.5,-0.03697030292823911,0.0031402347958646715,1.3912863433361053,-0.4886674052104354,-0.001359597546979785,0.0025211391039192677,RTL
01:12:04,13086.0,-35.3632642,149.16523825000002,182218.5,22.5,-7.0,101.0,-1.5,58.5,-954.0,211.5,3.0,-1.0,-0.028213811106979847,0.0027103208703920245,1.3897830247879028,0.20866690948605537,-0.0011804767418652773,-0.004623947897925973,RTL
01:12:06,186515.0,-35.363262399999996,149.1652378,180175.0,9.0,-4.0,97.5,-2.0,75.5,-989.0,1356.5,8.0,6.5,0.013653877656906843,0.0013333354727365077,1.3878127336502075,1.3549238443374634,0.003591890214011073,0.00376940262503922,RTL
01:12:08,186515.0,-35.363260749999995,149.16523755,178138.5,-6.0,-1.5,101.5,-2.0,-2.0,-980.0,684.5,7.5,9.0,0.03221648372709751,0.0019024707144126296,1.3861021995544434,0.6847653090953827,0.0026621513534337282,0.005636468529701233,RTL
01:12:09,249166.0,-35.363259575,149.165237225,176859.75,-18.75,0.25,100.0,-0.5,-47.0,-979.5,-371.75,5.75,-0.75,0.027494770474731922,0.0028082813951186836,1.3851740062236786,-0.37137853540480137,0.0010818705195561051,-0.004414265742525458,RTL
01:12:10,249166.0,-35.3632593,149.1652372,176093.5,-23.5,1.5,99.5,0.5,-76.5,-984.5,-1291.0,9.0,0.0,0.01335355406627059,0.005243257852271199,1.3849645853042603,-1.2922366857528687,0.004571580560877919,-0.004222121788188815,RTL
01:12:12,215012.0,-35.363260999999994,149.16523775000002,174052.5,-19.0,0.5,100.5,3.0,-43.5,-1005.5,-1229.5,2.5,2.0,-0.02703674789518118,0.009091291576623917,1.3836316466331482,-1.2326369285583496,-0.0018665590323507786,-0.0010201938566751778,RTL
01:12:14,215012.0,-35.36326495,149.1652386,172010.5,10.5,-4.5,99.0,5.0,26.5,-995.5,-46.0,5.5,7.0,-0.05528378672897816,0.010459557175636292,1.383311927318573,-0.04928550869226456,0.0009322590194642544,0.004193015745840967,RTL
01:12:15,80053.0,-35.363267074999996,149.16523897500002,170746.0,36.75,-11.0,100.5,1.5,67.75,-1009.25,1311.5,-0.25,1.75,-0.04267451260238886,0.00571410107659176,1.381954163312912,1.309878557920456,-0.005309832864440978,-0.0014885887503623962,RTL
01:12:16,80053.0,-35.3632671,149.16523884999998,169981.5,45.5,-13.0,99.0,-0.5,66.5,-1018.0,1381.0,2.0,4.5,-0.025049226358532906,0.0021246810792945325,1.3811370730400085,1.3799124956130981,-0.0030268982518464327,0.0013755294494330883,RTL
01:12:18,132080.0,-35.363263950000004,149.1652378,167929.0,33.0,-8.5,102.0,-5.0,-42.0,-978.0,-95.5,8.5,6.5,0.013618581928312778,-0.004058344755321741,1.3804758787155151,-0.09383258130401373,0.0037450555246323347,0.0030305003747344017,RTL
01:12:20,132080.0,-35.3632603,149.1652371,165889.0,-5.0,0.0,100.0,-4.0,-62.5,-989.0,-815.5,3.0,7.0,0.02426869049668312,-0.00026703612093115225,1.3801915049552917,-0.8144261240959167,-0.0016614834312349558,0.003439885564148426,RTL
01:12:21,165689.0,-35.3632588,149.16523684999999,164620.5,-23.25,3.5,99.75,-0.5,-69.25,-1009.0,-1263.25,5.75,4.75,0.019791530910879374,0.001980365748750046,1.380197286605835,-1.263404905796051,0.0007812831318005919,0.0017848584684543312,RTL
01:12:22,165689.0,-35.3632584,149.1652368,163868.5,-31.5,5.0,101.0,-1.0,-55.5,-989.0,-1326.0,6.0,1.0,0.013158353511244059,0.00321593857370317,1.3797500133514404,-1.327549159526825,0.000964760547503829,-0.0028203297406435013,RTL
01:12:24,15143.0,-35.36325975,149.16523725000002,161833.0,-33.0,4.5,103.5,0.5,27.0,-968.5,-204.5,6.0,-3.5,-0.00983236264437437,0.007009041728451848,1.3796135187149048,-0.2084527425467968,0.0011084224097430706,-0.008014247985556722,RTL
01:12:26,15143.0,-35.3632608,149.1652373,159775.0,-19.5,1.5,99.0,0.0,72.0,-987.0,978.5,12.0,11.0,0.004646111046895385,0.0038314465200528502,1.3790460228919983,0.975078821182251,0.007142740301787853,0.007888161577284336,RTL
01:12:27,246160.0,-35.363261675,149.1652376,158502.5,-11.5,0.5,100.0,1.25,58.25,-1022.0,1398.0,6.75,8.25,0.009186318959109485,0.005824391497299075,1.3785534799098969,1.3963515758514404,0.0020674426341429353,0.004757573653478175,RTL
01:12:28,246160.0,-35.36326205,149.1652377,157733.0,-6.5,-0.5,100.0,0.5,53.0,-1024.5,1365.5,2.5,-1.5,0.011412402149289846,0.0046269940212368965,1.3785840272903442,1.3644333481788635,-0.0028141054790467024,-0.005761199863627553,RTL
01:12:30,134518.0,-35.3632619,149.1652376,155679.0,-2.5,-0.5,99.0,2.5,-14.5,-1005.0,544.5,8.0,-4.5,0.017457393929362297,0.0034604305401444435,1.378162682056427,0.544601559638977,0.0032925421837717295,-0.008432072587311268,RTL
01:12:32,134518.0,-35.3632625,149.1652377,153641.5,2.0,-2.0,99.5,0.0,-69.0,-1012.5,-962.0,5.5,-7.0,-0.010087845381349325,0.0031888821395114064,1.378150224685669,-0.9631071388721466,0.00048221321776509285,-0.011615910101681948,RTL
01:12:33,30125.0,-35.363262425,149.1652377,152366.0,2.5,-1.25,97.75,2.0,-74.5,-975.0,-1085.25,6.75,0.5,-0.0074093135772272944,0.0038854136946611106,1.377077043056488,-1.0863423943519592,0.001736152684316039,-0.003212618874385953,RTL
01:12:34,30125.0,-35.3632627,149.16523775000002,151608.0,2.5,-1.0,99.0,1.0,-76.5,-987.5,-1354.0,4.5,-1.5,-0.022561256773769855,0.0047368621453642845,1.3776386976242065,-1.3552507758140564,-0.0006422579754143953,-0.00563366839196533,RTL
01:12:36,61794.0,-35.363263849999996,149.1652379,149557.5,13.5,-3.0,100.0,0.5,-18.0,-985.0,-1035.0,4.0,4.0,-0.0351621825248003,0.0032533033518120646,1.3767186403274536,-1.0380170941352844,-0.0010829698294401169,0.0006007412448525429,RTL
01:12:38,61794.0,-35.3632633,149.16523784999998,147516.0,14.0,-4.0,98.5,-2.0,43.0,-990.5,37.0,5.5,5.5,-0.015189292607828975,-0.00016042549214034807,1.3762723803520203,0.033276528120040894,0.00027742690872401,0.002065956359729171,RTL
01:12:39,80815.0,-35.3632622,149.16523755,146244.0,3.25,-1.0,99.25,-1.0,74.75,-1001.75,1193.0,8.0,3.75,0.00977368257008493,0.00115453582839109,1.3765724301338196,1.1904249787330627,0.002930273418314755,0.0005214977427385747,RTL
01:12:40,80815.0,-35.3632619,149.1652375,145473.5,0.0,0.0,99.0,-0.5,72.5,-1014.5,1365.0,7.0,2.0,0.01292671775445342,0.0018057463457807899,1.376528561115265,1.3631831407546997,0.0018056915141642094,-0.0020691952668130398,RTL
01:12:42,17441.0,-35.3632616,149.1652375,143425.5,-3.5,0.0,98.5,-0.5,-12.5,-1001.5,526.0,7.0,8.5,0.014074282720685005,0.0019551217555999756,1.3760861158370972,0.5264243185520172,0.001640242524445057,0.005024573765695095,RTL
01:12:44,17441.0,-35.36326095,149.1652371,141364.5,-8.5,1.5,96.0,-1.5,-72.0,-989.0,-1280.0,6.0,4.0,0.0006320670217974111,0.0005855448835063726,1.3761675357818604,-1.2811518907546997,0.0010704086162149906,0.00023307674564421177,RTL
01:12:45,276557.0,-35.3632605,149.16523705,140092.5,-15.0,3.0,96.5,-0.75,-32.5,-1002.0,-1249.75,1.0,4.75,-0.008775533293373883,0.001989112060982734,1.3769014179706573,-1.2528405785560608,-0.004743740311823785,0.0013356496929191053,RTL
01:12:46,276557.0,-35.3632605,149.165237,139324.0,-17.0,3.0,95.0,0.0,3.0,-1018.0,-644.5,3.0,6.5,-0.0092254220508039,0.0020647767814807594,1.3769169449806213,-0.6488451957702637,-0.0027227108366787434,0.002684285631403327,RTL
01:12:48,25351.0,-35.3632604,149.165237,137294.0,-20.0,4.0,96.0,-0.5,70.0,-994.0,926.5,4.0,5.5,0.011061903089284897,0.0014684440102428198,1.3759518265724182,0.9226921796798706,-0.0012535122223198414,0.0018033988308161497,RTL
01:12:50,25351.0,-35.3632605,149.165237,135166.0,-17.0,4.0,98.5,0.5,-41.0,-999.5,52.5,7.0,4.0,0.021018010564148426,0.002174731343984604,1.3758487701416016,0.05130841210484505,0.001869468716904521,0.0006101324688643217,RTL
01:12:51,212078.0,-35.3632607,149.1652371,133899.25,-15.25,3.25,99.0,0.75,-73.0,-992.25,-1181.25,5.5,1.0,-0.001697001644060947,0.003602102107834071,1.3762008845806122,-1.1835606396198273,0.00027954723918810487,-0.0033961159642785788,RTL
01:12:52,212078.0,-35.36326115,149.16523725000002,133133.5,-12.5,3.0,98.0,1.0,-64.0,-1016.5,-1344.0,3.5,0.0,-0.014707803726196289,0.004522521048784256,1.3765300512313843,-1.3468148708343506,-0.0014820789219811559,-0.004122721962630749,RTL
01:12:54,288629.0,-35.36326295,149.1652377,131201.0,0.0,0.0,101.5,2.0,-41.5,-998.5,-1270.5,-1.5,5.0,-0.037687331438064575,0.00495698512531817,1.3759114742279053,-1.274819254875183,-0.0073989389929920435,0.0018231184221804142,RTL
01:12:56,288629.0,-35.3632643,149.1652379,129160.5,15.5,-2.0,101.0,1.5,69.0,-1017.0,1373.0,5.5,7.0,-0.004805863136425614,0.0018441552529111505,1.375438153743744,1.370120882987976,0.0004084596876055002,0.00308628985658288,RTL
01:12:57,74646.0,-35.363264550000004,149.1652379,127777.75,21.5,-3.0,99.25,0.0,21.5,-1013.0,1091.5,7.25,6.5,-0.0016271196363959461,0.0017312656564172357,1.3759865462779999,1.0905388593673706,0.0020854765898548067,0.0027458095573820174,RTL
01:12:58,74646.0,-35.3632647,149.1652379,127020.0,23.5,-3.0,99.5,0.0,-24.0,-1002.5,356.5,4.0,3.0,-0.008490635314956307,0.0012842843716498464,1.3761178851127625,0.3568807393312454,-0.0016955714672803879,-0.000637144548818469,RTL
01:13:00,171234.0,-35.3632642,149.16523775000002,124983.0,24.5,-4.0,100.0,-3.5,-58.0,-979.0,-689.0,-2.0,0.5,-0.011030944995582104,-0.0022373245446942747,1.375656247138977,-0.6892630606889725,-0.007457896834239364,-0.0028812934178858995,RTL
01:13:02,171234.0,-35.36326105,149.1652369,122953.0,1.0,1.5,105.0,-2.5,-51.5,-985.0,-1405.5,10.5,1.0,0.0021182080963626504,-0.0020730053074657917,1.3765015006065369,-1.4079359769821167,0.005640842253342271,-0.0032685098703950644,RTL
01:13:03,165532.0,-35.36326095,149.16523705,121679.5,-12.0,5.25,101.25,0.75,7.25,-996.25,-573.75,7.0,4.5,-0.016416154336184263,0.003848134947475046,1.3766086399555206,-0.5776709318161011,0.0021925022592768073,0.00023209309438243508,RTL
01:13:04,165532.0,-35.3632616,149.16523734999998,120912.5,-10.0,3.5,103.0,0.5,51.0,-976.0,239.0,1.0,10.5,-0.020188935101032257,0.0041743244510143995,1.3765092492103577,0.23534676432609558,-0.00403922179248184,0.006752422545105219,RTL
01:13:06,190430.0,-35.363261949999995,149.16523734999998,118864.0,-2.0,0.0,101.0,0.0,55.5,-1008.5,1386.0,4.5,0.5,0.016511314548552036,-0.0005903614801354706,1.375020146369934,1.384138584136963,-0.0002980530261993408,-0.003574207774363458,RTL
01:13:08,190430.0,-35.36325985,149.1652366,116826.5,-17.0,4.5,102.0,-1.0,52.0,-1044.0,1299.5,5.0,2.5,0.04392251744866371,-0.003357868641614914,1.3758655190467834,1.2975507378578186,8.904328569769859e-05,-0.0015652975998818874,RTL
01:13:09,119198.0,-35.363258450000004,149.1652363,115553.25,-29.75,8.0,102.75,-0.75,-4.25,-1008.75,679.25,7.75,1.25,0.05155711621046066,-0.0007617965602548793,1.3761048913002014,0.6782749965786934,0.0032060154480859637,-0.00251379213295877,RTL
01:13:10,119198.0,-35.36325815,149.1652363,114782.0,-36.5,10.0,99.5,2.0,-19.0,-1000.0,525.0,4.0,-2.5,0.048962755128741264,0.0010484548984095454,1.3759887218475342,0.5236858427524567,-0.0007483083754777908,-0.00675516773480922,RTL
01:13:12,160952.0,-35.3632599,149.1652369,112736.5,-28.0,7.5,101.5,1.5,-77.0,-994.0,-1403.0,0.0,-1.5,-0.005816431948915124,0.0046547462698072195,1.3767655491828918,-1.4061457514762878,-0.005821254337206483,-0.005342596909031272,RTL
01:13:14,160952.0,-35.3632626,149.16523755,110699.5,-6.0,2.0,100.0,3.0,-83.0,-971.0,-1270.0,6.0,-3.0,-0.029750237241387367,0.006283298134803772,1.3763684630393982,-1.2725746035575867,0.0012206337414681911,-0.006913019577041268,RTL
01:13:15,234824.0,-35.36326475,149.1652381,109432.75,12.0,-1.5,101.75,3.25,-30.5,-995.5,-1089.75,-0.5,6.0,-0.05583139881491661,0.005820440477691591,1.376694768667221,-1.094256415963173,-0.005293988564517349,0.002376322343479842,RTL
01:13:16,234824.0,-35.36326575,149.1652383,108669.5,23.5,-4.5,103.0,1.5,14.0,-981.0,-467.5,-1.5,5.0,-0.057233838364481926,0.0034816379193216562,1.3770704865455627,-0.4730232357978821,-0.007233147509396076,0.0017337379977107048,RTL
01:13:18,252745.0,-35.36326535,149.16523795,106622.0,34.5,-6.0,102.0,-2.0,72.0,-1033.5,1155.5,0.5,2.0,-0.011349668027833104,-0.0017481782706454396,1.3764703273773193,1.1516017019748688,-0.004832009319216013,-0.0014750800328329206,RTL
01:13:20,252745.0,-35.36326295,149.1652374,104582.5,17.5,-1.5,100.5,-2.5,4.5,-1004.0,871.0,6.0,7.5,0.02117634192109108,-0.0022405649069696665,1.3758715987205505,0.8698447346687317,0.0015205382369458675,0.004118951968848705,RTL
01:13:21,295100.0,-35.3632617,149.16523717500002,103302.5,3.75,1.25,102.0,-0.25,-34.5,-975.5,94.25,8.25,4.25,0.020273869391530752,4.733995228889398e-05,1.3763885796070099,0.09340385999530554,0.003968898905441165,0.0007513899472542107,RTL
01:13:22,295100.0,-35.363261550000004,149.16523715,102538.0,-0.5,2.5,100.5,1.0,-65.0,-990.0,-761.5,5.0,2.0,0.0018811970949172974,0.0021519222646020353,1.3768612742424011,-0.7627719342708588,0.0006459406577050686,-0.001752997748553753,RTL
01:13:24,281621.0,-35.3632638,149.16523784999998,100494.0,9.5,0.0,101.5,3.0,-46.5,-991.5,-1296.5,1.5,4.0,-0.047835636883974075,0.0050884762313216925,1.3771079182624817,-1.299459993839264,-0.003879060735926032,0.000582801760174334,RTL
01:13:26,281621.0,-35.3632656,149.1652382,98468.5,28.5,-5.0,101.5,-1.5,69.0,-993.5,886.0,6.0,2.5,-0.035985274240374565,0.001297823793720454,1.3762047290802002,0.8830153942108154,0.0015481146983802319,-0.0012931091478094459,RTL
01:13:27,80565.0,-35.3632651,149.165238025,97180.25,31.5,-4.75,100.25,-1.0,68.5,-1028.25,1309.25,6.0,0.5,-0.007996603555511683,-0.0003603162258514203,1.376750886440277,1.3078444004058838,0.001368045574054122,-0.0034447170910425484,RTL
01:13:28,80565.0,-35.36326475,149.1652379,96413.5,28.5,-4.0,99.5,-1.0,41.5,-1020.0,1250.0,6.0,-0.5,-0.000316896999720484,9.316467367170844e-05,1.3760812878608704,1.2498759627342224,0.0015542570035904646,-0.004825046053156257,RTL
01:13:30,71731.0,-35.36326365,149.1652378,94365.5,20.0,-3.0,98.5,-2.0,14.5,-1023.0,952.5,7.0,5.5,0.009112318977713585,0.0001041409486788325,1.3757010102272034,0.9533001780509949,0.002555354731157422,0.0017784808296710253,RTL
01:13:32,71731.0,-35.3632627,149.1652376,92322.0,9.5,0.0,100.0,0.0,-70.0,-999.5,-1106.5,7.5,6.0,-0.008863015100359917,0.00160700996639207,1.376417636871338,-1.1062966287136078,0.0025643114931881428,0.0021258313208818436,RTL
01:13:33,137657.0,-35.363262325,149.1652374,91053.5,5.75,0.0,99.75,-1.5,-45.0,-1003.25,-1296.75,-0.5,3.75,-0.017716618021950126,-0.0010667722672224045,1.3766515254974365,-1.2981841564178467,-0.005559555953368545,1.4800229109823704e-05,RTL
01:13:34,137657.0,-35.363261550000004,149.16523715,90291.5,0.0,0.5,100.5,-4.0,3.0,-994.5,-723.0,3.0,-4.5,-0.006323184119537473,-0.0029225476318970323,1.3766915798187256,-0.7255623638629913,-0.001917306799441576,-0.00844018254429102,RTL
01:13:36,150798.0,-35.36325965,149.1652366,88260.5,-21.0,6.0,101.0,-1.5,74.5,-1001.5,1010.0,2.5,6.0,0.020877860486507416,-4.2923231376335025e-05,1.377160906791687,1.0073303878307343,-0.0019395118579268456,0.002080937847495079,RTL
01:13:38,150798.0,-35.3632593,149.1652366,86228.5,-28.0,7.0,104.0,0.0,23.0,-972.0,1087.0,5.0,3.5,0.037498839199543,0.0008796148176770657,1.377073585987091,1.086696833372116,0.000735762994736433,0.0005817300407215953,RTL
01:13:39,289501.0,-35.363258849999994,149.165236575,84959.0,-30.75,7.0,103.0,0.0,-15.75,-1001.25,440.0,6.25,1.25,0.039205930195748806,0.000141034873308854,1.3770218193531036,0.4399291955633089,0.0016119148349389434,-0.0024655248853378,RTL
01:13:40,289501.0,-35.3632586,149.1652365,84195.5,-33.0,8.0,103.5,1.0,-55.5,-986.5,-332.0,4.5,2.0,0.035597698763012886,0.0011124057054985315,1.3771175146102905,-0.3326442874968052,9.48155065998435e-05,-0.0017518476815894246,RTL
01:13:42,65953.0,-35.363260249999996,149.1652369,82143.0,-26.5,7.0,100.5,3.0,-70.5,-990.5,-1420.0,3.5,-5.5,-0.014327140524983406,0.004022959270514548,1.3777281045913696,-1.4226504564285278,-0.0017424551770091057,-0.00964745762757957,RTL
01:13:44,65953.0,-35.363262250000005,149.1652373,80076.0,-8.0,2.5,99.5,0.0,53.5,-1003.0,464.0,2.5,6.5,-0.015392209868878126,0.002409844135399908,1.3771030902862549,0.45987534523010254,-0.0018162241904065013,0.0028137643821537495,RTL
01:13:45,127860.0,-35.36326285,149.1652373,78796.25,0.5,2.0,98.25,0.25,65.0,-1016.75,1008.0,5.0,8.0,-0.007489232288207859,0.0005610498155874666,1.3772894144058228,1.0039435774087906,0.00046351575292646885,0.004698046832345426,RTL
01:13:46,127860.0,-35.363263149999995,149.1652373,78032.5,3.0,2.0,99.0,0.0,61.0,-1009.5,1421.0,6.0,2.5,0.0019818803411908448,0.0013540940126404166,1.3769502639770508,1.4185329675674438,0.0011216327548027039,-0.0010157127398997545,RTL
01:13:48,179029.0,-35.36326255,149.1652373,75985.0,5.5,1.0,99.5,-1.5,22.0,-994.5,1119.5,4.5,1.0,0.019117887131869793,-0.0004912400472676381,1.3774385452270508,1.1182767748832703,0.0003033315297216177,-0.002160223142709583,RTL
01:13:50,179029.0,-35.3632612,149.165237,73944.0,-4.0,2.5,98.5,-2.0,-60.0,-993.5,-647.0,4.0,11.0,0.012119634076952934,0.0001710391261440236,1.3768985271453857,-0.648377537727356,-0.00028279051184654236,0.0070980386808514595,RTL
01:13:51,299768.0,-35.363260624999995,149.1652369,72656.25,-11.25,3.75,97.0,-1.25,-61.5,-988.5,-1413.5,6.0,1.25,-0.004108155728317797,0.0011340850469423458,1.3772094547748566,-1.4165794253349304,0.0016346198972314596,-0.0025123037630692124,RTL
01:13:52,299768.0,-35.3632606,149.165237,71893.0,-15.0,4.5,97.5,0.5,-32.5,-1033.0,-1259.5,1.0,5.0,-0.012337236665189266,0.0017018418875522912,1.377545177936554,-1.263376772403717,-0.0032728759106248617,0.0010859784670174122,RTL
01:13:54,294342.0,-35.363261699999995,149.1652373,69844.0,-10.5,3.5,97.5,1.5,58.0,-973.5,584.5,7.0,1.5,-0.012668984942138195,0.004086698638275266,1.3773115873336792,0.5797474980354309,0.0025420766323804855,-0.0018882282311096787,RTL
01:13:56,294342.0,-35.3632635,149.1652376,67810.0,7.0,0.0,97.5,-0.5,45.5,-1001.0,1393.5,0.0,2.5,0.0011890383902937174,7.620133692398667e-05,1.376537799835205,1.3909810185432434,-0.004524671472609043,-0.0007888296386227012,RTL
01:13:57,65707.0,-35.363262975,149.1652374,66527.5,9.25,0.0,97.25,-0.25,-32.5,-971.0,167.5,4.0,3.0,0.008736859716009349,-0.00047442843424505554,1.3766833245754242,0.16611184366047382,-2.5662011466920376e-06,-0.00057927833404392,RTL
01:13:58,65707.0,-35.363262750000004,149.16523734999998,65758.0,8.0,0.0,97.5,0.0,-62.5,-974.0,-473.5,6.0,3.5,-0.0006916003185324371,-1.5403145880554803e-05,1.3766477704048157,-0.4754583388566971,0.001816473202779889,0.0006273795152083039,RTL
01:14:00,60080.0,-35.3632631,149.16523755,63737.0,6.5,1.0,99.0,2.5,-57.5,-1006.5,-1420.0,4.0,-3.0,-0.032303876243531704,0.0036004839930683374,1.377439022064209,-1.4235104322433472,-3.5765115171670914e-05,-0.007522511761635542,RTL
01:14:02,60080.0,-35.363265049999995,149.1652381,61700.5,22.5,-3.0,97.0,-0.5,12.5,-1012.0,-538.0,-4.0,9.5,-0.04441077262163162,0.0022956939646974206,1.3775172233581543,-0.5422952324151993,-0.009118975140154362,0.006453450303524733,RTL
01:14:03,149356.0,-35.363264525,149.16523785,60429.5,24.5,-3.75,99.25,-1.5,69.0,-1009.25,1346.5,-0.25,1.25,-0.002628190486575477,-0.0018355142674408853,1.3766140639781952,1.3440645337104797,-0.0050044923555105925,-0.0023448929423466325,RTL
01:14:04,149356.0,-35.363263599999996,149.1652375,59665.5,21.0,-2.5,98.5,-3.0,31.5,-998.5,1188.0,4.0,9.5,0.01756464596837759,-0.00327980809379369,1.376887857913971,1.187734603881836,1.7289072275161743e-05,0.006488712155260146,RTL
01:14:06,73827.0,-35.3632618,149.16523705,57621.5,1.5,3.0,101.5,1.0,-65.0,-988.5,-729.0,8.5,2.0,0.0015541351749561727,0.0012350398756098002,1.3780688643455505,-0.7295568287372589,0.004940213169902563,-0.0015162564814090729,RTL
01:14:08,73827.0,-35.3632629,149.1652374,55596.0,3.0,2.0,102.0,1.0,-15.0,-959.0,-992.0,1.0,2.5,-0.037289826199412346,0.002467435784637928,1.3777445554733276,-0.9960910379886627,-0.0035483920946717262,-3.1800009310245514e-05,RTL
01:14:09,200110.0,-35.363263625,149.1652375,54324.25,10.0,0.25,100.75,0.0,35.5,-999.75,-111.5,1.25,1.75,-0.03099960135295987,0.001057796587701887,1.3775451183319092,-0.11539607867598534,-0.0028270429465919733,-0.0013512441946659237,RTL
01:14:10,200110.0,-35.36326375,149.1652375,53562.0,12.5,0.0,101.0,-1.0,58.5,-999.5,564.5,3.0,0.5,-0.018926588352769613,-0.00021375419601099566,1.3771997094154358,0.5613056272268295,-0.0006737419171258807,-0.003051627893000841,RTL
01:14:12,157440.0,-35.363262500000005,149.1652373,51519.5,7.0,0.0,102.5,-2.5,54.5,-1001.0,1575.0,4.5,-0.5,0.015596038196235895,-0.001599474751856178,1.377539873123169,1.573550045490265,0.00038701831363141537,-0.004394472343847156,RTL
01:14:14,157440.0,-35.363261449999996,149.1652371,49470.0,-4.0,3.0,100.0,0.0,-48.0,-963.0,-218.5,4.5,5.0,0.007981292670592666,0.002109854365698993,1.3777178525924683,-0.21843264997005463,0.0007860225159674883,0.0021889882627874613,RTL
01:14:15,198383.0,-35.363261775,149.16523725000002,48198.75,-3.25,2.0,99.75,0.0,-67.5,-1003.75,-1249.25,0.0,1.5,-0.012769265449605882,0.0022056848974898458,1.3771788477897644,-1.2502077966928482,-0.004248043871484697,-0.0020487020374275744,RTL
01:14:16,198383.0,-35.363261949999995,149.16523734999998,47428.5,-2.0,1.0,102.0,0.0,-57.5,-981.5,-1420.5,6.5,0.5,-0.02593950554728508,0.002316181256901473,1.3780184984207153,-1.4231164455413818,0.0026110848411917686,-0.002759555820375681,RTL
01:14:18,93363.0,-35.3632624,149.1652376,45379.0,0.0,0.0,98.5,0.0,6.0,-1010.5,-650.0,-0.5,2.0,-0.027007417753338814,0.0034853448159992695,1.3778244853019714,-0.6539364457130432,-0.005078759742900729,-0.001586070517078042,RTL
01:14:20,93363.0,-35.363261949999995,149.16523745,43337.0,-1.5,0.0,98.0,-0.5,71.0,-1011.5,1328.0,2.5,2.5,0.014485382940620184,-0.00010401002145954408,1.3773261904716492,1.3258164525032043,-0.000893358257599175,-0.0003409002674743533,RTL
01:14:21,146880.0,-35.36326095,149.165237025,42067.25,-8.0,1.75,99.75,-1.5,47.25,-1014.75,1258.0,3.5,2.5,0.02902233088389039,-0.001878439768915996,1.377212017774582,1.2564890533685684,-0.00023845105897635221,-0.000800540205091238,RTL
01:14:22,146880.0,-35.36325995,149.16523660000001,41302.0,-13.0,3.0,101.0,-3.0,-10.5,-978.5,528.5,5.5,5.5,0.039423586800694466,-0.003981332760304213,1.3771607875823975,0.5284745991230011,0.0011803213274106383,0.002216796507127583,RTL
01:14:24,176931.0,-35.3632581,149.16523615,39261.0,-35.5,10.5,99.5,0.0,-62.0,-1013.5,-1430.0,6.5,0.5,0.015624180901795626,0.00038315750134643167,1.3778618574142456,-1.4331015348434448,0.002602566033601761,-0.00232961040455848,RTL
01:14:26,176931.0,-35.363260249999996,149.16523684999999,37222.0,-31.0,9.5,100.0,3.0,33.5,-1002.5,114.0,5.0,6.5,-0.011102075222879648,0.005212300922721624,1.3781054019927979,0.10884653031826019,0.000810186262242496,0.003868150059133768,RTL
01:14:27,118123.0,-35.363262325,149.16523745,35936.75,-11.25,3.75,99.75,4.0,45.0,-992.0,292.0,0.0,5.75,-0.024126871023327112,0.005194258177652955,1.3778335750102997,0.28723451495170593,-0.004048240196425468,0.0025557169574312866,RTL
01:14:28,118123.0,-35.363263450000005,149.1652377,35183.5,-0.5,1.0,98.5,1.5,67.0,-986.0,898.5,3.5,11.0,-0.02256849966943264,0.0045838498044759035,1.3780482411384583,0.8939956426620483,-0.00013502780348062515,0.008393009193241596,RTL
01:14:30,113881.0,-35.3632655,149.16523815,33154.5,25.0,-3.0,101.0,4.5,14.5,-1023.0,1078.5,2.5,5.5,-0.01466003991663456,0.0039186818758025765,1.3776884078979492,1.0772648751735687,-0.0010572690516710281,0.002748966682702303,RTL
01:14:32,113881.0,-35.363266949999996,149.1652383,31117.5,45.5,-7.0,102.5,1.0,-61.5,-1005.5,-586.0,5.0,2.0,-0.03696972504258156,0.0008121270220726728,1.3777881860733032,-0.5863392949104309,0.0015205997042357922,-0.0008671500254422426,RTL
01:14:33,180540.0,-35.363267175000004,149.1652383,29843.75,49.5,-7.0,102.0,-1.0,-40.25,-1003.75,-1277.75,5.5,-4.75,-0.05983146000653505,0.00014842058590147644,1.3776519000530243,-1.279507964849472,0.0016799121513031423,-0.00830889685312286,RTL
01:14:34,180540.0,-35.3632668,149.16523825000002,29074.0,49.0,-7.0,102.5,-3.5,14.5,-999.5,-602.0,2.5,0.5,-0.05046510696411133,-0.0012106158246751875,1.3779969215393066,-0.6049225926399231,-0.0013874336145818233,-0.002442602184601128,RTL
01:14:36,24740.0,-35.3632638,149.1652375,27008.5,27.5,-2.5,100.0,-4.5,73.5,-1013.5,902.5,8.5,-8.0,0.0019960806239396334,-0.003928301157429814,1.3778011202812195,0.9009998738765717,0.005049417493864894,-0.011512200348079205,RTL
01:14:38,24740.0,-35.36325995,149.16523669999998,24968.5,-7.0,3.5,101.0,-2.5,54.0,-1022.0,1394.5,6.5,-2.0,0.04873412474989891,-0.0035010414430871606,1.378570795059204,1.394055426120758,0.0032368639949709177,-0.005350766470655799,RTL
01:14:39,38369.0,-35.3632585,149.165236375,23704.5,-25.5,8.0,99.0,-0.5,-43.5,-984.0,-163.25,6.5,0.0,0.03835962526500225,-0.0005134694038133603,1.37823885679245,-0.1629023365676403,0.003016761038452387,-0.0031095109588932246,RTL
01:14:40,38369.0,-35.36325825,149.1652364,22946.0,-32.0,9.0,102.5,0.0,-73.0,-961.0,-1014.0,6.5,-3.0,0.022515458054840565,0.0019069546833634377,1.3792538046836853,-1.0140849351882935,0.0032999967224895954,-0.006157035706564784,RTL
01:14:42,124358.0,-35.3632595,149.1652367,20916.0,-32.5,8.0,102.0,2.0,16.5,-982.0,-447.5,3.0,0.5,-0.006632208824157715,0.0031392122618854046,1.3794700503349304,-0.4512467347085476,-0.000648449407890439,-0.00254934502299875,RTL
01:14:44,124358.0,-35.36326185,149.16523725000002,18864.0,-13.0,3.5,97.5,1.0,45.5,-1032.5,1356.0,3.5,4.0,0.0054147804621607065,0.0036028248723596334,1.3785000443458557,1.3541830778121948,0.0001963864779099822,0.0014868613798171282,RTL
01:14:45,264341.0,-35.363262625000004,149.1652374,17588.75,-0.5,1.0,102.0,0.75,-16.5,-980.75,439.5,1.75,3.75,0.005172098521143198,0.0016129452478708117,1.3782218396663666,0.4394010379910469,-0.0018928490462712944,0.0013295398675836623,RTL
01:14:46,264341.0,-35.36326255,149.16523734999998,16823.0,2.5,0.0,102.5,-0.5,-59.5,-994.0,-582.0,1.0,2.5,-0.003466470632702112,0.0002325526947970502,1.3782236576080322,-0.582462266087532,-0.002520859008654952,0.00045413326006382704,RTL
01:14:48,247884.0,-35.36326315,149.16523734999998,14786.0,5.0,2.0,100.0,1.0,-45.5,-1018.5,-1242.0,5.0,-5.5,-0.03244748059660196,0.0028576164040714502,1.3771188855171204,-1.24483323097229,0.0015484325122088194,-0.008871202589944005,RTL
01:14:50,247884.0,-35.363265,149.16523784999998,12747.0,22.5,-1.5,102.5,0.5,62.5,-1006.5,718.5,3.0,2.5,-0.02856595627963543,0.001506263855844736,1.378324568271637,0.715708464384079,-0.00022033392451703548,0.0002471236512064934,RTL
01:14:51,242140.0,-35.363265350000006,149.165237975,11573.75,29.0,-2.75,76.5,1.25,27.25,-1061.5,780.75,4.25,1.25,-0.01610627002082765,0.0013980474031995982,1.378436118364334,0.7802272327244282,0.0011331821442581713,-0.0014045160496607423,RTL
