time_stamp,RTL_ALT,roll,pitch,yaw,rollspeed,pitchspeed,yawspeed,xacc,yacc,zacc,xgyro,ygyro,zgyro,lat,lon,relative_alt,vx,vy,vz,MODE
06:44:23,1500.0,-0.0009690302540548146,0.0009315175120718777,0.022335857152938843,0.0001432086864951998,0.0002651053655426949,0.001605321594979614,0.0,1.0,-1000.0,0.0,0.0,0.3333333333333333,-35.3632622,149.1652377,0.0,-1.0,2.6666666666666665,4.333333333333333,STABILIZE
06:44:27,1500.0,-0.0011612116359174252,0.0009766396251507103,0.021685944870114326,0.0002247136435471475,0.0002955104282591492,0.0015373397036455572,0.0,1.5,-1000.0,0.5,1.0,1.0,-35.3632622,149.1652375,0.0,-1.0,0.0,0.0,AUTO
06:44:28,214315.0,-0.0008837795855167011,0.0010149782756343484,0.02145075984299183,0.00033584045013412833,0.00025976782975097495,0.001503927477945884,0.0,1.0,-1001.0,0.3333333333333333,0.6666666666666666,0.6666666666666666,-35.36326213333333,149.1652375,7.666666666666667,-1.0,0.0,0.0,AUTO
06:44:29,214315.0,-0.0007907175264942149,0.0011094171398629744,0.02128642424941063,0.00026389331712077063,0.00029497665430729586,0.0014460106613114476,0.0,1.0,-1000.0,0.3333333333333333,0.6666666666666666,0.3333333333333333,-35.3632621,149.1652375,9.333333333333334,0.0,0.0,0.0,AUTO
06:44:31,214315.0,-0.00036113928460205597,0.0016496987470115225,0.020781872794032097,0.00029331825984021026,0.0002724505417669813,0.0014595961353431146,0.0,1.3333333333333333,-1000.0,0.6666666666666666,0.3333333333333333,0.0,-35.3632621,149.1652375,13.0,0.0,0.0,0.0,AUTO
06:44:32,82062.0,0.0020861326872060695,0.000981182987743523,0.02052740752696991,-0.0005630423159648975,0.002803735784254968,0.0007557051333909234,0.0,0.0,-1111.0,-0.3333333333333333,3.0,0.0,-35.3632621,149.1652375,429.0,0.0,0.3333333333333333,-97.33333333333333,AUTO
06:44:34,82062.0,0.04191174264997244,0.008384935674257576,-0.026982801500707865,-0.11923247203230858,0.0674160085618496,-0.08847958967089653,2.0,-10.0,-992.0,-118.5,67.5,-88.5,-35.3632614,149.16524090000001,3265.0,8.5,51.5,-146.0,AUTO
06:44:35,93285.0,-0.0334077924489975,0.009438404173124582,-0.06336138118058443,-0.06988939829170704,-0.017664495040662587,-0.03738734684884548,3.75,-9.0,-1005.0,-68.5,-16.75,-37.5,-35.3632609,149.16524470000002,4402.75,3.5,37.25,-148.0,AUTO
06:44:38,93285.0,0.064211405813694,0.005395607673563063,-0.10179290547966957,0.014839121140539646,-0.05069664819166064,0.05033225938677788,0.5,8.0,-998.5,15.5,-49.5,49.5,-35.363263700000005,149.1652343,9427.5,-24.5,-10.5,-152.5,AUTO
06:44:39,300000.0,0.03278642546501942,-0.051267281640321016,-0.04490348091349006,-0.06616504676640034,-0.01929190196096897,0.046924963826313615,2.25,-3.25,-999.0,-65.0,-18.75,46.25,-35.3632645,149.16523494999998,10589.5,5.0,23.5,-149.0,AUTO
06:44:40,300000.0,-0.03123326599597931,0.013129973784089088,-0.11970067769289017,0.0076182151678949594,0.03867181856185198,-0.0807359591126442,-5.5,-6.0,-1004.0,8.5,39.0,-80.0,-35.3632614,149.1652373,12503.5,33.0,0.0,-151.5,AUTO
06:44:41,300000.0,-0.0077655447530560195,0.026703613344579935,-0.16116975992918015,0.03914543520659208,0.008229141123592854,-0.03326781594660133,-5.0,0.0,-1000.5,39.5,8.5,-33.5,-35.36325985,149.16523655,13676.0,11.5,-14.25,-153.0,AUTO
06:44:42,200.0,0.01640517171472311,0.015796048566699028,-0.16628466546535492,-0.002929805137682706,-0.017292547039687634,0.011087761726230383,0.5,2.0,-999.0,-2.0,-16.0,10.5,-35.36325995,149.16523504999998,15632.0,-14.0,0.5,-152.0,AUTO
06:44:44,200.0,-0.0012297097127884626,-0.003624146105721593,-0.17758210748434067,-0.0027129549998790026,0.0015477646375074983,-0.023148497566580772,1.5,0.0,-1000.0,-1.5,1.5,-23.0,-35.36326205,149.16523615,18739.5,-7.0,6.5,-152.0,AUTO
06:44:45,193326.0,-0.00015961232566041872,-0.0014926523726899177,-0.19791344180703163,0.003016596019733697,0.00348943576682359,-0.027482041623443365,0.25,0.0,-1000.0,3.0,4.0,-27.5,-35.3632622,149.165236375,19908.5,-2.5,2.75,-153.0,AUTO
06:44:46,193326.0,-0.05355395749211311,0.04129728488624096,-0.1285034567117691,-0.0396176241338253,0.09838895872235298,0.4096530079841614,-0.5,3.0,-975.5,-38.5,99.0,409.0,-35.363262399999996,149.16523585,21827.5,-11.5,-19.0,-141.0,AUTO
06:44:48,193326.0,0.04578223265707493,-0.026334311813116074,0.047682179138064384,-0.03748379833996296,0.03656498342752457,-0.003353267631609924,-0.5,-4.5,-973.0,-36.0,36.5,-3.5,-35.363265049999995,149.165232,23844.5,11.0,25.5,-61.5,AUTO
06:44:49,179310.0,0.01566658151568845,-0.000269789423327893,0.045581323094666004,-0.03921926161274314,0.029026587028056383,0.001385754148941487,0.0,-9.5,-977.75,-38.0,29.5,1.0,-35.36326375,149.165234575,24233.25,19.25,36.75,-43.5,AUTO
06:44:50,179310.0,-0.009906780440360308,0.01608362700790167,0.041122373193502426,0.05534695088863373,-0.0007382307667285204,-0.0033188462257385254,0.0,-2.0,-972.0,56.0,0.0,-3.0,-35.36326165,149.1652387,24605.0,9.5,22.5,-13.5,AUTO
06:44:52,179310.0,-0.02832743711769581,-0.02238451410084963,0.03303862363100052,-0.36008027754724026,-0.022079043090343475,-0.007115905871614814,-5.5,2.5,-1009.0,-358.0,-21.0,-6.5,-35.3632614,149.16523675000002,24389.5,2.0,-34.5,3.0,AUTO
06:44:53,300000.0,-0.037767205853015184,-0.0448269871994853,-0.029928701231256127,-0.016321029514074326,-0.02352229133248329,-0.2961233489913866,-11.75,12.25,-1004.0,-15.25,-22.0,-296.0,-35.363260724999996,149.165232575,24368.75,20.25,-53.25,-0.75,AUTO
06:44:54,300000.0,-0.0017970162443816662,-0.11209889128804207,-0.8921026885509491,-0.48107342422008514,-0.03317649103701115,-0.7054450809955597,-31.0,-35.0,-999.5,-479.5,-31.5,-705.0,-35.3632564,149.1652206,24360.5,64.0,-120.0,-0.5,AUTO
06:44:56,300000.0,0.030644244514405727,-0.1260516494512558,-1.048926293849945,-0.31557413935661316,0.021353181451559067,-0.008557632332667708,-60.5,-48.0,-1000.0,-313.5,22.5,-8.5,-35.36323845,149.16517829999998,24330.0,138.0,-255.0,0.0,AUTO
06:44:57,196968.0,0.03997559938579798,-0.13416071236133575,-1.0544866025447845,0.047299977857619524,0.035654735984280705,-0.001453975448384881,-72.75,-36.75,-1002.0,48.0,37.0,-1.5,-35.363228424999996,149.1651553,24314.5,159.5,-298.0,0.75,AUTO
06:44:58,196968.0,0.04389520362019539,-0.1722099483013153,-1.057005763053894,-0.010582700371742249,-0.012852028012275696,-0.0013067156542092562,-78.5,-35.5,-989.5,-9.0,-12.0,-1.5,-35.36320915,149.16511075,24288.5,189.0,-355.5,7.5,AUTO
06:45:00,196968.0,0.056676385924220085,-0.09600143134593964,-1.0614607334136963,0.010595753788948059,0.062353260815143585,-0.001757405698299408,-88.0,-63.5,-1003.0,11.5,62.5,-2.0,-35.36317375,149.16502865,24258.5,205.5,-390.5,1.0,AUTO
06:45:01,88674.0,0.056654603220522404,-0.048582136165350676,-1.0626382231712341,-0.061455776914954185,0.0617303978651762,-0.002727510523982346,-88.0,-55.0,-999.0,-60.5,62.0,-2.75,-35.3631601,149.1649971,24258.75,198.75,-376.75,-1.0,AUTO
06:45:02,88674.0,0.04457721300423145,0.007329683343414217,-1.0630017518997192,-0.4839319884777069,0.042404282838106155,0.015749534126371145,-69.0,-78.5,-992.0,-482.5,43.0,15.0,-35.3631393,149.16494955000002,24252.5,164.5,-311.0,1.5,AUTO
06:45:04,88674.0,0.02971590030938387,0.07937397807836533,-1.0657692551612854,0.589945912361145,-0.037783863954246044,0.0004009637050330639,-28.0,4.5,-1011.5,590.5,-36.5,0.5,-35.36311755,149.16490105,24176.5,69.0,-125.5,3.0,AUTO
06:45:05,168398.0,0.009626968763768673,0.04734059888869524,-1.0658206045627594,-0.1379735805094242,-0.034965201281011105,0.0019610269810073078,-15.25,-14.25,-1007.25,-136.75,-34.0,2.25,-35.363114125,149.1648937,24145.5,39.75,-71.25,2.25,AUTO
06:45:06,168398.0,-0.013151430059224367,0.024566070176661015,-1.0689370036125183,-0.33233319967985153,-0.013669927604496479,0.0037739654071629047,-4.0,-12.0,-1008.0,-330.5,-12.5,3.5,-35.36311125,149.1648884,24131.5,9.5,-23.5,-1.0,AUTO
06:45:08,168398.0,-0.00666269869543612,-0.01122329756617546,-1.0700279474258423,-0.45778536796569824,-0.015721979783847928,-0.00501449870353099,-2.5,-21.5,-993.5,-456.5,-15.0,-4.5,-35.3631108,149.1648873,24147.0,-5.0,-12.0,-0.5,RTL
06:45:09,39807.0,0.003303618053905666,-0.004629792063497007,-1.0704030096530914,0.01309618353843689,0.019755094428546727,0.00021975749405100942,-2.75,1.75,-1008.5,13.75,20.25,0.75,-35.363110725,149.16488644999998,24153.0,-0.25,-15.25,-2.25,RTL
06:45:10,39807.0,0.0026657583366613835,0.005939376074820757,-1.0722691416740417,-0.23750634491443634,-0.0009242481319233775,-0.0011616628034971654,0.0,-12.5,-1042.5,-236.5,-0.5,-0.5,-35.3631107,149.16488525,24323.5,-0.5,-6.0,-34.0,RTL
06:45:12,39807.0,0.0019865380018018186,0.001405479444656521,-1.0739153623580933,0.02118892129510641,-0.0013665544101968408,5.986978067085147e-05,0.0,1.0,-996.5,21.0,-0.5,0.0,-35.3631108,149.164885,25807.0,-1.0,0.0,-93.5,RTL
06:45:13,300000.0,0.0026825748500414193,0.0014671040698885918,-1.0746540129184723,-0.011203600966837257,0.0013591369788628072,-0.0002672317932592705,0.0,-0.75,-990.5,-10.75,1.25,-0.25,-35.363110925,149.164885,26515.25,-0.25,0.0,-88.75,RTL
06:45:14,300000.0,0.004378534154966474,0.0027817984810099006,-1.075735330581665,-0.051245344802737236,0.0031072708079591393,-0.0004465498204808682,0.0,-2.5,-976.5,-50.0,3.0,0.0,-35.3631111,149.1648849,27570.0,0.0,1.5,-69.5,RTL
06:45:16,300000.0,0.0009267624700441957,0.004998407792299986,-1.0784839987754822,-0.04097718000411987,0.001922914758324623,0.0012925707269459963,-1.5,7.0,-974.0,-39.5,2.5,2.0,-35.3631112,149.16488455,28506.5,1.0,4.5,-18.0,RTL
06:45:17,166324.0,0.004869148368015885,0.00442788889631629,-1.078999638557434,-0.08783204946666956,0.0012448151683202013,-0.0004767516802530736,0.0,-6.25,-978.0,-86.75,1.5,0.5,-35.3631112,149.1648845,28579.5,0.75,5.0,-1.75,RTL
06:45:18,166324.0,0.006527851743157953,0.004056747769936919,-1.0801563262939453,-0.0771193876862526,-0.0021775769273517653,-0.0034480857430025935,0.0,-23.5,-1001.0,-77.0,-1.5,-2.5,-35.3631112,149.16488464999998,28540.5,0.5,5.5,2.5,RTL
06:45:20,166324.0,0.009539631428197026,-0.0009638222982175648,-1.080600380897522,0.21383068710565567,-0.003956847358494997,0.0010364539921283722,0.0,11.5,-1012.0,214.5,-3.0,1.0,-35.3631115,149.164885,29024.0,1.0,3.5,-50.0,RTL
06:45:21,178429.0,0.013074663118459284,-0.002985619066748768,-1.0808983445167542,-0.019190231803804636,-0.0007318997086258605,-0.00035798116005025804,-0.75,-1.25,-973.25,-18.25,0.0,0.25,-35.36311190000001,149.1648849,29396.75,4.5,3.5,-42.5,RTL
06:45:22,178429.0,0.016371907200664282,-0.002776009263470769,-1.082220196723938,0.4910653680562973,-3.3882795833051205e-05,0.003694073879159987,0.0,31.5,-1002.5,493.0,0.5,3.5,-35.3631124,149.16488485000002,29707.5,11.0,3.5,-2.5,RTL
06:45:24,178429.0,0.010290737496688962,0.000494049207190983,-1.083159625530243,-0.2337863501161337,0.0014053285995032638,0.0008450221503153443,0.0,-20.5,-1032.0,-232.5,1.5,1.5,-35.36311225,149.1648848,29732.0,12.0,3.0,-18.0,RTL
06:45:25,179168.0,0.005220006001763977,0.0012893088714918122,-1.082884818315506,0.004421226214617491,0.001578824667376466,0.0016598684596829116,0.5,1.0,-1031.0,6.5,1.75,2.0,-35.363112050000005,149.164884875,29969.5,11.5,3.5,-42.0,RTL
06:45:26,179168.0,0.0033127068309113383,0.0001723923378449399,-1.082935631275177,-0.1807919631828554,-0.00033024203730747104,0.001623865740839392,0.0,-6.0,-978.5,-179.0,0.5,2.0,-35.3631118,149.164885,30618.0,8.0,3.0,-49.5,RTL
06:45:28,179168.0,0.0002653198316693306,0.0013224526192061603,-1.0841698050498962,-0.5226498544216156,-0.0009432535152882338,-0.00019782394520007074,0.0,-30.5,-1003.5,-521.0,-0.5,0.5,-35.3631115,149.164885,31014.5,5.0,2.0,2.0,RTL
06:45:29,156130.0,0.0032814902951940894,0.0014128790644463152,-1.0846410989761353,0.14548464678227901,-0.00041507752030156553,0.001549385313410312,0.25,6.5,-1014.75,147.25,0.5,1.75,-35.36311135,149.1648851,30997.0,3.75,1.5,-0.75,RTL
06:45:30,156130.0,0.007200134685263038,0.0015265687834471464,-1.0843498706817627,0.170281570404768,0.0017078441160265356,0.0013709351187571883,0.5,-1.0,-1031.5,171.5,2.0,2.0,-35.36311125,149.1648851,31199.5,1.5,1.0,-37.0,RTL
06:45:32,156130.0,-0.0011362128425389528,0.0003092847910011187,-1.0849031209945679,-0.2851855866611004,0.00124292160035111,0.0017218846478499472,0.0,-14.5,-961.5,-283.0,1.5,2.5,-35.3631111,149.1648853,32142.0,0.0,0.0,-28.5,RTL
06:45:33,127671.0,0.0034315343073103577,0.00017912567182065686,-1.085349202156067,0.1464405246078968,-0.0006279634835664183,-0.00044415704905986786,0.0,0.5,-977.5,147.75,0.0,0.75,-35.3631111,149.1648853,32258.25,0.5,0.0,-4.5,RTL
06:45:34,127671.0,-0.0024501107400283217,0.0027869432233273983,-1.0858462452888489,0.42169611155986786,-0.0011259584862273186,0.0007522854721173644,1.0,23.0,-1014.0,423.5,-0.5,1.5,-35.3631107,149.16488544999999,32242.0,0.0,0.0,2.0,RTL
06:45:36,127671.0,-0.016188717912882566,0.002122155681718141,-1.085622251033783,0.08359062671661377,-0.004954700591042638,-0.00014862112584523857,0.5,7.5,-1010.0,85.5,-4.0,0.5,-35.3631096,149.1648862,32750.0,-11.0,-4.5,-51.0,RTL
06:45:37,200.0,-0.015180317568592727,0.0003385152758710319,-1.0859035849571228,0.06458338350057602,-0.0025369880168000236,0.0010854355350602418,-0.25,2.0,-976.5,65.75,-1.5,1.75,-35.36310935,149.164886425,33126.75,-14.75,-6.5,-42.25,RTL
06:45:38,200.0,-0.014396991580724716,-0.0007290064677363262,-1.087138056755066,-0.25145599246025085,-0.002793686930090189,0.002839517081156373,-1.5,4.0,-977.0,-249.5,-2.5,3.5,-35.36310965,149.16488635000002,33441.5,-15.5,-7.5,-2.5,RTL
06:45:40,200.0,0.015102154109627008,-0.0018151929834857583,-1.0868179202079773,0.4637826681137085,0.0003380280249984935,0.0019041520426981151,-2.0,19.0,-1043.5,464.5,0.5,3.0,-35.36311105,149.16488544999999,33457.0,-5.5,-3.0,-16.0,RTL
06:45:41,261849.0,0.013536202488467097,-0.0016432279080618173,-1.0863481760025024,-0.007954936474561691,0.00016112782759591937,0.002462852105963975,-2.0,3.5,-1026.5,-6.75,1.0,3.0,-35.363111700000005,149.16488505,33685.75,-0.5,-0.25,-39.75,RTL
06:45:42,261849.0,0.019731384702026844,-0.0001479054772062227,-1.0865678191184998,0.273502379655838,0.0012989104143343866,0.0011765201343223453,0.0,12.5,-981.5,275.0,1.5,2.0,-35.3631125,149.16488445,34288.5,10.0,4.0,-43.5,RTL
06:45:44,261849.0,-0.009790217503905296,0.0049662727396935225,-1.0871697664260864,-0.1978636160492897,0.002028051356319338,0.00508062494918704,0.5,6.0,-995.0,-195.5,2.5,6.0,-35.3631115,149.16488475,34584.0,9.5,5.0,3.0,RTL
06:45:45,194805.0,-0.006735855509759858,0.004649230861105025,-1.087217926979065,0.12801863066852093,-0.0008136009564623237,0.0019301297725178301,1.25,3.5,-1029.0,129.25,0.0,2.75,-35.363110899999995,149.1648851,34572.0,3.0,2.5,-3.25,RTL
06:45:46,194805.0,-0.008587382268160582,0.0025013901758939028,-1.0869531631469727,-0.1926524182781577,-0.00020117932581342757,0.000993463327176869,0.0,-15.0,-1030.0,-191.0,0.5,2.0,-35.363110250000005,149.16488565,34841.0,-5.5,0.0,-41.0,RTL
06:45:48,194805.0,-0.008591591380536556,-0.00029294215960362635,-1.0871147513389587,-0.4373822510242462,0.0008351730648428202,-0.0010809069499373436,0.0,-24.0,-958.0,-436.5,1.5,0.0,-35.36311,149.164886,35688.0,-11.5,-5.0,-15.5,RTL
06:45:49,200.0,-0.0038305584603222087,0.001690883160335943,-1.087592363357544,0.05962936766445637,0.0027001609705621377,-0.0011941547272726893,0.0,0.5,-983.25,60.25,3.0,0.25,-35.36311005,149.164886,35738.75,-10.0,-5.0,-0.25,RTL
06:45:50,200.0,-0.011042657773941755,0.0029441866790875793,-1.0875508189201355,0.2864808519370854,-0.0007808000082150102,0.004230808466672897,0.0,22.5,-1029.0,288.0,0.0,5.0,-35.36310985,149.164886,35711.5,-11.5,-5.0,-4.0,RTL
06:45:52,200.0,-0.009493960533291101,0.00029777027430100134,-1.0872313380241394,0.07190674543380737,-0.0035214523086324334,0.002270772703923285,0.0,13.0,-996.5,73.0,-2.5,3.0,-35.36310975,149.1648861,36383.0,-14.0,-5.0,-51.0,RTL
06:45:53,214862.0,-0.001623130199732259,-0.000870156662131194,-1.0871670544147491,0.08648211695253849,-0.0011765724048018456,0.002477511327015236,-1.0,7.25,-967.75,87.0,-0.5,3.5,-35.3631101,149.16488600000002,36715.5,-12.5,-5.25,-33.5,RTL
06:45:54,214862.0,-0.006199329858645797,0.00021888472474529408,-1.088189423084259,-0.34291690587997437,0.002509786398150027,0.003045812132768333,-2.0,6.0,-981.5,-341.0,3.0,3.5,-35.363110750000004,149.16488555,36901.5,-6.0,-2.5,1.0,RTL
06:45:56,214862.0,0.0083636196795851,0.0010995290649589151,-1.0875807404518127,0.15695474296808243,-0.0018001495918724686,-0.0008695906726643443,0.0,0.0,-1027.5,157.0,-1.0,0.0,-35.3631113,149.1648851,37028.0,0.0,0.0,-32.0,RTL
06:45:57,200.0,0.0012746726570185274,0.0020704703929368407,-1.0873219072818756,-0.09255731850862503,0.0012029673671349883,0.0010231509222649038,0.0,-5.0,-1014.75,-92.25,1.75,2.25,-35.3631113,149.1648851,37361.0,0.75,1.0,-50.75,RTL
06:45:58,200.0,-0.002723364799749106,0.001046104938723147,-1.0872321128845215,-0.3494000881910324,-0.0005706737283617258,0.0018329340382479131,-0.5,-14.0,-960.5,-348.5,0.5,3.0,-35.3631112,149.1648851,37999.5,0.0,1.0,-36.5,RTL
06:46:00,200.0,8.673523552715778e-06,0.004167450126260519,-1.0881233215332031,0.4238974116742611,-0.0024881960125640035,0.0006000184803269804,0.5,6.5,-1003.5,423.5,-1.0,2.0,-35.363110649999996,149.1648853,38182.0,-2.0,0.0,3.0,RTL
06:46:01,200.0,-0.006085613102186471,0.0020747345697600394,-1.0878635346889496,-0.08824766241014004,-0.002380073652602732,0.0020517492666840553,0.0,-5.25,-1015.0,-87.75,-1.0,3.25,-35.3631104,149.164885425,38195.25,-4.5,0.0,-9.0,RTL
06:46:02,200.0,0.0020138821564614773,0.0003172511060256511,-1.0873814225196838,0.21655668690800667,-0.0032606221502646804,0.0015006309258751571,0.0,13.0,-1025.0,217.0,-2.0,2.5,-35.363110649999996,149.1648855,38557.5,-5.0,0.0,-47.5,RTL
06:46:04,200.0,0.014086567796766758,0.00021448165352921933,-1.0882165431976318,0.2059619054198265,0.003078053588978946,-0.0009922911413013935,-1.0,-0.5,-968.0,206.5,3.5,1.0,-35.363111450000005,149.16488505,39368.0,0.0,0.0,-11.0,RTL
06:46:05,200.0,0.007347011181991547,0.0018536521529313177,-1.0881805717945099,0.010286442935466766,0.0008122060098685324,0.0009646227699704468,-0.75,4.25,-992.75,10.75,1.75,2.0,-35.3631116,149.16488485,39392.0,3.0,2.25,1.0,RTL
06:46:06,200.0,-0.00218629848677665,0.003221241058781743,-1.0879345536231995,-0.2190559282898903,0.005532498122192919,0.002571165270637721,0.5,-4.5,-1031.5,-217.5,6.0,4.0,-35.36311155,149.16488475,39381.5,5.0,3.0,-10.5,RTL
06:46:08,200.0,-0.021353785879909992,0.00455265142954886,-1.0875361561775208,-0.16207220032811165,-0.00283735163975507,-0.00019516312750056386,1.0,-2.0,-983.0,-161.5,-1.5,1.0,-35.363109800000004,149.16488575,40158.5,-6.0,-0.5,-51.5,RTL
06:46:09,300000.0,-0.016314286505803466,0.0021557263971772045,-1.087824136018753,-0.0027943551540374756,-0.0012413332151481882,0.0006780210242141038,-0.25,3.25,-966.25,-2.5,-0.5,2.25,-35.363109475,149.164886075,40481.75,-12.25,-3.25,-31.25,RTL
06:46:10,300000.0,-0.011611341033130884,0.00012131532093917485,-1.0880944728851318,-0.5791200697422028,0.003202450112439692,0.0014198062708601356,-1.0,-21.0,-994.0,-578.5,3.5,2.5,-35.363109800000004,149.16488605,40648.5,-14.5,-5.0,2.0,RTL
06:46:12,300000.0,0.01560472697019577,0.0002822303067659959,-1.087864875793457,0.25069455057382584,0.0027571532409638166,0.0008935360237956047,-0.5,4.5,-1034.0,250.5,3.5,2.0,-35.3631111,149.16488520000001,40763.5,-5.5,-0.5,-31.0,RTL
06:46:13,266442.0,0.013765090145170689,0.00018555852057033917,-1.0876652598381042,-0.0032421620562672615,0.00033375437487848103,0.0002311157004442066,-1.0,1.75,-1013.25,-3.0,1.5,1.75,-35.3631117,149.164884825,41088.5,0.25,1.5,-48.75,RTL
06:46:14,266442.0,0.01528046652674675,0.0013921238714829087,-1.0876448154449463,0.09495911002159119,0.0007366930367425084,-0.0009951263200491667,-0.5,-3.0,-960.0,94.5,2.0,0.5,-35.3631122,149.1648845,41687.5,8.0,5.0,-32.0,RTL
06:46:16,266442.0,0.00543234939686954,0.002219919813796878,-1.0879766345024109,0.08229868113994598,-0.00047013326548039913,0.0031314778025262058,0.0,19.0,-1000.0,84.0,0.5,4.5,-35.36311205,149.16488445,41827.0,9.5,6.5,3.5,RTL
06:46:17,82134.0,0.008418174664257094,0.00244748720433563,-1.0879436433315277,-0.07590757356956601,0.0017199021822307259,0.00010975979967042804,-0.5,-4.25,-1030.0,-75.25,2.5,1.5,-35.363111950000004,149.16488455,41855.5,9.0,6.0,-12.0,RTL
06:46:18,82134.0,0.002358915240620263,0.0019240282126702368,-1.0876464247703552,-0.13596368581056595,0.0012360989348962903,0.00030111795058473945,0.5,-1.5,-1019.5,-135.5,2.0,1.5,-35.36311175,149.16488475,42248.5,7.0,5.0,-49.5,RTL
06:46:20,82134.0,-0.010064697358757257,0.0019208671292290092,-1.088348150253296,-0.45316312462091446,0.004393785027787089,0.0015782389673404396,-0.5,-10.0,-968.0,-451.5,5.0,3.0,-35.36311125,149.1648852,43029.5,3.5,2.0,-8.5,RTL
06:46:21,200.0,0.004338129656389356,0.0016755046672187746,-1.088226318359375,0.15478073642589152,-0.0018199670303147286,0.0007033346337266266,0.0,-0.25,-996.25,155.0,-0.25,2.25,-35.3631111,149.1648853,43044.75,0.75,1.0,1.25,RTL
06:46:22,200.0,0.006997586460784078,0.0012799717369489372,-1.088116705417633,0.27012668922543526,-0.0014665963244624436,-0.0005475413054227829,0.0,4.0,-1029.5,270.5,0.0,1.5,-35.3631111,149.16488525,43045.0,0.0,1.0,-11.0,RTL
06:46:24,200.0,0.006724942941218615,0.0014771514106541872,-1.0877716541290283,0.11054826900362968,0.0022534547024406493,0.00029193400405347347,0.0,1.5,-987.5,111.0,3.0,1.5,-35.3631113,149.1648851,43845.0,2.0,2.0,-52.0,RTL
06:46:25,256195.0,0.00629006332019344,0.0009750980389071628,-1.0880220532417297,0.05233228951692581,-0.0008566740725655109,-0.0006677036290057003,-0.25,0.0,-960.0,53.25,0.5,0.75,-35.3631114,149.1648851,44165.75,2.25,1.75,-29.75,RTL
06:46:26,256195.0,0.006210688850842416,0.0032793100690469146,-1.0880697965621948,0.5558148324489594,-0.0020828272099606693,0.0033062585862353444,0.0,28.0,-1004.0,557.0,-0.5,4.5,-35.3631114,149.164885,44318.5,3.5,2.0,1.0,RTL
06:46:28,256195.0,-0.003817495977273211,0.0033659031614661217,-1.0880144834518433,-0.2477758303284645,-0.0015728118596598506,0.0005432254984043539,0.5,-12.5,-1033.0,-246.5,0.0,2.0,-35.3631108,149.16488514999998,44452.0,-1.0,2.0,-33.0,RTL
06:46:29,300000.0,0.002229405174148269,0.0013730560021940619,-1.0879418551921844,0.06863053143024445,0.0008095559314824641,0.001360007794573903,-0.5,2.25,-1017.5,69.5,2.0,3.0,-35.3631108,149.1648852,44783.75,-2.25,1.5,-50.25,RTL
06:46:30,300000.0,0.0032691272208467126,-0.0013395140413194895,-1.0878506898880005,-0.4824737459421158,0.0031047146767377853,0.0013551958836615086,-2.0,-14.5,-957.0,-481.0,4.0,3.0,-35.3631114,149.16488514999998,45397.0,-0.5,1.5,-33.0,RTL
06:46:32,300000.0,0.019763910211622715,0.0016703603323549032,-1.0884037017822266,0.26158851385116577,-0.0006175929447636008,-0.0008905072463676333,-1.5,1.5,-1005.0,261.5,1.0,1.0,-35.3631121,149.1648845,45552.5,8.0,5.0,3.5,RTL
06:46:33,200.0,0.0126705477014184,0.0010911713616224006,-1.0881850719451904,-0.03887343406677246,0.0011329121189191937,0.000954354356508702,-2.0,0.25,-1033.25,-37.75,2.25,2.5,-35.363112275,149.164884375,45575.75,9.75,6.75,-12.0,RTL
06:46:34,200.0,0.022572655230760574,0.0007934352033771574,-1.0878519415855408,0.21369796246290207,0.00010650634067133069,0.0004555482300929725,-1.0,12.0,-1020.5,215.0,1.5,2.0,-35.36311285,149.164884,45970.0,14.5,9.5,-49.0,RTL
06:46:36,200.0,0.021809618920087814,0.002125611179508269,-1.0878211855888367,-0.14058458805084229,-0.000934195180889219,-0.0015312262112274766,-0.5,-18.5,-963.0,-139.5,0.5,0.5,-35.36311325,149.1648837,46754.0,21.0,12.0,-7.5,RTL
06:46:37,41119.0,0.02128925290890038,0.002972625254187733,-1.0884720385074615,0.24564342200756073,0.0009724816191010177,0.00046906655188649893,0.0,8.75,-990.75,247.75,2.0,2.25,-35.363113125,149.1648837,46762.75,21.25,12.75,3.5,RTL
06:46:38,41119.0,0.006204136414453387,0.00478798127733171,-1.0880404710769653,-0.05961345136165619,-0.0012510363012552261,0.005920994561165571,1.0,10.0,-1029.0,-56.5,0.5,7.5,-35.363112650000005,149.1648839,46754.0,20.0,12.0,-10.0,RTL
06:46:40,41119.0,-0.001869294559583068,0.0034842563327401876,-1.087524950504303,0.0986466333270073,-0.005718346685171127,0.0004740196163766086,1.5,10.5,-979.0,101.5,-4.5,2.0,-35.363111450000005,149.16488475,47526.5,8.5,7.5,-48.0,RTL
06:46:41,51892.0,-0.000564389192732051,0.0017827787669375539,-1.0877266228199005,0.10026736464351416,-0.0007978397043189034,0.00029253331013023853,0.25,5.0,-965.0,102.5,0.75,1.75,-35.363111225,149.164885025,47814.75,4.25,5.0,-26.0,RTL
06:46:42,51892.0,-0.002540816378314048,0.001205884327646345,-1.0882983803749084,-0.526350624859333,0.00432169996201992,0.003079203888773918,-0.5,-16.0,-989.5,-523.0,5.5,4.5,-35.3631112,149.1648851,47926.5,1.0,2.0,2.5,RTL
06:46:44,51892.0,0.0013470315025188029,0.0026778385508805513,-1.0878611207008362,0.11042036861181259,-0.0001997884246520698,-0.0002129764761775732,0.0,-3.0,-1031.0,112.5,1.0,1.5,-35.36311095000001,149.1648853,48126.5,0.5,1.0,-37.5,RTL
06:46:45,300000.0,-0.0031414617551490664,0.0019411695830058306,-1.087579995393753,-0.11909375805407763,-4.559004446491599e-05,0.00047727907076478004,0.0,-2.25,-1005.5,-116.25,1.5,2.5,-35.363110825,149.164885375,48488.5,-0.5,0.5,-51.25,RTL
06:46:46,300000.0,-0.0032919998047873378,0.0005950334307271987,-1.0879580974578857,-0.38120220601558685,0.0016816930146887898,0.0008014909690245986,0.0,-17.5,-954.0,-378.0,3.0,2.5,-35.3631109,149.1648854,49059.5,-1.5,0.0,-25.5,RTL
06:46:48,300000.0,0.00342343223746866,0.0013517151237465441,-1.0882936120033264,0.5293216705322266,-0.00014523928984999657,0.0037916956935077906,-0.5,33.0,-1040.5,532.0,1.5,6.0,-35.3631109,149.1648854,49141.0,-0.5,0.0,1.0,RTL
06:46:49,300000.0,0.0036847481242148206,5.3771393140777946e-05,-1.0879574120044708,-0.08436768501996994,-0.0010671975614968687,-3.248036955483258e-05,-2.0,-4.5,-1031.0,-81.75,0.25,1.75,-35.363111125,149.1648853,49210.0,-1.0,0.25,-19.5,RTL
06:46:50,300000.0,0.018427361734211445,-0.0019393347902223468,-1.0876697897911072,-0.010013535618782043,-0.0008265906944870949,0.0011582010192796588,-2.0,7.0,-1007.5,-7.0,0.5,3.0,-35.36311225,149.16488475,49691.5,5.0,3.5,-52.5,RTL
06:46:52,300000.0,0.018346476834267378,0.0012055820843670517,-1.0882375836372375,0.0025725960731506348,0.004121601115912199,0.0015994494315236807,-0.5,11.5,-971.5,7.0,5.5,3.0,-35.3631133,149.1648839,50390.0,20.0,9.5,-3.0,RTL
06:46:53,234489.0,0.0172359918942675,0.002459829207509756,-1.0882488191127777,-0.05634922534227371,0.00219892717723269,-0.0019104675739072263,0.25,-8.5,-995.5,-53.25,3.5,0.25,-35.363113125,149.1648839,50384.5,20.5,10.25,3.25,RTL
06:46:54,234489.0,0.016524174250662327,0.003193329437635839,-1.088268220424652,-0.03207731246948242,-0.0021422028075903654,-0.0010611023753881454,0.0,-12.0,-1033.0,-29.0,-0.5,1.0,-35.3631128,149.164884,50405.0,18.5,10.0,-15.5,RTL
06:46:56,234489.0,0.01858970057219267,0.0006568949029315263,-1.0873247385025024,-0.11930781975388527,-0.00047190836630761623,0.0019938782788813114,0.0,-4.0,-981.0,-114.5,1.0,4.0,-35.3631131,149.164884,51260.5,19.0,11.0,-48.5,RTL
06:46:57,25217.0,0.013696636422537267,0.0020509060414042324,-1.0879004895687103,-0.16416491568088531,0.0026526085275691003,0.00013003652566112578,0.25,-10.25,-958.25,-160.0,4.0,2.0,-35.363112900000004,149.164884,51533.75,19.0,10.25,-23.0,RTL
06:46:58,25217.0,0.0040815596003085375,0.004974707728251815,-1.0885062217712402,-0.5241426974534988,0.0018262681551277637,-0.0012412805808708072,1.5,-29.5,-989.5,-520.0,3.0,1.5,-35.3631123,149.16488425,51629.5,16.0,9.0,2.5,RTL
06:47:00,25217.0,-0.00040274811908602715,0.0025847392389550805,-1.0874122381210327,0.16507110744714737,-0.0024346597492694855,0.0015474415849894285,0.0,2.5,-1033.5,169.5,-0.5,3.5,-35.3631111,149.16488505,51841.0,4.0,4.5,-39.5,RTL
06:47:01,223836.0,-0.0007752972305752337,0.0013580718077719212,-1.087459146976471,-0.05271154269576073,-0.00038628687616437674,0.0007189248572103679,0.0,-3.25,-1006.75,-48.25,1.5,2.5,-35.363110975000005,149.16488527500002,52210.25,1.0,2.5,-53.25,RTL
06:47:02,223836.0,-0.007851877948269248,0.001221453887410462,-1.0875905752182007,-0.46849656105041504,0.00197622028645128,0.0012464768951758742,0.0,-23.5,-966.5,-464.0,3.0,3.5,-35.3631108,149.1648855,52803.5,-0.5,0.0,-28.5,RTL
06:47:04,223836.0,-0.003958927769417642,0.0036543873138725758,-1.0880102515220642,0.4545358195900917,-0.0010151973110623658,0.0007532843155786395,0.0,27.5,-1011.5,459.0,1.0,2.5,-35.3631103,149.1648856,52909.5,-4.5,-1.0,1.5,RTL
06:47:05,200.0,-0.002797382192511577,0.0022001526958774775,-1.0879395008087158,0.005061060190200806,-0.00188261698349379,-7.186632137745619e-05,0.0,-2.75,-1029.0,9.0,0.25,2.5,-35.363110325,149.1648856,52967.0,-7.0,-1.0,-17.5,RTL
06:47:06,200.0,-0.0003292184555903077,0.0015174605650827289,-1.087148666381836,0.15472444146871567,-0.0014532864443026483,0.0010805774945765734,0.0,9.0,-1016.5,159.0,0.5,3.0,-35.36311044999999,149.1648856,53426.0,-6.0,-1.0,-53.5,RTL
06:47:08,200.0,0.0035963940899819136,0.0011925894650630653,-1.0879932045936584,-0.011092975735664368,-0.0025737548712641,-0.00171881535788998,0.0,-16.5,-966.0,-7.5,-0.5,0.5,-35.3631106,149.1648856,54213.5,-5.0,-2.0,-7.0,RTL
06:47:09,148659.0,-0.001395899394992739,0.001310662308242172,-1.088071346282959,-0.01032206416130066,0.0013199247478041798,-0.0005649266240652651,-0.25,7.25,-993.5,-5.75,2.75,1.75,-35.363110725,149.1648855,54219.5,-3.75,-1.0,2.0,RTL
06:47:10,148659.0,-0.003441519511397928,0.0022417084546759725,-1.0880587100982666,0.1121041402220726,0.002982489764690399,0.0031738714314997196,0.0,16.0,-1023.0,117.5,4.5,5.5,-35.3631108,149.1648854,54230.5,-2.5,0.0,-12.0,RTL
06:47:12,148659.0,-0.005766904563643038,0.002598498365841806,-1.0876091122627258,0.17775805294513702,-0.0028016272699460387,0.0008086171001195908,0.0,11.0,-986.0,182.0,-0.5,3.0,-35.3631104,149.1648856,55064.5,-5.0,-0.5,-51.0,RTL
06:47:13,10459.0,-0.004256956686731428,0.0015790773322805762,-1.08781298995018,0.0791053157299757,-0.0019418945739744231,0.0019435863941907883,-0.25,3.0,-965.25,83.25,-0.25,4.25,-35.3631104,149.1648856,55374.5,-6.5,-1.5,-28.25,RTL
06:47:14,10459.0,-0.006337664497550577,0.0012461351871024817,-1.0884238481521606,-0.06717650592327118,0.0034749084152281284,-0.00015047937631607056,-0.5,18.5,-981.5,-62.5,5.0,2.0,-35.3631105,149.1648856,55511.0,-5.5,-1.0,2.5,RTL
06:47:16,10459.0,0.004412524838699028,0.001150227035395801,-1.0876826047897339,-0.22774413414299488,0.003157997678499669,-0.0009483153698965907,0.0,-11.0,-1030.0,-224.0,4.5,1.5,-35.3631113,149.164885,55654.5,0.0,1.0,-33.0,RTL
06:47:17,51750.0,0.003969083833112563,0.001657759043155238,-1.0879151225090027,-0.0099127646535635,-0.00041846526437439024,0.0014283124473877251,0.25,0.25,-1012.75,-5.75,1.5,3.5,-35.363111350000004,149.164885,55992.75,1.25,2.0,-50.0,RTL
06:47:18,51750.0,-9.379931725561619e-05,0.001794616284314543,-1.087645709514618,-0.02186541259288788,0.0028092763968743384,0.0010244022123515606,0.0,3.0,-956.5,-17.5,4.0,3.0,-35.3631114,149.164885,56585.0,1.5,1.5,-30.5,RTL
06:47:20,51750.0,-0.00016761058941483498,0.003955175983719528,-1.0877030491828918,-0.10566283762454987,0.000588504015468061,-8.015218190848827e-05,1.0,-20.5,-1004.0,-102.0,2.0,2.0,-35.36311095000001,149.16488514999998,56704.0,0.0,1.0,1.5,RTL
06:47:21,200.0,-0.011671704472973943,0.0044771707616746426,-1.0878909826278687,0.020056776702404022,0.0009836491371970624,0.0015743615804240108,1.75,2.0,-1035.25,23.75,2.75,3.75,-35.363110375,149.16488550000003,56755.0,-2.25,0.0,-16.25,RTL
06:47:22,200.0,-0.02277018502354622,0.004099124111235142,-1.0873379707336426,-0.23539172857999802,-0.0007990425219759345,-0.001766324567142874,1.5,-15.5,-1009.5,-231.5,1.0,0.5,-35.36310915,149.1648863,57255.0,-13.5,-4.5,-54.0,RTL
06:47:24,200.0,-0.006947238580323756,-0.00016451242845505476,-1.087886929512024,0.03785257041454315,0.0004996188217774034,-0.0021394643699750304,-1.0,-11.5,-969.0,40.5,2.5,0.5,-35.3631091,149.1648866,57992.0,-22.5,-10.0,-7.5,RTL
06:47:25,210737.0,-0.008699265075847507,-0.0002273342470289208,-1.0879904925823212,-0.13314583990722895,0.00127675652038306,0.003058532369323075,-1.5,6.75,-997.75,-129.25,2.75,5.25,-35.3631096,149.164886325,58000.75,-19.25,-8.25,2.5,RTL
06:47:26,210737.0,0.002175396424718201,0.0011987722828052938,-1.0876840949058533,0.3566628620028496,0.001530284178443253,0.0007078647613525391,0.0,22.0,-1033.0,360.0,3.5,3.5,-35.363110250000005,149.16488585000002,58017.5,-11.0,-4.5,-15.5,RTL
06:47:28,210737.0,-0.003159844083711505,0.0010089315182995051,-1.087501049041748,0.22750084102153778,-0.0037162972148507833,0.0018593677086755633,0.0,12.5,-980.5,230.0,-1.0,4.5,-35.3631104,149.1648857,58872.5,-7.0,-2.0,-49.5,RTL
06:47:29,257421.0,-0.00452086329460144,0.0011890823516296223,-1.08784618973732,-0.01579468883574009,0.0025618567306082696,0.0008325748203787953,-0.75,3.5,-962.25,-13.0,4.0,3.25,-35.363110424999995,149.164885675,59152.75,-6.75,-2.5,-24.25,RTL
06:47:30,257421.0,-0.0038788739911979064,0.001285816717427224,-1.0876480340957642,-0.11313755065202713,0.0004484109813347459,0.003923750016838312,-2.0,10.0,-996.5,-109.5,2.0,6.0,-35.363110750000004,149.1648854,59258.0,-5.5,-1.0,2.0,RTL
06:47:32,257421.0,0.010405351407825947,0.0005816636403324082,-1.0874460935592651,0.09611942619085312,0.001852154964581132,-0.0006318655796349049,-0.5,-0.5,-1031.5,99.0,3.5,1.5,-35.3631117,149.1648848,59453.0,2.0,2.0,-37.5,RTL
06:47:33,40683.0,0.00938881014008075,0.0013581733801402152,-1.0872300565242767,-0.07789635239169002,0.0013049020781181753,0.00026491089374758303,-0.25,-1.75,-1006.0,-74.25,2.75,2.5,-35.363111825000004,149.16488475,59817.25,4.75,3.75,-52.0,RTL
06:47:34,40683.0,-0.000955934781813994,0.002710717497393489,-1.0871426463127136,-0.33367349207401276,0.004499935312196612,0.0011622188612818718,0.0,-11.0,-962.5,-330.0,6.0,3.5,-35.36311175,149.1648847,60388.5,6.5,4.0,-26.0,RTL
06:47:36,40683.0,0.001312019710894674,0.004063253290951252,-1.0879034399986267,0.6128906011581421,-0.00253654777770862,-0.0005480129038915038,1.5,24.5,-1020.5,615.5,-0.5,2.0,-35.363110750000004,149.1648852,60470.5,-0.5,1.5,1.5,RTL
06:47:37,294207.0,-0.007704406511038542,0.00310693820938468,-1.0876815021038055,-0.122652318328619,-0.000948529108427465,0.0013830802636221051,0.5,-10.0,-1030.25,-119.75,1.25,3.75,-35.36311045,149.164885425,60535.75,-3.75,0.25,-18.0,RTL
06:47:38,294207.0,-0.0049699218943715096,0.0017737686866894364,-1.0874179601669312,0.17404330894351006,-0.0015785456635057926,0.0005972669459879398,0.0,8.5,-1005.0,176.5,0.5,3.0,-35.3631102,149.1648858,61005.5,-7.5,-1.0,-50.5,RTL
06:47:40,294207.0,0.006872502970509231,0.0009383583383169025,-1.0878176093101501,0.6354361176490784,0.0020533875795081258,0.002416683128103614,0.0,28.0,-980.0,638.0,3.5,5.0,-35.36311035,149.16488575,61658.0,-8.0,-3.0,-2.0,RTL
06:47:41,234449.0,-0.00277452653972432,0.00150997334276326,-1.0879584848880768,-0.12485814467072487,-0.0018246422987431288,0.0033120326115749776,0.0,-2.25,-993.75,-122.0,0.5,6.0,-35.363110575,149.1648856,61648.75,-6.25,-1.75,3.5,RTL
06:47:42,234449.0,0.005920287338085473,0.0005070717597845942,-1.0881465077400208,-0.24907788156997412,-0.0014402291853912175,0.0008825829136185348,-0.5,-14.0,-1034.5,-246.5,0.5,3.5,-35.36311105,149.1648853,61681.5,-3.5,0.0,-18.5,RTL
06:47:44,234449.0,0.005753025645390153,0.00047167644515866414,-1.0874106287956238,-0.25688089057803154,0.003423188696615398,-0.0002716936869546771,0.0,-5.0,-973.5,-254.0,5.0,2.5,-35.3631119,149.1648849,62520.0,5.5,2.5,-42.0,RTL
06:47:45,300000.0,0.006432440961361863,0.0013511029537767172,-1.0876949727535248,-0.09485242143273354,0.0015741941751912236,-0.0007556594209745526,-0.25,-5.0,-965.5,-92.25,3.5,2.0,-35.3631119,149.16488485,62739.5,6.5,3.0,-16.25,RTL
06:47:46,300000.0,0.0021874186350032687,0.002803080598823726,-1.0886420011520386,-0.31958674592897296,0.0031928117386996746,-0.0006136184092611074,0.5,-29.5,-999.0,-317.0,5.5,2.0,-35.36311165,149.1648848,62788.5,6.0,3.0,3.0,RTL
06:47:48,300000.0,0.0013823112240061164,0.001991387747693807,-1.0874335765838623,0.2506446838378906,-0.004525587894022465,0.002246253890916705,0.0,12.0,-1026.0,253.0,-1.5,5.0,-35.363111,149.16488514999998,63100.5,0.0,2.0,-45.0,RTL
06:47:49,99613.0,-0.0006571035482920706,0.001429824740625918,-1.0871459543704987,-0.061970073729753494,0.0008624970796518028,0.0010026376112364233,0.25,-5.25,-994.0,-58.5,3.0,3.75,-35.36311095000001,149.16488527500002,63485.75,-0.25,0.75,-51.25,RTL
06:47:50,99613.0,0.004349597729742527,0.0008780382922850549,-1.0878844857215881,0.16889777779579163,-0.0016835103742778301,-0.0014671304961666465,0.0,-5.5,-963.5,171.0,0.5,1.5,-35.3631108,149.1648854,63964.5,-1.5,0.0,-15.5,RTL
06:47:52,99613.0,-0.008330486016348004,0.003262596554122865,-1.0876535177230835,0.07221488654613495,-0.0020162174478173256,0.0016361875459551811,0.0,13.0,-1027.5,75.5,0.5,4.0,-35.3631104,149.1648856,63996.0,-4.0,-1.0,-6.5,RTL
06:47:53,72648.0,-0.0052898593712598085,0.0023519875248894095,-1.0879902243614197,0.017532053403556347,-0.002986302337376401,-0.00035343202762305737,0.5,-1.0,-1033.0,20.25,-0.5,2.5,-35.36311035,149.16488565,64143.25,-6.25,-1.25,-30.75,RTL
06:47:54,72648.0,-0.005825340515002608,0.0017625854816287756,-1.0872547626495361,0.013470306992530823,-0.0007764163892716169,0.0018178607570007443,-0.5,5.5,-998.5,16.5,1.5,4.5,-35.3631103,149.1648857,64727.5,-8.0,-2.0,-54.5,RTL
06:47:56,72648.0,-0.0023897240753285587,0.0011869736772496253,-1.087717890739441,-0.5459344238042831,-0.000768944388255477,0.0021928001660853624,-0.5,-17.0,-988.5,-543.0,1.5,5.0,-35.36311085,149.16488535000002,65299.0,-5.0,-0.5,-0.5,RTL
06:47:57,190945.0,0.01568602363113314,0.0003957221706514247,-1.0882516503334045,0.41243660752661526,-0.00010573840700089931,-0.0006181708886288106,-2.75,20.5,-1013.25,415.0,1.75,2.25,-35.363111374999995,149.164885,65279.5,-1.25,1.0,1.75,RTL
06:47:58,190945.0,0.02338360156863928,0.0005823756218887866,-1.0875256657600403,0.4204031229019165,0.000305982306599617,0.001579774310812354,-0.5,22.0,-1037.0,423.0,2.5,4.0,-35.3631123,149.1648844,65396.0,7.0,5.5,-28.5,RTL
06:48:00,190945.0,0.01529258443042636,0.0029048806754872203,-1.0875109434127808,0.05765625834465027,-0.0011630395310930908,-0.0013230215990915895,0.0,-3.5,-967.5,60.5,1.0,1.5,-35.363112650000005,149.164884,66337.5,15.0,9.5,-37.5,RTL
06:48:01,194718.0,0.01349182054400444,0.0036422887933440506,-1.087420493364334,0.1377137489616871,0.00108938425546512,-0.0007054016750771552,0.25,3.5,-970.5,140.75,3.75,2.5,-35.3631125,149.164884075,66520.25,14.25,9.25,-11.5,RTL
06:48:02,194718.0,0.010186293628066778,0.004139013355597854,-1.0877341032028198,0.5743083357810974,0.0006012388039380312,0.0021809041500091553,0.5,23.0,-1003.0,577.5,2.5,5.0,-35.363111950000004,149.1648844,66538.5,12.0,8.5,3.0,RTL
06:48:04,194718.0,-0.016095056664198637,0.004004999762400985,-1.0870163440704346,-0.10424000769853592,-0.0016531789442524314,0.000761902891099453,1.0,-2.5,-1022.5,-101.0,1.0,4.0,-35.36311025,149.1648856,66909.0,-2.0,1.0,-48.0,RTL
06:48:05,225170.0,-0.015164084732532501,0.002931268129032105,-1.0870531499385834,0.03337426483631134,-0.0008588978089392185,0.00044859631452709436,0.25,1.75,-987.75,36.5,1.75,3.25,-35.363109824999995,149.164885975,67299.75,-7.75,-1.5,-49.75,RTL
06:48:06,225170.0,-0.009805240435525775,0.0015677792835049331,-1.0874353051185608,0.2473161593079567,0.0008929335745051503,0.0024059232091531157,0.0,19.5,-965.5,251.0,3.0,5.0,-35.3631096,149.16488625,67744.5,-13.0,-5.0,-11.5,RTL
06:48:08,225170.0,-0.0009004988241940737,-0.0004875266022281721,-1.0880516171455383,-0.3362816981971264,-0.005292942048981786,-0.0005993883823975921,-0.5,-23.5,-1018.5,-333.5,-2.0,2.5,-35.36311,149.164886,67754.0,-14.0,-5.5,-4.5,RTL
06:48:09,56875.0,0.0019402674515731633,-0.0008355331228813156,-1.0875633358955383,0.04132838919758797,0.0014549163170158863,0.0012235973263159394,-1.0,2.75,-1031.25,44.0,4.0,4.25,-35.363110425,149.164885825,67898.75,-9.75,-3.75,-30.0,RTL
06:48:10,56875.0,0.011624671518802643,-0.0009333207708550617,-1.0873181819915771,0.061919331550598145,-0.0050707426853477955,0.000206433585844934,-2.0,-2.0,-988.5,64.0,-2.0,2.5,-35.36311125,149.16488535000002,68473.0,-3.5,-0.5,-53.0,RTL
06:48:12,56875.0,0.029931355267763138,-0.0002866704307962209,-1.0880281329154968,0.1905212178826332,-0.0028850228991359472,-0.0031012584222480655,-2.0,-6.5,-984.5,192.5,0.0,0.0,-35.36311285,149.16488420000002,69010.0,10.5,5.5,1.0,RTL
06:48:13,200.0,0.019583575893193483,0.0012831852181989234,-1.0876181423664093,0.014443688094615936,0.0031857258873060346,0.002496961737051606,-0.75,9.75,-1006.0,18.25,6.0,5.75,-35.363113175,149.16488395,68989.75,17.5,8.75,1.75,RTL
06:48:14,200.0,0.011226727161556482,0.0042020161636173725,-1.0871338844299316,-0.01885603368282318,-2.7359637897461653e-05,0.004848139826208353,2.0,5.5,-1031.5,-15.0,2.5,8.0,-35.36311285,149.16488395,69104.5,20.5,11.0,-29.0,RTL
06:48:16,200.0,-0.0026931343018077314,0.003486128058284521,-1.0869691371917725,0.02260465919971466,-0.0026002186932601035,-0.0012984377099201083,0.5,-9.5,-962.5,26.0,0.0,1.5,-35.3631112,149.16488495,70038.5,5.5,5.0,-37.5,RTL
06:48:17,110340.0,0.0011037506919819862,0.0023866413393989205,-1.0874249637126923,0.21206288784742355,-0.0019891640404239297,0.0016126096015796065,0.25,9.5,-972.0,215.5,0.5,4.75,-35.363111,149.16488514999998,70212.5,1.5,3.0,-11.25,RTL
06:48:18,110340.0,-0.006157915107905865,0.0038768877275288105,-1.0874369740486145,-0.17343136481940746,0.0034868954680860043,0.005125646130181849,0.0,11.5,-1002.5,-169.0,6.0,8.5,-35.363110750000004,149.16488525,70230.5,0.0,1.0,3.0,RTL
06:48:20,110340.0,0.0052950268145650625,0.000878601596923545,-1.0871175527572632,-0.06792840361595154,0.001427820767275989,-0.000454734661616385,-1.0,-5.5,-1018.5,-64.5,4.0,3.0,-35.36311095000001,149.16488525,70643.0,-2.5,1.0,-48.0,RTL
06:48:21,72164.0,0.009317636431660503,-0.00014168488633004017,-1.0870453417301178,-0.025463592261075974,-0.0013270278868731111,0.0014955656370148063,-0.75,0.75,-980.0,-21.75,1.25,4.5,-35.363111425,149.16488505,71022.25,0.0,2.0,-45.75,RTL
06:48:22,72164.0,0.013362903613597155,0.0007094729953678325,-1.0876765251159668,-0.14813300967216492,0.0034120538039132953,-0.002006998169235885,-0.5,-15.5,-967.5,-145.0,6.0,1.5,-35.363112,149.16488470000002,71402.5,6.0,4.0,-7.0,RTL
06:48:24,72164.0,0.014235368464142084,0.0018502208404242992,-1.0875239968299866,0.4026315212249756,-0.0014289430109784007,0.001481665181927383,0.5,16.0,-1036.5,406.0,1.5,5.0,-35.3631123,149.1648844,71409.5,11.5,7.0,-9.5,RTL
06:48:25,200.0,0.008524445351213217,0.0017424483376089483,-1.08716282248497,-0.050791893154382706,0.0015661249635741115,-4.122208338230848e-06,0.0,-4.25,-1030.5,-47.0,4.0,3.25,-35.3631122,149.164884525,71591.0,11.5,6.75,-33.0,RTL
06:48:26,200.0,0.005032721906900406,0.0019450712716206908,-1.0870035290718079,0.23494883999228477,-0.002959427540190518,0.0004790587117895484,0.0,4.5,-980.5,238.5,0.0,4.0,-35.36311175,149.16488485000002,72178.0,9.0,5.5,-47.0,RTL
06:48:28,200.0,-0.007202735054306686,0.0027737480122596025,-1.0877273678779602,-0.008595719933509827,0.0010698438854888082,0.0007712598890066147,-1.0,12.0,-1004.0,-3.5,3.5,4.0,-35.36311095000001,149.16488525,72564.0,1.5,1.5,2.0,RTL
06:48:29,300000.0,-0.000608431757427752,0.0020939603564329445,-1.0876347422599792,-0.276871457695961,0.0012269756407476962,0.0001716981641948223,0.0,-20.5,-1011.0,-273.0,4.0,3.75,-35.3631109,149.1648853,72548.25,-0.25,0.25,0.5,RTL
06:48:30,300000.0,-0.0024942285381257534,0.002421004814095795,-1.0870620012283325,-0.2097211629152298,0.002227004384621978,-0.00023188663180917501,0.0,-17.5,-1031.5,-206.0,5.0,3.5,-35.3631108,149.16488535000002,72729.0,-1.0,0.0,-33.5,RTL
06:48:32,300000.0,-0.005873487680219114,0.001679642009548843,-1.0872302055358887,-0.0981065183877945,0.0016046750824898481,0.0006893806857988238,0.5,5.5,-959.5,-93.5,4.0,4.0,-35.3631105,149.1648856,73610.0,-4.5,-1.0,-23.5,RTL
06:48:33,49720.0,-0.0021285620459821075,0.0011243270128034055,-1.0874243080615997,-0.18277376145124435,0.0007381128380075097,0.001538993848953396,-0.25,-9.25,-979.75,-178.75,3.5,4.75,-35.363110625,149.164885575,73700.0,-5.0,-1.25,-2.5,RTL
06:48:34,49720.0,0.006980954553000629,-0.0008865541603881866,-1.0876060128211975,-0.19559863209724426,-0.0036689535481855273,-0.0011268167290836573,-1.0,-20.5,-1011.0,-192.5,-0.5,2.0,-35.3631112,149.16488535000002,73677.0,-1.5,0.0,1.0,RTL
06:48:36,49720.0,0.014326431788504124,0.00042743807716760784,-1.0870494842529297,0.1556299440562725,0.0008624531328678131,0.0008908167947083712,0.0,5.5,-1009.0,159.0,3.5,4.5,-35.36311205,149.1648849,74233.5,6.0,2.0,-53.5,RTL
06:48:37,300000.0,0.007956273620948195,0.0005996441286697518,-1.087003231048584,-0.011078599840402603,-0.002248392382171005,-0.0011634404654614627,0.0,-1.25,-974.5,-6.75,0.5,2.25,-35.363112025,149.164884825,74619.25,8.25,3.0,-44.0,RTL
06:48:38,300000.0,0.00854072067886591,0.003012244589626789,-1.0872938632965088,0.6101311147212982,0.0022407103097066283,-0.00021905708126723766,0.5,27.0,-973.0,614.5,5.5,3.0,-35.363111599999996,149.164885,74938.5,7.5,2.5,-3.0,RTL
06:48:40,300000.0,-0.011829026509076357,0.0022226522560231388,-1.0871174931526184,-0.4077858626842499,-0.0008295982261188328,0.0004889819538220763,0.0,-18.5,-1033.0,-403.5,1.5,3.5,-35.363110649999996,149.16488555,74961.0,-1.5,0.0,-17.5,RTL
06:48:41,300000.0,-0.005393671570345759,0.0010591218451736495,-1.087048888206482,0.05832582712173462,-0.0012324359850026667,0.0008212315733544528,-0.25,1.25,-1024.75,62.5,1.75,4.25,-35.3631104,149.1648858,75201.25,-4.25,-1.5,-41.25,RTL
06:48:42,300000.0,-0.006699216086417437,-0.00041853908987832256,-1.0869374871253967,0.049251943826675415,-0.00529856514185667,0.0016633060295134783,0.5,10.5,-970.5,54.0,-1.5,5.0,-35.36311035,149.164886,75818.5,-6.5,-3.0,-43.5,RTL
06:48:44,300000.0,-0.005669817444868386,0.0008679915044922382,-1.087855577468872,-0.4829135686159134,3.777327947318554e-06,0.0023212601663544774,-0.5,-27.5,-995.0,-479.0,3.0,6.0,-35.36311055,149.1648858,76109.5,-6.0,-3.5,3.0,RTL
06:48:45,272059.0,0.0008399403013754636,0.0011705569486366585,-1.0874672532081604,0.17008685320615768,-0.0003757987869903445,0.0021946801571175456,0.0,10.5,-1021.0,174.5,2.25,5.75,-35.3631106,149.1648857,76102.25,-5.0,-2.25,-3.75,RTL
06:48:46,272059.0,0.0009445562318433076,0.0007980972877703607,-1.0872784852981567,0.25974803417921066,-0.0018168138340115547,0.0012175978627055883,0.0,16.0,-1036.5,263.5,0.5,4.5,-35.3631106,149.1648857,76375.0,-4.0,-2.0,-42.5,RTL
06:48:48,272059.0,0.006909827468916774,-0.0010147137218154967,-1.0874083638191223,0.31547817029058933,-0.0016868640086613595,-0.0032402470242232084,0.0,9.0,-963.5,319.0,1.0,0.5,-35.36311105,149.16488555,77289.0,-1.5,-1.0,-21.0,RTL
06:48:49,72934.0,0.004454284033272415,0.00013100566593493568,-1.0875529646873474,0.052211977541446686,0.002314911864232272,0.0014931176556274295,-0.75,10.5,-992.0,56.75,5.25,5.0,-35.36311125,149.164885375,77360.5,0.0,-0.25,-1.75,RTL
06:48:50,72934.0,-0.0027185571379959583,0.001221025304403156,-1.0876269340515137,-0.46021850407123566,0.0012304835254326463,0.00298601808026433,0.0,-10.5,-1017.5,-455.5,4.0,6.5,-35.3631114,149.1648852,77337.5,2.0,0.5,0.0,RTL
06:48:52,72934.0,-0.002447623002808541,0.00182151555782184,-1.0868046879768372,-0.20807098597288132,0.0006617156323045492,0.0013699601404368877,0.5,-7.0,-1001.5,-203.5,4.0,4.5,-35.3631113,149.1648852,77957.0,2.0,1.0,-53.0,RTL
06:48:53,40099.0,0.0008041875553317368,0.0008726914165890776,-1.086937040090561,0.011716429144144058,-0.0013135246990714222,0.0007624406134709716,0.5,1.75,-971.75,16.0,1.5,4.25,-35.3631112,149.1648853,78326.75,1.0,0.25,-40.25,RTL
06:48:54,40099.0,-0.009973532985895872,0.0004965601547155529,-1.0871607065200806,-0.4806423485279083,-0.0014436573255807161,0.003439410822466016,0.0,-8.5,-980.0,-476.0,1.5,7.0,-35.363111,149.16488544999999,78597.0,0.0,0.0,-1.5,RTL
06:48:56,40099.0,0.005092256353236735,0.0011632498062681407,-1.0867267847061157,0.2970126047730446,-0.0043397326953709126,-0.0014162866864353418,0.0,7.0,-1036.5,300.5,-1.0,2.5,-35.3631109,149.1648855,78647.0,-0.5,-0.5,-21.5,RTL
06:48:57,141787.0,0.0002175660920329392,-0.00040436323399717367,-1.0871392786502838,-0.03539796359837055,-0.0021116545831318945,0.0016883204225450754,-0.25,-1.25,-1023.25,-31.5,0.75,5.25,-35.363110975,149.1648855,78914.75,-1.25,-0.5,-43.25,RTL
06:48:58,141787.0,0.005311787157552317,-0.002423462923616171,-1.0868819952011108,-0.12304867058992386,-0.0011605238541960716,-0.0028272982453927398,0.0,-13.0,-966.5,-119.5,2.0,1.0,-35.36311135,149.1648855,79525.5,0.5,-0.5,-39.0,RTL
06:49:00,141787.0,0.0029271591920405626,0.0005861541358171962,-1.087293803691864,0.5369431227445602,-0.0014936112565919757,-0.0007810951210558414,-0.5,33.5,-999.0,541.0,1.5,3.0,-35.36311125,149.1648855,79755.0,1.5,-0.5,3.0,RTL
06:49:01,272863.0,0.0014823678648099303,0.0007921852884464897,-1.0874937176704407,-0.013928785920143127,0.0006180456257425249,2.6670924853533506e-05,0.25,-5.75,-1026.75,-9.75,3.25,3.5,-35.363111125,149.1648855,79758.75,0.25,-0.75,-8.25,RTL
06:49:02,272863.0,-0.010544440243393183,0.0014439521473832428,-1.0869014263153076,-0.23020727932453156,0.00014324765652418137,-0.0006289265584200621,0.5,-9.0,-1022.0,-225.5,3.0,3.0,-35.363110649999996,149.16488575,80100.5,-1.5,-2.0,-46.0,RTL
06:49:04,272863.0,-0.0059134860639460385,-0.0006040115986252204,-1.0872734785079956,0.34596717718522996,-0.0038258146960288286,0.0025388291105628014,0.0,25.5,-965.0,350.0,-0.5,6.0,-35.36311015,149.1648862,80933.5,-8.5,-5.5,-12.0,RTL
06:49:05,246564.0,-0.001313356144237332,-0.0012022246519336477,-1.0877146422863007,-0.012777488678693771,0.0008789149578660727,-0.0009415004169568419,-1.5,-7.0,-983.25,-9.25,3.25,3.0,-35.363110375,149.16488605,80966.0,-8.0,-5.5,0.75,RTL
06:49:06,246564.0,0.005174164776690304,-0.0014457257930189371,-1.0873405933380127,-0.1973422826267779,0.0010283230803906918,-0.00408322480507195,0.0,-25.0,-1019.0,-194.5,3.5,0.0,-35.36311085,149.16488575,80947.0,-5.0,-4.0,-3.5,RTL
06:49:08,246564.0,-0.0037049389065941796,0.0006440405559260398,-1.0867220759391785,0.028368934988975525,-0.0009098073933273554,-0.002089653513394296,0.5,-6.0,-989.5,32.0,2.0,1.5,-35.363110750000004,149.16488575,81643.5,-2.5,-3.0,-50.0,RTL
06:49:09,44204.0,-0.00524749967007665,-0.0001081027221516706,-1.0869414806365967,0.041214264929294586,-0.002309990959474817,-0.001179032027721405,0.25,-2.0,-969.25,44.5,0.5,2.5,-35.363110625,149.1648859,81969.5,-3.75,-3.5,-31.25,RTL
06:49:10,44204.0,0.002592670585727319,-0.0008072699420154095,-1.0872503519058228,0.5084105134010315,-0.0021055537508800626,-0.0019728431943804026,0.0,17.0,-986.5,511.0,0.5,1.5,-35.3631105,149.164886,82144.5,-5.5,-4.5,2.0,RTL
06:49:12,44204.0,-0.0011606794723775238,-0.0006967073422856629,-1.0868822932243347,-0.3100379668176174,-0.000359882484190166,0.004012248711660504,-0.5,-5.5,-1033.0,-306.0,2.0,7.5,-35.36311095000001,149.16488575,82247.0,-3.0,-3.5,-28.5,RTL
06:49:13,269084.0,0.00364845672629599,-0.0005506602465175092,-1.086832344532013,0.09121106192469597,0.0008321289205923676,-5.8583333157002926e-05,-0.25,5.25,-1017.5,94.5,3.25,3.25,-35.3631111,149.1648857,82561.25,-0.75,-2.5,-48.0,RTL
06:49:14,269084.0,-0.005531078844796866,0.0006101347098592669,-1.0867526531219482,0.19395820051431656,-0.001520116114988923,0.0018823947757482529,0.5,12.0,-966.5,197.5,0.5,5.0,-35.36311085,149.1648857,83166.0,-0.5,-3.0,-33.5,RTL
06:49:16,269084.0,-0.0044295952102402225,0.00033830480242613703,-1.0873361229896545,-0.17010240256786346,0.0007334008114412427,-0.001637930516153574,-0.5,-24.0,-1006.5,-167.5,3.0,2.0,-35.3631104,149.1648859,83314.5,-6.5,-4.0,3.0,RTL
06:49:17,300000.0,-0.0031597974884789437,1.0456791642354801e-05,-1.0872846245765686,0.03958563320338726,-0.002363213279750198,0.0016767404740676284,0.25,4.0,-1028.75,42.5,0.5,5.25,-35.363110475,149.1648859,83353.5,-6.0,-4.0,-13.75,RTL
06:49:20,300000.0,0.008083263644948602,-0.0010738085256889462,-1.0872413516044617,0.27768678101710975,-0.0012603242648765445,-0.003526420332491398,0.0,-3.0,-974.5,279.5,1.0,0.0,-35.3631108,149.16488585000002,84512.5,-5.0,-4.5,-6.5,RTL
06:49:21,202827.0,0.0018750063609331846,-0.0007316745613934472,-1.0874767005443573,-0.060877323150634766,-0.0002930483897216618,0.0014728016685694456,-0.25,6.25,-991.25,-58.0,2.0,4.75,-35.363111,149.164885675,84518.75,-2.25,-3.0,2.0,RTL
06:49:22,202827.0,-0.003727417846675962,-0.00031585062242811546,-1.0872655510902405,-0.4278199225664139,-0.0013810773962177336,0.0001240420388057828,-1.0,-14.0,-1034.0,-424.0,1.0,3.5,-35.36311125,149.16488544999999,84536.0,0.0,-0.5,-15.0,RTL
06:49:26,202827.0,-2.503104042261839e-05,0.0009408362384419888,-1.0874812006950378,-0.45379385352134705,0.00037660542875528336,0.001362767070531845,-1.0,-3.5,-994.5,-449.5,2.5,5.0,-35.3631123,149.1648847,85781.5,11.5,4.0,2.5,RTL
06:49:27,122863.0,0.013114758068695664,0.0009725117852212861,-1.0872412323951721,0.12282804399728775,-0.0005074117507319897,-0.0005426401039585471,-0.5,2.0,-1016.75,125.75,1.5,3.0,-35.3631123,149.16488462499998,85764.0,11.5,5.0,-1.5,RTL
06:49:30,122863.0,0.009199004620313644,0.00031544053490506485,-1.0867729783058167,-0.3990156054496765,0.003200588980689645,0.0002809407887980342,0.0,-12.5,-952.5,-394.0,5.0,3.5,-35.3631128,149.16488435000002,86930.5,15.5,7.0,-27.0,RTL
06:49:31,284179.0,0.013183550057874527,0.001998176332563162,-1.0870398581027985,0.06037689559161663,0.0024114083498716354,-0.002196525048930198,0.75,-3.5,-981.5,64.25,4.5,1.5,-35.363112550000004,149.1648844,87042.0,16.0,7.0,-5.0,RTL
06:49:32,284179.0,0.006918127415701747,0.003310246509499848,-1.0866879224777222,0.4008656516671181,-0.0012194715673103929,0.0005839494988322258,2.0,5.5,-1014.0,404.5,1.5,4.0,-35.363111700000005,149.16488485000002,87030.0,11.0,5.5,1.0,RTL
06:49:34,284179.0,-0.0055022528395056725,0.0008997078402899206,-1.0865057110786438,0.23885977268218994,-0.0015904346946626902,0.0008824809920042753,1.0,4.0,-1012.5,242.5,1.0,4.5,-35.36311044999999,149.16488594999998,87554.5,-2.0,-1.5,-52.0,RTL
06:49:35,300000.0,-0.014459077501669526,0.0002863215049728751,-1.0864636600017548,-0.1033206656575203,0.00019742688164114952,0.0004098076024092734,0.5,-6.5,-975.0,-99.5,2.0,4.0,-35.363110025,149.1648863,87943.0,-5.75,-4.5,-44.75,RTL
06:49:36,300000.0,-0.008619988802820444,0.00030230210114723377,-1.0869230031967163,0.14565126597881317,-0.0015470247017219663,-0.0018950466765090823,0.0,2.0,-977.0,148.5,1.0,1.5,-35.3631096,149.1648866,88283.5,-13.0,-8.5,-5.0,RTL
06:49:38,300000.0,-0.015696622896939516,-0.00033783697290346026,-1.0870002508163452,-0.32608501613140106,0.001951431157067418,0.0014499585377052426,-0.5,-5.0,-1043.5,-321.5,4.0,5.0,-35.36310975,149.1648865,88292.5,-14.0,-9.0,-13.0,RTL
06:49:39,171511.0,-0.004295706035918556,-0.00022206767243915237,-1.0867026448249817,0.07134432718157768,-0.0007237482350319624,0.0003745051799342036,-0.75,3.5,-1030.0,74.5,1.75,4.0,-35.36310995,149.16488635000002,88502.25,-12.75,-7.75,-37.75,RTL
06:49:40,171511.0,-0.002192647662013769,-0.0012496260460466146,-1.086847186088562,0.1672813445329666,-0.00041651795618236065,0.0014267327496781945,-0.5,12.0,-980.5,170.5,1.5,4.5,-35.363110250000005,149.16488615,89109.0,-9.5,-6.0,-45.5,RTL
06:49:42,171511.0,-0.0033544208854436874,-0.0009380817064084113,-1.0873748064041138,-0.6383028328418732,8.140230784192681e-05,0.0007540410151705146,0.0,-22.5,-996.5,-635.0,2.0,4.0,-35.36311095000001,149.16488565,89448.5,-4.0,-3.5,4.0,RTL
06:49:43,200.0,0.006061981141101569,-0.00045918299292679876,-1.0870259404182434,0.11088124848902225,0.000334734795615077,-0.0017505826544947922,0.0,1.75,-1017.5,113.5,2.75,2.0,-35.36311117499999,149.164885525,89435.0,-1.0,-2.0,-1.0,RTL
06:49:44,200.0,0.005875957198441029,0.0003082921903114766,-1.087144136428833,0.35117417573928833,-0.0006791841005906463,-0.002507430501282215,0.0,9.0,-1031.0,353.0,1.0,1.0,-35.3631112,149.1648855,89613.0,0.0,-1.0,-34.0,RTL
06:49:46,200.0,-0.010245387442409992,6.574179860763252e-05,-1.0872840881347656,-0.5154854655265808,0.0030878218822181225,-0.0023237377172335982,0.3333333333333333,-17.333333333333332,-967.0,-424.6666666666667,3.3333333333333335,2.0,-35.3631108,149.16488565,90520.5,-3.0,-2.0,-17.5,RTL
06:49:47,67788.0,-0.0025604322436265647,0.0011448298100731336,-1.087607204914093,0.10679448395967484,0.00027531941304914653,0.0009571624686941504,0.3333333333333333,10.0,-983.0,334.6666666666667,2.3333333333333335,4.333333333333333,-35.363110625,149.1648857,90580.5,-3.75,-2.75,-0.5,RTL
06:49:48,67788.0,0.0021974502742523327,0.0006915928679518402,-1.087266445159912,0.49126094579696655,0.0011181922163814306,-0.00035173201467841864,0.0,-2.0,-1009.0,6.0,4.0,4.5,-35.3631105,149.1648858,90559.5,-5.0,-3.0,-1.5,RTL
06:49:50,67788.0,0.001111327321268618,-0.0011158628622069955,-1.086802363395691,0.3749847412109375,0.0003766505979001522,0.0006695056799799204,0.0,13.5,-1021.5,348.0,2.0,4.0,-35.3631105,149.164886,91125.0,-6.0,-4.0,-52.0,RTL
06:49:51,20968.0,0.00171498185954988,-0.0022400567831937224,-1.0868545770645142,0.010630476754158735,-0.002198465692345053,-0.0007029310800135136,-0.75,0.75,-975.0,13.25,0.0,2.5,-35.36311075,149.164885925,91443.0,-5.5,-4.0,-44.75,RTL
06:49:52,20968.0,0.015553282418598732,-0.0014507339801639318,-1.0870576699574788,0.12892361481984457,-0.0015438208356499672,-0.00047757763726015884,-2.5,0.5,-972.0,119.5,2.0,4.5,-35.3631113,149.16488555,91743.0,-2.0,-3.0,-14.0,RTL
06:49:54,20968.0,0.01051526889204979,0.0001589981693541631,-1.087215781211853,0.05417130887508392,0.0032295403070747852,-0.0015410111518576741,-0.5,3.5,-1029.5,57.5,5.0,1.5,-35.363112,149.1648849,91795.0,7.0,2.0,-9.5,RTL
06:49:55,270285.0,0.007132290018489584,0.0009130487160291523,-1.086723417043686,-0.0340272169560194,0.00015161369810812175,0.0005192406824789941,-0.25,0.25,-1027.25,-30.75,2.0,3.75,-35.363112025,149.1648848,92031.0,9.0,3.25,-40.0,RTL
06:49:56,270285.0,0.003188429807778448,0.0013336192932911217,-1.0862844586372375,-0.024417869746685028,-0.0030710065038874745,-0.00039989675860852003,0.0,6.0,-991.0,-20.5,-1.0,2.5,-35.363111849999996,149.1648849,92520.0,8.0,3.5,-48.5,RTL
06:49:58,270285.0,0.005728356307372451,0.0012111038086004555,-1.087166965007782,-0.04765656590461731,-0.002731303102336824,0.0005402717506513,0.0,-1.0,-981.5,-44.5,-0.5,3.5,-35.36311165,149.16488495,93006.5,5.0,2.5,0.0,RTL
06:49:59,255507.0,0.004869384352787165,0.0007624710124218836,-1.087141901254654,0.016883008182048798,-0.0018150940304622054,0.002992712485138327,-0.25,9.0,-1027.25,20.75,0.0,6.0,-35.3631117,149.1648849,92989.0,5.75,3.0,-1.0,RTL
06:50:00,255507.0,0.012030647136271,0.00013361251330934465,-1.0867323279380798,0.20340881031006575,-0.00036555109545588493,0.001363913295790553,0.0,3.0,-1030.0,205.5,1.0,4.5,-35.3631118,149.1648849,93148.0,6.5,3.0,-30.5,RTL
06:50:02,255507.0,0.0029167983448132873,0.0003684369476104621,-1.0866621136665344,-0.3127778470516205,0.003162174019962549,-0.00025810464285314083,0.5,-19.5,-963.5,-309.5,5.0,3.0,-35.3631118,149.1648851,94003.5,7.5,2.0,-30.0,RTL
06:50:03,221704.0,-6.591679994016886e-05,0.0010418457677587867,-1.0869080424308777,0.09030568040907383,-0.0009385126177221537,0.0003546133521012962,0.5,9.0,-985.75,93.5,1.25,3.25,-35.363111450000005,149.1648853,94168.25,6.0,0.75,-1.75,RTL
06:50:04,221704.0,-0.0037454559933394194,0.0006614624871872365,-1.0869775414466858,-0.14194677770137787,-0.0012036882690154016,-0.00047381094191223383,0.5,-6.0,-999.0,-138.5,0.5,2.5,-35.3631111,149.1648855,94155.0,2.0,-0.5,1.0,RTL
06:50:06,221704.0,-0.014048668090254068,0.0009118738526012748,-1.0862875580787659,0.2513557896018028,-0.0020938158268108964,0.0023663321044296026,2.5,15.0,-1014.0,254.5,0.0,5.5,-35.3631101,149.16488629999998,94640.0,-3.5,-4.5,-46.5,RTL
06:50:07,164699.0,-0.025890821125358343,0.0011096808448201045,-1.0866072475910187,-0.10192452743649483,-0.00024349644081667066,-0.00011470029130578041,0.5,0.0,-968.75,-98.75,1.25,3.25,-35.363109325,149.1648868,95112.25,-12.0,-8.5,-35.25,RTL
06:50:08,164699.0,-0.020154361613094807,8.240342140197754e-06,-1.0869753956794739,0.028658747673034668,0.0004778403090313077,0.0018241496291011572,0.0,8.5,-972.0,31.5,2.0,5.0,-35.363109,149.16488705,95313.0,-19.0,-11.5,-6.0,RTL
06:50:10,164699.0,-0.010237275972031057,-0.0019372972892597318,-1.0868757963180542,-0.18060647696256638,0.0015078788856044412,-0.0023377505131065845,-0.5,-11.5,-1026.5,-178.5,3.0,1.0,-35.3631096,149.16488675,95366.5,-18.0,-11.5,-16.0,RTL
