time_stamp,RTL_ALT,MODE,roll,pitch,yaw,rollspeed,pitchspeed,yawspeed,lat,lon,relative_alt,vx,vy,vz,xacc,yacc,zacc,xgyro,ygyro,zgyro
23:20:11,1500.0,STABILIZE,-7.979866495588794e-05,0.0014211690286174417,0.02915678732097149,0.0002526049502193928,0.00025026468210853636,0.0024555642157793045,-35.3632621,149.1652374,0.0,0.0,0.0,0.0,0.0,1.0,-1000.0,0.0,0.0,0.0
23:20:15,1500.0,STABILIZE,-0.00024069439677987248,0.0012206154642626643,0.02664049156010151,0.00025122161605395377,0.00017802452202886343,0.002208756050094962,-35.3632622,149.1652374,0.0,-1.0,1.0,-1.0,0.0,1.0,-1000.0,0.0,0.0,0.0
23:20:29,1500.0,AUTO,-0.0009582786879036576,0.0010469802655279636,0.02184147574007511,0.00037925137439742684,0.00024462348665110767,0.0015554230194538832,-35.36326215,149.1652375,8.0,-0.5,0.5,0.0,0.0,1.5,-1000.0,0.0,0.5,0.0
23:20:31,1500.0,AUTO,-0.0005439400993054733,0.0015344360726885498,0.02133906353265047,0.00029291739338077605,0.0002507779572624713,0.0014284180360846221,-35.3632621,149.1652375,8.0,0.0,0.0,0.0,0.0,1.0,-1000.0,0.5,0.5,0.0
23:20:32,25012.0,AUTO,0.001779611993697472,0.0005981831563985907,0.021170254331082106,0.0050060029461747035,-0.0013310670910868794,0.0010813156332005747,-35.3632621,149.1652375,74.0,0.0,0.0,-29.5,0.0,0.25,-1090.75,5.5,-1.0,0.0
23:20:33,25012.0,AUTO,0.012334530532825738,6.596767343580723e-05,0.020655561238527298,0.018889532424509525,-0.0021661154460161924,0.0019482024945318699,-35.36326205,149.1652375,918.5,0.5,3.0,-123.0,0.0,-0.5,-1062.0,19.5,-1.5,1.0
23:20:35,25012.0,AUTO,-0.0015535596758127213,0.03445492219179869,-0.07792201824486256,-0.09496434964239597,0.041894047521054745,-0.08261337131261826,-35.3632612,149.16524314999998,3890.5,-0.5,44.0,-146.5,4.5,-10.0,-996.5,-94.0,42.5,-83.0
23:20:37,26228.5,AUTO,-0.020162461325526237,-0.030625884421169758,-0.0685250572860241,0.059886423870921135,0.004015842219814658,0.02030956419184804,-35.36326285,149.165243,6959.5,3.0,-43.0,-150.5,-4.5,6.5,-1001.5,60.0,4.5,19.5
23:20:39,27445.0,AUTO,0.021331398747861385,0.014586098957806826,-0.09513197466731071,-0.011533802840858698,-0.0032285077613778412,-0.0008637922583147883,-35.36326115,149.16523535,10068.5,3.5,-11.0,-151.0,-3.0,1.5,-999.5,-10.5,-2.5,-1.5
23:20:41,27445.0,AUTO,0.0029747277148999274,0.0021696894837077707,-0.10497456043958664,-0.0034752633655443788,-0.0020967306627426296,-0.012170718982815742,-35.363261449999996,149.16523505,13171.0,-4.5,5.0,-151.5,1.0,0.0,-1000.0,-2.5,-1.0,-12.0
23:20:42,21230.0,AUTO,0.001540606579510495,0.0006579643159057014,-0.12243880331516266,0.00040293639176525176,0.0009470238874200732,-0.019641858525574207,-35.363261675000004,149.1652354,14730.0,-2.0,3.5,-152.0,0.0,0.0,-1000.0,0.75,1.0,-19.5
23:20:43,21230.0,AUTO,0.002878802828490734,0.002452110464219004,-0.1451023891568184,0.0014234510017558932,0.0033385176211595535,-0.022224100306630135,-35.3632617,149.1652356,16287.0,-1.0,2.0,-152.0,0.0,0.0,-1000.0,2.0,3.5,-22.0
23:20:45,21230.0,AUTO,0.0040455886628478765,0.004141253652051091,-0.18708326667547226,4.252977669239044e-05,0.00019666447769850492,-0.018833008594810963,-35.3632617,149.165236,19403.0,-2.0,4.5,-152.0,0.0,0.0,-1000.0,1.0,0.5,-18.5
23:20:47,12263.5,AUTO,0.002059110614936799,0.0031403584871441126,-0.22562375664710999,0.0015444395830854774,-0.0002887989394366741,-0.019803189672529697,-35.3632618,149.16523654999997,22522.0,-2.5,4.0,-153.0,0.0,0.0,-1000.0,2.0,0.0,-20.0
23:20:49,3297.0,AUTO,0.0031183535465970635,0.003324134973809123,-0.24467146396636963,-0.009574010036885738,-0.0009170309640467167,0.01600707438774407,-35.363262,149.1652368,25712.0,-3.5,1.5,-152.5,0.0,0.0,-995.5,-8.5,0.0,15.5
23:20:51,3297.0,AUTO,0.005025239195674658,0.0006735388597007841,-0.19379693269729614,-0.008050917647778988,-0.00016038375906646252,0.020702281966805458,-35.3632624,149.1652371,28891.5,-1.0,7.5,-152.0,0.5,-0.5,-1000.0,-7.0,0.0,20.0
23:20:52,48426.0,AUTO,0.0001804966050258372,0.0009350153850391507,-0.17538178712129593,-0.00232862526900135,0.000311809140839614,0.017204633448272943,-35.3632624,149.16523767500001,30444.25,0.0,6.0,-152.0,0.0,-1.0,-1000.0,-1.25,0.75,16.25
23:20:53,48426.0,AUTO,-0.0002318228116564569,0.0017526999581605196,-0.15886134654283524,0.0010772745590656996,0.001706526440102607,0.016291100531816483,-35.36326235,149.16523795,32002.5,0.0,2.5,-152.0,0.0,0.0,-999.5,1.5,2.0,15.5
23:20:55,48426.0,AUTO,0.0014134375960566103,0.0013954627211205661,-0.13252629339694977,-5.0342612667009234e-05,-0.0008846156706567854,0.013125192373991013,-35.3632622,149.16523795,35110.5,0.0,0.0,-152.5,0.0,0.0,-1000.0,0.5,0.0,12.5
23:20:57,48426.0,AUTO,-0.01901798287872225,0.024896990624256432,-0.051221841014921665,-0.07103573676431552,0.05802337732166052,0.24646676937118173,-35.3632621,149.1652375,38201.5,-5.0,-3.5,-146.0,0.0,0.5,-987.5,-70.0,59.0,246.0
23:20:58,10901.0,AUTO,-0.025458261603489518,0.010876198997721076,0.21964416652917862,0.06782908458262682,-0.12417857721447945,0.18162984517402947,-35.363263375,149.16523565,39557.25,-26.75,-31.0,-111.0,3.25,7.5,-949.75,68.75,-122.75,181.25
23:20:59,10901.0,AUTO,0.034506396390497684,-0.044451192021369934,0.24789998680353165,-0.012483665719628334,0.00937897153198719,-0.02566873747855425,-35.363264650000005,149.16523295000002,40456.0,-0.5,-6.0,-70.0,-0.5,2.0,-969.0,-11.5,10.0,-25.0
23:21:01,10901.0,AUTO,-0.00027188844978809357,0.012454232200980186,0.19399722665548325,-0.05440877377986908,0.013739280868321657,-0.019477417692542076,-35.363261949999995,149.1652368,41343.5,15.0,26.0,-19.5,-0.5,-5.5,-983.5,-53.5,14.5,-19.0
23:21:03,60518.5,AUTO,-0.02634574845433235,-0.0521272849291563,0.1600501611828804,-0.06866995990276337,-0.06873968802392483,-0.008003234048373997,-35.36326065,149.16523865,41297.5,20.0,-18.5,4.0,-5.0,-10.5,-1018.0,-68.0,-67.0,-7.5
23:21:05,110136.0,AUTO,-0.00943293422460556,-0.15030070394277573,-0.05731191858649254,-0.17709257593378425,-0.05133388191461563,-0.003773402248043567,-35.363244699999996,149.1652343,41401.5,184.5,-50.0,-15.0,-37.5,-32.0,-1012.0,-176.5,-50.0,-4.0
23:21:07,110136.0,AUTO,0.029358225874602795,-0.2013952136039734,-0.0783408060669899,-0.1028350330889225,-0.0242556631565094,-0.017683895770460367,-35.36319255,149.1652211,41912.0,409.0,-94.5,-35.5,-84.0,-58.5,-1012.5,-102.0,-22.5,-17.0
23:21:08,31483.0,AUTO,0.05316048767417669,-0.19431469589471817,-0.10670213028788567,0.012519993353635073,0.029143546242266893,-0.05800037831068039,-35.3631519,149.16521025,42323.0,513.0,-106.5,-46.0,-101.75,-51.0,-1010.0,12.75,29.5,-57.75
23:21:09,31483.0,AUTO,0.07873695716261864,-0.15642136335372925,-0.21764394640922546,0.0040735321235843,-0.044735269621014595,-0.15011180937290192,-35.363102999999995,149.16519755000002,42858.0,570.5,-118.0,-56.0,-103.5,-72.0,-984.5,4.0,-43.5,-149.5
23:21:11,31483.0,AUTO,0.1502688005566597,-0.11575623601675034,-0.48320601880550385,0.003246537409722805,0.0696409847587347,-0.014170344918966293,-35.3629891,149.1651697,43515.5,690.0,-123.0,-31.5,-102.0,-115.5,-1027.0,4.0,70.0,-13.5
23:21:13,76909.0,AUTO,0.0924934670329094,-0.07070414163172245,-0.4174007326364517,-0.04641399718821049,0.029398588463664055,0.03145741391927004,-35.362864450000004,149.16514565,44792.5,666.0,-102.5,-85.5,-114.0,-106.5,-1010.5,-45.5,30.0,31.0
23:21:15,122335.0,AUTO,0.09333581104874611,-0.0245729461312294,-0.06672134972177446,0.030911083333194256,0.10324994754046202,0.2531965021044016,-35.36275325,149.16512419999998,46719.5,559.5,-75.5,-83.0,-105.5,-66.5,-968.5,31.5,104.0,253.5
23:21:17,122335.0,AUTO,0.04047763906419277,0.06285933218896389,-0.03927801735699177,0.3684714548289776,-0.04404567275196314,-0.0022345837205648422,-35.36267635,149.1651085,47662.0,280.0,-76.5,-11.0,-63.0,-29.0,-997.5,368.0,-42.5,-1.5
23:21:18,39734.0,AUTO,0.04016159754246473,0.05040220636874437,-0.047735060565173626,-0.4705161713063717,0.014351642457768321,-0.0027032970683649182,-35.362655724999996,149.165100475,47780.25,175.25,-58.25,-10.75,-43.25,-33.75,-1006.5,-469.25,14.75,-2.0
23:21:19,39734.0,AUTO,0.0400250731036067,0.050685757771134377,-0.0583579633384943,0.07868394255638123,-0.01267285831272602,-0.013327590568223968,-35.362643899999995,149.1650956,47876.5,94.0,-25.0,-7.0,-22.5,-6.0,-995.5,79.5,-11.5,-12.5
23:21:21,39734.0,AUTO,0.01015746349003166,0.018306490732356906,-0.07668881490826607,-0.002676159143447876,-0.022312739863991737,-0.005343158962205052,-35.3626361,149.16509335,47920.5,5.0,1.0,0.0,-2.5,-3.5,-998.0,-2.5,-20.5,-4.0
23:21:23,22759.5,RTL,0.026562797836959362,-0.011229311348870397,-0.09244229644536972,0.5043842792510986,-0.0017519677057862282,-0.0038439739728346467,-35.362636550000005,149.16509159999998,47903.0,7.5,9.0,0.0,-1.0,18.0,-1006.5,505.0,-0.5,-2.0
23:21:25,5785.0,RTL,-0.00792740995530039,0.00411694694776088,-0.10120579600334167,0.21190134063363075,-0.004289306118153036,-0.01017690496519208,-35.3626357,149.16509274999999,48300.0,4.5,9.5,-55.5,3.0,2.5,-1048.0,212.5,-3.0,-8.5
23:21:27,5785.0,RTL,-0.010247549042105675,-0.0053540527587756515,-0.11182628944516182,0.013565062545239925,-0.00788816437125206,-0.005319029791280627,-35.362635749999995,149.1650956,50311.0,-0.5,-15.5,-137.0,0.5,-1.5,-1026.0,14.5,-6.5,-4.0
23:21:28,28638.0,RTL,0.03295282321050763,-0.012423436623066664,-0.11246353574097157,0.04334105923771858,-0.007567013497464359,-0.002279456239193678,-35.3626357,149.16509637500002,51802.0,5.75,0.5,-149.25,0.0,-2.0,-1000.5,43.25,-6.25,-1.5
23:21:29,28638.0,RTL,-0.013214895501732826,0.005028842599131167,-0.1510966569185257,-0.0852198526263237,0.042136878706514835,-0.07061943411827087,-35.362634799999995,149.1650995,53327.0,8.5,19.5,-147.0,2.5,-6.0,-1000.0,-84.0,42.5,-69.0
23:21:31,28638.0,RTL,-0.007360790856182575,0.005332686996553093,-0.1880870908498764,0.06433051452040672,0.008127043023705482,0.005200199084356427,-35.36263555,149.16509585,56390.5,-20.5,-52.5,-150.0,-5.5,12.5,-1002.0,64.0,8.5,6.0
23:21:33,92176.5,RTL,0.03551552630960941,-0.026251031551510096,-0.11724578589200974,-0.009426362812519073,0.015332036651670933,0.006334902718663216,-35.3626377,149.16508879999998,59501.0,9.5,4.0,-150.5,-3.5,0.5,-999.5,-8.5,16.0,7.0
23:21:35,155715.0,RTL,0.00430285424226895,0.01756438985466957,-0.18759382516145706,0.010137663688510656,-0.000785906333476305,-0.017205785028636456,-35.362634400000005,149.1650889,62607.0,0.5,7.0,-152.0,-1.5,-1.0,-1000.0,10.0,0.5,-15.5
23:21:37,155715.0,RTL,0.006468562409281731,0.0014727558591403067,-0.20725156366825104,-0.0033357845968566835,-0.004848295357078314,-0.013500291621312499,-35.36263505,149.16508950000002,65728.0,-11.0,14.0,-151.5,1.5,0.0,-999.5,-2.0,-3.0,-12.0
23:21:38,11105.0,RTL,0.003601673000957817,-0.002840415691025555,-0.22567234188318253,0.0003003243182320148,-0.0014373732556123286,-0.02228637970983982,-35.3626356,149.165090125,67286.25,-6.75,11.5,-152.0,1.25,0.0,-1000.0,1.0,-0.25,-20.75
23:21:39,11105.0,RTL,0.004006779287010431,-0.003120176028460264,-0.2406308948993683,0.0057065775617957115,0.0032737073488533497,-0.026917599141597748,-35.3626358,149.1650904,68261.0,-4.0,9.0,-152.0,0.0,0.0,-1000.0,6.0,4.0,-25.0
23:21:41,11105.0,RTL,0.0070965904742479324,0.0013198654633015394,-0.2928725481033325,0.002636981662362814,0.000926333712413907,-0.024947870522737503,-35.3626359,149.1650905,71538.0,0.0,8.0,-152.0,0.0,0.0,-1000.0,3.0,2.0,-23.0
23:21:43,11105.0,RTL,0.004763458855450153,0.0020725298672914505,-0.3368013799190521,-0.0013279449194669724,-0.0013070035493001342,-0.020570077002048492,-35.3626359,149.165091,74648.0,-2.0,9.0,-152.0,0.0,0.0,-1000.0,-1.5,0.0,-18.5
23:21:44,256204.0,RTL,0.00385613776743412,0.0013889037538319827,-0.36431819200515747,0.0006020510569214821,-0.00041685975156724453,-0.02009941041469574,-35.3626359,149.16509144,76601.4,-2.0,7.8,-152.0,0.0,0.0,-999.8,1.8,0.8,-18.4
23:21:45,256204.0,RTL,0.003928368911147118,0.0008793773013167083,-0.38056081533432007,0.0011353854788467288,-0.0004557509673759341,-0.0231581162661314,-35.3626359,149.1650916,77769.0,-2.0,7.0,-152.0,0.0,0.0,-1000.0,2.0,1.0,-22.0
23:21:47,256204.0,RTL,0.0035941291134804487,0.00021084163745399565,-0.42007309198379517,0.0003725631395354867,0.00021453312365338206,-0.01987648569047451,-35.362636,149.1650919,80691.0,-1.0,5.5,-152.0,0.0,0.0,-1000.0,1.5,1.5,-18.0
23:21:49,154142.0,RTL,0.00460624904371798,0.00041756656719371676,-0.39756640791893005,-0.0024514993419870734,-0.0025370375951752067,0.024638013914227486,-35.3626362,149.1650924,83794.5,-1.0,9.0,-152.0,0.5,0.0,-1000.0,-0.5,-0.5,25.5
23:21:51,52080.0,RTL,0.0017850322765298188,-0.0012987370719201863,-0.3566482812166214,-4.1218590922653675e-05,-8.738727774471045e-05,0.017575380392372608,-35.3626363,149.165093,86893.5,0.0,3.5,-152.0,0.0,0.0,-1000.0,2.0,1.0,18.5
23:21:53,52080.0,RTL,0.003430999000556767,-0.001090300764190033,-0.326974093914032,0.0003397298860363662,0.0011909514432772994,0.012894849292933941,-35.3626363,149.16509285,89998.0,0.0,1.5,-152.0,0.0,0.0,-999.5,1.5,2.5,13.5
23:21:54,63322.0,RTL,0.003954278712626547,-0.0008495558286085725,-0.3119463101029396,0.00035046011907979846,0.0014205091865733266,0.011838416801765561,-35.362636249999994,149.16509265,91939.5,0.0,2.0,-152.0,0.0,0.0,-1000.0,1.75,2.75,12.75
23:21:55,63322.0,RTL,0.003548195818439126,-0.00022606258426094428,-0.30431269109249115,0.0005223227199167013,0.002368217916227877,0.010210334789007902,-35.3626362,149.1650926,93106.5,0.0,2.0,-152.0,0.0,0.0,-1000.0,2.5,3.5,11.5
23:21:57,63322.0,RTL,0.002895851619541645,-0.0002362994200666435,-0.2874370664358139,-2.3113912902772427e-05,-3.701506648212671e-05,0.008312607649713755,-35.362636,149.1650925,96208.5,-0.5,2.0,-152.0,0.0,0.0,-1000.0,2.0,1.0,9.5
23:21:59,63322.0,RTL,0.00371639512013644,-0.0006736494251526892,-0.27388958632946014,-0.0029725460335612297,0.0003992262063547969,0.007688446436077356,-35.362636,149.1650924,99325.0,-0.5,2.0,-152.0,0.0,0.0,-999.5,-0.5,1.5,8.5
23:22:00,34135.0,RTL,0.003094148705713451,-0.0005190550546103623,-0.2660496383905411,0.0005342309596017003,0.0005679201567545533,0.006927898153662682,-35.362636,149.1650923,101257.25,-1.0,2.25,-152.0,0.0,0.0,-999.5,2.0,2.25,8.0
23:22:01,34135.0,RTL,0.0032541544642299414,-0.0008118085388559848,-0.26176419854164124,-0.001611613668501377,-0.00017382472287863493,0.005184550071135163,-35.362636,149.1650923,102422.5,-1.0,2.0,-152.0,0.0,0.0,-1000.0,0.0,1.5,6.0
23:22:03,34135.0,RTL,0.0023806915851309896,-0.0007846233784221113,-0.25182367861270905,-0.0009549696114845574,0.0004834378487430513,0.004338819300755858,-35.362636,149.1650923,105526.5,-0.5,2.0,-152.0,0.0,0.0,-1000.0,1.0,1.5,5.0
23:22:05,20887.0,RTL,0.003295658156275749,-0.0011284661595709622,-0.24310457706451416,0.0007368810474872589,0.0005144394235685468,0.004534333944320679,-35.362636,149.1650923,108640.5,0.0,2.0,-152.0,0.0,0.0,-1000.0,2.5,1.5,6.0
23:22:07,7639.0,RTL,0.0039186563808470964,-0.00035516356001608074,-0.23554527014493942,-0.001342778792604804,-0.00014999823179095984,0.0028281821869313717,-35.362636,149.1650923,111749.5,0.0,2.0,-152.0,0.0,0.0,-1000.5,0.5,1.0,4.0
23:22:09,7639.0,RTL,0.003129979595541954,-0.0005830380250699818,-0.22888685017824173,-0.0009530161623843014,-0.0015056292759254575,0.004596112761646509,-35.362636,149.1650923,114851.5,-1.0,2.0,-152.0,0.0,0.0,-1000.0,0.5,0.5,6.0
23:22:10,144061.0,RTL,0.002644247782882303,-0.000765272110584192,-0.22516091540455818,-0.0014728117384947836,0.0006021898007020354,0.002803038456477225,-35.362636,149.1650923,116792.25,-1.0,2.0,-152.0,0.0,0.0,-1000.0,1.0,2.0,4.0
23:22:11,144061.0,RTL,0.002106347354128957,-0.0008611807134002447,-0.22319309413433075,0.0011030102614313364,-0.00013898679753765464,0.00264598592184484,-35.362636,149.1650923,117958.0,-1.0,2.0,-152.0,0.0,0.0,-1000.5,2.5,1.5,3.5
23:22:13,144061.0,RTL,0.0026582027785480022,-0.0012299444060772657,-0.21802585572004318,-0.00068023701896891,-0.0010849926038645208,0.0036903461441397667,-35.362636,149.1650924,121067.5,-1.0,1.0,-152.0,0.0,0.0,-1000.0,1.0,0.5,5.0
23:22:15,101176.0,RTL,0.003085338859818876,-0.0010454986768309027,-0.21363738179206848,0.00014399178326129913,-0.0005877900985069573,0.0035227052867412567,-35.362636,149.1650924,124173.0,-1.0,1.5,-152.0,0.0,0.0,-999.5,2.0,1.0,5.0
23:22:17,58291.0,RTL,0.0028460462344810367,-0.0009630408312659711,-0.20919764786958694,0.0010708029149100184,-0.0002839149674400687,0.002198350615799427,-35.362636,149.1650924,127277.0,-1.0,2.0,-152.0,0.0,0.0,-1000.0,2.5,1.5,3.5
23:22:19,58291.0,RTL,0.0027891549980267882,-0.0005545573658309877,-0.2057841345667839,9.180873166769743e-05,-8.970685303211212e-05,0.0035124828573316336,-35.362636,149.1650924,130393.0,-1.0,2.0,-152.0,0.0,0.0,-1000.0,1.5,2.0,4.5
23:22:20,45527.0,RTL,0.002554005943238735,-0.0005169249416212551,-0.20388177782297134,-0.0008739651530049741,-0.00024432456120848656,0.0024382989504374564,-35.362636,149.1650924,132484.5,-1.0,1.75,-152.0,0.0,0.0,-999.5,1.0,1.5,3.75
23:22:21,45527.0,RTL,0.0026882452657446265,-0.0007843837374821305,-0.2029091641306877,0.0003755284706130624,0.00033512653317302465,-0.00019856647122651339,-35.362636,149.1650924,133650.0,-1.0,1.0,-152.0,0.0,0.0,-1000.0,2.0,2.0,1.0
23:22:23,45527.0,RTL,0.0026967766461893916,-0.0011621053563430905,-0.20031891763210297,-0.0013391448301263154,-0.0011396880727261305,0.0020665391930378973,-35.362636,149.1650924,136756.0,-1.0,1.0,-152.0,0.0,0.0,-1000.0,0.5,0.5,3.5
23:22:25,45527.0,RTL,0.002343646716326475,-0.000930307898670435,-0.1977585330605507,-0.0007894551381468773,0.0006751437904313207,0.00012359803076833487,-35.362636,149.1650924,139869.5,-1.0,1.0,-152.0,0.0,0.0,-1000.0,1.5,2.5,1.5
23:22:26,6098.0,RTL,0.0025195401394739747,-0.0008869465527823195,-0.1971353106200695,0.0011218703584745526,0.00019627760048024356,0.001659441797528416,-35.362636,149.1650924,141812.0,-1.0,1.0,-152.0,0.0,0.0,-1000.0,3.25,2.0,3.0
23:22:27,6098.0,RTL,0.002661005244590342,-0.0009401014540344477,-0.19647769629955292,0.0003345791483297944,0.001042246469296515,0.001923806848935783,-35.362636,149.1650924,142978.0,-1.0,1.0,-152.0,0.0,0.0,-999.5,2.5,3.0,3.5
23:22:29,6098.0,RTL,0.002498183283023536,-0.0007630142208654433,-0.19468728452920914,0.00047350162640213966,0.0005633897380903363,0.0016921323258429766,-35.362636,149.1650924,146083.5,-1.0,1.0,-152.0,0.0,0.0,-1000.0,2.5,2.5,3.0
23:22:31,9006.0,RTL,0.002915679127909243,-0.0007955652836244553,-0.19335520267486572,-0.0008058683597482741,-0.0004644797299988568,0.0004953526658937335,-35.362636,149.1650924,149190.5,-1.0,1.0,-152.0,0.0,0.0,-1000.0,1.0,1.0,2.5
23:22:33,11914.0,RTL,0.002634574077092111,-0.0009379269904457033,-0.19117678701877594,0.0015136657748371363,-0.001045405922923237,0.0011565512977540493,-35.362636,149.1650924,152301.5,-1.0,1.0,-152.0,0.0,0.0,-1000.0,3.5,1.0,2.5
23:22:35,11914.0,RTL,0.002208351157605648,-0.00025393922260263935,-0.1903870329260826,-0.0015677775372751057,-0.000172748405020684,0.0004985688719898462,-35.362636,149.1650924,155403.0,-1.0,1.0,-152.0,0.0,0.0,-1000.0,0.5,2.0,2.0
23:22:36,62233.0,RTL,0.0021950570517219603,-0.0006435467657865956,-0.18984927237033844,-0.0005119045963510871,-0.00020432649762369692,0.0015634355950169265,-35.362636,149.1650924,157345.75,-1.0,1.0,-152.0,0.0,0.0,-999.75,1.25,2.0,3.0
23:22:37,62233.0,RTL,0.002350417897105217,-0.0009203712979797274,-0.18960987776517868,0.00025493791326880455,-0.00035334128187969327,-8.561764843761921e-06,-35.362636,149.1650924,158510.0,-1.0,1.0,-152.0,0.0,0.0,-1000.0,2.5,1.5,1.5
23:22:39,62233.0,RTL,0.0021920896833762527,-0.001133433950599283,-0.18866419047117233,-0.0011451037134975195,-8.624745532870293e-05,0.001583797566127032,-35.362636,149.1650924,161621.0,-1.0,1.0,-152.0,0.0,0.0,-999.5,0.5,2.0,3.0
23:22:41,54510.0,RTL,0.0024411017075181007,-0.0008381722727790475,-0.18783041834831238,-0.0006078138248994946,0.00013369793305173516,0.0010396797442808747,-35.362636,149.1650924,164727.5,-1.0,1.0,-152.0,0.0,0.0,-999.5,1.5,2.0,2.5
23:22:43,46787.0,RTL,0.0026677848072722554,-0.000996686314465478,-0.18736674636602402,0.00021587149240076542,0.0010463196085765958,0.0013401225442066789,-35.362636,149.1650924,167838.5,-1.0,1.0,-152.0,0.0,0.0,-999.5,2.0,3.5,3.0
23:22:45,46787.0,RTL,0.0026713216211646795,-0.0008802073134575039,-0.18690896779298782,-0.0009521362371742725,-0.00034995609894394875,0.0007254764786921442,-35.362636,149.1650924,170946.0,-1.0,1.0,-152.0,0.0,0.0,-1000.0,1.0,1.5,2.5
23:22:46,10568.0,RTL,0.0025361511507071555,-0.0007805053173797205,-0.1866072155535221,0.00011010403977707028,-0.0005403072864282876,0.0011652906541712582,-35.362636,149.1650924,172893.5,-1.0,1.0,-152.0,0.0,0.0,-1000.0,2.25,1.75,2.75
23:22:47,10568.0,RTL,0.002492598257958889,-0.0008824563701637089,-0.18649449199438095,-0.00017605209723114967,-9.454251267015934e-05,0.0005316790193319321,-35.362636,149.1650924,174059.5,-1.0,1.0,-152.0,0.0,0.0,-1000.0,2.0,2.5,2.5
23:22:49,10568.0,RTL,0.0024497584672644734,-0.0008650577801745385,-0.18540021777153015,0.001551700639538467,-0.0017432855674996972,0.001111279590986669,-35.362636,149.1650924,177166.5,-1.0,1.0,-152.0,0.0,0.0,-1000.0,4.0,0.5,2.5
23:22:51,10568.0,RTL,0.002526777912862599,-0.0007870267727412283,-0.18502305448055267,-0.0007033184519968927,-0.0014894697233103216,0.002300725900568068,-35.362636,149.1650924,180265.5,-1.0,1.0,-152.0,0.0,0.0,-1000.0,1.5,1.0,4.0
23:22:52,149674.0,RTL,0.0019687451131176203,-0.0010529135761316866,-0.18500866368412971,-0.0008987189212348312,-0.000560396903892979,0.00047530251322314143,-35.362636,149.1650924,182214.75,-1.0,1.0,-152.0,0.0,0.0,-999.75,1.5,1.5,2.5
23:22:53,149674.0,RTL,0.002203735406510532,-0.0008522551506757736,-0.18486448377370834,-0.0007703404990024865,-0.0007465090020559728,0.001675619394518435,-35.362636,149.1650924,183380.0,-1.0,1.0,-152.0,0.0,0.0,-1000.0,1.0,1.5,3.5
23:22:55,149674.0,RTL,0.002337171579711139,-0.0009716582135297358,-0.18473228812217712,0.0005344623932614923,-0.00028272258350625634,0.0007835157448425889,-35.362636,149.1650924,186490.0,-1.0,1.0,-152.0,0.0,0.0,-1000.0,3.0,2.5,2.5
23:22:57,77846.0,RTL,0.002498015994206071,-0.0008074823999777436,-0.18440916389226913,-0.001654509105719626,0.000154204317368567,-0.00036583776818588376,-35.362636,149.1650924,189594.5,-1.0,1.0,-152.0,0.0,0.0,-1000.5,1.0,2.5,1.5
23:22:59,77846.0,RTL,0.0024756159400567412,-0.0008622203022241592,-0.18445942550897598,0.00033587648067623377,0.00042357202619314194,-0.0003841581055894494,-35.362636,149.1650924,192701.0,-1.0,1.0,-152.0,0.0,0.0,-1000.5,2.5,3.0,1.5
23:23:01,77846.0,RTL,0.0024583585327491164,-0.0009747719450388104,-0.184316024184227,-0.0009619680349715054,-0.001049896003678441,0.0013413169654086232,-35.362636,149.1650924,195808.0,-1.0,1.0,-152.0,0.0,0.0,-1000.0,1.5,1.5,3.5
23:23:02,20432.0,RTL,0.002382871345616877,-0.0007924198289401829,-0.18430360779166222,-0.0002975207753479481,0.0008820666116662323,0.0006754909409210086,-35.362636,149.1650924,197751.0,-1.0,1.0,-152.0,0.0,0.0,-999.5,2.25,3.25,2.5
23:23:03,20432.0,RTL,0.002352974144741893,-0.0006949969392735511,-0.1842728555202484,0.0018096957355737686,-0.0010888144606724381,0.001093142433091998,-35.362636,149.1650924,198918.0,-1.0,1.0,-152.0,0.0,0.0,-1000.0,4.0,1.5,2.5
23:23:05,20432.0,RTL,0.002393027301877737,-0.0007873282593209296,-0.1832095831632614,-0.0015707480488345027,-0.0011300380574539304,0.001247848616912961,-35.362636,149.1650924,202022.0,-1.0,1.0,-152.0,0.0,0.0,-1000.0,1.0,1.0,3.5
23:23:07,74709.5,RTL,0.0024835383519530296,-0.0007893012079875916,-0.18324273079633713,0.001055563217960298,-0.0002455751528032124,0.0007505421526730061,-35.362636,149.1650924,205139.0,-1.0,1.0,-152.0,0.0,0.0,-1000.0,3.5,2.0,2.5
23:23:09,128987.0,RTL,0.002558361040428281,0.023528085090219975,-0.18318156898021698,-0.0009797122329473495,0.053748298436403275,0.0011912285117432475,-35.362636050000006,149.1650924,208233.5,-7.0,2.5,-151.0,0.5,0.0,-999.0,2.0,56.5,3.0
23:23:11,128987.0,RTL,-0.010466751176863909,0.09923990443348885,-0.18339157849550247,-0.013697124551981688,0.04028197191655636,0.0016519509954378009,-35.36264495,149.16509495,211248.0,-111.0,23.5,-140.5,19.5,9.5,-991.0,-10.5,42.5,3.5
23:23:12,32294.0,RTL,-0.0034615718759596348,0.1766715794801712,0.193512711673975,0.044088089838624,-0.07306681387126446,0.34300851821899414,-35.36266495,149.165098425,212688.25,-253.5,12.5,-74.5,49.0,16.5,-938.25,46.75,-69.75,345.25
23:23:13,32294.0,RTL,0.07037179544568062,0.11631178855895996,0.3406481593847275,0.040966298431158066,-0.003307570703327656,0.08869349211454391,-35.36268415,149.16510045,213101.0,-316.5,35.0,-27.5,72.0,17.5,-941.0,43.0,-0.5,91.0
23:23:15,32294.0,RTL,0.05930122546851635,0.22502678632736206,0.35199853777885437,0.1335947159677744,0.017016121186316013,-0.046956617385149,-35.36275515,149.1651211,212833.5,-500.0,124.0,23.5,132.5,3.0,-1026.5,136.0,20.0,-43.5
23:23:17,29712.5,RTL,-0.007865260122343898,0.18175606429576874,0.269143670797348,-0.04663103632628918,-0.012010090984404087,-0.045213598757982254,-35.362860749999996,149.16514890000002,212707.5,-649.5,119.5,-6.0,158.0,22.0,-1000.5,-43.0,-8.5,-41.5
23:23:19,27131.0,RTL,-0.020225084386765957,0.15421143174171448,0.1916348710656166,0.003771655261516571,0.029562589712440968,-0.03406777232885361,-35.36298625,149.16517575,212807.0,-668.0,120.5,0.5,148.5,20.5,-975.0,6.5,32.0,-30.5
23:23:21,27131.0,RTL,-0.0628096554428339,0.06843945384025574,0.1342814341187477,-0.4193021059036255,-0.053111789748072624,-0.03234848519787192,-35.36310345,149.1652016,212866.5,-609.5,112.5,-3.5,151.5,9.5,-989.0,-415.5,-49.5,-28.5
23:23:22,55051.0,RTL,-0.05817976035177708,0.0027672556461766362,0.10779834166169167,-0.19300156086683273,-0.054001606069505215,-0.059805418364703655,-35.36316585,149.16521475,212878.25,-497.75,92.25,2.25,115.75,19.75,-984.0,-190.5,-50.5,-56.5
23:23:23,55051.0,RTL,-0.07324504107236862,-0.03781020641326904,0.09584726765751839,-0.44720930606126785,-0.0365764619782567,0.01725839450955391,-35.36319705,149.16522129999998,212859.5,-410.0,79.0,6.0,96.0,36.5,-983.5,-442.5,-33.0,20.5
23:23:25,55051.0,RTL,-0.03270195610821247,-0.07493164390325546,0.06745880097150803,0.05079301446676254,-0.027930540964007378,0.009346601320430636,-35.36324985,149.1652312,212794.0,-181.5,42.0,2.5,41.0,39.5,-1010.5,55.5,-24.0,12.0
23:23:27,85146.0,RTL,0.018791021313518286,-0.04206508956849575,0.04759160615503788,0.6011181473731995,0.01936919428408146,-0.0026667779311537743,-35.3632666,149.16523304999998,212774.0,-24.5,31.5,0.0,6.0,34.0,-1007.0,605.0,21.5,0.5
23:23:29,85146.0,RTL,0.029216213151812553,0.005762537010014057,0.034838780760765076,0.4059213474392891,-0.006287402007728815,-0.012575933244079351,-35.363266949999996,149.16523415,212787.5,7.0,30.0,0.0,0.5,2.5,-1003.0,409.5,-3.5,-9.0
23:23:31,85146.0,RTL,0.017509506549686193,-0.003302484517917037,0.020949838683009148,0.0462399423122406,0.00998997874557972,-0.013139300514012575,-35.3632658,149.16523585,212792.5,13.5,19.5,1.5,0.0,-21.0,-1008.0,50.0,12.5,-10.0
23:23:32,64927.0,RTL,-0.004743939543004672,0.003083227202296257,0.012283197604119778,0.038528844714164734,0.0017179731512442231,-0.006237068504560739,-35.363264525,149.16523755,212792.25,12.25,8.75,0.5,0.25,-9.25,-1005.0,43.0,3.75,-3.0
23:23:33,64927.0,RTL,-0.008608999662101269,0.0033059092238545418,0.008267401484772563,0.4188501052558422,-0.006516346940770745,-0.0030653588473796844,-35.363263950000004,149.1652385,212793.0,9.5,1.0,0.5,0.5,22.0,-1000.5,423.5,-3.0,0.0
23:23:35,64927.0,RTL,-0.0011141435825265944,-0.002162027230951935,-0.0021480744471773505,1.083027184009552,-0.003535335883498192,-0.005169452051632106,-35.36326325,149.16523965,212474.0,4.5,-12.5,62.0,-0.5,57.5,-968.5,1087.5,-1.0,-1.5
23:23:37,8479.0,RTL,0.0011340991283456485,-0.00496153657635053,-0.009999244784315428,-1.1890809138615925,0.0028178285962591567,-0.003938902479906877,-35.36326306666667,149.16523693333332,210546.33333333334,5.0,-1.3333333333333333,107.33333333333333,-2.0,-36.666666666666664,-998.3333333333334,-1183.6666666666667,4.666666666666667,-1.0
23:23:39,8479.0,RTL,0.02565034944564104,0.00042853654304053634,-0.017710416577756405,0.4373830780386925,0.0007629076717421412,-0.0003817598335444927,-35.3632626,149.1652364,208344.5,4.0,7.0,103.5,0.5,-15.5,-994.0,439.5,2.5,2.0
23:23:41,8479.0,RTL,0.008663445711135864,0.0030330359004437923,-0.023184912900129955,1.238165557384491,0.001171967014670372,-0.0070179784670472145,-35.3632624,149.16523743333335,206432.33333333334,2.6666666666666665,7.0,103.66666666666667,1.0,73.0,-1005.6666666666666,1243.0,3.6666666666666665,-3.6666666666666665
23:23:42,24387.0,RTL,0.022631823550909758,-0.0023487062790081836,-0.027654815930873156,0.3664102666079998,-0.0029259054572321475,0.012032804836053401,-35.363262325,149.165237975,205040.5,0.0,-5.25,102.0,-1.5,-27.25,-945.0,368.5,-0.25,15.0
23:23:43,24387.0,RTL,0.036194825544953346,-0.004809849429875612,-0.02999300044029951,0.41482049971818924,0.00023501052055507898,-0.010890196543186903,-35.36326245,149.16523705,204288.0,0.5,-0.5,104.0,-1.0,-20.0,-980.5,417.0,2.0,-7.0
23:23:45,24387.0,RTL,0.03850504197180271,-0.000514156388817355,-0.03521192818880081,1.3169877529144287,0.0019850125536322594,0.0005845159757882357,-35.3632625,149.16523575000002,202241.0,2.5,11.5,105.5,-0.5,33.0,-981.0,1320.5,4.0,3.5
23:23:47,28031.0,RTL,-0.00028452063755442697,0.002089342839705447,-0.03818428764740626,0.5205716788768768,-0.005981060676276684,0.0007776715016613404,-35.3632623,149.1652361666667,200308.33333333334,1.6666666666666667,17.0,99.33333333333333,0.3333333333333333,56.0,-1035.0,527.0,-3.0,3.6666666666666665
23:23:49,31675.0,RTL,0.00349504743644502,-0.0041597665986046195,-0.04280534386634827,-1.1672348976135254,-0.0009515972924418747,-0.0023364570224657655,-35.36326245,149.16523495,198142.0,0.5,16.5,101.0,-1.5,-29.0,-1012.5,-1160.5,1.0,0.5
23:23:51,31675.0,RTL,0.03495818376541138,0.004000023861105244,-0.04495304822921753,0.26383520911137265,0.003460059485708674,-0.018599924282170832,-35.36326243333334,149.16523443333332,196202.66666666666,4.0,26.333333333333332,99.66666666666667,4.333333333333333,-29.0,-1054.6666666666667,268.6666666666667,5.666666666666667,-15.333333333333334
23:23:52,17189.0,RTL,-0.03306651798387369,0.007238626014441252,-0.04839411377906799,-0.0005690058072408041,-0.0023355720719943442,0.006869196193292737,-35.3632621,149.1652377,194906.66666666666,1.0,13.666666666666666,100.0,2.0,36.333333333333336,-1014.6666666666666,7.0,0.0,9.666666666666666
23:23:53,17189.0,RTL,-0.029317455366253853,0.0025376409757882357,-0.04828026766578356,0.13518458604812622,-0.008485813935597738,0.00832573890996476,-35.3632621,149.1652388,194154.0,0.0,0.6666666666666666,96.66666666666667,0.3333333333333333,43.666666666666664,-971.6666666666666,143.33333333333334,-5.666666666666667,11.0
23:23:55,17189.0,RTL,-0.027971971159180004,-0.001363133080303669,-0.05092646057407061,-1.0031803846359253,0.000622119715747734,0.0046896108736594515,-35.3632623,149.1652395,192091.33333333334,0.0,-14.0,99.66666666666667,-0.3333333333333333,-13.0,-1001.3333333333334,-996.0,2.6666666666666665,8.0
23:23:57,134965.0,RTL,-0.010485164200266203,0.00648318820943435,-0.052380082507928215,-0.19918370246887207,0.008961045028020939,-0.019528585486114025,-35.363262166666665,149.1652407,190069.33333333334,1.3333333333333333,-22.0,99.33333333333333,5.0,-54.333333333333336,-976.3333333333334,-195.66666666666666,10.666666666666666,-15.666666666666666
23:23:59,134965.0,RTL,-0.046569050600131355,0.005930736195296049,-0.055884893983602524,0.38556818664073944,-0.00867178337648511,0.00042857105533281964,-35.363261566666665,149.16524566666666,188068.33333333334,-5.0,-55.333333333333336,101.0,1.3333333333333333,-20.333333333333332,-966.3333333333334,387.3333333333333,-6.0,3.3333333333333335
23:24:01,134965.0,RTL,0.0010439411271363497,-0.007540200371295214,-0.056584682315588,1.4509177207946777,0.00031146674882620573,0.009180036994318167,-35.36326210000001,149.16524343333333,186002.33333333334,-5.333333333333333,-61.0,98.33333333333333,-6.666666666666667,69.66666666666667,-1009.3333333333334,1454.3333333333333,2.3333333333333335,12.0
23:24:02,127539.0,RTL,0.004466732653478782,-0.008476986549794674,-0.05819843957821528,-0.9721647898356119,-0.00026706707042952377,0.0029923104836295047,-35.36326243333334,149.1652389333333,184715.33333333334,-1.0,-34.0,98.66666666666667,-6.0,-8.666666666666666,-1013.3333333333334,-967.3333333333334,2.0,6.0
23:24:03,127539.0,RTL,0.006628170299033324,-0.0027350634336471558,-0.057594750076532364,-0.45789555708567303,0.01137543935328722,0.008336215435216824,-35.3632624,149.16523699999996,183960.66666666666,1.0,-11.666666666666666,100.0,-3.3333333333333335,21.333333333333332,-978.6666666666666,-452.3333333333333,13.333333333333334,11.666666666666666
23:24:05,127539.0,RTL,-0.024910298486550648,0.006956338882446289,-0.058510951697826385,-0.6381604572137197,-0.0028729302963862815,-0.0003411410531649987,-35.36326176666666,149.16523726666665,181915.66666666666,-1.0,4.0,98.66666666666667,0.3333333333333333,7.0,-997.3333333333334,-632.6666666666666,-0.3333333333333333,3.0
23:24:07,108912.5,RTL,0.01693006573865811,-0.00016502250218763947,-0.060020267963409424,-0.01871148745218913,-0.006377036838481824,-0.0007830209409197172,-35.36326193333333,149.16523756666666,179821.66666666666,-3.0,-2.6666666666666665,97.0,1.3333333333333333,-37.333333333333336,-976.0,-17.333333333333332,-3.6666666666666665,3.0
23:24:09,90286.0,RTL,-0.004380681862433751,-0.0004749299623654224,-0.05921728039781252,0.5142674346764883,-0.004328334315990408,0.017450000469883282,-35.3632622,149.16523703333334,177802.66666666666,0.0,4.0,98.0,-0.6666666666666666,66.33333333333333,-972.3333333333334,519.0,-2.0,20.0
23:24:11,90286.0,RTL,0.02401821408420801,-0.005130429131289323,-0.06153851871689161,-1.0884951949119568,0.0008262433111667633,0.0055695051948229475,-35.363262600000006,149.1652347,175745.66666666666,1.3333333333333333,10.666666666666666,99.66666666666667,-3.0,-65.33333333333333,-978.0,-1085.6666666666667,3.0,9.333333333333334
23:24:12,20275.0,RTL,0.03598380461335182,0.004331908809641997,-0.06014569103717804,-0.164413683116436,0.008787337535371384,-0.017565065373977024,-35.3632625,149.16523403333335,174470.0,5.0,24.0,98.33333333333333,3.3333333333333335,-54.666666666666664,-958.0,-162.66666666666666,10.666666666666666,-14.0
23:24:13,20275.0,RTL,0.0017534205496000748,0.01031053407738606,-0.06072622289260229,-0.4851727286974589,0.008515522194405397,-0.0181565269206961,-35.363262133333336,149.16523596666664,173715.66666666666,4.0,21.0,95.33333333333333,5.666666666666667,-74.0,-949.0,-483.0,10.333333333333334,-14.0
23:24:15,20275.0,RTL,-0.05190318450331688,0.010205498275657495,-0.061245507250229515,-0.7910531361897787,-0.0004924975025157133,-0.015824693565567333,-35.363261566666665,149.16524303333335,171574.33333333334,-2.6666666666666665,-28.0,97.0,9.333333333333334,-74.33333333333333,-992.6666666666666,-789.6666666666666,1.6666666666666667,-12.333333333333334
23:24:17,65138.0,RTL,-0.04253912096222242,-0.003261175283114426,-0.06258311122655869,1.2753824790318806,-0.015721462356547516,-0.0013407384976744652,-35.36326173333333,149.1652480666667,169573.0,-8.0,-79.33333333333333,100.66666666666667,-2.0,46.0,-1035.0,1275.6666666666667,-13.0,2.0
23:24:19,65138.0,RTL,0.05664373313387235,-0.017429812500874203,-0.06306324650843938,1.0796033143997192,0.00513489901398619,0.012563446226219336,-35.3632629,149.16523946666666,167523.33333333334,-1.3333333333333333,-49.0,99.0,-13.333333333333334,35.666666666666664,-1002.6666666666666,1079.0,7.0,15.666666666666666
23:24:21,65138.0,RTL,0.06017696609099706,-0.0032429977242524424,-0.061567852894465126,0.42351122200489044,0.0036303094821050763,0.009284536043802897,-35.3632628,149.16522999999998,165497.33333333334,6.0,39.0,100.66666666666667,-8.666666666666666,56.0,-998.0,427.0,5.666666666666667,12.666666666666666
23:24:22,54813.0,RTL,0.06082196657856306,0.0012952489875412236,-0.06141442681352297,-1.3185316721598308,0.004912838106974959,-0.006666050602992375,-35.36326246666667,149.16522723333333,164254.0,4.333333333333333,67.66666666666667,102.33333333333333,-3.6666666666666665,-51.0,-1030.3333333333333,-1315.6666666666667,7.333333333333333,-3.3333333333333335
23:24:23,54813.0,RTL,0.055837634950876236,0.0031291341486697397,-0.06046610325574875,-1.448352575302124,0.007318436789015929,-0.005294810514897108,-35.36326236666667,149.16522656666666,163513.33333333334,4.0,79.66666666666667,104.0,-0.3333333333333333,-72.33333333333333,-988.6666666666666,-1445.3333333333333,9.0,-1.3333333333333333
23:24:25,54813.0,RTL,0.017900353918472927,0.017944856857260067,-0.05804658681154251,0.14969627559185028,0.007334522282083829,-0.0005043876202156147,-35.3632617,149.16523183333334,161437.0,2.0,69.0,104.66666666666667,13.666666666666666,-49.0,-997.0,151.33333333333334,9.333333333333334,3.0
23:24:27,92482.0,RTL,-0.06721942871809006,0.010878799483180046,-0.05976115663846334,0.9306145409742991,-0.012799544415126244,0.013417473373313745,-35.363261333333334,149.16524336666666,159364.0,-6.0,-11.0,102.66666666666667,8.666666666666666,53.333333333333336,-1010.6666666666666,935.0,-10.0,16.333333333333332
23:24:29,92482.0,RTL,-0.035194434225559235,-0.012850094276169935,-0.058975650618473686,-0.672347625096639,-0.0007699806786452731,0.003703563086067637,-35.36326256666667,149.16524370000002,157342.0,-4.333333333333333,-55.666666666666664,102.66666666666667,-7.0,20.0,-983.3333333333334,-667.0,1.3333333333333333,6.666666666666667
23:24:31,92482.0,RTL,0.021431224420666695,6.222095786749075e-06,-0.05873504156867663,0.27597953875859577,0.008551798683280746,0.001997319438184301,-35.3632625,149.1652391,155281.33333333334,2.0,-24.0,101.33333333333333,-3.6666666666666665,-21.666666666666668,-1011.6666666666666,276.6666666666667,10.666666666666666,5.0
23:24:32,136680.0,RTL,0.014359891414642334,0.005986558428655068,-0.05813898518681526,1.3668229977289836,0.0010186885483562946,0.002769536649187406,-35.363262,149.16523866666668,154031.66666666666,0.3333333333333333,-8.666666666666666,99.0,-0.6666666666666666,60.333333333333336,-991.3333333333334,1369.0,3.0,6.0
23:24:33,136680.0,RTL,0.00815445634846886,0.0032095188895861306,-0.0592421256005764,1.2879993120829265,-0.005061354332913955,-0.0011913816755016644,-35.3632618,149.1652387,153268.33333333334,-2.0,-10.0,100.66666666666667,-2.3333333333333335,56.0,-1028.3333333333333,1290.0,-2.0,2.0
23:24:35,136680.0,RTL,0.035070259124040604,-0.0021982949304704866,-0.05896639575560888,1.0772383014361064,0.003569228652243813,0.000718274541820089,-35.363262166666665,149.16523523333333,151225.33333333334,-1.0,9.666666666666666,102.0,-1.6666666666666667,66.0,-1026.3333333333333,1080.3333333333333,6.0,4.0
23:24:37,41734.0,RTL,0.0037497608767201505,-0.001127424310349549,-0.05930790180961291,-1.1534266074498494,-0.007885182664419213,0.01399463756630818,-35.3632622,149.1652338,149194.0,0.0,23.666666666666668,101.0,-2.0,-23.666666666666668,-1003.0,-1149.3333333333333,-4.666666666666667,17.333333333333332
23:24:39,41734.0,RTL,0.010337828968962034,0.005471523928766449,-0.05810979877909025,-1.2966434558232625,0.004588291902715961,-0.011669968254864216,-35.36326223333334,149.1652332333333,147143.0,2.0,36.0,100.66666666666667,4.0,-71.66666666666667,-1020.0,-1293.3333333333333,7.0,-7.333333333333333
23:24:41,41734.0,RTL,-0.030640343204140663,0.015251058464248976,-0.05766926581660906,-0.1559550017118454,-0.0020446347383161387,-0.0109099131077528,-35.3632617,149.16523973333335,145084.66666666666,0.0,3.6666666666666665,99.66666666666667,13.333333333333334,-52.0,-1026.3333333333333,-154.66666666666666,0.6666666666666666,-7.333333333333333
23:24:42,9767.0,RTL,-0.06404765819509824,0.008000432047992945,-0.05773848543564478,1.3162436087926228,-0.00670224583397309,0.007307692042862375,-35.36326156666667,149.16524556666667,143809.33333333334,-4.0,-38.333333333333336,97.66666666666667,7.0,55.0,-1035.3333333333333,1319.3333333333333,-4.0,10.0
23:24:43,9767.0,RTL,-0.05457333226998647,0.0012039059850697715,-0.058273401111364365,1.0929523706436157,-0.010419853962957859,-0.0006884108297526836,-35.36326173333333,149.16524743333332,143070.33333333334,-6.0,-64.33333333333333,102.0,3.0,23.333333333333332,-994.3333333333334,1093.6666666666667,-7.333333333333333,2.6666666666666665
23:24:45,9767.0,RTL,-0.01260371288905541,-0.00976074238618215,-0.05890697489182154,1.429880420366923,0.0011684543763597806,-0.0014931914241363604,-35.36326246666667,149.16524523333334,141030.66666666666,-2.3333333333333335,-74.0,104.66666666666667,-6.0,74.66666666666667,-997.3333333333334,1431.3333333333333,3.3333333333333335,2.0
23:24:47,59985.0,RTL,0.0013221172072614233,-0.007761678192764521,-0.05818881466984749,-1.039555589358012,0.001128816045820713,0.002286288421601057,-35.3632627,149.16523816666668,138971.0,1.3333333333333333,-28.0,101.66666666666667,-8.0,-16.666666666666668,-1030.0,-1037.3333333333333,3.6666666666666665,6.0
23:24:49,110203.0,RTL,0.07992207010587056,-0.007107308755318324,-0.0579427070915699,0.0912818086023132,0.001261461720181008,0.007061629090458155,-35.363262633333335,149.1652316,136917.0,1.6666666666666667,24.333333333333332,99.0,-7.666666666666667,-30.0,-943.6666666666666,91.0,3.3333333333333335,10.333333333333334
23:24:51,110203.0,RTL,0.09699213008085887,-0.0012990732211619616,-0.0572337806224823,0.9652665456136068,0.0006552403792738914,-0.005174131132662296,-35.3632626,149.16522673333333,134893.0,4.666666666666667,78.66666666666667,101.0,-2.3333333333333335,16.666666666666668,-1032.6666666666667,967.0,3.0,-1.6666666666666667
23:24:52,16673.0,RTL,0.06636930257081985,-0.0027594799175858498,-0.056726974745591484,-0.22130863865216574,-0.0021856018962959447,0.0012574209831655025,-35.363262666666664,149.16522513333334,133618.66666666666,4.0,97.33333333333333,104.33333333333333,-4.333333333333333,31.0,-1021.3333333333334,-215.33333333333334,0.6666666666666666,4.666666666666667
23:24:53,16673.0,RTL,0.06624425947666168,-0.0023955878568813205,-0.05704816927512487,-0.4781889220078786,0.002392791910097003,0.0032118818877885738,-35.3632627,149.16522446666667,132878.0,5.0,106.33333333333333,101.66666666666667,-2.6666666666666665,24.0,-977.0,-471.0,4.666666666666667,6.666666666666667
23:24:55,16673.0,RTL,0.0475000354150931,0.008820171002298594,-0.05512546623746554,-0.512690395116806,0.007149081366757552,0.001047322681794564,-35.36326246666667,149.16522540000003,130818.33333333333,7.0,111.66666666666667,101.66666666666667,6.0,6.0,-989.0,-503.6666666666667,9.333333333333334,5.0
23:24:57,74945.5,RTL,-0.0027386917693850896,0.013651181012392044,-0.0559063491721948,-0.9213782747586569,0.00011752212109665076,-0.022397762164473534,-35.3632619,149.16523383333333,128747.0,1.3333333333333333,59.666666666666664,98.66666666666667,13.666666666666666,-77.33333333333333,-990.3333333333334,-915.3333333333334,2.6666666666666665,-18.0
23:24:59,133218.0,RTL,-0.051196581373612084,0.001858333028697719,-0.05575686693191528,-0.8415557940800985,-0.012847824643055597,-0.008958253893069923,-35.36326210000001,149.1652427,126719.0,-2.0,-16.333333333333332,98.0,5.666666666666667,-73.33333333333333,-985.3333333333334,-836.0,-10.0,-5.333333333333333
23:25:01,133218.0,RTL,-0.018683456505338352,-0.004953292353699605,-0.05522556230425835,-0.16039390675723553,-0.0012349685033162434,0.0010049304304023583,-35.3632627,149.165244,124707.0,1.6666666666666667,-50.666666666666664,104.33333333333333,0.3333333333333333,-40.0,-972.6666666666666,-156.0,1.0,4.333333333333333
23:25:02,44041.0,RTL,-0.009696459242453178,-0.003347231696049372,-0.05540477360288302,1.3221182823181152,0.0013285928095380466,0.003888597168649236,-35.3632627,149.16524363333335,123434.66666666667,3.0,-49.666666666666664,105.0,-1.3333333333333333,46.0,-1001.6666666666666,1327.3333333333333,4.0,7.333333333333333
23:25:03,44041.0,RTL,-0.0042271224277404445,-0.0031077003416915736,-0.05649771044651667,1.1301504373550415,-0.004461321358879407,-0.0015715193003416061,-35.36326263333333,149.16524313333332,122671.33333333333,2.3333333333333335,-49.666666666666664,101.66666666666667,-2.3333333333333335,28.666666666666668,-985.6666666666666,1134.3333333333333,-2.0,2.0
23:25:05,44041.0,RTL,-0.010000546152393023,0.0011197867085381101,-0.05523667732874552,1.3158645629882812,0.005052183444301288,0.001485708790520827,-35.3632623,149.1652418,120613.66666666667,1.6666666666666667,-38.0,100.33333333333333,-0.3333333333333333,69.33333333333333,-1014.0,1321.3333333333333,7.0,5.0
23:25:07,31331.0,RTL,-0.05160662035147349,0.0037278636203457913,-0.05559282501538595,-1.3583324352900188,0.0016130444904168446,-0.0016702148132026196,-35.36326193333333,149.16524263333335,118551.33333333333,-0.6666666666666666,-40.333333333333336,96.66666666666667,1.0,-62.666666666666664,-1015.3333333333334,-1354.0,3.6666666666666665,2.0
23:25:09,31331.0,RTL,-0.011949958590169748,-0.004462446551769972,-0.05541812380154928,-0.7996628284454346,-0.00515369139611721,0.003482707543298602,-35.36326206666667,149.16524213333332,116514.0,-3.0,-46.0,102.0,-2.3333333333333335,-66.33333333333333,-974.0,-797.6666666666666,-2.6666666666666665,7.0
23:25:11,31331.0,RTL,0.03366847957173983,-0.008965914448102316,-0.05563804010550181,-0.02705216904481252,-0.0016066571697592735,0.002836278329292933,-35.36326256666667,149.16523729999997,114358.66666666667,0.3333333333333333,-17.0,100.0,-5.333333333333333,-29.0,-995.0,-25.666666666666668,1.0,6.333333333333333
23:25:12,68391.0,RTL,0.03872285162409147,-0.004333910202452292,-0.05453524738550186,0.7485763827959696,0.010646294802427292,0.011836479417979717,-35.3632627,149.16523436666668,113194.66666666667,4.666666666666667,9.333333333333334,96.0,-0.3333333333333333,65.66666666666667,-1001.0,753.6666666666666,12.333333333333334,15.333333333333334
23:25:13,68391.0,RTL,0.008590847874681154,0.0027966618654318154,-0.053629973282416664,0.4153217673301697,0.0068959626369178295,0.003843018707508842,-35.3632625,149.1652346333333,112434.0,6.0,21.0,103.0,0.6666666666666666,48.333333333333336,-1003.6666666666666,420.0,8.666666666666666,7.333333333333333
23:25:15,68391.0,RTL,-0.028008670856555302,0.004718476828808586,-0.0544013741115729,0.7170880436897278,-0.007888673183818659,-0.0017097977300484974,-35.363262,149.16523943333334,110306.66666666667,0.0,-2.3333333333333335,102.33333333333333,1.6666666666666667,56.333333333333336,-995.3333333333334,722.0,-5.333333333333333,2.0
23:25:17,40951.5,RTL,-0.023011397570371628,-0.0020803826240201793,-0.05489060655236244,-1.3035847743352253,0.0019595767371356487,-0.0003381470839182536,-35.36326233333333,149.16523933333335,108269.0,0.3333333333333333,-16.666666666666668,101.0,0.6666666666666666,-48.333333333333336,-995.0,-1300.0,3.3333333333333335,3.3333333333333335
23:25:19,13512.0,RTL,-0.03427112723390261,0.000989931053481996,-0.05400640765825907,-1.1743754943211873,-0.0018262823577970266,0.0025775686372071505,-35.3632623,149.16524003333333,106245.0,1.0,-19.333333333333332,104.0,0.0,-27.333333333333332,-1011.0,-1170.6666666666667,0.3333333333333333,5.666666666666667
23:25:21,13512.0,RTL,-0.010286632614831129,0.0003904679761035368,-0.054640334099531174,-0.7913403908411661,-0.003749715086693565,-0.007100516154120366,-35.3632622,149.16524033333334,104185.66666666667,0.0,-25.0,103.0,1.3333333333333333,-63.666666666666664,-991.3333333333334,-790.6666666666666,-1.3333333333333333,-3.3333333333333335
23:25:22,43118.0,RTL,-0.009933468575278917,0.0003613734928270181,-0.05514818678299586,0.9954830209414164,-0.004903211413572232,-0.0013461701261500518,-35.3632622,149.16524086666666,102913.33333333333,0.0,-23.0,102.66666666666667,0.3333333333333333,70.0,-989.3333333333334,997.6666666666666,-2.6666666666666665,3.0
23:25:23,43118.0,RTL,-0.007665697950869799,-0.005116379354149103,-0.05541945373018583,1.0711987217267354,-0.011313907026002804,-1.3808409372965494e-05,-35.36326223333334,149.16524043333334,102150.33333333333,-1.3333333333333333,-26.333333333333332,99.66666666666667,-5.333333333333333,71.66666666666667,-1035.0,1073.6666666666667,-8.333333333333334,3.6666666666666665
23:25:25,43118.0,RTL,0.04400537659724554,-0.008444183661291996,-0.05454899246493975,0.6369776924451193,0.0024787584164490304,-0.0022120221983641386,-35.3632628,149.16523383333333,100089.66666666667,3.0,11.666666666666666,99.66666666666667,-6.0,70.0,-962.0,640.6666666666666,4.0,1.6666666666666667
23:25:27,165554.0,RTL,0.03167915157973766,0.0005605574369837996,-0.052758785896003246,-1.3216919600963593,0.004848747048527002,-0.00020883535034954548,-35.3632626,149.1652306,98178.25,5.0,46.75,99.75,-1.75,-55.0,-1015.0,-1318.5,6.5,3.25
23:25:29,165554.0,RTL,0.028210592766602833,0.006941168724248807,-0.05278289566437403,-0.5276402036348978,0.0001927445021768411,-0.007068392277384798,-35.363262033333335,149.16523223333334,96002.0,1.3333333333333333,49.666666666666664,102.66666666666667,2.6666666666666665,-64.0,-973.3333333333334,-525.3333333333334,2.0,-3.0
23:25:31,165554.0,RTL,0.012967766728252172,0.0034003158507402986,-0.051802451722323895,1.344415083527565,-0.002313199336640537,0.004229389305692166,-35.363262025,149.16523560000002,94091.25,-0.25,26.5,102.0,2.0,59.75,-1018.0,1348.75,-0.25,7.75
23:25:32,55213.0,RTL,-0.025991938387354214,0.001326576045054632,-0.05237040792902311,-0.5367139379183451,-0.005805340285102527,0.0019915366234878698,-35.3632622,149.1652374,92695.0,0.0,14.0,96.66666666666667,2.0,11.0,-968.3333333333334,-530.0,-3.3333333333333335,5.333333333333333
23:25:33,55213.0,RTL,-0.023125077908237774,-0.0016196210053749382,-0.05341900264223417,-0.5715066269040108,-0.005531434318982065,0.007343749050050974,-35.36326233333333,149.16523793333332,91929.0,0.0,4.333333333333333,102.33333333333333,0.0,13.333333333333334,-1003.6666666666666,-565.6666666666666,-3.0,11.0
23:25:35,55213.0,RTL,-0.020981211836139362,-0.0018228315748274326,-0.05297623326381048,-1.355602780977885,0.001064138642201821,-0.0035666517602900663,-35.3632625,149.1652383,89882.66666666667,2.0,-5.333333333333333,100.66666666666667,0.6666666666666666,-48.666666666666664,-989.0,-1350.6666666666667,3.0,0.0
23:25:38,52216.5,RTL,0.00865998025983572,-0.0011239695789602895,-0.05324328069885572,1.3594574530919392,-0.007016474225868781,0.007602235845600565,-35.3632622,149.16523976666664,86585.33333333333,-0.3333333333333333,-16.333333333333332,101.0,-0.6666666666666666,44.0,-1013.3333333333334,1362.3333333333333,-4.333333333333333,11.333333333333334
23:25:40,49220.0,RTL,0.028796547402938206,-0.0027384392451494932,-0.052773247162501015,1.388295332590739,0.0002959486252317826,-0.00031524493048588437,-35.36326236666667,149.16523736666667,84553.33333333333,0.3333333333333333,-4.333333333333333,104.33333333333333,-1.3333333333333333,60.333333333333336,-1000.3333333333334,1391.6666666666667,2.0,3.3333333333333335
23:25:42,33146.0,RTL,-0.0014265380644549925,-0.002514739753678441,-0.053269315510988235,-1.0102756023406982,-0.00016345898620784283,-0.0012547589528063934,-35.3632624,149.1652355,82493.33333333333,2.0,10.333333333333334,100.33333333333333,-2.3333333333333335,-12.333333333333334,-1029.6666666666667,-1005.0,1.6666666666666667,2.6666666666666665
23:25:44,17072.0,RTL,0.012808141919473806,-0.0002412138661990563,-0.05226310590902964,-1.4116900364557903,8.053976731995742e-05,-0.008613312151283026,-35.3632625,149.16523433333336,80448.66666666667,3.0,22.0,103.0,0.0,-76.0,-966.0,-1407.6666666666667,2.0,-4.666666666666667
23:25:46,17072.0,RTL,0.023701573411623638,0.00313028902746737,-0.052176707734664284,1.3526146809260051,0.0009622889726112286,0.004031114745885134,-35.36326226666667,149.1652357,78403.33333333333,1.3333333333333333,19.666666666666668,98.0,0.5,41.5,-1020.5,1349.5,1.5,9.5
23:25:47,81091.0,RTL,0.014257967161635557,0.003409727786978086,-0.05212340131402016,1.3135594526926677,-0.0015859776176512241,0.00013833376578986645,-35.3632622,149.16523629999998,77650.66666666667,1.0,15.0,99.66666666666667,2.75,59.25,-1028.5,1331.75,1.0,3.25
23:25:48,81091.0,RTL,-0.015265455935150385,0.004496195702813566,-0.05228288657963276,0.8369201719760895,-0.004312003962695599,0.007769603747874498,-35.3632622,149.16523785,76504.0,0.5,9.0,101.0,2.0,65.0,-970.0,843.5,-1.5,11.0
23:25:50,81091.0,RTL,-0.012779084965586662,-0.0030058687552809715,-0.05272294767200947,0.23533862084150314,-0.0022347953636199236,0.0108293523080647,-35.36326235,149.16523884999998,74462.0,0.0,-8.5,104.5,-1.5,49.5,-969.5,241.5,0.0,14.0
23:25:52,42385.5,RTL,-0.007309778593480587,-9.91163105936721e-05,-0.053085314109921455,-1.3037871718406677,0.002012415323406458,-0.017125552869401872,-35.3632624,149.16523905000003,72411.5,1.5,-12.0,106.0,1.5,-90.5,-943.5,-1300.5,4.0,-13.5
23:25:54,3680.0,RTL,0.0014751600101590157,0.0016884399228729308,-0.05232907459139824,1.2593703269958496,-0.008373963180929422,-0.008665105327963829,-35.3632622,149.1652412,70354.0,0.0,-26.0,101.0,2.5,30.0,-1017.0,1262.5,-6.0,-5.0
23:25:56,3680.0,RTL,-0.03571503981947899,-0.006686080014333129,-0.05331940017640591,-0.9475421905517578,-0.003024467790964991,-0.00886817293940112,-35.3632624,149.1652416,68317.5,0.0,-30.0,103.5,-5.5,0.0,-952.5,-942.5,-1.5,-5.5
23:25:57,12061.0,RTL,-0.0009915715345414355,-0.013639688026160002,-0.05415700748562813,-1.1754165440797806,-0.01339764823205769,0.01646447996608913,-35.3632627,149.16523919999997,67565.25,0.0,-29.25,98.75,-8.5,-51.0,-1014.25,-1172.5,-11.0,19.5
23:25:58,12061.0,RTL,0.04765261895954609,-0.010730857029557228,-0.05140443705022335,-1.2987903356552124,0.010497255716472864,0.005496968049556017,-35.3632631,149.1652323,66200.5,6.0,13.5,102.5,-6.0,-23.0,-982.0,-1293.5,12.0,9.0
23:26:00,12061.0,RTL,0.01222150819376111,0.008137436117976904,-0.04982979595661163,-0.11939800903201103,0.006963477237150073,-0.0005883239209651947,-35.3632623,149.16523215,64175.0,6.5,48.5,102.5,1.5,17.0,-1003.0,-112.5,8.0,3.5
23:26:02,12061.0,RTL,-0.006394473137333989,-4.750496009364724e-05,-0.05101943202316761,-1.1764373779296875,-0.010469624307006598,0.006974095478653908,-35.36326205,149.1652353,62129.0,-1.0,22.5,101.0,0.0,-28.0,-995.0,-1170.5,-8.5,9.5
23:26:03,54924.0,RTL,0.019183007651008666,-0.0028127058467362076,-0.05142219737172127,-0.9225331172347069,-0.0035331149701960385,-0.004474076151382178,-35.363262275000004,149.16523492500002,61363.75,-0.5,21.0,105.5,0.0,-63.25,-975.75,-918.75,-1.5,-0.5
23:26:04,54924.0,RTL,0.04280811548233032,-0.0016644871211610734,-0.050543639808893204,0.29427894949913025,0.0039952805964276195,-0.00577429449185729,-35.3632625,149.1652341,60099.0,2.5,25.5,103.0,2.0,-27.0,-1034.0,298.0,5.0,-2.0
23:26:06,54924.0,RTL,0.007972793362569064,0.005591419525444508,-0.050309667363762856,0.06234249472618103,-0.0012000971473753452,-0.014890797436237335,-35.3632623,149.16523675,58043.5,2.5,15.5,101.5,4.5,-39.5,-973.0,65.5,0.5,-11.0
23:26:08,53021.5,RTL,-0.02879375033080578,0.00028266606386750937,-0.051159949973225594,0.27849870920181274,0.00038183340802788734,-0.01422819122672081,-35.3632622,149.1652399,55978.0,0.0,-8.5,106.5,-0.5,46.0,-1025.5,285.5,2.0,-10.5
23:26:10,51119.0,RTL,-0.024701625108718872,-0.0010640333930496126,-0.050871023908257484,-0.8684820532798767,-0.0023557861568406224,0.004230167018249631,-35.3632622,149.16523925,53934.5,0.0,-14.5,102.5,-1.0,0.0,-1038.5,-861.5,0.0,7.0
23:26:12,51119.0,RTL,-0.023261194117367268,-0.0004137325449846685,-0.05045706778764725,-1.3981645107269287,0.0040138051845133305,-0.007088120095431805,-35.3632622,149.16523875000001,51900.5,0.0,-12.5,101.0,-1.0,-63.0,-1020.0,-1393.0,5.0,-3.5
23:26:13,73492.0,RTL,-0.006137821212178096,0.0007172412588261068,-0.050936151295900345,-1.042554810643196,7.375777931883931e-05,-0.012622102862223983,-35.3632622,149.165238625,51127.0,0.0,-12.0,101.0,2.0,-75.25,-988.25,-1038.75,1.5,-9.0
23:26:14,73492.0,RTL,-0.026651376858353615,0.00426655332557857,-0.05066700093448162,-1.1028414964675903,0.0006938986480236053,-0.007822917774319649,-35.3632621,149.16523955,49858.0,0.0,-14.0,99.5,2.5,-71.5,-1019.0,-1099.0,2.5,-4.5
23:26:16,73492.0,RTL,-0.03477991372346878,0.0011275898141320795,-0.05151918716728687,-1.1401144862174988,-0.002660379570443183,-0.0011436895001679659,-35.363262,149.16524164999998,47813.5,-2.0,-30.0,101.0,1.0,-67.5,-1022.0,-1137.0,-0.5,2.0
23:26:18,39573.5,RTL,0.0061036290135234594,-0.0023736562579870224,-0.05040940269827843,1.290778636932373,0.001725000620353967,0.0013371417298913002,-35.3632622,149.16524125,45763.0,-0.5,-33.5,101.0,0.0,39.0,-1024.0,1293.0,3.0,4.0
23:26:20,5655.0,RTL,0.014379064552485943,-0.00517242937348783,-0.05114404484629631,1.3482122421264648,-0.0022373332176357508,0.0016690781340003014,-35.3632624,149.16524005,43726.0,0.0,-26.0,97.5,-1.0,25.5,-1020.5,1350.0,-0.5,4.5
23:26:22,5655.0,RTL,0.037076499313116074,-0.005277740536257625,-0.05094042606651783,1.2055582404136658,0.00542923528701067,-0.005639245267957449,-35.3632625,149.1652368,41662.5,1.5,-2.5,101.0,-8.5,64.5,-1057.0,1208.5,6.5,-2.5
23:26:23,20861.0,RTL,0.03119135368615389,-0.005763993831351399,-0.051921192556619644,1.025519236922264,-0.0016006269434001297,0.007327231229282916,-35.3632625,149.16523535,40906.0,1.5,7.25,95.75,-7.25,80.5,-1004.0,1029.75,-0.75,10.25
23:26:24,20861.0,RTL,0.0808367021381855,-0.00805261917412281,-0.05205984599888325,1.165822148323059,0.008169288921635598,-0.0010654807556420565,-35.363262649999996,149.16523074999998,39657.0,2.0,33.5,99.5,-8.5,82.5,-998.5,1170.5,9.0,2.0
23:26:26,20861.0,RTL,0.08987897261977196,0.0016981136868707836,-0.04938359931111336,1.3590713143348694,0.0021288171992637217,-0.011340181110426784,-35.3632626,149.1652268,37656.5,6.0,83.0,102.0,1.0,37.0,-1009.0,1363.5,3.0,-8.0
23:26:28,20861.0,RTL,0.01738513819873333,0.008822634816169739,-0.048469919711351395,0.6689289212226868,0.0012857343535870314,0.007061203010380268,-35.36326215,149.16523135,35595.0,3.5,72.5,100.5,6.5,58.5,-1026.5,676.5,2.5,10.0
23:26:29,72644.0,RTL,-0.0010612897167447954,0.007123212213627994,-0.04840612690895796,0.7977168336510658,-0.002152373024728149,0.00783436157507822,-35.3632621,149.16523385,34824.0,1.5,53.5,103.0,4.75,57.0,-993.75,805.5,-0.5,10.5
23:26:30,72644.0,RTL,-0.02111053094267845,0.0022690790938213468,-0.048927897587418556,-0.5156744420528412,-0.0018496233969926834,-0.002659467631019652,-35.36326215,149.16523665,33519.0,0.0,22.5,103.5,2.0,18.0,-975.0,-507.0,0.0,0.5
23:26:32,72644.0,RTL,-0.015740043949335814,-0.0023022311506792903,-0.049568405374884605,-1.3974246382713318,0.0016892062267288566,-0.0037693092599511147,-35.3632625,149.1652376,31481.5,1.5,2.0,99.0,-0.5,-46.5,-1008.5,-1389.5,2.5,-0.5
23:26:34,64316.0,RTL,0.015583150088787079,0.003898522933013737,-0.04789358749985695,1.1449207961559296,0.006429485511034727,-0.009801475331187248,-35.3632624,149.16523805,29440.0,3.0,3.0,103.5,2.0,23.0,-947.0,1150.0,7.0,-6.5
23:26:36,55988.0,RTL,-0.03784238547086716,0.0052758511155843735,-0.04878024943172932,0.8350414037704468,-0.005397271830588579,0.010949529008939862,-35.3632619,149.16524220000002,27397.5,-1.0,-24.0,97.5,2.5,63.0,-975.0,842.0,-3.5,13.0
23:26:38,55988.0,RTL,-0.04121709614992142,-0.0012640704226214439,-0.04943069629371166,-1.1042501628398895,-0.0005681165494024754,0.011955141089856625,-35.36326215,149.16524264999998,25336.5,-1.5,-44.5,105.0,0.0,-27.5,-1008.5,-1097.5,1.0,14.5
23:26:39,16121.0,RTL,-0.03931992780417204,-0.0005473855262607685,-0.04823992773890495,-1.329425036907196,0.0009468211501371115,-0.006553636398166418,-35.3632622,149.16524285,24560.25,-0.25,-43.75,94.5,1.0,-66.25,-1017.0,-1324.75,1.75,-3.5
23:26:40,16121.0,RTL,-0.030701261945068836,-0.001366706215776503,-0.04921715706586838,-0.9137066900730133,-0.00042109552305191755,-0.006491549080237746,-35.3632622,149.1652434,23309.5,0.0,-50.0,97.5,0.0,-67.0,-970.0,-910.5,1.0,-3.0
23:26:42,16121.0,RTL,-0.014450053684413433,-0.004726539831608534,-0.04898490756750107,-0.3534371480345726,-0.0020040510571561754,-0.004932848154567182,-35.3632623,149.16524255000002,21263.0,0.0,-48.5,98.5,-2.0,-45.5,-1030.5,-351.5,-1.0,-2.5
23:26:44,9583.5,RTL,0.0006137378513813019,-0.0028138943016529083,-0.04808153212070465,1.0825134217739105,-0.0006532431580126286,0.0074432347901165485,-35.3632625,149.16523949999998,19223.0,2.0,-27.0,98.0,-0.5,70.0,-972.0,1087.0,1.0,10.0
23:26:46,3046.0,RTL,-0.051837723702192307,0.007750828051939607,-0.04813951253890991,1.2540727853775024,-0.0003000617725774646,0.0029704930493608117,-35.3632619,149.1652433,17113.5,0.5,-34.0,101.5,4.5,65.5,-1024.5,1257.0,0.5,5.0
