time_stamp,MODE,lat,lon,relative_alt,roll,pitch,yaw,rollspeed,pitchspeed,yawspeed,xacc,yacc,zacc,xgyro,ygyro,zgyro,vx,vy,vz,chan4_raw,RTL_ALT
14:23:51.663,STABILIZE,-35.3632621,149.1652375,0,-0.0006087268120609224,0.001428741728886962,0.02780146338045597,0.00017039565136656165,0.00010178153752349317,0.0023225394543260336,0,1,-1000,0,1,0,-2,1,0,1500,1500.0
14:23:51.864,STABILIZE,-35.3632621,149.1652375,0,-0.0006087268120609224,0.001428741728886962,0.02780146338045597,0.00017039565136656165,0.00010178153752349317,0.0023225394543260336,0,1,-1000,0,1,0,-2,1,0,1500,1500.0
14:23:52.065,STABILIZE,-35.3632621,149.1652375,0,-0.0006087268120609224,0.001428741728886962,0.02780146338045597,0.00017039565136656165,0.00010178153752349317,0.0023225394543260336,0,1,-1000,0,1,0,-2,1,0,1500,1500.0
14:23:52.265,STABILIZE,-35.3632621,149.1652375,0,-0.0006087268120609224,0.001428741728886962,0.02780146338045597,0.00017039565136656165,0.00010178153752349317,0.0023225394543260336,0,1,-1000,0,1,0,-2,1,0,1500,1500.0
14:23:52.466,STABILIZE,-35.3632621,149.1652375,0,-0.0006087268120609224,0.001428741728886962,0.02780146338045597,0.00017039565136656165,0.00010178153752349317,0.0023225394543260336,0,1,-1000,0,1,0,-2,1,0,1500,1500.0
14:23:52.667,STABILIZE,-35.3632622,149.1652375,0,-0.0006087268120609224,0.001428741728886962,0.02780146338045597,0.00017039565136656165,0.00010178153752349317,0.0023225394543260336,0,1,-1000,0,0,0,-2,1,0,1500,1500.0
14:23:52.868,STABILIZE,-35.3632622,149.1652375,0,-0.0006087268120609224,0.001428741728886962,0.02780146338045597,0.00017039565136656165,0.00010178153752349317,0.0023225394543260336,0,1,-1000,0,0,0,-2,1,0,1500,1500.0
14:23:53.069,STABILIZE,-35.3632622,149.1652375,0,-0.0006087268120609224,0.001428741728886962,0.02780146338045597,0.00017039565136656165,0.00010178153752349317,0.0023225394543260336,0,1,-1000,0,0,0,-2,1,0,1500,1500.0
14:23:53.270,STABILIZE,-35.3632622,149.1652375,0,-0.0006087268120609224,0.001428741728886962,0.02780146338045597,0.00017039565136656165,0.00010178153752349317,0.0023225394543260336,0,1,-1000,0,0,0,-2,1,0,1500,1500.0
14:23:53.471,STABILIZE,-35.3632622,149.1652375,0,-0.0006087268120609224,0.001428741728886962,0.02780146338045597,0.00017039565136656165,0.00010178153752349317,0.0023225394543260336,0,1,-1000,0,0,0,-1,1,0,1500,1500.0
14:23:53.672,STABILIZE,-35.3632622,149.1652375,0,-0.0010024583898484707,0.001178121310658753,0.025564363226294518,0.00017322000348940492,0.00012242587399668992,0.002009265124797821,0,1,-1000,0,0,0,-1,1,0,1500,1500.0
14:23:53.872,STABILIZE,-35.3632622,149.1652375,0,-0.0010024583898484707,0.001178121310658753,0.025564363226294518,0.00017322000348940492,0.00012242587399668992,0.002009265124797821,0,1,-1000,0,0,0,-1,1,0,1500,1500.0
14:23:54.073,STABILIZE,-35.3632622,149.1652374,0,-0.0010024583898484707,0.001178121310658753,0.025564363226294518,0.00017322000348940492,0.00012242587399668992,0.002009265124797821,0,1,-1000,1,0,0,-1,1,0,1500,1500.0
14:23:54.274,STABILIZE,-35.3632622,149.1652374,0,-0.0011096727102994919,0.0010808013612404466,0.025248179212212563,0.00022027111845090985,0.000287719740299508,0.0020590017084032297,0,1,-1000,1,0,0,-1,1,0,1500,1500.0
14:23:54.476,STABILIZE,-35.3632622,149.1652374,0,-0.00113525683991611,0.0010468533728271723,0.0251411572098732,7.577129872515798e-05,0.0002599643776193261,0.0018479956779628992,0,1,-1000,1,0,0,-1,1,0,1500,1500.0
14:23:54.684,STABILIZE,-35.3632622,149.1652374,0,-0.00113525683991611,0.0010468533728271723,0.0251411572098732,7.577129872515798e-05,0.0002599643776193261,0.0018479956779628992,0,1,-1000,1,0,0,-1,1,0,1500,1500.0
14:23:54.886,STABILIZE,-35.3632622,149.1652374,0,-0.00113525683991611,0.0010468533728271723,0.0251411572098732,7.577129872515798e-05,0.0002599643776193261,0.0018479956779628992,0,1,-1000,1,0,0,-1,1,0,1500,1500.0
14:23:55.087,STABILIZE,-35.3632622,149.1652374,0,-0.00113525683991611,0.0010468533728271723,0.0251411572098732,7.577129872515798e-05,0.0002599643776193261,0.0018479956779628992,0,1,-1000,1,0,0,-1,1,0,1500,1500.0
14:23:55.288,STABILIZE,-35.3632622,149.1652374,0,-0.00113525683991611,0.0010468533728271723,0.0251411572098732,7.577129872515798e-05,0.0002599643776193261,0.0018479956779628992,0,1,-1000,1,0,0,-1,1,0,1500,1500.0
14:23:55.490,STABILIZE,-35.3632621,149.1652374,0,-0.0011813355376943946,0.0009925663471221924,0.02487138658761978,0.00012366025475785136,0.0002530553610995412,0.0019321306608617306,0,2,-1000,0,0,0,-1,0,0,1500,1500.0
14:23:55.691,STABILIZE,-35.3632621,149.1652374,0,-0.0011813355376943946,0.0009925663471221924,0.02487138658761978,0.00012366025475785136,0.0002530553610995412,0.0019321306608617306,0,2,-1000,0,0,0,-1,0,0,1500,1500.0
14:23:55.892,STABILIZE,-35.3632621,149.1652374,0,-0.0011813355376943946,0.0009925663471221924,0.02487138658761978,0.00012366025475785136,0.0002530553610995412,0.0019321306608617306,0,2,-1000,0,0,0,-1,0,0,1500,1500.0
14:23:56.093,STABILIZE,-35.3632621,149.1652374,0,-0.0011761514469981194,0.0009520084131509066,0.024616409093141556,0.00026095728389918804,0.00025249971076846123,0.0017398681957274675,0,1,-1000,0,0,0,-1,0,0,1500,1500.0
14:23:56.294,STABILIZE,-35.3632621,149.1652374,0,-0.0011775114107877016,0.000944773608352989,0.024531740695238113,0.00022873980924487114,0.0001999489322770387,0.0017690169624984264,0,1,-1000,0,0,0,-1,0,0,1500,1500.0
14:23:56.495,STABILIZE,-35.3632621,149.1652374,0,-0.001181574771180749,0.000941765436436981,0.024452755227684975,0.0002571432269178331,0.00025995788746513426,0.001908216392621398,0,1,-1000,0,0,0,-1,0,0,1500,1500.0
14:23:56.696,STABILIZE,-35.3632621,149.1652374,0,-0.001181574771180749,0.000941765436436981,0.024452755227684975,0.0002571432269178331,0.00025995788746513426,0.001908216392621398,0,1,-1000,0,0,0,-1,0,0,1500,1500.0
14:23:56.897,STABILIZE,-35.3632621,149.1652374,0,-0.001181574771180749,0.000941765436436981,0.024452755227684975,0.0002571432269178331,0.00025995788746513426,0.001908216392621398,0,1,-1000,0,0,0,-1,0,0,1500,1500.0
14:23:57.098,STABILIZE,-35.3632621,149.1652374,0,-0.001181574771180749,0.000941765436436981,0.024452755227684975,0.0002571432269178331,0.00025995788746513426,0.001908216392621398,0,1,-1000,0,0,0,-1,0,0,1500,1500.0
14:23:57.300,STABILIZE,-35.3632621,149.1652374,0,-0.001181574771180749,0.000941765436436981,0.024452755227684975,0.0002571432269178331,0.00025995788746513426,0.001908216392621398,0,1,-1000,0,0,0,-1,0,0,1500,1500.0
14:23:57.501,STABILIZE,-35.3632621,149.1652374,0,-0.0011712330160662532,0.0009228690760210156,0.024173125624656677,0.00025181740056723356,0.0002222499460913241,0.0016977342311292887,0,2,-1000,0,1,0,-1,0,-2,1500,1500.0
14:23:57.702,STABILIZE,-35.3632621,149.1652374,0,-0.0011712330160662532,0.0009228690760210156,0.024173125624656677,0.00025181740056723356,0.0002222499460913241,0.0016977342311292887,0,2,-1000,0,1,0,-1,0,-2,1500,1500.0
14:23:57.903,STABILIZE,-35.3632621,149.1652374,0,-0.0011712330160662532,0.0009228690760210156,0.024173125624656677,0.00025181740056723356,0.0002222499460913241,0.0016977342311292887,0,1,-1000,0,0,0,-1,0,-2,1500,1500.0
14:23:58.104,STABILIZE,-35.3632621,149.1652374,0,-0.0011712330160662532,0.0009228690760210156,0.024173125624656677,0.00025181740056723356,0.0002222499460913241,0.0016977342311292887,0,1,-1000,0,0,0,-1,0,-2,1500,1500.0
14:23:58.305,STABILIZE,-35.3632621,149.1652374,0,-0.000893613207153976,0.0009284428670071065,0.023841680958867073,0.0002560660941526294,0.0002667427179403603,0.0017575843958184123,0,1,-1000,0,0,0,-1,0,-2,1500,1500.0
14:23:58.506,STABILIZE,-35.3632621,149.1652374,0,-0.000893613207153976,0.0009284428670071065,0.023841680958867073,0.0002560660941526294,0.0002667427179403603,0.0017575843958184123,0,1,-1000,0,0,0,-1,0,-2,1500,1500.0
14:23:58.707,STABILIZE,-35.3632621,149.1652374,0,-0.000893613207153976,0.0009284428670071065,0.023841680958867073,0.0002560660941526294,0.0002667427179403603,0.0017575843958184123,0,1,-1000,0,0,0,-1,0,-2,1500,1500.0
14:23:58.909,STABILIZE,-35.3632621,149.1652374,0,-0.000893613207153976,0.0009284428670071065,0.023841680958867073,0.0002560660941526294,0.0002667427179403603,0.0017575843958184123,0,1,-1000,0,0,0,-1,0,-2,1500,1500.0
14:23:59.112,STABILIZE,-35.3632621,149.1652374,0,-0.000893613207153976,0.0009284428670071065,0.023841680958867073,0.0002560660941526294,0.0002667427179403603,0.0017575843958184123,0,1,-1000,0,0,0,-1,0,-2,1500,1500.0
14:23:59.314,STABILIZE,-35.3632621,149.1652374,0,-0.000893613207153976,0.0009284428670071065,0.023841680958867073,0.0002560660941526294,0.0002667427179403603,0.0017575843958184123,0,1,-1000,0,0,0,-1,0,-2,1500,1500.0
14:23:59.515,STABILIZE,-35.3632621,149.1652374,0,-0.0007241681450977921,0.0009347292361781001,0.023358698934316635,0.00026676186826080084,0.00031499797478318214,0.001660939073190093,0,1,-1000,0,0,1,-1,0,-2,1500,1500.0
14:23:59.716,STABILIZE,-35.3632621,149.1652374,0,-0.0007241681450977921,0.0009347292361781001,0.023358698934316635,0.00026676186826080084,0.00031499797478318214,0.001660939073190093,0,1,-1000,0,0,1,-1,0,-2,1500,1500.0
14:23:59.917,STABILIZE,-35.3632621,149.1652374,0,-0.0007083260570652783,0.0009344670106656849,0.023266809061169624,0.0002840622910298407,0.00013584463158622384,0.0016367791686207056,0,1,-1000,0,0,1,-1,0,-2,1500,1500.0
14:24:00.118,STABILIZE,-35.3632621,149.1652374,0,-0.0007046354585327208,0.000943772669415921,0.02318042330443859,0.00023679801961407065,0.0002410810557194054,0.0017126561142504215,0,1,-1000,0,0,1,-1,0,-2,1500,1500.0
14:24:00.319,STABILIZE,-35.3632621,149.1652374,0,-0.0006938973674550653,0.0009501384338364005,0.023070069029927254,0.0003991942503489554,0.0003718304797075689,0.0016991564771160483,0,1,-1000,0,0,1,-1,1,-1,1500,1500.0
14:24:00.520,STABILIZE,-35.3632621,149.1652374,0,-0.0006951785762794316,0.0009520896128378808,0.02298370562493801,0.00020918354857712984,0.00023264193441718817,0.0016904290532693267,0,1,-1000,0,0,1,-1,1,-1,1500,1500.0
14:24:00.721,STABILIZE,-35.3632621,149.1652374,0,-0.0006951785762794316,0.0009520896128378808,0.02298370562493801,0.00020918354857712984,0.00023264193441718817,0.0016904290532693267,0,1,-1000,0,0,1,-1,1,-1,1500,1500.0
14:24:00.922,STABILIZE,-35.3632621,149.1652374,0,-0.0006951785762794316,0.0009520896128378808,0.02298370562493801,0.00020918354857712984,0.00023264193441718817,0.0016904290532693267,0,1,-1000,0,0,1,-1,1,-1,1500,1500.0
14:24:01.123,STABILIZE,-35.3632621,149.1652374,0,-0.0006951785762794316,0.0009520896128378808,0.02298370562493801,0.00020918354857712984,0.00023264193441718817,0.0016904290532693267,0,1,-1000,0,0,1,-1,1,-1,1500,1500.0
14:24:01.327,STABILIZE,-35.3632621,149.1652374,0,-0.0006951785762794316,0.0009520896128378808,0.02298370562493801,0.00020918354857712984,0.00023264193441718817,0.0016904290532693267,0,1,-1000,0,0,1,-1,1,-1,1500,1500.0
14:24:01.527,STABILIZE,-35.3632622,149.1652375,0,-0.0007077986374497414,0.0009643937810324132,0.022624023258686066,0.00023407110711559653,0.000188841309864074,0.001621263800188899,0,1,-1000,0,0,1,-1,1,-1,1500,1500.0
14:24:01.728,STABILIZE,-35.3632622,149.1652375,0,-0.0007259671692736447,0.0009578671306371689,0.02254639007151127,0.0003680383670143783,0.00020297040464356542,0.0015609811525791883,0,1,-1000,0,0,1,-1,1,-1,1500,1500.0
14:24:01.929,STABILIZE,-35.3632622,149.1652375,0,-0.0007259671692736447,0.0009578671306371689,0.02254639007151127,0.0003680383670143783,0.00020297040464356542,0.0015609811525791883,0,1,-1000,0,0,0,-1,1,-1,1500,1500.0
14:24:02.130,STABILIZE,-35.3632622,149.1652375,0,-0.0007392705301754177,0.0009603455546312034,0.02245156094431877,0.00029961392283439636,0.00028288556495681405,0.0016384308692067862,0,1,-1000,0,0,0,-1,1,-1,1500,1500.0
14:24:02.331,STABILIZE,-35.3632622,149.1652375,0,-0.0007497092010453343,0.0009593939175829291,0.022385530173778534,0.0004059410421177745,0.00021141383331269026,0.001621483126655221,0,1,-1000,0,0,0,-1,1,0,1500,1500.0
14:24:02.532,STABILIZE,-35.3632622,149.1652375,0,-0.0007514220778830349,0.0009539581369608641,0.022314269095659256,0.00041634077206254005,0.0002255550934933126,0.0016229772008955479,0,2,-1000,0,0,0,-1,1,0,1500,1500.0
14:24:02.733,STABILIZE,-35.3632622,149.1652375,0,-0.0007514220778830349,0.0009539581369608641,0.022314269095659256,0.00041634077206254005,0.0002255550934933126,0.0016229772008955479,0,2,-1000,0,0,0,-1,1,0,1500,1500.0
14:24:02.935,STABILIZE,-35.3632622,149.1652375,0,-0.0007514220778830349,0.0009539581369608641,0.022314269095659256,0.00041634077206254005,0.0002255550934933126,0.0016229772008955479,0,2,-1000,0,0,0,-1,1,0,1500,1500.0
14:24:03.139,STABILIZE,-35.3632622,149.1652375,0,-0.0007514220778830349,0.0009539581369608641,0.022314269095659256,0.00041634077206254005,0.0002255550934933126,0.0016229772008955479,0,2,-1000,0,0,0,-1,1,0,1500,1500.0
14:24:03.339,STABILIZE,-35.3632622,149.1652375,0,-0.0007514220778830349,0.0009539581369608641,0.022314269095659256,0.00041634077206254005,0.0002255550934933126,0.0016229772008955479,0,2,-1000,0,0,0,-1,1,0,1500,1500.0
14:24:03.540,STABILIZE,-35.3632622,149.1652375,0,-0.0007996406056918204,0.0009508234215900302,0.022013451904058456,0.0003763852873817086,0.00024059845600277185,0.0014958042884245515,0,2,-1000,0,0,0,-1,1,0,1500,1500.0
14:24:03.741,STABILIZE,-35.3632622,149.1652375,0,-0.0008201514719985425,0.0009441190049983561,0.021934928372502327,0.0003414663951843977,0.00028005940839648247,0.001566034508869052,0,1,-1000,0,1,0,-1,1,0,1500,1500.0
14:24:03.942,STABILIZE,-35.3632622,149.1652375,0,-0.0008201514719985425,0.0009441190049983561,0.021934928372502327,0.0003414663951843977,0.00028005940839648247,0.001566034508869052,0,1,-1000,0,1,0,-1,1,0,1500,1500.0
14:24:04.143,STABILIZE,-35.3632622,149.1652375,0,-0.0008201514719985425,0.0009441190049983561,0.021934928372502327,0.0003414663951843977,0.00028005940839648247,0.001566034508869052,0,2,-1000,0,0,1,-1,1,0,1500,1500.0
14:24:04.344,STABILIZE,-35.3632622,149.1652375,0,-0.0008201514719985425,0.0009441190049983561,0.021934928372502327,0.0003414663951843977,0.00028005940839648247,0.001566034508869052,0,2,-1000,0,1,0,-1,1,0,1500,1500.0
14:24:04.545,STABILIZE,-35.3632622,149.1652375,0,-0.0008455644128844142,0.000964406703133136,0.021714599803090096,0.00031545868841931224,0.0003491152310743928,0.0015311026945710182,0,2,-1000,0,1,0,-1,1,0,1500,1500.0
14:24:04.747,STABILIZE,-35.3632622,149.1652375,0,-0.0008455644128844142,0.000964406703133136,0.021714599803090096,0.00031545868841931224,0.0003491152310743928,0.0015311026945710182,0,2,-1000,0,1,0,-1,1,0,1500,1500.0
14:24:04.950,STABILIZE,-35.3632622,149.1652375,0,-0.0008455644128844142,0.000964406703133136,0.021714599803090096,0.00031545868841931224,0.0003491152310743928,0.0015311026945710182,0,2,-1000,0,1,0,-1,1,0,1500,1500.0
14:24:05.152,STABILIZE,-35.3632622,149.1652375,0,-0.0008455644128844142,0.000964406703133136,0.021714599803090096,0.00031545868841931224,0.0003491152310743928,0.0015311026945710182,0,2,-1000,0,1,0,-1,1,0,1500,1500.0
14:24:05.353,STABILIZE,-35.3632622,149.1652375,0,-0.0008455644128844142,0.000964406703133136,0.021714599803090096,0.00031545868841931224,0.0003491152310743928,0.0015311026945710182,0,2,-1000,0,1,0,-1,1,0,1500,1500.0
14:24:05.556,STABILIZE,-35.3632622,149.1652375,0,-0.0007121455855667591,0.0009811195777729154,0.021539676934480667,0.00041003350634127855,0.00024684739764779806,0.0014126331079751253,0,1,-1000,0,1,0,-1,1,0,1500,1500.0
14:24:05.758,STABILIZE,-35.3632622,149.1652375,0,-0.0006280593224801123,0.0009787012822926044,0.021397611126303673,0.00040554936276748776,0.00018979905871674418,0.001467222347855568,0,1,-1000,0,1,0,-1,1,0,1500,1500.0
14:24:05.959,STABILIZE,-35.3632622,149.1652375,0,-0.0006280593224801123,0.0009787012822926044,0.021397611126303673,0.00040554936276748776,0.00018979905871674418,0.001467222347855568,0,1,-1000,0,1,0,-1,1,0,1500,1500.0
14:24:06.160,STABILIZE,-35.3632622,149.1652375,0,-0.0006011543446220458,0.0009736892534419894,0.02134397253394127,0.0003147251554764807,0.00018055312102660537,0.0015066490741446614,0,1,-1000,0,1,0,-1,1,0,1500,1500.0
14:24:06.361,STABILIZE,-35.3632622,149.1652375,0,-0.0005768878036178648,0.0009750453755259514,0.021276701241731644,0.00030341069214046,0.0003312734770588577,0.0015184449730440974,0,1,-1000,0,1,0,-1,1,-1,1500,1500.0
14:24:06.562,STABILIZE,-35.3632622,149.1652375,0,-0.0005496643716469407,0.0009910956723615527,0.02120811678469181,0.0003625328536145389,0.00026290927780792117,0.0014127909671515226,0,1,-1000,0,0,0,-1,1,-1,1500,1500.0
14:24:06.763,STABILIZE,-35.3632622,149.1652375,0,-0.0005496643716469407,0.0009910956723615527,0.02120811678469181,0.0003625328536145389,0.00026290927780792117,0.0014127909671515226,0,1,-1000,0,0,0,-1,1,-1,1500,1500.0
14:24:06.965,STABILIZE,-35.3632622,149.1652375,0,-0.0005496643716469407,0.0009910956723615527,0.02120811678469181,0.0003625328536145389,0.00026290927780792117,0.0014127909671515226,0,1,-1000,0,0,0,-1,1,-1,1500,1500.0
14:24:07.166,STABILIZE,-35.3632622,149.1652375,0,-0.0005496643716469407,0.0009910956723615527,0.02120811678469181,0.0003625328536145389,0.00026290927780792117,0.0014127909671515226,0,1,-1000,0,0,0,-1,1,-1,1500,1500.0
14:24:07.368,STABILIZE,-35.3632622,149.1652375,0,-0.0005496643716469407,0.0009910956723615527,0.02120811678469181,0.0003625328536145389,0.00026290927780792117,0.0014127909671515226,0,1,-1000,0,0,0,-1,1,-1,1500,1500.0
14:24:07.570,STABILIZE,-35.3632622,149.1652375,0,-0.0005249898531474173,0.0009969905950129032,0.020923350006341934,0.0002536091487854719,0.00013713602675125003,0.0015301642706617713,0,2,-1000,0,0,0,-1,1,-1,1500,1500.0
14:24:07.772,AUTO,-35.3632622,149.1652375,0,-0.0005264816572889686,0.0009964117780327797,0.020839452743530273,0.0003732326440513134,0.0002552790683694184,0.0013616387732326984,0,1,-1000,0,0,0,-1,1,0,1500,1500.0
14:24:07.973,AUTO,-35.3632622,149.1652375,0,-0.0005264816572889686,0.0009964117780327797,0.020839452743530273,0.0003732326440513134,0.0002552790683694184,0.0013616387732326984,0,1,-1000,0,0,0,-1,1,0,1500,1500.0
14:24:08.174,AUTO,-35.3632622,149.1652375,2,-0.00021817965898662806,0.0009964267956092954,0.020787816494703293,0.00031499151373282075,0.00018001114949584007,0.0014350273413583636,0,1,-1000,0,0,1,-1,2,0,1500,1500.0
14:24:08.375,AUTO,-35.3632622,149.1652375,0,-0.0002471237094141543,0.0009878968121483922,0.020716942846775055,0.00027289421996101737,0.00020673847757279873,0.0014498108066618443,0,2,-1000,1,1,0,-1,2,0,1500,1500.0
14:24:08.576,AUTO,-35.3632622,149.1652375,0,-0.00029109331080690026,0.0009954610140994191,0.02064676582813263,0.0002948243054561317,0.0003891299129463732,0.0013933151494711637,0,1,-1000,1,0,1,-1,2,0,1500,1500.0
14:24:08.777,AUTO,-35.3632622,149.1652375,0,-0.00029109331080690026,0.0009954610140994191,0.02064676582813263,0.0002948243054561317,0.0003891299129463732,0.0013933151494711637,0,1,-1000,1,0,1,-1,2,0,1500,1500.0
14:24:08.979,AUTO,-35.3632622,149.1652375,0,-0.00029109331080690026,0.0009954610140994191,0.02064676582813263,0.0002948243054561317,0.0003891299129463732,0.0013933151494711637,0,1,-1000,1,0,1,-1,2,0,1500,1500.0
14:24:09.181,AUTO,-35.3632622,149.1652375,0,-0.00029109331080690026,0.0009954610140994191,0.02064676582813263,0.0002948243054561317,0.0003891299129463732,0.0013933151494711637,0,1,-1000,1,0,1,-1,2,0,1500,1500.0
14:24:09.382,AUTO,-35.3632622,149.1652375,0,-0.00029109331080690026,0.0009954610140994191,0.02064676582813263,0.0002948243054561317,0.0003891299129463732,0.0013933151494711637,0,1,-1000,1,0,1,-1,2,0,1500,1500.0
14:24:09.583,AUTO,-35.3632621,149.1652375,0,-0.00023743185738567263,0.0011433149920776486,0.020374057814478874,0.000297321705147624,0.00025551673024892807,0.0011922448175027966,0,2,-1000,0,1,0,0,0,0,1500,1500.0
14:24:09.784,AUTO,-35.3632621,149.1652375,0,-0.0001830175897339359,0.0011974015505984426,0.02029869332909584,0.0002762483200058341,0.00022825924679636955,0.0013388164807111025,0,1,-1000,1,1,0,0,0,0,1500,1500.0
14:24:09.984,AUTO,-35.3632621,149.1652375,0,-0.00012339635577518493,0.0012665074318647385,0.02024109475314617,0.00043101870687678456,0.00018122029723599553,0.0013803407782688737,0,2,-1000,1,1,0,0,0,0,1500,1500.0
14:24:10.186,AUTO,-35.3632621,149.1652375,0,-0.00012339635577518493,0.0012665074318647385,0.02024109475314617,0.00043101870687678456,0.00018122029723599553,0.0013803407782688737,0,2,-1000,1,1,0,0,0,0,1500,1500.0
14:24:10.387,AUTO,-35.3632621,149.1652375,0,-5.154211612534709e-05,0.0013420762261375785,0.02016274258494377,0.0003377783577889204,0.00024776917416602373,0.00140668754465878,0,1,-1000,0,0,1,0,0,0,1500,1500.0
14:24:10.588,AUTO,-35.3632621,149.1652374,0,1.8078397260978818e-05,0.001410012599080801,0.02009107545018196,0.0003141623456031084,0.0002822118694894016,0.0013977618655189872,0,1,-1000,1,1,0,0,0,0,1500,1500.0
14:24:10.791,AUTO,-35.3632621,149.1652374,0,1.8078397260978818e-05,0.001410012599080801,0.02009107545018196,0.0003141623456031084,0.0002822118694894016,0.0013977618655189872,0,1,-1000,1,1,0,0,0,0,1500,1500.0
14:24:10.992,AUTO,-35.3632621,149.1652374,0,1.8078397260978818e-05,0.001410012599080801,0.02009107545018196,0.0003141623456031084,0.0002822118694894016,0.0013977618655189872,0,1,-1000,1,1,0,0,0,0,1500,1500.0
14:24:11.194,AUTO,-35.3632621,149.1652374,0,1.8078397260978818e-05,0.001410012599080801,0.02009107545018196,0.0003141623456031084,0.0002822118694894016,0.0013977618655189872,0,1,-1000,1,1,0,0,0,0,1500,1500.0
14:24:11.397,AUTO,-35.3632621,149.1652374,0,1.8078397260978818e-05,0.001410012599080801,0.02009107545018196,0.0003141623456031084,0.0002822118694894016,0.0013977618655189872,0,1,-1000,1,1,0,0,0,0,1500,1500.0
14:24:11.600,AUTO,-35.3632621,149.1652374,0,0.00030012824572622776,0.0017010904848575592,0.01976139470934868,0.0003720138920471072,0.00040959328180179,0.0013429750688374043,0,2,-1000,1,0,1,0,0,0,1500,1500.0
14:24:11.801,AUTO,-35.3632621,149.1652374,0,0.0012037206906825304,0.0013504269300028682,0.019676048308610916,0.01753460057079792,-0.01224369928240776,0.001012333668768406,0,0,-1054,17,-11,0,0,0,-2,1500,1500.0
14:24:12.002,AUTO,-35.3632621,149.1652374,38,0.0038421815261244774,-0.00039614515844732523,0.01962652988731861,-0.006814218126237392,-0.0019438231829553843,0.0009626526152715087,0,0,-1139,-6,-1,0,0,0,-34,1500,1500.0
14:24:12.204,AUTO,-35.3632621,149.1652374,38,0.0038421815261244774,-0.00039614515844732523,0.01962652988731861,-0.006814218126237392,-0.0019438231829553843,0.0009626526152715087,0,0,-1139,-6,-1,0,0,0,-34,1500,1500.0
14:24:12.405,AUTO,-35.3632621,149.1652375,170,0.003565605031326413,8.909848111215979e-05,0.01944589987397194,0.004502272233366966,0.004193685483187437,-0.0006878026761114597,0,0,-1131,5,5,-1,0,0,-68,1500,1500.0
14:24:12.606,AUTO,-35.3632621,149.1652375,377,0.0025095827877521515,0.0010045304661616683,0.01960722729563713,-0.0011474289931356907,0.0024272501468658447,0.0012979565653949976,0,0,-1110,0,3,0,0,0,-97,1500,1500.0
14:24:12.808,AUTO,-35.3632621,149.1652375,377,0.0025095827877521515,0.0010045304661616683,0.01960722729563713,-0.0011474289931356907,0.0024272501468658447,0.0012979565653949976,0,0,-1110,0,3,0,0,0,-97,1500,1500.0
14:24:13.009,AUTO,-35.3632621,149.1652375,377,0.0025095827877521515,0.0010045304661616683,0.01960722729563713,-0.0011474289931356907,0.0024272501468658447,0.0012979565653949976,0,0,-1110,0,3,0,0,0,-97,1500,1500.0
14:24:13.211,AUTO,-35.3632621,149.1652375,377,0.0025095827877521515,0.0010045304661616683,0.01960722729563713,-0.0011474289931356907,0.0024272501468658447,0.0012979565653949976,0,0,-1110,0,3,0,0,0,-97,1500,1500.0
14:24:13.413,AUTO,-35.3632621,149.1652375,377,0.0025095827877521515,0.0010045304661616683,0.01960722729563713,-0.0011474289931356907,0.0024272501468658447,0.0012979565653949976,0,0,-1110,0,3,0,0,0,-97,1500,1500.0
14:24:13.614,AUTO,-35.363262,149.1652376,1713,0.03339703381061554,-0.002657244447618723,0.019233975559473038,0.04566139727830887,-0.007859131321310997,0.0026523973792791367,0,0,-1008,46,-6,2,1,10,-146,1500,1500.0
14:24:13.815,AUTO,-35.3632619,149.165238,2096,0.04430583864450455,-0.004825106356292963,0.01940389908850193,0.042847421020269394,-0.009139384143054485,0.0031274468638002872,0,-2,-1003,43,-8,3,3,18,-147,1500,1500.0
14:24:14.016,AUTO,-35.3632618,149.1652386,2480,0.054591719061136246,-0.007390793412923813,0.019650517031550407,0.039730336517095566,-0.010518012568354607,0.0037875818088650703,1,-4,-1000,40,-9,3,5,29,-147,1500,1500.0
14:24:14.218,AUTO,-35.3632618,149.1652386,2480,0.054591719061136246,-0.007390793412923813,0.019650517031550407,0.039730336517095566,-0.010518012568354607,0.0037875818088650703,1,-4,-1000,40,-9,3,5,29,-147,1500,1500.0
14:24:14.419,AUTO,-35.3632616,149.1652396,2872,0.06306766718626022,-0.009671350941061974,-0.008483857847750187,0.005908731836825609,0.006823541596531868,-0.032874345779418945,0,-8,-994,6,7,-33,8,41,-147,1500,1500.0
14:24:14.620,AUTO,-35.3632614,149.1652408,3252,0.04552766680717468,0.010512041859328747,-0.029813051223754883,-0.1275639683008194,0.10727754980325699,-0.10511554032564163,2,-11,-991,-126,107,-105,10,52,-145,1500,1500.0
14:24:14.821,AUTO,-35.3632614,149.1652408,3252,0.04552766680717468,0.010512041859328747,-0.029813051223754883,-0.1275639683008194,0.10727754980325699,-0.10511554032564163,2,-11,-991,-126,107,-105,10,52,-145,1500,1500.0
14:24:15.022,AUTO,-35.3632614,149.1652408,3252,0.04552766680717468,0.010512041859328747,-0.029813051223754883,-0.1275639683008194,0.10727754980325699,-0.10511554032564163,2,-11,-991,-126,107,-105,10,52,-145,1500,1500.0
14:24:15.223,AUTO,-35.3632614,149.1652408,3252,0.04552766680717468,0.010512041859328747,-0.029813051223754883,-0.1275639683008194,0.10727754980325699,-0.10511554032564163,2,-11,-991,-126,107,-105,10,52,-145,1500,1500.0
14:24:15.426,AUTO,-35.3632614,149.1652408,3252,0.04552766680717468,0.010512041859328747,-0.029813051223754883,-0.1275639683008194,0.10727754980325699,-0.10511554032564163,2,-11,-991,-126,107,-105,10,52,-145,1500,1500.0
14:24:15.627,AUTO,-35.3632609,149.1652457,4771,-0.04347043111920357,0.01174277812242508,-0.08648733794689178,-0.06053414195775986,-0.029014291241765022,-0.024973556399345398,4,-6,-1001,-59,-28,-25,-2,26,-148,1500,1500.0
14:24:15.828,AUTO,-35.363261,149.1652462,5156,-0.06240595132112503,0.0019435969879850745,-0.08804721385240555,-0.08713272213935852,-0.045069724321365356,0.0019295309903100133,3,-5,-998,-86,-44,1,-4,11,-148,1500,1500.0
14:24:16.029,AUTO,-35.363261,149.1652464,5539,-0.07694069296121597,-0.007554739248007536,-0.08721007406711578,-0.011889486573636532,-0.018025899305939674,-0.008265470154583454,1,0,-1004,-11,-17,-8,-3,-6,-148,1500,1500.0
14:24:16.230,AUTO,-35.363261,149.1652464,5539,-0.07694069296121597,-0.007554739248007536,-0.08721007406711578,-0.011889486573636532,-0.018025899305939674,-0.008265470154583454,1,0,-1004,-11,-17,-8,-3,-6,-148,1500,1500.0
14:24:16.430,AUTO,-35.363261,149.1652459,5924,-0.06972528994083405,-0.00900209229439497,-0.08935601264238358,0.047770172357559204,-0.0028516023885458708,-0.0059815687127411366,-1,3,-1002,48,-2,-6,-2,-25,-148,1500,1500.0
14:24:16.632,AUTO,-35.3632611,149.165245,6308,-0.05639951676130295,-0.009348521009087563,-0.09072978049516678,0.05631715804338455,0.0008626598282717168,-0.0027131843380630016,-3,5,-1001,56,1,-3,-2,-40,-148,1500,1500.0
14:24:16.833,AUTO,-35.3632611,149.165245,6308,-0.05639951676130295,-0.009348521009087563,-0.09072978049516678,0.05631715804338455,0.0008626598282717168,-0.0027131843380630016,-3,5,-1001,56,1,-3,-2,-40,-148,1500,1500.0
14:24:17.035,AUTO,-35.3632611,149.165245,6308,-0.05639951676130295,-0.009348521009087563,-0.09072978049516678,0.05631715804338455,0.0008626598282717168,-0.0027131843380630016,-3,5,-1001,56,1,-3,-2,-40,-148,1500,1500.0
14:24:17.236,AUTO,-35.3632611,149.165245,6308,-0.05639951676130295,-0.009348521009087563,-0.09072978049516678,0.05631715804338455,0.0008626598282717168,-0.0027131843380630016,-3,5,-1001,56,1,-3,-2,-40,-148,1500,1500.0
14:24:17.438,AUTO,-35.3632612,149.1652406,7462,-0.009783731773495674,-0.002732682041823864,-0.09242625534534454,0.06734820455312729,0.01405043713748455,0.00188835384324193,-7,9,-1003,68,14,1,-2,-60,-149,1500,1500.0
14:24:17.639,AUTO,-35.3632613,149.1652389,7849,0.006812244188040495,0.0008950532064773142,-0.09189943969249725,0.06815353035926819,0.01481718011200428,0.002977962838485837,-7,13,-1004,68,15,2,-3,-58,-150,1500,1500.0
14:24:17.840,AUTO,-35.3632614,149.1652373,8238,0.023232636973261833,0.004411329049617052,-0.09098416566848755,0.0653175562620163,0.013099554926156998,0.004203159362077713,-6,8,-1004,65,13,4,-4,-52,-151,1500,1500.0
14:24:18.042,AUTO,-35.3632615,149.1652359,8627,0.015316659584641457,-0.01127775851637125,-0.055743638426065445,-0.12212380766868591,-0.1709136962890625,0.2702357769012451,-5,11,-981,-121,-170,270,-5,-45,-148,1545,1500.0
14:24:18.243,AUTO,-35.3632615,149.1652347,9011,0.004551715217530727,-0.04050425812602043,-0.003503786399960518,0.048156194388866425,-0.03772106021642685,0.21577200293540955,-5,11,-1002,48,-37,215,1,-42,-148,1545,1500.0
14:24:18.444,AUTO,-35.3632615,149.1652347,9011,0.004551715217530727,-0.04050425812602043,-0.003503786399960518,0.048156194388866425,-0.03772106021642685,0.21577200293540955,-5,11,-1002,48,-37,215,1,-42,-148,1545,1500.0
14:24:18.645,AUTO,-35.3632614,149.1652335,9395,0.02605864778161049,-0.03461410477757454,0.04983121156692505,0.1102658361196518,0.0592077374458313,0.21460478007793427,-6,8,-1004,110,59,214,9,-37,-149,1545,1500.0
14:24:18.847,AUTO,-35.3632614,149.1652335,9395,0.02605864778161049,-0.03461410477757454,0.04983121156692505,0.1102658361196518,0.0592077374458313,0.21460478007793427,-6,8,-1004,110,59,214,9,-37,-149,1545,1500.0
14:24:19.048,AUTO,-35.3632614,149.1652335,9395,0.02605864778161049,-0.03461410477757454,0.04983121156692505,0.1102658361196518,0.0592077374458313,0.21460478007793427,-6,8,-1004,110,59,214,9,-37,-149,1545,1500.0
14:24:19.249,AUTO,-35.3632614,149.1652335,9395,0.02605864778161049,-0.03461410477757454,0.04983121156692505,0.1102658361196518,0.0592077374458313,0.21460478007793427,-6,8,-1004,110,59,214,9,-37,-149,1545,1500.0
14:24:19.452,AUTO,-35.3632606,149.1652318,10552,0.06756570190191269,-0.0077582611702382565,0.21236877143383026,-0.020407715812325478,0.06323949992656708,0.20555412769317627,-4,0,-994,-19,64,205,15,4,-148,1545,1500.0
14:24:19.653,AUTO,-35.3632603,149.165232,10932,0.0573350228369236,0.005833642557263374,0.26317915320396423,-0.04990033805370331,0.06241163983941078,0.19894950091838837,-2,-2,-997,-49,62,198,11,17,-147,1545,1500.0
14:24:19.854,AUTO,-35.3632601,149.1652324,11310,0.043892212212085724,0.015657909214496613,0.3122643530368805,-0.05592016130685806,0.038473889231681824,0.19671766459941864,-1,-5,-1000,-55,39,196,5,26,-146,1545,1500.0
14:24:20.055,AUTO,-35.36326,149.1652332,11687,0.03147757053375244,0.020803412422537804,0.359883576631546,-0.05250101163983345,0.01864304207265377,0.19159157574176788,-1,-6,-1001,-52,19,191,0,31,-146,1545,1500.0
14:24:20.256,AUTO,-35.36326,149.165234,12068,0.020503351464867592,0.02290877141058445,0.4077984094619751,-0.046117886900901794,0.0071526505053043365,0.18608656525611877,0,-6,-1002,-45,7,185,-6,32,-147,1545,1500.0
14:24:20.457,AUTO,-35.36326,149.165234,12068,0.020503351464867592,0.02290877141058445,0.4077984094619751,-0.046117886900901794,0.0071526505053043365,0.18608656525611877,0,-6,-1002,-45,7,185,-6,32,-147,1545,1500.0
14:24:20.658,AUTO,-35.3632602,149.1652348,12448,0.010603860951960087,0.022219674661755562,0.45471107959747314,-0.04087209701538086,-0.0048502059653401375,0.1864691525697708,1,-6,-1002,-40,-4,186,-11,31,-147,1545,1500.0
14:24:20.859,AUTO,-35.3632602,149.1652348,12448,0.010603860951960087,0.022219674661755562,0.45471107959747314,-0.04087209701538086,-0.0048502059653401375,0.1864691525697708,1,-6,-1002,-40,-4,186,-11,31,-147,1545,1500.0
14:24:21.060,AUTO,-35.3632602,149.1652348,12448,0.010603860951960087,0.022219674661755562,0.45471107959747314,-0.04087209701538086,-0.0048502059653401375,0.1864691525697708,1,-6,-1002,-40,-4,186,-11,31,-147,1545,1500.0
14:24:21.261,AUTO,-35.3632602,149.1652348,12448,0.010603860951960087,0.022219674661755562,0.45471107959747314,-0.04087209701538086,-0.0048502059653401375,0.1864691525697708,1,-6,-1002,-40,-4,186,-11,31,-147,1545,1500.0
14:24:21.462,AUTO,-35.3632612,149.1652368,13596,0.0031143054366111755,0.025000490248203278,0.5529873967170715,0.01397731527686119,0.01294768787920475,0.0546313039958477,3,-3,-1003,14,13,54,-19,20,-151,1500,1500.0
14:24:21.663,AUTO,-35.3632617,149.1652372,13986,0.007004130631685257,0.027619190514087677,0.5626183152198792,0.01645747199654579,0.008848804049193859,0.023033158853650093,4,-4,-1001,16,9,22,-23,16,-151,1500,1500.0
14:24:21.864,AUTO,-35.3632622,149.1652375,14375,0.01137570384889841,0.02909127064049244,0.5661022067070007,0.015250671654939651,0.005820519290864468,0.0007115927874110639,5,-2,-1000,16,6,0,-28,14,-152,1500,1500.0
14:24:22.065,AUTO,-35.3632629,149.1652378,14765,0.015604153275489807,0.02988308109343052,0.5651103854179382,0.011277529411017895,-0.0011252711992710829,-0.0045637162402272224,6,-1,-998,11,0,-4,-34,12,-151,1500,1500.0
14:24:22.266,AUTO,-35.3632637,149.1652381,15154,0.011430013924837112,0.02288248762488365,0.5675088167190552,-0.03095290996134281,-0.04761144891381264,0.019279690459370613,8,-2,-998,-30,-46,19,-39,11,-151,1500,1500.0
14:24:22.467,AUTO,-35.3632637,149.1652381,15154,0.011430013924837112,0.02288248762488365,0.5675088167190552,-0.03095290996134281,-0.04761144891381264,0.019279690459370613,8,-2,-998,-30,-46,19,-39,11,-151,1500,1500.0
14:24:22.668,AUTO,-35.3632646,149.1652383,15540,9.499426960246637e-05,0.008084621280431747,0.5747560858726501,-0.054634176194667816,-0.06183384731411934,0.032149653881788254,9,-2,-999,-54,-61,31,-40,10,-150,1500,1500.0
14:24:22.869,AUTO,-35.3632646,149.1652383,15540,9.499426960246637e-05,0.008084621280431747,0.5747560858726501,-0.054634176194667816,-0.06183384731411934,0.032149653881788254,9,-2,-999,-54,-61,31,-40,10,-150,1500,1500.0
14:24:23.070,AUTO,-35.3632646,149.1652383,15540,9.499426960246637e-05,0.008084621280431747,0.5747560858726501,-0.054634176194667816,-0.06183384731411934,0.032149653881788254,9,-2,-999,-54,-61,31,-40,10,-150,1500,1500.0
14:24:23.271,AUTO,-35.3632646,149.1652383,15540,9.499426960246637e-05,0.008084621280431747,0.5747560858726501,-0.054634176194667816,-0.06183384731411934,0.032149653881788254,9,-2,-999,-54,-61,31,-40,10,-150,1500,1500.0
14:24:23.473,AUTO,-35.3632667,149.1652386,16705,-0.02956426702439785,-0.024992331862449646,0.5951659083366394,-0.013095787726342678,-0.025158248841762543,0.01471756398677826,5,-1,-1003,-12,-24,14,-18,3,-152,1500,1500.0
14:24:23.674,AUTO,-35.363267,149.1652386,17095,-0.03206456080079079,-0.029314767569303513,0.5974887609481812,-0.0008262983756139874,-0.012219229713082314,0.005086509510874748,2,0,-1002,0,-11,4,-7,0,-152,1500,1500.0
14:24:23.875,AUTO,-35.3632671,149.1652385,17486,-0.030643491074442863,-0.03097428008913994,0.5975683331489563,0.00827312096953392,-0.0008786579128354788,-0.00310140335932374,0,0,-1000,8,0,-3,3,-2,-152,1500,1500.0
14:24:24.076,AUTO,-35.3632669,149.1652384,17876,-0.03347337245941162,-0.023864656686782837,0.5870598554611206,-0.060933396220207214,0.0921439379453659,-0.09265262633562088,-1,1,-994,-60,92,-92,14,-5,-151,1500,1500.0
14:24:24.277,AUTO,-35.3632666,149.1652381,18264,-0.033600229769945145,-0.00789343286305666,0.571010947227478,0.040865570306777954,0.030066657811403275,-0.045167043805122375,-4,2,-1004,41,30,-45,21,-11,-152,1500,1500.0
14:24:24.478,AUTO,-35.3632666,149.1652381,18264,-0.033600229769945145,-0.00789343286305666,0.571010947227478,0.040865570306777954,0.030066657811403275,-0.045167043805122375,-4,2,-1004,41,30,-45,21,-11,-152,1500,1500.0
14:24:24.679,AUTO,-35.363266,149.1652376,18654,-0.021205570548772812,-0.004512066952884197,0.561301052570343,0.052678704261779785,0.009680955670773983,-0.03212369233369827,-5,3,-1002,53,10,-32,25,-17,-152,1500,1500.0
14:24:24.880,AUTO,-35.363266,149.1652376,18654,-0.021205570548772812,-0.004512066952884197,0.561301052570343,0.052678704261779785,0.009680955670773983,-0.03212369233369827,-5,3,-1002,53,10,-32,25,-17,-152,1500,1500.0
14:24:25.081,AUTO,-35.363266,149.1652376,18654,-0.021205570548772812,-0.004512066952884197,0.561301052570343,0.052678704261779785,0.009680955670773983,-0.03212369233369827,-5,3,-1002,53,10,-32,25,-17,-152,1500,1500.0
14:24:25.282,AUTO,-35.363266,149.1652376,18654,-0.021205570548772812,-0.004512066952884197,0.561301052570343,0.052678704261779785,0.009680955670773983,-0.03212369233369827,-5,3,-1002,53,10,-32,25,-17,-152,1500,1500.0
14:24:25.484,AUTO,-35.3632642,149.1652358,19829,0.019588084891438484,0.0032823493238538504,0.5462015271186829,0.055426228791475296,0.011053296737372875,-0.011257091537117958,-5,5,-1002,56,11,-11,22,-19,-154,1500,1500.0
14:24:25.685,AUTO,-35.3632637,149.1652353,20224,0.031145676970481873,0.00420702900737524,0.5460647940635681,0.02733737602829933,-0.012199102900922298,0.018063878640532494,-5,5,-999,28,-11,17,16,-14,-154,1500,1500.0
14:24:25.886,AUTO,-35.3632634,149.1652349,20617,0.033143300563097,-0.0048333872109651566,0.5548781156539917,0.0011177465785294771,-0.047114815562963486,0.049332596361637115,-3,3,-998,1,-46,49,12,-8,-153,1500,1500.0
14:24:26.087,AUTO,-35.3632631,149.1652347,21008,0.029816126450896263,-0.013133839704096317,0.5639272332191467,-0.03165728598833084,-0.004906063433736563,0.020149661228060722,-3,2,-996,-30,-3,20,9,-1,-152,1500,1500.0
14:24:26.288,AUTO,-35.3632628,149.1652347,21403,0.020371494814753532,-0.010288008488714695,0.5662735104560852,-0.03312098607420921,0.017601173371076584,0.0017922008410096169,-2,0,-999,-32,18,1,9,4,-152,1500,1500.0
14:24:26.489,AUTO,-35.3632625,149.1652348,21792,0.014165181666612625,-0.0069932155311107635,0.5664827823638916,-0.015655485913157463,0.009122626855969429,-0.0014091654447838664,-2,0,-999,-32,18,1,8,7,-152,1500,1500.0
14:24:27.145,AUTO,-35.3632625,149.1652348,21792,0.014165181666612625,-0.0069932155311107635,0.5664827823638916,-0.015655485913157463,0.009122626855969429,-0.0014091654447838664,-2,0,-1001,-14,10,-1,8,7,-152,1500,1500.0
14:24:27.347,AUTO,-35.3632625,149.1652348,21792,0.014165181666612625,-0.0069932155311107635,0.5664827823638916,-0.015655485913157463,0.009122626855969429,-0.0014091654447838664,-2,0,-1001,-14,10,-1,8,7,-152,1500,1500.0
14:24:27.548,AUTO,-35.3632625,149.1652348,21792,0.014165181666612625,-0.0069932155311107635,0.5664827823638916,-0.015655485913157463,0.009122626855969429,-0.0014091654447838664,-2,0,-1001,-14,10,-1,8,7,-152,1500,1500.0
14:24:27.750,AUTO,-35.3632625,149.1652348,21792,0.014165181666612625,-0.0069932155311107635,0.5664827823638916,-0.015655485913157463,0.009122626855969429,-0.0014091654447838664,-2,0,-1001,-14,10,-1,8,7,-152,1500,1500.0
14:24:27.952,AUTO,-35.3632614,149.1652358,23347,0.011919166892766953,-0.0016952779842540622,0.5615850687026978,0.003127260599285364,0.005278755910694599,-0.006080005783587694,-2,-2,-1000,4,6,-6,8,13,-153,1500,1500.0
14:24:28.153,AUTO,-35.3632614,149.1652358,23347,0.011919166892766953,-0.0016952779842540622,0.5615850687026978,0.003127260599285364,0.005278755910694599,-0.006080005783587694,-2,-2,-1000,4,6,-6,8,13,-153,1500,1500.0
14:24:28.354,AUTO,-35.3632612,149.1652362,23737,0.01433533988893032,-0.002797137713059783,0.5617102980613708,0.007999510504305363,-0.0017854218604043126,-0.0030570109374821186,-2,-3,-1000,8,0,-3,7,15,-153,1500,1500.0
14:24:28.554,AUTO,-35.3632609,149.1652366,24128,0.014541742391884327,-0.0013252194039523602,0.5596747398376465,-0.0008233800181187689,0.010665996931493282,-0.011726933531463146,-2,-3,-1000,0,11,-11,7,16,-153,1500,1500.0
14:24:28.755,AUTO,-35.3632607,149.1652371,24519,0.01329412404447794,0.0012121798936277628,0.556567907333374,-0.0049927858635783195,0.01024496927857399,-0.013506039045751095,-2,-3,-1000,-3,11,-13,6,18,-153,1500,1500.0
14:24:28.956,AUTO,-35.3632605,149.1652376,24909,0.009750209748744965,0.0031881302129477262,0.5531761646270752,-0.07750285416841507,0.006544134579598904,-0.011269023641943932,-2,-8,-986,-76,7,-11,4,18,-152,1500,1500.0
14:24:29.157,AUTO,-35.3632605,149.1652376,24909,0.009750209748744965,0.0031881302129477262,0.5531761646270752,-0.07750285416841507,0.006544134579598904,-0.011269023641943932,-2,-8,-986,-76,7,-11,4,18,-152,1500,1500.0
14:24:29.358,AUTO,-35.3632605,149.1652376,24909,0.009750209748744965,0.0031881302129477262,0.5531761646270752,-0.07750285416841507,0.006544134579598904,-0.011269023641943932,-2,-8,-986,-76,7,-11,4,18,-152,1500,1500.0
14:24:29.559,AUTO,-35.3632605,149.1652376,24909,0.009750209748744965,0.0031881302129477262,0.5531761646270752,-0.07750285416841507,0.006544134579598904,-0.011269023641943932,-2,-8,-986,-76,7,-11,4,18,-152,1500,1500.0
14:24:29.760,AUTO,-35.3632605,149.1652376,24909,0.009750209748744965,0.0031881302129477262,0.5531761646270752,-0.07750285416841507,0.006544134579598904,-0.011269023641943932,-2,-8,-986,-76,7,-11,4,18,-152,1500,1500.0
14:24:29.962,AUTO,-35.3632598,149.1652391,26475,-0.0036034684162586927,0.00616549514234066,0.540486216545105,-0.040406182408332825,0.004232218489050865,-0.012138945050537586,-1,-3,-997,-39,5,-12,4,9,-153,1500,1500.0
14:24:30.163,AUTO,-35.3632598,149.1652391,26475,-0.0036034684162586927,0.00616549514234066,0.540486216545105,-0.040406182408332825,0.004232218489050865,-0.012138945050537586,-1,-3,-997,-39,5,-12,4,9,-153,1500,1500.0
14:24:30.364,AUTO,-35.3632596,149.1652393,26864,-0.011636173352599144,0.006714613642543554,0.5374635457992554,-0.025297299027442932,0.002283967100083828,-0.0135017279535532,-1,-1,-1000,-24,3,-14,4,5,-152,1500,1500.0
14:24:30.565,AUTO,-35.3632594,149.1652394,27252,-0.01570982299745083,0.007222787477076054,0.5343664288520813,-0.005605005193501711,0.0032808170653879642,-0.015204344876110554,-2,-1,-1001,-4,4,-15,5,1,-152,1500,1500.0
14:24:30.766,AUTO,-35.3632592,149.1652394,27642,-0.014128261245787144,0.008599763736128807,0.5306252837181091,0.014641286805272102,0.00810044351965189,-0.01586940698325634,-2,0,-1002,15,9,-15,6,-3,-153,1500,1500.0
14:24:30.967,AUTO,-35.363259,149.1652393,28033,-0.009546291083097458,0.010164802893996239,0.5269328355789185,0.02099696546792984,0.005874174647033215,-0.012310132384300232,-2,1,-1001,22,6,-12,6,-8,-153,1500,1500.0
14:24:31.168,AUTO,-35.363259,149.1652393,28033,-0.009546291083097458,0.010164802893996239,0.5269328355789185,0.02099696546792984,0.005874174647033215,-0.012310132384300232,-2,1,-1001,22,6,-12,6,-8,-153,1500,1500.0
14:24:31.369,AUTO,-35.363259,149.1652393,28033,-0.009546291083097458,0.010164802893996239,0.5269328355789185,0.02099696546792984,0.005874174647033215,-0.012310132384300232,-2,1,-1001,22,6,-12,6,-8,-153,1500,1500.0
14:24:31.570,AUTO,-35.363259,149.1652393,28033,-0.009546291083097458,0.010164802893996239,0.5269328355789185,0.02099696546792984,0.005874174647033215,-0.012310132384300232,-2,1,-1001,22,6,-12,6,-8,-153,1500,1500.0
14:24:31.771,AUTO,-35.363259,149.1652393,28033,-0.009546291083097458,0.010164802893996239,0.5269328355789185,0.02099696546792984,0.005874174647033215,-0.012310132384300232,-2,1,-1001,22,6,-12,6,-8,-153,1500,1500.0
14:24:31.973,AUTO,-35.3632587,149.1652377,29588,-0.0421365424990654,0.07481146603822708,0.4395144283771515,-0.0826537236571312,0.16405895352363586,-0.21881434321403503,0,4,-999,-81,165,-218,-9,-27,-149,1435,1500.0
14:24:32.174,AUTO,-35.3632587,149.1652377,29588,-0.0421365424990654,0.07481146603822708,0.4395144283771515,-0.0826537236571312,0.16405895352363586,-0.21881434321403503,0,4,-999,-81,165,-218,-9,-27,-149,1435,1500.0
14:24:32.375,AUTO,-35.3632589,149.1652368,29966,-0.04461716488003731,0.09061036258935928,0.3694588541984558,0.1232541874051094,-0.02800823003053665,-0.35185080766677856,2,8,-986,124,-27,-352,-24,-45,-146,1435,1500.0
14:24:32.576,AUTO,-35.3632595,149.1652354,30335,-0.01727900095283985,0.06852450966835022,0.2712082266807556,0.1332472711801529,-0.08153950423002243,-0.41476601362228394,4,13,-1000,134,-80,-414,-39,-55,-144,1435,1500.0
14:24:32.777,AUTO,-35.3632605,149.1652339,30703,0.009256500750780106,0.04775995388627052,0.166110098361969,0.1287420690059662,-0.07856430858373642,-0.4206041991710663,6,18,-1008,129,-77,-420,-52,-56,-145,1435,1500.0
14:24:32.978,AUTO,-35.3632617,149.1652324,31074,0.03647598996758461,0.03083004243671894,0.06306096911430359,0.1226513683795929,-0.07369916886091232,-0.40057986974716187,5,17,-1011,123,-72,-400,-60,-48,-147,1435,1500.0
14:24:33.179,AUTO,-35.3632617,149.1652324,31074,0.03647598996758461,0.03083004243671894,0.06306096911430359,0.1226513683795929,-0.07369916886091232,-0.40057986974716187,5,17,-1011,123,-72,-400,-60,-48,-147,1435,1500.0
14:24:33.381,AUTO,-35.3632617,149.1652324,31074,0.03647598996758461,0.03083004243671894,0.06306096911430359,0.1226513683795929,-0.07369916886091232,-0.40057986974716187,5,17,-1011,123,-72,-400,-60,-48,-147,1435,1500.0
14:24:33.582,AUTO,-35.3632617,149.1652324,31074,0.03647598996758461,0.03083004243671894,0.06306096911430359,0.1226513683795929,-0.07369916886091232,-0.40057986974716187,5,17,-1011,123,-72,-400,-60,-48,-147,1435,1500.0
14:24:33.783,AUTO,-35.3632617,149.1652324,31074,0.03647598996758461,0.03083004243671894,0.06306096911430359,0.1226513683795929,-0.07369916886091232,-0.40057986974716187,5,17,-1011,123,-72,-400,-60,-48,-147,1435,1500.0
14:24:33.984,AUTO,-35.3632668,149.1652313,32598,0.08361083269119263,-0.04302288591861725,-0.30267804861068726,-0.07525143772363663,-0.14645276963710785,-0.4421864449977875,11,4,-986,-74,-145,-442,-40,34,-145,1435,1500.0
14:24:34.185,AUTO,-35.3632668,149.1652313,32598,0.08361083269119263,-0.04302288591861725,-0.30267804861068726,-0.07525143772363663,-0.14645276963710785,-0.4421864449977875,11,4,-986,-74,-145,-442,-40,34,-145,1435,1500.0
14:24:34.386,AUTO,-35.3632674,149.1652324,32971,0.06848737597465515,-0.07577075064182281,-0.36507755517959595,-0.038521233946084976,-0.1413138061761856,-0.16286884248256683,13,-1,-1020,-37,-140,-162,-16,45,-148,1435,1500.0
14:24:34.587,AUTO,-35.3632674,149.1652336,33350,0.06315473467111588,-0.09286834299564362,-0.4069548547267914,-0.02974245510995388,-0.042116690427064896,-0.12910646200180054,9,-5,-1010,-28,-41,-129,11,49,-149,1500,1500.0
14:24:34.788,AUTO,-35.3632668,149.165235,33729,0.059860363602638245,-0.10821066796779633,-0.42868050932884216,-0.08073492348194122,-0.11661309003829956,-0.002967565320432186,6,-12,-993,-79,-115,-3,41,50,-148,1500,1500.0
14:24:34.989,AUTO,-35.3632655,149.1652362,34098,0.010607821866869926,-0.12470591068267822,-0.44230717420578003,-0.27913302183151245,0.020326979458332062,-0.08259294927120209,3,-18,-987,-277,21,-82,70,41,-142,1500,1500.0
14:24:35.190,AUTO,-35.3632655,149.1652362,34098,0.010607821866869926,-0.12470591068267822,-0.44230717420578003,-0.27913302183151245,0.020326979458332062,-0.08259294927120209,3,-18,-987,-277,21,-82,70,41,-142,1500,1500.0
14:24:35.391,AUTO,-35.3632655,149.1652362,34098,0.010607821866869926,-0.12470591068267822,-0.44230717420578003,-0.27913302183151245,0.020326979458332062,-0.08259294927120209,3,-18,-987,-277,21,-82,70,41,-142,1500,1500.0
14:24:35.592,AUTO,-35.3632655,149.1652362,34098,0.010607821866869926,-0.12470591068267822,-0.44230717420578003,-0.27913302183151245,0.020326979458332062,-0.08259294927120209,3,-18,-987,-277,21,-82,70,41,-142,1500,1500.0
14:24:35.793,AUTO,-35.3632655,149.1652362,34098,0.010607821866869926,-0.12470591068267822,-0.44230717420578003,-0.27913302183151245,0.020326979458332062,-0.08259294927120209,3,-18,-987,-277,21,-82,70,41,-142,1500,1500.0
14:24:35.994,AUTO,-35.3632567,149.1652354,35543,-0.045785240828990936,-0.020122196525335312,-0.46459659934043884,0.05211423709988594,0.1193866953253746,0.03126324713230133,-23,-18,-1014,53,120,31,99,-52,-147,1500,1500.0
14:24:36.196,AUTO,-35.3632545,149.1652338,35921,-0.03363976255059242,0.006894043181091547,-0.4575249254703522,0.044814977794885635,0.09793314337730408,0.03121074289083481,-23,-10,-1014,45,98,31,91,-62,-150,1500,1500.0
14:24:36.398,AUTO,-35.3632545,149.1652338,35921,-0.03363976255059242,0.006894043181091547,-0.4575249254703522,0.044814977794885635,0.09793314337730408,0.03121074289083481,-23,-10,-1014,45,98,31,91,-62,-150,1500,1500.0
14:24:36.598,AUTO,-35.3632525,149.1652321,36306,-0.02313806302845478,0.028169620782136917,-0.45147228240966797,0.036703530699014664,0.07302356511354446,0.019051551818847656,-24,-8,-1013,37,73,19,77,-66,-153,1500,1500.0
14:24:36.800,AUTO,-35.3632509,149.1652302,36699,-0.013973139226436615,0.04448267072439194,-0.4476579427719116,0.03760765120387077,0.061619434505701065,0.013911839574575424,-23,-5,-1009,38,62,13,62,-66,-155,1500,1500.0
14:24:37.001,AUTO,-35.3632496,149.1652284,37105,-0.003625955432653427,0.05900300666689873,-0.4452381432056427,0.04267505928874016,0.054457928985357285,0.008389771915972233,-19,-2,-1007,43,55,8,44,-61,-157,1500,1500.0
14:24:37.201,AUTO,-35.3632496,149.1652284,37105,-0.003625955432653427,0.05900300666689873,-0.4452381432056427,0.04267505928874016,0.054457928985357285,0.008389771915972233,-19,-2,-1007,43,55,8,44,-61,-157,1500,1500.0
14:24:37.404,AUTO,-35.3632496,149.1652284,37105,-0.003625955432653427,0.05900300666689873,-0.4452381432056427,0.04267505928874016,0.054457928985357285,0.008389771915972233,-19,-2,-1007,43,55,8,44,-61,-157,1500,1500.0
14:24:37.606,AUTO,-35.3632496,149.1652284,37105,-0.003625955432653427,0.05900300666689873,-0.4452381432056427,0.04267505928874016,0.054457928985357285,0.008389771915972233,-19,-2,-1007,43,55,8,44,-61,-157,1500,1500.0
14:24:37.806,AUTO,-35.3632496,149.1652284,37105,-0.003625955432653427,0.05900300666689873,-0.4452381432056427,0.04267505928874016,0.054457928985357285,0.008389771915972233,-19,-2,-1007,43,55,8,44,-61,-157,1500,1500.0
14:24:38.008,AUTO,-35.3632484,149.1652242,38696,0.03715778514742851,0.09796561300754547,-0.45018479228019714,0.029473749920725822,0.03027256578207016,-0.02907388284802437,-1,5,-996,30,31,-28,-26,-5,-154,1500,1500.0
14:24:38.209,AUTO,-35.3632491,149.1652243,39085,0.042347438633441925,0.10514558106660843,-0.45995014905929565,0.021353384479880333,0.025415955111384392,-0.04665594547986984,4,4,-995,22,26,-46,-42,14,-151,1500,1500.0
14:24:38.410,AUTO,-35.3632491,149.1652243,39085,0.042347438633441925,0.10514558106660843,-0.45995014905929565,0.021353384479880333,0.025415955111384392,-0.04665594547986984,4,4,-995,22,26,-46,-42,14,-151,1500,1500.0
14:24:38.611,AUTO,-35.3632502,149.1652249,39467,0.046685878187417984,0.1098766103386879,-0.4726437032222748,0.04044083133339882,-0.003189284121617675,-0.04211237281560898,10,6,-996,41,-1,-42,-58,36,-148,1500,1500.0
14:24:38.812,AUTO,-35.3632516,149.1652261,39843,0.05879207327961922,0.10279972851276398,-0.4811955690383911,0.05696599930524826,-0.0459197461605072,-0.025282254442572594,14,6,-996,58,-44,-25,-71,59,-146,1500,1500.0
14:24:39.013,AUTO,-35.3632533,149.165228,40212,0.06121080368757248,0.08303061872720718,-0.4814147651195526,-0.0511767715215683,-0.11674851924180984,0.038860391825437546,20,8,-991,-50,-115,39,-79,82,-143,1500,1500.0
14:24:39.215,AUTO,-35.3632533,149.165228,40212,0.06121080368757248,0.08303061872720718,-0.4814147651195526,-0.0511767715215683,-0.11674851924180984,0.038860391825437546,20,8,-991,-50,-115,39,-79,82,-143,1500,1500.0
14:24:39.419,AUTO,-35.3632533,149.165228,40212,0.06121080368757248,0.08303061872720718,-0.4814147651195526,-0.0511767715215683,-0.11674851924180984,0.038860391825437546,20,8,-991,-50,-115,39,-79,82,-143,1500,1500.0
14:24:39.621,AUTO,-35.3632533,149.165228,40212,0.06121080368757248,0.08303061872720718,-0.4814147651195526,-0.0511767715215683,-0.11674851924180984,0.038860391825437546,20,8,-991,-50,-115,39,-79,82,-143,1500,1500.0
14:24:39.823,AUTO,-35.3632533,149.165228,40212,0.06121080368757248,0.08303061872720718,-0.4814147651195526,-0.0511767715215683,-0.11674851924180984,0.038860391825437546,20,8,-991,-50,-115,39,-79,82,-143,1500,1500.0
14:24:40.024,AUTO,-35.3632599,149.1652386,41699,-0.03515373915433884,-0.03722155839204788,-0.44176608324050903,-0.07537815719842911,-0.07643868774175644,0.006971306167542934,26,-2,-1015,-74,-75,7,-60,86,-152,1500,1500.0
14:24:40.225,AUTO,-35.3632611,149.1652407,42087,-0.07662239670753479,-0.07431985437870026,-0.41751644015312195,-0.11218288540840149,-0.12117867171764374,0.052744053304195404,23,0,-1021,-111,-119,52,-47,65,-153,1500,1500.0
14:24:40.426,AUTO,-35.3632611,149.1652407,42087,-0.07662239670753479,-0.07431985437870026,-0.41751644015312195,-0.11218288540840149,-0.12117867171764374,0.052744053304195404,23,0,-1021,-111,-119,52,-47,65,-153,1500,1500.0
14:24:40.627,AUTO,-35.363262,149.1652422,42481,-0.09337786585092545,-0.0907532200217247,-0.41022294759750366,-0.02540723979473114,-0.02745800092816353,-0.006861519068479538,15,0,-1014,-24,-26,-6,-32,34,-156,1500,1500.0
14:24:40.828,AUTO,-35.3632626,149.1652427,42877,-0.09277869015932083,-0.09231099486351013,-0.4137748181819916,0.011173203587532043,0.005903427489101887,-0.021978771314024925,10,4,-1002,12,6,-21,-18,3,-155,1500,1500.0
14:24:41.029,AUTO,-35.3632629,149.1652424,43270,-0.0867471992969513,-0.09032448381185532,-0.42096588015556335,0.032848965376615524,0.01086525246500969,-0.024954983964562416,0,3,-998,33,11,-24,-6,-25,-153,1500,1500.0
14:24:41.230,AUTO,-35.3632629,149.1652424,43270,-0.0867471992969513,-0.09032448381185532,-0.42096588015556335,0.032848965376615524,0.01086525246500969,-0.024954983964562416,0,3,-998,33,11,-24,-6,-25,-153,1500,1500.0
14:24:41.432,AUTO,-35.3632629,149.1652424,43270,-0.0867471992969513,-0.09032448381185532,-0.42096588015556335,0.032848965376615524,0.01086525246500969,-0.024954983964562416,0,3,-998,33,11,-24,-6,-25,-153,1500,1500.0
14:24:41.634,AUTO,-35.3632629,149.1652424,43270,-0.0867471992969513,-0.09032448381185532,-0.42096588015556335,0.032848965376615524,0.01086525246500969,-0.024954983964562416,0,3,-998,33,11,-24,-6,-25,-153,1500,1500.0
14:24:41.837,AUTO,-35.3632629,149.1652424,43270,-0.0867471992969513,-0.09032448381185532,-0.42096588015556335,0.032848965376615524,0.01086525246500969,-0.024954983964562416,0,3,-998,33,11,-24,-6,-25,-153,1500,1500.0
14:24:42.038,AUTO,-35.3632622,149.1652355,44792,-0.015176056884229183,-0.03884484991431236,-0.4042018949985504,0.06247343495488167,0.043902281671762466,0.0163031704723835,-17,7,-1004,63,44,16,22,-85,-150,1500,1500.0
14:24:42.239,AUTO,-35.3632618,149.1652331,45174,-0.0008211564272642136,-0.02663637325167656,-0.40170934796333313,0.055805008858442307,0.052046872675418854,0.008681599982082844,-20,6,-1005,57,53,8,25,-86,-151,1500,1500.0
14:24:42.440,AUTO,-35.3632618,149.1652331,45174,-0.0008211564272642136,-0.02663637325167656,-0.40170934796333313,0.055805008858442307,0.052046872675418854,0.008681599982082844,-20,6,-1005,57,53,8,25,-86,-151,1500,1500.0
14:24:42.641,AUTO,-35.3632612,149.1652307,45559,0.030761662870645523,0.0010337993735447526,-0.37977468967437744,0.20147494971752167,0.19034436345100403,0.1736551970243454,-24,13,-998,202,191,173,25,-82,-151,1700,1500.0
14:24:42.842,AUTO,-35.3632608,149.1652285,45946,0.07318688929080963,0.04394833743572235,-0.3347136378288269,0.1293754130601883,0.14842566847801208,0.16562385857105255,-18,7,-1019,130,149,165,20,-64,-153,1700,1500.0
14:24:43.043,AUTO,-35.3632604,149.165227,46343,0.10534613579511642,0.07099729031324387,-0.29310521483421326,0.10745915025472641,0.10211437195539474,0.1508205533027649,-14,7,-1014,108,103,150,10,-36,-155,1700,1500.0
14:24:43.244,AUTO,-35.3632604,149.165227,46343,0.10534613579511642,0.07099729031324387,-0.29310521483421326,0.10745915025472641,0.10211437195539474,0.1508205533027649,-14,7,-1014,108,103,150,10,-36,-155,1700,1500.0
14:24:43.445,AUTO,-35.3632604,149.165227,46343,0.10534613579511642,0.07099729031324387,-0.29310521483421326,0.10745915025472641,0.10211437195539474,0.1508205533027649,-14,7,-1014,108,103,150,10,-36,-155,1700,1500.0
14:24:43.646,AUTO,-35.3632604,149.165227,46343,0.10534613579511642,0.07099729031324387,-0.29310521483421326,0.10745915025472641,0.10211437195539474,0.1508205533027649,-14,7,-1014,108,103,150,10,-36,-155,1700,1500.0
14:24:43.848,AUTO,-35.3632604,149.165227,46343,0.10534613579511642,0.07099729031324387,-0.29310521483421326,0.10745915025472641,0.10211437195539474,0.1508205533027649,-14,7,-1014,108,103,150,10,-36,-155,1700,1500.0
14:24:44.050,AUTO,-35.3632612,149.1652296,47864,0.05421166121959686,0.016001177951693535,-0.13762104511260986,-0.23274286091327667,-0.10081809759140015,0.14558365941047668,13,-11,-997,-231,-99,145,-21,80,-142,1700,1500.0
14:24:44.251,AUTO,-35.3632616,149.1652318,48227,-0.001499420846812427,-0.007909958250820637,-0.09935770183801651,-0.1947074979543686,-0.06316506117582321,0.16455039381980896,14,-13,-1007,-193,-61,164,-17,82,-142,1700,1500.0
14:24:44.453,AUTO,-35.3632619,149.1652338,48593,-0.04568209499120712,-0.002656042343005538,-0.04775616526603699,-0.21706774830818176,0.13665929436683655,0.2579730153083801,14,-13,-1007,-193,-61,164,-12,72,-142,1700,1500.0
14:24:44.654,AUTO,-35.3632619,149.1652338,48593,-0.04568209499120712,-0.002656042343005538,-0.04775616526603699,-0.21706774830818176,0.13665929436683655,0.2579730153083801,14,-14,-978,-215,137,258,-12,72,-142,1700,1500.0
14:24:44.855,AUTO,-35.3632622,149.1652355,48947,-0.11592287570238113,0.059908561408519745,0.004186549223959446,-0.23075419664382935,0.20238222181797028,0.11798691749572754,10,-11,-954,-229,203,118,-16,48,-134,1700,1500.0
14:24:45.056,AUTO,-35.3632627,149.1652364,49264,-0.12537698447704315,0.06727354973554611,0.042244862765073776,0.07346311956644058,-0.13889002799987793,0.1598290354013443,7,-3,-913,74,-137,160,-29,18,-112,1700,1500.0
14:24:45.257,AUTO,-35.3632627,149.1652364,49264,-0.12537698447704315,0.06727354973554611,0.042244862765073776,0.07346311956644058,-0.13889002799987793,0.1598290354013443,7,-3,-913,74,-137,160,-29,18,-112,1700,1500.0
14:24:45.459,AUTO,-35.3632627,149.1652364,49264,-0.12537698447704315,0.06727354973554611,0.042244862765073776,0.07346311956644058,-0.13889002799987793,0.1598290354013443,7,-3,-913,74,-137,160,-29,18,-112,1700,1500.0
14:24:45.660,AUTO,-35.3632627,149.1652364,49264,-0.12537698447704315,0.06727354973554611,0.042244862765073776,0.07346311956644058,-0.13889002799987793,0.1598290354013443,7,-3,-913,74,-137,160,-29,18,-112,1700,1500.0
14:24:45.862,AUTO,-35.3632627,149.1652364,49264,-0.12537698447704315,0.06727354973554611,0.042244862765073776,0.07346311956644058,-0.13889002799987793,0.1598290354013443,7,-3,-913,74,-137,160,-29,18,-112,1700,1500.0
14:24:46.063,AUTO,-35.3632654,149.1652351,50016,0.012924711219966412,-0.05159560963511467,0.09817036241292953,0.07599064707756042,-0.0271307360380888,0.029629811644554138,1,6,-955,77,-25,30,-14,-19,-42,1500,1500.0
14:24:46.264,AUTO,-35.3632657,149.1652346,50111,0.023481052368879318,-0.054095879197120667,0.11088742315769196,-0.012726286426186562,0.0032373256981372833,0.027833212167024612,0,1,-963,-11,4,28,-2,-13,-31,1500,1500.0
14:24:46.465,AUTO,-35.3632657,149.1652343,50180,0.030332524329423904,-0.049746494740247726,0.11417799443006516,0.10094226896762848,0.026768269017338753,0.007109069265425205,-1,9,-970,103,27,7,8,-5,-23,1500,1500.0
14:24:46.668,AUTO,-35.3632657,149.1652343,50180,0.030332524329423904,-0.049746494740247726,0.11417799443006516,0.10094226896762848,0.026768269017338753,0.007109069265425205,-1,9,-970,103,27,7,8,-5,-23,1500,1500.0
14:24:46.869,AUTO,-35.3632656,149.1652342,50229,0.03552481532096863,-0.04058719426393509,0.11492956429719925,0.0888427123427391,0.04153651371598244,-0.0022492585703730583,-3,-9,-971,88,42,-1,17,2,-16,1500,1500.0
14:24:47.069,AUTO,-35.3632652,149.1652343,50255,0.02091708406805992,-0.030143657699227333,0.11523208767175674,-0.7564189434051514,0.038632139563560486,0.0012117723235860467,-5,-39,-963,-757,39,1,23,8,-5,1500,1500.0
14:24:47.271,AUTO,-35.3632652,149.1652343,50255,0.02091708406805992,-0.030143657699227333,0.11523208767175674,-0.7564189434051514,0.038632139563560486,0.0012117723235860467,-5,-39,-963,-757,39,1,23,8,-5,1500,1500.0
14:24:47.473,AUTO,-35.3632652,149.1652343,50255,0.02091708406805992,-0.030143657699227333,0.11523208767175674,-0.7564189434051514,0.038632139563560486,0.0012117723235860467,-5,-39,-963,-757,39,1,23,8,-5,1500,1500.0
14:24:47.676,AUTO,-35.3632652,149.1652343,50255,0.02091708406805992,-0.030143657699227333,0.11523208767175674,-0.7564189434051514,0.038632139563560486,0.0012117723235860467,-5,-39,-963,-757,39,1,23,8,-5,1500,1500.0
