time_stamp,MODE,lat,lon,relative_alt,roll,pitch,yaw,rollspeed,pitchspeed,yawspeed,xacc,yacc,zacc,xgyro,ygyro,zgyro,vx,vy,vz,RTL_ALT
16:31:12.985,STABILIZE,-35.3632621,149.1652374,0,-0.00025187962455675006,0.0016264182049781084,0.02800675854086876,0.00018086264026351273,0.0003841352299787104,0.0023725705686956644,0,1,-1000,0,0,0,-1,1,-1,1500.0
16:31:13.187,STABILIZE,-35.3632621,149.1652374,0,-0.00025187962455675006,0.0016264182049781084,0.02800675854086876,0.00018086264026351273,0.0003841352299787104,0.0023725705686956644,0,1,-1000,0,0,0,-1,1,-1,1500.0
16:31:13.388,STABILIZE,-35.3632621,149.1652374,0,-0.00025187962455675006,0.0016264182049781084,0.02800675854086876,0.00018086264026351273,0.0003841352299787104,0.0023725705686956644,0,1,-1000,0,0,0,-1,1,-1,1500.0
16:31:13.589,STABILIZE,-35.3632621,149.1652374,0,-0.00025187962455675006,0.0016264182049781084,0.02800675854086876,0.00018086264026351273,0.0003841352299787104,0.0023725705686956644,0,1,-1000,0,0,0,-1,1,-1,1500.0
16:31:13.790,STABILIZE,-35.3632621,149.1652374,0,-0.00025187962455675006,0.0016264182049781084,0.02800675854086876,0.00018086264026351273,0.0003841352299787104,0.0023725705686956644,0,1,-1000,0,0,0,-1,1,-1,1500.0
16:31:13.991,STABILIZE,-35.3632621,149.1652374,0,-0.00025187962455675006,0.0016264182049781084,0.02800675854086876,0.00018086264026351273,0.0003841352299787104,0.0023725705686956644,0,1,-1000,0,0,0,-1,1,-1,1500.0
16:31:14.207,STABILIZE,-35.3632621,149.1652374,0,-0.00025187962455675006,0.0016264182049781084,0.02800675854086876,0.00018086264026351273,0.0003841352299787104,0.0023725705686956644,0,1,-1000,0,0,0,-1,1,-1,1500.0
16:31:14.408,STABILIZE,-35.3632621,149.1652374,0,-0.00025187962455675006,0.0016264182049781084,0.02800675854086876,0.00018086264026351273,0.0003841352299787104,0.0023725705686956644,0,1,-1000,0,0,0,-1,1,-1,1500.0
16:31:14.609,STABILIZE,-35.3632621,149.1652374,0,-0.00025187962455675006,0.0016264182049781084,0.02800675854086876,0.00018086264026351273,0.0003841352299787104,0.0023725705686956644,0,1,-1000,0,0,0,-2,1,-1,1500.0
16:31:14.810,STABILIZE,-35.3632621,149.1652374,0,-0.0002278061001561582,0.001407260657288134,0.026742279529571533,0.00038704954204149544,0.0002596479025669396,0.00220148335210979,0,1,-1000,0,0,0,-2,1,-1,1500.0
16:31:15.012,STABILIZE,-35.3632621,149.1652374,0,-0.0002278061001561582,0.001407260657288134,0.026742279529571533,0.00038704954204149544,0.0002596479025669396,0.00220148335210979,0,1,-1000,0,0,0,-2,1,-1,1500.0
16:31:15.215,STABILIZE,-35.3632621,149.1652374,0,-0.0002278061001561582,0.001407260657288134,0.026742279529571533,0.00038704954204149544,0.0002596479025669396,0.00220148335210979,0,1,-1000,0,0,0,-2,1,-1,1500.0
16:31:15.418,STABILIZE,-35.3632621,149.1652374,0,-0.0002278061001561582,0.001407260657288134,0.026742279529571533,0.00038704954204149544,0.0002596479025669396,0.00220148335210979,0,1,-1000,0,0,0,-2,1,-1,1500.0
16:31:15.627,STABILIZE,-35.3632621,149.1652374,0,-0.0002278061001561582,0.001407260657288134,0.026742279529571533,0.00038704954204149544,0.0002596479025669396,0.00220148335210979,0,1,-1000,0,0,0,-2,1,-1,1500.0
16:31:15.828,STABILIZE,-35.3632621,149.1652374,0,-0.0002278061001561582,0.001407260657288134,0.026742279529571533,0.00038704954204149544,0.0002596479025669396,0.00220148335210979,0,1,-1000,0,0,0,-2,1,-1,1500.0
16:31:16.029,STABILIZE,-35.3632621,149.1652374,0,-0.0002278061001561582,0.001407260657288134,0.026742279529571533,0.00038704954204149544,0.0002596479025669396,0.00220148335210979,0,1,-1000,0,0,0,-2,1,-1,1500.0
16:31:16.231,STABILIZE,-35.3632621,149.1652374,0,-0.0002278061001561582,0.001407260657288134,0.026742279529571533,0.00038704954204149544,0.0002596479025669396,0.00220148335210979,0,1,-1000,0,0,0,-2,1,-1,1500.0
16:31:16.432,STABILIZE,-35.3632621,149.1652374,0,-0.0002278061001561582,0.001407260657288134,0.026742279529571533,0.00038704954204149544,0.0002596479025669396,0.00220148335210979,0,1,-1000,0,0,0,-2,1,-1,1500.0
16:31:16.635,STABILIZE,-35.3632621,149.1652374,0,-0.0008140148129314184,0.001204824191518128,0.026190107688307762,0.0002623449545353651,0.0002734386653173715,0.002021147171035409,0,1,-1000,0,0,0,-2,1,-1,1500.0
16:31:16.837,STABILIZE,-35.3632622,149.1652375,0,-0.0010226794984191656,0.001117249485105276,0.025981251150369644,0.0002512488281354308,0.00018496433040127158,0.0021258469205349684,0,1,-1000,0,0,0,-1,1,1,1500.0
16:31:17.048,STABILIZE,-35.3632622,149.1652375,0,-0.0010226794984191656,0.001117249485105276,0.025981251150369644,0.0002512488281354308,0.00018496433040127158,0.0021258469205349684,0,1,-1000,0,0,0,-1,1,1,1500.0
16:31:17.252,STABILIZE,-35.3632622,149.1652375,0,-0.0010226794984191656,0.001117249485105276,0.025981251150369644,0.0002512488281354308,0.00018496433040127158,0.0021258469205349684,0,1,-1000,0,0,0,-1,1,1,1500.0
16:31:17.453,STABILIZE,-35.3632622,149.1652375,0,-0.0010226794984191656,0.001117249485105276,0.025981251150369644,0.0002512488281354308,0.00018496433040127158,0.0021258469205349684,0,1,-1000,0,0,0,-1,1,1,1500.0
16:31:17.655,STABILIZE,-35.3632622,149.1652375,0,-0.0010226794984191656,0.001117249485105276,0.025981251150369644,0.0002512488281354308,0.00018496433040127158,0.0021258469205349684,0,1,-1000,0,0,0,-1,1,1,1500.0
16:31:17.865,STABILIZE,-35.3632622,149.1652375,0,-0.0010226794984191656,0.001117249485105276,0.025981251150369644,0.0002512488281354308,0.00018496433040127158,0.0021258469205349684,0,1,-1000,0,0,0,-1,1,1,1500.0
16:31:18.077,STABILIZE,-35.3632622,149.1652375,0,-0.0010226794984191656,0.001117249485105276,0.025981251150369644,0.0002512488281354308,0.00018496433040127158,0.0021258469205349684,0,1,-1000,0,0,0,-1,1,1,1500.0
16:31:18.278,STABILIZE,-35.3632622,149.1652375,0,-0.0010226794984191656,0.001117249485105276,0.025981251150369644,0.0002512488281354308,0.00018496433040127158,0.0021258469205349684,0,1,-1000,0,0,0,-1,1,1,1500.0
16:31:18.479,STABILIZE,-35.3632622,149.1652375,0,-0.0010226794984191656,0.001117249485105276,0.025981251150369644,0.0002512488281354308,0.00018496433040127158,0.0021258469205349684,0,1,-1000,0,0,0,-1,1,1,1500.0
16:31:18.680,STABILIZE,-35.3632622,149.1652375,0,-0.0013842883054167032,0.0009658656199462712,0.02528531663119793,8.164043538272381e-05,0.0002791095175780356,0.0019493193831294775,0,2,-1000,0,0,1,-1,0,0,1500.0
16:31:18.881,STABILIZE,-35.3632622,149.1652375,0,-0.0013875075383111835,0.0009588160901330411,0.025152193382382393,0.00018291641026735306,0.00020413653692230582,0.0018938274588435888,0,2,-1000,0,0,1,-1,0,0,1500.0
16:31:19.084,STABILIZE,-35.3632622,149.1652375,0,-0.0013875075383111835,0.0009588160901330411,0.025152193382382393,0.00018291641026735306,0.00020413653692230582,0.0018938274588435888,0,2,-1000,0,0,1,-1,0,0,1500.0
16:31:19.287,STABILIZE,-35.3632622,149.1652375,0,-0.0013875075383111835,0.0009588160901330411,0.025152193382382393,0.00018291641026735306,0.00020413653692230582,0.0018938274588435888,0,2,-1000,0,0,1,-1,0,0,1500.0
16:31:19.488,STABILIZE,-35.3632622,149.1652375,0,-0.0013875075383111835,0.0009588160901330411,0.025152193382382393,0.00018291641026735306,0.00020413653692230582,0.0018938274588435888,0,2,-1000,0,0,1,-1,0,0,1500.0
16:31:19.692,STABILIZE,-35.3632622,149.1652375,0,-0.0013875075383111835,0.0009588160901330411,0.025152193382382393,0.00018291641026735306,0.00020413653692230582,0.0018938274588435888,0,2,-1000,0,0,1,-1,0,0,1500.0
16:31:19.893,STABILIZE,-35.3632622,149.1652375,0,-0.0013875075383111835,0.0009588160901330411,0.025152193382382393,0.00018291641026735306,0.00020413653692230582,0.0018938274588435888,0,2,-1000,0,0,1,-1,0,0,1500.0
16:31:20.095,STABILIZE,-35.3632622,149.1652375,0,-0.0013875075383111835,0.0009588160901330411,0.025152193382382393,0.00018291641026735306,0.00020413653692230582,0.0018938274588435888,0,2,-1000,0,0,1,-1,0,0,1500.0
16:31:20.299,STABILIZE,-35.3632622,149.1652375,0,-0.0013875075383111835,0.0009588160901330411,0.025152193382382393,0.00018291641026735306,0.00020413653692230582,0.0018938274588435888,0,2,-1000,0,0,1,-1,0,0,1500.0
16:31:20.500,STABILIZE,-35.3632622,149.1652375,0,-0.0013875075383111835,0.0009588160901330411,0.025152193382382393,0.00018291641026735306,0.00020413653692230582,0.0018938274588435888,0,2,-1000,0,0,1,-1,0,0,1500.0
16:31:20.702,STABILIZE,-35.3632622,149.1652375,0,-0.0013875075383111835,0.0009588160901330411,0.025152193382382393,0.00018291641026735306,0.00020413653692230582,0.0018938274588435888,0,1,-1000,0,0,1,-1,0,0,1500.0
16:31:20.902,STABILIZE,-35.3632622,149.1652375,0,-0.001333025749772787,0.0009607927640900016,0.024722039699554443,0.00033539184369146824,0.00027178070740774274,0.001835186267271638,0,2,-1000,0,0,0,-1,0,0,1500.0
16:31:21.116,STABILIZE,-35.3632622,149.1652375,0,-0.001333025749772787,0.0009607927640900016,0.024722039699554443,0.00033539184369146824,0.00027178070740774274,0.001835186267271638,0,2,-1000,0,0,0,-1,0,0,1500.0
16:31:21.317,STABILIZE,-35.3632622,149.1652375,0,-0.001333025749772787,0.0009607927640900016,0.024722039699554443,0.00033539184369146824,0.00027178070740774274,0.001835186267271638,0,2,-1000,0,0,0,-1,0,0,1500.0
16:31:21.518,STABILIZE,-35.3632622,149.1652375,0,-0.001333025749772787,0.0009607927640900016,0.024722039699554443,0.00033539184369146824,0.00027178070740774274,0.001835186267271638,0,2,-1000,0,0,0,-1,0,0,1500.0
16:31:21.720,STABILIZE,-35.3632622,149.1652375,0,-0.001333025749772787,0.0009607927640900016,0.024722039699554443,0.00033539184369146824,0.00027178070740774274,0.001835186267271638,0,2,-1000,0,0,0,-1,0,0,1500.0
16:31:21.922,STABILIZE,-35.3632622,149.1652375,0,-0.001333025749772787,0.0009607927640900016,0.024722039699554443,0.00033539184369146824,0.00027178070740774274,0.001835186267271638,0,2,-1000,0,0,0,-1,0,0,1500.0
16:31:22.123,STABILIZE,-35.3632622,149.1652375,0,-0.001333025749772787,0.0009607927640900016,0.024722039699554443,0.00033539184369146824,0.00027178070740774274,0.001835186267271638,0,2,-1000,0,0,0,-1,0,0,1500.0
16:31:22.326,STABILIZE,-35.3632622,149.1652375,0,-0.001333025749772787,0.0009607927640900016,0.024722039699554443,0.00033539184369146824,0.00027178070740774274,0.001835186267271638,0,2,-1000,0,0,0,-1,0,0,1500.0
16:31:22.527,STABILIZE,-35.3632622,149.1652375,0,-0.001333025749772787,0.0009607927640900016,0.024722039699554443,0.00033539184369146824,0.00027178070740774274,0.001835186267271638,0,2,-1000,0,0,0,-1,0,0,1500.0
16:31:22.730,STABILIZE,-35.3632622,149.1652375,0,-0.001333025749772787,0.0009607927640900016,0.024722039699554443,0.00033539184369146824,0.00027178070740774274,0.001835186267271638,0,1,-1000,0,0,1,-1,0,0,1500.0
16:31:22.936,STABILIZE,-35.3632622,149.1652375,0,-0.0010153849143534899,0.0010100307408720255,0.024017000570893288,0.00021284876856952906,0.00017130299238488078,0.0016070872079581022,0,2,-1000,0,0,0,-1,0,0,1500.0
16:31:23.150,STABILIZE,-35.3632622,149.1652375,0,-0.0010153849143534899,0.0010100307408720255,0.024017000570893288,0.00021284876856952906,0.00017130299238488078,0.0016070872079581022,0,2,-1000,0,0,0,-1,0,0,1500.0
16:31:23.351,STABILIZE,-35.3632622,149.1652375,0,-0.0010153849143534899,0.0010100307408720255,0.024017000570893288,0.00021284876856952906,0.00017130299238488078,0.0016070872079581022,0,2,-1000,0,0,0,-1,0,0,1500.0
16:31:23.554,STABILIZE,-35.3632622,149.1652375,0,-0.0010153849143534899,0.0010100307408720255,0.024017000570893288,0.00021284876856952906,0.00017130299238488078,0.0016070872079581022,0,2,-1000,0,0,0,-1,0,0,1500.0
16:31:23.757,STABILIZE,-35.3632622,149.1652375,0,-0.0010153849143534899,0.0010100307408720255,0.024017000570893288,0.00021284876856952906,0.00017130299238488078,0.0016070872079581022,0,2,-1000,0,0,0,-1,0,0,1500.0
16:31:27.543,STABILIZE,-35.3632622,149.1652375,0,-0.0010153849143534899,0.0010100307408720255,0.024017000570893288,0.00021284876856952906,0.00017130299238488078,0.0016070872079581022,0,2,-1000,0,0,0,-1,0,0,1500.0
16:31:27.748,STABILIZE,-35.3632622,149.1652375,0,-0.0010153849143534899,0.0010100307408720255,0.024017000570893288,0.00021284876856952906,0.00017130299238488078,0.0016070872079581022,0,2,-1000,0,0,0,-1,0,0,1500.0
16:31:27.949,STABILIZE,-35.3632622,149.1652375,0,-0.0010153849143534899,0.0010100307408720255,0.024017000570893288,0.00021284876856952906,0.00017130299238488078,0.0016070872079581022,0,2,-1000,0,0,0,-1,0,0,1500.0
16:31:28.151,STABILIZE,-35.3632622,149.1652375,0,-0.0010153849143534899,0.0010100307408720255,0.024017000570893288,0.00021284876856952906,0.00017130299238488078,0.0016070872079581022,0,2,-1000,0,0,0,-1,0,0,1500.0
16:31:28.352,STABILIZE,-35.3632622,149.1652375,0,-0.000960976118221879,0.0010058693587779999,0.023470953106880188,0.0003063682233914733,0.00024701457004994154,0.0016696008387953043,0,1,-1000,0,0,0,-1,1,0,1500.0
16:31:28.553,STABILIZE,-35.3632622,149.1652375,0,-0.000960976118221879,0.0010058693587779999,0.023470953106880188,0.0003063682233914733,0.00024701457004994154,0.0016696008387953043,0,1,-1000,0,0,0,-1,1,0,1500.0
16:31:28.754,STABILIZE,-35.3632622,149.1652375,0,-0.000960976118221879,0.0010058693587779999,0.023470953106880188,0.0003063682233914733,0.00024701457004994154,0.0016696008387953043,0,1,-1000,0,0,0,-1,1,0,1500.0
16:31:28.955,STABILIZE,-35.3632622,149.1652375,0,-0.000960976118221879,0.0010058693587779999,0.023470953106880188,0.0003063682233914733,0.00024701457004994154,0.0016696008387953043,0,1,-1000,0,0,0,-1,1,0,1500.0
16:31:29.158,STABILIZE,-35.3632622,149.1652375,0,-0.000960976118221879,0.0010058693587779999,0.023470953106880188,0.0003063682233914733,0.00024701457004994154,0.0016696008387953043,0,1,-1000,0,0,0,-1,1,0,1500.0
16:31:29.365,STABILIZE,-35.3632622,149.1652375,0,-0.000960976118221879,0.0010058693587779999,0.023470953106880188,0.0003063682233914733,0.00024701457004994154,0.0016696008387953043,0,1,-1000,0,0,0,-1,1,0,1500.0
16:31:29.571,STABILIZE,-35.3632622,149.1652375,0,-0.000960976118221879,0.0010058693587779999,0.023470953106880188,0.0003063682233914733,0.00024701457004994154,0.0016696008387953043,0,1,-1000,0,0,0,-1,1,0,1500.0
16:31:29.775,STABILIZE,-35.3632622,149.1652375,0,-0.000960976118221879,0.0010058693587779999,0.023470953106880188,0.0003063682233914733,0.00024701457004994154,0.0016696008387953043,0,1,-1000,0,0,0,-1,1,0,1500.0
16:31:29.977,STABILIZE,-35.3632622,149.1652376,0,-0.0007360056042671204,0.0010032124118879437,0.02301420085132122,0.00031432585092261434,0.0002641438622958958,0.0015432467916980386,0,1,-1000,0,0,1,-1,3,2,1500.0
16:31:30.181,STABILIZE,-35.3632622,149.1652376,0,-0.0008109973859973252,0.0010067929979413748,0.022931046783924103,0.0002358884667046368,0.00027795438654720783,0.0016172316391021013,0,1,-1000,0,0,1,-1,2,2,1500.0
16:31:30.383,STABILIZE,-35.3632622,149.1652376,0,-0.0008109973859973252,0.0010067929979413748,0.022931046783924103,0.0002358884667046368,0.00027795438654720783,0.0016172316391021013,0,1,-1000,0,0,1,-1,2,2,1500.0
16:31:30.584,STABILIZE,-35.3632622,149.1652376,0,-0.0008109973859973252,0.0010067929979413748,0.022931046783924103,0.0002358884667046368,0.00027795438654720783,0.0016172316391021013,0,1,-1000,0,0,1,-1,2,2,1500.0
16:31:30.787,STABILIZE,-35.3632622,149.1652376,0,-0.0008109973859973252,0.0010067929979413748,0.022931046783924103,0.0002358884667046368,0.00027795438654720783,0.0016172316391021013,0,1,-1000,0,0,1,-1,2,2,1500.0
16:31:30.989,STABILIZE,-35.3632622,149.1652376,0,-0.0008109973859973252,0.0010067929979413748,0.022931046783924103,0.0002358884667046368,0.00027795438654720783,0.0016172316391021013,0,1,-1000,0,0,1,-1,2,2,1500.0
16:31:31.190,STABILIZE,-35.3632622,149.1652376,0,-0.0008109973859973252,0.0010067929979413748,0.022931046783924103,0.0002358884667046368,0.00027795438654720783,0.0016172316391021013,0,1,-1000,0,0,1,-1,2,2,1500.0
16:31:31.392,STABILIZE,-35.3632622,149.1652376,0,-0.0008109973859973252,0.0010067929979413748,0.022931046783924103,0.0002358884667046368,0.00027795438654720783,0.0016172316391021013,0,1,-1000,0,0,1,-1,2,2,1500.0
16:31:31.594,STABILIZE,-35.3632622,149.1652376,0,-0.0008109973859973252,0.0010067929979413748,0.022931046783924103,0.0002358884667046368,0.00027795438654720783,0.0016172316391021013,0,1,-1000,0,0,1,-1,2,2,1500.0
16:31:31.796,STABILIZE,-35.3632622,149.1652376,0,-0.0008109973859973252,0.0010067929979413748,0.022931046783924103,0.0002358884667046368,0.00027795438654720783,0.0016172316391021013,0,1,-1000,0,0,1,-1,2,2,1500.0
16:31:31.997,STABILIZE,-35.3632622,149.1652375,4,-0.0010594881605356932,0.0010093513410538435,0.022701773792505264,8.279393659904599e-05,0.0002685363870114088,0.0016231648623943329,0,1,-1000,0,0,0,-1,1,1,1500.0
16:31:32.199,AUTO,-35.3632622,149.1652375,3,-0.0010733924573287368,0.001128140720538795,0.02249196358025074,0.00022142974194139242,0.00028193549951538444,0.0015624366933479905,0,1,-1000,1,1,0,0,0,1,1500.0
16:31:32.402,AUTO,-35.3632622,149.1652375,0,-0.0003442739835008979,0.0012418528785929084,0.022356271743774414,0.00020837486954405904,0.0002323391381651163,0.0014873293694108725,0,1,-1000,0,0,0,0,2,5,1500.0
16:31:32.606,AUTO,-35.3632622,149.1652375,0,-0.0003442739835008979,0.0012418528785929084,0.022356271743774414,0.00020837486954405904,0.0002323391381651163,0.0014873293694108725,0,1,-1000,0,0,0,0,2,5,1500.0
16:31:32.816,AUTO,-35.3632622,149.1652375,0,-0.0003442739835008979,0.0012418528785929084,0.022356271743774414,0.00020837486954405904,0.0002323391381651163,0.0014873293694108725,0,1,-1000,0,0,0,0,2,5,1500.0
16:31:33.019,AUTO,-35.3632622,149.1652375,0,-0.0003442739835008979,0.0012418528785929084,0.022356271743774414,0.00020837486954405904,0.0002323391381651163,0.0014873293694108725,0,1,-1000,0,0,0,0,2,5,1500.0
16:31:33.223,AUTO,-35.3632622,149.1652375,0,-0.0003442739835008979,0.0012418528785929084,0.022356271743774414,0.00020837486954405904,0.0002323391381651163,0.0014873293694108725,0,1,-1000,0,0,0,0,2,5,1500.0
16:31:33.428,AUTO,-35.3632622,149.1652375,0,-0.0003442739835008979,0.0012418528785929084,0.022356271743774414,0.00020837486954405904,0.0002323391381651163,0.0014873293694108725,0,1,-1000,0,0,0,0,2,5,1500.0
16:31:33.631,AUTO,-35.3632622,149.1652375,0,-0.0003442739835008979,0.0012418528785929084,0.022356271743774414,0.00020837486954405904,0.0002323391381651163,0.0014873293694108725,0,1,-1000,0,0,0,0,2,5,1500.0
16:31:33.835,AUTO,-35.3632622,149.1652375,0,-0.0003442739835008979,0.0012418528785929084,0.022356271743774414,0.00020837486954405904,0.0002323391381651163,0.0014873293694108725,0,1,-1000,0,0,0,0,2,5,1500.0
16:31:34.038,AUTO,-35.3632622,149.1652375,0,-0.00021270039724186063,0.0014177546836435795,0.022156286984682083,0.00020784582011401653,0.00027224840596318245,0.001519479090347886,0,1,-1000,0,0,1,0,0,4,1500.0
16:31:34.243,AUTO,-35.3632622,149.1652374,0,0.0011061676777899265,0.0017221916932612658,0.0217671487480402,0.0353848896920681,-0.002330746501684189,0.0029217172414064407,0,3,-1031,36,-1,2,0,0,1,1500.0
16:31:34.447,AUTO,-35.3632622,149.1652374,0,0.0011061676777899265,0.0017221916932612658,0.0217671487480402,0.0353848896920681,-0.002330746501684189,0.0029217172414064407,0,3,-1031,36,-1,2,0,0,1,1500.0
16:31:34.649,AUTO,-35.3632622,149.1652374,0,0.0011061676777899265,0.0017221916932612658,0.0217671487480402,0.0353848896920681,-0.002330746501684189,0.0029217172414064407,0,3,-1031,36,-1,2,0,0,1,1500.0
16:31:34.851,AUTO,-35.3632622,149.1652374,0,0.0011061676777899265,0.0017221916932612658,0.0217671487480402,0.0353848896920681,-0.002330746501684189,0.0029217172414064407,0,3,-1031,36,-1,2,0,0,1,1500.0
16:31:35.057,AUTO,-35.3632622,149.1652374,0,0.0011061676777899265,0.0017221916932612658,0.0217671487480402,0.0353848896920681,-0.002330746501684189,0.0029217172414064407,0,3,-1031,36,-1,2,0,0,1,1500.0
16:31:35.263,AUTO,-35.3632622,149.1652374,0,0.0011061676777899265,0.0017221916932612658,0.0217671487480402,0.0353848896920681,-0.002330746501684189,0.0029217172414064407,0,3,-1031,36,-1,2,0,0,1,1500.0
16:31:35.469,AUTO,-35.3632622,149.1652374,0,0.0011061676777899265,0.0017221916932612658,0.0217671487480402,0.0353848896920681,-0.002330746501684189,0.0029217172414064407,0,3,-1031,36,-1,2,0,0,1,1500.0
16:31:35.672,AUTO,-35.3632621,149.1652376,1187,0.01208694651722908,0.0010105165420100093,0.021029673516750336,0.04646464064717293,-0.006623332854360342,0.0010232377098873258,0,0,-1074,15,0,-1,0,2,-140,1500.0
16:31:35.875,AUTO,-35.3632621,149.1652376,1187,0.01208694651722908,0.0010105165420100093,0.021029673516750336,0.04646464064717293,-0.006623332854360342,0.0010232377098873258,0,0,-1032,47,-5,0,0,2,-140,1500.0
16:31:36.079,AUTO,-35.3632621,149.1652376,1187,0.01208694651722908,0.0010105165420100093,0.021029673516750336,0.04646464064717293,-0.006623332854360342,0.0010232377098873258,0,0,-1032,47,-5,0,0,2,-140,1500.0
16:31:36.284,AUTO,-35.3632621,149.1652376,1187,0.01208694651722908,0.0010105165420100093,0.021029673516750336,0.04646464064717293,-0.006623332854360342,0.0010232377098873258,0,0,-1032,47,-5,0,0,2,-140,1500.0
16:31:36.488,AUTO,-35.3632621,149.1652376,1187,0.01208694651722908,0.0010105165420100093,0.021029673516750336,0.04646464064717293,-0.006623332854360342,0.0010232377098873258,0,0,-1032,47,-5,0,0,2,-140,1500.0
16:31:36.693,AUTO,-35.3632621,149.1652376,1187,0.01208694651722908,0.0010105165420100093,0.021029673516750336,0.04646464064717293,-0.006623332854360342,0.0010232377098873258,0,0,-1032,47,-5,0,0,2,-140,1500.0
16:31:36.905,AUTO,-35.3632618,149.1652392,2713,0.055497925728559494,-0.008106259629130363,0.021347861737012863,0.037890397012233734,-0.01173432543873787,0.003531774040311575,1,-5,-999,38,-11,3,5,32,-149,1500.0
16:31:37.109,AUTO,-35.3632613,149.1652417,3479,0.03264676034450531,0.017102869227528572,-0.03587399795651436,-0.16149179637432098,0.08199205249547958,-0.09702640771865845,4,-10,-991,-161,82,-97,9,53,-146,1500.0
16:31:37.312,AUTO,-35.3632611,149.1652431,3854,-0.012321284972131252,0.02348044142127037,-0.055137984454631805,-0.15383169054985046,-0.01400170661509037,-0.05661340802907944,4,-10,-1007,-153,-13,-56,6,51,-145,1500.0
16:31:37.514,AUTO,-35.3632611,149.1652431,3854,-0.012321284972131252,0.02348044142127037,-0.055137984454631805,-0.15383169054985046,-0.01400170661509037,-0.05661340802907944,4,-10,-1007,-153,-13,-56,6,51,-145,1500.0
16:31:37.719,AUTO,-35.3632611,149.1652431,3854,-0.012321284972131252,0.02348044142127037,-0.055137984454631805,-0.15383169054985046,-0.01400170661509037,-0.05661340802907944,4,-10,-1007,-153,-13,-56,6,51,-145,1500.0
16:31:37.921,AUTO,-35.3632611,149.1652431,3854,-0.012321284972131252,0.02348044142127037,-0.055137984454631805,-0.15383169054985046,-0.01400170661509037,-0.05661340802907944,4,-10,-1007,-153,-13,-56,6,51,-145,1500.0
16:31:38.125,AUTO,-35.3632611,149.1652431,3854,-0.012321284972131252,0.02348044142127037,-0.055137984454631805,-0.15383169054985046,-0.01400170661509037,-0.05661340802907944,4,-10,-1007,-153,-13,-56,6,51,-145,1500.0
16:31:38.327,AUTO,-35.3632611,149.1652431,3854,-0.012321284972131252,0.02348044142127037,-0.055137984454631805,-0.15383169054985046,-0.01400170661509037,-0.05661340802907944,4,-10,-1007,-153,-13,-56,6,51,-145,1500.0
16:31:38.529,AUTO,-35.3632611,149.1652431,3854,-0.012321284972131252,0.02348044142127037,-0.055137984454631805,-0.15383169054985046,-0.01400170661509037,-0.05661340802907944,4,-10,-1007,-153,-13,-56,6,51,-145,1500.0
16:31:38.739,AUTO,-35.3632611,149.1652431,3854,-0.012321284972131252,0.02348044142127037,-0.055137984454631805,-0.15383169054985046,-0.01400170661509037,-0.05661340802907944,4,-10,-1007,-153,-13,-56,6,51,-145,1500.0
16:31:38.946,AUTO,-35.3632611,149.1652431,3854,-0.012321284972131252,0.02348044142127037,-0.055137984454631805,-0.15383169054985046,-0.01400170661509037,-0.05661340802907944,4,-10,-1007,-153,-13,-56,6,51,-145,1500.0
16:31:39.148,AUTO,-35.3632607,149.1652463,5468,-0.06127762794494629,0.00293517648242414,-0.08548063784837723,-0.07668747007846832,0.011682361364364624,-0.03967292234301567,2,-5,-998,-39,4,-36,1,0,-150,1500.0
16:31:39.351,AUTO,-35.3632609,149.165243,7021,-0.0294810738414526,0.004868936724960804,-0.10832729190587997,0.06222652643918991,0.006387035828083754,-0.008233627304434776,-4,10,-1001,62,6,-8,-8,-52,-151,1500.0
16:31:39.552,AUTO,-35.3632609,149.165243,7021,-0.0294810738414526,0.004868936724960804,-0.10832729190587997,0.06222652643918991,0.006387035828083754,-0.008233627304434776,-4,10,-1001,62,6,-8,-8,-52,-151,1500.0
16:31:39.755,AUTO,-35.3632609,149.165243,7021,-0.0294810738414526,0.004868936724960804,-0.10832729190587997,0.06222652643918991,0.006387035828083754,-0.008233627304434776,-4,10,-1001,62,6,-8,-8,-52,-151,1500.0
16:31:39.960,AUTO,-35.3632609,149.165243,7021,-0.0294810738414526,0.004868936724960804,-0.10832729190587997,0.06222652643918991,0.006387035828083754,-0.008233627304434776,-4,10,-1001,62,6,-8,-8,-52,-151,1500.0
16:31:40.163,AUTO,-35.3632609,149.165243,7021,-0.0294810738414526,0.004868936724960804,-0.10832729190587997,0.06222652643918991,0.006387035828083754,-0.008233627304434776,-4,10,-1001,62,6,-8,-8,-52,-151,1500.0
16:31:40.368,AUTO,-35.3632609,149.165243,7021,-0.0294810738414526,0.004868936724960804,-0.10832729190587997,0.06222652643918991,0.006387035828083754,-0.008233627304434776,-4,10,-1001,62,6,-8,-8,-52,-151,1500.0
16:31:40.574,AUTO,-35.3632609,149.165243,7021,-0.0294810738414526,0.004868936724960804,-0.10832729190587997,0.06222652643918991,0.006387035828083754,-0.008233627304434776,-4,10,-1001,62,6,-8,-8,-52,-151,1500.0
16:31:40.777,AUTO,-35.3632609,149.165243,7021,-0.0294810738414526,0.004868936724960804,-0.10832729190587997,0.06222652643918991,0.006387035828083754,-0.008233627304434776,-4,10,-1001,62,6,-8,-8,-52,-151,1500.0
16:31:40.978,AUTO,-35.3632609,149.165243,7021,-0.0294810738414526,0.004868936724960804,-0.10832729190587997,0.06222652643918991,0.006387035828083754,-0.008233627304434776,-4,10,-1001,62,6,-8,-8,-52,-151,1500.0
16:31:41.180,AUTO,-35.3632621,149.1652373,8583,0.03549470379948616,0.01171906478703022,-0.11178914457559586,0.06495809555053711,0.0029923166148364544,0.0020341179333627224,-3,11,-1003,65,3,1,-18,-39,-154,1500.0
16:31:41.381,AUTO,-35.3632634,149.1652356,10151,0.028469877317547798,-0.0444745235145092,-0.057232990860939026,-0.07813357561826706,0.000522307469509542,0.02899036556482315,1,0,-996,-77,1,28,-1,6,-152,1500.0
16:31:41.583,AUTO,-35.3632634,149.1652356,10151,0.028469877317547798,-0.0444745235145092,-0.057232990860939026,-0.07813357561826706,0.000522307469509542,0.02899036556482315,1,0,-996,-77,1,28,-1,6,-152,1500.0
16:31:41.786,AUTO,-35.3632634,149.1652356,10151,0.028469877317547798,-0.0444745235145092,-0.057232990860939026,-0.07813357561826706,0.000522307469509542,0.02899036556482315,1,0,-996,-77,1,28,-1,6,-152,1500.0
16:31:41.991,AUTO,-35.3632634,149.1652356,10151,0.028469877317547798,-0.0444745235145092,-0.057232990860939026,-0.07813357561826706,0.000522307469509542,0.02899036556482315,1,0,-996,-77,1,28,-1,6,-152,1500.0
16:31:42.198,AUTO,-35.3632634,149.1652356,10151,0.028469877317547798,-0.0444745235145092,-0.057232990860939026,-0.07813357561826706,0.000522307469509542,0.02899036556482315,1,0,-996,-77,1,28,-1,6,-152,1500.0
16:31:42.404,AUTO,-35.3632634,149.1652356,10151,0.028469877317547798,-0.0444745235145092,-0.057232990860939026,-0.07813357561826706,0.000522307469509542,0.02899036556482315,1,0,-996,-77,1,28,-1,6,-152,1500.0
16:31:42.606,AUTO,-35.3632634,149.1652356,10151,0.028469877317547798,-0.0444745235145092,-0.057232990860939026,-0.07813357561826706,0.000522307469509542,0.02899036556482315,1,0,-996,-77,1,28,-1,6,-152,1500.0
16:31:42.811,AUTO,-35.3632634,149.1652356,10151,0.028469877317547798,-0.0444745235145092,-0.057232990860939026,-0.07813357561826706,0.000522307469509542,0.02899036556482315,1,0,-996,-77,1,28,-1,6,-152,1500.0
16:31:43.014,AUTO,-35.3632634,149.1652356,10151,0.028469877317547798,-0.0444745235145092,-0.057232990860939026,-0.07813357561826706,0.000522307469509542,0.02899036556482315,1,0,-996,-77,1,28,-1,6,-152,1500.0
16:31:43.216,AUTO,-35.3632615,149.165236,12484,-0.004396812058985233,0.010257482528686523,-0.12559664249420166,0.016110528260469437,0.013506108894944191,-0.03815189003944397,-3,-2,-1001,12,20,-46,14,-5,-154,1500.0
16:31:43.417,AUTO,-35.363261,149.1652355,13267,0.004230417776852846,0.014587863348424435,-0.14168982207775116,0.014206713996827602,0.0037945625372231007,-0.022033747285604477,-3,0,-1000,15,4,-22,7,-6,-154,1500.0
16:31:43.619,AUTO,-35.363261,149.1652355,13267,0.004230417776852846,0.014587863348424435,-0.14168982207775116,0.014206713996827602,0.0037945625372231007,-0.022033747285604477,-3,0,-1000,15,4,-22,7,-6,-154,1500.0
16:31:43.825,AUTO,-35.363261,149.1652355,13267,0.004230417776852846,0.014587863348424435,-0.14168982207775116,0.014206713996827602,0.0037945625372231007,-0.022033747285604477,-3,0,-1000,15,4,-22,7,-6,-154,1500.0
16:31:44.028,AUTO,-35.363261,149.1652355,13267,0.004230417776852846,0.014587863348424435,-0.14168982207775116,0.014206713996827602,0.0037945625372231007,-0.022033747285604477,-3,0,-1000,15,4,-22,7,-6,-154,1500.0
16:31:44.234,AUTO,-35.363261,149.1652355,13267,0.004230417776852846,0.014587863348424435,-0.14168982207775116,0.014206713996827602,0.0037945625372231007,-0.022033747285604477,-3,0,-1000,15,4,-22,7,-6,-154,1500.0
16:31:44.436,AUTO,-35.363261,149.1652355,13267,0.004230417776852846,0.014587863348424435,-0.14168982207775116,0.014206713996827602,0.0037945625372231007,-0.022033747285604477,-3,0,-1000,15,4,-22,7,-6,-154,1500.0
16:31:44.639,AUTO,-35.363261,149.1652355,13267,0.004230417776852846,0.014587863348424435,-0.14168982207775116,0.014206713996827602,0.0037945625372231007,-0.022033747285604477,-3,0,-1000,15,4,-22,7,-6,-154,1500.0
16:31:44.841,AUTO,-35.363261,149.1652355,13267,0.004230417776852846,0.014587863348424435,-0.14168982207775116,0.014206713996827602,0.0037945625372231007,-0.022033747285604477,-3,0,-1000,15,4,-22,7,-6,-154,1500.0
16:31:45.050,AUTO,-35.3632608,149.165235,14440,0.012295935302972794,0.013772993348538876,-0.1526484191417694,0.005894363857805729,-0.0062584038823843,-0.005687671713531017,-3,0,-1000,15,4,-22,-2,-1,-154,1500.0
16:31:45.252,AUTO,-35.3632612,149.1652351,16002,0.008418631739914417,0.006550614256411791,-0.15864749252796173,-0.008296502754092216,-0.004938669502735138,-0.009243788197636604,1,0,-1000,-7,-4,-9,-7,7,-154,1500.0
16:31:45.454,AUTO,-35.3632613,149.1652352,16397,0.006705887615680695,0.005204563494771719,-0.16138610243797302,-0.004333352670073509,-0.004573197104036808,-0.011623693630099297,1,0,-1000,-3,-3,-11,-7,8,-154,1500.0
16:31:45.660,AUTO,-35.3632613,149.1652352,16397,0.006705887615680695,0.005204563494771719,-0.16138610243797302,-0.004333352670073509,-0.004573197104036808,-0.011623693630099297,1,0,-1000,-3,-3,-11,-7,8,-154,1500.0
16:31:45.862,AUTO,-35.3632613,149.1652352,16397,0.006705887615680695,0.005204563494771719,-0.16138610243797302,-0.004333352670073509,-0.004573197104036808,-0.011623693630099297,1,0,-1000,-3,-3,-11,-7,8,-154,1500.0
16:31:46.064,AUTO,-35.3632613,149.1652352,16397,0.006705887615680695,0.005204563494771719,-0.16138610243797302,-0.004333352670073509,-0.004573197104036808,-0.011623693630099297,1,0,-1000,-3,-3,-11,-7,8,-154,1500.0
16:31:46.268,AUTO,-35.3632613,149.1652352,16397,0.006705887615680695,0.005204563494771719,-0.16138610243797302,-0.004333352670073509,-0.004573197104036808,-0.011623693630099297,1,0,-1000,-3,-3,-11,-7,8,-154,1500.0
16:31:46.469,AUTO,-35.3632613,149.1652352,16397,0.006705887615680695,0.005204563494771719,-0.16138610243797302,-0.004333352670073509,-0.004573197104036808,-0.011623693630099297,1,0,-1000,-3,-3,-11,-7,8,-154,1500.0
16:31:46.673,AUTO,-35.3632613,149.1652352,16397,0.006705887615680695,0.005204563494771719,-0.16138610243797302,-0.004333352670073509,-0.004573197104036808,-0.011623693630099297,1,0,-1000,-3,-3,-11,-7,8,-154,1500.0
16:31:46.875,AUTO,-35.3632613,149.1652352,16397,0.006705887615680695,0.005204563494771719,-0.16138610243797302,-0.004333352670073509,-0.004573197104036808,-0.011623693630099297,1,0,-1000,-3,-3,-11,-7,8,-154,1500.0
16:31:47.077,AUTO,-35.3632616,149.1652356,17409,0.003532056463882327,0.00255538709461689,-0.171116903424263,-0.004582123830914497,-0.0025459162425249815,-0.018314804881811142,1,0,-1000,-3,-1,-18,-6,8,-154,1500.0
16:31:47.279,AUTO,-35.3632619,149.1652362,19365,0.0020609491039067507,0.0014099064283072948,-0.19714948534965515,-0.0003175256715621799,0.0014688088558614254,-0.022282395511865616,0,0,-1000,2,1,-22,-3,5,-155,1500.0
16:31:47.481,AUTO,-35.3632619,149.1652362,19365,0.0020609491039067507,0.0014099064283072948,-0.19714948534965515,-0.0003175256715621799,0.0014688088558614254,-0.022282395511865616,0,0,-1000,0,2,-22,-3,5,-155,1500.0
16:31:47.682,AUTO,-35.3632619,149.1652362,19365,0.0020609491039067507,0.0014099064283072948,-0.19714948534965515,-0.0003175256715621799,0.0014688088558614254,-0.022282395511865616,0,0,-1000,0,2,-22,-3,5,-155,1500.0
16:31:47.885,AUTO,-35.3632619,149.1652362,19365,0.0020609491039067507,0.0014099064283072948,-0.19714948534965515,-0.0003175256715621799,0.0014688088558614254,-0.022282395511865616,0,0,-1000,0,2,-22,-3,5,-155,1500.0
16:31:48.090,AUTO,-35.3632619,149.1652362,19365,0.0020609491039067507,0.0014099064283072948,-0.19714948534965515,-0.0003175256715621799,0.0014688088558614254,-0.022282395511865616,0,0,-1000,0,2,-22,-3,5,-155,1500.0
16:31:48.295,AUTO,-35.3632619,149.1652362,19365,0.0020609491039067507,0.0014099064283072948,-0.19714948534965515,-0.0003175256715621799,0.0014688088558614254,-0.022282395511865616,0,0,-1000,0,2,-22,-3,5,-155,1500.0
16:31:48.499,AUTO,-35.3632619,149.1652362,19365,0.0020609491039067507,0.0014099064283072948,-0.19714948534965515,-0.0003175256715621799,0.0014688088558614254,-0.022282395511865616,0,0,-1000,0,2,-22,-3,5,-155,1500.0
16:31:48.702,AUTO,-35.3632619,149.1652362,19365,0.0020609491039067507,0.0014099064283072948,-0.19714948534965515,-0.0003175256715621799,0.0014688088558614254,-0.022282395511865616,0,0,-1000,0,2,-22,-3,5,-155,1500.0
16:31:48.906,AUTO,-35.3632619,149.1652362,19365,0.0020609491039067507,0.0014099064283072948,-0.19714948534965515,-0.0003175256715621799,0.0014688088558614254,-0.022282395511865616,0,0,-1000,0,2,-22,-3,5,-155,1500.0
16:31:49.111,AUTO,-35.363262,149.1652364,20538,0.0034316563978791237,0.0024223681539297104,-0.2196664959192276,0.0015867907786741853,0.00233298703096807,-0.023206351324915886,0,0,-1000,3,4,-25,-2,3,-155,1500.0
16:31:49.315,AUTO,-35.363262,149.1652366,22498,0.0037267759907990694,0.0035255448892712593,-0.24134133756160736,0.0014079702086746693,0.0016478521283715963,-0.021121839061379433,0,0,-1000,2,2,-21,-1,3,-155,1500.0
16:31:49.517,AUTO,-35.363262,149.1652366,22498,0.0037267759907990694,0.0035255448892712593,-0.24134133756160736,0.0014079702086746693,0.0016478521283715963,-0.021121839061379433,0,0,-1000,2,2,-21,-1,3,-155,1500.0
16:31:49.719,AUTO,-35.363262,149.1652366,22498,0.0037267759907990694,0.0035255448892712593,-0.24134133756160736,0.0014079702086746693,0.0016478521283715963,-0.021121839061379433,0,0,-1000,2,2,-21,-1,3,-155,1500.0
16:31:49.922,AUTO,-35.363262,149.1652366,22498,0.0037267759907990694,0.0035255448892712593,-0.24134133756160736,0.0014079702086746693,0.0016478521283715963,-0.021121839061379433,0,0,-1000,2,2,-21,-1,3,-155,1500.0
16:31:50.124,AUTO,-35.363262,149.1652366,22498,0.0037267759907990694,0.0035255448892712593,-0.24134133756160736,0.0014079702086746693,0.0016478521283715963,-0.021121839061379433,0,0,-1000,2,2,-21,-1,3,-155,1500.0
16:31:50.328,AUTO,-35.363262,149.1652366,22498,0.0037267759907990694,0.0035255448892712593,-0.24134133756160736,0.0014079702086746693,0.0016478521283715963,-0.021121839061379433,0,0,-1000,2,2,-21,-1,3,-155,1500.0
16:31:50.532,AUTO,-35.363262,149.1652366,22498,0.0037267759907990694,0.0035255448892712593,-0.24134133756160736,0.0014079702086746693,0.0016478521283715963,-0.021121839061379433,0,0,-1000,2,2,-21,-1,3,-155,1500.0
16:31:50.734,AUTO,-35.363262,149.1652366,22498,0.0037267759907990694,0.0035255448892712593,-0.24134133756160736,0.0014079702086746693,0.0016478521283715963,-0.021121839061379433,0,0,-1000,2,2,-21,-1,3,-155,1500.0
16:31:50.936,AUTO,-35.363262,149.1652366,22498,0.0037267759907990694,0.0035255448892712593,-0.24134133756160736,0.0014079702086746693,0.0016478521283715963,-0.021121839061379433,0,0,-1000,2,2,-21,-1,3,-155,1500.0
16:31:51.145,AUTO,-35.363262,149.1652369,25230,-0.0015979170566424727,0.004373353440314531,-0.27144959568977356,-0.07743574678897858,0.0329558327794075,0.018092861399054527,0,0,-981,-76,33,18,-2,3,-153,1500.0
16:31:51.348,AUTO,-35.363262,149.1652369,25621,-0.008260139264166355,0.00898512452840805,-0.26295799016952515,0.011877580545842648,0.006021994166076183,0.034310970455408096,0,0,-1005,12,6,34,-3,1,-153,1500.0
16:31:51.551,AUTO,-35.363262,149.1652369,25621,-0.008260139264166355,0.00898512452840805,-0.26295799016952515,0.011877580545842648,0.006021994166076183,0.034310970455408096,0,0,-1005,12,6,34,-3,1,-153,1500.0
16:31:51.755,AUTO,-35.363262,149.1652369,25621,-0.008260139264166355,0.00898512452840805,-0.26295799016952515,0.011877580545842648,0.006021994166076183,0.034310970455408096,0,0,-1005,12,6,34,-3,1,-153,1500.0
16:31:51.961,AUTO,-35.363262,149.1652369,25621,-0.008260139264166355,0.00898512452840805,-0.26295799016952515,0.011877580545842648,0.006021994166076183,0.034310970455408096,0,0,-1005,12,6,34,-3,1,-153,1500.0
16:31:52.163,AUTO,-35.363262,149.1652369,25621,-0.008260139264166355,0.00898512452840805,-0.26295799016952515,0.011877580545842648,0.006021994166076183,0.034310970455408096,0,0,-1005,12,6,34,-3,1,-153,1500.0
16:31:52.366,AUTO,-35.363262,149.1652369,25621,-0.008260139264166355,0.00898512452840805,-0.26295799016952515,0.011877580545842648,0.006021994166076183,0.034310970455408096,0,0,-1005,12,6,34,-3,1,-153,1500.0
16:31:52.568,AUTO,-35.363262,149.1652369,25621,-0.008260139264166355,0.00898512452840805,-0.26295799016952515,0.011877580545842648,0.006021994166076183,0.034310970455408096,0,0,-1005,12,6,34,-3,1,-153,1500.0
16:31:52.771,AUTO,-35.363262,149.1652369,25621,-0.008260139264166355,0.00898512452840805,-0.26295799016952515,0.011877580545842648,0.006021994166076183,0.034310970455408096,0,0,-1005,12,6,34,-3,1,-153,1500.0
16:31:52.972,AUTO,-35.363262,149.1652369,25621,-0.008260139264166355,0.00898512452840805,-0.26295799016952515,0.011877580545842648,0.006021994166076183,0.034310970455408096,0,0,-1005,12,6,34,-3,1,-153,1500.0
16:31:53.176,AUTO,-35.3632623,149.1652369,27177,0.010089999996125698,0.0013249543262645602,-0.22663599252700806,0.0035828191321343184,-0.0023059570230543613,0.029529185965657234,0,0,-999,10,-3,34,-5,2,-155,1500.0
16:31:53.378,AUTO,-35.3632625,149.1652372,28734,0.005863971542567015,0.0006360616534948349,-0.2034001648426056,-0.0029353273566812277,0.0014545366866514087,0.021096091717481613,0,0,-1000,-2,2,21,-1,7,-154,1500.0
16:31:53.596,AUTO,-35.3632625,149.1652372,28734,0.005863971542567015,0.0006360616534948349,-0.2034001648426056,-0.0029353273566812277,0.0014545366866514087,0.021096091717481613,0,0,-1000,-2,2,21,-1,7,-154,1500.0
16:31:53.798,AUTO,-35.3632625,149.1652372,28734,0.005863971542567015,0.0006360616534948349,-0.2034001648426056,-0.0029353273566812277,0.0014545366866514087,0.021096091717481613,0,0,-1000,-2,2,21,-1,7,-154,1500.0
16:31:54.001,AUTO,-35.3632625,149.1652372,28734,0.005863971542567015,0.0006360616534948349,-0.2034001648426056,-0.0029353273566812277,0.0014545366866514087,0.021096091717481613,0,0,-1000,-2,2,21,-1,7,-154,1500.0
16:31:54.203,AUTO,-35.3632625,149.1652372,28734,0.005863971542567015,0.0006360616534948349,-0.2034001648426056,-0.0029353273566812277,0.0014545366866514087,0.021096091717481613,0,0,-1000,-2,2,21,-1,7,-154,1500.0
16:31:54.406,AUTO,-35.3632625,149.1652372,28734,0.005863971542567015,0.0006360616534948349,-0.2034001648426056,-0.0029353273566812277,0.0014545366866514087,0.021096091717481613,0,0,-1000,-2,2,21,-1,7,-154,1500.0
16:31:54.607,AUTO,-35.3632625,149.1652372,28734,0.005863971542567015,0.0006360616534948349,-0.2034001648426056,-0.0029353273566812277,0.0014545366866514087,0.021096091717481613,0,0,-1000,-2,2,21,-1,7,-154,1500.0
16:31:54.810,AUTO,-35.3632625,149.1652372,28734,0.005863971542567015,0.0006360616534948349,-0.2034001648426056,-0.0029353273566812277,0.0014545366866514087,0.021096091717481613,0,0,-1000,-2,2,21,-1,7,-154,1500.0
16:31:55.013,AUTO,-35.3632625,149.1652376,29901,0.0023753317072987556,0.0007395448046736419,-0.18947507441043854,0.0002836404601112008,0.0029231738299131393,0.018119897693395615,0,0,-1000,-2,2,21,0,6,-154,1500.0
16:31:55.215,AUTO,-35.3632624,149.165238,31463,0.000733269436750561,0.0013137689093127847,-0.17297646403312683,-0.0008551596547476947,0.0028662506956607103,0.015173020772635937,0,0,-1000,0,3,15,0,3,-154,1500.0
16:31:55.416,AUTO,-35.3632624,149.165238,31852,0.0006022288580425084,0.001973011065274477,-0.1689929962158203,-0.0011028361041098833,0.001143375993706286,0.016115903854370117,0,0,-1000,0,2,16,0,3,-154,1500.0
16:31:55.619,AUTO,-35.3632624,149.165238,31852,0.0006022288580425084,0.001973011065274477,-0.1689929962158203,-0.0011028361041098833,0.001143375993706286,0.016115903854370117,0,0,-1000,0,2,16,0,3,-154,1500.0
16:31:55.821,AUTO,-35.3632624,149.165238,31852,0.0006022288580425084,0.001973011065274477,-0.1689929962158203,-0.0011028361041098833,0.001143375993706286,0.016115903854370117,0,0,-1000,0,2,16,0,3,-154,1500.0
16:31:56.024,AUTO,-35.3632624,149.165238,31852,0.0006022288580425084,0.001973011065274477,-0.1689929962158203,-0.0011028361041098833,0.001143375993706286,0.016115903854370117,0,0,-1000,0,2,16,0,3,-154,1500.0
16:31:56.225,AUTO,-35.3632624,149.165238,31852,0.0006022288580425084,0.001973011065274477,-0.1689929962158203,-0.0011028361041098833,0.001143375993706286,0.016115903854370117,0,0,-1000,0,2,16,0,3,-154,1500.0
16:31:56.427,AUTO,-35.3632624,149.165238,31852,0.0006022288580425084,0.001973011065274477,-0.1689929962158203,-0.0011028361041098833,0.001143375993706286,0.016115903854370117,0,0,-1000,0,2,16,0,3,-154,1500.0
16:31:56.631,AUTO,-35.3632624,149.165238,31852,0.0006022288580425084,0.001973011065274477,-0.1689929962158203,-0.0011028361041098833,0.001143375993706286,0.016115903854370117,0,0,-1000,0,2,16,0,3,-154,1500.0
16:31:56.832,AUTO,-35.3632624,149.165238,31852,0.0006022288580425084,0.001973011065274477,-0.1689929962158203,-0.0011028361041098833,0.001143375993706286,0.016115903854370117,0,0,-1000,0,2,16,0,3,-154,1500.0
16:31:57.037,AUTO,-35.3632624,149.165238,31852,0.0006022288580425084,0.001973011065274477,-0.1689929962158203,-0.0011028361041098833,0.001143375993706286,0.016115903854370117,0,0,-1000,0,2,16,0,3,-154,1500.0
16:31:57.242,AUTO,-35.3632622,149.165238,33799,0.0018359587993472815,0.0016693989746272564,-0.15206916630268097,0.00023077847436070442,-0.000583524932153523,0.012427308596670628,0,0,-1000,0,0,12,0,0,-154,1500.0
16:31:57.443,AUTO,-35.3632622,149.165238,34968,0.0022251612972468138,0.0012665903195738792,-0.1429041028022766,0.0001588030718266964,0.0022248635068535805,0.01070638932287693,0,0,-1000,1,2,10,0,0,-154,1500.0
16:31:57.645,AUTO,-35.3632622,149.165238,34968,0.0022251612972468138,0.0012665903195738792,-0.1429041028022766,0.0001588030718266964,0.0022248635068535805,0.01070638932287693,0,0,-1000,1,2,10,0,0,-154,1500.0
16:31:57.853,AUTO,-35.3632622,149.165238,34968,0.0022251612972468138,0.0012665903195738792,-0.1429041028022766,0.0001588030718266964,0.0022248635068535805,0.01070638932287693,0,0,-1000,1,2,10,0,0,-154,1500.0
16:31:58.057,AUTO,-35.3632622,149.165238,34968,0.0022251612972468138,0.0012665903195738792,-0.1429041028022766,0.0001588030718266964,0.0022248635068535805,0.01070638932287693,0,0,-1000,1,2,10,0,0,-154,1500.0
16:31:58.259,AUTO,-35.3632622,149.165238,34968,0.0022251612972468138,0.0012665903195738792,-0.1429041028022766,0.0001588030718266964,0.0022248635068535805,0.01070638932287693,0,0,-1000,1,2,10,0,0,-154,1500.0
16:31:58.461,AUTO,-35.3632622,149.165238,34968,0.0022251612972468138,0.0012665903195738792,-0.1429041028022766,0.0001588030718266964,0.0022248635068535805,0.01070638932287693,0,0,-1000,1,2,10,0,0,-154,1500.0
16:31:58.663,AUTO,-35.3632622,149.165238,34968,0.0022251612972468138,0.0012665903195738792,-0.1429041028022766,0.0001588030718266964,0.0022248635068535805,0.01070638932287693,0,0,-1000,1,2,10,0,0,-154,1500.0
16:31:58.866,AUTO,-35.3632622,149.165238,34968,0.0022251612972468138,0.0012665903195738792,-0.1429041028022766,0.0001588030718266964,0.0022248635068535805,0.01070638932287693,0,0,-1000,1,2,10,0,0,-154,1500.0
16:31:59.068,AUTO,-35.3632622,149.165238,34968,0.002138809533789754,0.0013407710939645767,-0.134917214512825,0.004264490678906441,0.0009716248605400324,0.01149728149175644,0,0,-1000,1,2,10,0,0,-154,1500.0
16:31:59.270,AUTO,-35.3632621,149.1652378,37701,0.0023108869791030884,0.0013143520336598158,-0.1254703849554062,0.002002375666052103,0.0015026379842311144,0.009144207462668419,0,0,-1000,2,2,9,0,0,-154,1500.0
16:31:59.471,AUTO,-35.3632621,149.1652378,38091,0.0025192720349878073,0.0015370214823633432,-0.12346302717924118,9.791622869670391e-05,0.002260626293718815,0.009508517570793629,0,0,-999,1,3,9,0,0,-154,1500.0
16:32:03.263,AUTO,-35.3632621,149.1652378,38091,0.0025192720349878073,0.0015370214823633432,-0.12346302717924118,9.791622869670391e-05,0.002260626293718815,0.009508517570793629,0,0,-999,1,3,9,0,0,-154,1500.0
16:32:03.471,AUTO,-35.3632621,149.1652378,38091,0.0025192720349878073,0.0015370214823633432,-0.12346302717924118,9.791622869670391e-05,0.002260626293718815,0.009508517570793629,0,0,-999,1,3,9,0,0,-154,1500.0
16:32:03.678,AUTO,-35.3632621,149.1652378,38091,0.0025192720349878073,0.0015370214823633432,-0.12346302717924118,9.791622869670391e-05,0.002260626293718815,0.009508517570793629,0,0,-999,1,3,9,0,0,-154,1500.0
16:32:03.880,AUTO,-35.3632621,149.1652378,38091,0.0025192720349878073,0.0015370214823633432,-0.12346302717924118,9.791622869670391e-05,0.002260626293718815,0.009508517570793629,0,0,-999,1,3,9,0,0,-154,1500.0
16:32:04.082,AUTO,-35.3632621,149.1652378,38091,0.0025192720349878073,0.0015370214823633432,-0.12346302717924118,9.791622869670391e-05,0.002260626293718815,0.009508517570793629,0,0,-999,1,3,9,0,0,-154,1500.0
16:32:04.284,AUTO,-35.3632621,149.1652378,38091,0.0025192720349878073,0.0015370214823633432,-0.12346302717924118,9.791622869670391e-05,0.002260626293718815,0.009508517570793629,0,0,-999,1,3,9,0,0,-154,1500.0
16:32:04.488,AUTO,-35.3632621,149.1652378,38091,0.0025192720349878073,0.0015370214823633432,-0.12346302717924118,9.791622869670391e-05,0.002260626293718815,0.009508517570793629,0,0,-999,1,3,9,0,0,-154,1500.0
16:32:04.692,AUTO,-35.3632621,149.1652378,38091,0.0025192720349878073,0.0015370214823633432,-0.12346302717924118,9.791622869670391e-05,0.002260626293718815,0.009508517570793629,0,0,-999,1,3,9,0,0,-154,1500.0
16:32:04.895,AUTO,-35.3632621,149.1652376,40420,0.002826052252203226,0.0010400171158835292,-0.11188793182373047,-0.001811281661503017,-0.0014408526476472616,0.009356125257909298,0,0,-1000,0,2,8,0,0,-154,1500.0
16:32:05.097,AUTO,-35.3632621,149.1652376,40810,0.0026897918432950974,0.0009938277071341872,-0.11039630323648453,-0.0017498689703643322,0.0007847341476008296,0.006036837585270405,0,0,-1000,0,1,6,0,0,-154,1500.0
16:32:05.300,AUTO,-35.3632621,149.1652376,40810,0.0026897918432950974,0.0009938277071341872,-0.11039630323648453,-0.0017498689703643322,0.0007847341476008296,0.006036837585270405,0,0,-1000,0,1,6,0,0,-154,1500.0
16:32:05.505,AUTO,-35.3632621,149.1652376,40810,0.0026897918432950974,0.0009938277071341872,-0.11039630323648453,-0.0017498689703643322,0.0007847341476008296,0.006036837585270405,0,0,-1000,0,1,6,0,0,-154,1500.0
16:32:05.712,AUTO,-35.3632621,149.1652376,40810,0.0026897918432950974,0.0009938277071341872,-0.11039630323648453,-0.0017498689703643322,0.0007847341476008296,0.006036837585270405,0,0,-1000,0,1,6,0,0,-154,1500.0
16:32:05.915,AUTO,-35.3632621,149.1652376,40810,0.0026897918432950974,0.0009938277071341872,-0.11039630323648453,-0.0017498689703643322,0.0007847341476008296,0.006036837585270405,0,0,-1000,0,1,6,0,0,-154,1500.0
16:32:06.119,AUTO,-35.3632621,149.1652376,40810,0.0026897918432950974,0.0009938277071341872,-0.11039630323648453,-0.0017498689703643322,0.0007847341476008296,0.006036837585270405,0,0,-1000,0,1,6,0,0,-154,1500.0
16:32:06.323,AUTO,-35.3632621,149.1652376,40810,0.0026897918432950974,0.0009938277071341872,-0.11039630323648453,-0.0017498689703643322,0.0007847341476008296,0.006036837585270405,0,0,-1000,0,1,6,0,0,-154,1500.0
16:32:06.525,AUTO,-35.3632621,149.1652376,40810,0.0026897918432950974,0.0009938277071341872,-0.11039630323648453,-0.0017498689703643322,0.0007847341476008296,0.006036837585270405,0,0,-1000,0,1,6,0,0,-154,1500.0
16:32:06.737,AUTO,-35.3632621,149.1652376,40810,0.0026897918432950974,0.0009938277071341872,-0.11039630323648453,-0.0017498689703643322,0.0007847341476008296,0.006036837585270405,0,0,-1000,0,1,6,0,0,-154,1500.0
16:32:06.941,AUTO,-35.3632621,149.1652375,42137,0.0025172876194119453,0.0015625806991010904,-0.10465773940086365,0.0027621551416814327,0.0010191121837124228,0.008447365835309029,0,0,-999,0,3,6,0,1,-154,1500.0
16:32:07.148,AUTO,-35.363262,149.1652375,44085,0.002690561581403017,0.0014481531688943505,-0.09710727632045746,0.0011148129124194384,-0.0014751628041267395,0.004689363297075033,0,0,-1001,2,0,4,-1,1,-154,1500.0
16:32:07.354,AUTO,-35.363262,149.1652375,44085,0.002690561581403017,0.0014481531688943505,-0.09710727632045746,0.0011148129124194384,-0.0014751628041267395,0.004689363297075033,0,0,-1001,2,0,4,-1,1,-154,1500.0
16:32:07.561,AUTO,-35.363262,149.1652375,44085,0.002690561581403017,0.0014481531688943505,-0.09710727632045746,0.0011148129124194384,-0.0014751628041267395,0.004689363297075033,0,0,-1001,2,0,4,-1,1,-154,1500.0
16:32:07.769,AUTO,-35.363262,149.1652375,44085,0.002690561581403017,0.0014481531688943505,-0.09710727632045746,0.0011148129124194384,-0.0014751628041267395,0.004689363297075033,0,0,-1001,2,0,4,-1,1,-154,1500.0
16:32:07.985,AUTO,-35.363262,149.1652375,44085,0.002690561581403017,0.0014481531688943505,-0.09710727632045746,0.0011148129124194384,-0.0014751628041267395,0.004689363297075033,0,0,-1001,2,0,4,-1,1,-154,1500.0
16:32:08.189,AUTO,-35.363262,149.1652375,44085,0.002690561581403017,0.0014481531688943505,-0.09710727632045746,0.0011148129124194384,-0.0014751628041267395,0.004689363297075033,0,0,-1001,2,0,4,-1,1,-154,1500.0
16:32:08.398,AUTO,-35.363262,149.1652375,44085,0.002690561581403017,0.0014481531688943505,-0.09710727632045746,0.0011148129124194384,-0.0014751628041267395,0.004689363297075033,0,0,-1001,2,0,4,-1,1,-154,1500.0
16:32:08.600,AUTO,-35.363262,149.1652374,46578,0.0025601477827876806,0.001253037597052753,-0.0883648693561554,-0.0006717327050864697,0.0013164200354367495,0.0068960669450461864,0,0,-999,0,2,7,-1,1,-154,1500.0
16:32:08.803,AUTO,-35.363262,149.1652374,46578,0.0025601477827876806,0.001253037597052753,-0.0883648693561554,-0.0006717327050864697,0.0013164200354367495,0.0068960669450461864,0,0,-999,0,2,7,-1,1,-154,1500.0
16:32:09.004,AUTO,-35.363262,149.1652374,46578,0.0025601477827876806,0.001253037597052753,-0.0883648693561554,-0.0006717327050864697,0.0013164200354367495,0.0068960669450461864,0,0,-999,0,2,7,-1,1,-154,1500.0
16:32:09.208,AUTO,-35.363262,149.1652374,46578,0.0025601477827876806,0.001253037597052753,-0.0883648693561554,-0.0006717327050864697,0.0013164200354367495,0.0068960669450461864,0,0,-999,0,2,7,-1,1,-154,1500.0
16:32:09.411,AUTO,-35.363262,149.1652374,46578,0.0025601477827876806,0.001253037597052753,-0.0883648693561554,-0.0006717327050864697,0.0013164200354367495,0.0068960669450461864,0,0,-999,0,2,7,-1,1,-154,1500.0
16:32:09.613,AUTO,-35.363262,149.1652374,46578,0.0025601477827876806,0.001253037597052753,-0.0883648693561554,-0.0006717327050864697,0.0013164200354367495,0.0068960669450461864,0,0,-999,0,2,7,-1,1,-154,1500.0
16:32:09.816,AUTO,-35.363262,149.1652374,46578,0.0025601477827876806,0.001253037597052753,-0.0883648693561554,-0.0006717327050864697,0.0013164200354367495,0.0068960669450461864,0,0,-999,0,2,7,-1,1,-154,1500.0
16:32:10.022,AUTO,-35.3632636,149.165235,48575,-0.012127893045544624,-0.016380921006202698,0.29067084193229675,0.12548699975013733,-0.15905532240867615,0.11525026708841324,3,6,-942,99,-216,239,-30,-38,-102,1500.0
16:32:10.224,AUTO,-35.3632636,149.165235,48575,-0.012127893045544624,-0.016380921006202698,0.29067084193229675,0.12548699975013733,-0.15905532240867615,0.11525026708841324,4,11,-948,126,-157,115,-30,-38,-102,1500.0
16:32:10.426,AUTO,-35.3632636,149.165235,48575,-0.012127893045544624,-0.016380921006202698,0.29067084193229675,0.12548699975013733,-0.15905532240867615,0.11525026708841324,4,11,-948,126,-157,115,-30,-38,-102,1500.0
16:32:10.627,AUTO,-35.3632636,149.165235,48575,-0.012127893045544624,-0.016380921006202698,0.29067084193229675,0.12548699975013733,-0.15905532240867615,0.11525026708841324,4,11,-948,126,-157,115,-30,-38,-102,1500.0
16:32:10.829,AUTO,-35.3632636,149.165235,48575,-0.012127893045544624,-0.016380921006202698,0.29067084193229675,0.12548699975013733,-0.15905532240867615,0.11525026708841324,4,11,-948,126,-157,115,-30,-38,-102,1500.0
16:32:11.031,AUTO,-35.3632636,149.165235,48575,-0.012127893045544624,-0.016380921006202698,0.29067084193229675,0.12548699975013733,-0.15905532240867615,0.11525026708841324,4,11,-948,126,-157,115,-30,-38,-102,1500.0
16:32:11.234,AUTO,-35.3632636,149.165235,48575,-0.012127893045544624,-0.016380921006202698,0.29067084193229675,0.12548699975013733,-0.15905532240867615,0.11525026708841324,4,11,-948,126,-157,115,-30,-38,-102,1500.0
16:32:11.439,AUTO,-35.3632642,149.1652328,49669,0.034708112478256226,-0.024882981553673744,0.28038254380226135,0.23519091308116913,0.03906684368848801,-0.0380721390247345,-2,11,-977,239,40,-37,16,20,-49,1500.0
16:32:11.641,AUTO,-35.3632642,149.1652328,49669,0.034708112478256226,-0.024882981553673744,0.28038254380226135,0.23519091308116913,0.03906684368848801,-0.0380721390247345,-2,11,-977,239,40,-37,16,20,-49,1500.0
16:32:11.846,AUTO,-35.3632637,149.1652334,49782,0.03517494723200798,-0.014160041697323322,0.27080032229423523,0.31468698382377625,0.039995286613702774,-0.03959229588508606,-1,0,-977,313,41,-39,19,26,-42,1500.0
16:32:12.048,AUTO,-35.3632633,149.1652342,49880,0.021656997501850128,-0.0042922706343233585,0.2616841197013855,-0.3708595335483551,0.038680367171764374,-0.036041419953107834,-2,-34,-981,-372,39,-35,20,29,-37,1500.0
16:32:12.250,AUTO,-35.3632633,149.1652342,49880,0.021656997501850128,-0.0042922706343233585,0.2616841197013855,-0.3708595335483551,0.038680367171764374,-0.036041419953107834,-2,-34,-981,-372,39,-35,20,29,-37,1500.0
16:32:12.469,AUTO,-35.3632633,149.1652342,49880,0.021656997501850128,-0.0042922706343233585,0.2616841197013855,-0.3708595335483551,0.038680367171764374,-0.036041419953107834,-2,-34,-981,-372,39,-35,20,29,-37,1500.0
16:32:12.691,AUTO,-35.3632633,149.1652342,49880,0.021656997501850128,-0.0042922706343233585,0.2616841197013855,-0.3708595335483551,0.038680367171764374,-0.036041419953107834,-2,-34,-981,-372,39,-35,20,29,-37,1500.0
16:32:12.921,AUTO,-35.3632633,149.1652342,49880,0.021656997501850128,-0.0042922706343233585,0.2616841197013855,-0.3708595335483551,0.038680367171764374,-0.036041419953107834,-2,-34,-981,-372,39,-35,20,29,-37,1500.0
16:32:13.141,AUTO,-35.3632633,149.1652342,49880,0.021656997501850128,-0.0042922706343233585,0.2616841197013855,-0.3708595335483551,0.038680367171764374,-0.036041419953107834,-2,-34,-981,-372,39,-35,20,29,-37,1500.0
16:32:13.346,AUTO,-35.3632633,149.1652342,49880,0.021656997501850128,-0.0042922706343233585,0.2616841197013855,-0.3708595335483551,0.038680367171764374,-0.036041419953107834,-2,-34,-981,-372,39,-35,20,29,-37,1500.0
16:32:13.551,AUTO,-35.3632633,149.1652342,49880,0.021656997501850128,-0.0042922706343233585,0.2616841197013855,-0.3708595335483551,0.038680367171764374,-0.036041419953107834,-2,-34,-981,-372,39,-35,20,29,-37,1500.0
16:32:13.758,AUTO,-35.3632612,149.1652382,50174,-0.014845925383269787,0.01793222688138485,0.20988141000270844,-1.0047364234924316,0.1602517068386078,-0.15294678509235382,-1,-34,-963,-199,0,-23,6,17,0,1500.0
16:32:13.959,AUTO,-35.3632611,149.1652385,50090,-0.01624443382024765,0.015332226641476154,0.20423607528209686,-0.6744446754455566,-0.11890280246734619,-0.019073430448770523,0,-27,-1025,-672,-117,-18,-5,2,15,1500.0
16:32:14.160,AUTO,-35.3632611,149.1652385,50090,-0.01624443382024765,0.015332226641476154,0.20423607528209686,-0.6744446754455566,-0.11890280246734619,-0.019073430448770523,0,-27,-1025,-672,-117,-18,-5,2,15,1500.0
16:32:14.362,AUTO,-35.3632611,149.1652385,50090,-0.01624443382024765,0.015332226641476154,0.20423607528209686,-0.6744446754455566,-0.11890280246734619,-0.019073430448770523,0,-27,-1025,-672,-117,-18,-5,2,15,1500.0
16:32:14.566,AUTO,-35.3632611,149.1652385,50090,-0.01624443382024765,0.015332226641476154,0.20423607528209686,-0.6744446754455566,-0.11890280246734619,-0.019073430448770523,0,-27,-1025,-672,-117,-18,-5,2,15,1500.0
16:32:14.767,AUTO,-35.3632611,149.1652385,50090,-0.01624443382024765,0.015332226641476154,0.20423607528209686,-0.6744446754455566,-0.11890280246734619,-0.019073430448770523,0,-27,-1025,-672,-117,-18,-5,2,15,1500.0
16:32:14.972,AUTO,-35.3632611,149.1652385,50090,-0.01624443382024765,0.015332226641476154,0.20423607528209686,-0.6744446754455566,-0.11890280246734619,-0.019073430448770523,0,-27,-1025,-672,-117,-18,-5,2,15,1500.0
16:32:15.176,AUTO,-35.3632611,149.1652385,50090,-0.01624443382024765,0.015332226641476154,0.20423607528209686,-0.6744446754455566,-0.11890280246734619,-0.019073430448770523,0,-27,-1025,-672,-117,-18,-5,2,15,1500.0
16:32:15.380,AUTO,-35.3632611,149.1652385,50090,-0.01624443382024765,0.015332226641476154,0.20423607528209686,-0.6744446754455566,-0.11890280246734619,-0.019073430448770523,0,-27,-1025,-672,-117,-18,-5,2,15,1500.0
16:32:15.582,AUTO,-35.3632611,149.1652385,50090,-0.01624443382024765,0.015332226641476154,0.20423607528209686,-0.6744446754455566,-0.11890280246734619,-0.019073430448770523,0,-27,-1025,-672,-117,-18,-5,2,15,1500.0
16:32:15.785,AUTO,-35.3632611,149.1652385,50090,-0.01624443382024765,0.015332226641476154,0.20423607528209686,-0.6744446754455566,-0.11890280246734619,-0.019073430448770523,0,-27,-1025,-672,-117,-18,-5,2,15,1500.0
16:32:15.988,AUTO,-35.3632595,149.1652426,49948,0.058556098490953445,-0.07934898138046265,0.3333345651626587,-0.6703462600708008,-0.07603137940168381,0.7518519759178162,-2,-34,-1016,-668,-74,752,43,66,-2,1500.0
16:32:16.193,AUTO,-35.3632584,149.1652446,49944,0.04992181062698364,-0.09533631801605225,0.5378395915031433,-0.3318769037723541,-0.01900511048734188,0.845147967338562,-8,-23,-1006,-326,-17,845,56,84,-2,1500.0
16:32:16.395,AUTO,-35.3632584,149.1652446,49944,0.04992181062698364,-0.09533631801605225,0.5378395915031433,-0.3318769037723541,-0.01900511048734188,0.845147967338562,-8,-23,-1006,-326,-17,845,56,84,-2,1500.0
16:32:16.597,AUTO,-35.3632584,149.1652446,49944,0.04992181062698364,-0.09533631801605225,0.5378395915031433,-0.3318769037723541,-0.01900511048734188,0.845147967338562,-8,-23,-1006,-326,-17,845,56,84,-2,1500.0
16:32:16.800,AUTO,-35.3632584,149.1652446,49944,0.04992181062698364,-0.09533631801605225,0.5378395915031433,-0.3318769037723541,-0.01900511048734188,0.845147967338562,-8,-23,-1006,-326,-17,845,56,84,-2,1500.0
16:32:17.012,AUTO,-35.3632584,149.1652446,49944,0.04992181062698364,-0.09533631801605225,0.5378395915031433,-0.3318769037723541,-0.01900511048734188,0.845147967338562,-8,-23,-1006,-326,-17,845,56,84,-2,1500.0
16:32:17.219,AUTO,-35.3632584,149.1652446,49944,0.04992181062698364,-0.09533631801605225,0.5378395915031433,-0.3318769037723541,-0.01900511048734188,0.845147967338562,-8,-23,-1006,-326,-17,845,56,84,-2,1500.0
16:32:17.422,AUTO,-35.3632584,149.1652446,49944,0.04992181062698364,-0.09533631801605225,0.5378395915031433,-0.3318769037723541,-0.01900511048734188,0.845147967338562,-8,-23,-1006,-326,-17,845,56,84,-2,1500.0
16:32:17.632,AUTO,-35.3632584,149.1652446,49944,0.04992181062698364,-0.09533631801605225,0.5378395915031433,-0.3318769037723541,-0.01900511048734188,0.845147967338562,-8,-23,-1006,-326,-17,845,56,84,-2,1500.0
16:32:17.841,AUTO,-35.3632584,149.1652446,49944,0.04992181062698364,-0.09533631801605225,0.5378395915031433,-0.3318769037723541,-0.01900511048734188,0.845147967338562,-8,-23,-1006,-326,-17,845,56,84,-2,1500.0
