time_stamp,RTL_ALT,roll,pitch,yaw,rollspeed,pitchspeed,yawspeed,lat,lon,relative_alt,vx,vy,vz,xacc,yacc,zacc,xgyro,ygyro,zgyro,MODE
05:14:51,1500.0,0.0001678459617930154,0.0015465182562669118,0.026922186215718586,0.00023115354512507716,0.00025473826099187136,0.002237698839356502,-35.3632621,149.1652374,0.0,-1.0,1.0,-1.0,0.0,1.0,-1000.0,0.0,0.0,0.0,STABILIZE
05:15:05,1500.0,-0.0010637862142175436,0.0009646652615629137,0.021397799253463745,0.0002126574981957674,0.0002788325655274093,0.0014580884017050266,-35.3632622,149.1652375,0.0,-1.0,1.0,1.0,0.0,1.0,-1000.0,0.0,1.0,1.0,AUTO
05:15:06,234082.0,-0.0010661417618393898,0.0010030983636776607,0.021158617610732715,2.325768582522869e-05,0.00026719891078149277,0.0015421387894699972,-35.36326213333333,149.1652375,6.666666666666667,-0.6666666666666666,0.0,0.0,0.0,-5.0,-1009.6666666666666,0.0,0.6666666666666666,0.0,AUTO
05:15:07,234082.0,-0.0010026926756836474,0.001100995655482014,0.02103269472718239,0.00030187829785669845,0.0002520552564722796,0.0014669346855953336,-35.3632621,149.1652375,10.333333333333334,0.0,0.0,0.0,0.0,1.6666666666666667,-1000.0,0.3333333333333333,0.6666666666666666,0.0,AUTO
05:15:09,234082.0,-0.0006114112523694833,0.0016460622039933999,0.020616327101985615,0.00029720645397901535,0.00030550888429085415,0.0014312842783207695,-35.3632621,149.1652375,13.666666666666666,0.0,0.0,0.0,0.0,1.6666666666666667,-1000.0,0.0,0.3333333333333333,0.0,AUTO
05:15:10,274987.0,0.0017338235629722476,0.0009980550482093047,0.020378089199463528,-0.001611022821937998,0.002358144304404656,0.00023126151063479483,-35.3632621,149.1652375,442.6666666666667,0.0,0.3333333333333333,-98.33333333333333,0.0,0.0,-1109.3333333333333,-1.6666666666666667,2.3333333333333335,0.0,AUTO
05:15:11,274987.0,0.021914218241969746,-0.0008791305202369889,0.019778583198785782,0.04639816905061404,-0.006866776229192813,0.0017362636281177402,-35.363262033333335,149.16523756666666,1412.0,0.3333333333333333,5.666666666666667,-143.66666666666666,0.0,-0.3333333333333333,-1022.0,46.666666666666664,-5.666666666666667,0.6666666666666666,AUTO
05:15:13,274987.0,-0.02854026605685552,-0.0019373676429192226,-0.05143850793441137,-0.04300738933185736,-0.022400532538692158,-0.022680085618048906,-35.3632608,149.1652449,4464.666666666667,6.666666666666667,38.333333333333336,-148.33333333333334,3.3333333333333335,-9.0,-1004.6666666666666,-41.666666666666664,-21.666666666666668,-22.666666666666668,AUTO
05:15:14,42401.0,-0.0679085503021876,0.015324579241375128,-0.11888817697763443,0.05471230919162432,0.0021288669668138027,-0.03249610215425491,-35.363260233333335,149.1652452666667,6380.333333333333,-6.0,-40.666666666666664,-148.66666666666666,-3.0,6.0,-1002.0,54.666666666666664,2.6666666666666665,-32.333333333333336,AUTO
05:15:15,42401.0,-0.02038010916051765,0.018945644920070965,-0.132745161652565,0.07041856646537781,0.007315002692242463,-0.008816687390208244,-35.36326123333333,149.1652406,7529.0,-23.666666666666668,-64.0,-149.33333333333334,-4.666666666666667,15.0,-1003.0,70.33333333333333,7.333333333333333,-9.0,AUTO
05:15:17,42401.0,0.05271458004911741,-0.06166107331713041,-0.04711179621517658,0.02513211251546939,-0.05018312359849612,0.0817303682367007,-35.363266966666664,149.16523303333335,10642.333333333334,-6.333333333333333,14.0,-151.66666666666666,3.3333333333333335,1.0,-1001.0,25.333333333333332,-49.0,80.66666666666667,AUTO
05:15:18,200.0,-0.018929187208414078,-0.015159791645904383,-0.06760671858986218,-0.1138892521460851,0.12686516592899957,-0.14084798097610474,-35.363262799999994,149.16523776666665,12538.666666666666,70.0,40.333333333333336,-146.33333333333334,-7.0,-17.333333333333332,-1010.3333333333334,-112.66666666666667,127.33333333333333,-140.66666666666666,AUTO
05:15:19,200.0,-0.05585344880819321,0.04255841548244158,-0.17011822760105133,0.00021750076363484064,0.04640891030430794,-0.10388475904862086,-35.36325853333333,149.16523949999998,13695.333333333334,45.333333333333336,-1.0,-153.0,-8.666666666666666,-9.666666666666666,-1006.6666666666666,1.0,46.666666666666664,-103.66666666666667,AUTO
05:15:21,200.0,0.038685581957300506,0.05090849722425143,-0.24130829175313315,0.0509251244366169,-0.03599701076745987,0.009567344832854966,-35.363260733333334,149.16523436666668,16812.333333333332,-65.0,-5.666666666666667,-151.0,6.333333333333333,11.0,-999.3333333333334,51.333333333333336,-35.0,9.333333333333334,AUTO
05:15:22,256877.0,0.017465283783773582,-0.10019812484582265,-0.115671806037426,-0.01940767963727315,-0.11262655506531398,0.13767437636852264,-35.36326686666667,149.1652371,18745.0,-16.666666666666668,37.333333333333336,-152.33333333333334,9.666666666666666,-2.3333333333333335,-1005.3333333333334,-18.666666666666668,-111.33333333333333,137.0,AUTO
05:15:23,256877.0,-0.037141685684521995,-0.07818454379836719,-0.11056708296140035,-0.10032208015521367,0.14414031306902567,-0.11396399885416031,-35.36326523333333,149.16523949999998,19893.0,61.0,18.0,-147.0,-6.333333333333333,-11.0,-1000.6666666666666,-99.0,144.33333333333334,-114.0,AUTO
05:15:25,256877.0,-0.0030579708982259035,0.05243838578462601,-0.2684173385302226,0.0578279085457325,0.03940405075748762,-0.020181526119510334,-35.36325523333334,149.16523053333336,22975.0,10.666666666666666,-63.333333333333336,-154.33333333333334,-14.666666666666666,7.0,-1004.3333333333334,58.0,39.666666666666664,-20.333333333333332,AUTO
05:15:26,200.0,0.07314309477806091,0.06688229491313298,-0.27606984972953796,0.06109720095992088,-0.020150247029960155,0.0004845205306385954,-35.363257499999996,149.1652253,24941.333333333332,-53.666666666666664,8.666666666666666,-152.0,5.0,8.333333333333334,-999.0,61.666666666666664,-19.0,0.3333333333333333,AUTO
05:15:27,200.0,0.09871648748715718,0.019603494554758072,-0.2627285321553548,-0.03314874817927679,-0.13115360712011656,0.0895603100458781,-35.36326136666666,149.1652287,26089.0,-58.666666666666664,82.0,-145.66666666666666,19.666666666666668,-1.3333333333333333,-996.3333333333334,-31.666666666666668,-130.0,88.66666666666667,AUTO
05:15:29,200.0,-0.11609231183926265,-0.009914436377584934,-0.3189402421315511,0.07007420777032773,0.06989566857616107,-0.04768412094563246,-35.363260233333335,149.16524273333334,29107.666666666668,31.0,-34.0,-150.66666666666666,-9.333333333333334,-2.6666666666666665,-1002.3333333333334,70.66666666666667,70.33333333333333,-47.333333333333336,AUTO
05:15:30,111437.0,-0.020256182877346873,0.054379358887672424,-0.3244564930597941,0.07550108681122462,0.02737220438818137,0.005391985177993774,-35.36326023333333,149.16523273333334,31009.0,-37.333333333333336,-85.0,-151.0,-9.333333333333334,17.333333333333332,-1004.6666666666666,76.0,28.333333333333332,4.666666666666667,AUTO
05:15:31,111437.0,0.03969834434489409,0.06425618877013524,-0.3198901116847992,0.08189515521128972,-0.002615470439195633,0.0080460951042672,-35.36326416666667,149.16522666666665,32166.333333333332,-76.66666666666667,-49.666666666666664,-152.66666666666666,0.0,21.666666666666668,-1005.0,82.33333333333333,-1.0,7.333333333333333,AUTO
05:15:33,111437.0,0.10935270289580028,-0.09714856619636218,-0.26307981212933856,-0.09559004505475362,-0.19945884744326273,0.15737910817066827,-35.36327706666666,149.16523763333333,35191.333333333336,-7.0,154.0,-139.33333333333334,28.666666666666668,-18.0,-1005.3333333333334,-94.0,-198.0,157.0,AUTO
05:15:34,13216.0,-0.09029719357689221,-0.10272274663050969,-0.2878276507059733,-0.1453032617767652,0.1342416654030482,-0.16533741851647696,-35.36326676666667,149.16525603333332,36938.666666666664,168.66666666666666,73.33333333333333,-141.0,-8.333333333333334,-42.0,-1029.0,-144.0,135.0,-165.0,AUTO
05:15:35,13216.0,-0.1341656893491745,-0.008194140469034513,-0.3984774748484294,0.01606459729373455,0.1584083785613378,-0.05864729763319095,-35.36325526666667,149.1652572,38050.0,156.0,-45.333333333333336,-149.33333333333334,-25.0,-24.666666666666668,-1020.0,17.0,158.66666666666666,-58.333333333333336,AUTO
05:15:37,13216.0,0.042595719918608665,-0.015003649517893791,-0.07475998252630234,0.05934145487844944,-0.27133941153685254,-0.01715863620241483,-35.363256066666665,149.16523773333336,40603.333333333336,-137.66666666666666,-62.0,-72.66666666666667,16.0,33.333333333333336,-953.0,60.333333333333336,-269.6666666666667,-17.0,AUTO
05:15:38,145863.0,0.04200477587680022,-0.07602186252673467,-0.12089072912931442,-0.10013959308465321,0.05264224112033844,-0.02455916441977024,-35.36326573333333,149.16523469999998,41159.333333333336,-24.0,8.333333333333334,-17.333333333333332,5.333333333333333,-6.333333333333333,-969.0,-99.66666666666667,53.0,-24.0,AUTO
05:15:39,145863.0,0.0133599570641915,-0.028954229628046353,-0.12999490400155386,0.1481745938460032,0.05824550737937292,-0.004398283684471001,-35.363265766666665,149.16523599999996,41213.666666666664,17.333333333333332,20.0,-0.3333333333333333,0.3333333333333333,10.333333333333334,-979.0,149.66666666666666,58.666666666666664,-3.6666666666666665,AUTO
05:15:41,145863.0,-0.03612149817248186,-0.0037415274806941548,-0.153513565659523,0.4450558200478554,-0.017949371598660946,-0.01152864284813404,-35.3632613,149.16523750000002,40966.666666666664,17.0,-27.666666666666668,4.333333333333333,-5.0,12.333333333333334,-1009.6666666666666,445.6666666666667,-16.333333333333332,-11.0,AUTO
05:15:42,170545.0,-0.06269622594118118,-0.062159006794293724,-0.5141690770785013,0.2173797090848287,-0.010645854597290358,-0.8466817736625671,-35.36325926666667,149.16523186666666,40876.333333333336,21.666666666666668,-91.33333333333333,7.666666666666667,-17.0,28.333333333333332,-982.3333333333334,219.0,-9.333333333333334,-846.3333333333334,AUTO
05:15:43,170545.0,-0.007317619010185202,-0.06990547726551692,-1.093953828016917,-0.27503828207651776,0.02392945997416973,-0.5437898188829422,-35.3632576,149.1652244,40795.0,27.333333333333332,-128.66666666666666,9.666666666666666,-24.333333333333332,-30.333333333333332,-1000.0,-274.6666666666667,24.666666666666668,-543.0,AUTO
05:15:45,170545.0,0.027110351870457332,-0.012291968644907078,-1.1812357902526855,0.4718012362718582,0.03686137373248736,-0.01697373203933239,-35.363252100000004,149.16519793333333,40497.666666666664,35.333333333333336,-129.33333333333334,12.333333333333334,-28.0,8.666666666666666,-1004.3333333333334,472.0,37.333333333333336,-16.333333333333332,AUTO
05:15:46,124891.0,0.01760778669267893,0.025769342357913654,-1.188500165939331,0.1686708927154541,0.024868177250027657,-0.005561303657790025,-35.36324873333333,149.1651845,40338.666666666664,26.0,-81.0,8.0,-15.666666666666666,12.333333333333334,-1007.0,169.66666666666666,25.0,-5.0,AUTO
05:15:47,124891.0,0.01065888162702322,-0.004864021437242627,-1.1920254230499268,-0.11955711493889491,-0.12110715856154759,0.018013321173687775,-35.363247300000005,149.1651797,40281.666666666664,17.0,-53.0,4.666666666666667,-9.666666666666666,-22.666666666666668,-999.3333333333334,-119.66666666666667,-119.66666666666667,17.666666666666668,AUTO
05:15:49,124891.0,0.03755113606651624,0.005684910962978999,-1.2027700742085774,0.3447854419549306,0.1909093757470449,-0.001280996638039748,-35.36324263333333,149.1651575,40065.0,43.0,-148.66666666666666,11.0,-33.666666666666664,13.0,-1015.0,346.0,191.33333333333334,-1.0,AUTO
05:15:50,78228.0,0.020024379715323448,-0.050141796469688416,-1.2069325844446819,-0.4425911357005437,-0.24594072004159293,-0.004274056603511174,-35.36323976666667,149.16514336666668,39928.0,32.0,-69.66666666666667,11.0,-15.666666666666666,-15.0,-989.0,-441.6666666666667,-244.66666666666666,-4.0,AUTO
05:15:51,78228.0,0.03383635481198629,-0.0799231951435407,-1.2103479703267415,0.2516506314277649,0.18712595105171204,-0.031194031238555908,-35.36323796666667,149.1651355,39815.666666666664,47.666666666666664,-117.66666666666667,13.666666666666666,-26.333333333333332,-14.333333333333334,-1011.0,251.33333333333334,187.0,-30.333333333333332,AUTO
05:15:53,78228.0,0.014133207189540068,-0.1483350396156311,-1.2176730235417683,-0.3206694523493449,-0.0266509751478831,0.016429368096093338,-35.36323286666667,149.16511496666666,39578.666666666664,50.666666666666664,-110.66666666666667,14.666666666666666,-26.333333333333332,-24.666666666666668,-993.3333333333334,-319.3333333333333,-25.666666666666668,16.0,AUTO
05:15:54,200.0,0.043542965004841484,0.07155990476409595,-1.2233015696207683,-0.4025711665550868,-0.024564385414123535,-0.024065079012264807,-35.363228633333335,149.16509566666664,39387.333333333336,49.666666666666664,-109.66666666666667,8.666666666666666,-24.0,-24.333333333333332,-1003.6666666666666,-401.3333333333333,-24.333333333333332,-23.333333333333332,AUTO
05:15:55,200.0,0.04180292785167694,-0.09147642304499944,-1.2250014146169026,0.30685101946194965,-0.18321941839531064,-0.003721850303312143,-35.363226833333336,149.16508776666666,39290.0,50.0,-88.33333333333333,14.333333333333334,-20.666666666666668,-7.666666666666667,-998.0,307.3333333333333,-182.66666666666666,-3.3333333333333335,AUTO
05:15:57,200.0,0.019331125542521477,-0.12189346303542455,-1.230510155359904,-0.32423608501752216,-0.23917389412721,-0.00852471465865771,-35.36322066666667,149.1650651,39024.666666666664,51.666666666666664,-90.0,13.666666666666666,-19.0,-21.0,-994.3333333333334,-322.3333333333333,-238.0,-8.333333333333334,AUTO
05:15:58,51288.0,0.03764756520589193,0.05516341844728837,-1.236846923828125,-0.32431526109576225,0.15373471255103746,-0.018809899998207886,-35.36321556666667,149.16504533333332,38806.666666666664,60.0,-146.0,10.666666666666666,-32.0,-33.666666666666664,-1008.3333333333334,-322.3333333333333,153.66666666666666,-18.333333333333332,AUTO
05:15:59,51288.0,0.04457360009352366,-0.04785322770476341,-1.2378671964009602,0.5979960163434347,-0.29519009093443555,-0.008925997962554296,-35.36321313333333,149.16503543333332,38705.666666666664,50.0,-99.33333333333333,15.666666666666666,-19.666666666666668,2.3333333333333335,-989.0,599.3333333333334,-294.3333333333333,-8.0,AUTO
05:16:01,51288.0,0.008324460691558974,-0.10426873837908109,-1.239319880803426,-0.34495809860527515,-0.2516215592622757,0.01393649789194266,-35.3632062,149.16501323333333,38426.333333333336,38.0,-79.66666666666667,12.333333333333334,-17.0,-35.0,-996.0,-343.3333333333333,-251.0,14.0,AUTO
05:16:02,171675.0,0.032881734892725945,0.03475274828573068,-1.2456683317820232,-0.39422494545578957,0.18070472280184427,-0.021150846499949694,-35.363201633333325,149.16499436666666,38220.0,51.0,-156.33333333333334,11.0,-33.0,-41.0,-1002.3333333333334,-392.3333333333333,181.0,-20.666666666666668,AUTO
05:16:03,171675.0,0.03832413504521052,-0.06380935323735078,-1.2466939290364583,0.43529315789540607,-0.2669787332415581,-0.02340070391073823,-35.36319916666667,149.16498339999998,38111.666666666664,44.666666666666664,-118.33333333333333,16.333333333333332,-27.0,5.0,-994.6666666666666,437.6666666666667,-266.0,-22.666666666666668,AUTO
05:16:05,171675.0,0.014043101303589841,-0.10753913099567096,-1.2474801540374756,-0.2067002753416697,-0.1777274531001846,0.028933348134160042,-35.36319176666667,149.16495726666665,37795.333333333336,37.0,-98.0,15.666666666666666,-21.0,-34.666666666666664,-996.6666666666666,-205.0,-177.33333333333334,29.0,AUTO
05:16:06,200.0,0.020819745026528835,0.022748146206140518,-1.2496581077575684,-0.10319273173809052,-0.13589508334795633,0.03998866801460584,-35.36318683333333,149.16494,37606.333333333336,32.0,-115.0,10.666666666666666,-22.333333333333332,-35.0,-994.3333333333334,-101.33333333333333,-135.33333333333334,40.333333333333336,AUTO
05:16:07,200.0,0.013400583217541376,-0.13285543521245322,-1.2515729268391926,0.20824517806371054,0.004840495685736339,-0.009612049286564192,-35.36318416666666,149.16493033333333,37486.333333333336,39.333333333333336,-142.33333333333334,18.666666666666668,-28.666666666666668,-8.0,-1001.3333333333334,210.66666666666666,5.333333333333333,-8.666666666666666,AUTO
05:16:09,200.0,0.012097353193288049,-0.0629754854987065,-1.25498100121816,-0.11975059906641643,0.2092285316127042,-0.024863689284150798,-35.36317543333333,149.1648983,37128.666666666664,36.666666666666664,-157.33333333333334,19.0,-31.0,-39.333333333333336,-1009.0,-118.0,209.0,-23.666666666666668,AUTO
05:16:10,110009.0,0.010439673516278466,-0.09743140016992886,-1.2555592060089111,0.08042856057484944,-0.10188525418440501,0.010067882481962442,-35.3631704,149.16487973333332,36918.666666666664,25.0,-135.66666666666666,19.333333333333332,-28.666666666666668,-25.0,-995.6666666666666,81.66666666666667,-101.33333333333333,11.0,AUTO
05:16:11,110009.0,0.022281835786998272,0.011971797794103622,-1.2569149335225422,0.3483382960160573,0.13830805321534476,0.011795838208248218,-35.36316753333333,149.16486746666666,36778.333333333336,28.666666666666668,-152.0,15.0,-33.0,-0.6666666666666666,-1010.6666666666666,350.3333333333333,138.33333333333334,12.333333333333334,AUTO
05:16:13,110009.0,0.02822342390815417,-0.03602872726817926,-1.2596176862716675,-0.0771484375,-0.2067073533932368,0.03277699959774812,-35.363161166666664,149.16483696666668,36442.666666666664,31.333333333333332,-127.66666666666667,16.666666666666668,-27.0,-32.333333333333336,-993.6666666666666,-76.0,-205.66666666666666,33.333333333333336,AUTO
05:16:14,162308.0,0.03320611951251825,-0.03007677321632703,-1.2600273688634236,0.2348686158657074,-0.17246140291293463,0.011549339319268862,-35.36315696666667,149.16481853333332,36234.0,37.333333333333336,-126.66666666666667,15.666666666666666,-27.0,-19.0,-995.0,235.66666666666666,-171.66666666666666,12.333333333333334,AUTO
05:16:15,162308.0,0.020911932612458866,-0.012757254182361066,-1.2606369256973267,-0.275548259417216,0.13471135993798575,-0.013269827701151371,-35.363154233333326,149.16480760000002,36106.333333333336,42.0,-135.0,15.0,-27.333333333333332,-23.333333333333332,-1008.3333333333334,-273.3333333333333,135.0,-12.0,AUTO
05:16:17,162308.0,0.028058934956789017,-0.019461185360948246,-1.262091875076294,0.29284807046254474,-0.08916748873889446,0.0010471342441936333,-35.36314686666666,149.1647796,35796.333333333336,35.666666666666664,-117.66666666666667,14.666666666666666,-23.666666666666668,-18.666666666666668,-993.6666666666666,293.6666666666667,-88.66666666666667,2.3333333333333335,AUTO
05:16:18,156375.0,0.025829874599973362,-0.005727759251991908,-1.263952374458313,0.61936154961586,-0.04279658446709315,-0.015761288814246655,-35.36314289999999,149.1647644666667,35621.333333333336,28.0,-94.33333333333333,12.333333333333334,-20.0,11.0,-1003.0,620.6666666666666,-42.333333333333336,-14.0,AUTO
05:16:19,156375.0,0.013385021438201269,0.010709223027030626,-1.2638558149337769,-0.23523829380671182,0.011377464979887009,0.0034386555198580027,-35.3631411,149.16475716666667,35535.333333333336,23.0,-77.66666666666667,9.0,-16.666666666666668,-17.0,-1002.6666666666666,-233.33333333333334,11.666666666666666,4.0,AUTO
05:16:21,156375.0,0.017479793168604374,0.025668275852998097,-1.2643245855967205,0.29835424323876697,-0.036940970768531166,-0.0005920296146844825,-35.3631391,149.16474739999998,35415.666666666664,5.666666666666667,-2.3333333333333335,0.6666666666666666,-1.0,7.0,-999.3333333333334,299.6666666666667,-36.0,0.6666666666666666,AUTO
05:16:22,73734.0,0.008351518850152692,-0.017585137548545998,-1.26510222752889,0.14687344431877136,-0.015585772693157196,-0.0020325281269227466,-35.36313913333333,149.16474773333331,35425.0,4.666666666666667,3.6666666666666665,-2.0,0.6666666666666666,1.6666666666666667,-1000.0,148.0,-15.333333333333334,-1.0,AUTO
05:16:23,73734.0,0.007315012936790784,-0.007353774970397353,-1.2656323512395222,0.12772811452547708,0.024448053290446598,0.0056815357723583775,-35.3631391,149.16474759999997,35434.0,6.0,-2.3333333333333335,-2.3333333333333335,-0.6666666666666666,14.666666666666666,-1013.0,129.66666666666666,24.666666666666668,6.333333333333333,RTL
05:16:25,73734.0,0.009264958401521048,-0.0017557726241648197,-1.2661077578862507,-0.030263282358646393,-0.0028350177065779767,0.004082678351551294,-35.3631391,149.164747,36062.0,5.0,2.6666666666666665,-72.33333333333333,-0.3333333333333333,0.3333333333333333,-1037.6666666666667,-28.333333333333332,-2.0,5.0,RTL
05:16:26,107721.0,0.012345789621273676,-0.0035054576583206654,-1.2661718527475994,0.007394123201568921,0.0008701240488638481,0.003188713414904972,-35.36313926666667,149.164747,37164.333333333336,5.333333333333333,4.0,-92.66666666666667,0.0,0.6666666666666666,-1001.6666666666666,9.333333333333334,1.0,4.333333333333333,RTL
05:16:27,107721.0,0.012869253754615784,-0.002442381577566266,-1.2665721972783406,-0.004027498575548331,0.00229597898821036,0.0026518480541805425,-35.3631394,149.1647469,37876.0,6.666666666666667,5.0,-88.33333333333333,0.0,-0.3333333333333333,-987.0,-2.0,2.0,3.6666666666666665,RTL
05:16:29,107721.0,0.006908416748046875,0.0012513554732625682,-1.2668106158574421,-0.009515617042779922,0.001533187731790046,0.002316886947179834,-35.36313903333333,149.16474673333335,39249.333333333336,5.333333333333333,6.333333333333333,-36.0,0.0,-0.6666666666666666,-966.6666666666666,-7.0,2.0,3.0,RTL
05:16:30,300000.0,0.005478759296238422,0.0018613062566146255,-1.2683059374491374,0.2752392590045929,0.0010856259808254738,0.0024588066541279354,-35.36313859999999,149.1647467,39464.666666666664,2.6666666666666665,7.0,2.3333333333333335,0.0,19.0,-985.6666666666666,277.6666666666667,1.6666666666666667,3.6666666666666665,RTL
05:16:31,300000.0,-0.0008361021949288746,0.0024940310201297202,-1.2685325940450032,-0.36453982690970105,0.003102092790262153,0.00011450199720760186,-35.3631384,149.1647467,39430.333333333336,0.0,7.0,5.666666666666667,0.6666666666666666,-23.333333333333332,-1000.3333333333334,-362.6666666666667,3.3333333333333335,1.0,RTL
05:16:33,300000.0,-0.003416777510816852,-0.0009860489032386492,-1.2684177954991658,0.010528073956569036,-0.0021008031520371637,0.0010419075454895694,-35.3631376,149.16474730000002,39673.0,-7.0,5.333333333333333,-43.333333333333336,1.3333333333333333,-2.0,-1032.0,12.333333333333334,-1.0,2.3333333333333335,RTL
05:16:34,45463.0,-0.002634480750809113,-0.004443518351763487,-1.2681562900543213,0.06500400012979905,-0.0023650063667446375,-0.00038716573423395556,-35.36313756666667,149.1647477,40325.0,-9.666666666666666,2.3333333333333335,-45.0,0.6666666666666666,3.6666666666666665,-971.0,67.33333333333333,-0.6666666666666666,0.6666666666666666,RTL
05:16:35,45463.0,-0.005775851119930546,-0.00536790086577336,-1.268822471300761,-0.24171920493245125,0.0036884994284870722,0.0015706244545678298,-35.36313766666667,149.1647478,40570.666666666664,-9.666666666666666,0.3333333333333333,-15.666666666666666,0.0,-6.666666666666667,-961.3333333333334,-239.66666666666666,3.6666666666666665,3.3333333333333335,RTL
05:16:37,45463.0,-0.007947268042092523,-0.0026995673154791198,-1.2695902983347576,-0.04604706664880117,-0.001522695509872089,-0.001408059421616296,-35.36313716666667,149.1647481,40586.666666666664,-12.666666666666666,-2.0,-2.0,0.0,-13.0,-1021.3333333333334,-45.0,-0.6666666666666666,0.6666666666666666,RTL
05:16:38,300000.0,-0.011139570424954096,-0.003756156424060464,-1.2691158850987752,-0.04182551056146622,-0.0027583440920958915,0.0014691291144117713,-35.36313673333333,149.16474833333334,40887.333333333336,-17.0,-3.0,-45.333333333333336,0.0,-1.0,-1031.3333333333333,-40.333333333333336,-1.6666666666666667,2.6666666666666665,RTL
05:16:39,300000.0,-0.0065836908761411905,-0.0054277290279666586,-1.268875281016032,0.019559067984422047,-0.002181535974765817,0.0006733944950004419,-35.3631369,149.1647484,41283.0,-18.0,-4.0,-53.0,-0.3333333333333333,3.0,-994.0,21.0,-1.3333333333333333,1.3333333333333333,RTL
05:16:41,300000.0,0.005383086546013753,-0.006133959939082463,-1.2701671520868938,-0.25934120019276935,0.00397700125661989,0.0032222645046810308,-35.363138166666666,149.164748,41786.0,-9.666666666666666,-2.6666666666666665,1.6666666666666667,-2.3333333333333335,-3.0,-995.0,-257.6666666666667,4.0,4.333333333333333,RTL
05:16:42,197487.0,0.005798626923933625,-0.004314046585932374,-1.2698734402656555,-0.20204604417085648,0.00043498934246599674,0.0017824784154072404,-35.363138750000005,149.16474764999998,41754.5,-1.5,0.0,-5.0,-0.5,3.5,-1039.0,-200.5,1.5,3.0,RTL
05:16:43,197487.0,0.011023130966350436,-0.004177939961664379,-1.270050287246704,0.0195620134472847,0.0022852009860798717,0.00043591062421910465,-35.363139,149.1647475,41908.0,1.0,0.5,-33.25,-0.75,0.75,-1038.75,20.5,3.0,1.75,RTL
05:16:45,197487.0,0.006384577602148056,-0.004758359709133704,-1.2698214848836262,0.06929225350419681,-0.0009523107049365839,0.0006590955890715122,-35.36313916666666,149.1647474,42890.333333333336,4.0,1.3333333333333333,-31.0,0.0,2.6666666666666665,-955.0,71.0,0.0,1.6666666666666667,RTL
05:16:46,207837.0,-0.00021787038228164116,-0.0029903467123707137,-1.270583987236023,-0.17113074163595834,0.0015781961070994537,0.0031876874854788184,-35.36313896666667,149.1647474,43029.0,4.333333333333333,1.3333333333333333,2.6666666666666665,0.0,7.0,-985.0,-168.66666666666666,2.0,4.666666666666667,RTL
05:16:47,207837.0,0.0061919141056326525,-0.0028994711271176734,-1.270653208096822,0.13769692679246268,-0.0023308131785597652,0.0011101440565350156,-35.3631387,149.1647475,43001.0,2.3333333333333335,1.0,2.3333333333333335,0.6666666666666666,-4.333333333333333,-1013.0,138.33333333333334,-1.3333333333333333,2.0,RTL
05:16:49,207837.0,0.004850609606364742,-0.004791504819877446,-1.2703800797462463,0.09333487134426832,-5.2547460654750466e-05,0.0005026914877817035,-35.363138575,149.1647477,43519.0,0.0,0.25,-52.5,0.25,4.0,-1009.0,94.5,0.75,1.75,RTL
05:16:50,200.0,0.005780556821264327,-0.004665709566324949,-1.2707287669181824,0.28444684762507677,-0.0035727429785765707,-0.0012351858895272017,-35.3631385,149.1647478,44110.5,0.0,0.0,-26.5,0.0,16.0,-958.0,286.5,-2.0,0.5,RTL
05:16:51,200.0,0.0013186929281800985,-0.005040875636041164,-1.2708836793899536,-0.09573322720825672,0.0013880789338145405,0.0015127581427805126,-35.3631384,149.1647478,44208.0,-1.75,0.0,-3.0,-0.25,-2.0,-978.25,-94.5,2.0,3.0,RTL
05:16:54,200.0,0.018788122572004795,-0.005649008555337787,-1.2703573107719421,-0.03606375306844711,-4.757143324241042e-05,0.0007181109394878149,-35.3631396,149.16474735,44773.0,5.5,2.5,-56.0,-1.5,4.0,-1006.0,-34.5,1.0,2.0,RTL
05:16:55,300000.0,0.02316042874008417,-0.005293055321089923,-1.2704452872276306,0.01055966503918171,0.0004009477561339736,7.708629709668458e-05,-35.363140125,149.164747075,45171.75,10.75,4.0,-43.0,-0.5,-1.75,-966.0,12.25,1.25,1.75,RTL
05:16:56,300000.0,0.023195466957986355,-0.0022892242996022105,-1.2711879014968872,0.4694484770298004,0.00584202422760427,0.0013873475836589932,-35.36314025,149.1647469,45449.0,16.0,5.0,-0.5,0.0,14.0,-983.0,471.0,6.0,3.5,RTL
05:16:58,300000.0,0.0038158324896357954,-0.00029137000819901004,-1.2712180018424988,0.13082358986139297,-0.0012605413794517517,0.0024628027458675206,-35.36313925,149.16474695,45470.0,10.5,6.0,-20.5,0.5,9.5,-1047.0,133.5,-0.5,4.0,RTL
05:16:59,39997.0,0.003572385641746223,-0.0018926432239823043,-1.2707171142101288,0.0187605619430542,-0.0016549439314985648,0.000742393487598747,-35.3631389,149.16474719999997,45744.0,6.25,5.25,-46.25,0.75,0.5,-1029.0,20.75,-0.5,2.25,RTL
05:17:00,39997.0,0.0064195062732324,-0.004854519153013825,-1.2706378698349,0.018327340483665466,-0.0005232146941125393,0.0006494378321804106,-35.3631387,149.1647475,46397.5,1.5,2.5,-42.0,0.5,-5.5,-962.5,20.5,0.5,2.0,RTL
05:17:02,39997.0,0.01698559569194913,-0.004522228147834539,-1.2714358568191528,0.6105908751487732,-0.0003733946359716356,0.0017108176834881306,-35.36313905,149.16474755000002,46622.0,4.0,2.0,4.0,-0.5,32.0,-1010.0,612.5,1.0,3.5,RTL
05:17:03,300000.0,0.011609759530983865,-0.0048673804849386215,-1.271257996559143,-0.14699573814868927,0.0008193860121537,0.0022188908769749105,-35.363139275,149.164747425,46619.75,5.5,2.5,-5.75,-1.0,-3.75,-1025.75,-144.5,1.5,3.75,RTL
05:17:04,300000.0,0.021007204428315163,-0.00465347059071064,-1.271019697189331,0.28423266112804413,0.001390589401125908,0.0026959500974044204,-35.3631397,149.1647473,46962.5,9.0,3.5,-49.0,0.0,9.0,-1027.0,286.0,2.5,4.5,RTL
05:17:06,300000.0,0.012730549788102508,-0.002855036989785731,-1.2708357572555542,-0.16073988378047943,0.003508420893922448,-0.0020443187095224857,-35.36313975,149.1647471,47813.5,12.0,4.0,-9.5,0.5,-21.0,-963.5,-159.0,4.5,0.0,RTL
05:17:07,200.0,0.009274012525565922,-0.0015307633293559775,-1.271191954612732,0.10010822862386703,0.0017812926671467721,-0.0005542619619518518,-35.3631394,149.16474717499997,47829.5,10.75,3.75,2.25,1.0,2.25,-990.0,102.5,3.0,1.25,RTL
05:17:08,200.0,0.006001086439937353,-0.002221996779553592,-1.271427869796753,0.4626714587211609,-0.0021014108206145465,0.0022299723350442946,-35.363138750000005,149.16474735,47810.0,5.0,3.5,-7.5,0.5,18.5,-1038.0,465.0,-0.5,3.5,RTL
05:17:10,200.0,0.007406687363982201,-0.005498525686562061,-1.27078515291214,0.04650789499282837,0.0011018270161002874,0.0005597767885774374,-35.36313855,149.1647477,48625.0,0.0,1.0,-51.5,0.0,-3.0,-982.5,49.0,2.5,2.0,RTL
05:17:11,300000.0,0.006995053758146241,-0.005877407384105027,-1.2713101506233215,-0.020547639578580856,-9.873474482446909e-08,-0.001533509319415316,-35.36313865,149.1647477,48923.75,0.0,0.5,-25.25,-0.5,-3.75,-961.0,-17.75,1.0,0.5,RTL
05:17:12,300000.0,0.016056648921221495,-0.004333697492256761,-1.2715150713920593,0.37354680337011814,0.00245030561927706,-0.0022713453508913517,-35.3631389,149.1647476,49025.0,2.0,0.0,3.0,-0.5,7.5,-993.0,375.0,3.5,-0.5,RTL
05:17:14,300000.0,0.011953914538025856,-0.002897501108236611,-1.271131455898285,0.27182823419570923,-0.002624037442728877,0.0013311647926457226,-35.3631391,149.1647474,49213.5,5.0,3.0,-40.0,0.0,12.0,-1034.0,274.0,-0.5,3.0,RTL
05:17:15,200.0,0.008262076647952199,-0.00360546464798972,-1.2707300782203674,-0.08147040754556656,0.0008621076704002917,0.0005417848296929151,-35.3631391,149.164747325,49597.25,4.25,3.0,-54.75,0.0,-2.5,-1005.75,-78.75,2.25,2.0,RTL
05:17:16,200.0,0.008550625760108232,-0.004192741820588708,-1.271201491355896,-0.3446931391954422,0.0023018050706014037,-0.00017393880989402533,-35.3631392,149.1647473,50177.0,5.0,3.0,-23.5,0.0,-14.0,-955.0,-341.5,3.0,1.5,RTL
05:17:18,200.0,0.00977915059775114,-0.001964267808943987,-1.2710404992103577,-0.06800007820129395,-0.0008326945826411247,-0.002649228204973042,-35.363139,149.1647473,50228.5,3.5,3.0,0.5,0.5,-15.0,-1018.0,-65.5,0.5,-0.5,RTL
05:17:19,277377.0,0.007734101032838225,-0.003202305524609983,-1.2711363732814789,-0.02928163856267929,3.349960024934262e-05,7.305722101591527e-05,-35.363139,149.1647473,50318.75,3.75,3.0,-23.5,0.25,-0.5,-1030.75,-26.5,1.5,1.5,RTL
05:17:20,277377.0,0.00907010561786592,-0.004548922413960099,-1.270734190940857,-0.10845540091395378,-0.0005739923217333853,1.4797900803387165e-05,-35.363139,149.1647474,50872.0,4.0,3.0,-57.5,0.0,-7.5,-1000.0,-105.5,0.5,1.5,RTL
05:17:22,277377.0,0.004597721504978836,-0.004450794542208314,-1.2714160084724426,-0.354233805090189,0.0037925441283732653,-0.0005585759645327926,-35.3631392,149.1647474,51538.5,6.0,2.0,0.0,-1.0,-8.0,-989.5,-350.5,5.0,1.0,RTL
05:17:23,97389.0,0.009376227186294273,-0.0031320806592702866,-1.271690994501114,0.07040508836507797,0.0032942595425993204,-0.0019190569582860917,-35.363139149999995,149.1647474,51517.25,5.75,2.0,3.5,0.0,-4.0,-999.0,73.75,4.25,0.25,RTL
05:17:24,97389.0,0.008783021243289113,-0.00269254541490227,-1.2713220119476318,0.08359688520431519,-0.0008105470915324986,-0.0013014471624046564,-35.3631389,149.1647474,51578.0,4.0,2.0,-24.0,1.0,-4.5,-1043.0,86.5,0.5,1.0,RTL
05:17:26,97389.0,-0.0035067274002358317,-0.0038442201912403107,-1.2710827589035034,-0.3403303697705269,0.0022509690024890006,-0.0003152363933622837,-35.363138449999994,149.1647477,52534.0,0.0,1.0,-40.0,0.0,-17.0,-960.0,-337.0,3.0,1.5,RTL
05:17:27,102841.0,0.0012653691228479147,-0.0037391894147731364,-1.271445780992508,0.0035432958975434303,0.0018889798084273934,-0.0008653743425384164,-35.36313822500001,149.1647477,52721.0,-2.0,0.0,-11.75,-0.25,-4.5,-968.25,7.0,3.5,1.5,RTL
05:17:28,102841.0,0.011132456827908754,-0.002647386398166418,-1.2714447379112244,0.5596147626638412,-0.0015486067859455943,0.0014277794398367405,-35.3631381,149.1647477,52733.5,-3.0,0.0,3.5,0.0,17.0,-1006.5,562.5,-0.5,3.5,RTL
05:17:30,102841.0,-0.0008925852889660746,-0.0032602567225694656,-1.2708061933517456,0.21351630240678787,-0.004214758111629635,0.0015182537026703358,-35.3631376,149.1647479,53118.0,-8.5,0.0,-51.5,0.5,6.0,-1024.0,216.5,-3.0,3.5,RTL
05:17:31,203853.0,-0.00453060120344162,-0.004274850303772837,-1.2708606719970703,-0.09379879757761955,0.0018181044433731586,0.00010519230272620916,-35.363137525,149.164747975,53534.5,-9.75,-0.75,-52.25,0.25,-5.5,-984.0,-90.75,2.75,2.25,RTL
05:17:32,203853.0,-0.0019563641399145126,-0.004505292745307088,-1.2715449333190918,-0.14146790653467178,-0.0007908453699201345,-0.004202953539788723,-35.3631375,149.164748,53972.5,-11.0,-2.0,-9.0,-0.5,-22.5,-956.5,-139.5,1.0,-2.0,RTL
05:17:34,203853.0,0.005869776010513306,-0.0035382136702537537,-1.2713547945022583,0.2964842226356268,0.0006123085622675717,0.0015309887239709496,-35.3631381,149.1647478,53978.0,-5.5,0.0,-10.0,0.0,23.5,-1028.0,299.5,2.0,3.5,RTL
05:17:35,200.0,0.005935452696576249,-0.004523304058238864,-1.2714449763298035,-0.029842739924788475,-0.0021839642722625285,0.0007917365583125502,-35.36313835,149.1647477,54171.5,-4.25,0.25,-37.75,0.0,0.0,-1036.5,-27.25,-0.75,2.5,RTL
05:17:36,200.0,0.013989673461765051,-0.006575497332960367,-1.2707324624061584,0.1725826859474182,-0.0016063372022472322,0.0015078434953466058,-35.36313895,149.1647477,54828.0,0.0,1.0,-54.5,-0.5,5.5,-982.0,175.0,0.5,3.5,RTL
05:17:38,200.0,0.01837878581136465,-0.003512052586302161,-1.2710970640182495,0.36157888919115067,0.0015268115093931556,-0.0009913492249324918,-35.3631395,149.1647474,55278.0,7.5,2.0,3.0,0.0,7.0,-993.0,363.5,3.0,1.5,RTL
05:17:39,203096.0,0.007945514080347493,-0.0028064600192010403,-1.2716902494430542,-0.051192186772823334,0.002044116728939116,0.0009376687230542302,-35.3631394,149.1647473,55254.25,7.5,2.75,1.5,-0.5,1.5,-1013.0,-48.0,3.5,3.25,RTL
05:17:40,203096.0,0.013473980594426394,-0.0027016522362828255,-1.2714014053344727,0.25346172600984573,-0.004323391010984778,0.0018993614939972758,-35.3631395,149.1647472,55435.0,7.5,4.0,-36.5,0.0,16.0,-1036.0,256.5,-2.5,4.0,RTL
05:17:42,203096.0,0.011014878749847412,-0.0036372279282659292,-1.2712743282318115,0.026632562279701233,-0.0013650805922225118,-0.0026378821348771453,-35.36313925,149.1647473,56413.0,7.5,3.0,-25.5,1.0,-15.0,-950.5,29.0,0.5,0.0,RTL
05:17:43,300000.0,0.0033581393654458225,-0.002476685040164739,-1.2714823484420776,0.11784037295728922,0.0016591559397056699,0.0012394021614454687,-35.3631389,149.164747375,56508.5,5.5,2.5,-2.5,1.25,6.5,-981.0,121.0,3.0,3.25,RTL
05:17:44,300000.0,0.0039555470502818935,-0.002331164199858904,-1.2714211344718933,0.5095957368612289,-0.002577231964096427,0.0010519062634557486,-35.3631383,149.16474755000002,56482.0,0.5,1.5,2.5,1.0,32.5,-1015.0,513.0,-0.5,3.0,RTL
05:17:46,300000.0,0.006979153025895357,-0.004937692079693079,-1.2708224058151245,0.19068265706300735,-0.0034150013234466314,0.00028905674116685987,-35.363138250000006,149.1647477,57038.0,-4.0,0.5,-54.5,0.0,9.5,-1006.0,194.0,-1.0,2.5,RTL
05:17:47,281693.0,0.007668121950700879,-0.005632131826132536,-1.2711085379123688,-0.045128846541047096,-0.0015444762539118528,-0.0008679887396283448,-35.363138525,149.1647477,57426.0,-2.0,0.0,-42.0,0.0,-3.0,-968.75,-41.75,0.25,1.25,RTL
05:17:48,281693.0,0.01450769742950797,-0.004366788547486067,-1.2712411284446716,0.39725200086832047,0.003191026335116476,-0.0006410207133740187,-35.3631388,149.16474764999998,57701.0,0.5,0.0,-1.0,-1.0,11.5,-986.0,399.5,4.5,2.0,RTL
05:17:50,281693.0,0.00270979932975024,-0.0033964647445827723,-1.2710628509521484,-0.1258428916335106,-0.0030583798070438206,0.0025212098844349384,-35.3631391,149.1647474,57735.5,4.0,2.0,-22.5,0.0,4.5,-1041.5,-122.0,-1.0,4.5,RTL
05:17:51,200.0,0.00835683653713204,-0.003440335742197931,-1.2710679769515991,0.05455433949828148,0.00023884366964921355,0.0018129493400920182,-35.363139,149.1647474,58020.0,3.5,2.0,-47.25,-0.25,1.5,-1023.25,58.5,2.25,4.0,RTL
05:17:52,200.0,0.009298034477978945,-0.004007041221484542,-1.2709136009216309,0.2858673371374607,-0.002960170153528452,6.83278776705265e-05,-35.363139,149.1647474,58669.5,4.0,2.0,-40.0,0.0,18.0,-962.5,289.0,-1.0,2.5,RTL
05:17:54,200.0,-0.0030489505734294653,-0.0036428424064069986,-1.2713080048561096,-0.5181500315666199,0.002874075318686664,0.0017364087980240583,-35.3631388,149.1647475,58870.5,0.5,1.0,4.5,0.0,-15.0,-994.5,-514.0,4.0,4.0,RTL
05:17:55,40367.0,0.008481419907184318,-0.0035362584749236703,-1.2711179852485657,0.18237750232219696,0.0013529248826671392,0.0004921064246445894,-35.363138775,149.1647475,58877.75,0.75,1.0,-8.5,0.0,4.75,-1032.25,185.75,3.25,2.75,RTL
05:17:56,40367.0,-0.00019381032325327396,-0.0024716862244531512,-1.2713055610656738,-0.2253713458776474,0.001037784037180245,0.0014109592884778976,-35.3631385,149.1647476,59257.0,0.0,1.0,-50.5,1.0,-11.0,-1019.5,-221.5,2.5,4.0,RTL
05:17:58,40367.0,-0.012798627838492393,-0.002838883548974991,-1.271293580532074,-0.39337268471717834,0.00023829814745113254,0.0018551383400335908,-35.3631375,149.1647479,60035.0,-8.0,0.0,-5.5,0.0,-8.5,-968.5,-389.5,1.5,4.0,RTL
05:17:59,200.0,-0.00451164526748471,-0.003342080395668745,-1.271491378545761,0.0417015440762043,-0.002752984524704516,-0.0010382981272414327,-35.36313735,149.164747975,60035.75,-9.75,-1.0,3.25,-0.5,-1.25,-991.0,44.75,-0.25,2.0,RTL
05:18:00,200.0,0.009176328545436263,-0.006664476124569774,-1.2714616060256958,-0.10747544467449188,-0.0021146616199985147,0.0006895255064591765,-35.363138,149.16474795,60037.5,-10.5,-0.5,-14.0,-2.0,-10.5,-1034.0,-105.0,0.0,2.5,RTL
05:18:02,200.0,0.01588847627863288,-0.0054823525715619326,-1.2709373831748962,-0.10941675305366516,0.002242130460217595,0.0019274915102869272,-35.3631398,149.1647474,60920.0,6.5,1.5,-50.0,0.0,-1.5,-974.0,-106.0,4.0,4.5,RTL
05:18:03,66771.0,0.012590467231348157,-0.0043782819993793964,-1.2712693512439728,-0.10062753036618233,0.00225860474165529,-7.00087402947247e-05,-35.363139825,149.164747275,61192.25,9.25,2.25,-20.75,0.0,-2.25,-956.75,-97.0,4.0,2.5,RTL
05:18:04,66771.0,0.006531698498292826,-0.002354322583414614,-1.2713298797607422,-0.5422348976135254,0.002435590955428779,-0.0007907963590696454,-35.363139649999994,149.1647472,61265.0,10.0,3.0,4.5,0.0,-31.0,-991.0,-539.0,4.0,2.0,RTL
05:18:06,66771.0,0.012124777771532536,-0.004049569019116461,-1.2710148692131042,-0.06302355974912643,-0.00016945786774158478,0.0007868418470025063,-35.3631395,149.1647473,61512.5,7.5,4.0,-44.0,0.0,-8.0,-1032.0,-59.5,1.5,3.0,RTL
05:18:07,300000.0,0.010869812918826938,-0.004476205096580088,-1.2706187665462494,-0.05248751770704985,-0.0024938110436778516,0.00011380243813619018,-35.3631395,149.1647473,61909.0,8.25,3.5,-53.0,1.0,-1.0,-994.75,-48.25,-0.25,2.5,RTL
05:18:08,300000.0,0.0046635442195110954,-0.004053348442539573,-1.271437406539917,-0.42385564744472504,0.0010530760046094656,0.0004947190172970295,-35.36313935,149.1647474,62420.5,7.5,2.5,-15.0,0.0,-28.0,-959.0,-420.0,2.5,3.0,RTL
05:18:10,300000.0,0.005675444423104636,-0.0036642407067120075,-1.2711365222930908,0.37876540422439575,-0.0023642376763746142,0.002698707743547857,-35.3631388,149.1647475,62438.5,3.5,2.0,-3.0,0.0,24.0,-1025.5,382.5,-0.5,5.0,RTL
05:18:11,238982.0,0.006361172330798581,-0.004287094343453646,-1.2712405622005463,-0.019809178076684475,-0.001843223173636943,-0.0009355821821372956,-35.3631388,149.1647476,62572.0,1.25,1.0,-29.25,0.0,-2.75,-1037.25,-15.75,0.5,1.75,RTL
05:18:12,238982.0,0.009355304762721062,-0.004324085311964154,-1.27070814371109,0.11002799868583679,0.0019816732965409756,0.0010634975042194128,-35.3631389,149.1647476,63165.0,2.5,1.0,-54.0,0.0,2.0,-992.0,114.0,3.5,3.0,RTL
05:18:14,238982.0,0.0018721675733104348,-0.001863214303739369,-1.2712765336036682,0.10892069339752197,0.00011651008389890194,-0.0032029584981501102,-35.36313815,149.1647477,63664.0,-1.0,0.0,2.5,1.0,-10.0,-996.0,112.0,2.5,-0.5,RTL
05:18:15,200.0,-0.0027434657677076757,-0.002056962577626109,-1.271465539932251,0.11654616892337799,-0.0014280587492976338,0.00159547314979136,-35.363137925,149.1647477,63641.25,-3.75,0.0,2.25,0.0,7.5,-1012.25,120.25,0.75,4.25,RTL
05:18:16,200.0,0.007692486047744751,-0.003921805182471871,-1.2710905075073242,0.29690538346767426,-0.0033012216445058584,0.0012679384090006351,-35.36313815,149.1647477,63794.0,-5.0,1.0,-33.5,0.0,14.0,-1040.5,300.5,-0.5,4.0,RTL
05:18:18,200.0,0.012046728050336242,-0.005951097700744867,-1.2712278962135315,-0.3840514197945595,-0.00038922345265746117,-0.0009966458892449737,-35.3631393,149.1647475,64738.5,2.0,1.5,-26.5,0.0,-18.0,-955.5,-380.0,1.5,1.5,RTL
05:18:19,243803.0,0.02002942841500044,-0.0043522854102775455,-1.2712482213974,0.20274260640144348,0.001727958966512233,-0.0009152045240625739,-35.363139575000005,149.164747275,64838.0,6.0,2.25,-3.25,-0.25,4.0,-979.0,206.25,3.5,2.0,RTL
05:18:20,243803.0,0.0181519016623497,-0.002082830760627985,-1.2712079882621765,0.40537890791893005,-0.0015538072912022471,-0.0010552514577284455,-35.3631395,149.1647472,64816.0,9.5,4.0,2.5,0.0,6.0,-1004.5,408.5,1.0,2.0,RTL
05:18:22,243803.0,0.011699618306010962,-0.003857670584693551,-1.2707093954086304,0.08017312735319138,-0.0002555830869823694,0.0007024896331131458,-35.3631394,149.1647473,65379.0,7.5,4.0,-55.5,0.0,-3.0,-1007.5,84.0,2.0,3.5,RTL
05:18:23,102149.0,0.006457165960455313,-0.004533423227258027,-1.270951896905899,-0.07296742498874664,-0.0011439754744060338,0.0004917597980238497,-35.363139275,149.164747375,65777.75,6.5,3.25,-43.5,0.25,-1.75,-969.75,-68.5,1.25,3.0,RTL
05:18:24,102149.0,0.003339605638757348,-0.003655244829133153,-1.2713011503219604,-0.4386742413043976,0.0044113085605204105,-0.002980382298119366,-35.36313905,149.1647474,66066.5,4.0,2.0,-1.5,-0.5,-26.0,-980.0,-434.5,6.5,0.0,RTL
05:18:26,102149.0,0.0077116916654631495,-0.0031984371598809958,-1.2712991833686829,0.3155469372868538,-0.0008009823504835367,0.0006736512295901775,-35.3631388,149.1647474,66106.0,1.5,3.0,-24.0,0.0,20.5,-1043.5,320.5,1.5,3.5,RTL
05:18:27,130308.0,0.012246105703525245,-0.0050574797205626965,-1.2709868550300598,0.000594044104218483,-0.001980607397854328,0.0012857835390605032,-35.36313905,149.1647474,66401.75,2.25,3.0,-47.25,-0.5,0.25,-1021.25,5.0,0.25,4.0,RTL
05:18:28,130308.0,0.020304140634834766,-0.006536685861647129,-1.2710351347923279,0.04118943214416504,-0.000587472110055387,-0.0016130910953506827,-35.3631397,149.16474735,67032.0,7.5,3.0,-36.0,0.0,-7.0,-956.5,45.5,1.5,1.0,RTL
05:18:30,130308.0,0.009516574908047915,-0.0016110033611766994,-1.2711084485054016,0.38968824967741966,-0.002023537061177194,0.0020641727605834603,-35.36313935,149.1647473,67191.5,10.5,3.0,4.0,0.5,25.0,-1002.0,395.0,0.5,5.0,RTL
05:18:31,300000.0,0.007470336800906807,-0.0023266916105058044,-1.2711416184902191,0.011957503855228424,-0.0017404548998456448,0.00046348414616659284,-35.363139149999995,149.1647473,67213.25,7.0,3.5,-11.5,-0.25,-3.5,-1030.75,16.25,0.5,3.25,RTL
05:18:32,300000.0,0.011736724991351366,-0.004982896847650409,-1.2709370255470276,-0.033685192465782166,-0.0038344573695212603,0.0024618746247142553,-35.3631394,149.1647473,67630.0,6.5,4.0,-51.0,0.0,7.5,-1013.5,-28.0,-1.0,5.5,RTL
05:18:34,300000.0,0.005690557736670598,-0.003131669363938272,-1.2713425755500793,0.07347255945205688,0.005706568015739322,0.001126580173149705,-35.36313935,149.16474735,68336.0,9.0,2.0,-1.5,0.0,11.5,-979.0,79.5,8.0,3.5,RTL
05:18:35,290827.0,0.0012837088434025645,-0.0012878679117420688,-1.2711839377880096,-0.11130302771925926,0.0011963743017986417,0.0023791631683707237,-35.363138875,149.16474745,68324.25,6.0,1.75,3.0,1.0,-11.0,-1003.5,-106.5,3.5,5.5,RTL
05:18:36,290827.0,-0.010058663785457611,-0.0005828079592902213,-1.2711911797523499,-0.1326812207698822,0.00022934586741030216,-0.0026137175736948848,-35.36313775,149.16474785,68357.0,-2.5,0.0,-18.5,2.0,-13.5,-1047.5,-128.0,2.5,0.5,RTL
05:18:38,290827.0,-0.011890899389982224,-0.004601711872965097,-1.2705235481262207,-0.04718291759490967,-0.001275713904760778,0.001145821763202548,-35.363137,149.16474835000002,69280.5,-14.0,-2.5,-44.5,0.5,3.0,-965.5,-42.0,1.5,4.0,RTL
05:18:39,200.0,-0.007201591419288889,-0.005046589067205787,-1.2708795070648193,0.005514688789844513,0.000815655046608299,0.00016411097021773458,-35.363137,149.1647484,69502.25,-15.25,-3.75,-14.5,-0.25,1.75,-963.75,10.25,2.75,3.0,RTL
05:18:40,200.0,-0.01118535129353404,-0.0040264076087623835,-1.2712579369544983,-0.2439308762550354,7.200462277978659e-06,0.0005021551623940468,-35.36313715,149.1647483,69534.5,-15.5,-3.5,4.0,-0.5,5.5,-1000.5,-238.5,2.0,3.5,RTL
05:18:42,200.0,0.003805109765380621,-0.004454768495634198,-1.2709437012672424,-0.17257561534643173,0.0004896830068901181,-4.5276712626218796e-05,-35.36313815,149.1647479,69864.5,-8.0,-1.0,-50.0,0.0,-7.5,-1027.0,-167.5,3.0,3.0,RTL
05:18:43,200.0,0.006005613708111923,-0.004646964371204376,-1.2705365121364594,0.07605106011033058,-0.00048393436009064317,0.001337419613264501,-35.36313835,149.164747825,70288.0,-5.0,0.0,-55.5,-0.25,5.0,-992.0,80.75,1.5,4.0,RTL
05:18:44,200.0,0.004601795779308304,-0.003745035035535693,-1.2713161706924438,0.3360464684665203,-8.701777551323175e-05,0.0006293632322922349,-35.3631384,149.1647477,70794.5,-2.0,0.0,-14.5,0.0,21.5,-958.0,340.0,2.0,3.5,RTL
05:18:46,200.0,-0.009699502028524876,-0.001934157800860703,-1.271276593208313,-0.40500909835100174,0.0017000111984089017,0.002945978078059852,-35.363138,149.1647477,70799.0,-4.0,0.0,-4.5,0.0,-10.5,-1033.0,-400.0,4.0,6.0,RTL
05:18:47,200.0,-0.004786816309206188,-0.0015235093596857041,-1.2710585296154022,0.0604487806558609,0.0001449486007913947,0.0004561722744256258,-35.36313775000001,149.16474775,70949.5,-6.5,0.0,-32.5,0.0,1.5,-1039.0,64.25,2.25,3.5,RTL
05:18:48,200.0,-0.0058590605622157454,-0.004295940976589918,-1.2707399129867554,-0.03972810506820679,-0.0031785794999450445,0.0009071844397112727,-35.363137550000005,149.16474795,71563.5,-10.5,0.0,-54.5,0.0,3.0,-985.0,-35.5,-0.5,4.0,RTL
05:18:50,200.0,-0.00538449187297374,-0.004595613339915872,-1.2717429995536804,-0.16708678752183914,0.003252117894589901,0.0007096970221027732,-35.36313785,149.164748,72045.5,-8.5,-1.0,2.5,-1.0,10.5,-989.0,-162.0,5.0,3.5,RTL
05:18:51,156220.0,0.004131099005462602,-0.0038012542063370347,-1.2711820900440216,0.02471420168876648,0.0007852677663322538,4.770373925566673e-05,-35.36313805,149.164747875,72020.25,-7.5,-1.0,1.25,-0.25,0.5,-1012.25,28.25,3.0,3.25,RTL
05:18:52,156220.0,-0.004462520941160619,-0.002613697317428887,-1.2710131406784058,-0.24069146811962128,0.00044697546400129795,0.0017230261582881212,-35.3631381,149.1647478,72195.5,-5.0,0.0,-36.0,0.0,-8.5,-1035.5,-236.5,3.0,4.5,RTL
05:18:54,156220.0,-0.005889944615773857,-0.00381612335331738,-1.2708477973937988,0.37305185198783875,-0.0014171437360346317,-0.0002958170371130109,-35.3631373,149.16474814999998,73137.5,-11.0,-2.0,-24.5,0.0,10.5,-957.5,376.5,0.5,3.0,RTL
05:18:55,167801.0,-0.007590643595904112,-0.004303647787310183,-1.2710207402706146,0.030715256929397583,-0.00037572713335976005,-6.519613089039922e-05,-35.363137224999996,149.1647482,73223.75,-13.25,-2.75,-2.0,-0.5,4.5,-984.25,34.25,2.25,3.25,RTL
05:18:56,167801.0,-0.005960803606285481,-0.00405425054486841,-1.2706462144851685,0.08342808485031128,0.004499790840782225,-0.00032989203464239836,-35.3631374,149.16474814999998,73199.0,-12.5,-2.5,1.0,-1.5,18.0,-1014.5,87.5,7.0,2.5,RTL
05:18:58,167801.0,0.007622001692652702,-0.005483658518642187,-1.270406424999237,0.10646721348166466,0.0003832153743132949,0.0011475301580503583,-35.3631382,149.16474785,73815.5,-8.0,0.0,-57.5,-0.5,8.0,-1004.5,109.5,2.5,4.5,RTL
05:18:59,171600.0,0.009454516810365021,-0.005645080236718059,-1.270579755306244,-0.12390486523509026,6.4079067669808865e-06,0.0007097116322256625,-35.363138649999996,149.164747675,74218.25,-4.75,0.0,-43.25,-1.25,-5.5,-965.75,-120.75,2.5,4.0,RTL
05:19:00,171600.0,0.019153958186507225,-0.004708287306129932,-1.2712336778640747,-0.20722543820738792,0.0034619945799931884,-0.0025088093243539333,-35.363139450000006,149.16474735,74501.0,2.0,1.5,0.0,-1.0,-28.0,-970.5,-205.0,6.0,1.0,RTL
05:19:02,171600.0,0.012765159364789724,-0.0018827598541975021,-1.2709773182868958,0.21764741465449333,0.00029407860711216927,0.0007614940404891968,-35.3631397,149.164747,74531.5,11.0,5.0,-22.0,0.0,15.5,-1046.0,221.0,2.5,4.0,RTL
05:19:03,140059.0,0.00834043713985011,-0.0015883096493780613,-1.2708342671394348,-0.012797840870916843,1.3386481441557407e-05,0.0004010674310848117,-35.36313945,149.16474705000002,74817.25,9.5,5.0,-47.25,0.75,-5.25,-1026.5,-9.75,2.75,3.75,RTL
05:19:04,140059.0,0.0067176311276853085,-0.004170650616288185,-1.2706552743911743,-0.06212490797042847,-0.0014548024628311396,0.00047099124640226364,-35.363139149999995,149.16474735,75490.0,5.5,4.0,-42.0,0.0,-10.0,-962.0,-59.0,1.0,4.0,RTL
05:19:06,140059.0,0.01837989268824458,-0.0045343253295868635,-1.2710854411125183,0.569502979516983,-0.0013079997734166682,-0.0002469046739861369,-35.363139149999995,149.1647474,75718.5,4.0,2.0,4.0,0.0,23.5,-1004.5,573.0,1.5,3.0,RTL
05:19:07,128312.0,0.010604794602841139,-0.004058469377923757,-1.2711766362190247,-0.06022343039512634,0.0011473862105049193,0.0009237710619345307,-35.3631392,149.1647474,75718.0,5.75,2.5,-7.0,0.25,-2.25,-1030.25,-56.25,3.5,4.0,RTL
05:19:08,128312.0,0.007149462588131428,-0.0027011336060240865,-1.270624816417694,0.06104515492916107,-0.0006678333156742156,0.0012543596094474196,-35.3631391,149.16474745,76073.0,5.0,2.0,-50.5,0.5,4.0,-1026.5,65.0,2.0,4.5,RTL
05:19:10,128312.0,0.00606908742338419,-0.004462378332391381,-1.270771563053131,-0.0103997141122818,-0.0006717945216223598,-0.000728095299564302,-35.3631385,149.1647477,76953.0,0.0,0.0,-10.5,0.0,-12.0,-958.0,-7.5,2.0,2.5,RTL
05:19:11,300000.0,0.006818170135375112,-0.004613486118614674,-1.2711763083934784,0.023364532738924026,-2.9896153137087822e-05,-0.0008425751584582031,-35.36313855,149.1647477,76972.5,0.0,0.0,2.25,-0.5,2.75,-991.0,27.25,2.75,2.75,RTL
05:19:12,300000.0,0.017292623408138752,-0.005283932667225599,-1.2707855701446533,0.5198129117488861,-0.0036223004572093487,0.001060910988599062,-35.36313895,149.1647476,76951.5,1.5,1.0,-7.0,0.0,23.5,-1039.0,524.0,-0.5,4.5,RTL
05:19:14,300000.0,0.018859357573091984,-0.006209206767380238,-1.2703620791435242,0.09456776082515717,0.002257320564240217,-0.0007830342510715127,-35.36313975,149.1647474,77754.0,8.5,3.0,-52.5,-0.5,0.0,-981.0,98.5,4.5,2.5,RTL
05:19:15,48836.0,0.018733816454187036,-0.005609584855847061,-1.2710084021091461,0.011209756135940552,0.0010802531614899635,-0.0009458275162614882,-35.36314002500001,149.1647473,78060.75,11.25,3.0,-26.5,-0.25,1.25,-957.75,15.25,3.5,2.75,RTL
05:19:16,48836.0,0.026063541881740093,-0.004233567975461483,-1.2708833813667297,0.5650843232870102,-0.0033332452876493335,-0.002342259627766907,-35.36314015,149.1647472,78173.5,14.0,4.0,3.0,0.0,17.0,-997.5,568.5,-0.5,1.5,RTL
05:19:18,48836.0,0.011946571990847588,-0.003490883857011795,-1.2708543539047241,0.13249458372592926,-0.002681738347746432,0.002360002137720585,-35.363139849999996,149.1647472,78368.0,14.5,4.0,-40.0,1.0,10.5,-1038.5,137.5,0.0,6.0,RTL
05:19:19,268817.0,0.008167867956217378,-0.004155593924224377,-1.2705672681331635,-0.021378561854362488,-0.0009385556913912296,-0.0002752093714661896,-35.36313955,149.1647474,78749.75,12.25,3.5,-52.75,1.0,-3.0,-1000.25,-16.75,2.0,3.0,RTL
05:19:20,268817.0,0.006919777370058,-0.005419752560555935,-1.271115481853485,-0.025299042463302612,-0.0004760942538268864,0.0004626151639968157,-35.363139149999995,149.16474764999998,79289.5,7.0,1.0,-19.0,0.0,-12.0,-954.0,-21.0,2.0,4.0,RTL
05:19:22,268817.0,0.004943724750773981,-0.0035358326276764274,-1.2708784341812134,0.4374092221260071,-0.0013034887379035354,0.002374462317675352,-35.36313855,149.1647478,79321.0,1.5,0.0,-2.5,0.5,21.5,-1031.0,442.0,1.0,6.0,RTL
05:19:23,74634.0,-0.0020641563460230827,-0.003926514822524041,-1.2708130180835724,-0.0006159096956253052,0.0005158380372449756,0.0014574575470760465,-35.363138150000005,149.164748025,79442.5,-0.5,-0.75,-28.75,0.5,-3.25,-1040.5,3.75,3.5,4.75,RTL
05:19:24,74634.0,-0.00579682202078402,-0.004748369567096233,-1.2704012989997864,0.08199883252382278,-0.0007436861633323133,0.0008665004279464483,-35.3631376,149.16474825,80041.0,-7.0,-2.5,-57.0,0.0,0.0,-995.5,86.5,2.0,4.0,RTL
05:19:26,74634.0,0.0007308085914701223,-0.005647971294820309,-1.270817220211029,-0.09236221015453339,-0.0008624263573437929,-0.0027021856512874365,-35.363137550000005,149.1647483,80617.5,-12.0,-4.0,1.0,-0.5,-17.5,-985.5,-89.0,1.5,1.0,RTL
05:19:27,200.0,-0.0020661328453570604,-0.004312374163419008,-1.2709212601184845,0.10272681899368763,0.0011032712645828724,0.0022456010919995606,-35.3631376,149.16474822499998,80593.5,-10.25,-3.5,2.75,-0.25,10.75,-1010.5,107.25,3.5,5.75,RTL
05:19:28,200.0,-0.0004435866139829159,-0.002782840048894286,-1.270777404308319,0.27450335025787354,-0.0004192657070234418,-6.239034701138735e-05,-35.363137550000005,149.1647481,80709.0,-10.0,-3.0,-30.5,0.0,12.0,-1037.5,278.0,2.0,3.5,RTL
05:19:30,200.0,-0.008377040969207883,-0.005866416497156024,-1.2706043720245361,-0.21379710361361504,-0.0011016210773959756,-0.0018443644512444735,-35.3631373,149.1647483,81669.0,-12.5,-3.5,-31.5,0.0,-17.5,-950.5,-210.5,2.0,2.0,RTL
05:19:31,200.0,-0.0020947132725268602,-0.006597544183023274,-1.2710497081279755,0.1831551343202591,-0.004179318435490131,0.0008257825393229723,-35.363137375,149.1647483,81798.25,-13.25,-4.0,-4.75,-0.5,9.25,-967.0,186.75,-1.0,4.5,RTL
05:19:32,200.0,0.008043301990255713,-0.006810764083638787,-1.2709194421768188,0.5630192309617996,0.0003935222630389035,0.00030492176301777363,-35.363137949999995,149.16474825,81786.0,-9.5,-3.5,3.0,-0.5,33.0,-1010.5,566.5,3.0,4.0,RTL
05:19:34,200.0,0.003884902107529342,-0.006112394155934453,-1.2706132531166077,0.08544103801250458,-0.003993635415099561,0.00022782350424677134,-35.363138449999994,149.164748,82270.5,-3.0,-2.0,-52.5,0.0,7.5,-1013.5,89.5,-0.5,4.0,RTL
05:19:35,17108.0,0.005853909315192141,-0.006875850958749652,-1.2704176902770996,0.04861265420913696,-0.002112358051817864,-0.0013551144511438906,-35.3631386,149.164748,82662.25,-2.0,-1.75,-43.75,0.0,-1.0,-970.5,52.25,0.75,2.5,RTL
05:19:36,17108.0,0.010473350994288921,-0.0060778867918998,-1.2707310318946838,0.6037793159484863,-0.0010852175764739513,0.0021707501728087664,-35.3631387,149.164748,82964.5,0.0,-2.0,-1.0,0.0,22.5,-974.5,607.0,2.0,5.5,RTL
05:19:38,17108.0,0.002127667306922376,-0.005527510540559888,-1.270886778831482,0.2561883516609669,-0.002170706633478403,0.0021366593427956104,-35.3631384,149.164748,82974.5,-2.0,-2.0,-16.5,0.0,19.0,-1042.0,260.0,0.5,6.0,RTL
05:19:39,262972.0,0.005012928711948916,-0.006082500680349767,-1.2708282172679901,-0.014199694618582726,-0.0016065965173766017,-0.0012775162467733026,-35.363138449999994,149.164748,83223.5,-1.75,-1.25,-43.0,0.0,-2.0,-1027.75,-10.75,1.0,2.25,RTL
05:19:40,262972.0,0.009526353562250733,-0.007118795067071915,-1.2703872919082642,0.018653571605682373,0.0010305930045433342,-0.0021269158460199833,-35.363138750000005,149.164748,83876.5,0.0,-1.0,-45.0,-1.0,-5.0,-967.0,22.0,3.5,1.0,RTL
05:19:42,262972.0,0.01808703038841486,-0.00486344494856894,-1.2710277438163757,0.5854428112506866,-0.001860860618762672,-0.001408908050507307,-35.3631392,149.1647477,84142.5,4.0,0.0,4.5,0.0,21.5,-1005.5,589.0,0.0,2.5,RTL
05:19:43,200.0,0.007962599338497967,-0.004046614281833172,-1.2707700729370117,-0.10963764786720276,0.0006251642480492592,-0.0004767761565744877,-35.363139175,149.1647476,84135.5,4.75,0.0,-5.25,0.25,-5.25,-1026.0,-105.75,3.25,3.0,RTL
05:19:44,200.0,0.006507617188617587,-0.004623165354132652,-1.2706344723701477,0.15346781932748854,-0.0016214909264817834,0.0006664851680397987,-35.363139,149.1647476,84461.5,4.0,0.5,-47.5,0.0,9.5,-1031.0,157.0,1.0,4.0,RTL
05:19:46,200.0,0.011196042411029339,-0.005651728482916951,-1.2703830003738403,0.413145050406456,-0.0026736094150692225,-0.0025437192525714636,-35.3631388,149.1647478,85307.0,2.0,0.0,-9.5,0.0,10.5,-968.0,416.0,0.5,1.5,RTL
05:19:47,255558.0,-0.0022712493082508445,-0.0049479411682114005,-1.2707380652427673,-0.23179128766059875,0.0003518140292726457,0.0018537919968366623,-35.3631386,149.164747875,85322.25,0.5,-0.75,2.25,0.25,-6.25,-990.5,-227.75,2.75,5.25,RTL
05:19:48,255558.0,-0.004717807751148939,-0.005604643141850829,-1.2707089185714722,-0.34557458385825157,-0.0008233929984271526,-0.0005167676135897636,-35.3631384,149.164748,85310.5,-1.5,-1.0,-9.0,0.0,-11.0,-1039.5,-341.5,1.5,3.0,RTL
05:19:50,255558.0,0.00745911430567503,-0.007797291036695242,-1.2703543901443481,0.10285995900630951,-0.001542182988487184,0.001145062269642949,-35.3631387,149.164748,86128.0,0.0,-1.0,-50.5,0.0,9.5,-983.0,106.5,1.0,4.5,RTL
05:19:51,235555.0,0.010170253342948854,-0.008197968476451933,-1.2709408104419708,0.10309097543358803,0.0008928316528908908,-0.0002255127765238285,-35.363138924999994,149.164748,86413.5,0.75,-1.5,-22.75,-0.5,4.5,-957.0,106.75,3.25,3.5,RTL
05:19:52,235555.0,0.009032130241394043,-0.006636454025283456,-1.2709382772445679,0.12014827877283096,0.000980308570433408,0.0016599964583292603,-35.3631393,149.16474785,86501.0,5.0,-0.5,3.0,-0.5,22.0,-994.5,125.0,3.0,5.0,RTL
05:19:54,235555.0,0.014982949942350388,-0.00519282603636384,-1.2705711722373962,-0.2064097560942173,0.0020731049589812756,0.0007186136208474636,-35.363139950000004,149.1647475,86732.5,10.5,1.5,-43.5,0.0,-12.0,-1031.0,-202.5,4.0,4.0,RTL
05:19:55,181890.0,0.013389958068728447,-0.005355307715944946,-1.269925743341446,0.03070781845599413,-0.002027509326580912,0.00019125186372548342,-35.36313995,149.164747425,87128.0,12.25,2.0,-54.5,0.0,3.0,-998.75,34.75,0.5,3.75,RTL
05:19:56,181890.0,0.005283605074509978,-0.004948757356032729,-1.2708065509796143,0.18813854455947876,-0.0022387083154171705,0.0026644112076610327,-35.363139450000006,149.16474755000002,87674.0,11.0,1.0,-19.5,1.0,15.0,-960.0,193.0,0.5,6.5,RTL
05:19:58,181890.0,-0.006732116569764912,-0.0037319085095077753,-1.270424246788025,-0.4556322991847992,0.0016836811555549502,-0.0015435649547725916,-35.36313835,149.1647479,87701.0,0.0,-1.0,-3.0,1.0,-22.0,-1024.5,-451.0,3.5,2.0,RTL
05:19:59,272888.0,-0.0025456621078774333,-0.00449091091286391,-1.270525574684143,0.06411290541291237,-0.001564303966006264,0.0008002774557098746,-35.363138049999996,149.164748075,87826.25,-2.25,-1.5,-28.75,0.5,3.75,-1039.75,68.25,1.0,4.25,RTL
05:20:00,272888.0,-0.004072174093380454,-0.0065021447371691465,-1.270317018032074,0.08347368240356445,-0.002305801142938435,0.0017410991713404655,-35.3631377,149.1647484,88418.0,-6.5,-3.0,-55.0,0.5,7.0,-993.0,87.5,0.5,5.0,RTL
05:20:02,272888.0,-0.002524991345126182,-0.005871892673894763,-1.270836591720581,0.11438091099262238,0.0036461398703977466,0.0009361396078020334,-35.3631378,149.16474835000002,88951.5,-7.5,-4.0,1.5,-1.0,18.0,-990.5,119.0,6.0,4.5,RTL
05:20:03,10066.0,0.00017917435616254807,-0.006265754927881062,-1.2707595825195312,-0.163780327886343,0.0016770482761785388,-0.0016044860240072012,-35.3631379,149.1647483,88924.5,-8.0,-4.0,2.5,-0.75,-9.75,-1009.5,-160.0,4.0,2.0,RTL
05:20:04,10066.0,0.0049888575449585915,-0.005500159226357937,-1.270420789718628,0.13508878275752068,-0.004295901162549853,-0.0005610806401818991,-35.363138250000006,149.16474814999998,89099.5,-4.5,-2.5,-37.0,0.0,13.5,-1037.5,139.0,-1.5,3.0,RTL
05:20:06,10066.0,0.011949335690587759,-0.007206538459286094,-1.2705514430999756,0.10150213539600372,-0.0021999928285367787,-0.0027377817314118147,-35.3631387,149.164748,90061.0,-1.0,-2.0,-26.0,0.0,-3.5,-954.5,104.5,0.5,1.0,RTL
05:20:07,109591.0,0.006475986602405707,-0.006204317323863506,-1.270967960357666,0.12402069568634033,0.004601500928401947,0.003288240171968937,-35.36313876666667,149.16474796666668,90153.66666666667,0.0,-1.6666666666666667,-4.666666666666667,-0.6666666666666666,12.666666666666666,-977.3333333333334,128.0,6.666666666666667,7.0,RTL
05:20:08,109591.0,0.011522463833292326,-0.005091009506334861,-1.2707219918568928,0.33009837567806244,-0.00333913485519588,0.0006212253744403521,-35.3631388,149.16474783333334,90142.0,0.6666666666666666,-0.3333333333333333,1.6666666666666667,0.0,16.0,-1003.6666666666666,333.3333333333333,-1.0,4.0,RTL
