time_stamp,MODE,roll,pitch,yaw,rollspeed,pitchspeed,yawspeed,lat,lon,relative_alt,vx,vy,vz,xacc,yacc,zacc,xgyro,ygyro,zgyro,RTL_ALT
13:14:54,STABILIZE,-0.0012156652519479394,0.0009683322277851403,0.023714032024145126,0.00029797881143167615,0.00032795622246339917,0.0017563074361532927,-35.3632622,149.1652375,0.0,-1.0,0.0,1.0,0.0,1.5,-1000.0,0.5,0.5,0.5,1500.0
13:15:03,AUTO,-0.0011507710150908679,0.0009970155369956046,0.021845884155482054,0.00021361801191233099,0.00025156432820949703,0.0014028256700839847,-35.3632622,149.1652375,4.25,-1.0,0.75,0.0,0.0,1.25,-1000.25,0.5,0.25,0.5,75166.0
13:15:04,AUTO,-0.000968260079389438,0.0011445940472185612,0.02164832316339016,0.000245092116529122,0.0002430229214951396,0.0013696930836886168,-35.3632621,149.1652375,8.5,0.0,0.0,0.0,0.0,1.0,-1000.0,0.5,0.5,0.5,75166.0
13:15:06,AUTO,-0.0005408479482866824,0.0017022909014485776,0.02123700175434351,0.00028355972608551383,0.0003224468673579395,0.0013405518257059157,-35.3632621,149.1652375,13.5,0.0,0.0,0.0,0.0,2.0,-1000.0,0.5,1.0,0.5,58647.5
13:15:08,AUTO,0.000514635190484114,0.0031095533631742,0.021025213412940502,0.0002879677340388298,0.0008881855465006083,0.001407558098435402,-35.363262,149.1652375,1901.5,0.0,0.0,-145.0,0.0,0.0,-1004.5,1.0,1.0,1.0,42129.0
13:15:09,AUTO,0.02412198926322162,-0.00012866966426372528,0.0009080809541046619,0.04508950747549534,-0.0071608510334044695,0.00258025829680264,-35.363261975,149.165237575,3046.25,0.25,6.5,-149.75,0.0,-0.25,-1003.5,45.25,-6.0,2.0,131772.0
13:15:10,AUTO,0.03821599017828703,0.012755825475323945,-0.03354915231466293,-0.10547429695725441,0.09957278147339821,-0.12921203672885895,-35.3632614,149.1652411,4973.0,8.0,53.0,-147.0,3.0,-10.5,-996.0,-104.0,100.0,-128.5,131772.0
13:15:12,AUTO,-0.07042863592505455,-0.04939603433012962,-0.09347890317440033,0.030365037731826305,-0.058568453416228294,0.07207659259438515,-35.36326475,149.16524865,8032.5,-22.0,-17.0,-151.0,4.5,4.5,-1004.0,30.5,-57.0,71.5,114564.0
13:15:14,AUTO,0.019765271339565516,0.006881589884869754,-0.06766201183199883,0.04036753252148628,0.062307871878147125,-0.03273486718535423,-35.36326085,149.165237,11114.0,41.0,-54.0,-152.5,-16.5,5.0,-1005.0,40.5,62.5,-32.5,97356.0
13:15:15,AUTO,0.04826247226446867,0.04565747920423746,-0.09497932344675064,0.036319419741630554,0.0417814739048481,-0.03841256629675627,-35.36325885,149.165233575,12292.75,14.75,-24.0,-154.5,-9.25,3.25,-1001.75,36.5,42.0,-38.0,234645.0
13:15:16,AUTO,0.027700508013367653,0.03145220689475536,-0.11451374366879463,-0.10730599239468575,-0.09914401546120644,0.05230429582297802,-35.36326,149.16523454999998,14231.5,-39.5,45.0,-148.0,10.5,-1.5,-999.0,-106.0,-98.0,51.5,234645.0
13:15:18,AUTO,-0.019953723065555096,-0.01995980553328991,-0.11417919769883156,0.02987570222467184,0.017091516871005297,-0.037333400920033455,-35.3632636,149.1652393,17326.0,3.0,-10.5,-153.0,-1.0,0.5,-1000.0,30.5,17.0,-37.0,171248.0
13:15:20,AUTO,0.014944254420697689,0.01102767139673233,-0.17152287811040878,-5.5441283620893955e-05,0.0046368991024792194,-0.013906956650316715,-35.363261800000004,149.1652358,20448.0,5.0,-5.0,-153.0,-2.5,0.0,-1000.0,0.5,4.5,-13.0,107851.0
13:15:21,AUTO,0.010394211392849684,0.010461140889674425,-0.1788938231766224,-0.006950279697775841,-0.002488412515958771,-0.008077922626398504,-35.363261425,149.16523557499997,21616.0,0.0,2.75,-153.0,-0.5,0.0,-1000.0,-5.25,-1.75,-7.75,219337.0
13:15:22,AUTO,0.001776004326529801,0.005473518744111061,-0.19203830510377884,-0.0034466576762497425,-0.0024465674068778753,-0.01407350692898035,-35.3632614,149.165236,23559.5,-4.0,6.5,-153.0,1.0,0.0,-1000.0,-2.0,-1.0,-14.0,219337.0
13:15:24,AUTO,0.005051506566815078,0.0016240395489148796,-0.22662461549043655,0.02115260623395443,0.001084155635908246,-0.016668569296598434,-35.3632618,149.16523625000002,26675.5,-4.5,-2.5,-154.0,0.0,1.0,-1000.0,21.5,1.5,-16.0,197582.0
13:15:26,AUTO,-0.05089060589671135,0.05706009455025196,0.09980304166674614,0.03180509805679321,-0.1506892889738083,0.3418872803449631,-35.3632628,149.16523605,29642.0,-30.0,-15.0,-109.0,4.0,3.5,-921.0,33.0,-149.5,341.0,175827.0
13:15:27,AUTO,0.016099891625344753,-0.03661148087121546,0.14897337928414345,0.09283703635446727,-0.05761341331526637,-0.02732272120192647,-35.363264725,149.16523429999998,30271.0,-21.0,-17.25,-64.5,2.5,7.25,-956.25,93.5,-56.25,-26.75,119683.0
13:15:28,AUTO,0.028928188607096672,-0.018710887990891933,0.11678539216518402,0.2870495542883873,0.035796547308564186,-0.001843877587816678,-35.3632647,149.16523435,30859.5,19.0,22.5,-34.5,-1.5,13.5,-1004.5,288.0,36.5,-1.5,119683.0
13:15:30,AUTO,-0.018099618144333363,0.030352863483130932,0.10174543410539627,0.6031888723373413,-0.015047039370983839,-0.009507361333817244,-35.36326185,149.165238,31140.5,-5.5,-3.0,0.0,0.0,17.0,-1026.5,603.5,-13.5,-9.0,199032.5
13:15:32,AUTO,-0.06684141233563423,0.011178842512890697,-0.319959819316864,-0.2790313232690096,0.016492697410285473,-0.864023745059967,-35.3632671,149.16522924999998,31483.5,-53.0,-62.0,-38.0,-4.0,16.5,-1021.0,-277.0,17.5,-863.5,278382.0
13:15:33,AUTO,-0.08266117423772812,-0.04471422964707017,-0.9171632379293442,0.03295749329845421,-0.023066768422722816,-0.7471041530370712,-35.363271925,149.165221925,31851.5,-80.75,-101.0,-60.75,-21.75,26.25,-1036.5,34.0,-21.5,-746.5,251881.0
13:15:34,AUTO,-0.003342858050018549,-0.09848175570368767,-1.8078898191452026,0.037585070822387934,0.054679036140441895,-0.6638241410255432,-35.3632848,149.16520179999998,32896.5,-134.5,-182.5,-110.5,-54.0,-8.0,-1039.5,38.5,55.5,-663.0,251881.0
13:15:36,AUTO,0.03265351988375187,-0.11290204897522926,-2.311365842819214,0.03510839305818081,-0.14650559425354004,-0.11420909687876701,-35.36331185,149.16515694999998,35544.0,-159.5,-199.5,-125.0,-45.5,-32.0,-965.5,36.0,-145.0,-113.5,222437.5
13:15:38,AUTO,0.06665309891104698,-0.026964399963617325,-2.520691156387329,-0.010206913575530052,0.04452688619494438,-0.056932708248496056,-35.363346500000006,149.16510065,37975.0,-195.5,-273.0,-130.0,-60.5,-57.0,-1010.5,-8.0,45.0,-56.5,192994.0
13:15:39,AUTO,0.05663072410970926,-0.015427860198542476,-2.5298922061920166,-0.0177945161703974,0.0017393240705132484,0.015105264959856868,-35.36335905,149.16507777500001,38998.75,-178.25,-267.5,-135.0,-49.75,-56.5,-1003.0,-15.75,3.0,15.0,212074.0
13:15:40,AUTO,0.03959776274859905,-0.03381297178566456,-2.4906946420669556,-0.01691716955974698,-0.0011311540147289634,0.038547664880752563,-35.363377850000006,149.1650415,40735.5,-165.0,-251.5,-135.0,-49.0,-55.0,-999.0,-15.0,-0.5,38.5,212074.0
13:15:42,AUTO,0.0228384081274271,0.01304177613928914,-2.4304959774017334,-0.0012996019795536995,0.03303277678787708,0.02651016227900982,-35.3634064,149.16499069999998,43641.0,-141.5,-192.5,-149.0,-38.5,-37.0,-1007.0,0.0,33.5,26.0,146165.5
13:15:44,AUTO,0.05820259638130665,0.011928707361221313,-2.248815417289734,0.1685921922326088,-0.14157744869589806,0.570482924580574,-35.36342555,149.1649591,46782.5,-59.5,-95.0,-131.0,-21.0,-14.0,-872.0,169.5,-140.0,570.5,80257.0
13:15:45,AUTO,0.040952800191007555,0.051406182756181806,-2.0134864151477814,-0.09682741994038224,0.12434109579771757,0.0765668444801122,-35.363428325,149.16495104999998,47393.5,-21.25,-89.75,-41.75,-16.0,-13.0,-909.5,-94.75,124.75,76.5,97049.0
13:15:46,AUTO,-0.02634174097329378,0.06323085352778435,-2.0352275371551514,0.6774361431598663,-0.056175919249653816,-0.022983222268521786,-35.3634298,149.16494465,47509.5,-3.5,5.0,9.5,-1.0,38.5,-1025.0,679.0,-54.5,-22.0,97049.0
13:15:48,AUTO,0.019244161434471607,-0.017579760402441025,-2.0632269382476807,0.25557243824005127,0.0145341488532722,-0.009114795830100775,-35.36343215,149.1649516,47508.5,-6.0,20.0,-1.0,-0.5,0.0,-997.5,256.5,15.0,-8.0,81506.0
13:15:50,RTL,0.0001713368110358715,0.005839249351993203,-2.083957552909851,-0.4234920144081116,0.002154734975192696,-0.007281964877620339,-35.3634342,149.1649537,47650.5,2.0,0.0,-31.0,0.5,-10.5,-1040.5,-421.0,3.0,-6.0,65963.0
13:15:51,RTL,-0.0004955274343956262,0.005208956776186824,-2.090079665184021,0.04496213421225548,-0.0018197262106696144,-0.007217475678771734,-35.3634341,149.1649537,48018.75,3.25,0.0,-62.5,0.0,2.75,-1039.75,46.5,-0.75,-6.25,258104.0
13:15:52,RTL,-0.0010052157449536026,0.0036494944943115115,-2.1002272367477417,0.010345128830522299,-0.0006285263225436211,-0.0059441879857331514,-35.3634339,149.16495385000002,49111.5,3.0,1.0,-111.0,0.0,1.5,-1039.5,12.5,0.0,-5.0,258104.0
13:15:54,RTL,0.05080017261207104,-0.007839334663003683,-2.108388066291809,0.03872238099575043,-0.012090434785932302,0.0020345824887044728,-35.36343285,149.16495325,51959.0,23.0,-19.0,-149.5,1.0,-4.5,-999.5,40.5,-10.0,2.0,275871.0
13:15:56,RTL,-0.06675391271710396,0.0022380719310604036,-2.195730686187744,0.050879690796136856,-0.0033693903824314475,-0.014463005121797323,-35.363429100000005,149.16494945,55009.5,-22.0,18.5,-150.0,-1.0,3.5,-1001.0,52.5,-2.0,-13.5,293638.0
13:15:57,RTL,-0.023278881242731586,0.003994570695795119,-2.2007874250411987,0.05611108057200909,0.0018475111573934555,0.0021465737954713404,-35.363431375,149.164951725,56167.0,-40.0,35.0,-150.5,-4.5,9.75,-1001.25,57.75,2.75,3.25,169057.0
13:15:58,RTL,0.009532991331070662,-0.0076772719621658325,-2.1721843481063843,-0.012548752129077911,0.0069419508799910545,0.01723522087559104,-35.36343555,149.16495635,58112.0,-28.5,26.0,-151.0,-2.5,7.5,-998.5,-10.0,8.0,17.5,169057.0
13:16:00,RTL,0.058241166174411774,-0.0013317232369445264,-2.112655282020569,0.05018373019993305,-0.007201309083029628,0.027845987118780613,-35.36343925,149.16495945,61187.0,4.5,0.0,-150.0,-0.5,1.0,-1012.0,51.5,-5.5,28.5,168803.5
13:16:02,RTL,-0.053210869431495667,0.00985421915538609,-2.1808735132217407,-0.16845392435789108,-0.013240065891295671,-0.058744022622704506,-35.3634307,149.1649509,64227.5,63.5,-48.0,-149.0,9.0,-19.0,-1014.5,-166.5,-11.0,-57.5,168550.0
13:16:03,RTL,-0.10745987109839916,0.0035443432861939073,-2.225389242172241,-0.029902127338573337,0.004031979915453121,-0.052539304830133915,-35.36342865,149.16494847500002,65394.75,2.0,-7.0,-152.25,1.75,-5.5,-1003.5,-28.0,5.25,-51.5,35237.0
13:16:04,RTL,-0.06507769227027893,0.013556182384490967,-2.265385389328003,0.0767250582575798,0.023763406090438366,-0.00984454876743257,-35.3634332,149.1649524,67301.5,-77.0,68.5,-147.0,-10.0,17.0,-1002.0,78.0,24.5,-9.0,35237.0
13:16:06,RTL,0.17330580204725266,-0.022752398159354925,-2.3774975538253784,-0.018334364518523216,-0.0851579625159502,0.01495584286749363,-35.363438849999994,149.164965,70390.0,61.0,-30.5,-147.0,10.0,-4.5,-989.0,-16.5,-83.0,16.0,74833.5
13:16:08,RTL,-0.16115809231996536,0.048767004162073135,-2.628895401954651,0.05795671604573727,0.10724392533302307,-0.09740530326962471,-35.363431000000006,149.164941,73276.5,-29.5,-38.5,-156.5,-5.5,-19.5,-1013.5,59.5,108.0,-96.0,114430.0
13:16:09,RTL,-0.11377719417214394,0.08145688660442829,-2.6669692397117615,0.06854475289583206,0.02928993059322238,-0.024510624120011926,-35.36343335,149.164942725,74434.0,-28.0,71.25,-147.75,-8.0,10.0,-996.75,69.75,30.5,-23.25,225723.0
13:16:10,RTL,0.0696311891078949,0.022711336612701416,-2.646169424057007,0.15529751405119896,-0.24126404523849487,0.03298557363450527,-35.36343325,149.16495915000002,76239.0,51.5,131.5,-141.5,7.0,36.0,-1030.5,157.0,-239.0,33.5,225723.0
13:16:12,RTL,0.011053905822336674,-0.11995834484696388,-2.5686289072036743,-0.34208858013153076,0.08834817074239254,-0.0688941515982151,-35.36342985,149.1649564,79218.5,-53.0,-158.0,-125.0,-10.0,-35.5,-1006.5,-340.0,89.5,-68.0,224393.0
13:16:14,RTL,0.019867402676027268,0.20587031543254852,-2.4540802240371704,0.1306348629295826,0.11478271707892418,0.1563086360692978,-35.36345265,149.16494254999998,82104.5,-61.5,69.5,-155.0,-19.0,17.5,-1012.5,132.5,116.5,157.0,223063.0
13:16:15,RTL,0.12464312463998795,0.2022596299648285,-2.3983762860298157,0.13506297394633293,-0.09049457125365734,-0.0014865472912788391,-35.363451525,149.164951175,83195.5,97.5,118.5,-131.0,18.5,23.25,-993.25,136.5,-88.25,0.0,163432.0
13:16:16,RTL,0.19864299148321152,-0.021716246847063303,-2.437935709953308,-0.12395767867565155,-0.1968849115073681,0.07245573587715626,-35.3634281,149.16496215,84681.0,307.0,-15.0,-109.0,66.0,-9.0,-1026.5,-121.5,-194.5,73.5,163432.0
13:16:18,RTL,-0.12236829847097397,-0.1295238360762596,-2.820884943008423,-0.19772758334875107,-0.03890805802075192,-0.1837853640317917,-35.36338415,149.16492785,87390.5,105.0,-187.5,-167.0,41.0,-44.0,-1049.0,-195.0,-37.0,-181.5,114170.0
13:16:20,RTL,-0.18822819739580154,-0.005337954498827457,-2.8506702184677124,0.05219989828765392,0.07819441333413124,0.04736637696623802,-35.36339425,149.1649214,90434.5,-144.5,144.5,-122.5,-37.5,15.5,-993.0,54.0,79.5,48.5,64908.0
13:16:21,RTL,-0.12736487574875355,0.06674393732100725,-2.8241410851478577,0.10244545713067055,0.09704105742275715,0.054769315756857395,-35.36340355,149.164938475,91345.25,-120.75,246.75,-119.5,-37.25,45.0,-1014.25,104.5,98.5,55.5,181749.0
13:16:22,RTL,0.02844870276749134,0.139384213835001,-2.746301770210266,0.022277585696429014,-0.10192702151834965,0.16838525235652924,-35.3634095,149.1649782,92965.5,51.0,296.5,-135.5,-8.5,74.0,-1014.5,24.5,-99.5,169.0,181749.0
13:16:24,RTL,0.06118142418563366,-0.10150752868503332,-2.4060765504837036,-0.10506526380777359,0.7381235063076019,0.03053822583751753,-35.3634009,149.16501090000003,95600.0,-74.5,-88.0,-76.5,-23.5,-13.0,-1004.5,-102.0,740.0,31.0,219204.0
13:16:26,RTL,-0.08531040325760841,0.2287796288728714,-2.4270883798599243,-0.29312045872211456,-0.17373832315206528,-0.012665417976677418,-35.3633949,149.1650181,96252.0,191.0,213.5,13.0,49.5,34.5,-1003.0,-290.5,-171.0,-10.5,256659.0
13:16:27,RTL,-0.09183319099247456,0.1322831939905882,-2.428321599960327,-0.01333414763212204,-0.09802109748125076,-0.011952708708122373,-35.36338035,149.1650393,96147.5,233.75,284.5,9.5,64.5,60.5,-1012.0,-11.0,-95.25,-10.0,128423.0
13:16:28,RTL,-0.07570470497012138,0.057093482464551926,-2.438470482826233,-0.30967996269464493,-0.02089007245376706,-0.030747628770768642,-35.36335355,149.1650822,96063.0,236.5,319.0,-1.5,66.5,57.0,-1004.5,-307.0,-18.0,-28.5,128423.0
13:16:30,RTL,-0.03763999417424202,0.029777617193758488,-2.462103486061096,0.36212534829974174,-0.037214163690805435,-0.018223132705315948,-35.3633136,149.16515245,96058.0,220.0,295.0,-4.0,54.0,72.5,-1011.5,363.5,-34.5,-16.0,173975.5
13:16:32,RTL,-0.008114314172416925,-0.04048600606620312,-2.4784775972366333,-0.275997681543231,-0.03949360549449921,-0.01118885912001133,-35.36328065,149.16521025,96065.0,155.5,192.0,-2.0,34.5,20.0,-1006.0,-274.0,-37.0,-9.0,219528.0
13:16:33,RTL,0.009234657627530396,-0.07202324736863375,-2.4840328693389893,0.2943434454500675,-0.024974778294563293,0.002718543226365,-35.3632726,149.16522452499999,96066.5,113.25,130.5,-1.0,24.5,56.5,-1006.0,298.0,-22.5,4.25,82024.0
13:16:34,RTL,0.028088293969631195,-0.03702619858086109,-2.493485689163208,0.26943786814808846,0.029090682975947857,0.010302145965397358,-35.36326525,149.16523905,96056.0,48.5,34.5,-1.5,7.0,40.5,-1011.5,273.5,30.5,12.0,82024.0
13:16:36,RTL,0.030258096754550934,-0.0030591766408178955,-2.5020694732666016,0.4974125623703003,0.016948380507528782,-0.005354521505068988,-35.3632631,149.16524375,96062.0,24.0,-20.5,-1.0,1.0,16.0,-1003.0,500.5,18.5,-3.0,72542.0
13:16:38,RTL,0.008944251225329936,-0.002638441394083202,-2.510916829109192,-0.464578241109848,-0.0004795161075890064,-0.011368516832590103,-35.363261949999995,149.16524255000002,96065.0,16.5,-18.0,-0.5,0.5,-39.5,-991.0,-460.5,1.5,-8.5,63060.0
13:16:39,RTL,0.005418123269919306,0.00032724355696700513,-2.5150153636932373,0.10659459233283997,0.006328845513053238,-0.006054570898413658,-35.363261725,149.165241625,96065.25,10.0,-18.25,-0.75,0.75,1.75,-998.5,110.75,8.0,-3.25,54401.0
13:16:40,RTL,-0.007852979004383087,0.007100891787558794,-2.520239233970642,0.10335417091846466,0.0013258768012747169,-0.0032620005076751113,-35.3632616,149.1652397,96063.0,4.0,-14.0,-0.5,0.0,13.0,-1003.5,108.5,3.5,-1.0,54401.0
13:16:42,RTL,-0.02242409437894821,0.006569377146661282,-2.528259515762329,-0.8056578040122986,0.002999615971930325,-0.0020382198272272944,-35.3632614,149.1652373,96045.5,-2.0,2.5,12.0,-0.5,-36.0,-946.5,-801.5,5.0,0.5,51804.5
13:16:44,RTL,-0.017275620251893997,0.005510192830115557,-2.5343515872955322,0.6189486682415009,0.0021179033210501075,-0.005146561888977885,-35.3632611,149.165236,94619.0,-5.0,9.5,108.0,0.0,60.0,-1017.5,624.5,4.0,-2.5,49208.0
13:16:45,RTL,-0.016486106906086206,0.002952073671622202,-2.536367893218994,0.5523576661944389,-0.003512064227834344,-0.00682954810326919,-35.36326115,149.1652359,93838.0,-5.75,12.25,93.75,-3.25,61.5,-1011.0,557.75,-0.75,-4.25,298605.0
13:16:46,RTL,0.023472152650356293,-0.002651666523888707,-2.5405925512313843,0.9222742468118668,0.00012175389565527439,-0.006643450469709933,-35.363262250000005,149.16523790000002,92651.0,-1.5,8.0,101.0,-7.5,72.5,-1020.5,927.5,2.5,-4.5,298605.0
13:16:48,RTL,0.025389057584106922,0.002528029144741595,-2.5449081659317017,-0.3373568579554558,0.008231967687606812,-0.0030781246023252606,-35.36326455,149.1652416,90606.5,19.0,-26.5,104.0,-3.5,27.5,-990.0,-330.5,10.0,-1.0,267257.5
13:16:50,RTL,0.025048845447599888,0.004000107408501208,-2.5494136810302734,-0.17837269324809313,0.002676177187822759,-0.0007658624090254307,-35.3632655,149.16524275,88555.5,31.5,-41.5,103.5,-0.5,32.0,-1011.0,-171.0,5.0,1.0,235910.0
13:16:51,RTL,0.023994372691959143,0.005292119807563722,-2.551203727722168,-0.5608543157577515,0.004718956944998354,6.255751941353083e-06,-35.363265549999994,149.16524285,87798.5,32.25,-43.0,100.5,0.25,10.25,-971.0,-552.5,6.75,2.0,238572.0
13:16:52,RTL,-0.0022481575288111344,0.008278991561383009,-2.5539602041244507,-0.8988829851150513,0.003947163582779467,0.011754305567592382,-35.363265,149.16524165,86538.5,31.0,-42.5,104.5,2.5,-8.5,-943.0,-890.5,6.0,13.5,238572.0
13:16:54,RTL,-0.012548251077532768,0.005139349261298776,-2.556121826171875,-0.7647542357444763,-0.005485006491653621,0.0023486766731366515,-35.363263599999996,149.16523940000002,84491.5,20.0,-23.5,95.5,1.5,3.0,-993.5,-756.0,-3.0,4.5,225609.5
13:16:56,RTL,-0.013804476708173752,0.004571425961330533,-2.559014678001404,-1.2845970392227173,0.0002701974008232355,-0.006201002688612789,-35.3632631,149.1652388,82458.5,11.5,-13.5,97.5,-0.5,-42.0,-1028.0,-1276.5,3.0,-3.5,212647.0
13:16:57,RTL,-0.011573851574212313,0.004899727646261454,-2.5608822107315063,-1.2334360480308533,0.002119165495969355,-0.002522487018723041,-35.363263025,149.16523870000003,81703.25,10.25,-11.25,106.75,-0.25,-28.5,-968.25,-1224.75,4.75,-0.25,267660.0
13:16:58,RTL,-0.013984982389956713,0.005104103358462453,-2.562097191810608,-1.357678472995758,-0.0038528034929186106,0.007099498994648457,-35.3632631,149.1652385,80323.5,10.0,-10.0,105.0,2.5,-45.5,-996.0,-1349.5,-1.0,9.0,267660.0
13:17:00,RTL,-0.00853074761107564,0.005102875176817179,-2.564300537109375,-1.5452001094818115,0.00664872769266367,-0.016823964659124613,-35.3632629,149.16523825000002,78274.0,7.0,-6.0,109.5,0.5,-82.5,-952.5,-1538.0,9.0,-14.0,248947.0
13:17:02,RTL,-0.015443978365510702,0.005309080006554723,-2.5656611919403076,-1.0939505398273468,0.001607214566320181,-0.00019108591368421912,-35.3632621,149.16523684999999,76133.0,1.0,1.0,102.5,0.0,-71.0,-1006.5,-1087.0,4.0,2.0,230234.0
13:17:03,RTL,-0.008428829920376302,0.0036213297862559557,-2.5664345622062683,-0.9191620796918869,-0.0011852456373162568,-0.004420387966092676,-35.36326205,149.16523684999999,75390.75,0.0,5.75,91.5,-0.25,-67.0,-1021.0,-912.25,1.5,-1.75,30113.0
13:17:04,RTL,-0.010551327490247786,0.004014891339465976,-2.5684361457824707,-1.0656057596206665,-0.0006789953913539648,-0.0007236693054437637,-35.3632622,149.1652372,74304.0,-0.5,4.5,102.5,0.5,-54.0,-1017.0,-1058.0,2.5,1.5,30113.0
13:17:06,RTL,-0.04252750985324383,0.013841721694916487,-2.569007635116577,-0.4666247256100178,0.004296745057217777,-0.0012004738673567772,-35.36326055,149.1652333,72241.5,-9.0,17.0,119.0,4.5,-67.0,-990.5,-461.0,6.5,1.5,37036.0
13:17:08,RTL,-0.02228623814880848,-0.0006235136606846936,-2.5695401430130005,-0.34174425806850195,-0.007605170598253608,0.006131404195912182,-35.363259549999995,149.16523225,70015.0,-25.0,48.5,104.5,-2.0,-52.5,-972.0,-336.5,-4.0,8.0,43959.0
13:17:09,RTL,-0.012756013544276357,-0.002678505377843976,-2.569672167301178,-0.6054803803563118,-0.0027039649430662394,0.002659372170455754,-35.363260100000005,149.16523375,69243.25,-23.25,42.75,98.25,-3.25,-49.75,-1023.0,-600.75,0.0,4.75,45438.0
13:17:10,RTL,-0.020635643508285284,0.0001053329324349761,-2.571051597595215,-1.1986526846885681,0.004327439004555345,-0.0018775259959511459,-35.36326095,149.16523545,68065.0,-16.5,25.5,97.5,-0.5,-71.0,-994.5,-1193.5,6.5,0.5,45438.0
13:17:12,RTL,-0.017800273839384317,0.0034692292101681232,-2.571798324584961,-0.9272920191287994,-0.0007324590114876628,-0.001191450865007937,-35.3632612,149.1652355,66048.0,-11.5,19.0,94.5,0.0,-65.0,-1033.0,-922.5,2.0,1.0,168602.0
13:17:14,RTL,-0.03302565962076187,0.002979984856210649,-2.5724425315856934,-1.4070842266082764,-2.832314930856228e-05,-0.0005587327759712934,-35.3632614,149.1652356,64093.5,-9.5,18.5,103.5,-0.5,-41.0,-1007.0,-1401.5,3.5,2.0,291766.0
13:17:15,RTL,-0.032707403879612684,0.0040008496143855155,-2.5729345083236694,-1.3170297592878342,0.0019540891516953707,-0.004440691322088242,-35.3632615,149.1652357,63310.0,-7.5,16.25,108.5,-0.75,-29.75,-970.75,-1310.75,4.75,-1.75,127786.0
13:17:16,RTL,-0.0004992538597434759,0.004520840011537075,-2.5721468925476074,-0.5286481380462646,0.0034294857177883387,0.0019271078053861856,-35.36326175,149.16523610000002,61897.0,-7.0,16.0,108.0,-1.0,-64.5,-946.5,-525.5,6.0,4.0,127786.0
13:17:18,RTL,0.028927837498486042,0.0011126554454676807,-2.5737287998199463,0.5179040431976318,0.0037389262579381466,-0.00539896241389215,-35.36326255,149.1652378,59849.5,0.0,4.5,99.0,-2.5,-11.5,-1021.0,520.5,6.5,-2.5,123108.5
13:17:20,RTL,0.03406522236764431,0.002488857542630285,-2.5746089220046997,-0.2698337361216545,0.006311984965577722,0.006899854866787791,-35.36326355,149.1652398,57825.0,8.0,-11.0,103.0,-0.5,-47.5,-971.5,-266.5,9.0,9.0,118431.0
13:17:21,RTL,0.018243712256662548,0.0031852565007284284,-2.575294077396393,-0.6257368549704552,0.002232914906926453,-0.003960418311180547,-35.3632636,149.165239825,57066.25,10.25,-15.0,94.25,0.0,-57.25,-1003.5,-621.25,5.25,-1.5,118434.0
13:17:22,RTL,-0.015970745123922825,0.007939753588289022,-2.574678063392639,-1.4826025366783142,0.0010110412258654833,-0.008106651483103633,-35.3632631,149.1652388,55924.0,9.5,-15.0,99.0,4.5,-76.0,-968.5,-1477.5,4.0,-5.0,118434.0
13:17:24,RTL,-0.016898024827241898,0.0038151059998199344,-2.575705647468567,-0.912052571773529,-0.0031051321420818567,-0.004743364406749606,-35.3632616,149.16523635,53893.0,-2.0,4.0,95.0,1.5,-66.0,-1000.5,-908.0,0.0,-1.5,74144.0
13:17:26,RTL,0.017997396644204855,-0.00031416493584401906,-2.5761420726776123,0.47678424417972565,-0.0008549753110855818,-0.0017618159763514996,-35.363261550000004,149.16523665,51854.0,-5.5,8.5,102.5,-1.0,-27.0,-944.5,479.5,2.5,1.0,29854.0
13:17:27,RTL,0.016303947428241372,0.0006988303885009373,-2.5757174491882324,0.012965867179445922,0.00229312019655481,-0.004507893812842667,-35.36326185,149.16523719999998,51089.0,-4.25,6.0,99.0,-0.5,-35.25,-993.0,16.0,5.0,-1.75,45166.0
13:17:28,RTL,0.018403434194624424,0.0025161862140521407,-2.576155424118042,0.3216177374124527,0.0013974957400932908,0.0022153875324875116,-35.36326235,149.16523784999998,49837.0,-1.0,0.0,99.0,0.0,-25.0,-1004.5,324.0,4.0,4.0,45166.0
13:17:30,RTL,0.00337013928219676,0.00715841306373477,-2.5763226747512817,1.3131659030914307,-0.0011562025174498558,0.008699307683855295,-35.363262250000005,149.16523695,47786.5,2.5,-3.0,102.5,0.0,51.0,-996.0,1317.0,2.5,10.5,148335.0
13:17:32,RTL,0.02576596476137638,0.002127313637174666,-2.5763765573501587,0.8397355675697327,0.000908871297724545,0.003933581290766597,-35.3632623,149.1652373,45739.5,0.0,5.0,102.0,-0.5,4.5,-997.0,842.5,3.5,5.5,251504.0
13:17:33,RTL,0.025117987766861916,0.0022438303858507425,-2.5770493745803833,0.6976191401481628,0.0013871283154003322,0.0019398715230636299,-35.363262500000005,149.16523775,44975.25,0.75,1.5,100.75,0.25,-5.5,-978.75,700.5,4.25,4.0,129360.0
13:17:34,RTL,0.014548636972904205,0.006034886464476585,-2.577285647392273,0.8333160579204559,0.0026525395223870873,-0.0024569358211010695,-35.3632625,149.16523765,43696.0,2.0,-2.0,101.5,2.0,1.0,-1018.5,836.5,5.0,0.0,129360.0
13:17:36,RTL,-0.03027865383774042,0.01029562996700406,-2.5773138999938965,-0.028857361525297165,0.002134953043423593,0.006499238777905703,-35.3632607,149.16523365,41658.0,-9.5,19.5,102.0,3.5,-49.0,-998.5,-26.5,5.5,8.5,205355.0
13:17:38,RTL,-0.019582456909120083,-0.00032451215520268306,-2.576419472694397,-0.04293832555413246,-0.003018792252987623,-0.0074156103655695915,-35.3632597,149.16523275,39620.5,-22.0,40.5,101.5,0.0,-40.5,-952.0,-41.5,0.0,-4.5,281350.0
13:17:39,RTL,-0.011320861056447029,-0.0021525142656173557,-2.5760459899902344,-0.18211974203586578,0.0002214032574556768,-0.00031522411154583097,-35.363259975000005,149.1652336,38849.25,-22.75,39.25,101.25,-2.5,-48.5,-990.0,-180.5,3.25,2.0,170983.0
13:17:40,RTL,0.005873206770047545,-0.001552569621708244,-2.5769412517547607,-0.3261287808418274,0.0016228077001869678,-0.009427966782823205,-35.3632607,149.16523535,37576.0,-18.5,28.5,101.0,-1.0,-56.0,-940.5,-324.5,4.5,-6.5,170983.0
13:17:42,RTL,0.02530871145427227,0.0010124095424544066,-2.5773847103118896,0.3724988214671612,-0.0019825398921966553,-0.0034102024510502815,-35.363261949999995,149.16523715,35507.0,-8.0,11.5,106.5,-1.0,-29.0,-935.5,372.5,1.5,-0.5,216055.0
13:17:44,RTL,0.015411644242703915,0.006089596543461084,-2.577421188354492,1.3388068079948425,-2.0131119526922703e-05,0.005122085800394416,-35.3632624,149.1652373,33289.0,0.0,0.5,94.5,-0.5,50.5,-996.0,1341.0,3.0,7.0,261127.0
13:17:45,RTL,0.006320066982880235,0.006376298260875046,-2.577123463153839,1.329515129327774,-0.0016186960274353623,0.005976645101327449,-35.363262325,149.165236925,32526.5,0.5,2.25,91.75,-0.25,64.75,-1014.0,1332.0,2.0,8.5,44851.0
13:17:46,RTL,0.014289849670603871,0.00392609357368201,-2.577450752258301,1.342329740524292,-0.008472704561427236,-0.01176491123624146,-35.363262500000005,149.16523715,31428.0,1.0,5.5,87.0,-1.0,67.0,-1014.5,1345.0,-5.0,-8.5,44851.0
13:17:48,RTL,0.028708962723612785,0.0045442888513207436,-2.577960729598999,1.2983259558677673,0.009993283543735743,0.008277916815131903,-35.3632634,149.1652391,29400.5,9.0,-8.5,100.0,-2.0,69.5,-1011.0,1302.0,13.0,10.5,96910.5
13:17:50,RTL,-0.004057258338434622,0.004609246272593737,-2.576458692550659,0.5726160854101181,-0.006764784571714699,0.00015511957462877035,-35.3632632,149.1652387,27287.0,11.5,-11.5,103.5,1.0,64.0,-1031.0,577.0,-3.0,2.5,148970.0
13:17:51,RTL,0.01049265917390585,0.004477016220334917,-2.5780444741249084,0.921897679567337,0.001894779910799116,0.0018605738296173513,-35.363263175,149.165238775,26534.75,10.0,-10.75,97.75,0.5,64.0,-1020.5,926.5,5.5,4.5,161487.0
13:17:52,RTL,-0.010897268075495958,0.005239745602011681,-2.576887845993042,0.711359053850174,0.003312302753329277,0.00763454707339406,-35.3632627,149.16523795,25336.0,9.0,-10.5,97.5,0.5,72.0,-958.0,716.5,6.5,10.0,161487.0
13:17:54,RTL,0.005231629009358585,0.00034199566289316863,-2.5775363445281982,0.4638023301959038,-0.0010510083520784974,0.0013981101801618934,-35.3632627,149.16523840000002,23280.5,6.0,-5.5,102.0,-2.0,63.5,-1024.0,469.5,2.5,3.5,85173.5
13:17:56,RTL,0.01864145789295435,0.004384090891107917,-2.5779237747192383,0.801176056265831,0.007861238671466708,0.010936412960290909,-35.36326365,149.16524,21262.5,13.0,-21.0,101.5,0.0,68.0,-969.5,806.5,11.0,13.5,8860.0
13:17:57,RTL,0.01754156034439802,0.006336819613352418,-2.577318251132965,1.192894384264946,0.004664754960685968,0.005196725833229721,-35.363263599999996,149.16523965,20490.75,14.25,-21.0,100.5,0.25,70.0,-1003.0,1198.0,8.0,7.25,23408.0
13:17:58,RTL,-0.00500061665661633,0.0038407229585573077,-2.5773303508758545,0.1631084829568863,-0.0026848913403227925,-0.0015313104959204793,-35.36326325,149.1652389,19132.5,13.0,-16.5,100.5,-0.5,51.5,-992.0,169.5,1.5,1.0,23408.0
13:18:00,RTL,0.012936977669596672,0.0010548368154559284,-2.5781030654907227,0.03072504699230194,0.004453530069440603,0.008090143324807286,-35.363263700000005,149.16524025,17081.0,15.0,-20.0,102.5,-2.0,54.0,-934.5,38.0,8.0,10.5,78269.0
13:18:02,RTL,-0.007830558344721794,0.007390610175207257,-2.5765460729599,-1.2104638516902924,-0.004121214500628412,0.0034065445652231574,-35.363263950000004,149.1652401,14888.5,18.0,-25.5,95.5,1.0,-31.0,-983.0,-1203.5,-0.5,6.0,133130.0
13:18:03,RTL,-0.009087664308026433,0.0071111987344920635,-2.5769801139831543,-1.035733088850975,1.627928577363491e-05,-0.0025676469085738063,-35.36326375,149.16523965000002,14140.0,16.25,-21.0,94.5,0.75,-24.5,-1014.0,-1028.75,3.75,0.25,230091.0
13:18:04,RTL,-0.008528900565579534,0.0052293939515948296,-2.5772396326065063,-0.2073202058672905,0.0011193316895514727,-0.003738263971172273,-35.363263450000005,149.16523915,12904.0,14.5,-17.5,96.5,0.5,26.5,-1013.0,-199.0,4.5,-0.5,230091.0
13:18:06,RTL,0.012421123217791319,0.0037622926756739616,-2.577698230743408,0.7693032324314117,0.0033404366113245487,0.0022215202916413546,-35.3632629,149.1652385,11152.0,9.5,-11.5,39.5,0.5,47.5,-1074.5,775.5,7.0,4.5,202879.0
13:18:08,RTL,-0.0004883615765720606,0.0028271410847082734,-2.5771327018737793,0.16131147742271423,-0.00849436572752893,-0.0015963995829224586,-35.3632629,149.16523855,10569.0,8.0,-9.5,35.0,0.0,31.0,-1010.0,168.5,-4.0,2.0,175667.0
13:18:09,RTL,0.0162116993451491,0.0013070002023596317,-2.5777857303619385,-0.12496395409107208,-0.0007457303581759334,0.0017228236247319728,-35.363262975,149.16523897500002,10316.0,7.75,-9.5,33.0,-1.0,-12.25,-1003.5,-119.25,3.0,4.5,226559.0
13:18:10,RTL,0.002185084391385317,0.004219510476104915,-2.57835853099823,-0.19486263394355774,0.010250479681417346,0.00015379092656075954,-35.3632632,149.16523934999998,9865.0,9.0,-14.0,35.0,1.5,14.0,-1004.0,-187.0,14.0,3.5,226559.0
13:18:12,RTL,-0.05284665711224079,0.010626382660120726,-2.5776069164276123,-0.9539831578731537,-0.003092049388214946,-0.00027626188239082694,-35.3632614,149.16523519999998,9178.0,-1.0,3.5,32.5,5.0,-44.5,-986.0,-947.5,1.0,2.5,210284.5
13:18:14,RTL,-0.047615354880690575,0.0034707379527390003,-2.576516628265381,-0.5105600357055664,-0.00039381347596645355,-0.0022752630757167935,-35.36325965,149.16523225,8812.5,-20.5,38.5,-7.0,-0.5,-19.0,-1005.0,-505.0,3.5,0.5,194010.0
13:18:15,RTL,-0.023157081101089716,0.0005795167089672759,-2.5764846801757812,0.13906137272715569,-0.0035521508543752134,-0.0009651040309108794,-35.363259875,149.16523297499998,8857.25,-22.0,41.0,-4.5,-3.25,8.0,-997.0,144.0,0.5,1.75,284941.0
13:18:16,RTL,0.006931565992999822,-0.0014381816145032644,-2.5776824951171875,0.5993822515010834,0.001276957569643855,-0.0024497471749782562,-35.36326095,149.16523535,8887.0,-16.0,28.5,-0.5,-2.0,28.5,-1015.5,604.0,5.0,1.0,284941.0
13:18:18,RTL,0.01312956539914012,0.0009598791075404733,-2.5762367248535156,-0.3031797958537936,0.001795485382899642,-0.004174858680926263,-35.363262500000005,149.165238,8838.0,-2.5,5.5,16.5,-2.5,-28.5,-984.5,-298.5,5.5,-1.0,288047.0
13:18:20,RTL,-0.004782912903465331,0.0047835237346589565,-2.577369451522827,-0.4120764806866646,0.0023720457684248686,0.004242016235366464,-35.363262950000006,149.1652385,8792.0,5.0,-7.5,-1.5,0.0,-9.5,-1001.5,-406.0,6.0,7.0,291153.0
13:18:21,RTL,0.0009836330100370105,0.0048297427129000425,-2.5773624181747437,0.06638077273964882,-0.0003613615990616381,0.0011355503229424357,-35.3632628,149.16523815,8793.75,5.0,-6.0,0.0,0.25,-2.0,-1005.25,71.5,3.5,4.0,281303.0
13:18:22,RTL,0.00788632920011878,0.003133938880637288,-2.5763837099075317,0.6356261223554611,-0.0005847320426255465,0.0015655051684007049,-35.3632626,149.1652379,8790.0,3.5,-3.0,0.5,0.0,19.5,-1003.5,640.5,3.5,4.5,281303.0
13:18:24,RTL,-0.013073932845145464,0.006111531518399715,-2.5770939588546753,-0.5075965970754623,0.0007438140455633402,-0.0001956119667738676,-35.3632622,149.16523705,8797.0,0.5,0.5,0.5,2.0,-38.5,-991.0,-502.0,4.5,2.5,210034.5
13:18:26,RTL,-0.03718114458024502,0.007788168033584952,-2.5766772031784058,-0.8172278702259064,-0.0019394763512536883,0.0001478525809943676,-35.3632612,149.1652348,8480.0,-7.5,17.0,36.0,2.5,-41.5,-1021.5,-812.5,1.5,3.0,138766.0
13:18:27,RTL,-0.030974730849266052,0.006420400808565319,-2.576123297214508,0.380402646958828,-0.0007177965017035604,0.003048215410672128,-35.36326067499999,149.165233925,8224.25,-11.25,23.0,32.25,2.0,18.25,-1004.25,385.0,3.25,6.5,11739.0
13:18:28,RTL,-0.04055950418114662,0.0039502226281911135,-2.576361894607544,-0.7856355905532837,-0.0009703256655484438,-0.0022147117415443063,-35.3632603,149.16523345000002,7806.5,-17.0,32.5,33.5,0.0,-28.5,-1002.5,-781.0,2.5,1.0,11739.0
13:18:30,RTL,-0.01478224853053689,-0.00034494465580792166,-2.576797366142273,-0.7871907353401184,0.004453497007489204,-0.0018551815301179886,-35.363261050000006,149.16523535,7127.5,-14.0,26.0,34.5,-2.5,-35.0,-996.0,-783.5,8.0,1.5,69588.5
13:18:32,RTL,-0.007497186306864023,0.002043263812083751,-2.5760048627853394,-0.8057234585285187,-0.0025982155930250883,0.002987413201481104,-35.3632623,149.16523745,6434.0,-3.0,8.5,32.0,-4.0,-26.0,-988.0,-801.0,2.0,6.0,127438.0
13:18:33,RTL,0.017422169796191156,0.0018641509668668732,-2.576383113861084,0.4580548256635666,0.0017650416120886803,-0.0018981379689648747,-35.36326285,149.16523834999998,6176.75,2.0,0.25,32.75,-1.5,38.25,-997.5,462.5,6.0,1.25,27540.0
13:18:34,RTL,0.005359490412956802,0.004089689580723643,-2.5759867429733276,-0.770259827375412,0.0018877603579312563,0.00259695912245661,-35.3632633,149.165239,5746.0,7.5,-8.5,34.0,-0.5,-43.0,-1001.5,-766.5,6.0,5.5,27540.0
13:18:36,RTL,0.019590570591390133,0.002567441901192069,-2.575783848762512,-0.6030627638101578,0.0041011248249560595,-0.002796728163957596,-35.36326365,149.16523975,5055.0,12.5,-15.5,34.5,-1.0,-38.5,-998.0,-599.5,8.5,0.5,124074.0
13:18:38,RTL,0.03643026761710644,0.002342605381272733,-2.576499819755554,-0.3510460779070854,0.0025236085057258606,3.949779784306884e-05,-35.3632644,149.16524135,4345.0,18.5,-27.0,31.5,-0.5,-37.5,-1003.5,-347.0,7.0,3.0,220608.0
13:18:39,RTL,0.021197111811488867,0.0037957917083986104,-2.576395869255066,-0.1429673433303833,0.0032431313302367926,0.0023580322158522904,-35.3632645,149.16524147500002,4091.75,21.25,-32.0,32.0,0.0,9.5,-1007.5,-137.0,7.25,5.25,202476.0
13:18:40,RTL,0.03153365384787321,0.0054206030908972025,-2.5764973163604736,0.10472968220710754,0.002873846562579274,0.00055499910376966,-35.363264349999994,149.1652411,3729.0,21.5,-32.0,30.0,1.0,-22.0,-971.0,109.0,7.0,3.5,202476.0
13:18:42,RTL,0.02325653564184904,0.004736254923045635,-2.576493978500366,0.3626796156167984,0.0026239396538585424,-0.0023901183158159256,-35.36326355,149.1652396,3035.5,16.0,-22.0,34.5,2.0,-10.5,-982.5,367.0,6.5,1.5,189506.0
13:18:44,RTL,0.021525703370571136,0.002982171718031168,-2.576338291168213,0.8534838259220123,0.0010231721680611372,0.0008541865972802043,-35.3632631,149.16523905000003,2259.5,11.0,-14.5,33.5,0.0,28.5,-996.5,859.0,5.0,4.0,176536.0
13:18:45,RTL,0.011726794793503359,0.0031087203533388674,-2.5762921571731567,-0.3638485223054886,-0.00011167698539793491,-0.0014928835444152355,-35.363263175,149.1652391,1994.75,10.0,-13.5,31.25,-0.5,-25.75,-1013.75,-358.0,4.25,1.5,233963.0
13:18:46,RTL,0.020135929808020592,0.004334287019446492,-2.5765985250473022,0.6708495169878006,0.004445772618055344,0.0036030454793944955,-35.363263149999995,149.16523905000003,1629.0,10.0,-14.5,26.5,0.5,18.5,-994.5,676.5,8.5,7.0,233963.0
13:18:48,RTL,-0.0031937801468302496,0.006721997167915106,-2.5760632753372192,0.7053640931844711,0.0023077232763171196,0.004435158451087773,-35.36326255,149.16523765,963.0,7.0,-9.0,32.0,1.0,43.5,-1016.0,712.5,6.5,7.5,163071.5
13:18:50,RTL,0.022098439745604992,5.4805001127533615e-05,-2.576090455055237,0.8253093957901001,-0.0015568881062790751,-0.0021481268340721726,-35.36326255,149.16523805,292.0,4.0,-1.5,34.0,-1.0,36.5,-1004.0,831.5,2.5,1.5,92180.0
13:18:51,RTL,0.01802921947091818,0.004485955025302246,-2.574533760547638,-0.007392890169285238,-0.002114939910825342,-0.0005241360631771386,-35.363262675,149.16523895,83.5,20.25,-7.25,18.75,4.75,-10.5,-988.25,-0.5,2.5,3.0,43708.0
13:18:52,RTL,0.009264301974326372,0.003090112004429102,-2.573310375213623,-0.003004965838044882,-0.0005127796903252602,0.0006931181997060776,-35.3632624,149.16523925,0.0,20.0,-13.0,11.5,0.0,1.0,-1000.0,4.0,4.0,4.0,43708.0
13:18:54,RTL,-0.003152777557261288,-5.9787731515825726e-05,-2.5744478702545166,-0.0032805094961076975,-0.0006359056569635868,0.0007134282495826483,-35.363262950000006,149.1652392,0.0,3.0,-7.0,7.5,0.0,1.0,-1000.0,4.0,4.0,4.0,43708.0
13:18:56,RTL,-0.01155691035091877,-0.0006820496346335858,-2.5748982429504395,-0.0034059013705700636,-0.0005516991950571537,0.0007070506690070033,-35.363263849999996,149.16523995,0.0,-8.5,4.0,4.5,0.0,1.0,-1000.0,3.5,4.0,4.0,43708.0
13:18:58,RTL,-0.01499109249562025,-0.00018008466577157378,-2.5745404958724976,-0.0032013116870075464,-0.0005822223611176014,0.000643298146314919,-35.363264349999994,149.16524065,0.0,-13.5,11.5,3.0,0.0,1.0,-1000.0,4.0,4.0,4.0,43708.0
