time_stamp,MODE,lat,lon,relative_alt,roll,pitch,yaw,rollspeed,pitchspeed,yawspeed,xacc,yacc,zacc,xgyro,ygyro,zgyro,vx,vy,vz,RTL_ALT
13:14:44.116,STABILIZE,-35.3632622,149.1652375,39,3.815499076154083e-05,0.0014912710757926106,0.02830449864268303,0.00023594239610247314,0.00021193735301494598,0.00235558208078146,0,1,-1000,0,0,0,-2,2,-1,1500.0
13:14:44.316,STABILIZE,-35.3632622,149.1652375,39,3.815499076154083e-05,0.0014912710757926106,0.02830449864268303,0.00023594239610247314,0.00021193735301494598,0.00235558208078146,0,1,-1000,0,0,0,-2,2,-1,1500.0
13:14:44.517,STABILIZE,-35.3632622,149.1652375,39,3.815499076154083e-05,0.0014912710757926106,0.02830449864268303,0.00023594239610247314,0.00021193735301494598,0.00235558208078146,0,1,-1000,0,0,0,-2,2,-1,1500.0
13:14:44.717,STABILIZE,-35.3632622,149.1652375,39,3.815499076154083e-05,0.0014912710757926106,0.02830449864268303,0.00023594239610247314,0.00021193735301494598,0.00235558208078146,0,1,-1000,0,0,0,-2,2,-1,1500.0
13:14:44.918,STABILIZE,-35.3632622,149.1652375,39,3.815499076154083e-05,0.0014912710757926106,0.02830449864268303,0.00023594239610247314,0.00021193735301494598,0.00235558208078146,0,1,-1000,0,0,0,-2,2,-1,1500.0
13:14:45.119,STABILIZE,-35.3632622,149.1652375,39,3.815499076154083e-05,0.0014912710757926106,0.02830449864268303,0.00023594239610247314,0.00021193735301494598,0.00235558208078146,0,1,-1000,0,0,0,-2,2,-1,1500.0
13:14:45.320,STABILIZE,-35.3632622,149.1652375,15,-0.00074153917375952,0.0011105809826403856,0.027133893221616745,0.00037080608308315277,0.00038863695226609707,0.0021262983791530132,0,1,-1000,0,0,1,-1,1,0,1500.0
13:14:45.521,STABILIZE,-35.3632622,149.1652375,15,-0.00074153917375952,0.0011105809826403856,0.027133893221616745,0.00037080608308315277,0.00038863695226609707,0.0021262983791530132,0,1,-1000,0,0,1,-1,1,0,1500.0
13:14:45.722,STABILIZE,-35.3632622,149.1652375,15,-0.00074153917375952,0.0011105809826403856,0.027133893221616745,0.00037080608308315277,0.00038863695226609707,0.0021262983791530132,0,1,-1000,0,0,1,-1,1,0,1500.0
13:14:45.924,STABILIZE,-35.3632622,149.1652375,15,-0.00074153917375952,0.0011105809826403856,0.027133893221616745,0.00037080608308315277,0.00038863695226609707,0.0021262983791530132,0,1,-1000,0,0,1,-1,1,0,1500.0
13:14:46.125,STABILIZE,-35.3632622,149.1652375,15,-0.00074153917375952,0.0011105809826403856,0.027133893221616745,0.00037080608308315277,0.00038863695226609707,0.0021262983791530132,0,1,-1000,0,0,1,-1,1,0,1500.0
13:14:46.327,STABILIZE,-35.3632622,149.1652375,15,-0.00074153917375952,0.0011105809826403856,0.027133893221616745,0.00037080608308315277,0.00038863695226609707,0.0021262983791530132,0,1,-1000,0,0,1,-1,1,0,1500.0
13:14:46.528,STABILIZE,-35.3632621,149.1652375,2,-0.0008572213700972497,0.000988225219771266,0.02648361213505268,5.169009091332555e-05,0.0002639926678966731,0.0021391548216342926,0,1,-1000,0,0,0,-1,1,0,1500.0
13:14:46.730,STABILIZE,-35.3632621,149.1652375,2,-0.0008572213700972497,0.000988225219771266,0.02648361213505268,5.169009091332555e-05,0.0002639926678966731,0.0021391548216342926,0,1,-1000,0,0,0,-1,1,0,1500.0
13:14:46.932,STABILIZE,-35.3632621,149.1652375,2,-0.0008572213700972497,0.000988225219771266,0.02648361213505268,5.169009091332555e-05,0.0002639926678966731,0.0021391548216342926,0,1,-1000,0,0,0,-1,1,0,1500.0
13:14:47.134,STABILIZE,-35.3632621,149.1652375,2,-0.0008572213700972497,0.000988225219771266,0.02648361213505268,5.169009091332555e-05,0.0002639926678966731,0.0021391548216342926,0,1,-1000,0,0,0,-1,1,0,1500.0
13:14:47.335,STABILIZE,-35.3632621,149.1652375,2,-0.0008572213700972497,0.000988225219771266,0.02648361213505268,5.169009091332555e-05,0.0002639926678966731,0.0021391548216342926,0,1,-1000,0,0,0,-1,1,0,1500.0
13:14:47.537,STABILIZE,-35.3632621,149.1652375,2,-0.0008572213700972497,0.000988225219771266,0.02648361213505268,5.169009091332555e-05,0.0002639926678966731,0.0021391548216342926,0,1,-1000,0,0,0,-1,1,0,1500.0
13:14:47.738,STABILIZE,-35.3632621,149.1652375,2,-0.0008572213700972497,0.000988225219771266,0.02648361213505268,5.169009091332555e-05,0.0002639926678966731,0.0021391548216342926,0,1,-1000,0,0,0,-1,1,0,1500.0
13:14:47.940,STABILIZE,-35.3632621,149.1652375,2,-0.0008572213700972497,0.000988225219771266,0.02648361213505268,5.169009091332555e-05,0.0002639926678966731,0.0021391548216342926,0,1,-1000,0,0,0,-1,1,0,1500.0
13:14:48.145,STABILIZE,-35.3632621,149.1652375,0,-0.0009824688313528895,0.0009621253702789545,0.02585531398653984,0.00021664309315383434,0.00023013705504126847,0.0018546716310083866,0,1,-1000,0,0,0,-1,0,0,1500.0
13:14:48.346,STABILIZE,-35.3632621,149.1652375,0,-0.0009824688313528895,0.0009621253702789545,0.02585531398653984,0.00021664309315383434,0.00023013705504126847,0.0018546716310083866,0,1,-1000,0,0,0,-1,0,0,1500.0
13:14:48.547,STABILIZE,-35.3632621,149.1652375,0,-0.0009979148162528872,0.0009535072604194283,0.025710750371217728,0.00021239632042124867,0.00019967148546129465,0.0019075177842751145,0,1,-1000,0,0,0,-1,0,0,1500.0
13:14:48.748,STABILIZE,-35.3632621,149.1652375,0,-0.0009979148162528872,0.0009535072604194283,0.025710750371217728,0.00021239632042124867,0.00019967148546129465,0.0019075177842751145,0,1,-1000,0,0,0,-1,0,0,1500.0
13:14:48.949,STABILIZE,-35.3632621,149.1652375,0,-0.00101743103004992,0.0009378224494867027,0.025573115795850754,0.0002523227012716234,0.0003276739444117993,0.0018910986836999655,0,1,-1000,0,0,0,-1,0,0,1500.0
13:14:49.151,STABILIZE,-35.3632621,149.1652375,0,-0.00101743103004992,0.0009378224494867027,0.025573115795850754,0.0002523227012716234,0.0003276739444117993,0.0018910986836999655,0,1,-1000,0,0,0,-1,0,0,1500.0
13:14:49.352,STABILIZE,-35.3632621,149.1652375,0,-0.00101743103004992,0.0009378224494867027,0.025573115795850754,0.0002523227012716234,0.0003276739444117993,0.0018910986836999655,0,1,-1000,0,0,0,-1,0,0,1500.0
13:14:49.553,STABILIZE,-35.3632621,149.1652375,0,-0.00101743103004992,0.0009378224494867027,0.025573115795850754,0.0002523227012716234,0.0003276739444117993,0.0018910986836999655,0,1,-1000,0,0,0,-1,0,0,1500.0
13:14:49.755,STABILIZE,-35.3632621,149.1652375,0,-0.00101743103004992,0.0009378224494867027,0.025573115795850754,0.0002523227012716234,0.0003276739444117993,0.0018910986836999655,0,1,-1000,0,0,0,-1,1,1,1500.0
13:14:49.956,STABILIZE,-35.3632621,149.1652375,0,-0.00101743103004992,0.0009378224494867027,0.025573115795850754,0.0002523227012716234,0.0003276739444117993,0.0018910986836999655,0,1,-1000,0,0,0,-1,1,1,1500.0
13:14:50.157,STABILIZE,-35.3632621,149.1652375,0,-0.00101743103004992,0.0009378224494867027,0.025573115795850754,0.0002523227012716234,0.0003276739444117993,0.0018910986836999655,0,1,-1000,0,0,0,-1,1,1,1500.0
13:14:50.358,STABILIZE,-35.3632621,149.1652375,0,-0.00101743103004992,0.0009378224494867027,0.025573115795850754,0.0002523227012716234,0.0003276739444117993,0.0018910986836999655,0,1,-1000,0,0,0,-1,1,1,1500.0
13:14:50.559,STABILIZE,-35.3632621,149.1652375,0,-0.00101743103004992,0.0009378224494867027,0.025573115795850754,0.0002523227012716234,0.0003276739444117993,0.0018910986836999655,0,1,-1000,0,1,0,-1,1,1,1500.0
13:14:50.761,STABILIZE,-35.3632621,149.1652375,0,-0.00101743103004992,0.0009378224494867027,0.025573115795850754,0.0002523227012716234,0.0003276739444117993,0.0018910986836999655,0,1,-1000,0,1,0,-1,1,1,1500.0
13:14:50.962,STABILIZE,-35.3632621,149.1652375,0,-0.00101743103004992,0.0009378224494867027,0.025573115795850754,0.0002523227012716234,0.0003276739444117993,0.0018910986836999655,0,1,-1000,0,1,0,-1,1,1,1500.0
13:14:51.163,STABILIZE,-35.3632621,149.1652375,0,-0.0009578075842000544,0.0009517258731648326,0.024779610335826874,0.000203102536033839,0.000270713004283607,0.0017541814595460892,0,1,-1000,0,0,0,-1,2,3,1500.0
13:14:51.364,STABILIZE,-35.3632621,149.1652375,0,-0.0010116493795067072,0.0009542977204546332,0.02469581365585327,0.00026779662584885955,0.0002782313385978341,0.0018467297777533531,0,1,-1000,0,0,1,-1,2,3,1500.0
13:14:51.565,STABILIZE,-35.3632621,149.1652375,0,-0.0010116493795067072,0.0009542977204546332,0.02469581365585327,0.00026779662584885955,0.0002782313385978341,0.0018467297777533531,0,1,-1000,0,0,1,-1,2,3,1500.0
13:14:51.767,STABILIZE,-35.3632621,149.1652375,0,-0.0010116493795067072,0.0009542977204546332,0.02469581365585327,0.00026779662584885955,0.0002782313385978341,0.0018467297777533531,0,1,-1000,0,0,1,-1,2,3,1500.0
13:14:51.968,STABILIZE,-35.3632621,149.1652375,0,-0.0010116493795067072,0.0009542977204546332,0.02469581365585327,0.00026779662584885955,0.0002782313385978341,0.0018467297777533531,0,1,-1000,0,0,1,-1,2,3,1500.0
13:14:52.169,STABILIZE,-35.3632621,149.1652375,0,-0.0010116493795067072,0.0009542977204546332,0.02469581365585327,0.00026779662584885955,0.0002782313385978341,0.0018467297777533531,0,1,-1000,0,0,1,-1,2,3,1500.0
13:14:52.370,STABILIZE,-35.3632621,149.1652375,0,-0.0010116493795067072,0.0009542977204546332,0.02469581365585327,0.00026779662584885955,0.0002782313385978341,0.0018467297777533531,0,1,-1000,0,0,1,-1,2,3,1500.0
13:14:52.571,STABILIZE,-35.3632621,149.1652375,0,-0.0010116493795067072,0.0009542977204546332,0.02469581365585327,0.00026779662584885955,0.0002782313385978341,0.0018467297777533531,0,1,-1000,0,0,1,-1,2,3,1500.0
13:14:52.773,STABILIZE,-35.3632621,149.1652375,0,-0.0010116493795067072,0.0009542977204546332,0.02469581365585327,0.00026779662584885955,0.0002782313385978341,0.0018467297777533531,0,1,-1000,0,0,1,-1,2,3,1500.0
13:14:52.974,STABILIZE,-35.3632621,149.1652375,0,-0.0010116493795067072,0.0009542977204546332,0.02469581365585327,0.00026779662584885955,0.0002782313385978341,0.0018467297777533531,0,1,-1000,0,0,1,-1,2,3,1500.0
13:14:53.175,STABILIZE,-35.3632621,149.1652375,0,-0.0010116493795067072,0.0009542977204546332,0.02469581365585327,0.00026779662584885955,0.0002782313385978341,0.0018467297777533531,0,1,-1000,0,0,1,-1,2,3,1500.0
13:14:53.376,STABILIZE,-35.3632622,149.1652375,0,-0.0013389550149440765,0.0009619321790523827,0.024085449054837227,0.0002363228122703731,0.00018658238695934415,0.0016789004439488053,0,2,-1000,0,1,0,-1,1,1,1500.0
13:14:53.577,STABILIZE,-35.3632622,149.1652375,0,-0.0013389550149440765,0.0009619321790523827,0.024085449054837227,0.0002363228122703731,0.00018658238695934415,0.0016789004439488053,0,1,-1000,0,0,0,-1,1,1,1500.0
13:14:53.779,STABILIZE,-35.3632622,149.1652375,0,-0.0012026820331811905,0.0009688622085377574,0.023967880755662918,0.00021521496819332242,0.00021336838835850358,0.0017262804321944714,0,1,-1000,0,0,1,-1,0,1,1500.0
13:14:53.980,STABILIZE,-35.3632622,149.1652375,0,-0.0012026820331811905,0.0009688622085377574,0.023967880755662918,0.00021521496819332242,0.00021336838835850358,0.0017262804321944714,0,1,-1000,0,0,1,-1,0,1,1500.0
13:14:54.181,STABILIZE,-35.3632622,149.1652375,0,-0.0012026820331811905,0.0009688622085377574,0.023967880755662918,0.00021521496819332242,0.00021336838835850358,0.0017262804321944714,0,1,-1000,0,0,1,-1,0,1,1500.0
13:14:54.382,STABILIZE,-35.3632622,149.1652375,0,-0.0012026820331811905,0.0009688622085377574,0.023967880755662918,0.00021521496819332242,0.00021336838835850358,0.0017262804321944714,0,1,-1000,0,0,1,-1,0,1,1500.0
13:14:54.583,STABILIZE,-35.3632622,149.1652375,0,-0.0012026820331811905,0.0009688622085377574,0.023967880755662918,0.00021521496819332242,0.00021336838835850358,0.0017262804321944714,0,2,-1000,1,0,1,-1,0,1,1500.0
13:14:54.784,STABILIZE,-35.3632622,149.1652375,0,-0.0012156652519479394,0.0009683322277851403,0.023714032024145126,0.00029797881143167615,0.00032795622246339917,0.0017563074361532927,0,1,-1000,0,1,0,-1,0,1,1500.0
13:14:54.985,STABILIZE,-35.3632622,149.1652375,0,-0.0012156652519479394,0.0009683322277851403,0.023714032024145126,0.00029797881143167615,0.00032795622246339917,0.0017563074361532927,0,1,-1000,0,1,0,-1,0,1,1500.0
13:14:55.186,STABILIZE,-35.3632622,149.1652375,0,-0.0012156652519479394,0.0009683322277851403,0.023714032024145126,0.00029797881143167615,0.00032795622246339917,0.0017563074361532927,0,1,-1000,0,1,0,-1,0,1,1500.0
13:14:55.388,STABILIZE,-35.3632622,149.1652375,0,-0.0012139821192249656,0.0009657221380621195,0.02360101416707039,0.00030575203709304333,0.0002051941119134426,0.0016599985538050532,0,1,-1000,0,1,1,-1,0,0,1500.0
13:14:55.589,STABILIZE,-35.3632622,149.1652375,0,-0.0012139821192249656,0.0009657221380621195,0.02360101416707039,0.00030575203709304333,0.0002051941119134426,0.0016599985538050532,0,2,-1000,0,1,0,-1,0,0,1500.0
13:14:55.790,STABILIZE,-35.3632622,149.1652375,0,-0.0012139821192249656,0.0009657221380621195,0.02360101416707039,0.00030575203709304333,0.0002051941119134426,0.0016599985538050532,0,2,-1000,0,1,0,-1,0,0,1500.0
13:14:55.991,STABILIZE,-35.3632622,149.1652375,0,-0.0012139821192249656,0.0009657221380621195,0.02360101416707039,0.00030575203709304333,0.0002051941119134426,0.0016599985538050532,0,2,-1000,0,1,0,-1,0,0,1500.0
13:14:56.192,STABILIZE,-35.3632622,149.1652375,0,-0.0012139821192249656,0.0009657221380621195,0.02360101416707039,0.00030575203709304333,0.0002051941119134426,0.0016599985538050532,0,2,-1000,0,1,0,-1,0,0,1500.0
13:14:56.394,STABILIZE,-35.3632622,149.1652375,0,-0.0012139821192249656,0.0009657221380621195,0.02360101416707039,0.00030575203709304333,0.0002051941119134426,0.0016599985538050532,0,2,-1000,0,1,0,-1,0,0,1500.0
13:14:56.595,STABILIZE,-35.3632622,149.1652375,0,-0.0012045977637171745,0.000981148798018694,0.023291347548365593,0.0002357432385906577,0.00019997690105810761,0.0017112884670495987,0,2,-1000,0,1,0,-1,0,0,1500.0
13:14:56.796,STABILIZE,-35.3632622,149.1652375,0,-0.0012045977637171745,0.000981148798018694,0.023291347548365593,0.0002357432385906577,0.00019997690105810761,0.0017112884670495987,0,2,-1000,0,1,0,-1,0,0,1500.0
13:14:56.997,STABILIZE,-35.3632622,149.1652375,0,-0.0012045977637171745,0.000981148798018694,0.023291347548365593,0.0002357432385906577,0.00019997690105810761,0.0017112884670495987,0,2,-1000,0,1,0,-1,0,0,1500.0
13:14:57.199,STABILIZE,-35.3632622,149.1652375,0,-0.0012045977637171745,0.000981148798018694,0.023291347548365593,0.0002357432385906577,0.00019997690105810761,0.0017112884670495987,0,2,-1000,0,1,0,-1,0,0,1500.0
13:14:57.400,STABILIZE,-35.3632622,149.1652375,0,-0.000797231332398951,0.0009803413413465023,0.02310383878648281,0.00024148449301719666,0.000269848620519042,0.0015063444152474403,0,1,-1000,0,0,0,-1,2,3,1500.0
13:14:57.602,STABILIZE,-35.3632622,149.1652375,0,-0.000797231332398951,0.0009803413413465023,0.02310383878648281,0.00024148449301719666,0.000269848620519042,0.0015063444152474403,0,1,-1000,0,0,0,-1,2,3,1500.0
13:14:57.803,STABILIZE,-35.3632622,149.1652375,0,-0.000797231332398951,0.0009803413413465023,0.02310383878648281,0.00024148449301719666,0.000269848620519042,0.0015063444152474403,0,1,-1000,0,0,0,-1,2,3,1500.0
13:14:58.004,STABILIZE,-35.3632622,149.1652375,0,-0.000797231332398951,0.0009803413413465023,0.02310383878648281,0.00024148449301719666,0.000269848620519042,0.0015063444152474403,0,1,-1000,0,0,0,-1,2,3,1500.0
13:14:58.208,STABILIZE,-35.3632622,149.1652375,0,-0.000797231332398951,0.0009803413413465023,0.02310383878648281,0.00024148449301719666,0.000269848620519042,0.0015063444152474403,0,1,-1000,0,0,0,-1,2,3,1500.0
13:14:58.423,STABILIZE,-35.3632622,149.1652375,0,-0.000797231332398951,0.0009803413413465023,0.02310383878648281,0.00024148449301719666,0.000269848620519042,0.0015063444152474403,0,1,-1000,0,0,0,-1,2,3,1500.0
13:14:58.625,STABILIZE,-35.3632622,149.1652375,0,-0.001070615486241877,0.001000996446236968,0.02278047613799572,0.0003666246775537729,0.0002761699724942446,0.001504153711721301,0,1,-1000,0,0,0,-1,1,1,1500.0
13:14:58.826,STABILIZE,-35.3632622,149.1652375,0,-0.001070615486241877,0.001000996446236968,0.02278047613799572,0.0003666246775537729,0.0002761699724942446,0.001504153711721301,0,1,-1000,1,0,1,-1,1,1,1500.0
13:14:59.027,STABILIZE,-35.3632622,149.1652375,0,-0.001070615486241877,0.001000996446236968,0.02278047613799572,0.0003666246775537729,0.0002761699724942446,0.001504153711721301,0,1,-1000,1,0,1,-1,1,1,1500.0
13:14:59.228,STABILIZE,-35.3632622,149.1652375,0,-0.001070615486241877,0.001000996446236968,0.02278047613799572,0.0003666246775537729,0.0002761699724942446,0.001504153711721301,0,1,-1000,1,0,1,-1,1,1,1500.0
13:14:59.429,STABILIZE,-35.3632622,149.1652375,0,-0.001070615486241877,0.001000996446236968,0.02278047613799572,0.0003666246775537729,0.0002761699724942446,0.001504153711721301,0,1,-1000,1,0,1,-1,1,1,1500.0
13:14:59.631,STABILIZE,-35.3632622,149.1652375,0,-0.001070615486241877,0.001000996446236968,0.02278047613799572,0.0003666246775537729,0.0002761699724942446,0.001504153711721301,0,1,-1000,1,0,1,-1,1,1,1500.0
13:14:59.832,STABILIZE,-35.3632622,149.1652375,0,-0.001070615486241877,0.001000996446236968,0.02278047613799572,0.0003666246775537729,0.0002761699724942446,0.001504153711721301,0,1,-1000,0,1,1,-1,1,0,1500.0
13:15:00.035,STABILIZE,-35.3632622,149.1652375,0,-0.001070615486241877,0.001000996446236968,0.02278047613799572,0.0003666246775537729,0.0002761699724942446,0.001504153711721301,0,1,-1000,0,1,1,-1,1,0,1500.0
13:15:00.236,STABILIZE,-35.3632622,149.1652375,0,-0.001070615486241877,0.001000996446236968,0.02278047613799572,0.0003666246775537729,0.0002761699724942446,0.001504153711721301,0,1,-1000,0,1,1,-1,1,0,1500.0
13:15:00.437,STABILIZE,-35.3632622,149.1652375,0,-0.001070615486241877,0.001000996446236968,0.02278047613799572,0.0003666246775537729,0.0002761699724942446,0.001504153711721301,0,1,-1000,0,1,1,-1,1,0,1500.0
13:15:00.638,STABILIZE,-35.3632622,149.1652375,0,-0.001070615486241877,0.001000996446236968,0.02278047613799572,0.0003666246775537729,0.0002761699724942446,0.001504153711721301,0,1,-1000,0,1,1,-1,1,0,1500.0
13:15:00.839,STABILIZE,-35.3632622,149.1652375,0,-0.001070615486241877,0.001000996446236968,0.02278047613799572,0.0003666246775537729,0.0002761699724942446,0.001504153711721301,0,2,-1000,0,1,0,-1,1,0,1500.0
13:15:01.040,STABILIZE,-35.3632622,149.1652375,0,-0.001070615486241877,0.001000996446236968,0.02278047613799572,0.0003666246775537729,0.0002761699724942446,0.001504153711721301,0,2,-1000,0,1,1,-1,1,0,1500.0
13:15:01.241,STABILIZE,-35.3632622,149.1652375,0,-0.001070615486241877,0.001000996446236968,0.02278047613799572,0.0003666246775537729,0.0002761699724942446,0.001504153711721301,0,2,-1000,0,1,1,-1,1,0,1500.0
13:15:01.442,STABILIZE,-35.3632622,149.1652375,0,-0.001070615486241877,0.001000996446236968,0.02278047613799572,0.0003666246775537729,0.0002761699724942446,0.001504153711721301,0,2,-1000,0,1,1,-1,1,0,1500.0
13:15:01.644,STABILIZE,-35.3632622,149.1652375,0,-0.001070615486241877,0.001000996446236968,0.02278047613799572,0.0003666246775537729,0.0002761699724942446,0.001504153711721301,0,2,-1000,0,1,1,-1,1,0,1500.0
13:15:01.845,STABILIZE,-35.3632622,149.1652375,0,-0.0011267306981608272,0.0010011966805905104,0.02211119420826435,0.00029944279231131077,0.000276239647064358,0.001463190303184092,0,1,-1000,1,1,0,-1,1,0,1500.0
13:15:02.046,STABILIZE,-35.3632622,149.1652375,0,-0.0011267306981608272,0.0010011966805905104,0.02211119420826435,0.00029944279231131077,0.000276239647064358,0.001463190303184092,0,1,-1000,1,1,0,-1,1,0,1500.0
13:15:02.247,STABILIZE,-35.3632622,149.1652375,0,-0.0011267306981608272,0.0010011966805905104,0.02211119420826435,0.00029944279231131077,0.000276239647064358,0.001463190303184092,0,1,-1000,1,1,0,-1,1,0,1500.0
13:15:02.448,STABILIZE,-35.3632622,149.1652375,0,-0.0011267306981608272,0.0010011966805905104,0.02211119420826435,0.00029944279231131077,0.000276239647064358,0.001463190303184092,0,1,-1000,1,1,0,-1,1,0,1500.0
13:15:02.649,STABILIZE,-35.3632622,149.1652375,0,-0.0011267306981608272,0.0010011966805905104,0.02211119420826435,0.00029944279231131077,0.000276239647064358,0.001463190303184092,0,1,-1000,1,1,0,-1,1,0,1500.0
13:15:02.851,STABILIZE,-35.3632622,149.1652375,0,-0.0011528368340805173,0.000996258924715221,0.02195068448781967,0.00010306050535291433,0.00021642877254635096,0.001417789375409484,0,1,-1000,0,1,1,-1,1,0,1500.0
13:15:03.052,AUTO,-35.3632622,149.1652375,0,-0.0011742657516151667,0.0009916366543620825,0.021900223568081856,0.00021041091531515121,0.00017362600192427635,0.0014541320269927382,0,1,-1000,1,0,1,-1,1,0,1500.0
13:15:03.254,AUTO,-35.3632622,149.1652375,5,-0.001195462653413415,0.0009902863530442119,0.021863659843802452,0.00021787936566397548,0.00021272338926792145,0.0013896909076720476,0,2,-1000,1,1,0,-1,1,0,75166.0
13:15:03.455,AUTO,-35.3632622,149.1652375,5,-0.001195462653413415,0.0009902863530442119,0.021863659843802452,0.00021787936566397548,0.00021272338926792145,0.0013896909076720476,0,2,-1000,1,1,0,-1,1,0,75166.0
13:15:03.657,AUTO,-35.3632622,149.1652375,6,-0.0011972093489021063,0.0009998433524742723,0.0218289103358984,0.0002868720330297947,0.0003086555516347289,0.0013810101663693786,0,2,-1000,0,0,0,-1,1,0,75166.0
13:15:03.858,AUTO,-35.3632622,149.1652375,6,-0.0010361463064327836,0.001006295788101852,0.021790742874145508,0.00013930973364040256,0.00031125237001106143,0.0013864695793017745,0,0,-1001,0,0,1,-1,0,0,75166.0
13:15:04.060,AUTO,-35.3632622,149.1652375,6,-0.0010361463064327836,0.001006295788101852,0.021790742874145508,0.00013930973364040256,0.00031125237001106143,0.0013864695793017745,0,0,-1001,0,0,1,-1,0,0,75166.0
13:15:04.262,AUTO,-35.3632622,149.1652375,6,-0.0010361463064327836,0.001006295788101852,0.021790742874145508,0.00013930973364040256,0.00031125237001106143,0.0013864695793017745,0,0,-1001,0,0,1,-1,0,0,75166.0
13:15:04.463,AUTO,-35.3632622,149.1652375,6,-0.0010361463064327836,0.001006295788101852,0.021790742874145508,0.00013930973364040256,0.00031125237001106143,0.0013864695793017745,0,0,-1001,0,0,1,-1,0,0,75166.0
13:15:04.665,AUTO,-35.3632621,149.1652375,8,-0.0009897270938381553,0.001116825034841895,0.021668942645192146,0.00021065381588414311,0.00018595525762066245,0.0014293647836893797,0,1,-1000,0,1,1,0,0,0,75166.0
13:15:04.866,AUTO,-35.3632621,149.1652375,9,-0.0009467930649407208,0.0011723630595952272,0.021627703681588173,0.0002795304171741009,0.00030009058536961675,0.0013100213836878538,0,1,-1000,1,0,0,0,0,0,75166.0
13:15:05.068,AUTO,-35.3632621,149.1652375,9,-0.0008960812701843679,0.0012363288551568985,0.02158275619149208,0.00028630613815039396,0.00023745838552713394,0.00146328448317945,0,1,-1000,1,1,0,0,0,0,75166.0
13:15:05.270,AUTO,-35.3632621,149.1652375,10,-0.0008537483518011868,0.0013046235544607043,0.021542886272072792,0.00024893402587622404,0.0003027805360034108,0.0013440718175843358,0,1,-1000,0,1,1,0,0,0,75166.0
13:15:05.471,AUTO,-35.3632621,149.1652375,10,-0.0008537483518011868,0.0013046235544607043,0.021542886272072792,0.00024893402587622404,0.0003027805360034108,0.0013440718175843358,0,1,-1000,0,1,1,0,0,0,75166.0
13:15:05.673,AUTO,-35.3632621,149.1652375,11,-0.0008055011858232319,0.0013775033876299858,0.021485229954123497,0.00016554765170440078,0.0002035667421296239,0.0013432013802230358,0,2,-1000,0,1,1,0,0,0,75166.0
13:15:05.875,AUTO,-35.3632621,149.1652375,11,-0.0007530695875175297,0.001449846662580967,0.021434618160128593,0.0002665096544660628,0.00035196542739868164,0.001378138200379908,0,2,-1000,1,1,1,0,0,0,75166.0
13:15:06.076,AUTO,-35.3632621,149.1652375,11,-0.0007530695875175297,0.001449846662580967,0.021434618160128593,0.0002665096544660628,0.00035196542739868164,0.001378138200379908,0,2,-1000,1,1,1,0,0,0,42129.0
13:15:06.278,AUTO,-35.3632621,149.1652375,11,-0.0007530695875175297,0.001449846662580967,0.021434618160128593,0.0002665096544660628,0.00035196542739868164,0.001378138200379908,0,2,-1000,1,1,1,0,0,0,42129.0
13:15:06.480,AUTO,-35.3632621,149.1652375,11,-0.0007530695875175297,0.001449846662580967,0.021434618160128593,0.0002665096544660628,0.00035196542739868164,0.001378138200379908,0,2,-1000,1,1,1,0,0,0,42129.0
13:15:06.681,AUTO,-35.3632621,149.1652375,13,-0.0005726989475078881,0.0016601309180259705,0.021268896758556366,0.0002623245236463845,0.0003123137285001576,0.001352200866676867,0,2,-1000,1,1,1,0,0,0,42129.0
13:15:06.883,AUTO,-35.3632621,149.1652375,14,-0.0005089969490654767,0.0017444508848711848,0.021205106750130653,0.0003047949285246432,0.00033258000621572137,0.0013289027847349644,0,2,-1000,0,1,0,0,0,0,42129.0
13:15:07.084,AUTO,-35.3632621,149.1652375,38,0.0026575473602861166,6.752851913915947e-05,0.021267810836434364,0.012935366481542587,-0.007947065867483616,0.0016533269081264734,0,0,-1171,13,-6,1,0,0,-27,42129.0
13:15:07.286,AUTO,-35.3632621,149.1652375,158,0.0031040606554597616,-0.0003378970141056925,0.021201224997639656,-0.010364688001573086,0.003279073629528284,0.0013258475810289383,0,0,-1152,-9,3,1,0,0,-67,42129.0
13:15:07.487,AUTO,-35.3632621,149.1652375,158,0.0031040606554597616,-0.0003378970141056925,0.021201224997639656,-0.010364688001573086,0.003279073629528284,0.0013258475810289383,0,0,-1152,-9,3,1,0,0,-67,42129.0
13:15:07.689,AUTO,-35.3632621,149.1652375,365,0.0022070975974202156,0.0008549211779609323,0.02110311947762966,0.003202729858458042,0.0047888364642858505,0.0009361355914734304,0,0,-1118,4,5,0,0,1,-99,42129.0
13:15:07.891,AUTO,-35.3632621,149.1652375,645,0.001294691814109683,0.0016080716159194708,0.021087676286697388,-0.0033859515096992254,0.0034749628975987434,0.001631671329960227,0,0,-1083,-2,4,1,0,1,-123,42129.0
13:15:08.093,AUTO,-35.3632621,149.1652375,645,0.001294691814109683,0.0016080716159194708,0.021087676286697388,-0.0033859515096992254,0.0034749628975987434,0.001631671329960227,0,0,-1083,-2,4,1,0,1,-123,42129.0
13:15:08.294,AUTO,-35.3632621,149.1652375,645,0.001294691814109683,0.0016080716159194708,0.021087676286697388,-0.0033859515096992254,0.0034749628975987434,0.001631671329960227,0,0,-1083,-2,4,1,0,1,-123,42129.0
13:15:08.496,AUTO,-35.3632621,149.1652375,645,0.001294691814109683,0.0016080716159194708,0.021087676286697388,-0.0033859515096992254,0.0034749628975987434,0.001631671329960227,0,0,-1083,-2,4,1,0,1,-123,42129.0
13:15:08.698,AUTO,-35.363262,149.1652375,1715,0.00037588216946460307,0.002986941719427705,0.020825013518333435,-0.001494076568633318,0.0021475995890796185,0.0005499909166246653,0,0,-1001,0,2,0,0,0,-144,42129.0
13:15:08.899,AUTO,-35.363262,149.1652375,2088,0.0006533882115036249,0.0032321650069206953,0.02122541330754757,0.0020700120367109776,-0.0003712284960784018,0.0022651252802461386,0,0,-1008,2,0,2,0,0,-146,42129.0
13:15:09.102,AUTO,-35.363262,149.1652375,2468,0.006827016361057758,0.0025004486087709665,0.021037334576249123,0.04407304525375366,-0.0050016166642308235,0.0016115347389131784,0,0,-1009,44,-4,1,0,0,-148,131772.0
13:15:09.303,AUTO,-35.363262,149.1652375,2853,0.01845051534473896,0.0010201267432421446,-0.006296399049460888,0.04691537469625473,-0.006988838315010071,0.0023069463204592466,0,0,-1004,47,-6,2,0,2,-150,131772.0
13:15:09.505,AUTO,-35.363262,149.1652375,2853,0.01845051534473896,0.0010201267432421446,-0.006296399049460888,0.04691537469625473,-0.006988838315010071,0.0023069463204592466,0,0,-1004,47,-6,2,0,2,-150,131772.0
13:15:09.707,AUTO,-35.363262,149.1652375,3238,0.030018426477909088,-0.0009115738794207573,-0.0058030784130096436,0.04578652232885361,-0.007663224823772907,0.0029400570783764124,0,0,-1001,46,-6,2,0,8,-150,131772.0
13:15:09.908,AUTO,-35.3632619,149.1652378,3626,0.04119199886918068,-0.003123680129647255,-0.005305533297359943,0.043583087623119354,-0.008989724330604076,0.0034624950494617224,0,-1,-1000,44,-8,3,1,16,-151,131772.0
13:15:10.121,AUTO,-35.3632619,149.1652378,3626,0.04119199886918068,-0.003123680129647255,-0.005305533297359943,0.043583087623119354,-0.008989724330604076,0.0034624950494617224,0,-1,-1000,44,-8,3,1,16,-151,131772.0
13:15:10.322,AUTO,-35.3632619,149.1652378,3626,0.04119199886918068,-0.003123680129647255,-0.005305533297359943,0.043583087623119354,-0.008989724330604076,0.0034624950494617224,0,-1,-1000,44,-8,3,1,16,-151,131772.0
13:15:10.524,AUTO,-35.3632615,149.1652404,4784,0.05560256168246269,0.0008502366254106164,-0.01911924034357071,-0.07921961694955826,0.09376201778650284,-0.10354766249656677,2,-9,-991,-78,94,-103,9,50,-148,131772.0
13:15:10.727,AUTO,-35.3632615,149.1652404,4784,0.05560256168246269,0.0008502366254106164,-0.01911924034357071,-0.07921961694955826,0.09376201778650284,-0.10354766249656677,2,-9,-991,-78,94,-103,9,50,-148,131772.0
13:15:10.929,AUTO,-35.3632613,149.1652418,5162,0.020829418674111366,0.024661414325237274,-0.04797906428575516,-0.13172897696495056,0.10538354516029358,-0.15487641096115112,4,-12,-1001,-130,106,-154,7,56,-146,131772.0
13:15:11.130,AUTO,-35.3632612,149.1652433,5541,-0.0016757516423240304,0.051011815667152405,-0.08835186809301376,-0.03391873463988304,0.06658251583576202,-0.14603519439697266,5,-10,-1009,-33,67,-146,0,55,-148,131772.0
13:15:11.332,AUTO,-35.3632613,149.1652447,5927,-0.005002171266824007,0.057875607162714005,-0.12080617249011993,0.009377815760672092,0.0044575766660273075,-0.11184261739253998,7,-11,-1005,10,5,-112,-12,51,-150,131772.0
13:15:11.534,AUTO,-35.3632616,149.1652461,6311,-0.01458874810487032,0.0561712272465229,-0.14699265360832214,-0.06890033930540085,-0.014812971465289593,-0.09171871095895767,10,-5,-997,-68,-14,-91,-23,49,-149,131772.0
13:15:11.736,AUTO,-35.3632616,149.1652461,6311,-0.01458874810487032,0.0561712272465229,-0.14699265360832214,-0.06890033930540085,-0.014812971465289593,-0.09171871095895767,10,-5,-997,-68,-14,-91,-23,49,-149,131772.0
13:15:11.940,AUTO,-35.3632622,149.1652473,6693,-0.03872276097536087,0.049154914915561676,-0.16466201841831207,-0.11732283979654312,-0.04898028075695038,-0.0035470216535031796,12,-5,-996,-116,-48,-3,-34,42,-148,131772.0
13:15:12.142,AUTO,-35.3632622,149.1652473,6693,-0.03872276097536087,0.049154914915561676,-0.16466201841831207,-0.11732283979654312,-0.04898028075695038,-0.0035470216535031796,12,-5,-996,-116,-48,-3,-34,42,-148,97356.0
13:15:12.343,AUTO,-35.3632622,149.1652473,6693,-0.03872276097536087,0.049154914915561676,-0.16466201841831207,-0.11732283979654312,-0.04898028075695038,-0.0035470216535031796,12,-5,-996,-116,-48,-3,-34,42,-148,97356.0
13:15:12.545,AUTO,-35.3632645,149.1652488,7839,-0.07366111874580383,-0.042817384004592896,-0.10312950611114502,0.01852254383265972,-0.07556071877479553,0.08028481155633926,7,3,-1005,19,-74,80,-28,-8,-151,97356.0
13:15:12.747,AUTO,-35.3632645,149.1652488,7839,-0.07366111874580383,-0.042817384004592896,-0.10312950611114502,0.01852254383265972,-0.07556071877479553,0.08028481155633926,7,3,-1005,19,-74,80,-28,-8,-151,97356.0
13:15:12.949,AUTO,-35.363265,149.1652485,8226,-0.06719615310430527,-0.05597468465566635,-0.08382830023765564,0.04220753163099289,-0.041576188057661057,0.06386837363243103,2,6,-1003,42,-40,63,-16,-26,-151,97356.0
13:15:13.151,AUTO,-35.3632652,149.1652475,8612,-0.05423404648900032,-0.06024164706468582,-0.069798044860363,0.05898059159517288,-0.008397146128118038,0.047689903527498245,-1,7,-1001,59,-7,47,-2,-41,-151,97356.0
13:15:13.352,AUTO,-35.3632651,149.1652462,8998,-0.039915360510349274,-0.05977436900138855,-0.059125661849975586,0.060539837926626205,0.006491702515631914,0.03689723089337349,-5,9,-1000,61,7,36,10,-51,-150,97356.0
13:15:13.554,AUTO,-35.3632647,149.1652447,9382,-0.025150679051876068,-0.05628751590847969,-0.0516507625579834,0.06119455024600029,0.01805274747312069,0.02835857681930065,-10,9,-1001,62,18,28,23,-58,-150,97356.0
13:15:13.756,AUTO,-35.3632647,149.1652447,9382,-0.025150679051876068,-0.05628751590847969,-0.0516507625579834,0.06119455024600029,0.01805274747312069,0.02835857681930065,-10,9,-1001,62,18,28,23,-58,-150,97356.0
13:15:13.958,AUTO,-35.3632642,149.165243,9765,-0.010835614055395126,-0.049877431243658066,-0.04699760675430298,0.050455234944820404,0.03605842962861061,0.0104518486186862,-12,8,-1000,51,36,10,33,-62,-150,97356.0
13:15:14.161,AUTO,-35.3632642,149.165243,9765,-0.010835614055395126,-0.049877431243658066,-0.04699760675430298,0.050455234944820404,0.03605842962861061,0.0104518486186862,-12,8,-1000,51,36,10,33,-62,-150,97356.0
13:15:14.363,AUTO,-35.3632642,149.165243,9765,-0.010835614055395126,-0.049877431243658066,-0.04699760675430298,0.050455234944820404,0.03605842962861061,0.0104518486186862,-12,8,-1000,51,36,10,33,-62,-150,97356.0
13:15:14.565,AUTO,-35.3632613,149.1652378,10919,0.014937628991901875,-0.000999009469524026,-0.06319376081228256,0.04053335636854172,0.0648677721619606,-0.032775700092315674,-16,5,-1005,41,65,-32,43,-57,-152,97356.0
13:15:14.766,AUTO,-35.3632604,149.1652362,11309,0.024592913687229156,0.014762189239263535,-0.07213026285171509,0.04020170867443085,0.05974797159433365,-0.03269403427839279,-17,5,-1005,40,60,-33,39,-51,-153,97356.0
13:15:14.968,AUTO,-35.3632604,149.1652362,11309,0.024592913687229156,0.014762189239263535,-0.07213026285171509,0.04020170867443085,0.05974797159433365,-0.03269403427839279,-17,5,-1005,40,60,-33,39,-51,-153,97356.0
13:15:15.170,AUTO,-35.3632596,149.1652349,11701,0.034718893468379974,0.028801724314689636,-0.08098112791776657,0.041802313178777695,0.05222678929567337,-0.0349326990544796,-15,5,-1004,42,52,-35,31,-43,-154,234645.0
13:15:15.371,AUTO,-35.3632589,149.1652338,12095,0.04460694640874863,0.04098201170563698,-0.08988207578659058,0.038506634533405304,0.045780427753925323,-0.037234023213386536,-11,4,-1003,39,46,-37,21,-32,-155,234645.0
13:15:15.573,AUTO,-35.3632585,149.165233,12490,0.05322888866066933,0.05181051418185234,-0.09927821904420853,0.03434615582227707,0.03864830732345581,-0.03873410075902939,-7,2,-1001,34,39,-38,9,-18,-155,234645.0
13:15:15.775,AUTO,-35.3632584,149.1652326,12885,0.06049516052007675,0.06103566661477089,-0.10977587103843689,0.03062257543206215,0.03047037124633789,-0.04274944216012955,-4,2,-999,31,31,-42,-2,-3,-154,234645.0
13:15:15.977,AUTO,-35.3632584,149.1652326,12885,0.06049516052007675,0.06103566661477089,-0.10977587103843689,0.03062257543206215,0.03047037124633789,-0.04274944216012955,-4,2,-999,31,31,-42,-2,-3,-154,234645.0
13:15:16.180,AUTO,-35.3632584,149.1652326,12885,0.06049516052007675,0.06103566661477089,-0.10977587103843689,0.03062257543206215,0.03047037124633789,-0.04274944216012955,-4,2,-999,31,31,-42,-2,-3,-154,234645.0
13:15:16.382,AUTO,-35.3632584,149.1652326,12885,0.06049516052007675,0.06103566661477089,-0.10977587103843689,0.03062257543206215,0.03047037124633789,-0.04274944216012955,-4,2,-999,31,31,-42,-2,-3,-154,234645.0
13:15:16.584,AUTO,-35.3632596,149.165234,14043,0.04138294979929924,0.04448212310671806,-0.12101712822914124,-0.10719665139913559,-0.10728909820318222,0.05057096481323242,10,-1,-995,-106,-106,50,-38,42,-148,234645.0
13:15:16.785,AUTO,-35.3632604,149.1652351,14420,0.014018066227436066,0.018422290682792664,-0.10801035910844803,-0.1074153333902359,-0.09099893271923065,0.05403762683272362,11,-2,-1003,-106,-90,53,-41,48,-148,234645.0
13:15:16.987,AUTO,-35.3632604,149.1652351,14420,0.014018066227436066,0.018422290682792664,-0.10801035910844803,-0.1074153333902359,-0.09099893271923065,0.05403762683272362,11,-2,-1003,-106,-90,53,-41,48,-148,234645.0
13:15:17.189,AUTO,-35.3632613,149.1652363,14797,-0.008859409019351006,-0.0007882096106186509,-0.09637239575386047,-0.0729977935552597,-0.06427598744630814,0.04024280607700348,12,-5,-1008,-72,-63,39,-38,46,-149,234645.0
13:15:17.390,AUTO,-35.363262,149.1652375,15184,-0.024571388959884644,-0.013437621295452118,-0.08889328688383102,-0.04779422655701637,-0.04092711582779884,0.020879367366433144,12,-3,-1008,-46,-40,20,-33,40,-151,234645.0
13:15:17.592,AUTO,-35.3632627,149.1652384,15572,-0.03380013629794121,-0.021243978291749954,-0.08620813488960266,-0.025639193132519722,-0.022259920835494995,0.0024969240184873343,10,-2,-1006,-24,-21,2,-26,30,-152,234645.0
13:15:17.794,AUTO,-35.3632632,149.1652391,15962,-0.03717890754342079,-0.02506866306066513,-0.08799178153276443,-0.0018604107899591327,-0.007831922732293606,-0.01460941880941391,8,-2,-1003,-1,-7,-14,-18,19,-153,234645.0
13:15:17.996,AUTO,-35.3632632,149.1652391,15962,-0.03717890754342079,-0.02506866306066513,-0.08799178153276443,-0.0018604107899591327,-0.007831922732293606,-0.01460941880941391,8,-2,-1003,-1,-7,-14,-18,19,-153,234645.0
13:15:18.198,AUTO,-35.3632632,149.1652391,15962,-0.03717890754342079,-0.02506866306066513,-0.08799178153276443,-0.0018604107899591327,-0.007831922732293606,-0.01460941880941391,8,-2,-1003,-1,-7,-14,-18,19,-153,107851.0
13:15:18.400,AUTO,-35.3632632,149.1652391,15962,-0.03717890754342079,-0.02506866306066513,-0.08799178153276443,-0.0018604107899591327,-0.007831922732293606,-0.01460941880941391,8,-2,-1003,-1,-7,-14,-18,19,-153,107851.0
13:15:18.603,AUTO,-35.3632636,149.1652394,17131,-0.02373443730175495,-0.02200518548488617,-0.10940799862146378,0.029243847355246544,0.014243951998651028,-0.03581320866942406,0,0,-1000,30,14,-36,1,-8,-153,107851.0
13:15:18.804,AUTO,-35.3632636,149.1652392,17521,-0.01617300882935524,-0.01791442558169365,-0.11895039677619934,0.030507557094097137,0.019939081743359566,-0.03885359317064285,-2,1,-1000,31,20,-38,5,-13,-153,107851.0
13:15:19.006,AUTO,-35.3632636,149.1652392,17521,-0.01617300882935524,-0.01791442558169365,-0.11895039677619934,0.030507557094097137,0.019939081743359566,-0.03885359317064285,-2,1,-1000,31,20,-38,5,-13,-153,107851.0
13:15:19.207,AUTO,-35.3632634,149.1652387,17912,-0.008558589033782482,-0.012254943139851093,-0.12927283346652985,0.030578451231122017,0.02553286775946617,-0.04171432927250862,-4,1,-1000,31,26,-41,9,-17,-153,107851.0
13:15:19.409,AUTO,-35.3632632,149.1652382,18303,-0.0007344803307205439,-0.00673429761081934,-0.1388218253850937,0.0290418341755867,0.022002296522259712,-0.03842891752719879,-4,2,-1000,29,22,-38,10,-18,-153,107851.0
13:15:19.611,AUTO,-35.3632629,149.1652376,18692,0.005424688570201397,-0.0015167318051680923,-0.14753253757953644,0.022104091942310333,0.019141238182783127,-0.033260662108659744,-4,1,-1000,22,19,-33,11,-18,-153,107851.0
13:15:19.813,AUTO,-35.3632626,149.1652371,19083,0.009961538016796112,0.002723588142544031,-0.15485048294067383,0.015630902722477913,0.016538603231310844,-0.02788163162767887,-5,1,-1000,16,17,-28,10,-16,-153,107851.0
13:15:20.014,AUTO,-35.3632626,149.1652371,19083,0.009961538016796112,0.002723588142544031,-0.15485048294067383,0.015630902722477913,0.016538603231310844,-0.02788163162767887,-5,1,-1000,16,17,-28,10,-16,-153,107851.0
13:15:20.221,AUTO,-35.3632626,149.1652371,19083,0.009961538016796112,0.002723588142544031,-0.15485048294067383,0.015630902722477913,0.016538603231310844,-0.02788163162767887,-5,1,-1000,16,17,-28,10,-16,-153,107851.0
13:15:20.427,AUTO,-35.3632626,149.1652371,19083,0.009961538016796112,0.002723588142544031,-0.15485048294067383,0.015630902722477913,0.016538603231310844,-0.02788163162767887,-5,1,-1000,16,17,-28,10,-16,-153,107851.0
13:15:20.629,AUTO,-35.3632619,149.1652359,20253,0.015253051184117794,0.010662647895514965,-0.16994203627109528,0.001941451570019126,0.006169034168124199,-0.015974296256899834,-3,0,-1000,2,6,-15,6,-7,-153,107851.0
13:15:20.830,AUTO,-35.3632617,149.1652357,20643,0.014635457657277584,0.011392694897949696,-0.1731037199497223,-0.002052334137260914,0.00310476403683424,-0.011839617043733597,-2,0,-1000,-1,3,-11,4,-3,-153,107851.0
13:15:21.032,AUTO,-35.3632615,149.1652356,21033,0.013195855543017387,0.011412319727241993,-0.17553243041038513,-0.005650815088301897,-0.0008300337940454483,-0.008264134638011456,-1,0,-1000,-4,0,-8,2,0,-153,107851.0
13:15:21.234,AUTO,-35.3632615,149.1652356,21033,0.013195855543017387,0.011412319727241993,-0.17553243041038513,-0.005650815088301897,-0.0008300337940454483,-0.008264134638011456,-1,0,-1000,-4,0,-8,2,0,-153,219337.0
13:15:21.436,AUTO,-35.3632614,149.1652355,21421,0.011302455328404903,0.011057911440730095,-0.1779419630765915,-0.006971689406782389,0.00013042252976447344,-0.01102469488978386,-1,0,-1000,-5,0,-11,0,2,-153,219337.0
13:15:21.637,AUTO,-35.3632614,149.1652356,21810,0.009570658206939697,0.010359982028603554,-0.18007892370224,-0.007011781446635723,-0.004323447588831186,-0.006716840900480747,0,0,-1000,-5,-3,-6,0,4,-153,219337.0
13:15:21.839,AUTO,-35.3632614,149.1652356,22200,0.007507876493036747,0.009014350362122059,-0.18202197551727295,-0.008166832849383354,-0.004930591210722923,-0.006306020077317953,0,0,-1000,-7,-4,-6,-2,5,-153,219337.0
13:15:22.040,AUTO,-35.3632614,149.1652356,22200,0.007507876493036747,0.009014350362122059,-0.18202197551727295,-0.008166832849383354,-0.004930591210722923,-0.006306020077317953,0,0,-1000,-7,-4,-6,-2,5,-153,219337.0
13:15:22.242,AUTO,-35.3632614,149.1652356,22200,0.007507876493036747,0.009014350362122059,-0.18202197551727295,-0.008166832849383354,-0.004930591210722923,-0.006306020077317953,0,0,-1000,-7,-4,-6,-2,5,-153,219337.0
13:15:22.443,AUTO,-35.3632614,149.1652356,22200,0.007507876493036747,0.009014350362122059,-0.18202197551727295,-0.008166832849383354,-0.004930591210722923,-0.006306020077317953,0,0,-1000,-7,-4,-6,-2,5,-153,219337.0
13:15:22.645,AUTO,-35.3632614,149.1652359,23365,0.0023106911685317755,0.005902902688831091,-0.19026145339012146,-0.00471882801502943,-0.0022563631646335125,-0.013920817524194717,1,0,-1000,-3,-1,-14,-4,7,-153,219337.0
13:15:22.846,AUTO,-35.3632614,149.1652361,23754,0.0012413174845278263,0.005044134799391031,-0.19381515681743622,-0.0021744873374700546,-0.002636771649122238,-0.014226196333765984,1,0,-1000,-1,-1,-14,-4,6,-153,219337.0
13:15:23.047,AUTO,-35.3632614,149.1652362,24147,0.0002597315178718418,0.004293626174330711,-0.19776234030723572,-0.0047400351613759995,-0.00313492096029222,-0.01501967292279005,1,0,-1000,-3,-2,-14,-4,6,-153,219337.0
13:15:23.249,AUTO,-35.3632614,149.1652362,24147,0.0002597315178718418,0.004293626174330711,-0.19776234030723572,-0.0047400351613759995,-0.00313492096029222,-0.01501967292279005,1,0,-1000,-3,-2,-14,-4,6,-153,219337.0
13:15:23.451,AUTO,-35.3632614,149.1652363,24537,-3.575967639335431e-05,0.0036625387147068977,-0.20200708508491516,0.0005790400318801403,-0.003221699735149741,-0.016268109902739525,0,0,-1000,1,-2,-16,-4,5,-153,219337.0
13:15:23.652,AUTO,-35.3632615,149.1652364,24926,8.831320883473381e-05,0.0028988656122237444,-0.20635360479354858,0.0005140844732522964,-0.0010430557886138558,-0.01762973517179489,1,0,-1000,1,0,-17,-4,5,-153,219337.0
13:15:23.854,AUTO,-35.3632615,149.1652365,25313,-0.013624591752886772,0.002293751575052738,-0.21084873378276825,-0.04357929155230522,-0.0032384174410253763,-0.019368140026926994,1,0,-1002,-42,-2,-19,-4,3,-152,219337.0
13:15:24.056,AUTO,-35.3632615,149.1652365,25313,-0.013624591752886772,0.002293751575052738,-0.21084873378276825,-0.04357929155230522,-0.0032384174410253763,-0.019368140026926994,1,0,-1002,-42,-2,-19,-4,3,-152,219337.0
13:15:24.257,AUTO,-35.3632615,149.1652365,25313,-0.013624591752886772,0.002293751575052738,-0.21084873378276825,-0.04357929155230522,-0.0032384174410253763,-0.019368140026926994,1,0,-1002,-42,-2,-19,-4,3,-152,175827.0
13:15:24.459,AUTO,-35.3632615,149.1652365,25313,-0.013624591752886772,0.002293751575052738,-0.21084873378276825,-0.04357929155230522,-0.0032384174410253763,-0.019368140026926994,1,0,-1002,-42,-2,-19,-4,3,-152,175827.0
13:15:24.660,AUTO,-35.3632618,149.1652363,26480,0.0026638286653906107,0.001568008097819984,-0.22459246218204498,0.026819700375199318,0.0017954579088836908,-0.017544114962220192,0,1,-1000,27,2,-17,-5,-3,-154,175827.0
13:15:24.862,AUTO,-35.3632618,149.1652362,26871,0.007439184468239546,0.0016800710000097752,-0.22865676879882812,0.015485512092709541,0.00037285336293280125,-0.015793023630976677,0,1,-1000,16,1,-15,-4,-2,-154,175827.0
13:15:25.063,AUTO,-35.3632619,149.1652361,27261,0.009899190627038479,0.0017075934447348118,-0.23264218866825104,0.006825375370681286,0.0002100784913636744,-0.015993930399417877,0,1,-999,7,1,-15,-3,0,-153,175827.0
13:15:25.265,AUTO,-35.3632619,149.1652361,27651,0.010732150636613369,0.00199237372726202,-0.23607756197452545,0.0030208108946681023,0.004565685521811247,-0.008853347040712833,0,0,-998,3,5,-8,-3,1,-153,175827.0
13:15:25.466,AUTO,-35.3632619,149.1652361,27651,0.010732150636613369,0.00199237372726202,-0.23607756197452545,0.0030208108946681023,0.004565685521811247,-0.008853347040712833,0,0,-998,3,5,-8,-3,1,-153,175827.0
13:15:25.668,AUTO,-35.363262,149.1652361,28040,0.0113323163241148,0.003245254512876272,-0.2365662157535553,0.004018968902528286,0.005903683602809906,0.0043604145757853985,0,0,-998,4,7,4,-2,3,-153,175827.0
13:15:25.870,AUTO,-35.363262,149.1652362,28428,0.011029076762497425,0.004436494782567024,-0.23433832824230194,-0.0013285898603498936,0.005268880166113377,0.01528085581958294,0,0,-999,0,6,14,-2,5,-153,175827.0
13:15:26.071,AUTO,-35.363262,149.1652362,28428,0.011029076762497425,0.004436494782567024,-0.23433832824230194,-0.0013285898603498936,0.005268880166113377,0.01528085581958294,0,0,-999,0,6,14,-2,5,-153,175827.0
13:15:26.273,AUTO,-35.363262,149.1652362,28428,0.011029076762497425,0.004436494782567024,-0.23433832824230194,-0.0013285898603498936,0.005268880166113377,0.01528085581958294,0,0,-999,0,6,14,-2,5,-153,175827.0
13:15:26.474,AUTO,-35.363262,149.1652362,28428,0.011029076762497425,0.004436494782567024,-0.23433832824230194,-0.0013285898603498936,0.005268880166113377,0.01528085581958294,0,0,-999,0,6,14,-2,5,-153,175827.0
13:15:26.676,AUTO,-35.3632625,149.1652362,29503,-0.06013643741607666,0.07862558215856552,0.05904530733823776,-0.01779196411371231,-0.08548092842102051,0.5038573145866394,3,3,-918,-16,-84,503,-25,-9,-119,175827.0
13:15:26.877,AUTO,-35.3632631,149.1652359,29781,-0.04164477437734604,0.0354946069419384,0.14056077599525452,0.08140216022729874,-0.21589764952659607,0.17991724610328674,5,4,-924,82,-215,179,-35,-21,-99,175827.0
13:15:27.078,AUTO,-35.3632639,149.1652352,30010,-0.013312886469066143,-0.012356107123196125,0.1617751270532608,0.12241721898317337,-0.16013117134571075,0.017528073862195015,5,9,-937,123,-159,17,-35,-26,-82,175827.0
13:15:27.280,AUTO,-35.3632646,149.1652345,30202,0.011572015471756458,-0.03899262100458145,0.15674307942390442,0.09297458827495575,-0.06762098520994186,-0.03900056704878807,3,7,-952,93,-66,-38,-27,-23,-68,119683.0
13:15:27.482,AUTO,-35.3632646,149.1652345,30202,0.011572015471756458,-0.03899262100458145,0.15674307942390442,0.09297458827495575,-0.06762098520994186,-0.03900056704878807,3,7,-952,93,-66,-38,-27,-23,-68,119683.0
13:15:27.683,AUTO,-35.3632651,149.1652339,30367,0.027290279045701027,-0.04780951142311096,0.14428626000881195,-0.008133460767567158,-0.015080932527780533,-0.04874734207987785,2,4,-964,-7,-13,-48,-16,-15,-58,119683.0
13:15:27.885,AUTO,-35.3632653,149.1652336,30505,0.03885015845298767,-0.04728768393397331,0.13308905065059662,0.16408979892730713,0.012379435822367668,-0.03907104954123497,0,9,-972,165,13,-38,-6,-5,-50,119683.0
13:15:28.087,AUTO,-35.3632653,149.1652336,30505,0.03885015845298767,-0.04728768393397331,0.13308905065059662,0.16408979892730713,0.012379435822367668,-0.03907104954123497,0,9,-972,165,13,-38,-6,-5,-50,119683.0
13:15:28.289,AUTO,-35.3632653,149.1652336,30505,0.03885015845298767,-0.04728768393397331,0.13308905065059662,0.16408979892730713,0.012379435822367668,-0.03907104954123497,0,9,-972,165,13,-38,-6,-5,-50,119683.0
13:15:28.491,AUTO,-35.3632653,149.1652336,30505,0.03885015845298767,-0.04728768393397331,0.13308905065059662,0.16408979892730713,0.012379435822367668,-0.03907104954123497,0,9,-972,165,13,-38,-6,-5,-50,119683.0
13:15:28.693,AUTO,-35.3632649,149.1652341,30816,0.02757111005485058,-0.02340935543179512,0.11779934167861938,0.062994584441185,0.035218339413404465,-0.0001756366982590407,-2,10,-999,64,36,0,17,20,-35,119683.0
13:15:28.894,AUTO,-35.3632645,149.1652346,30903,0.030285267159342766,-0.014012420549988747,0.11577144265174866,0.5111045241355896,0.03637475520372391,-0.0035121184773743153,-1,17,-1010,512,37,-3,21,25,-34,119683.0
13:15:29.096,AUTO,-35.3632639,149.1652353,30985,0.02321898378431797,-0.004948558285832405,0.11416476219892502,0.26645538210868835,0.03631863743066788,-0.008856006897985935,-2,-4,-1006,267,37,-9,23,28,-33,119683.0
13:15:29.298,AUTO,-35.3632634,149.165236,31061,0.00523964362218976,0.002803429728373885,0.112315334379673,-0.4108647108078003,0.029543615877628326,-0.00734308734536171,-3,-39,-963,-410,30,-7,23,27,-28,119683.0
13:15:29.500,AUTO,-35.3632634,149.165236,31061,0.00523964362218976,0.002803429728373885,0.112315334379673,-0.4108647108078003,0.029543615877628326,-0.00734308734536171,-3,-39,-963,-410,30,-7,23,27,-28,119683.0
13:15:29.701,AUTO,-35.3632629,149.1652367,31120,-0.004274121951311827,0.007419939152896404,0.11018738895654678,-0.669040322303772,0.016810869798064232,-0.00717035960406065,-2,-31,-983,-668,17,-7,21,26,-21,119683.0
13:15:29.903,AUTO,-35.3632624,149.1652373,31163,-0.005377011373639107,0.011452647857367992,0.10785970091819763,-0.2506106197834015,0.0156888235360384,-0.0041444143280386925,-2,1,-966,-248,16,-4,19,24,-14,119683.0
13:15:30.105,AUTO,-35.3632624,149.1652373,31163,-0.005377011373639107,0.011452647857367992,0.10785970091819763,-0.2506106197834015,0.0156888235360384,-0.0041444143280386925,-2,1,-966,-248,16,-4,19,24,-14,119683.0
13:15:30.307,AUTO,-35.3632624,149.1652373,31163,-0.005377011373639107,0.011452647857367992,0.10785970091819763,-0.2506106197834015,0.0156888235360384,-0.0041444143280386925,-2,1,-966,-248,16,-4,19,24,-14,278382.0
13:15:30.509,AUTO,-35.3632624,149.1652373,31163,-0.005377011373639107,0.011452647857367992,0.10785970091819763,-0.2506106197834015,0.0156888235360384,-0.0041444143280386925,-2,1,-966,-248,16,-4,19,24,-14,278382.0
13:15:30.710,AUTO,-35.3632618,149.1652381,31143,-0.017042217776179314,0.03200007230043411,0.10265032947063446,0.694715678691864,-0.01875690370798111,-0.008302915841341019,0,25,-1027,695,-17,-8,-2,0,2,278382.0
13:15:30.912,AUTO,-35.3632619,149.1652379,31138,-0.01915701851248741,0.02870565466582775,0.10084053874015808,0.5116620659828186,-0.011337175033986568,-0.010711806826293468,0,9,-1026,512,-10,-10,-9,-6,-2,278382.0
13:15:31.113,AUTO,-35.3632621,149.1652375,31146,-0.024042455479502678,0.02598058246076107,0.09914430975914001,-0.09952490776777267,-0.01297845970839262,-0.011747580021619797,0,-16,-1017,-99,-11,-11,-15,-15,-8,278382.0
13:15:31.315,AUTO,-35.3632625,149.1652368,31169,-0.03293156623840332,0.024085411801934242,0.09880033880472183,-0.5526910424232483,-0.0025914388243108988,-0.008339595049619675,1,-20,-1024,-551,-1,-8,-20,-21,-14,278382.0
13:15:31.516,AUTO,-35.3632625,149.1652368,31169,-0.03293156623840332,0.024085411801934242,0.09880033880472183,-0.5526910424232483,-0.0025914388243108988,-0.008339595049619675,1,-20,-1024,-551,-1,-8,-20,-21,-14,278382.0
13:15:31.718,AUTO,-35.363263,149.1652358,31203,-0.033749837428331375,0.024378733709454536,0.09840351343154907,-0.23976388573646545,0.006082759704440832,-0.007896218448877335,3,13,-1015,-237,7,-7,-25,-27,-17,278382.0
13:15:31.920,AUTO,-35.3632636,149.1652347,31246,-0.02773362025618553,0.025411738082766533,0.09602051973342896,0.41723018884658813,0.0033345718402415514,-0.008534970693290234,2,37,-1019,419,4,-8,-30,-33,-20,278382.0
13:15:32.135,AUTO,-35.3632636,149.1652347,31246,-0.02773362025618553,0.025411738082766533,0.09602051973342896,0.41723018884658813,0.0033345718402415514,-0.008534970693290234,2,37,-1019,419,4,-8,-30,-33,-20,278382.0
13:15:32.337,AUTO,-35.3632636,149.1652347,31246,-0.02773362025618553,0.025411738082766533,0.09602051973342896,0.41723018884658813,0.0033345718402415514,-0.008534970693290234,2,37,-1019,419,4,-8,-30,-33,-20,278382.0
13:15:32.540,AUTO,-35.3632665,149.1652302,31437,-0.06268443912267685,0.017675304785370827,-0.2115761637687683,-0.49972307682037354,0.0346059575676918,-0.8596547842025757,-1,0,-1015,-498,35,-859,-49,-57,-34,278382.0
13:15:32.742,AUTO,-35.3632665,149.1652302,31437,-0.06268443912267685,0.017675304785370827,-0.2115761637687683,-0.49972307682037354,0.0346059575676918,-0.8596547842025757,-1,0,-1015,-498,35,-859,-49,-57,-34,278382.0
13:15:32.943,AUTO,-35.3632677,149.1652283,31530,-0.07099838554859161,0.004682380240410566,-0.4283434748649597,-0.058339569717645645,-0.0016205627471208572,-0.8683927059173584,-7,33,-1027,-56,0,-868,-57,-67,-42,278382.0
13:15:33.145,AUTO,-35.3632692,149.1652261,31638,-0.07465741783380508,-0.012746339663863182,-0.6369802951812744,0.30994194746017456,-0.021834565326571465,-0.8125213980674744,-12,43,-1031,311,-20,-812,-65,-79,-48,278382.0
13:15:33.347,AUTO,-35.3632708,149.1652236,31765,-0.08305152505636215,-0.03346558287739754,-0.8290268778800964,0.08694159984588623,-0.025815702974796295,-0.7420873641967773,-17,26,-1035,87,-24,-742,-75,-92,-56,251881.0
13:15:33.549,AUTO,-35.3632728,149.1652207,31916,-0.08980854600667953,-0.05549554526805878,-1.012536883354187,-0.2638357877731323,-0.015210108831524849,-0.7158136963844299,-25,11,-1036,-262,-14,-715,-86,-108,-65,251881.0
13:15:33.751,AUTO,-35.3632728,149.1652207,31916,-0.08980854600667953,-0.05549554526805878,-1.012536883354187,-0.2638357877731323,-0.015210108831524849,-0.7158136963844299,-25,11,-1036,-262,-14,-715,-86,-108,-65,251881.0
13:15:33.953,AUTO,-35.3632749,149.1652173,32087,-0.0831272080540657,-0.07714945077896118,-1.1901088953018188,-0.0012177863391116261,-0.029406696557998657,-0.7179941534996033,-33,25,-1044,0,-28,-717,-97,-125,-74,251881.0
13:15:34.155,AUTO,-35.3632749,149.1652173,32087,-0.0831272080540657,-0.07714945077896118,-1.1901088953018188,-0.0012177863391116261,-0.029406696557998657,-0.7179941534996033,-33,25,-1044,0,-28,-717,-97,-125,-74,251881.0
13:15:34.357,AUTO,-35.3632749,149.1652173,32087,-0.0831272080540657,-0.07714945077896118,-1.1901088953018188,-0.0012177863391116261,-0.029406696557998657,-0.7179941534996033,-33,25,-1044,0,-28,-717,-97,-125,-74,251881.0
13:15:34.559,AUTO,-35.3632832,149.1652044,32758,-0.017883585765957832,-0.10488463938236237,-1.7240471839904785,0.010977950878441334,0.038237810134887695,-0.7024841904640198,-52,-4,-1043,12,39,-702,-131,-176,-106,251881.0
13:15:34.761,AUTO,-35.3632832,149.1652044,32758,-0.017883585765957832,-0.10488463938236237,-1.7240471839904785,0.010977950878441334,0.038237810134887695,-0.7024841904640198,-52,-4,-1043,12,39,-702,-131,-176,-106,251881.0
13:15:34.962,AUTO,-35.3632864,149.1651992,33035,0.011197869665920734,-0.09207887202501297,-1.8917324542999268,0.06419219076633453,0.0711202621459961,-0.6251640915870667,-56,-12,-1036,65,72,-624,-138,-189,-115,251881.0
13:15:35.164,AUTO,-35.3632897,149.1651937,33335,0.04012833163142204,-0.07381506264209747,-2.0324721336364746,0.05367639288306236,0.050564855337142944,-0.4777449369430542,-55,-17,-1030,54,51,-477,-140,-199,-123,251881.0
13:15:35.365,AUTO,-35.3632931,149.165188,33653,0.03874526917934418,-0.05570057034492493,-2.123183250427246,-0.07613076269626617,0.05508900061249733,-0.27538010478019714,-56,-21,-1020,-74,56,-275,-140,-205,-130,251881.0
13:15:35.567,AUTO,-35.3632964,149.1651821,33986,0.021307390183210373,-0.039922330528497696,-2.176543712615967,-0.06678727269172668,0.06785421073436737,-0.16323968768119812,-56,-28,-1018,-65,68,-163,-142,-207,-134,251881.0
13:15:35.771,AUTO,-35.3632998,149.1651763,34331,0.0078384755179286,-0.022405138239264488,-2.2090036869049072,-0.0309704951941967,0.06922607123851776,-0.1151391863822937,-49,-29,-1016,-29,70,-114,-144,-202,-138,251881.0
13:15:35.972,AUTO,-35.3632998,149.1651763,34331,0.0078384755179286,-0.022405138239264488,-2.2090036869049072,-0.0309704951941967,0.06922607123851776,-0.1151391863822937,-49,-29,-1016,-29,70,-114,-144,-202,-138,251881.0
13:15:36.178,AUTO,-35.3632998,149.1651763,34331,0.0078384755179286,-0.022405138239264488,-2.2090036869049072,-0.0309704951941967,0.06922607123851776,-0.1151391863822937,-49,-29,-1016,-29,70,-114,-144,-202,-138,251881.0
13:15:36.380,AUTO,-35.3632998,149.1651763,34331,0.0078384755179286,-0.022405138239264488,-2.2090036869049072,-0.0309704951941967,0.06922607123851776,-0.1151391863822937,-49,-29,-1016,-29,70,-114,-144,-202,-138,192994.0
13:15:36.582,AUTO,-35.36331,149.1651598,35384,0.025764010846614838,-0.09519771486520767,-2.295687198638916,0.028290480375289917,-0.1831134557723999,-0.11098063737154007,-43,-31,-965,29,-182,-110,-154,-193,-129,192994.0
13:15:36.784,AUTO,-35.3633137,149.1651541,35704,0.0395430289208889,-0.13060638308525085,-2.3270444869995117,0.0419263057410717,-0.10989773273468018,-0.11743755638599396,-48,-33,-966,43,-108,-117,-165,-206,-121,192994.0
13:15:36.985,AUTO,-35.3633137,149.1651541,35704,0.0395430289208889,-0.13060638308525085,-2.3270444869995117,0.0419263057410717,-0.10989773273468018,-0.11743755638599396,-48,-33,-966,43,-108,-117,-165,-206,-121,192994.0
13:15:37.187,AUTO,-35.3633176,149.165148,36003,0.050440218299627304,-0.13774847984313965,-2.357064723968506,0.017704861238598824,0.006580993067473173,-0.11446350812911987,-56,-37,-979,19,7,-114,-178,-224,-114,192994.0
13:15:37.389,AUTO,-35.3633217,149.1651415,36289,0.05991179123520851,-0.12785157561302185,-2.386280059814453,0.014462568797171116,0.06546679139137268,-0.11124898493289948,-54,-41,-994,16,66,-111,-191,-241,-110,192994.0
13:15:37.591,AUTO,-35.3633261,149.1651346,36573,0.06459849327802658,-0.10206081718206406,-2.4125115871429443,0.003168600145727396,0.11011140793561935,-0.10798052698373795,-60,-54,-1013,4,111,-107,-200,-255,-111,192994.0
13:15:37.793,AUTO,-35.3633307,149.1651273,36864,0.06810012459754944,-0.07230823487043381,-2.4392645359039307,-0.006148240529000759,0.11603295058012009,-0.10819654911756516,-55,-47,-1021,-4,117,-107,-204,-266,-116,192994.0
13:15:37.995,AUTO,-35.3633307,149.1651273,36864,0.06810012459754944,-0.07230823487043381,-2.4392645359039307,-0.006148240529000759,0.11603295058012009,-0.10819654911756516,-55,-47,-1021,-4,117,-107,-204,-266,-116,192994.0
13:15:38.197,AUTO,-35.3633307,149.1651273,36864,0.06810012459754944,-0.07230823487043381,-2.4392645359039307,-0.006148240529000759,0.11603295058012009,-0.10819654911756516,-55,-47,-1021,-4,117,-107,-204,-266,-116,192994.0
13:15:38.399,AUTO,-35.3633307,149.1651273,36864,0.06810012459754944,-0.07230823487043381,-2.4392645359039307,-0.006148240529000759,0.11603295058012009,-0.10819654911756516,-55,-47,-1021,-4,117,-107,-204,-266,-116,192994.0
13:15:38.601,AUTO,-35.3633443,149.1651045,37809,0.06846150755882263,-0.03190016373991966,-2.5134832859039307,-0.005013573914766312,0.04073122516274452,-0.07173588871955872,-61,-55,-1011,-3,41,-71,-198,-273,-129,192994.0
13:15:38.803,AUTO,-35.3633487,149.1650968,38141,0.06484469026327133,-0.022028636187314987,-2.5278990268707275,-0.015400253236293793,0.04832254722714424,-0.042129527777433395,-60,-59,-1010,-13,49,-42,-193,-273,-131,192994.0
13:15:39.005,AUTO,-35.3633487,149.1650968,38141,0.06484469026327133,-0.022028636187314987,-2.5278990268707275,-0.015400253236293793,0.04832254722714424,-0.042129527777433395,-60,-59,-1010,-13,49,-42,-193,-273,-131,192994.0
13:15:39.206,AUTO,-35.363353,149.1650892,38479,0.06217840313911438,-0.015343280509114265,-2.5339877605438232,-0.004839296452701092,0.04543929919600487,-0.011469611898064613,-47,-60,-1009,-3,46,-11,-188,-272,-133,212074.0
13:15:39.408,AUTO,-35.3633571,149.1650815,38823,0.059780750423669815,-0.012077521532773972,-2.533773183822632,-0.014764964580535889,-0.011769924312829971,0.01282185222953558,-48,-59,-1004,-13,-10,12,-181,-269,-135,212074.0
13:15:39.610,AUTO,-35.3633611,149.1650739,39172,0.05386003479361534,-0.015489368699491024,-2.5294439792633057,-0.02740817703306675,-0.016750091686844826,0.028162674978375435,-49,-62,-1001,-25,-15,28,-174,-266,-136,212074.0
13:15:39.812,AUTO,-35.363365,149.1650665,39521,0.050703708082437515,-0.018801270052790642,-2.5223639011383057,-0.024165626615285873,-0.009961986914277077,0.03090614452958107,-55,-45,-998,-22,-9,31,-170,-263,-136,212074.0
13:15:40.014,AUTO,-35.363365,149.1650665,39521,0.050703708082437515,-0.018801270052790642,-2.5223639011383057,-0.024165626615285873,-0.009961986914277077,0.03090614452958107,-55,-45,-998,-22,-9,31,-170,-263,-136,212074.0
13:15:40.216,AUTO,-35.363365,149.1650665,39521,0.050703708082437515,-0.018801270052790642,-2.5223639011383057,-0.024165626615285873,-0.009961986914277077,0.03090614452958107,-55,-45,-998,-22,-9,31,-170,-263,-136,212074.0
13:15:40.418,AUTO,-35.363365,149.1650665,39521,0.050703708082437515,-0.018801270052790642,-2.5223639011383057,-0.024165626615285873,-0.009961986914277077,0.03090614452958107,-55,-45,-998,-22,-9,31,-170,-263,-136,212074.0
13:15:40.619,AUTO,-35.363376,149.165045,40562,0.04056388884782791,-0.032677702605724335,-2.4952359199523926,-0.019937703385949135,-0.005992676131427288,0.04063987359404564,-53,-60,-1000,-18,-5,41,-165,-253,-135,212074.0
