time_stamp,RTL_ALT,roll,pitch,yaw,rollspeed,pitchspeed,yawspeed,lat,lon,relative_alt,vx,vy,vz,xacc,yacc,zacc,xgyro,ygyro,zgyro,MODE
06:26:39,1500.0,-0.0007905666716396809,0.0009605494560673833,0.02251623570919037,0.00026343436911702156,0.0003265368868596852,0.0015309619484469295,-35.3632622,149.1652375,0.0,-1.0,2.0,1.0,0.0,1.0,-1000.0,0.0,1.0,0.0,STABILIZE
06:26:43,1500.0,-0.0009399592527188361,0.0010032623540610075,0.02148451842367649,0.00022489129332825541,0.0002482799463905394,0.0013065510429441929,-35.3632622,149.1652375,0.0,-1.0,1.0,0.5,0.0,1.0,-1000.0,0.5,0.5,0.0,AUTO
06:26:45,1500.0,-0.000997914932668209,0.0011520705884322524,0.021036614663898945,0.00017048706649802625,0.00025884679052978754,0.0014186857151798904,-35.3632621,149.1652375,7.0,0.0,0.0,0.0,0.0,1.0,-1000.0,1.0,0.0,0.0,AUTO
06:26:46,106006.0,-0.0004513458043220453,0.0014811555156484246,0.02073952555656433,0.0002910811745095998,0.0002825113042490557,0.0013514902966562659,-35.3632621,149.1652375,2.0,0.0,0.0,0.5,0.0,1.5,-1000.0,0.5,0.75,0.0,AUTO
06:26:47,106006.0,-0.0002824479161063209,0.0017017284990288317,0.020527384243905544,0.00032893940806388855,0.0003319000534247607,0.0013476607855409384,-35.3632621,149.1652375,3.0,0.0,0.0,0.0,0.0,2.0,-1000.0,0.0,1.0,1.0,AUTO
06:26:49,106006.0,0.026206968041757744,-0.0016310214220235746,0.02037339781721433,0.04584269970655441,-0.007701880453775327,0.0025368904850135245,-35.363262033333335,149.16523766666668,1535.0,1.0,8.0,-145.0,0.0,-0.6666666666666666,-1016.0,46.0,-6.666666666666667,1.6666666666666667,AUTO
06:26:51,106006.0,-0.03759806975722313,0.004439805362684031,-0.06555952628453572,-0.04967717578013738,-0.015785618374745052,-0.032710208867987,-35.3632608,149.16524536666665,4587.333333333333,3.0,32.666666666666664,-149.33333333333334,3.3333333333333335,-6.666666666666667,-1003.3333333333334,-48.333333333333336,-15.0,-32.666666666666664,AUTO
06:26:52,11770.0,-0.05423004676898321,0.005000412619362275,-0.10748829940954845,0.05906661103169123,0.003814248717390001,-0.016290719310442608,-35.363260700000005,149.1652446,6512.333333333333,-6.0,-45.666666666666664,-149.0,-4.0,8.0,-1000.6666666666666,59.333333333333336,4.333333333333333,-16.0,AUTO
06:26:53,11770.0,-0.005784447770565748,0.010748541603485743,-0.11373930672804515,0.06837963809569676,0.009545683239897093,-0.0024749202808986106,-35.36326143333333,149.16523986666667,7670.333333333333,-15.666666666666666,-61.0,-151.0,-5.0,12.666666666666666,-1003.3333333333334,68.66666666666667,10.0,-2.6666666666666665,AUTO
06:26:55,11770.0,0.03775333613157272,-0.06419686724742253,-0.03485033599038919,-0.06987285893410444,-0.02215257038672765,0.05122013886769613,-35.36326493333333,149.1652349,10787.0,7.666666666666667,29.333333333333332,-149.66666666666666,2.6666666666666665,-4.666666666666667,-996.6666666666666,-68.66666666666667,-21.333333333333332,51.0,AUTO
06:26:57,11770.0,-0.012320343113970011,0.03069429596265157,-0.17014576494693756,0.04607094327608744,0.013164704975982508,-0.037594567984342575,-35.363259400000004,149.16523696666664,13881.333333333334,13.0,-18.666666666666668,-154.0,-6.333333333333333,0.0,-1001.0,46.0,13.666666666666666,-37.333333333333336,AUTO
06:26:58,170491.0,0.02176298201084137,0.015366222709417343,-0.17043705781300864,-0.010655693399409452,-0.02821328615148862,0.023065573846300442,-35.36325973333333,149.16523503333332,15832.0,-17.666666666666668,0.0,-152.66666666666666,1.6666666666666667,2.6666666666666665,-998.0,-9.666666666666666,-27.0,22.333333333333332,AUTO
06:26:59,170491.0,-0.016312655992805958,0.0025247927502884218,-0.16221471627553305,-0.11240244346360366,-0.011218869437774023,-0.002645005083953341,-35.3632608,149.16523530000003,16996.333333333332,-17.666666666666668,6.0,-150.66666666666666,3.0,0.6666666666666666,-995.3333333333334,-111.0,-10.0,-2.6666666666666665,AUTO
06:27:01,170491.0,0.06647450476884842,-0.037502304961284004,0.023383633544047672,-0.002014593221247196,0.015438393379251162,-0.021736859033505123,-35.363264799999996,149.16523043333333,19373.0,-7.333333333333333,2.0,-71.33333333333333,0.3333333333333333,1.6666666666666667,-963.0,-0.6666666666666666,16.0,-21.666666666666668,AUTO
06:27:03,108848.0,-0.006440468520546953,0.01360002470513185,0.015162461126844088,-0.016795975466569264,0.008712813956663013,0.0014382705752116938,-35.363262600000006,149.16523706666666,20235.333333333332,14.333333333333334,35.0,-19.666666666666668,0.6666666666666666,-9.333333333333334,-975.3333333333334,-16.0,9.0,1.0,AUTO
06:27:05,47205.0,-0.0117215282516554,0.044187953074773155,0.011006202859183153,0.24232884248097739,0.019359507287542026,-0.00425601692404598,-35.363262766666665,149.16523836666667,20091.0,-32.333333333333336,-18.0,8.0,3.0,22.333333333333332,-1026.3333333333333,243.33333333333334,19.666666666666668,-3.6666666666666665,AUTO
06:27:07,47205.0,-0.11780419697364171,0.020580366991149884,-0.9656600753466288,-0.08254894614219666,-0.001545933075249195,-0.7341158986091614,-35.363277366666665,149.16523366666664,20150.0,-146.66666666666666,-33.666666666666664,-14.333333333333334,-6.0,36.666666666666664,-1011.3333333333334,-82.0,-0.6666666666666666,-734.0,AUTO
06:27:08,19749.0,-0.12317028393348058,-0.12288305660088857,-1.8511794408162434,-0.017421295245488484,-0.023237329286833603,-0.7023411989212036,-35.36330039999999,149.16522793333334,20349.333333333332,-271.3333333333333,-66.33333333333333,-21.666666666666668,-56.666666666666664,27.333333333333332,-1014.6666666666666,-16.666666666666668,-21.666666666666668,-702.0,AUTO
06:27:09,19749.0,-0.03700890407587091,-0.1800926774740219,-2.393106460571289,0.037220810850461326,-0.022150618062975507,-0.7209515770276388,-35.363321199999994,149.16522203333332,20531.333333333332,-349.6666666666667,-89.66666666666667,-29.0,-82.66666666666667,-3.3333333333333335,-1011.6666666666666,37.333333333333336,-20.666666666666668,-720.6666666666666,AUTO
06:27:11,19749.0,0.06480225672324498,-0.1600519468386968,-2.888384977976481,0.002759443576602886,0.014457683078944683,0.02887711868000527,-35.36340113333333,149.16519696666668,21302.666666666668,-523.6666666666666,-137.0,-51.333333333333336,-106.66666666666667,-63.0,-1000.3333333333334,3.3333333333333335,15.666666666666666,28.333333333333332,AUTO
06:27:13,19749.0,0.06814282884200414,-0.12490977843602498,-2.8883634408315024,-0.0033060906377310553,0.04134345675508181,-0.001731793861836195,-35.36350276666666,149.1651644,22382.333333333332,-588.0,-150.0,-57.333333333333336,-112.33333333333333,-63.0,-990.0,-2.0,42.0,-1.3333333333333333,AUTO
06:27:14,161630.0,0.0774892841776212,-0.10855145504077275,-2.8893919785817466,0.009807992726564407,0.03350052462580303,-0.005466844420880079,-35.36356933333334,149.16514393333333,23061.333333333332,-584.6666666666666,-148.0,-51.333333333333336,-109.33333333333333,-64.33333333333333,-988.0,10.666666666666666,34.0,-5.333333333333333,AUTO
06:27:15,161630.0,0.07684420297543208,-0.07152762884895007,-2.8881633281707764,0.004209671402350068,0.05419868354996046,-0.002554017739991347,-35.36360846666666,149.16513193333333,23454.666666666668,-566.0,-144.66666666666666,-53.0,-116.33333333333333,-73.33333333333333,-989.3333333333334,5.0,54.666666666666664,-2.3333333333333335,AUTO
06:27:17,161630.0,0.06591799358526866,0.02507173890868823,-2.886407216389974,-0.003245977063973745,0.05093477666378021,-0.005752650710443656,-35.363699133333334,149.16510366666668,24370.666666666668,-418.6666666666667,-112.0,-35.0,-84.0,-58.666666666666664,-987.6666666666666,-2.3333333333333335,51.333333333333336,-5.333333333333333,AUTO
06:27:19,121117.0,0.027863134319583576,0.07655246307452519,-2.8882856369018555,0.021382091877361138,0.02370525151491165,-0.005472427311663826,-35.363754066666665,149.16508543333336,24786.666666666668,-189.0,-54.666666666666664,-8.0,-38.0,-17.0,-998.6666666666666,22.666666666666668,24.0,-5.333333333333333,AUTO
06:27:21,80604.0,0.004186951565012957,0.042509483794371285,-2.889025926589966,-0.15260697901248932,-0.014229545990626017,-0.0005107898032292724,-35.36377223333333,149.16507883333335,24881.666666666668,-34.333333333333336,-7.333333333333333,-2.6666666666666665,-8.666666666666666,-12.333333333333334,-997.3333333333334,-151.66666666666666,-12.666666666666666,-0.6666666666666666,AUTO
06:27:23,80604.0,0.0059228871356632835,-0.0011822446249425411,-2.890000899632772,-0.07589773088693619,-0.009698174272974333,-0.0006126327207311988,-35.363774033333335,149.16507876666665,24885.666666666668,6.666666666666667,6.333333333333333,0.0,0.0,-12.666666666666666,-1004.6666666666666,-75.33333333333333,-8.0,-0.6666666666666666,RTL
06:27:24,28684.0,0.006590555189177394,0.006717701597760121,-2.8904438813527427,-0.2521526863177617,0.011817516759037971,0.0032872363614539304,-35.3637743,149.16507926666668,24896.666666666668,3.3333333333333335,2.6666666666666665,-4.666666666666667,-1.0,-18.333333333333332,-1018.3333333333334,-251.33333333333334,12.666666666666666,2.6666666666666665,RTL
06:27:25,28684.0,0.004457484581507742,0.009756048520406088,-2.8899986743927,0.12848578890164694,0.005725876272966464,0.000972208489353458,-35.3637745,149.16507909999999,25001.666666666668,6.0,1.3333333333333333,-25.666666666666668,0.3333333333333333,2.3333333333333335,-1038.0,129.0,6.666666666666667,0.6666666666666666,RTL
06:27:27,28684.0,-0.017969114085038502,0.00819440201545755,-2.8886451721191406,-0.0013490853210290272,-0.0042556640692055225,-0.004914654574046533,-35.363774299999996,149.1650771,26427.666666666668,7.333333333333333,15.666666666666666,-109.0,2.0,-2.0,-1040.0,-1.0,-2.3333333333333335,-4.666666666666667,RTL
06:27:29,28684.0,0.045746744920810066,-0.01006614975631237,-2.887701908747355,0.018898680806159973,0.007317733950912952,-0.019718510874857504,-35.36377339999999,149.16507576666666,29259.333333333332,3.3333333333333335,-11.333333333333334,-149.33333333333334,1.0,-3.0,-997.3333333333334,18.666666666666668,9.333333333333334,-20.333333333333332,RTL
06:27:30,1047.0,-0.06925141563018163,0.00694646608705322,-2.9488883018493652,-0.05745917124052843,-0.020439598088463146,-0.028438554455836613,-35.36377293333333,149.16507116666668,31154.666666666668,4.333333333333333,-5.0,-147.33333333333334,2.6666666666666665,-3.3333333333333335,-1007.3333333333334,-57.666666666666664,-18.333333333333332,-28.333333333333332,RTL
06:27:31,1047.0,-0.056215220441420875,-0.0015118832234293222,-2.9626588821411133,0.058875142286221184,-0.0004229337985937794,-0.009771636842439571,-35.3637729,149.16507226666667,32303.0,-3.6666666666666665,43.666666666666664,-149.0,-3.0,7.333333333333333,-1001.3333333333334,58.666666666666664,1.0,-10.0,RTL
06:27:33,1047.0,0.04641180858016014,-0.02391286225368579,-2.9298082987467446,0.009121459598342577,-0.06374165291587512,0.08277447024981181,-35.3637723,149.16508380000002,35399.666666666664,11.0,20.0,-152.0,-0.3333333333333333,8.0,-1000.3333333333334,8.666666666666666,-62.0,82.0,RTL
06:27:35,1047.0,0.0004512228382130464,0.01463562964151303,-2.9566287199656167,0.007427674097319444,0.021549345925450325,-0.05080577855308851,-35.36377506666667,149.165083,38494.333333333336,-19.666666666666668,-17.333333333333332,-151.33333333333334,-4.333333333333333,-4.0,-1003.3333333333334,7.333333333333333,22.666666666666668,-50.333333333333336,RTL
06:27:36,29363.0,0.017060525094469387,0.017457626139124233,-2.9888648192087808,0.008661552662185082,-0.01088845202078422,-0.0026594873052090406,-35.3637764,149.16508310000003,40450.0,4.0,-7.333333333333333,-152.0,-0.3333333333333333,0.0,-998.6666666666666,8.333333333333334,-9.0,-2.6666666666666665,RTL
06:27:37,29363.0,0.017759853353103,0.00828867219388485,-2.9903398354848227,-0.0016176002003097285,-0.011457727290689945,-0.0022940430741679543,-35.363775999999994,149.16508313333333,41622.0,12.666666666666666,-11.666666666666666,-152.0,1.6666666666666667,0.3333333333333333,-999.6666666666666,-1.6666666666666667,-9.333333333333334,-1.6666666666666667,RTL
06:27:39,29363.0,0.007632508408278227,-0.004687425370017688,-3.020579973856608,0.003902848344296217,0.0009167676713938514,-0.02567921703060468,-35.3637742,149.16508223333335,44737.0,6.333333333333333,-13.0,-152.0,1.3333333333333333,0.0,-1000.3333333333334,3.6666666666666665,2.0,-25.0,RTL
06:27:41,61631.0,0.01214967823276917,0.0010746924478250246,-3.077400048573812,0.0043645319528877735,0.0018972426187247038,-0.024547501156727474,-35.363774,149.16508193333334,47862.333333333336,1.0,-11.0,-152.0,0.0,0.0,-1000.3333333333334,4.333333333333333,3.0,-23.666666666666668,RTL
06:27:43,61631.0,0.009560449669758478,0.0018797713952759902,-3.125201145807902,0.0010679617795782785,-0.001105990920526286,-0.020426005745927494,-35.36377393333333,149.1650814,50974.333333333336,2.0,-11.333333333333334,-152.33333333333334,0.0,0.0,-1000.0,1.6666666666666667,0.0,-19.666666666666668,RTL
06:27:45,61631.0,0.009063820665081343,0.0011807812843471766,3.113365570704142,0.005138625895294051,0.0017574100056663156,-0.017143467751642067,-35.36377376666667,149.16508086666667,54098.333333333336,2.0,-9.0,-152.66666666666666,0.0,0.0,-1000.0,5.666666666666667,3.3333333333333335,-16.333333333333332,RTL
06:27:46,69940.0,0.011147583524386087,0.0029443167926122746,3.1231444676717124,-0.0006136752587432662,-0.0026237618488570056,0.02742021530866623,-35.36377356666667,149.16508050000002,56190.333333333336,3.3333333333333335,-10.0,-152.0,0.0,0.0,-1000.3333333333334,0.6666666666666666,-0.6666666666666666,27.666666666666668,RTL
06:27:47,69940.0,0.00826441248257955,0.0007962357679692408,-1.0455040136973064,-0.005381892900913954,-0.0017000403410444658,0.02921666329105695,-35.36377339999999,149.1650802,57353.0,3.3333333333333335,-10.333333333333334,-152.0,0.3333333333333333,0.0,-999.6666666666666,-4.0,0.0,29.666666666666668,RTL
06:27:49,69940.0,0.006883992503086726,-0.0011638695529351633,-3.09128737449646,0.0010692997990796964,-0.0005394514106834928,0.022230944285790127,-35.3637732,149.16507973333333,60462.0,0.3333333333333333,-5.666666666666667,-152.0,0.0,0.0,-1000.0,2.0,1.0,23.0,RTL
06:27:51,69940.0,0.007856010614583889,-0.0009523526338549951,-3.05684494972229,0.0021794408870240054,-0.0003010999256124099,0.017854707315564156,-35.3637732,149.1650798,63563.0,0.0,-4.0,-152.0,0.0,0.0,-1000.0,3.3333333333333335,1.0,18.333333333333332,RTL
06:27:52,6936.0,0.008096358738839626,-0.0005624878782934198,-3.0396317640940347,9.93873303135236e-05,0.0008923056302592158,0.013889086122314135,-35.3637733,149.1650799,65506.333333333336,-0.6666666666666666,-4.0,-152.0,0.0,0.0,-1000.6666666666666,1.3333333333333333,2.3333333333333335,14.0,RTL
06:27:53,6936.0,0.00806503091007471,6.002000979303072e-05,-3.0308709939320884,-8.498694902906816e-05,0.0008828445958594481,0.012793914414942265,-35.3637734,149.16507996666667,66670.66666666667,0.0,-4.0,-152.0,0.0,0.0,-1000.0,1.0,2.0,13.333333333333334,RTL
06:27:55,6936.0,0.007798290811479092,-8.591437654104084e-05,-3.011433204015096,-0.000167523588364323,-0.0007183594861999154,0.009190867654979229,-35.36377356666667,149.16508003333334,69776.0,0.0,-4.0,-152.0,0.0,0.0,-1000.0,1.0,0.6666666666666666,9.666666666666666,RTL
06:27:57,6936.0,0.007401938239733378,0.0006708900909870863,-2.996325969696045,0.002014287553417186,-0.0002662214683368802,0.007203507392356793,-35.36377366666667,149.1650801,72884.66666666667,0.3333333333333333,-4.0,-152.0,0.0,0.0,-1000.3333333333334,2.6666666666666665,1.3333333333333333,7.666666666666667,RTL
06:27:58,80738.0,0.0073653242240349455,0.00024305783881573007,-2.988353411356608,-0.00013260935277988514,0.00033050453445563716,0.007362740269551675,-35.3637737,149.1650801,74821.33333333333,1.0,-4.0,-152.0,0.0,0.0,-999.6666666666666,1.0,1.6666666666666667,8.0,RTL
06:27:59,80738.0,0.00714461226016283,0.0008466074359603226,-2.9833176136016846,-0.0010853053148215015,0.0004159451151887576,0.008289521560072899,-35.3637737,149.1650801,75988.0,1.0,-3.6666666666666665,-152.0,0.0,0.0,-999.6666666666666,0.6666666666666666,1.6666666666666667,9.0,RTL
06:28:01,80738.0,0.007137009873986244,0.0003276303517244135,-2.9725096225738525,-0.0011362971660370629,0.0008381754547978441,0.00566941499710083,-35.3637737,149.1650801,79091.0,1.0,-3.0,-152.0,0.0,0.0,-999.6666666666666,0.6666666666666666,2.0,6.333333333333333,RTL
06:28:03,80738.0,0.006998534003893535,0.00045915139101756114,-2.96329927444458,-0.00031948729883879423,-0.00020295804521689811,0.004814615938812494,-35.3637737,149.1650801,82197.0,1.0,-3.0,-152.0,0.0,0.0,-1000.0,1.0,1.3333333333333333,5.666666666666667,RTL
06:28:04,3189.0,0.0068676477919022245,0.0004506597858077536,-2.957958539326986,-0.000979823254359265,-0.00023137040746708712,0.006379129675527413,-35.3637737,149.1650801,84138.33333333333,1.0,-3.0,-152.0,0.0,0.0,-999.6666666666666,1.0,1.3333333333333333,7.333333333333333,RTL
06:28:05,3189.0,0.006968122286101182,0.00047109835819962126,-2.9550989468892417,-0.0002871650891999404,0.0006304001435637474,0.006013955144832532,-35.3637737,149.1650801,85306.0,1.0,-3.0,-152.0,0.0,0.0,-999.6666666666666,1.3333333333333333,1.6666666666666667,7.0,RTL
06:28:07,3189.0,0.006647180455426375,0.000569573293129603,-2.9479192892710366,0.00043310892457763356,0.0008128125530978044,0.0038958266765500107,-35.3637738,149.1650801,88410.66666666667,1.0,-2.3333333333333335,-152.0,0.0,0.0,-1000.0,2.0,2.0,5.0,RTL
06:28:09,162227.0,0.006245115461448829,0.0006738510758926471,-2.9414525032043457,-0.0009935489700486262,-0.00039723577598730725,0.004772108203421037,-35.3637738,149.16508,91523.66666666667,1.0,-2.0,-152.0,0.0,0.0,-1000.0,0.6666666666666666,1.0,5.666666666666667,RTL
06:28:11,162227.0,0.006509794543186824,0.0004977364636336764,-2.9363510608673096,0.0012536297241846721,0.0008049189151885608,0.003854698113476237,-35.3637738,149.16508,94624.0,1.0,-2.0,-152.0,0.0,0.0,-999.3333333333334,2.6666666666666665,2.6666666666666665,4.666666666666667,RTL
06:28:13,162227.0,0.006242155873527129,0.0006088679462360839,-2.9315806229909263,-0.0010794053863113124,-0.00021085814417650303,0.003102235651264588,-35.3637738,149.16508,97736.0,1.0,-2.0,-152.0,0.0,0.0,-999.6666666666666,0.6666666666666666,1.3333333333333333,4.0,RTL
06:28:14,22175.0,0.005754345251868169,0.0007793504240301748,-2.929012934366862,-0.00030191669551034767,0.00031481256398061913,0.0025254026210556426,-35.3637738,149.16507996666667,99676.0,1.0,-2.0,-152.0,0.0,0.0,-1000.3333333333334,1.0,1.6666666666666667,4.0,RTL
06:28:15,22175.0,0.005566748790442944,0.000900421019953986,-2.9271182219187417,9.570980910211802e-05,0.0007871411119898161,0.0036486147437244654,-35.3637738,149.1650799,100840.66666666667,1.0,-1.3333333333333333,-152.0,0.0,0.0,-1000.0,1.3333333333333333,2.0,4.666666666666667,RTL
06:28:17,22175.0,0.006270212431748708,0.0004493493664388855,-2.923243681589762,0.0004413967641691367,0.0001948281036068996,0.0036268228044112525,-35.3637738,149.1650799,103952.0,1.0,-1.0,-152.0,0.0,0.0,-999.3333333333334,2.3333333333333335,1.6666666666666667,4.666666666666667,RTL
06:28:19,22175.0,0.00650482764467597,0.001198773233530422,-2.919985373814901,-0.0008058058641230067,0.00048487357950458926,0.0020900050876662135,-35.3637738,149.16508,107054.0,1.3333333333333333,-2.0,-152.0,0.0,0.0,-1000.0,0.6666666666666666,2.0,3.3333333333333335,RTL
06:28:20,244985.0,0.0061655764778455096,0.0009585761581547558,-2.9183565775553384,-0.00014424362840751806,-1.7999399763842423e-05,0.003214723663404584,-35.3637738,149.16508,108996.0,2.0,-2.0,-152.0,0.0,0.0,-999.6666666666666,2.0,1.3333333333333333,4.0,RTL
06:28:21,244985.0,0.006161589175462723,0.0008104584024598201,-2.9175175031026206,0.0009334153340508541,0.0007001272169873118,0.002418654776799182,-35.3637738,149.16508,110160.66666666667,2.0,-2.0,-152.0,0.0,0.0,-1000.0,2.6666666666666665,2.3333333333333335,4.0,RTL
06:28:23,244985.0,0.005646998838831981,0.0002698417859695231,-2.915097157160441,0.0011751964533080657,2.7198965350786846e-05,0.0013608770677819848,-35.3637738,149.1650799,113271.0,1.6666666666666667,-1.0,-152.0,0.0,0.0,-999.6666666666666,2.6666666666666665,1.6666666666666667,2.3333333333333335,RTL
06:28:25,244985.0,0.005818666269381841,0.0006238773154715697,-2.9130423863728843,0.0006969780661165714,0.00047465549626698095,0.002714170298228661,-35.3637738,149.1650799,116376.0,1.0,-1.0,-152.0,0.0,0.0,-999.6666666666666,2.3333333333333335,2.0,3.6666666666666665,RTL
06:28:26,28078.0,0.006001516090085109,0.0005924522605103751,-2.911980946858724,0.000814118500178059,-0.0001047822879627347,0.003113882577357193,-35.3637738,149.1650799,118323.66666666667,1.0,-1.0,-152.0,0.0,0.0,-1000.0,2.3333333333333335,1.6666666666666667,4.0,RTL
06:28:27,28078.0,0.005928686664750178,0.0006048647143567601,-2.9113635222117105,0.0007036400881285468,0.0007232642577340206,0.0011682775026808183,-35.3637738,149.1650799,119492.33333333333,1.0,-1.0,-152.0,0.0,0.0,-1000.0,2.3333333333333335,2.6666666666666665,2.3333333333333335,RTL
06:28:29,28078.0,0.005901603028178215,0.0005499788385350257,-2.909771998723348,-0.0009726676313827435,0.0008039937044183413,0.0020536211862539253,-35.3637738,149.1650799,122595.66666666667,1.0,-1.0,-152.0,0.0,0.0,-999.3333333333334,1.0,2.3333333333333335,3.3333333333333335,RTL
06:28:30,14557.0,0.006354796855400006,0.000597165043776234,-2.908883889516195,0.0010294533955554168,-0.0001741424979021152,0.0017358641683434446,-35.3637738,149.1650799,124532.66666666667,1.0,-1.0,-152.0,0.0,0.0,-1000.0,2.6666666666666665,1.3333333333333333,3.3333333333333335,RTL
06:28:31,14557.0,0.006724152714014053,0.0007632224393698076,-2.9080233573913574,0.0015501837867001693,0.00187795446254313,0.0031028537390132747,-35.3637738,149.1650799,125697.33333333333,1.0,-1.6666666666666667,-152.0,0.0,0.0,-999.6666666666666,3.3333333333333335,3.6666666666666665,4.666666666666667,RTL
06:28:33,14557.0,0.005595745829244454,0.0008901890250854194,-2.906552791595459,-0.0008625567425042391,0.0008063766096408168,0.0009881771790484588,-35.3637738,149.1650799,128813.0,1.0,-1.6666666666666667,-152.0,0.0,0.0,-1000.0,1.3333333333333333,3.0,2.3333333333333335,RTL
06:28:36,67099.5,0.005900062853470445,0.0009506310743745416,-2.9052770137786865,0.00022374442778527737,0.00020108651369810104,0.001517490716651082,-35.3637738,149.1650799,133818.5,2.0,-1.0,-152.0,0.0,0.0,-1000.0,2.0,2.0,3.5,RTL
06:28:38,119642.0,0.005794823402538896,0.0007078687194734812,-2.9041668176651,-0.00025569077115505934,-0.0011456662905402482,0.0016675779479555786,-35.3637738,149.1650799,136929.0,2.0,-1.0,-152.0,0.0,0.0,-999.5,1.5,0.5,3.5,RTL
06:28:40,119642.0,0.005880406592041254,0.0007904293888714164,-2.9038283824920654,0.0003628791309893131,0.0015143549535423517,0.001303557539358735,-35.3637738,149.1650799,140040.0,1.0,-1.0,-152.0,0.0,0.0,-1000.0,2.0,3.5,3.0,RTL
06:28:41,29335.0,0.00584057392552495,0.0006933348486199975,-2.9034274220466614,6.216001929715276e-05,0.0010329398210160434,0.00018837852985598147,-35.3637738,149.1650799,141206.25,1.0,-1.0,-152.0,0.0,0.0,-999.75,2.25,2.75,1.75,RTL
06:28:42,29335.0,0.005869412561878562,0.0006667448324151337,-2.9031238555908203,0.0007781849708408117,0.00023300887551158667,0.0008406088454648852,-35.3637738,149.1650799,143145.5,1.0,-1.0,-152.0,0.0,0.0,-1000.5,2.5,2.5,2.5,RTL
06:28:44,29335.0,0.005891510983929038,0.0007447632378898561,-2.9025663137435913,0.0008147542830556631,0.0005730986595153809,0.0009198206826113164,-35.3637738,149.1650799,146253.0,1.0,-1.0,-152.0,0.0,0.0,-1000.0,3.0,2.5,2.5,RTL
06:28:46,43435.5,0.005842579063028097,0.0006802562857046723,-2.9021040201187134,0.00078151049092412,0.0003500202437862754,0.0009731615427881479,-35.3637738,149.1650799,149359.0,1.0,-1.0,-152.0,0.0,0.0,-1000.0,3.0,2.5,2.5,RTL
06:28:48,57536.0,0.005837065167725086,0.0005561353464145213,-2.9010900259017944,0.002418455551378429,0.00015399075346067548,0.001439592451788485,-35.3637738,149.1650799,152467.0,2.0,-1.0,-152.0,0.0,0.0,-1000.0,4.5,2.0,2.5,RTL
06:28:50,57536.0,0.0057975121308118105,0.0005570254579652101,-2.9008930921554565,0.0016020159237086773,0.0008556310785934329,0.001984228496439755,-35.3637738,149.1650799,155574.0,1.0,-1.0,-152.0,0.0,0.0,-999.5,3.5,3.0,3.5,RTL
06:28:51,215199.0,0.006009422475472093,0.0011209579388378188,-2.90073698759079,4.9181689973920584e-05,0.0006488148937933147,0.0014679853338748217,-35.3637738,149.1650799,156737.25,1.25,-1.0,-152.0,0.0,0.0,-999.75,2.25,2.75,3.0,RTL
06:28:52,215199.0,0.005847808672115207,0.000986941362498328,-2.9006283283233643,-0.0005531540373340249,-0.00013215839862823486,0.0020874342881143093,-35.3637738,149.1650799,158683.0,2.0,-1.0,-152.0,0.0,0.0,-999.5,2.0,2.0,4.0,RTL
06:28:54,215199.0,0.005715498002246022,0.0007611146138515323,-2.9006619453430176,0.0006089210510253906,-0.0010281807044520974,-0.0008018959779292345,-35.3637738,149.1650799,161790.0,2.0,-1.0,-152.0,0.0,0.0,-1000.5,2.5,1.5,1.0,RTL
06:28:56,215199.0,0.005829426692798734,0.0008203236211556941,-2.9002867937088013,0.002055647550150752,0.0006164411315694451,0.001642144750803709,-35.3637738,149.1650799,164895.5,1.0,-1.0,-152.0,0.0,0.0,-1000.0,4.0,2.5,3.5,RTL
06:28:57,170250.0,0.005751987104304135,0.0007051208813209087,-2.9001874327659607,0.0006405657040886581,0.0005094824591651559,0.0005011555331293494,-35.3637738,149.1650799,166061.0,1.0,-1.0,-152.0,0.0,0.0,-1000.0,2.75,2.5,2.0,RTL
06:28:58,170250.0,0.005774277029559016,0.0006349739560391754,-2.9001071453094482,0.0010370177333243191,0.000534742372110486,0.0003772704512812197,-35.3637738,149.1650799,168003.0,1.0,-1.0,-152.0,0.0,0.0,-1000.0,3.0,2.5,2.0,RTL
06:29:00,170250.0,0.005888861604034901,0.010322933550924063,-2.8999656438827515,0.000860686763189733,0.043788377195596695,0.002171747968532145,-35.3637738,149.1650799,171117.0,3.0,-0.5,-151.5,0.0,0.0,-998.0,3.5,46.0,4.0,RTL
06:29:02,170250.0,-0.0036190975224599242,0.08938496559858322,-2.899325370788574,-0.008215366397053003,0.03581241890788078,-6.0710241086781025e-05,-35.3637673,149.16508149999999,174157.5,91.5,19.5,-143.5,15.0,7.0,-993.5,-5.0,38.0,2.0,RTL
06:29:03,194308.0,-0.0269066869514063,0.1518824566155672,-2.810919225215912,-0.08360921358689666,0.11131228413432837,0.29068286198889837,-35.363759125,149.16508389999998,175195.5,152.5,42.0,-123.25,27.0,13.5,-959.75,-80.0,113.75,292.5,RTL
06:29:04,194308.0,0.06609379127621651,0.12477659434080124,-2.400459051132202,0.0615913700312376,-0.05087597295641899,0.13490107282996178,-35.36373505,149.16509474999998,176308.0,278.0,103.0,-44.0,64.5,12.5,-939.0,63.5,-47.5,136.5,RTL
06:29:06,194308.0,0.05705595761537552,0.1948522850871086,-2.349414110183716,-0.08181243389844894,-0.004905407899059355,-0.03155472408980131,-35.363668849999996,149.16511275,176231.5,470.0,80.0,24.0,109.0,1.0,-1015.0,-79.0,-2.0,-29.0,RTL
06:29:08,194308.0,-0.009436262771487236,0.16735077649354935,-2.441264033317566,-0.0022583529353141785,-0.039810508489608765,-0.046007003635168076,-35.3635718,149.1651377,176041.5,585.5,145.5,-4.0,133.0,6.0,-999.0,0.5,-36.5,-43.5,RTL
06:29:09,85210.0,-0.01950753410346806,0.14731335639953613,-2.4700582027435303,-0.024987406097352505,-0.024685684591531754,-0.03717528935521841,-35.363531699999996,149.165150175,176073.5,595.75,155.25,-5.5,142.75,27.5,-993.5,-22.5,-21.5,-34.5,RTL
06:29:10,85210.0,-0.031234308145940304,0.12690288200974464,-2.515569567680359,0.16489364113658667,-0.05522678606212139,-0.0074477994930930436,-35.36346455,149.16517175,176125.5,592.0,158.5,-1.0,139.0,36.0,-996.5,168.0,-52.5,-5.0,RTL
06:29:12,85210.0,-0.05606585927307606,0.025499920360744,-2.573667526245117,0.25404475443065166,-0.048130856826901436,-0.046440472826361656,-35.36335995,149.1652058,176186.0,482.5,130.0,0.5,118.0,31.0,-994.5,256.0,-45.0,-44.0,RTL
06:29:14,116970.5,-0.04968661069869995,-0.0457523949444294,-2.6148102283477783,0.03274701535701752,-0.004085340537130833,-0.04813384637236595,-35.3632917,149.1652285,176133.0,262.5,74.5,2.5,58.5,8.0,-998.5,34.5,-1.5,-45.0,RTL
06:29:16,148731.0,-0.03499722294509411,-0.043317293748259544,-2.6457746028900146,-0.5012944340705872,0.02378352638334036,-0.02683204784989357,-35.363262649999996,149.1652373,176082.5,70.0,30.5,0.5,19.0,-22.0,-995.0,-499.0,26.0,-24.0,RTL
06:29:18,148731.0,0.003015432972460985,-0.007967860205098987,-2.669546365737915,0.5760539770126343,0.0282406285405159,-0.003872815053910017,-35.363258200000004,149.1652386,176086.0,-2.0,12.5,-0.5,-2.0,32.0,-1007.0,578.0,31.0,-1.5,RTL
06:29:19,62040.0,0.00960891554132104,0.006637535057961941,-2.6763715147972107,-0.057239703834056854,0.0011196578852832317,-0.0069813241716474295,-35.36325865,149.165238925,176092.75,-0.5,9.75,-0.25,-2.0,-1.75,-996.75,-55.0,4.0,-4.25,RTL
06:29:20,62040.0,0.007652484579011798,-0.005321052391082048,-2.685855507850647,-0.48900841176509857,0.00825307669583708,-0.008934685494750738,-35.363259400000004,149.16523955000002,176100.0,1.0,0.0,0.0,-3.0,-17.0,-1006.0,-486.5,11.0,-6.0,RTL
06:29:22,62040.0,0.021756614558398724,0.005061224568635225,-2.6982511281967163,0.6534545421600342,0.0077637420035898685,-0.0013889690162613988,-35.363261449999996,149.16523955000002,176104.5,2.5,-9.5,0.5,-1.5,27.0,-1002.0,655.5,10.5,0.5,RTL
06:29:24,62040.0,0.011251418851315975,0.005540977697819471,-2.710156559944153,-0.4694068171083927,-0.0017250472446903586,-0.009303014725446701,-35.36326245,149.1652388,176085.5,7.0,-8.5,10.5,-0.5,-35.0,-948.5,-467.5,1.5,-6.5,RTL
06:29:25,21482.0,-0.00249176929355599,0.0047784612979739904,-2.7134002447128296,-1.049970954656601,0.0009123585186898708,-0.006808516220189631,-35.36326265,149.165238775,175798.75,8.5,-8.25,59.0,-0.5,-29.75,-944.75,-1046.5,4.0,-3.75,RTL
06:29:26,21482.0,-4.554633051156998e-06,0.0007571742025902495,-2.7196069955825806,-0.8456918299198151,0.00033485854510217905,-0.010432437993586063,-35.3632629,149.16523915,174619.0,10.0,-10.0,117.0,-2.0,0.0,-1006.0,-840.5,3.0,-8.0,RTL
06:29:28,21482.0,0.003459167492110282,0.0019177908543497324,-2.7287144660949707,-1.361108422279358,1.8964288756251335e-05,-0.0029641439905390143,-35.3632633,149.1652399,172437.5,11.5,-17.5,96.5,-0.5,-43.0,-1011.5,-1357.0,3.0,0.0,RTL
06:29:30,21482.0,0.0001905087847262621,0.007087611360475421,-2.736029624938965,-1.5344452261924744,0.009927076753228903,-0.009742616675794125,-35.36326355,149.16523990000002,170395.0,13.0,-23.5,98.5,1.5,-54.0,-1007.5,-1530.0,13.0,-6.5,RTL
06:29:31,6259.0,-0.010045887087471783,0.007630169158801436,-2.7382420897483826,-1.4604487419128418,0.005335765541531146,-0.008683057967573404,-35.36326325,149.165238725,169624.5,11.5,-17.0,98.25,2.0,-71.0,-1006.25,-1457.25,8.5,-5.5,RTL
06:29:32,6259.0,-0.012677419930696487,0.003123248810879886,-2.742148756980896,-1.3789197206497192,0.0015000785933807492,-0.0058415241073817015,-35.363262750000004,149.1652376,168356.5,8.0,-3.5,101.0,0.0,-71.0,-1006.5,-1375.5,5.0,-3.5,RTL
06:29:34,6259.0,-0.011570627568289638,0.00273825298063457,-2.7493289709091187,-1.4619011282920837,-0.0016242862911894917,-0.0066379744675941765,-35.36326255,149.16523755,166322.0,4.0,-1.0,99.5,2.0,-71.0,-972.5,-1458.5,1.5,-3.5,RTL
06:29:36,14014.5,-0.023932425305247307,0.004521979717537761,-2.753255844116211,-1.5661638379096985,0.0005072817439213395,-0.005182008142583072,-35.3632624,149.1652364,164281.0,1.5,6.5,100.0,0.0,-65.0,-974.5,-1562.0,4.0,-2.5,RTL
06:29:38,21770.0,-0.03288854658603668,0.0045228328090161085,-2.757952570915222,-1.2592011094093323,0.001793038914911449,-0.0009130891994573176,-35.36326215,149.16523565,162241.0,0.0,10.5,98.0,0.5,-31.0,-979.0,-1254.5,5.5,1.5,RTL
06:29:40,21770.0,-0.008430490037426353,-0.00027976607088930905,-2.7616286277770996,0.27518654614686966,0.001079874811694026,0.00019269977929070592,-35.3632618,149.16523554999998,160215.0,-2.0,17.5,99.0,-1.0,46.5,-980.5,280.0,4.5,2.5,RTL
06:29:41,131770.0,-0.007694629835896194,-0.0001475484350521583,-2.762485682964325,0.53730358928442,-0.0005567664629779756,0.0013603889383375645,-35.36326185,149.165235875,159445.0,-1.0,14.0,101.75,-1.75,65.25,-1002.0,542.0,3.0,4.25,RTL
06:29:42,131770.0,0.015077841933816671,-0.003330771462060511,-2.765241026878357,0.8311571776866913,0.0011017099022865295,0.00254433392547071,-35.3632622,149.1652373,158181.5,0.0,10.0,104.0,-3.5,71.5,-1030.0,836.0,5.5,4.5,RTL
06:29:44,131770.0,0.021245496347546577,-0.00033474681549705565,-2.768486738204956,0.9086745977401733,-0.0009687613928690553,0.000928309396840632,-35.36326305,149.16523949999998,156125.5,7.5,-11.0,102.0,-3.5,71.0,-1024.5,913.5,2.5,3.5,RTL
06:29:46,131770.0,0.04290025867521763,0.0025198644725605845,-2.7706087827682495,1.5060532093048096,0.004301517968997359,0.009485704824328423,-35.3632639,149.16524135,154083.5,14.0,-29.5,101.0,0.0,70.0,-993.5,1510.5,8.5,12.0,RTL
06:29:47,30595.0,0.032935657538473606,0.004864431219175458,-2.7714683413505554,1.3664797246456146,0.002173511777073145,0.00580256269313395,-35.36326375,149.1652408,153319.25,14.5,-30.5,99.5,2.5,64.0,-1029.25,1371.0,6.0,8.25,RTL
06:29:48,30595.0,0.028816438280045986,0.006243566516786814,-2.7717291116714478,1.5598358511924744,-0.0053999683586880565,0.007278494304046035,-35.36326335,149.16523925,152045.5,12.5,-22.0,100.0,4.0,48.0,-995.0,1563.5,-1.0,9.5,RTL
06:29:50,30595.0,0.033904895186424255,-0.0024997934233397245,-2.772698760032654,1.226897418498993,-0.008433973882347345,-0.008686005836352706,-35.3632627,149.16523865,149989.0,7.0,-9.0,97.0,0.0,31.0,-995.5,1230.0,-4.0,-5.5,RTL
06:29:52,24764.5,0.039332397282123566,-0.0032438586931675673,-2.776300549507141,1.0204296112060547,0.00016879604663699865,0.004161815741099417,-35.3632628,149.1652397,147950.5,7.0,-15.5,99.0,-3.5,16.5,-1009.5,1024.0,4.0,6.5,RTL
06:29:54,18934.0,0.04163172096014023,0.00356022862251848,-2.7776862382888794,1.1239251494407654,-0.0009224222740158439,-0.004206215962767601,-35.3632633,149.16524085,145929.0,10.0,-30.0,101.5,2.0,9.5,-1020.5,1128.0,3.0,-1.0,RTL
06:29:56,18934.0,0.004012813791632652,0.006716892123222351,-2.7785520553588867,0.04282919317483902,-0.005855068098753691,-0.0012502634199336171,-35.3632627,149.1652374,143912.0,6.0,-9.0,100.0,2.0,-35.0,-1015.0,46.0,-1.0,1.0,RTL
06:29:57,40096.0,0.006622494198381901,0.0039201429462991655,-2.7787152528762817,0.3402470741420984,-0.00226964452303946,-0.0023419286007992923,-35.363262425,149.16523675,143271.5,3.75,-1.5,100.5,3.0,-29.0,-976.5,344.25,1.75,1.25,RTL
06:29:58,40096.0,0.003330673003802076,0.003649255260825157,-2.7796112298965454,0.153251051902771,-0.00016157259233295918,5.155336111783981e-06,-35.363262,149.16523575000002,142258.5,0.5,7.0,100.5,3.0,-33.5,-972.0,156.5,3.5,3.0,RTL
06:30:00,40096.0,-0.012984983623027802,0.0021860243859919137,-2.7801008224487305,0.03046157956123352,-0.0005410518497228622,0.008968748385086656,-35.36326115,149.16523365,140227.5,-7.5,27.5,105.0,1.0,-37.5,-990.5,34.0,3.5,12.0,RTL
06:30:02,40096.0,-0.012039316119626164,-0.003045817604288459,-2.7796770334243774,-1.2422312498092651,0.001831871923059225,0.005252952105365694,-35.3632612,149.16523454999998,138190.5,-9.5,30.0,109.0,-1.0,-80.0,-928.0,-1239.0,6.0,8.0,RTL
06:30:03,89142.0,0.0006896150880493224,-0.003996732470113784,-2.780415952205658,-0.8610738813877106,0.002655133022926748,-0.001356603519525379,-35.363261574999996,149.16523577499999,137173.5,-7.25,23.25,101.25,-5.0,-60.5,-999.5,-857.75,6.5,1.75,RTL
06:30:04,89142.0,0.019054576754570007,-0.004890902899205685,-2.7819955348968506,-1.0315745770931244,0.00442865677177906,-0.005745131173171103,-35.363262199999994,149.16523784999998,136151.0,-2.5,10.5,101.0,-6.0,-60.0,-1038.0,-1028.0,8.5,-2.5,RTL
06:30:06,89142.0,0.00946193962590769,0.0032387911342084408,-2.782870292663574,-1.3231433629989624,0.005974288797006011,0.006375325843691826,-35.363263450000005,149.16524055000002,134125.0,8.0,-18.5,107.5,-0.5,-42.0,-963.5,-1317.5,10.0,9.5,RTL
06:30:08,89142.0,-0.019823173061013222,0.0068157215137034655,-2.783539891242981,-1.5089439153671265,0.0034887511283159256,0.0027704762760549784,-35.363263200000006,149.16523845,132073.0,9.0,-15.0,107.0,4.5,-73.0,-960.5,-1504.0,7.5,5.5,RTL
06:30:09,6856.0,-0.025975804310292006,0.004805181873962283,-2.783165991306305,-1.26547172665596,-0.0017959688557311893,-0.0051315242308191955,-35.363262475,149.16523665,131058.0,5.0,-2.75,101.0,3.5,-73.25,-1022.75,-1261.25,2.5,-1.5,RTL
06:30:10,6856.0,-0.03312957379966974,0.0033252642024308443,-2.783356547355652,-1.4623417854309082,-0.003362758783623576,0.006244674208573997,-35.363261800000004,149.16523510000002,130046.5,-0.5,10.5,104.5,4.0,-72.5,-1005.5,-1458.5,1.0,9.5,RTL
06:30:12,6856.0,-0.04308910295367241,0.0014977133250795305,-2.783842921257019,-1.2205740809440613,-0.0091652637347579,-0.004168432438746095,-35.36326085,149.16523289999998,128002.0,-10.5,34.5,103.0,0.5,-66.0,-1044.0,-1216.5,-3.5,-1.0,RTL
06:30:14,30704.0,-0.05060196481645107,0.001448111841455102,-2.782745361328125,-1.4737523794174194,0.0007434538565576077,-0.001183528802357614,-35.36326065,149.1652322,125963.0,-14.0,42.5,108.0,0.0,-59.0,-1002.5,-1470.5,5.0,2.0,RTL
06:30:16,54552.0,-0.03228168003261089,-0.004589725285768509,-2.784077763557434,-1.4025952816009521,0.005529921501874924,-0.0046296207583509386,-35.363260999999994,149.16523375,123924.0,-12.0,41.0,107.0,-4.5,-36.0,-938.0,-1399.5,10.0,-1.0,RTL
06:30:18,54552.0,0.0006956082070246339,-0.0020441068918444216,-2.7843393087387085,-1.0764265060424805,0.004501409595832229,-0.0038006912218406796,-35.3632622,149.16523755,121874.5,-3.5,13.0,102.0,-3.0,-36.5,-1062.0,-1073.0,9.0,-0.5,RTL
06:30:19,138796.0,-0.010350857046432793,0.0017652100505074486,-2.784160614013672,-1.0485756248235703,0.0041595203801989555,0.0016144347027875483,-35.36326265,149.165238125,120857.25,0.75,0.25,102.75,-2.5,-14.25,-995.0,-1044.5,8.75,5.0,RTL
06:30:20,138796.0,-0.009389098500832915,0.0028744725277647376,-2.783324122428894,-0.43349766731262207,-0.00023955234792083502,0.01339589525014162,-35.36326285,149.1652381,119831.0,3.5,-2.0,104.5,-1.0,17.0,-1023.0,-429.0,4.0,16.5,RTL
06:30:22,138796.0,0.0065238806419074535,-0.0021722773017245345,-2.7842910289764404,-0.08165736496448517,0.003072046907618642,-0.0029562865383923054,-35.36326305,149.1652391,117778.0,8.0,-8.5,98.5,-4.5,41.5,-995.0,-77.5,7.5,0.5,RTL
06:30:24,95823.0,0.01200343924574554,-0.0006102429761085659,-2.78472638130188,-0.8498947024345398,0.008356370264664292,-0.001406931085512042,-35.36326355,149.1652416,115748.5,11.5,-29.5,105.5,-0.5,-7.0,-976.0,-844.5,13.0,2.0,RTL
06:30:26,52850.0,-0.001213923329487443,0.005703183356672525,-2.7848188877105713,0.1717105694115162,-0.004278316395357251,0.007761233486235142,-35.3632633,149.16523990000002,113703.5,11.5,-28.5,101.0,2.0,47.0,-944.5,177.5,0.5,10.5,RTL
06:30:28,52850.0,0.0066152100916951895,-0.0022970326826907694,-2.7843875885009766,0.19125332683324814,-0.004132929723709822,-0.007758512278087437,-35.363262750000004,149.1652388,111641.0,7.5,-11.5,99.5,-2.5,51.0,-1050.5,197.0,1.0,-4.5,RTL
06:30:29,4346.0,0.02125872252508998,-0.004864881979301572,-2.785099744796753,0.26712062675505877,0.0007623265264555812,0.0002736675087362528,-35.363262875000004,149.1652401,110614.0,7.5,-16.5,101.5,-2.75,59.0,-965.25,273.0,5.75,4.0,RTL
06:30:30,4346.0,0.029343189671635628,-0.0015092551184352487,-2.78572416305542,0.7693121880292892,0.006417960859835148,0.0011738408356904984,-35.3632631,149.16524090000001,109593.5,8.5,-26.0,96.5,-0.5,61.5,-974.0,775.0,11.0,4.5,RTL
06:30:32,4346.0,0.013023848878219724,0.004749529995024204,-2.786286950111389,0.9660006463527679,0.003551834262907505,-0.001758061582222581,-35.363263149999995,149.1652396,107547.0,9.0,-24.5,95.0,1.5,64.5,-992.5,971.5,8.5,2.0,RTL
06:30:34,8526.0,-0.015044864732772112,0.0034942980855703354,-2.785212755203247,0.7858015447854996,0.0029984063003212214,0.005178816383704543,-35.36326225,149.16523675000002,105518.0,3.5,-5.0,98.5,1.5,54.0,-1001.5,792.0,7.5,8.5,RTL
06:30:36,12706.0,-0.02166771423071623,-0.0012833166983909905,-2.7838730812072754,0.41770724952220917,-0.003359506605193019,0.010717100463807583,-35.363261550000004,149.16523525,103481.5,-3.0,13.0,104.5,-0.5,63.5,-954.5,424.0,1.5,14.0,RTL
06:30:38,12706.0,0.04003992211073637,-0.008860735222697258,-2.7850804328918457,0.887965589761734,0.004842047113925219,0.009063371107913554,-35.36326225,149.16523890000002,101382.5,0.0,0.5,104.5,-5.5,49.0,-1022.0,893.0,9.5,12.5,RTL
06:30:39,18969.0,0.07464059069752693,-0.006732061970978975,-2.78432697057724,1.1281283646821976,0.002336546080186963,-0.003599323856178671,-35.363263175,149.16524185,100313.75,5.25,-19.75,99.0,-5.25,24.25,-998.5,1131.5,6.75,0.25,RTL
06:30:40,18969.0,0.07191234827041626,-0.0024729265714995563,-2.784730315208435,0.9890263974666595,0.0014907331205904484,-0.0008462178520858288,-35.3632639,149.16524335,99296.0,12.0,-38.5,101.5,-2.5,11.0,-1024.5,993.5,6.5,2.5,RTL
06:30:42,18969.0,0.06681041792035103,-9.119988681050017e-05,-2.7842291593551636,1.3149074912071228,-0.0048801954835653305,-0.005817602621391416,-35.3632645,149.1652441,97279.5,21.0,-54.5,100.0,-1.0,58.5,-1031.5,1321.0,0.0,-2.0,RTL
06:30:44,18969.0,0.06102996878325939,-6.308231604634784e-05,-2.7844828367233276,1.2966246604919434,0.0008324827067553997,-0.0027843728894367814,-35.36326475,149.16524495,95263.5,26.5,-66.0,103.0,-1.0,80.0,-976.0,1305.5,5.5,1.0,RTL
06:30:45,46621.0,0.06269245874136686,-0.0009901940065901726,-2.784783661365509,1.0003042966127396,8.757272735238075e-05,0.001252738235052675,-35.363264825,149.1652454,94244.0,27.0,-67.25,103.0,-0.75,70.5,-1017.25,1010.0,4.75,4.25,RTL
06:30:46,46621.0,0.07125677168369293,0.0020383388618938625,-2.785075545310974,1.1879060864448547,0.00511905737221241,0.0023013445315882564,-35.36326495,149.1652457,93219.0,27.0,-71.5,102.5,1.0,65.0,-1029.5,1198.0,10.0,5.5,RTL
06:30:48,46621.0,0.041485642082989216,0.01078935107216239,-2.7842053174972534,1.2437945008277893,-0.0012189545668661594,0.00020987307652831078,-35.36326415,149.16524199999998,91152.0,22.5,-55.5,104.0,6.5,20.5,-1006.5,1252.5,3.5,4.0,RTL
06:30:50,64888.5,-0.010435903095640242,0.008007942931726575,-2.783866286277771,1.301937460899353,-0.00372593489009887,0.0061139608733356,-35.36326205,149.16523575,89082.0,7.0,-10.5,94.0,7.5,53.0,-952.5,1312.0,1.5,9.5,RTL
06:30:52,83156.0,-0.028971001505851746,0.0012036493862979114,-2.7829172611236572,1.288930058479309,-0.009320149663835764,0.004869483644142747,-35.363260499999996,149.16523195,87039.0,-9.5,34.5,98.0,1.0,71.0,-1004.0,1299.0,-3.5,8.5,RTL
06:30:54,83156.0,-0.017429213970899582,-0.005834265146404505,-2.782588481903076,0.8701502084732056,-0.006298584397882223,-0.0024088032077997923,-35.36326055,149.16523304999998,85006.0,-13.5,40.5,102.0,-5.0,71.0,-1044.0,880.0,-1.0,1.0,RTL
06:30:55,81317.0,0.01733585742476862,-0.009358585113659501,-2.782953441143036,0.9965780675411224,-8.873781189322472e-05,-0.005603574099950492,-35.363261275,149.16523577499999,83991.25,-9.75,29.75,101.75,-8.5,83.0,-976.0,1006.75,4.75,-1.5,RTL
06:30:56,81317.0,0.040615642443299294,-0.0075749491807073355,-2.782513380050659,0.7652623653411865,0.006217896239832044,-0.010236643021926284,-35.363262500000005,149.16523940000002,82972.0,-2.5,5.0,103.0,-7.5,71.5,-993.0,776.0,10.5,-6.5,RTL
06:30:58,81317.0,0.032126360572874546,0.007965667406097054,-2.783517599105835,1.2878170609474182,0.006744402227923274,0.0028366802725940943,-35.36326365,149.16524075,80934.0,10.5,-29.5,101.0,1.0,69.0,-1015.0,1297.5,11.5,6.5,RTL
06:31:00,81317.0,0.014302435331046581,0.0023634387252968736,-2.7821239233016968,0.7449240386486053,-0.004442908801138401,0.005874020047485828,-35.3632627,149.1652376,78891.5,7.5,-7.5,101.5,0.5,-8.0,-974.0,752.0,1.0,9.5,RTL
06:31:01,20932.0,0.019408109597861767,-0.0023538190580438823,-2.7825847864151,0.3267059773206711,-0.004627467016689479,-0.006109820678830147,-35.363262375000005,149.165237475,77875.25,3.75,-0.5,101.25,0.0,-25.0,-990.5,333.75,0.75,-2.0,RTL
06:31:02,20932.0,0.018157904967665672,-0.001120491695473902,-2.7827532291412354,-0.13431715220212936,2.277153544127941e-05,-0.003258076496422291,-35.363262250000005,149.16523765,76859.5,0.5,-0.5,101.5,2.0,-41.5,-961.5,-126.0,5.5,1.0,RTL
06:31:04,20932.0,-0.0146328741684556,0.003199479077011347,-2.782979130744934,-0.535907581448555,-0.0036809348966926336,-0.011825724970549345,-35.36326165,149.16523565,74810.5,-3.0,7.5,101.5,3.0,-66.5,-1023.0,-528.0,2.0,-7.5,RTL
06:31:06,39065.0,-0.005220316117629409,-0.0009303497790824622,-2.7834752798080444,0.1876031532883644,-0.0059253794606775045,-0.0017891451716423035,-35.363261,149.16523415,72758.0,-10.0,25.5,102.0,3.5,-35.0,-1016.0,195.0,-0.5,2.5,RTL
06:31:08,57198.0,-0.038827259093523026,0.00031662914261687547,-2.782508611679077,-0.7412505149841309,-0.0031468854285776615,-0.012842269148677588,-35.3632603,149.165232,70720.5,-17.0,40.0,103.5,2.0,-74.0,-942.0,-734.5,2.5,-8.5,RTL
06:31:10,57198.0,-0.035858361050486565,-0.00722329830750823,-2.7817013263702393,-1.2699710726737976,0.004091614857316017,0.002973416121676564,-35.3632604,149.16523304999998,68670.0,-17.5,44.0,95.0,-2.0,-32.0,-1022.0,-1262.5,9.0,6.5,RTL
06:31:11,80370.0,-0.017777418484911323,-0.0073198669124394655,-2.781541645526886,-0.8189585953950882,0.0008088600588962436,-0.00359726429451257,-35.363261025,149.16523505,67649.5,-14.5,34.0,100.0,-6.0,3.75,-997.75,-810.25,5.5,0.25,RTL
06:31:12,80370.0,0.003299867268651724,-0.0038083968684077263,-2.7832809686660767,0.04829026758670807,0.005514146061614156,0.004051349591463804,-35.363261800000004,149.1652371,66625.0,-9.0,17.0,101.5,-2.0,41.5,-956.5,57.5,10.5,8.0,RTL
06:31:14,80370.0,-0.026433744467794895,0.0061904024332761765,-2.782561779022217,0.6145391017198563,0.001999222207814455,0.0006267144344747066,-35.3632619,149.1652355,64581.5,-3.5,8.0,98.5,1.5,58.0,-978.0,622.0,7.5,5.0,RTL
06:31:16,80370.0,0.013145757606253028,-0.005983459413982928,-2.7809442281723022,1.3193538188934326,-0.010750256944447756,-0.008741321740671992,-35.36326135,149.16523469999998,62549.0,-6.5,27.0,101.0,-3.0,42.0,-959.5,1324.5,-5.0,-4.5,RTL
06:31:17,12475.0,0.03042078809812665,-0.009466601768508554,-2.7813994884490967,0.09378695674240589,-0.0017114782240241766,-0.0035442382795736194,-35.363261675000004,149.165236975,61521.75,-6.0,18.25,100.25,-4.25,-27.0,-1010.0,98.0,3.5,0.5,RTL
06:31:18,12475.0,0.04869350232183933,-0.005805396591313183,-2.7820440530776978,0.5406453609466553,-0.003580818185582757,-0.004713864531368017,-35.3632623,149.16523915,60493.0,-2.0,0.5,100.0,-3.0,-18.0,-979.5,544.5,1.5,-0.5,RTL
06:31:20,12475.0,0.02816537208855152,0.001221310521941632,-2.7813881635665894,0.2860426716506481,-0.004048321978189051,-0.006742588244378567,-35.36326285,149.16523955,58460.0,3.5,-16.5,100.5,2.5,-35.5,-918.0,290.0,1.0,-3.0,RTL
06:31:22,12475.0,0.013763224706053734,-0.002598739927634597,-2.7807023525238037,-0.8282157778739929,-0.0027773522306233644,-0.02632690779864788,-35.3632626,149.1652389,56779.0,3.0,-11.0,102.0,0.0,-67.0,-951.0,-824.0,2.0,-22.0,RTL
06:31:23,93924.0,-0.0048270359402522445,-0.003190046234522015,-2.7814155220985413,-0.8944499492645264,-0.0004872615681961179,0.00033514376264065504,-35.3632626,149.16523917499998,55523.25,3.0,-13.5,99.0,-0.5,-2.75,-968.25,-886.0,4.25,3.75,RTL
06:31:24,93924.0,-0.0008722115599084646,-0.00424396782182157,-2.7811825275421143,-1.0914942622184753,0.00158083182759583,-0.003566027618944645,-35.3632626,149.16523955000002,54747.5,3.5,-14.5,94.0,-2.0,-13.0,-1005.5,-1083.0,6.5,0.5,RTL
06:31:26,93924.0,0.012392697855830193,-0.0018647624528966844,-2.7816632986068726,-0.8856292366981506,0.009684452787041664,-0.0018084889743477106,-35.3632629,149.16524095,52710.0,5.0,-24.0,93.5,-1.0,-8.5,-1020.5,-876.5,14.5,2.0,RTL
06:31:28,88008.5,-0.02500934898853302,0.008824510034173727,-2.7824381589889526,-1.3924230933189392,0.0004980308003723621,0.0011287105735391378,-35.3632626,149.16523784999998,50690.0,3.5,-16.0,94.5,6.5,-61.0,-974.5,-1384.0,5.0,5.0,RTL
06:31:30,82093.0,-0.04223783686757088,-0.0006357909878715873,-2.781127452850342,-1.162609338760376,0.00045923609286546707,-0.0033358829095959663,-35.3632612,149.1652342,48659.0,-5.5,22.0,97.0,1.5,-32.0,-992.5,-1154.5,5.0,1.0,RTL
06:31:32,82093.0,-0.05206190049648285,-0.0002916424273280427,-2.7801671028137207,-0.14350059628486633,4.7132023610174656e-05,0.0012872242368757725,-35.36326055,149.1652327,46636.5,-12.5,32.5,99.0,0.0,38.0,-963.0,-134.5,5.0,5.0,RTL
06:31:33,1928.0,-0.03381591755896807,-0.0037619996583089232,-2.7805539965629578,-0.10654151439666748,-0.0031630948069505394,-0.0034277088125236332,-35.36326055,149.16523302500002,45366.75,-14.5,38.0,100.75,-2.75,40.5,-996.25,-98.0,1.5,0.25,RTL
06:31:34,1928.0,-0.023739921860396862,-0.006170948967337608,-2.7804372310638428,-0.2560340538620949,-0.0009778965031728148,0.001754795084707439,-35.363260749999995,149.165234,44598.5,-14.0,36.0,99.5,-4.0,39.5,-971.0,-247.5,3.5,5.5,RTL
06:31:36,1928.0,-0.004015711368992925,-0.003903338103555143,-2.781384825706482,0.31798355281352997,0.0059236211236566305,-0.008514265296980739,-35.36326165,149.1652368,42542.5,-7.5,13.0,103.5,-3.5,65.0,-982.5,325.5,10.5,-4.0,RTL
06:31:38,1928.0,0.020298970863223076,-0.001297864073421806,-2.779680848121643,1.43429297208786,-0.0026429174467921257,0.003467522095888853,-35.36326215,149.1652378,40505.5,-1.5,0.0,100.0,-2.0,72.5,-973.5,1441.0,2.0,7.0,RTL
06:31:39,71064.0,0.03372774738818407,-0.005788840819150209,-2.7800527215003967,1.384778916835785,-0.002298095147125423,-0.007280108868144453,-35.36326244999999,149.16523895,39229.5,1.25,-6.25,98.0,-3.5,71.75,-1009.25,1391.25,2.75,-3.75,RTL
06:31:40,71064.0,0.05134281702339649,-0.006659587845206261,-2.7800482511520386,1.4628560543060303,-0.0048063237918540835,-0.0032464596442878246,-35.3632627,149.1652401,38472.5,3.0,-12.5,99.5,-4.0,50.0,-979.5,1468.5,0.0,0.0,RTL
06:31:42,71064.0,0.06798983365297318,-0.0028760534478351474,-2.7805083990097046,1.029215157032013,-0.0006935440469533205,-0.0013987270649522543,-35.363263599999996,149.1652429,36429.5,10.5,-38.5,100.5,-1.0,11.5,-1031.0,1034.5,4.0,2.0,RTL
06:31:44,71064.0,0.044262636452913284,0.00299837626516819,-2.7811282873153687,0.6276141107082367,0.004904583794996142,0.0023532265331596136,-35.36326365,149.1652423,34388.5,12.5,-42.5,100.0,4.0,-11.0,-1007.0,633.0,9.5,5.5,RTL
06:31:45,229129.0,0.007687581703066826,0.01015208475291729,-2.781736135482788,0.6604424118995667,0.00439463066868484,0.005695057800039649,-35.363262825,149.16523855,33107.75,7.75,-28.0,99.0,6.75,-17.75,-1011.0,665.75,9.0,9.25,RTL
06:31:46,229129.0,-0.023568833246827126,0.010618234984576702,-2.7793723344802856,0.8705075681209564,-0.006332510733045638,-0.0015655450988560915,-35.36326185,149.16523525000002,32340.0,2.0,-8.0,100.5,7.5,1.5,-992.5,876.0,-1.0,2.5,RTL
06:31:48,229129.0,-0.013306562788784504,-0.0034265673020854592,-2.77783203125,1.3585850596427917,-0.007687886478379369,-0.004579532775096595,-35.363260249999996,149.1652316,30316.0,-13.5,43.0,100.0,-1.5,45.0,-1029.0,1364.0,-3.0,-0.5,RTL
06:31:50,115897.0,0.029552343301475048,-0.010526000056415796,-2.77965247631073,1.3260979056358337,-0.0032705729827284813,-0.010057680774480104,-35.3632612,149.1652363,28275.0,-10.5,24.0,98.0,-6.0,84.5,-974.5,1333.5,1.0,-5.5,RTL
06:31:52,2665.0,0.06217944249510765,-0.005946951452642679,-2.778222441673279,1.149030089378357,0.003139020409435034,-0.0011806224938482046,-35.3632633,149.16524220000002,26231.5,4.0,-21.5,101.0,-4.5,78.5,-998.5,1157.0,7.5,2.5,RTL
06:31:54,2665.0,0.028746108524501324,0.0020465172128751874,-2.778332829475403,0.6780872344970703,0.0035457988269627094,0.003981052781455219,-35.363264,149.1652428,24196.5,14.5,-46.0,100.0,0.5,63.0,-982.0,687.5,8.0,7.0,RTL
06:31:55,5485.0,-0.004151822067797184,0.005165036884136498,-2.7794500589370728,-0.8647982627153397,0.004083277191966772,0.004819050547666848,-35.36326355,149.16524115,22907.5,12.75,-38.5,98.5,3.75,-12.5,-975.25,-854.75,8.25,8.0,RTL
06:31:56,5485.0,-0.013172879116609693,0.006426501786336303,-2.7788171768188477,-0.3504551351070404,-0.0020615585381165147,0.0005702988710254431,-35.3632631,149.16523945,22142.5,10.5,-30.0,97.5,4.0,15.5,-1021.5,-340.0,2.0,4.0,RTL
06:31:58,5485.0,-0.005831284332089126,-0.002291229320690036,-2.7783501148223877,1.0708029568195343,-0.006156629417091608,0.005963049363344908,-35.363261550000004,149.165236,20081.5,-0.5,2.0,98.0,1.0,64.0,-1042.0,1079.5,-1.5,9.0,RTL
06:32:00,5485.0,0.020958897657692432,-0.005395529558882117,-2.7773327827453613,1.245320439338684,-0.009229770861566067,-0.0002752413274720311,-35.36326165,149.16523725000002,18034.0,-4.0,4.5,92.5,-3.0,71.0,-1030.5,1254.5,-4.0,3.0,RTL
06:32:01,142006.0,0.027372249867767096,-0.002050846247584559,-2.7787951827049255,1.3523839712142944,0.0030343378894031048,0.0026806601672433317,-35.363261949999995,149.16523805,16771.0,-2.5,-1.75,97.75,-0.25,58.25,-1033.0,1360.5,7.25,6.0,RTL
06:32:02,142006.0,0.03223766013979912,6.244168616831303e-05,-2.777152419090271,1.368671953678131,0.00437953625805676,0.005456647253595293,-35.3632621,149.1652381,16010.0,-1.5,-3.5,97.5,-1.0,49.0,-1031.5,1376.0,8.5,8.5,RTL
06:32:04,142006.0,0.03126374166458845,-0.004307921510189772,-2.7774178981781006,1.4601733684539795,-0.007951741805300117,-0.0017516440711915493,-35.3632622,149.16523834999998,13982.0,0.0,-4.0,98.0,-1.0,60.0,-994.0,1468.5,-3.0,2.0,RTL
06:32:06,98124.0,0.014479219913482666,-0.0035849225241690874,-2.7779263257980347,0.17259277030825615,0.004583399975672364,-0.005660194903612137,-35.363262649999996,149.16524005000002,11944.5,3.5,-19.5,97.5,-1.0,47.5,-1034.5,182.5,9.0,-2.0,RTL
06:32:08,54242.0,-0.0008762418292462826,0.0023448722204193473,-2.7790976762771606,-0.7584581077098846,0.0034951248671859503,0.003745425376109779,-35.3632628,149.16523955,11032.0,4.0,-21.0,24.0,2.5,-24.5,-991.5,-749.0,7.0,6.5,RTL
06:32:10,54242.0,-0.03779779002070427,0.005120949354022741,-2.778908133506775,-0.37500605545938015,0.0005580121651291847,0.006838222499936819,-35.363261699999995,149.1652355,10411.5,-2.0,3.0,33.5,4.5,-3.0,-1006.5,-365.0,4.5,10.0,RTL
06:32:11,82088.0,-0.04013229068368673,0.0031872300896793604,-2.7786293029785156,-0.223899744451046,-0.0034966301172971725,-0.0017656543059274554,-35.3632607,149.165232725,9981.5,-10.5,26.25,33.75,4.25,-24.75,-991.0,-216.5,1.25,1.75,RTL
06:32:12,82088.0,-0.05358815751969814,0.0005350186438590754,-2.778109073638916,-0.477020014077425,-0.003498154692351818,0.001685462542809546,-35.363260249999996,149.1652316,9724.0,-14.5,38.5,33.5,1.5,-2.5,-999.0,-468.0,0.5,5.0,RTL
06:32:14,82088.0,-0.028692022897303104,-0.0058355003129690886,-2.777958393096924,-0.09830473363399506,0.0005060622934252024,0.0021307123824954033,-35.363260049999994,149.1652325,9045.5,-20.0,46.5,33.0,-1.0,17.5,-1001.0,-90.0,4.5,5.0,RTL
06:32:16,82088.0,-0.01264767162501812,-0.0020884532714262605,-2.7773776054382324,-0.03817091882228851,-0.0002069380134344101,-0.002375122858211398,-35.3632607,149.16523375,8806.5,-16.5,35.5,-6.0,-1.5,-14.5,-982.0,-32.5,3.5,1.0,RTL
06:32:17,21292.0,-0.0019764975731959566,-0.0036865472211502492,-2.7772255539894104,0.12131191976368427,-0.0015736932400614023,-0.002840908709913492,-35.3632611,149.16523485,8860.75,-13.25,29.75,-1.5,-2.0,-1.25,-991.5,127.0,2.25,0.75,RTL
06:32:18,21292.0,-0.004922014020849019,-0.0031814774265512824,-2.7777734994888306,0.10313594341278076,0.0030001967679709196,0.002095452160574496,-35.36326135,149.16523560000002,8870.5,-11.0,23.0,-0.5,-1.0,19.5,-1001.5,109.5,6.5,5.5,RTL
06:32:20,21292.0,0.0005548065528273582,-0.0012555063876789063,-2.777186155319214,0.2807365581393242,-0.005777355283498764,-0.0010838453890755773,-35.3632616,149.16523585,8870.0,-7.5,17.0,0.0,0.0,-4.0,-1005.0,286.0,-1.0,2.0,RTL
06:32:22,21292.0,-0.007349387160502374,-0.0007524561660829931,-2.7776565551757812,-0.41757842898368835,0.002159245777875185,0.00045246153604239225,-35.3632617,149.1652364,8756.0,-6.0,10.0,1.0,0.0,-21.0,-1016.0,-413.0,6.0,3.5,RTL
06:32:23,192775.0,-0.009275725285988301,0.00017969241707760375,-2.7779377698898315,-0.1053980402648449,-0.0009102398180402815,-0.0004324857727624476,-35.3632617,149.16523602499998,8761.5,-6.0,11.75,-0.25,0.75,-11.75,-990.75,-100.75,2.75,3.0,RTL
06:32:24,192775.0,-0.009160130168311298,0.00034716507070697844,-2.7772841453552246,0.4223044514656067,-0.0010933747980743647,0.0017399380449205637,-35.36326165,149.16523569999998,8770.5,-6.0,13.5,-1.0,0.5,26.0,-1006.0,427.0,2.5,4.5,RTL
06:32:26,192775.0,-0.026223089545965195,8.46817983983783e-05,-2.7773163318634033,-0.5314837098121643,0.003600024851039052,0.0013904955703765154,-35.36326135,149.1652348,8780.5,-8.5,20.5,0.0,0.5,-21.0,-1000.5,-526.5,7.5,4.5,RTL
06:32:28,158171.5,-0.009272904368117452,-0.001335544337052852,-2.777107834815979,0.5419149398803711,-0.0010528390994295478,0.0025346340844407678,-35.3632611,149.16523445,8783.5,-10.5,25.5,0.0,0.0,34.5,-993.5,546.0,2.5,5.5,RTL
06:32:30,123568.0,-0.007165688322857022,-0.0006115432479418814,-2.777655243873596,0.7564113736152649,-0.0026813445147126913,-0.000345724867656827,-35.36326095,149.16523415,8202.5,-12.0,27.5,39.5,0.5,12.0,-1002.0,759.0,1.5,3.0,RTL
06:32:32,123568.0,0.004966318607330322,-0.004587576258927584,-2.7771958112716675,0.7139261662960052,-0.006230116588994861,-0.0005495657678693533,-35.3632611,149.16523495,7473.0,-11.0,26.5,33.5,-2.0,23.0,-1022.5,715.5,-2.0,2.0,RTL
06:32:33,120825.0,0.005358154769055545,-0.0073793173069134355,-2.776926577091217,-0.382841095328331,-0.0012381871929392219,-0.0013830458046868443,-35.3632616,149.165236975,7045.0,-7.25,14.75,33.25,-5.25,3.75,-1009.0,-379.25,2.75,1.75,RTL
06:32:34,120825.0,0.03758127987384796,-0.007612383691594005,-2.7775769233703613,0.7477805614471436,0.003968900651670992,-0.0010247111786156893,-35.3632621,149.16523855,6790.0,-4.5,4.5,32.0,-3.0,21.0,-1000.0,750.0,7.5,2.0,RTL
06:32:36,120825.0,0.025084651075303555,0.0015265127294696867,-2.777366280555725,0.6068626046180725,0.003069591009989381,-0.0018382990965619683,-35.3632629,149.16523990000002,6113.5,3.0,-18.5,32.0,0.0,13.5,-1003.0,609.0,6.5,1.0,RTL
06:32:38,120825.0,0.02443892788141966,0.0015562800108455122,-2.776920437812805,0.758005678653717,-0.002151751541532576,0.0016032007988542318,-35.363262750000004,149.1652386,5428.5,5.0,-11.5,33.5,0.5,2.5,-979.5,760.0,2.0,4.0,RTL
06:32:39,90738.0,0.005796267942059785,-0.0035148310707882047,-2.7766119241714478,-0.7148561030626297,-0.002689601737074554,-0.0011389207502361387,-35.3632626,149.16523885,4995.25,4.5,-9.75,32.75,-1.25,-30.25,-993.75,-710.75,1.0,1.5,RTL
06:32:40,90738.0,0.0282587893307209,-0.005724734161049128,-2.776705026626587,0.7130935788154602,-0.002162040094844997,-0.003696354338899255,-35.3632627,149.16523965,4745.0,5.0,-13.0,31.0,-3.0,42.5,-999.5,717.0,1.5,0.0,RTL
06:32:42,90738.0,0.03677130676805973,4.170552711002529e-05,-2.777446150779724,0.7505662441253662,0.00680894311517477,0.002862260094843805,-35.36326325,149.16524145,4071.5,9.0,-33.0,34.0,0.0,41.5,-1009.5,755.0,10.0,5.5,RTL
06:32:44,90738.0,0.014103736728429794,0.002482625306583941,-2.7769397497177124,0.7764381170272827,0.0012620396446436644,0.0053213483188301325,-35.36326305,149.16523965,3398.5,9.0,-26.0,33.5,1.0,43.5,-998.5,781.5,5.0,8.0,RTL
06:32:45,52671.0,0.00014921138063073158,0.0006409703782992437,-2.776942253112793,-0.48467003367841244,-0.0009142128983512521,0.002764979813946411,-35.363262625,149.1652388,2965.5,5.5,-15.25,33.25,1.5,-17.25,-999.5,-479.0,2.5,5.25,RTL
06:32:46,52671.0,0.012683911714702845,0.0006064374028937891,-2.7773215770721436,0.899223268032074,-0.0037761394632980227,0.0018963826587423682,-35.36326245,149.1652383,2705.5,3.5,-12.5,32.5,1.0,39.5,-998.5,904.0,0.0,4.5,RTL
06:32:48,52671.0,-0.006159621465485543,-0.002117300347890705,-2.7766724824905396,0.3181186490692198,-0.0023918579099699855,0.00119518005521968,-35.3632618,149.1652369,2026.5,-1.0,0.0,31.5,-1.0,37.5,-987.0,324.5,1.0,3.5,RTL
06:32:50,52671.0,0.00780802546069026,-0.0023777589667588472,-2.777472734451294,0.05527719855308533,0.0053639160469174385,0.003242150298319757,-35.363261949999995,149.1652379,1355.5,-2.0,-1.0,35.0,0.0,25.0,-1001.5,61.5,8.5,6.0,RTL
06:32:51,8276.0,0.0033320639049634337,0.0029644666356034577,-2.777228057384491,0.10079356282949448,-0.0007061711512506008,-0.0006980090984143317,-35.363262075,149.16523734999998,927.0,-1.25,-1.5,33.0,1.0,-13.0,-1002.0,105.0,2.75,2.25,RTL
06:32:52,8276.0,-0.017379649449139833,0.00369852629955858,-2.777012348175049,-0.3908487968146801,0.0011844413820654154,0.0032395048765465617,-35.363262,149.16523665,678.5,-1.0,1.5,32.5,1.0,2.0,-996.0,-384.5,4.5,5.5,RTL
06:32:54,8276.0,-0.010708051268011332,-0.0012545711360871792,-2.7746278047561646,-0.001998448744416237,-0.0013728635385632515,-0.0006979842437431216,-35.3632615,149.16523475000002,98.5,-10.0,14.0,-8.5,0.0,-0.5,-1000.5,2.0,2.0,2.0,RTL
