time_stamp,MODE,lat,lon,relative_alt,roll,pitch,yaw,rollspeed,pitchspeed,yawspeed,xacc,yacc,zacc,xgyro,ygyro,zgyro,vx,vy,vz,chan4_raw,RTL_ALT
17:06:24.860,STABILIZE,-35.3632621,149.1652375,52,-0.00019585633708629757,0.0013638543896377087,0.027080658823251724,0.00024648522958159447,0.000311786774545908,0.0022678030654788017,0,1,-1000,0,0,1,-2,3,1,1500,1500.0
17:06:25.061,STABILIZE,-35.3632621,149.1652375,52,-0.00019585633708629757,0.0013638543896377087,0.027080658823251724,0.00024648522958159447,0.000311786774545908,0.0022678030654788017,0,1,-1000,0,0,1,-2,3,1,1500,1500.0
17:06:25.264,STABILIZE,-35.3632621,149.1652375,52,-0.00019585633708629757,0.0013638543896377087,0.027080658823251724,0.00024648522958159447,0.000311786774545908,0.0022678030654788017,0,1,-1000,0,0,1,-2,3,1,1500,1500.0
17:06:25.466,STABILIZE,-35.3632621,149.1652375,52,-0.00019585633708629757,0.0013638543896377087,0.027080658823251724,0.00024648522958159447,0.000311786774545908,0.0022678030654788017,0,1,-1000,0,0,1,-2,3,1,1500,1500.0
17:06:25.668,STABILIZE,-35.3632621,149.1652375,52,-0.00019585633708629757,0.0013638543896377087,0.027080658823251724,0.00024648522958159447,0.000311786774545908,0.0022678030654788017,0,1,-1000,0,0,1,-2,3,1,1500,1500.0
17:06:25.869,STABILIZE,-35.3632621,149.1652375,52,-0.00019585633708629757,0.0013638543896377087,0.027080658823251724,0.00024648522958159447,0.000311786774545908,0.0022678030654788017,0,1,-1000,0,0,1,-2,3,1,1500,1500.0
17:06:26.070,STABILIZE,-35.3632622,149.1652375,36,-0.0007114304462447762,0.0011275641154497862,0.02635195665061474,0.0002113539958372712,0.0002544051094446331,0.0020118739921599627,0,1,-1000,0,0,1,-1,1,1,1500,1500.0
17:06:26.271,STABILIZE,-35.3632622,149.1652375,36,-0.0007114304462447762,0.0011275641154497862,0.02635195665061474,0.0002113539958372712,0.0002544051094446331,0.0020118739921599627,0,1,-1000,0,0,1,-1,1,1,1500,1500.0
17:06:26.471,STABILIZE,-35.3632622,149.1652375,36,-0.0007114304462447762,0.0011275641154497862,0.02635195665061474,0.0002113539958372712,0.0002544051094446331,0.0020118739921599627,0,1,-1000,0,0,1,-1,1,1,1500,1500.0
17:06:26.672,STABILIZE,-35.3632622,149.1652375,35,-0.0007114304462447762,0.0011275641154497862,0.02635195665061474,0.0002113539958372712,0.0002544051094446331,0.0020118739921599627,0,1,-1000,0,0,0,-1,1,0,1500,1500.0
17:06:26.873,STABILIZE,-35.3632622,149.1652375,35,-0.0009272049064747989,0.0010373825207352638,0.0260004885494709,0.00018410535994917154,0.00025602267123758793,0.0020786221139132977,0,1,-1000,0,0,0,-1,1,0,1500,1500.0
17:06:27.075,STABILIZE,-35.3632622,149.1652375,35,-0.0009272049064747989,0.0010373825207352638,0.0260004885494709,0.00018410535994917154,0.00025602267123758793,0.0020786221139132977,0,1,-1000,0,0,0,-1,1,0,1500,1500.0
17:06:27.276,STABILIZE,-35.3632622,149.1652375,35,-0.0009272049064747989,0.0010373825207352638,0.0260004885494709,0.00018410535994917154,0.00025602267123758793,0.0020786221139132977,0,1,-1000,0,0,0,-1,1,0,1500,1500.0
17:06:27.478,STABILIZE,-35.3632622,149.1652375,35,-0.0009272049064747989,0.0010373825207352638,0.0260004885494709,0.00018410535994917154,0.00025602267123758793,0.0020786221139132977,0,1,-1000,0,0,0,-1,1,0,1500,1500.0
17:06:27.679,STABILIZE,-35.3632622,149.1652375,35,-0.0010040320921689272,0.0009927270002663136,0.025735795497894287,0.000276709150057286,0.00028813278186134994,0.0018636458553373814,0,1,-1000,0,0,0,-1,1,0,1500,1500.0
17:06:27.880,STABILIZE,-35.3632622,149.1652375,35,-0.0010040320921689272,0.0009927270002663136,0.025735795497894287,0.000276709150057286,0.00028813278186134994,0.0018636458553373814,0,1,-1000,0,0,0,-1,1,0,1500,1500.0
17:06:28.081,STABILIZE,-35.3632622,149.1652375,35,-0.0010040320921689272,0.0009927270002663136,0.025735795497894287,0.000276709150057286,0.00028813278186134994,0.0018636458553373814,0,1,-1000,0,0,0,-1,1,0,1500,1500.0
17:06:28.282,STABILIZE,-35.3632622,149.1652375,35,-0.0008735516457818449,0.0009606005623936653,0.025463653728365898,0.00024626258527860045,0.0002361049992032349,0.001743487548083067,0,1,-1000,0,0,0,-1,1,0,1500,1500.0
17:06:28.482,STABILIZE,-35.3632622,149.1652375,35,-0.0008735516457818449,0.0009606005623936653,0.025463653728365898,0.00024626258527860045,0.0002361049992032349,0.001743487548083067,0,1,-1000,0,0,0,-1,1,0,1500,1500.0
17:06:28.683,STABILIZE,-35.3632621,149.1652375,50,-0.0008735516457818449,0.0009606005623936653,0.025463653728365898,0.00024626258527860045,0.0002361049992032349,0.001743487548083067,0,1,-1000,0,0,0,-1,0,-1,1500,1500.0
17:06:28.884,STABILIZE,-35.3632621,149.1652375,50,-0.0008735516457818449,0.0009606005623936653,0.025463653728365898,0.00024626258527860045,0.0002361049992032349,0.001743487548083067,0,1,-1000,0,0,0,-1,0,-1,1500,1500.0
17:06:29.085,STABILIZE,-35.3632621,149.1652375,50,-0.0008735516457818449,0.0009606005623936653,0.025463653728365898,0.00024626258527860045,0.0002361049992032349,0.001743487548083067,0,1,-1000,0,0,0,-1,0,-1,1500,1500.0
17:06:29.285,STABILIZE,-35.3632621,149.1652375,50,-0.0008735516457818449,0.0009606005623936653,0.025463653728365898,0.00024626258527860045,0.0002361049992032349,0.001743487548083067,0,1,-1000,0,0,0,-1,0,-1,1500,1500.0
17:06:29.487,STABILIZE,-35.3632621,149.1652375,50,-0.0008735516457818449,0.0009606005623936653,0.025463653728365898,0.00024626258527860045,0.0002361049992032349,0.001743487548083067,0,1,-1000,0,0,0,-1,0,-1,1500,1500.0
17:06:29.688,STABILIZE,-35.3632621,149.1652375,50,-0.0008735516457818449,0.0009606005623936653,0.025463653728365898,0.00024626258527860045,0.0002361049992032349,0.001743487548083067,0,1,-1000,0,0,0,-1,0,-1,1500,1500.0
17:06:29.889,STABILIZE,-35.3632621,149.1652375,50,-0.0008735516457818449,0.0009606005623936653,0.025463653728365898,0.00024626258527860045,0.0002361049992032349,0.001743487548083067,0,1,-1000,0,0,0,-1,0,-1,1500,1500.0
17:06:30.091,STABILIZE,-35.3632621,149.1652375,53,-0.0008735516457818449,0.0009606005623936653,0.025463653728365898,0.00024626258527860045,0.0002361049992032349,0.001743487548083067,0,1,-1000,0,0,0,-1,1,-1,1500,1500.0
17:06:30.292,STABILIZE,-35.3632621,149.1652375,53,-0.0008735516457818449,0.0009606005623936653,0.025463653728365898,0.00024626258527860045,0.0002361049992032349,0.001743487548083067,0,1,-1000,0,0,1,-1,1,0,1500,1500.0
17:06:30.493,STABILIZE,-35.3632621,149.1652375,53,-0.0007473155274055898,0.0009239835781045258,0.024544572457671165,0.0001457412727177143,0.0002577720442786813,0.0018443153239786625,0,1,-1000,0,0,1,-1,1,0,1500,1500.0
17:06:30.694,STABILIZE,-35.3632621,149.1652375,51,-0.0007473155274055898,0.0009239835781045258,0.024544572457671165,0.0001457412727177143,0.0002577720442786813,0.0018443153239786625,0,0,-1002,0,0,0,-1,2,0,1500,1500.0
17:06:30.895,STABILIZE,-35.3632621,149.1652375,51,-0.0007473155274055898,0.0009239835781045258,0.024544572457671165,0.0001457412727177143,0.0002577720442786813,0.0018443153239786625,0,0,-1002,0,0,0,-1,2,0,1500,1500.0
17:06:31.096,STABILIZE,-35.3632621,149.1652375,51,-0.0007473155274055898,0.0009239835781045258,0.024544572457671165,0.0001457412727177143,0.0002577720442786813,0.0018443153239786625,0,0,-1002,0,0,0,-1,2,0,1500,1500.0
17:06:31.297,STABILIZE,-35.3632621,149.1652375,51,-0.0007473155274055898,0.0009239835781045258,0.024544572457671165,0.0001457412727177143,0.0002577720442786813,0.0018443153239786625,0,0,-1002,0,0,0,-1,2,0,1500,1500.0
17:06:31.500,STABILIZE,-35.3632621,149.1652375,51,-0.0007473155274055898,0.0009239835781045258,0.024544572457671165,0.0001457412727177143,0.0002577720442786813,0.0018443153239786625,0,0,-1002,0,0,0,-1,2,0,1500,1500.0
17:06:31.702,STABILIZE,-35.3632621,149.1652375,44,-0.0005442573456093669,0.0009339713142253458,0.0239971075206995,0.00028938212199136615,0.0002821531379595399,0.0017469669692218304,0,2,-1000,0,0,0,-1,2,0,1500,1500.0
17:06:31.903,STABILIZE,-35.3632621,149.1652375,44,-0.0005442573456093669,0.0009339713142253458,0.0239971075206995,0.00028938212199136615,0.0002821531379595399,0.0017469669692218304,0,2,-1000,0,0,0,-1,2,0,1500,1500.0
17:06:32.104,STABILIZE,-35.3632621,149.1652375,42,-0.0005892525659874082,0.0009279638761654496,0.023883819580078125,0.0002539721899665892,0.0003222338855266571,0.0017529757460579276,0,1,-1000,0,0,0,-1,2,0,1500,1500.0
17:06:32.305,STABILIZE,-35.3632621,149.1652375,42,-0.0005892525659874082,0.0009279638761654496,0.023883819580078125,0.0002539721899665892,0.0003222338855266571,0.0017529757460579276,0,1,-1000,0,0,0,-1,2,0,1500,1500.0
17:06:32.506,STABILIZE,-35.3632622,149.1652375,40,-0.0005892525659874082,0.0009279638761654496,0.023883819580078125,0.0002539721899665892,0.0003222338855266571,0.0017529757460579276,0,1,-1000,0,0,0,-1,2,0,1500,1500.0
17:06:32.707,STABILIZE,-35.3632622,149.1652375,40,-0.0007121445378288627,0.0009428401826880872,0.02358120121061802,0.00020989670883864164,9.976059664040804e-05,0.0016919057816267014,0,1,-1000,0,0,0,-1,2,0,1500,1500.0
17:06:32.909,STABILIZE,-35.3632622,149.1652375,40,-0.0007121445378288627,0.0009428401826880872,0.02358120121061802,0.00020989670883864164,9.976059664040804e-05,0.0016919057816267014,0,1,-1000,0,0,0,-1,2,0,1500,1500.0
17:06:33.112,STABILIZE,-35.3632622,149.1652375,40,-0.0007121445378288627,0.0009428401826880872,0.02358120121061802,0.00020989670883864164,9.976059664040804e-05,0.0016919057816267014,0,1,-1000,0,0,0,-1,2,0,1500,1500.0
17:06:33.316,STABILIZE,-35.3632622,149.1652375,40,-0.0007121445378288627,0.0009428401826880872,0.02358120121061802,0.00020989670883864164,9.976059664040804e-05,0.0016919057816267014,0,1,-1000,0,0,0,-1,2,0,1500,1500.0
17:06:33.519,STABILIZE,-35.3632622,149.1652375,40,-0.0007121445378288627,0.0009428401826880872,0.02358120121061802,0.00020989670883864164,9.976059664040804e-05,0.0016919057816267014,0,1,-1000,0,0,0,-1,2,0,1500,1500.0
17:06:33.721,STABILIZE,-35.3632622,149.1652375,40,-0.0007121445378288627,0.0009428401826880872,0.02358120121061802,0.00020989670883864164,9.976059664040804e-05,0.0016919057816267014,0,1,-1000,0,0,0,-1,2,0,1500,1500.0
17:06:33.923,STABILIZE,-35.3632622,149.1652375,37,-0.000891636242158711,0.0009527171496301889,0.023171380162239075,0.0002727591199800372,0.00017140386626124382,0.001671510748565197,0,1,-1000,0,0,0,-1,1,0,1500,1500.0
17:06:34.125,STABILIZE,-35.3632622,149.1652375,37,-0.000891636242158711,0.0009527171496301889,0.023171380162239075,0.0002727591199800372,0.00017140386626124382,0.001671510748565197,0,1,-1000,0,0,0,-1,1,0,1500,1500.0
17:06:34.326,STABILIZE,-35.3632622,149.1652375,37,-0.000891636242158711,0.0009527171496301889,0.023171380162239075,0.0002727591199800372,0.00017140386626124382,0.001671510748565197,0,1,-1000,0,0,0,-1,1,0,1500,1500.0
17:06:34.528,STABILIZE,-35.3632622,149.1652375,37,-0.000891636242158711,0.0009527171496301889,0.023171380162239075,0.0002727591199800372,0.00017140386626124382,0.001671510748565197,0,1,-1000,1,0,0,-1,1,0,1500,1500.0
17:06:34.729,STABILIZE,-35.3632622,149.1652375,37,-0.000891636242158711,0.0009527171496301889,0.023171380162239075,0.0002727591199800372,0.00017140386626124382,0.001671510748565197,0,1,-1000,1,0,1,-1,1,0,1500,1500.0
17:06:34.930,STABILIZE,-35.3632622,149.1652375,37,-0.000891636242158711,0.0009527171496301889,0.023171380162239075,0.0002727591199800372,0.00017140386626124382,0.001671510748565197,0,1,-1000,1,0,1,-1,1,0,1500,1500.0
17:06:35.133,STABILIZE,-35.3632622,149.1652375,37,-0.000891636242158711,0.0009527171496301889,0.023171380162239075,0.0002727591199800372,0.00017140386626124382,0.001671510748565197,0,1,-1000,1,0,1,-1,1,0,1500,1500.0
17:06:35.335,STABILIZE,-35.3632622,149.1652375,37,-0.000891636242158711,0.0009527171496301889,0.023171380162239075,0.0002727591199800372,0.00017140386626124382,0.001671510748565197,0,1,-1000,1,0,1,-1,1,0,1500,1500.0
17:06:35.537,STABILIZE,-35.3632622,149.1652375,37,-0.000891636242158711,0.0009527171496301889,0.023171380162239075,0.0002727591199800372,0.00017140386626124382,0.001671510748565197,0,1,-1000,1,0,1,-1,1,0,1500,1500.0
17:06:35.738,STABILIZE,-35.3632622,149.1652375,37,-0.0010686444584280252,0.0009697761270217597,0.02266489714384079,0.0001961889793165028,0.0002021157997660339,0.0015646782703697681,0,1,-1000,1,0,0,-1,1,0,1500,1500.0
17:06:35.939,STABILIZE,-35.3632622,149.1652375,37,-0.0010686444584280252,0.0009697761270217597,0.02266489714384079,0.0001961889793165028,0.0002021157997660339,0.0015646782703697681,0,1,-1000,1,0,0,-1,1,0,1500,1500.0
17:06:36.140,STABILIZE,-35.3632622,149.1652375,37,-0.0010686444584280252,0.0009697761270217597,0.02266489714384079,0.0001961889793165028,0.0002021157997660339,0.0015646782703697681,0,1,-1000,1,0,0,-1,1,0,1500,1500.0
17:06:36.341,STABILIZE,-35.3632622,149.1652375,37,-0.0010686444584280252,0.0009697761270217597,0.02266489714384079,0.0001961889793165028,0.0002021157997660339,0.0015646782703697681,0,1,-1000,1,0,0,-1,1,0,1500,1500.0
17:06:36.543,STABILIZE,-35.3632622,149.1652375,37,-0.0010686444584280252,0.0009697761270217597,0.02266489714384079,0.0001961889793165028,0.0002021157997660339,0.0015646782703697681,0,1,-1000,1,0,0,-1,1,0,1500,1500.0
17:06:36.744,STABILIZE,-35.3632622,149.1652375,37,-0.0010686444584280252,0.0009697761270217597,0.02266489714384079,0.0001961889793165028,0.0002021157997660339,0.0015646782703697681,0,2,-1000,1,0,0,-1,1,0,1500,1500.0
17:06:36.945,STABILIZE,-35.3632622,149.1652375,37,-0.0010686444584280252,0.0009697761270217597,0.02266489714384079,0.0001961889793165028,0.0002021157997660339,0.0015646782703697681,0,2,-1000,1,0,0,-1,1,0,1500,1500.0
17:06:37.148,STABILIZE,-35.3632622,149.1652375,37,-0.0010686444584280252,0.0009697761270217597,0.02266489714384079,0.0001961889793165028,0.0002021157997660339,0.0015646782703697681,0,2,-1000,1,0,0,-1,1,0,1500,1500.0
17:06:37.349,STABILIZE,-35.3632622,149.1652375,37,-0.0010686444584280252,0.0009697761270217597,0.02266489714384079,0.0001961889793165028,0.0002021157997660339,0.0015646782703697681,0,2,-1000,1,0,0,-1,1,0,1500,1500.0
17:06:37.550,STABILIZE,-35.3632622,149.1652375,37,-0.0010686444584280252,0.0009697761270217597,0.02266489714384079,0.0001961889793165028,0.0002021157997660339,0.0015646782703697681,0,2,-1000,1,0,0,-1,1,0,1500,1500.0
17:06:37.752,STABILIZE,-35.3632622,149.1652375,20,-0.0013457909226417542,0.0009925445774570107,0.02226727269589901,9.665387915447354e-05,0.00024563935585319996,0.0015276197809726,0,2,-1000,0,1,0,-1,0,-1,1500,1500.0
17:06:37.953,STABILIZE,-35.3632622,149.1652375,20,-0.0013457909226417542,0.0009925445774570107,0.02226727269589901,9.665387915447354e-05,0.00024563935585319996,0.0015276197809726,0,2,-1000,0,1,0,-1,0,-1,1500,1500.0
17:06:38.154,STABILIZE,-35.3632622,149.1652375,20,-0.0013457909226417542,0.0009925445774570107,0.02226727269589901,9.665387915447354e-05,0.00024563935585319996,0.0015276197809726,0,2,-1000,0,1,0,-1,0,-1,1500,1500.0
17:06:38.354,STABILIZE,-35.3632622,149.1652375,20,-0.001136637874878943,0.0009896341944113374,0.02213999815285206,0.00022277614334598184,0.0002231532707810402,0.0016347612254321575,0,2,-1000,0,1,0,-1,0,-1,1500,1500.0
17:06:38.556,STABILIZE,-35.3632622,149.1652375,20,-0.001136637874878943,0.0009896341944113374,0.02213999815285206,0.00022277614334598184,0.0002231532707810402,0.0016347612254321575,0,2,-1000,0,1,0,-1,0,-1,1500,1500.0
17:06:38.756,STABILIZE,-35.3632622,149.1652375,20,-0.0010600874666124582,0.0009944310877472162,0.022050997242331505,0.0003229427384212613,0.0002772436127997935,0.0014391057193279266,0,2,-1000,1,0,0,-1,0,-1,1500,1500.0
17:06:38.957,STABILIZE,-35.3632622,149.1652375,20,-0.0010600874666124582,0.0009944310877472162,0.022050997242331505,0.0003229427384212613,0.0002772436127997935,0.0014391057193279266,0,2,-1000,1,0,0,-1,0,-1,1500,1500.0
17:06:39.160,STABILIZE,-35.3632622,149.1652375,20,-0.0010600874666124582,0.0009944310877472162,0.022050997242331505,0.0003229427384212613,0.0002772436127997935,0.0014391057193279266,0,2,-1000,1,0,0,-1,0,-1,1500,1500.0
17:06:39.364,STABILIZE,-35.3632622,149.1652375,20,-0.0010600874666124582,0.0009944310877472162,0.022050997242331505,0.0003229427384212613,0.0002772436127997935,0.0014391057193279266,0,2,-1000,1,0,0,-1,0,-1,1500,1500.0
17:06:39.565,STABILIZE,-35.3632622,149.1652375,20,-0.0010600874666124582,0.0009944310877472162,0.022050997242331505,0.0003229427384212613,0.0002772436127997935,0.0014391057193279266,0,2,-1000,1,0,0,-1,0,-1,1500,1500.0
17:06:39.768,STABILIZE,-35.3632622,149.1652375,37,-0.0009678850183263421,0.0009917359566316009,0.021909361705183983,0.00025066843954846263,0.00023057719226926565,0.0015374263748526573,0,1,-1000,1,0,0,-1,0,-1,1500,1500.0
17:06:39.968,STABILIZE,-35.3632622,149.1652375,37,-0.0009259616490453482,0.0010020979680120945,0.02180236391723156,0.00023461692035198212,0.0003209311398677528,0.0013934541493654251,0,1,-1000,1,0,0,-1,0,-1,1500,1500.0
17:06:40.170,STABILIZE,-35.3632622,149.1652375,39,-0.0009132117265835404,0.0010029601398855448,0.021732889115810394,0.00022131321020424366,0.0003334109205752611,0.0014036953216418624,0,1,-1000,1,0,0,-1,0,-1,1500,1500.0
17:06:40.371,STABILIZE,-35.3632622,149.1652375,39,-0.0009132117265835404,0.0010029601398855448,0.021732889115810394,0.00022131321020424366,0.0003334109205752611,0.0014036953216418624,0,1,-1000,1,0,0,-1,0,-1,1500,1500.0
17:06:40.572,STABILIZE,-35.3632622,149.1652375,39,-0.0009132117265835404,0.0010029601398855448,0.021732889115810394,0.00022131321020424366,0.0003334109205752611,0.0014036953216418624,0,1,-1000,1,0,0,-1,0,-1,1500,1500.0
17:06:40.774,STABILIZE,-35.3632622,149.1652375,41,-0.0009132117265835404,0.0010029601398855448,0.021732889115810394,0.00022131321020424366,0.0003334109205752611,0.0014036953216418624,0,1,-1000,1,0,0,-1,1,0,1500,1500.0
17:06:40.975,STABILIZE,-35.3632622,149.1652375,41,-0.0009132117265835404,0.0010029601398855448,0.021732889115810394,0.00022131321020424366,0.0003334109205752611,0.0014036953216418624,0,1,-1000,1,0,0,-1,1,0,1500,1500.0
17:06:41.177,AUTO,-35.3632622,149.1652375,41,-0.0009132117265835404,0.0010029601398855448,0.021732889115810394,0.00022131321020424366,0.0003334109205752611,0.0014036953216418624,0,1,-1000,1,0,0,-1,1,0,1500,1500.0
17:06:41.379,AUTO,-35.3632622,149.1652375,41,-0.0009132117265835404,0.0010029601398855448,0.021732889115810394,0.00022131321020424366,0.0003334109205752611,0.0014036953216418624,0,1,-1000,1,0,0,-1,1,0,1500,1500.0
17:06:41.580,AUTO,-35.3632622,149.1652375,41,-0.0009132117265835404,0.0010029601398855448,0.021732889115810394,0.00022131321020424366,0.0003334109205752611,0.0014036953216418624,0,1,-1000,1,0,0,-1,1,0,1500,1500.0
17:06:41.782,AUTO,-35.3632622,149.1652375,0,-0.0006471369415521622,0.0010007962118834257,0.021419139578938484,0.0002651309478096664,0.00018278288189321756,0.0014850531006231904,0,1,-1000,1,0,0,-1,2,1,1500,1500.0
17:06:41.983,AUTO,-35.3632621,149.1652375,0,-0.0006791893392801285,0.00101139722391963,0.021355269476771355,0.0002493206993676722,0.0001528126304037869,0.0013733310624957085,0,1,-1000,1,1,1,-1,1,1,1500,1500.0
17:06:42.184,AUTO,-35.3632621,149.1652375,0,-0.000686800223775208,0.0010427855886518955,0.021308721974492073,0.00023081281688064337,0.00026190641801804304,0.0014246440259739757,0,2,-1000,1,0,1,0,1,1,1500,1500.0
17:06:42.385,AUTO,-35.3632621,149.1652375,0,-0.000686800223775208,0.0010427855886518955,0.021308721974492073,0.00023081281688064337,0.00026190641801804304,0.0014246440259739757,0,2,-1000,1,0,1,0,1,1,1500,1500.0
17:06:42.586,AUTO,-35.3632621,149.1652375,0,-0.0006663581589236856,0.0010945269605144858,0.02124275453388691,0.0003689987934194505,0.0003073840634897351,0.001337569672614336,0,1,-1000,0,0,0,0,0,0,1500,1500.0
17:06:42.787,AUTO,-35.3632621,149.1652375,0,-0.000625026470515877,0.001153339515440166,0.02118447981774807,0.0003845872124657035,0.0002675314317457378,0.0013394206762313843,0,1,-1000,1,0,0,0,0,0,1500,1500.0
17:06:42.989,AUTO,-35.3632621,149.1652375,0,-0.000625026470515877,0.001153339515440166,0.02118447981774807,0.0003845872124657035,0.0002675314317457378,0.0013394206762313843,0,1,-1000,1,0,0,0,0,0,1500,1500.0
17:06:43.191,AUTO,-35.3632621,149.1652375,0,-0.000625026470515877,0.001153339515440166,0.02118447981774807,0.0003845872124657035,0.0002675314317457378,0.0013394206762313843,0,1,-1000,1,0,0,0,0,0,1500,1500.0
17:06:43.392,AUTO,-35.3632621,149.1652375,0,-0.000625026470515877,0.001153339515440166,0.02118447981774807,0.0003845872124657035,0.0002675314317457378,0.0013394206762313843,0,1,-1000,1,0,0,0,0,0,1500,1500.0
17:06:43.593,AUTO,-35.3632621,149.1652375,0,-0.000625026470515877,0.001153339515440166,0.02118447981774807,0.0003845872124657035,0.0002675314317457378,0.0013394206762313843,0,1,-1000,1,0,0,0,0,0,1500,1500.0
17:06:43.795,AUTO,-35.3632621,149.1652374,0,-0.00041205648449249566,0.0014097795356065035,0.020948011428117752,0.00028358667623251677,0.0002703023492358625,0.0013974986504763365,0,2,-1000,1,0,1,0,0,0,1500,1500.0
17:06:43.996,AUTO,-35.3632621,149.1652374,0,-0.00035515095805749297,0.0014809516724199057,0.020886551588773727,0.0002894631470553577,0.0002945801243185997,0.0013233411591500044,0,2,-1000,0,0,0,0,0,0,1500,1500.0
17:06:44.197,AUTO,-35.3632621,149.1652374,0,-0.0002990158391185105,0.0015504524344578385,0.02081218734383583,0.00028821470914408565,0.00026191980578005314,0.0013287400361150503,0,1,-1000,1,1,0,0,0,0,1500,1500.0
17:06:44.398,AUTO,-35.3632621,149.1652374,0,-0.0002990158391185105,0.0015504524344578385,0.02081218734383583,0.00028821470914408565,0.00026191980578005314,0.0013287400361150503,0,1,-1000,1,1,0,0,0,0,1500,1500.0
17:06:44.599,AUTO,-35.3632621,149.1652374,0,-0.00023622336448170245,0.0016222069971263409,0.02074885368347168,0.0002753973822109401,0.00030588015215471387,0.0013556142803281546,0,1,-1000,1,1,0,0,0,0,1500,1500.0
17:06:44.800,AUTO,-35.3632621,149.1652374,0,-0.00017495160864200443,0.0016958769410848618,0.020678089931607246,0.0002622329047881067,0.00019566569244489074,0.001364092342555523,0,1,-1000,0,0,0,0,0,0,1500,1500.0
17:06:45.001,AUTO,-35.3632621,149.1652374,0,-0.00017495160864200443,0.0016958769410848618,0.020678089931607246,0.0002622329047881067,0.00019566569244489074,0.001364092342555523,0,1,-1000,0,0,0,0,0,0,1500,1500.0
17:06:45.203,AUTO,-35.3632621,149.1652374,0,-0.00017495160864200443,0.0016958769410848618,0.020678089931607246,0.0002622329047881067,0.00019566569244489074,0.001364092342555523,0,1,-1000,0,0,0,0,0,0,1500,1500.0
17:06:45.405,AUTO,-35.3632621,149.1652374,0,-0.00017495160864200443,0.0016958769410848618,0.020678089931607246,0.0002622329047881067,0.00019566569244489074,0.001364092342555523,0,1,-1000,0,0,0,0,0,0,1500,1500.0
17:06:45.607,AUTO,-35.3632621,149.1652374,0,-0.00017495160864200443,0.0016958769410848618,0.020678089931607246,0.0002622329047881067,0.00019566569244489074,0.001364092342555523,0,1,-1000,0,0,0,0,0,0,1500,1500.0
17:06:45.808,AUTO,-35.3632621,149.1652375,327,0.0023663979955017567,0.0008323983638547361,0.020493630319833755,-0.008665096014738083,0.003914383240044117,0.0012571269180625677,0,0,-1115,-7,4,0,0,0,-90,1500,1500.0
17:06:46.010,AUTO,-35.3632621,149.1652375,586,0.0016232877969741821,0.001600685645826161,0.02044261433184147,-0.004262004513293505,0.0024857954122126102,0.0011236032005399466,0,0,-1095,-3,3,0,0,0,-115,1500,1500.0
17:06:46.211,AUTO,-35.3632621,149.1652375,905,0.00628381734713912,0.0014905409188941121,0.020183997228741646,0.04367772862315178,-0.004151084925979376,0.0010376502759754658,0,0,-1057,44,-3,0,0,0,-134,1500,1500.0
17:06:46.412,AUTO,-35.3632621,149.1652375,1263,0.01809062622487545,-7.485364767489955e-05,0.020141536369919777,0.04756985977292061,-0.006978091783821583,0.0018360491376370192,0,0,-1057,44,-3,0,0,3,-143,1500,1500.0
17:06:46.612,AUTO,-35.3632621,149.1652375,1263,0.01809062622487545,-7.485364767489955e-05,0.020141536369919777,0.04756985977292061,-0.006978091783821583,0.0018360491376370192,0,0,-1024,48,-6,1,0,3,-143,1500,1500.0
17:06:46.813,AUTO,-35.363262,149.1652376,1642,0.029860330745577812,-0.0019358675926923752,0.02024516463279724,0.045378513634204865,-0.007582133170217276,0.002687476109713316,0,-1,-1010,46,-6,2,1,8,-147,1500,1500.0
17:06:47.014,AUTO,-35.363262,149.1652376,1642,0.029860330745577812,-0.0019358675926923752,0.02024516463279724,0.045378513634204865,-0.007582133170217276,0.002687476109713316,0,-1,-1010,46,-6,2,1,8,-147,1500,1500.0
17:06:47.215,AUTO,-35.363262,149.1652376,1642,0.029860330745577812,-0.0019358675926923752,0.02024516463279724,0.045378513634204865,-0.007582133170217276,0.002687476109713316,0,-1,-1010,46,-6,2,1,8,-147,1500,1500.0
17:06:47.417,AUTO,-35.363262,149.1652376,1642,0.029860330745577812,-0.0019358675926923752,0.02024516463279724,0.045378513634204865,-0.007582133170217276,0.002687476109713316,0,-1,-1010,46,-6,2,1,8,-147,1500,1500.0
17:06:47.619,AUTO,-35.363262,149.1652376,1642,0.029860330745577812,-0.0019358675926923752,0.02024516463279724,0.045378513634204865,-0.007582133170217276,0.002687476109713316,0,-1,-1010,46,-6,2,1,8,-147,1500,1500.0
17:06:47.821,AUTO,-35.3632615,149.1652405,3175,0.05335472151637077,0.002170303137972951,-0.02098884992301464,-0.08584067225456238,0.10025528073310852,-0.11081113666296005,2,-11,-992,-85,100,-111,9,49,-146,1500,1500.0
17:06:48.022,AUTO,-35.3632612,149.1652419,3552,0.01503498200327158,0.022358234971761703,-0.04361942782998085,-0.18803654611110687,0.034597981721162796,-0.08246796578168869,3,-10,-993,-187,35,-82,8,55,-144,1500,1500.0
17:06:48.223,AUTO,-35.3632611,149.1652434,3936,-0.01990797184407711,0.02211827039718628,-0.06021557375788689,-0.07960694283246994,-0.0073447818867862225,-0.06678935140371323,5,-12,-1011,-78,-6,-66,4,50,-146,1500,1500.0
17:06:48.424,AUTO,-35.363261,149.1652446,4318,-0.03189603611826897,0.018848257139325142,-0.07365289330482483,-0.02878868579864502,-0.009501293301582336,-0.05607572942972183,5,-12,-1011,-78,-6,-66,0,40,-149,1500,1500.0
17:06:48.626,AUTO,-35.363261,149.1652446,4318,-0.03189603611826897,0.018848257139325142,-0.07365289330482483,-0.02878868579864502,-0.009501293301582336,-0.05607572942972183,5,-9,-1008,-28,-8,-56,0,40,-149,1500,1500.0
17:06:48.827,AUTO,-35.3632609,149.1652455,4704,-0.037602055817842484,0.01496047805994749,-0.08463562279939651,-0.031071050092577934,-0.020231638103723526,-0.03475577384233475,4,-7,-1002,-30,-19,-34,-2,29,-150,1500,1500.0
17:06:49.030,AUTO,-35.3632609,149.1652455,4704,-0.037602055817842484,0.01496047805994749,-0.08463562279939651,-0.031071050092577934,-0.020231638103723526,-0.03475577384233475,4,-7,-1002,-30,-19,-34,-2,29,-150,1500,1500.0
17:06:49.232,AUTO,-35.3632609,149.1652455,4704,-0.037602055817842484,0.01496047805994749,-0.08463562279939651,-0.031071050092577934,-0.020231638103723526,-0.03475577384233475,4,-7,-1002,-30,-19,-34,-2,29,-150,1500,1500.0
17:06:49.433,AUTO,-35.3632609,149.1652455,4704,-0.037602055817842484,0.01496047805994749,-0.08463562279939651,-0.031071050092577934,-0.020231638103723526,-0.03475577384233475,4,-7,-1002,-30,-19,-34,-2,29,-150,1500,1500.0
17:06:49.635,AUTO,-35.3632609,149.1652455,4704,-0.037602055817842484,0.01496047805994749,-0.08463562279939651,-0.031071050092577934,-0.020231638103723526,-0.03475577384233475,4,-7,-1002,-30,-19,-34,-2,29,-150,1500,1500.0
17:06:49.838,AUTO,-35.3632611,149.1652456,6235,-0.06313921511173248,-0.011167681775987148,-0.08916790038347244,0.0540819950401783,-0.0018050512298941612,-0.0016467723762616515,-2,5,-1001,54,0,-1,-2,-34,-149,1500,1500.0
17:06:50.039,AUTO,-35.3632612,149.1652445,6620,-0.04895990714430809,-0.010770845226943493,-0.09021638333797455,0.059661753475666046,0.004152535926550627,7.29974708519876e-05,-4,8,-1001,60,5,0,-1,-47,-149,1500,1500.0
17:06:50.240,AUTO,-35.3632612,149.1652431,7004,-0.03382999077439308,-0.008960014209151268,-0.09096859395503998,0.06282446533441544,0.009379136376082897,0.001521109021268785,-5,7,-1001,63,10,1,0,-55,-149,1500,1500.0
17:06:50.441,AUTO,-35.3632612,149.1652415,7389,-0.017787622287869453,-0.005988484248518944,-0.09132147580385208,0.06370270997285843,0.013194037601351738,0.002531405072659254,-8,15,-1002,64,13,2,0,-59,-150,1500,1500.0
17:06:50.643,AUTO,-35.3632612,149.1652415,7389,-0.017787622287869453,-0.005988484248518944,-0.09132147580385208,0.06370270997285843,0.013194037601351738,0.002531405072659254,-8,15,-1002,64,13,2,0,-59,-150,1500,1500.0
17:06:50.844,AUTO,-35.3632613,149.1652398,7776,-0.001585301011800766,-0.002402693033218384,-0.09112754464149475,0.06730999052524567,0.01507558673620224,0.0031620122026652098,-6,8,-1003,67,15,2,-1,-60,-151,1500,1500.0
17:06:51.046,AUTO,-35.3632613,149.1652398,7776,-0.001585301011800766,-0.002402693033218384,-0.09112754464149475,0.06730999052524567,0.01507558673620224,0.0031620122026652098,-6,8,-1003,67,15,2,-1,-60,-151,1500,1500.0
17:06:51.247,AUTO,-35.3632613,149.1652398,7776,-0.001585301011800766,-0.002402693033218384,-0.09112754464149475,0.06730999052524567,0.01507558673620224,0.0031620122026652098,-6,8,-1003,67,15,2,-1,-60,-151,1500,1500.0
17:06:51.449,AUTO,-35.3632613,149.1652398,7776,-0.001585301011800766,-0.002402693033218384,-0.09112754464149475,0.06730999052524567,0.01507558673620224,0.0031620122026652098,-6,8,-1003,67,15,2,-1,-60,-151,1500,1500.0
17:06:51.653,AUTO,-35.3632613,149.1652398,7776,-0.001585301011800766,-0.002402693033218384,-0.09112754464149475,0.06730999052524567,0.01507558673620224,0.0031620122026652098,-6,8,-1003,67,15,2,-1,-60,-151,1500,1500.0
17:06:51.859,AUTO,-35.3632616,149.1652346,9345,0.05920439586043358,0.011211595498025417,-0.09061578661203384,-0.007981015369296074,0.05095399543642998,-0.06589478254318237,-4,5,-992,-7,51,-65,-6,-22,-153,1296,1500.0
17:06:52.060,AUTO,-35.3632618,149.1652341,9735,0.03310606628656387,0.04843534156680107,-0.12573502957820892,-0.13085640966892242,0.1689247339963913,-0.19216151535511017,-2,4,-990,-130,169,-192,-12,-9,-150,1296,1500.0
17:06:52.262,AUTO,-35.3632623,149.1652338,10118,0.005603020545095205,0.08820199221372604,-0.17488086223602295,-0.059588611125946045,0.1323973536491394,-0.1976466178894043,2,4,-999,-58,133,-197,-28,-2,-148,1296,1500.0
17:06:52.464,AUTO,-35.3632631,149.1652338,10494,0.013952402397990227,0.09205669909715652,-0.26016765832901,0.141734778881073,-0.0948374941945076,-0.4369449317455292,6,5,-978,142,-94,-437,-48,3,-143,1296,1500.0
17:06:52.666,AUTO,-35.3632644,149.1652339,10863,0.036174237728118896,0.0699428915977478,-0.34969601035118103,0.11348500847816467,-0.08835133910179138,-0.3645769953727722,6,5,-978,142,-94,-437,-62,15,-144,1296,1500.0
17:06:52.868,AUTO,-35.3632644,149.1652339,10863,0.036174237728118896,0.0699428915977478,-0.34969601035118103,0.11348500847816467,-0.08835133910179138,-0.3645769953727722,10,9,-1002,114,-87,-364,-62,15,-144,1296,1500.0
17:06:53.069,AUTO,-35.3632644,149.1652339,10863,0.036174237728118896,0.0699428915977478,-0.34969601035118103,0.11348500847816467,-0.08835133910179138,-0.3645769953727722,10,9,-1002,114,-87,-364,-62,15,-144,1296,1500.0
17:06:53.271,AUTO,-35.3632644,149.1652339,10863,0.036174237728118896,0.0699428915977478,-0.34969601035118103,0.11348500847816467,-0.08835133910179138,-0.3645769953727722,10,9,-1002,114,-87,-364,-62,15,-144,1296,1500.0
17:06:53.474,AUTO,-35.3632644,149.1652339,10863,0.036174237728118896,0.0699428915977478,-0.34969601035118103,0.11348500847816467,-0.08835133910179138,-0.3645769953727722,10,9,-1002,114,-87,-364,-62,15,-144,1296,1500.0
17:06:53.676,AUTO,-35.3632644,149.1652339,10863,0.036174237728118896,0.0699428915977478,-0.34969601035118103,0.11348500847816467,-0.08835133910179138,-0.3645769953727722,10,9,-1002,114,-87,-364,-62,15,-144,1296,1500.0
17:06:53.877,AUTO,-35.3632694,149.1652393,12236,0.09145089238882065,0.053991738706827164,-1.4302619695663452,0.1660236120223999,-0.1661130040884018,-0.9308836460113525,13,16,-1006,166,-165,-931,-31,87,-139,1296,1500.0
17:06:54.078,AUTO,-35.3632698,149.1652418,12590,0.1080547571182251,0.02302302047610283,-1.6538830995559692,0.034379974007606506,-0.24616886675357819,-0.8248162865638733,14,15,-1000,35,-245,-825,-2,93,-137,1296,1500.0
17:06:54.279,AUTO,-35.3632695,149.1652442,12948,0.09827885031700134,-0.018800105899572372,-1.8612167835235596,-0.0701066106557846,-0.23402926325798035,-0.7644421458244324,18,10,-1009,-69,-233,-764,24,83,-137,1296,1500.0
17:06:54.481,AUTO,-35.3632687,149.1652462,13305,0.08624079823493958,-0.057536426931619644,-2.0225257873535156,-0.06849954277276993,-0.2016477733850479,-0.46497246623039246,17,9,-1042,-67,-200,-465,43,60,-142,1500,1500.0
17:06:54.682,AUTO,-35.3632677,149.1652475,13679,0.08386117219924927,-0.0931527242064476,-2.1175191402435303,-0.01729542575776577,-0.14718692004680634,-0.2884504497051239,15,4,-1025,-16,-146,-288,51,29,-148,1500,1500.0
17:06:54.884,AUTO,-35.3632677,149.1652475,13679,0.08386117219924927,-0.0931527242064476,-2.1175191402435303,-0.01729542575776577,-0.14718692004680634,-0.2884504497051239,15,4,-1025,-16,-146,-288,51,29,-148,1500,1500.0
17:06:55.085,AUTO,-35.3632677,149.1652475,13679,0.08386117219924927,-0.0931527242064476,-2.1175191402435303,-0.01729542575776577,-0.14718692004680634,-0.2884504497051239,15,4,-1025,-16,-146,-288,51,29,-148,1500,1500.0
17:06:55.288,AUTO,-35.3632677,149.1652475,13679,0.08386117219924927,-0.0931527242064476,-2.1175191402435303,-0.01729542575776577,-0.14718692004680634,-0.2884504497051239,15,4,-1025,-16,-146,-288,51,29,-148,1500,1500.0
17:06:55.491,AUTO,-35.3632677,149.1652475,13679,0.08386117219924927,-0.0931527242064476,-2.1175191402435303,-0.01729542575776577,-0.14718692004680634,-0.2884504497051239,15,4,-1025,-16,-146,-288,51,29,-148,1500,1500.0
17:06:55.694,AUTO,-35.3632677,149.1652475,13679,0.08386117219924927,-0.0931527242064476,-2.1175191402435303,-0.01729542575776577,-0.14718692004680634,-0.2884504497051239,15,4,-1025,-16,-146,-288,51,29,-148,1500,1500.0
17:06:55.896,AUTO,-35.3632647,149.1652423,15139,-0.010073025710880756,-0.14757496118545532,-2.166823625564575,-0.05325663462281227,0.17980147898197174,0.0062125930562615395,-10,-22,-1006,-52,180,5,-13,-121,-132,1500,1500.0
17:06:56.097,AUTO,-35.3632651,149.1652386,15478,-0.01761370711028576,-0.1045989915728569,-2.1658432483673096,-0.014782884158194065,0.16903705894947052,0.0026259589940309525,-18,-24,-1016,-14,169,2,-35,-139,-133,1500,1500.0
17:06:56.299,AUTO,-35.363266,149.1652347,15824,-0.018926434218883514,-0.06377299875020981,-2.165036201477051,0.004832628648728132,0.161336287856102,0.0018239530036225915,-26,-25,-1020,5,162,1,-53,-146,-137,1500,1500.0
17:06:56.502,AUTO,-35.3632673,149.1652306,16181,-0.0188740286976099,-0.025418881326913834,-2.16363263130188,0.0028630378656089306,0.14740678668022156,0.006451226305216551,-26,-28,-1023,3,148,6,-65,-144,-142,1500,1500.0
17:06:56.705,AUTO,-35.3632688,149.1652267,16551,-0.015895366668701172,0.008329357020556927,-2.1622841358184814,0.013399137184023857,0.12745678424835205,0.004621296655386686,-25,-20,-1024,14,128,4,-70,-135,-148,1500,1500.0
17:06:56.906,AUTO,-35.3632688,149.1652267,16551,-0.015895366668701172,0.008329357020556927,-2.1622841358184814,0.013399137184023857,0.12745678424835205,0.004621296655386686,-25,-20,-1024,14,128,4,-70,-135,-148,1500,1500.0
17:06:57.108,AUTO,-35.3632688,149.1652267,16551,-0.015895366668701172,0.008329357020556927,-2.1622841358184814,0.013399137184023857,0.12745678424835205,0.004621296655386686,-25,-20,-1024,14,128,4,-70,-135,-148,1500,1500.0
17:06:57.312,AUTO,-35.3632688,149.1652267,16551,-0.015895366668701172,0.008329357020556927,-2.1622841358184814,0.013399137184023857,0.12745678424835205,0.004621296655386686,-25,-20,-1024,14,128,4,-70,-135,-148,1500,1500.0
17:06:57.515,AUTO,-35.3632688,149.1652267,16551,-0.015895366668701172,0.008329357020556927,-2.1622841358184814,0.013399137184023857,0.12745678424835205,0.004621296655386686,-25,-20,-1024,14,128,4,-70,-135,-148,1500,1500.0
17:06:57.716,AUTO,-35.3632688,149.1652267,16551,-0.015895366668701172,0.008329357020556927,-2.1622841358184814,0.013399137184023857,0.12745678424835205,0.004621296655386686,-25,-20,-1024,14,128,4,-70,-135,-148,1500,1500.0
17:06:57.917,AUTO,-35.3632745,149.1652154,18140,0.0036613636184483767,0.09740328788757324,-2.1562607288360596,0.019101744517683983,0.05833401903510094,0.007250816095620394,-17,-9,-1005,20,59,7,-45,-55,-160,1500,1500.0
17:06:58.118,AUTO,-35.3632754,149.1652141,18546,0.007664666976779699,0.11020590364933014,-2.149803876876831,0.00836395937949419,0.04815312474966049,0.13630720973014832,-14,-7,-984,9,49,135,-29,-31,-158,1500,1500.0
17:06:58.319,AUTO,-35.3632759,149.1652135,18946,0.012133405543863773,0.12018927186727524,-2.138673782348633,0.007468315772712231,0.03464389964938164,0.03119514137506485,-8,-1,-998,8,35,30,-12,-7,-156,1500,1500.0
17:06:58.520,AUTO,-35.363276,149.1652135,19341,0.01467746589332819,0.12769725918769836,-2.1320629119873047,0.004346088971942663,0.026178503409028053,0.021494777873158455,-1,0,-994,5,27,21,6,17,-153,1500,1500.0
17:06:58.721,AUTO,-35.3632758,149.1652141,19727,0.015855561941862106,0.1336708962917328,-2.1270711421966553,-0.0011902006808668375,0.023191679269075394,0.017912138253450394,5,3,-991,0,24,17,25,40,-149,1500,1500.0
17:06:58.922,AUTO,-35.3632758,149.1652141,19727,0.015855561941862106,0.1336708962917328,-2.1270711421966553,-0.0011902006808668375,0.023191679269075394,0.017912138253450394,5,3,-991,0,24,17,25,40,-149,1500,1500.0
17:06:59.125,AUTO,-35.3632758,149.1652141,19727,0.015855561941862106,0.1336708962917328,-2.1270711421966553,-0.0011902006808668375,0.023191679269075394,0.017912138253450394,5,3,-991,0,24,17,25,40,-149,1500,1500.0
17:06:59.326,AUTO,-35.3632758,149.1652141,19727,0.015855561941862106,0.1336708962917328,-2.1270711421966553,-0.0011902006808668375,0.023191679269075394,0.017912138253450394,5,3,-991,0,24,17,25,40,-149,1500,1500.0
17:06:59.528,AUTO,-35.3632758,149.1652141,19727,0.015855561941862106,0.1336708962917328,-2.1270711421966553,-0.0011902006808668375,0.023191679269075394,0.017912138253450394,5,3,-991,0,24,17,25,40,-149,1500,1500.0
17:06:59.731,AUTO,-35.3632702,149.1652231,21177,0.020840192213654518,0.07973127067089081,-2.083819627761841,0.014074535109102726,-0.14676401019096375,0.08459638059139252,29,4,-1008,14,-146,84,96,115,-139,1500,1500.0
17:06:59.932,AUTO,-35.363268,149.1652262,21535,0.023501580581068993,0.038686349987983704,-2.058580160140991,-0.0033169006928801537,-0.17514578998088837,0.11560283601284027,34,10,-1015,-2,-174,115,106,116,-142,1500,1500.0
17:07:00.134,AUTO,-35.363268,149.1652262,21535,0.023501580581068993,0.038686349987983704,-2.058580160140991,-0.0033169006928801537,-0.17514578998088837,0.11560283601284027,34,10,-1015,-2,-174,115,106,116,-142,1500,1500.0
17:07:00.335,AUTO,-35.3632655,149.1652293,21907,0.026151170954108238,-0.001947523094713688,-2.0347564220428467,0.007612213958054781,-0.11501380056142807,0.0645643025636673,35,8,-1019,8,-114,64,111,108,-147,1500,1500.0
17:07:00.536,AUTO,-35.363263,149.1652321,22286,0.017883315682411194,-0.022119959816336632,-2.026710271835327,-0.06035928800702095,-0.0635397657752037,0.016117235645651817,35,5,-1012,-59,-62,15,112,94,-150,1500,1500.0
17:07:00.737,AUTO,-35.3632606,149.1652345,22672,-0.0021919002756476402,-0.03848513588309288,-2.026294231414795,-0.09172601997852325,-0.07008744031190872,-0.008262399584054947,36,3,-1011,-91,-69,-8,108,78,-153,1500,1500.0
17:07:00.939,AUTO,-35.3632606,149.1652345,22672,-0.0021919002756476402,-0.03848513588309288,-2.026294231414795,-0.09172601997852325,-0.07008744031190872,-0.008262399584054947,36,3,-1011,-91,-69,-8,108,78,-153,1500,1500.0
17:07:01.140,AUTO,-35.3632606,149.1652345,22672,-0.0021919002756476402,-0.03848513588309288,-2.026294231414795,-0.09172601997852325,-0.07008744031190872,-0.008262399584054947,36,3,-1011,-91,-69,-8,108,78,-153,1500,1500.0
17:07:01.341,AUTO,-35.3632606,149.1652345,22672,-0.0021919002756476402,-0.03848513588309288,-2.026294231414795,-0.09172601997852325,-0.07008744031190872,-0.008262399584054947,36,3,-1011,-91,-69,-8,108,78,-153,1500,1500.0
17:07:01.542,AUTO,-35.3632606,149.1652345,22672,-0.0021919002756476402,-0.03848513588309288,-2.026294231414795,-0.09172601997852325,-0.07008744031190872,-0.008262399584054947,36,3,-1011,-91,-69,-8,108,78,-153,1500,1500.0
17:07:01.745,AUTO,-35.3632542,149.1652398,24253,-0.09191540628671646,-0.10598475486040115,-2.037093162536621,-0.0722648948431015,-0.04339650645852089,-0.01089608296751976,10,0,-1001,-71,-42,-11,19,14,-155,1500,1500.0
17:07:01.947,AUTO,-35.3632542,149.1652401,24646,-0.10078011453151703,-0.11075697094202042,-2.0443618297576904,-0.0005323293153196573,0.016882849857211113,-0.0443442240357399,1,1,-999,0,17,-44,-15,0,-153,1500,1500.0
17:07:02.148,AUTO,-35.3632542,149.1652401,24646,-0.10078011453151703,-0.11075697094202042,-2.0443618297576904,-0.0005323293153196573,0.016882849857211113,-0.0443442240357399,1,1,-999,0,17,-44,-15,0,-153,1500,1500.0
17:07:02.350,AUTO,-35.363255,149.16524,25028,-0.10869752615690231,-0.10634315013885498,-2.0264954566955566,-0.05089620128273964,0.008214006200432777,0.4225154221057892,-5,5,-937,-50,8,422,-48,-11,-145,1905,1500.0
17:07:02.552,AUTO,-35.3632564,149.1652396,25377,-0.10723235458135605,-0.06681783497333527,-1.8532216548919678,0.1538984626531601,0.1545388400554657,0.7835662961006165,-16,9,-984,154,155,783,-79,-18,-131,1905,1500.0
17:07:02.753,AUTO,-35.3632585,149.1652392,25713,-0.07270561903715134,-0.00653396500274539,-1.676949143409729,0.15292130410671234,0.17112521827220917,0.6951173543930054,-16,17,-1023,153,171,694,-100,-19,-134,1905,1500.0
17:07:02.954,AUTO,-35.3632585,149.1652392,25713,-0.07270561903715134,-0.00653396500274539,-1.676949143409729,0.15292130410671234,0.17112521827220917,0.6951173543930054,-16,17,-1023,153,171,694,-100,-19,-134,1905,1500.0
17:07:03.157,AUTO,-35.3632585,149.1652392,25713,-0.07270561903715134,-0.00653396500274539,-1.676949143409729,0.15292130410671234,0.17112521827220917,0.6951173543930054,-16,17,-1023,153,171,694,-100,-19,-134,1905,1500.0
17:07:03.359,AUTO,-35.3632585,149.1652392,25713,-0.07270561903715134,-0.00653396500274539,-1.676949143409729,0.15292130410671234,0.17112521827220917,0.6951173543930054,-16,17,-1023,153,171,694,-100,-19,-134,1905,1500.0
17:07:03.560,AUTO,-35.3632585,149.1652392,25713,-0.07270561903715134,-0.00653396500274539,-1.676949143409729,0.15292130410671234,0.17112521827220917,0.6951173543930054,-16,17,-1023,153,171,694,-100,-19,-134,1905,1500.0
17:07:03.761,AUTO,-35.3632698,149.1652385,27112,-0.06645723432302475,-0.0058185332454741,-0.9707855582237244,-0.005334004294127226,-0.09901012480258942,0.7621874213218689,-1,31,-1001,-4,-98,761,-141,-8,-138,1905,1500.0
17:07:03.962,AUTO,-35.3632732,149.1652381,27462,-0.06854890286922455,-0.019092781469225883,-0.7792118191719055,0.0076537588611245155,-0.10673507302999496,0.7674602270126343,5,42,-1006,8,-106,767,-145,-17,-138,1905,1500.0
17:07:04.163,AUTO,-35.3632732,149.1652381,27462,-0.06854890286922455,-0.019092781469225883,-0.7792118191719055,0.0076537588611245155,-0.10673507302999496,0.7674602270126343,5,42,-1006,8,-106,767,-145,-17,-138,1905,1500.0
17:07:04.364,AUTO,-35.3632765,149.1652376,27815,-0.0725950300693512,-0.03426647558808327,-0.588046669960022,0.010106452740728855,-0.11812230199575424,0.7604233026504517,13,36,-1009,11,-117,760,-145,-30,-140,1905,1500.0
17:07:04.565,AUTO,-35.3632798,149.1652366,28172,-0.07729654759168625,-0.049655426293611526,-0.39765703678131104,0.016731563955545425,-0.11935009062290192,0.7551186680793762,15,30,-1011,17,-118,755,-138,-45,-142,1905,1500.0
17:07:04.766,AUTO,-35.363283,149.1652352,28535,-0.08231928199529648,-0.06329736858606339,-0.20786084234714508,0.024318436160683632,-0.11411240696907043,0.7558194994926453,16,31,-1012,25,-113,755,-126,-62,-144,1905,1500.0
17:07:04.967,AUTO,-35.363283,149.1652352,28535,-0.08231928199529648,-0.06329736858606339,-0.20786084234714508,0.024318436160683632,-0.11411240696907043,0.7558194994926453,16,31,-1012,25,-113,755,-126,-62,-144,1905,1500.0
17:07:05.169,AUTO,-35.363283,149.1652352,28535,-0.08231928199529648,-0.06329736858606339,-0.20786084234714508,0.024318436160683632,-0.11411240696907043,0.7558194994926453,16,31,-1012,25,-113,755,-126,-62,-144,1905,1500.0
17:07:05.371,AUTO,-35.363283,149.1652352,28535,-0.08231928199529648,-0.06329736858606339,-0.20786084234714508,0.024318436160683632,-0.11411240696907043,0.7558194994926453,16,31,-1012,25,-113,755,-126,-62,-144,1905,1500.0
17:07:05.573,AUTO,-35.363283,149.1652352,28535,-0.08231928199529648,-0.06329736858606339,-0.20786084234714508,0.024318436160683632,-0.11411240696907043,0.7558194994926453,16,31,-1012,25,-113,755,-126,-62,-144,1905,1500.0
17:07:05.775,AUTO,-35.363291,149.1652256,30045,-0.034317947924137115,-0.11653056740760803,0.30990177392959595,0.19103370606899261,-0.1703237146139145,0.15650810301303864,6,28,-1012,192,-169,156,-32,-99,-153,1500,1500.0
17:07:05.977,AUTO,-35.3632916,149.165223,30435,0.006641929037868977,-0.1555965691804886,0.3340749740600586,0.159772589802742,-0.13836047053337097,0.05659429728984833,1,24,-1017,160,-137,56,-1,-85,-154,1500,1500.0
17:07:06.179,AUTO,-35.3632913,149.1652209,30832,0.04224121570587158,-0.181563138961792,0.34139499068260193,0.13464650511741638,-0.07333934307098389,0.01840539090335369,-6,16,-1010,135,-72,18,33,-61,-154,1500,1500.0
17:07:06.381,AUTO,-35.3632913,149.1652209,30832,0.04224121570587158,-0.181563138961792,0.34139499068260193,0.13464650511741638,-0.07333934307098389,0.01840539090335369,-6,16,-1010,135,-72,18,33,-61,-154,1500,1500.0
17:07:06.583,AUTO,-35.3632903,149.1652195,31219,0.07117622345685959,-0.19253793358802795,0.34155359864234924,0.10397110134363174,-0.024043433368206024,-0.004113205708563328,-10,14,-999,105,-23,-3,67,-31,-150,1500,1500.0
17:07:06.785,AUTO,-35.3632886,149.165219,31594,0.0944819375872612,-0.19372761249542236,0.33727535605430603,0.08192827552556992,0.006102603394538164,-0.02243361435830593,-17,4,-990,83,6,-22,100,3,-144,1500,1500.0
17:07:06.987,AUTO,-35.3632886,149.165219,31594,0.0944819375872612,-0.19372761249542236,0.33727535605430603,0.08192827552556992,0.006102603394538164,-0.02243361435830593,-17,4,-990,83,6,-22,100,3,-144,1500,1500.0
17:07:07.188,AUTO,-35.3632886,149.165219,31594,0.0944819375872612,-0.19372761249542236,0.33727535605430603,0.08192827552556992,0.006102603394538164,-0.02243361435830593,-17,4,-990,83,6,-22,100,3,-144,1500,1500.0
17:07:07.390,AUTO,-35.3632886,149.165219,31594,0.0944819375872612,-0.19372761249542236,0.33727535605430603,0.08192827552556992,0.006102603394538164,-0.02243361435830593,-17,4,-990,83,6,-22,100,3,-144,1500,1500.0
17:07:07.592,AUTO,-35.3632886,149.165219,31594,0.0944819375872612,-0.19372761249542236,0.33727535605430603,0.08192827552556992,0.006102603394538164,-0.02243361435830593,-17,4,-990,83,6,-22,100,3,-144,1500,1500.0
17:07:07.793,AUTO,-35.3632753,149.165226,32928,0.06999313831329346,-0.05662233754992485,0.24554191529750824,-0.08628405630588531,0.19803883135318756,-0.15471501648426056,-23,-27,-1029,-85,198,-154,184,115,-129,1500,1500.0
17:07:07.994,AUTO,-35.3632711,149.1652292,33267,0.06336762756109238,-0.02191770449280739,0.2175990343093872,-0.017396537587046623,0.10071432590484619,-0.1031012162566185,-41,-45,-1032,-15,101,-102,183,121,-137,1500,1500.0
17:07:08.196,AUTO,-35.363267,149.1652326,33624,0.05908980965614319,0.002636987017467618,0.19629615545272827,-0.021867671981453896,0.08925767242908478,-0.07909368723630905,-36,-42,-1023,-20,90,-79,178,126,-144,1500,1500.0
17:07:08.397,AUTO,-35.363267,149.1652326,33624,0.05908980965614319,0.002636987017467618,0.19629615545272827,-0.021867671981453896,0.08925767242908478,-0.07909368723630905,-36,-42,-1023,-20,90,-79,178,126,-144,1500,1500.0
17:07:08.598,AUTO,-35.3632631,149.1652361,33996,0.054256368428468704,0.023942377418279648,0.1803123503923416,-0.019978800788521767,0.0796721950173378,-0.061445292085409164,-27,-40,-1019,-18,80,-61,166,127,-149,1500,1500.0
17:07:08.799,AUTO,-35.3632595,149.1652396,34379,0.048314064741134644,0.04364769533276558,0.16709667444229126,-0.02481171302497387,0.07322825491428375,-0.05739656090736389,-25,-41,-1016,-23,74,-57,151,127,-153,1500,1500.0
17:07:09.000,AUTO,-35.3632595,149.1652396,34379,0.048314064741134644,0.04364769533276558,0.16709667444229126,-0.02481171302497387,0.07322825491428375,-0.05739656090736389,-25,-41,-1016,-23,74,-57,151,127,-153,1500,1500.0
17:07:09.201,AUTO,-35.3632595,149.1652396,34379,0.048314064741134644,0.04364769533276558,0.16709667444229126,-0.02481171302497387,0.07322825491428375,-0.05739656090736389,-25,-41,-1016,-23,74,-57,151,127,-153,1500,1500.0
17:07:09.403,AUTO,-35.3632595,149.1652396,34379,0.048314064741134644,0.04364769533276558,0.16709667444229126,-0.02481171302497387,0.07322825491428375,-0.05739656090736389,-25,-41,-1016,-23,74,-57,151,127,-153,1500,1500.0
17:07:09.605,AUTO,-35.3632512,149.1652499,35581,0.015228495933115482,0.10331671684980392,0.11921480298042297,-0.04212813451886177,0.064887136220932,-0.07403067499399185,-12,-31,-1010,-41,65,-73,84,114,-160,1500,1500.0
17:07:09.807,AUTO,-35.3632496,149.165253,35989,0.00411407183855772,0.11761573702096939,0.10038097202777863,-0.03515176475048065,0.04719853028655052,-0.07715339213609695,-3,-33,-1006,-33,48,-77,56,105,-160,1500,1500.0
17:07:10.008,AUTO,-35.3632486,149.1652558,36396,-0.00555975129827857,0.1279926598072052,0.08084653317928314,-0.025535762310028076,0.035971749573946,-0.07576952129602432,0,-26,-1001,-24,37,-75,27,95,-159,1500,1500.0
17:07:10.209,AUTO,-35.3632483,149.1652584,36797,-0.020228108391165733,0.12601622939109802,0.06937673687934875,-0.06887970864772797,-0.03749252110719681,-0.02323806844651699,5,-19,-995,-67,-36,-23,-1,84,-156,1500,1500.0
17:07:10.411,AUTO,-35.3632483,149.1652584,36797,-0.020228108391165733,0.12601622939109802,0.06937673687934875,-0.06887970864772797,-0.03749252110719681,-0.02323806844651699,5,-19,-995,-67,-36,-23,-1,84,-156,1500,1500.0
17:07:10.612,AUTO,-35.3632486,149.1652606,37192,-0.039652395993471146,0.11157852411270142,0.06751604378223419,-0.07902545481920242,-0.06697561591863632,0.002033958910033107,9,-17,-997,-77,-66,2,-27,71,-154,1500,1500.0
17:07:10.813,AUTO,-35.3632493,149.1652625,37589,-0.05850289389491081,0.09380264580249786,0.07051394879817963,-0.07258716970682144,-0.07013555616140366,0.012769462540745735,17,-13,-999,-71,-69,12,-48,54,-152,1500,1500.0
17:07:11.015,AUTO,-35.3632493,149.1652625,37589,-0.05850289389491081,0.09380264580249786,0.07051394879817963,-0.07258716970682144,-0.07013555616140366,0.012769462540745735,17,-13,-999,-71,-69,12,-48,54,-152,1500,1500.0
17:07:11.217,AUTO,-35.3632493,149.1652625,37589,-0.05850289389491081,0.09380264580249786,0.07051394879817963,-0.07258716970682144,-0.07013555616140366,0.012769462540745735,17,-13,-999,-71,-69,12,-48,54,-152,1500,1500.0
17:07:11.419,AUTO,-35.3632493,149.1652625,37589,-0.05850289389491081,0.09380264580249786,0.07051394879817963,-0.07258716970682144,-0.07013555616140366,0.012769462540745735,17,-13,-999,-71,-69,12,-48,54,-152,1500,1500.0
17:07:11.627,AUTO,-35.3632493,149.1652625,37589,-0.05850289389491081,0.09380264580249786,0.07051394879817963,-0.07258716970682144,-0.07013555616140366,0.012769462540745735,17,-13,-999,-71,-69,12,-48,54,-152,1500,1500.0
17:07:11.828,AUTO,-35.3632557,149.1652645,39109,-0.10486683994531631,0.025248434394598007,0.09666583687067032,-0.020267564803361893,-0.07083350419998169,0.027944810688495636,16,10,-1001,-19,-69,28,-82,-29,-148,1500,1500.0
17:07:12.029,AUTO,-35.3632576,149.1652635,39486,-0.10641732066869736,0.008545068092644215,0.10613615065813065,0.005974587518721819,-0.07095906883478165,0.03756566718220711,11,12,-1002,7,-69,37,-81,-52,-147,1500,1500.0
17:07:12.231,AUTO,-35.3632593,149.1652618,39861,-0.10078530758619308,-0.008864767849445343,0.11884977668523788,0.03064585104584694,-0.0734441801905632,0.0466235913336277,14,23,-1003,31,-72,46,-75,-72,-147,1500,1500.0
17:07:12.432,AUTO,-35.363261,149.1652596,40237,-0.08773643523454666,-0.024255763739347458,0.13260464370250702,0.06866694241762161,-0.056938961148262024,0.04690830036997795,14,23,-1003,31,-72,46,-66,-89,-148,1500,1500.0
17:07:12.633,AUTO,-35.363261,149.1652596,40237,-0.08773643523454666,-0.024255763739347458,0.13260464370250702,0.06866694241762161,-0.056938961148262024,0.04690830036997795,10,20,-1005,69,-56,47,-66,-89,-148,1500,1500.0
17:07:12.834,AUTO,-35.3632623,149.165257,40615,-0.06924226135015488,-0.034387823194265366,0.14422573149204254,0.0790892019867897,-0.03558458015322685,0.044895607978105545,3,27,-1006,80,-34,45,-55,-101,-149,1500,1500.0
17:07:13.035,AUTO,-35.3632623,149.165257,40615,-0.06924226135015488,-0.034387823194265366,0.14422573149204254,0.0790892019867897,-0.03558458015322685,0.044895607978105545,3,27,-1006,80,-34,45,-55,-101,-149,1500,1500.0
17:07:13.238,AUTO,-35.3632623,149.165257,40615,-0.06924226135015488,-0.034387823194265366,0.14422573149204254,0.0790892019867897,-0.03558458015322685,0.044895607978105545,3,27,-1006,80,-34,45,-55,-101,-149,1500,1500.0
17:07:13.439,AUTO,-35.3632623,149.165257,40615,-0.06924226135015488,-0.034387823194265366,0.14422573149204254,0.0790892019867897,-0.03558458015322685,0.044895607978105545,3,27,-1006,80,-34,45,-55,-101,-149,1500,1500.0
17:07:13.640,AUTO,-35.3632623,149.165257,40615,-0.06924226135015488,-0.034387823194265366,0.14422573149204254,0.0790892019867897,-0.03558458015322685,0.044895607978105545,3,27,-1006,80,-34,45,-55,-101,-149,1500,1500.0
17:07:13.842,AUTO,-35.3632655,149.1652451,42159,0.009767106734216213,-0.05097031593322754,0.18297946453094482,0.06571736186742783,-0.017115363851189613,0.04449383169412613,-3,24,-1006,66,-16,44,-13,-97,-155,1500,1500.0
17:07:14.043,AUTO,-35.3632656,149.1652425,42555,0.027010751888155937,-0.05353964492678642,0.1930352747440338,0.06945738941431046,-0.0044634174555540085,0.04167154058814049,-3,24,-1006,70,-3,42,-2,-86,-156,1500,1500.0
17:07:14.244,AUTO,-35.3632656,149.1652403,42952,0.03789716958999634,-0.0504455491900444,0.19596673548221588,-0.04306475445628166,0.08781971037387848,-0.0747942253947258,-8,15,-989,-42,88,-74,5,-71,-156,1441,1500.0
17:07:14.445,AUTO,-35.3632653,149.1652384,43344,0.016300290822982788,-0.007239331491291523,0.16331787407398224,-0.05073307827115059,0.15444912016391754,-0.18361978232860565,-8,14,-987,-49,155,-183,9,-61,-153,1441,1500.0
17:07:14.646,AUTO,-35.3632653,149.1652384,43344,0.016300290822982788,-0.007239331491291523,0.16331787407398224,-0.05073307827115059,0.15444912016391754,-0.18361978232860565,-8,14,-987,-49,155,-183,9,-61,-153,1441,1500.0
17:07:14.847,AUTO,-35.3632652,149.1652367,43730,0.021789195016026497,0.008637591265141964,0.10754566639661789,0.04541856423020363,0.020074838772416115,-0.24639971554279327,-10,11,-997,46,21,-245,6,-55,-151,1441,1500.0
17:07:15.049,AUTO,-35.3632652,149.1652367,43730,0.021789195016026497,0.008637591265141964,0.10754566639661789,0.04541856423020363,0.020074838772416115,-0.24639971554279327,-10,11,-997,46,21,-245,6,-55,-151,1441,1500.0
17:07:15.250,AUTO,-35.3632652,149.1652367,43730,0.021789195016026497,0.008637591265141964,0.10754566639661789,0.04541856423020363,0.020074838772416115,-0.24639971554279327,-10,11,-997,46,21,-245,6,-55,-151,1441,1500.0
17:07:15.452,AUTO,-35.3632652,149.1652367,43730,0.021789195016026497,0.008637591265141964,0.10754566639661789,0.04541856423020363,0.020074838772416115,-0.24639971554279327,-10,11,-997,46,21,-245,6,-55,-151,1441,1500.0
17:07:15.653,AUTO,-35.3632649,149.1652332,44879,0.06704311817884445,-0.00800415500998497,-0.10743319988250732,0.05507441982626915,-0.06357086449861526,-0.29713472723960876,-5,4,-1001,56,-62,-296,0,-18,-150,1441,1500.0
17:07:15.855,AUTO,-35.3632648,149.1652329,45261,0.06888322532176971,-0.011514022015035152,-0.18333864212036133,-0.0280156247317791,-0.011313091032207012,-0.3015683889389038,-3,0,-998,-26,-10,-301,5,-1,-149,1441,1500.0
17:07:16.057,AUTO,-35.3632645,149.1652329,45639,0.05776483565568924,-0.007025956176221371,-0.25928884744644165,-0.057282958179712296,0.0053513916209340096,-0.30161523818969727,-1,-3,-997,-55,6,-301,11,12,-148,1441,1500.0
17:07:16.259,AUTO,-35.3632641,149.1652333,46015,0.04245882108807564,-0.0019736774265766144,-0.3347923457622528,-0.0643816813826561,0.0025338977575302124,-0.29954931139945984,0,-6,-999,-63,3,-299,16,22,-147,1441,1500.0
17:07:16.461,AUTO,-35.3632636,149.1652339,46399,0.026905974373221397,0.002057109959423542,-0.41102781891822815,-0.05960949882864952,0.006872318685054779,-0.29579630494117737,1,-7,-1001,-58,8,-295,19,28,-148,1441,1500.0
17:07:16.663,AUTO,-35.3632636,149.1652339,46399,0.026905974373221397,0.002057109959423542,-0.41102781891822815,-0.05960949882864952,0.006872318685054779,-0.29579630494117737,1,-7,-1001,-58,8,-295,19,28,-148,1441,1500.0
17:07:16.866,AUTO,-35.363263,149.1652347,46776,0.01327610295265913,0.005114531144499779,-0.48547473549842834,-0.04870123788714409,0.008941128849983215,-0.29618722200393677,0,-7,-1002,-47,10,-295,21,30,-148,1441,1500.0
17:07:17.068,AUTO,-35.363263,149.1652347,46776,0.01327610295265913,0.005114531144499779,-0.48547473549842834,-0.04870123788714409,0.008941128849983215,-0.29618722200393677,0,-7,-1002,-47,10,-295,21,30,-148,1441,1500.0
17:07:17.270,AUTO,-35.363263,149.1652347,46776,0.01327610295265913,0.005114531144499779,-0.48547473549842834,-0.04870123788714409,0.008941128849983215,-0.29618722200393677,0,-7,-1002,-47,10,-295,21,30,-148,1441,1500.0
17:07:17.471,AUTO,-35.363263,149.1652347,46776,0.01327610295265913,0.005114531144499779,-0.48547473549842834,-0.04870123788714409,0.008941128849983215,-0.29618722200393677,0,-7,-1002,-47,10,-295,21,30,-148,1441,1500.0
17:07:17.672,AUTO,-35.363263,149.1652347,46776,0.01327610295265913,0.005114531144499779,-0.48547473549842834,-0.04870123788714409,0.008941128849983215,-0.29618722200393677,0,-7,-1002,-47,10,-295,21,30,-148,1441,1500.0
17:07:17.875,AUTO,-35.3632606,149.1652375,48449,-0.055665284395217896,-0.05779041722416878,-0.6867554783821106,-0.23213866353034973,-0.042626820504665375,-0.03401374816894531,0,-7,-987,-230,-41,-33,24,4,-149,1500,1500.0
17:07:18.076,AUTO,-35.36326,149.1652373,48823,-0.1000709980726242,-0.04594549909234047,-0.6949940919876099,-0.019914021715521812,0.12361039221286774,-0.014429310336709023,-4,-3,-924,-18,124,-14,20,-19,-136,1500,1500.0
17:07:18.277,AUTO,-35.36326,149.1652373,48823,-0.1000709980726242,-0.04594549909234047,-0.6949940919876099,-0.019914021715521812,0.12361039221286774,-0.014429310336709023,-4,-3,-924,-18,124,-14,20,-19,-136,1500,1500.0
17:07:18.479,AUTO,-35.3632595,149.1652366,49142,-0.07404016703367233,-0.009572614915668964,-0.7016758918762207,0.16802971065044403,0.14462313055992126,-0.012878434732556343,-8,0,-915,169,145,-12,11,-39,-115,1500,1500.0
17:07:18.681,AUTO,-35.3632593,149.1652354,49410,-0.028373820707201958,0.020164230838418007,-0.7061185240745544,0.17699408531188965,0.10423673689365387,-0.00865363422781229,-10,0,-921,178,105,-8,1,-45,-94,1500,1500.0
17:07:18.882,AUTO,-35.3632593,149.1652342,49628,0.011152196675539017,0.04000087454915047,-0.7079638838768005,0.14976179599761963,0.055177152156829834,-0.0037163691595196724,-8,4,-932,150,56,-3,-5,-39,-76,1500,1500.0
17:07:19.084,AUTO,-35.3632593,149.1652342,49628,0.011152196675539017,0.04000087454915047,-0.7079638838768005,0.14976179599761963,0.055177152156829834,-0.0037163691595196724,-8,4,-932,150,56,-3,-5,-39,-76,1500,1500.0
17:07:19.286,AUTO,-35.3632593,149.1652342,49628,0.011152196675539017,0.04000087454915047,-0.7079638838768005,0.14976179599761963,0.055177152156829834,-0.0037163691595196724,-8,4,-932,150,56,-3,-5,-39,-76,1500,1500.0
17:07:19.488,AUTO,-35.3632593,149.1652342,49628,0.011152196675539017,0.04000087454915047,-0.7079638838768005,0.14976179599761963,0.055177152156829834,-0.0037163691595196724,-8,4,-932,150,56,-3,-5,-39,-76,1500,1500.0
17:07:19.689,AUTO,-35.3632599,149.1652324,50101,0.04539293050765991,0.03571392595767975,-0.7086212635040283,0.22419127821922302,-0.028550604358315468,0.0027099107392132282,1,12,-966,225,-27,3,-12,10,-31,1500,1500.0
17:07:19.890,AUTO,-35.3632599,149.1652324,50101,0.04539293050765991,0.03571392595767975,-0.7086212635040283,0.22419127821922302,-0.028550604358315468,0.0027099107392132282,1,12,-966,225,-27,3,-12,10,-31,1500,1500.0
17:07:20.091,AUTO,-35.3632601,149.1652328,50169,0.03537368401885033,0.02739190123975277,-0.7084893584251404,-0.3153897225856781,-0.030303562059998512,0.0022601429373025894,3,-24,-947,-316,-28,2,-11,21,-22,1500,1500.0
