time_stamp,RTL_ALT,MODE,roll,pitch,yaw,rollspeed,pitchspeed,yawspeed,lat,lon,relative_alt,vx,vy,vz,xacc,yacc,zacc,xgyro,ygyro,zgyro
05:47:31,1500.0,STABILIZE,-0.0007842513732612133,0.001211652997881174,0.026543203741312027,0.00023249530931934714,0.00022660355898551643,0.002077799756079912,-35.3632622,149.1652375,0.0,-1.0,1.0,0.0,0.0,1.0,-1000.0,0.0,0.0,0.5
05:47:37,1500.0,STABILIZE,-0.0008148596971295774,0.0009465921903029084,0.024303995072841644,0.00014548253966495395,0.00015420763520523906,0.0016807158244773746,-35.3632621,149.1652375,0.0,-1.0,1.0,0.0,0.0,1.0,-1000.0,0.0,0.0,0.0
05:47:43,1500.0,AUTO,-0.0010003786301240325,0.0009915148257277906,0.022553673945367336,0.0003211988660041243,0.0002469243190716952,0.0014973038923926651,-35.3632622,149.1652375,3.5,-1.0,1.0,-1.0,0.0,2.0,-1000.0,0.5,1.0,0.0
05:47:45,1500.0,AUTO,-0.0006952477269805968,0.001397427637130022,0.0220574839040637,0.0003335501241963357,0.0002682155463844538,0.0014430700102820992,-35.3632621,149.1652375,7.0,0.0,0.0,0.0,0.0,1.0,-1000.0,1.0,0.5,0.0
05:47:46,59782.0,AUTO,-0.000510121310071554,0.0016228595923166722,0.021837512962520123,0.000285657835775055,0.00031479330209549516,0.0014259293384384364,-35.3632621,149.1652375,7.0,0.0,0.0,0.0,0.0,1.0,-1000.0,0.0,0.5,0.25
05:47:47,59782.0,AUTO,0.002207149751484394,0.0006905280242790468,0.021714918315410614,-0.003776699712034315,0.0036135613918304443,0.0005556973192142323,-35.3632621,149.1652375,311.5,0.0,0.0,-87.5,0.0,0.0,-1119.5,-3.0,3.5,0.0
05:47:49,59782.0,AUTO,0.049779292196035385,0.003344086930155754,-0.02026821579784155,-0.08409057091921568,0.06407009996473789,-0.077811349183321,-35.363261449999996,149.16524045,3120.5,9.5,48.5,-147.0,2.5,-10.0,-991.5,-83.0,64.5,-78.0
05:47:51,50545.5,AUTO,-0.05796695686876774,-0.011500552762299776,-0.08451825752854347,0.05512443743646145,0.001897329872008413,-0.0015690927539253607,-35.363261249999994,149.165245,6174.0,-1.5,-38.0,-149.0,-3.0,5.0,-1000.5,55.0,2.0,-1.5
05:47:53,41309.0,AUTO,0.06454161927103996,0.010287214070558548,-0.08209055289626122,0.03009623201796785,0.010138128185644746,-0.0008702492341399193,-35.36326165,149.16523425,9280.5,-6.0,-15.5,-153.5,-2.5,5.5,-998.5,30.5,10.5,-1.0
05:47:55,41309.0,AUTO,-0.015313934534788132,-0.005262418417260051,-0.10153064504265785,0.006868022494018078,0.002639910875586793,-0.023608208633959293,-35.36326245,149.1652365,12371.5,1.0,5.5,-152.0,0.5,-1.5,-1000.5,6.5,2.5,-24.0
05:47:56,2465.0,AUTO,-0.004781675146659836,-0.0014358181360876188,-0.12061654217541218,0.015699761221185327,0.0074370637303218246,-0.023389334324747324,-35.363262325,149.165236425,13542.25,3.75,-3.5,-152.0,-1.25,0.0,-1000.0,16.0,7.5,-23.25
05:47:57,2465.0,AUTO,0.00929814949631691,0.006224096519872546,-0.1484951600432396,0.0029280022718012333,0.0020659015863202512,-0.014858126640319824,-35.36326175,149.16523554999998,15643.5,0.5,-1.5,-152.0,-1.0,0.0,-999.5,3.0,2.0,-15.0
05:47:59,2465.0,AUTO,0.004446982638910413,0.0044984715059399605,-0.1768338307738304,-0.004214524989947677,-0.0013553774915635586,-0.016043678857386112,-35.3632616,149.16523565,18756.5,-3.0,6.5,-152.0,0.0,0.0,-1000.0,-3.0,0.0,-16.0
05:48:01,2465.0,AUTO,-0.034728553146123886,0.03024525276850909,-0.11253031436353922,-0.047769561875611544,0.007825848471838981,0.22703749034553766,-35.36326195,149.16523565,21064.5,-12.5,-12.0,-144.5,0.0,2.5,-981.5,-47.5,8.5,227.0
05:48:02,8060.0,AUTO,0.017039969097822905,-0.014159796759486198,0.08255783375352621,0.09455488435924053,-0.10155156115069985,0.05164465308189392,-35.363263700000005,149.16523295000002,22402.5,-27.75,-26.75,-110.75,2.5,8.5,-957.75,95.25,-100.25,51.5
05:48:03,8060.0,AUTO,0.046449409797787666,-0.031001494266092777,0.06670635938644409,-0.01545380288735032,0.025499233044683933,-0.017285529989749193,-35.36326475,149.16523205,23332.0,3.5,16.0,-75.0,0.5,-2.5,-970.5,-14.5,25.5,-17.5
05:48:05,8060.0,AUTO,-0.009085556725040078,0.01414250722154975,0.05697378143668175,-0.05226184241473675,0.004672829934861511,-0.0030927133630029857,-35.3632619,149.16523825000002,24329.0,11.5,24.0,-25.5,0.0,-8.5,-974.5,-51.0,5.5,-3.0
05:48:07,13494.5,AUTO,0.006292011588811874,-0.04831512086093426,0.04847182519733906,0.11369496583938599,-0.06566962599754333,-0.0072966087609529495,-35.3632607,149.16523925,24269.0,16.5,-8.5,11.5,-3.5,7.5,-1022.0,115.0,-64.0,-7.0
05:48:09,18929.0,AUTO,0.018121556378901005,-0.148607037961483,0.32770052552223206,0.28899598866701126,-0.05466669611632824,-0.03727894276380539,-35.3632456,149.1652421,24127.0,173.0,39.0,3.5,-39.5,-8.0,-1004.0,289.5,-53.0,-37.0
05:48:11,18929.0,AUTO,0.050361186265945435,-0.1804603785276413,0.297126442193985,0.09181052632629871,0.020255340728908777,-0.002524856710806489,-35.36319455,149.16525760000002,23913.5,396.5,99.0,10.5,-72.5,-48.0,-999.0,92.5,21.5,-2.5
05:48:12,208860.0,AUTO,0.0585620841011405,-0.16065522283315659,0.294724740087986,-0.038699401542544365,0.015816410770639777,-0.0028937910101376474,-35.363155575,149.16526995,23788.5,472.75,122.5,11.25,-98.0,-59.25,-993.0,-38.0,16.25,-3.0
05:48:13,208860.0,AUTO,0.06524362787604332,-0.1442183330655098,0.2917744368314743,-0.042482239194214344,0.03036416321992874,-0.004623295390047133,-35.363111,149.16528445,23647.0,518.0,136.0,13.5,-107.5,-64.0,-993.0,-41.5,30.5,-4.5
05:48:15,208860.0,AUTO,0.06983541324734688,-0.09902773052453995,0.2869034707546234,0.06169409118592739,0.05332408845424652,-0.006433052942156792,-35.36301495,149.16531609999998,23326.5,537.0,143.0,15.5,-111.5,-67.5,-995.5,62.0,53.5,-6.0
05:48:17,208860.0,AUTO,0.06946652010083199,-0.013646049425005913,0.28597143292427063,-0.32124481350183487,0.05940023064613342,0.012624157185200602,-35.3629234,149.165346,23009.5,453.5,121.5,13.0,-94.0,-86.5,-998.5,-320.5,60.0,12.0
05:48:18,102608.0,AUTO,0.05792631208896637,0.039051292929798365,0.28542857617139816,0.049026235938072205,0.05722178518772125,-0.015346677508205175,-35.362885775,149.165358425,22858.75,361.25,101.0,12.0,-79.5,-38.5,-1012.0,50.5,57.5,-15.25
05:48:19,102608.0,AUTO,0.03576409025117755,0.07738694548606873,0.2826668620109558,0.0865735113620758,0.0295679303817451,0.001001887023448944,-35.3628584,149.16536835,22733.5,244.5,72.0,9.0,-51.0,-29.0,-1011.5,87.5,30.0,0.5
05:48:21,102608.0,AUTO,0.008414754003752023,0.04328269325196743,0.2804950773715973,-0.3207363709807396,-0.02405687142163515,-0.0026617884286679327,-35.3628328,149.16537764999998,22596.5,63.5,14.5,1.5,-15.0,-22.0,-1001.0,-319.5,-22.5,-2.0
05:48:23,61186.0,AUTO,0.01046929182484746,0.002737024798989296,0.2771211266517639,0.0552559494972229,-0.026137003675103188,0.001375881431158632,-35.3628287,149.16537735,22600.5,2.5,5.0,-2.0,-0.5,0.0,-1002.0,56.5,-24.5,2.0
05:48:25,19764.0,RTL,0.0032124812714755535,0.0027843457646667957,0.27507302165031433,0.29921455681324005,0.0012997968588024378,0.000712852634023875,-35.3628285,149.1653773,22692.5,3.5,8.0,-18.5,1.0,14.5,-1034.0,300.0,2.0,0.5
05:48:27,19764.0,RTL,-0.004550752695649862,0.001258191594388336,0.27403342723846436,-0.00799169426318258,0.00015034785610623658,-0.0014799830387346447,-35.3628286,149.1653783,23951.0,2.5,-1.5,-108.0,0.0,-1.5,-1046.0,-7.0,0.0,-1.0
05:48:28,22734.0,RTL,0.012003231386188418,-0.0005016581926611252,0.27299442887306213,0.03650373325217515,-0.004427728345035575,-0.0007800403182045557,-35.3628286,149.165378475,25254.75,2.0,-0.25,-143.75,0.0,-0.25,-1019.25,37.25,-3.5,-0.5
05:48:29,22734.0,RTL,0.0413944311439991,0.002993510803207755,0.26352642476558685,-0.04147639498114586,0.043817184399813414,-0.04712948441738263,-35.3628286,149.1653803,26770.0,-1.0,30.5,-147.5,0.5,-6.5,-995.5,-40.0,44.5,-46.5
05:48:31,22734.0,RTL,-0.052315790206193924,0.00891845041041961,0.18051501363515854,-0.0001239776611328125,0.03961104876361787,-0.057324258610606194,-35.36282835,149.16538545,29817.5,5.5,-22.5,-149.0,-2.0,2.0,-998.5,1.0,39.5,-56.5
05:48:33,22734.0,RTL,0.029694118537008762,-0.011268971487879753,0.1824323758482933,0.012014744454063475,-0.054739510640501976,0.07075898163020611,-35.3628292,149.16537655,32914.0,-17.5,-26.0,-151.0,0.0,7.5,-1000.0,12.5,-53.0,70.5
05:48:34,34021.0,RTL,0.017090327572077513,-0.04172162595205009,0.23585133999586105,-0.03814359405077994,0.04139496898278594,-0.007887192303314805,-35.36282945,149.165375425,34472.75,13.5,9.5,-149.5,-3.0,-1.75,-998.25,-36.75,42.0,-7.25
05:48:35,34021.0,RTL,-0.0066691681277006865,0.015830763964913785,0.17388541251420975,-0.0015197545289993286,0.0410224637016654,-0.06349621526896954,-35.362826850000005,149.1653762,36016.0,23.0,5.5,-151.0,-7.0,-3.5,-1002.5,-0.5,41.5,-62.5
05:48:37,34021.0,RTL,0.009232120122760534,0.01697136415168643,0.1299493983387947,-0.004266124684363604,-0.014486710075289011,0.0006603200454264879,-35.362825400000006,149.1653757,39138.0,-17.5,1.5,-151.5,2.0,1.0,-999.5,-3.0,-13.0,1.5
05:48:39,22247.0,RTL,-0.0021440929267555475,-0.0011192403617314994,0.10402001067996025,0.0016334840911440551,2.923235297203064e-05,-0.024398136883974075,-35.36282755,149.1653765,42249.0,-11.5,3.5,-152.0,2.0,0.0,-1000.0,2.5,1.0,-23.0
05:48:41,10473.0,RTL,0.003126732539385557,0.004569557378999889,0.0469931997358799,0.0012165120569989085,0.0037732501514256,-0.02633008547127247,-35.3628279,149.1653765,45374.5,-3.0,1.5,-152.0,0.0,0.0,-1000.0,2.0,4.5,-25.0
05:48:43,10473.0,RTL,0.0014428471913561225,0.005177588434889913,0.001496962271630764,0.0007704636082053185,0.00041313195833936334,-0.01976791862398386,-35.3628279,149.1653769,48490.5,-4.0,3.0,-152.5,0.0,0.0,-1000.0,1.5,1.0,-18.0
05:48:44,108261.0,RTL,0.002416112052742392,0.005447430303320289,-0.013051673769950867,0.0038177849201019853,0.0032667047053109854,0.0010115058394148946,-35.362827975,149.165377075,50049.5,-4.25,3.25,-152.25,0.0,0.0,-999.25,4.5,4.25,2.0
05:48:45,108261.0,RTL,0.0030717490008100867,0.005879976321011782,0.0035427084658294916,-0.002469146507792175,-0.0013469225959852338,0.02651355415582657,-35.362828199999996,149.16537735,51602.5,-5.5,4.5,-152.0,0.0,0.0,-1000.0,-1.0,0.0,27.5
05:48:47,108261.0,RTL,-0.0005544139276025817,0.002756697009317577,0.05238342098891735,0.0010281447612214833,0.001096202729968354,0.022123893722891808,-35.36282855,149.16537795,54705.5,-3.5,2.5,-152.0,0.0,0.0,-1000.0,2.0,2.0,23.0
05:48:49,108261.0,RTL,0.0011345401289872825,0.0027551681268960238,0.08867666497826576,0.0013471503043547273,0.000541243061888963,0.01502783503383398,-35.3628285,149.165378,57817.5,-1.0,0.0,-152.0,0.0,0.0,-1000.0,2.5,1.5,16.0
05:48:50,164153.0,RTL,0.002090955211315304,0.0027994117117486894,0.10264912247657776,0.001469239650759846,0.0014004622935317457,0.013872776413336396,-35.362828475,149.165377825,59370.25,-1.0,0.0,-152.0,0.0,0.0,-1000.0,2.25,2.5,14.25
05:48:51,164153.0,RTL,0.002356764627620578,0.0035338083980605006,0.11537593230605125,0.0007444014772772789,0.000614694319665432,0.012962881475687027,-35.36282835,149.16537775,60921.5,-1.0,0.5,-152.0,0.0,0.0,-1000.0,2.0,1.5,13.5
05:48:53,164153.0,RTL,0.0018530847737565637,0.003216220415197313,0.13526501506567,-0.003023824654519558,-1.753744436427951e-05,0.008584634866565466,-35.3628282,149.1653776,64026.0,-2.0,1.0,-152.0,0.0,0.0,-999.0,-1.0,1.0,9.5
05:48:55,164153.0,RTL,0.0016769024659879506,0.0032745253993198276,0.1506636142730713,-0.0012918515130877495,-0.0008517817477695644,0.008017044514417648,-35.3628281,149.1653775,67129.5,-2.0,1.0,-152.0,0.0,0.0,-1000.0,0.0,0.0,8.5
05:48:56,59258.0,RTL,0.0012823243741877377,0.00301722640870139,0.15724682435393333,-0.0012406253954395652,0.00010173334158025682,0.0067122167674824595,-35.3628281,149.1653775,68682.0,-2.0,1.0,-152.0,0.0,0.0,-999.75,0.25,1.5,7.5
05:48:57,59258.0,RTL,0.000917406810913235,0.0029884788673371077,0.16315585374832153,-0.0009129885584115982,0.0006948363734409213,0.0059332768432796,-35.3628281,149.1653775,70234.5,-2.0,0.5,-152.0,0.0,0.0,-1000.0,0.5,1.5,6.5
05:48:59,59258.0,RTL,0.0014638628344982862,0.0027024425799027085,0.17420263588428497,-0.0009485740447416902,0.0016751136863604188,0.006347861606627703,-35.3628281,149.1653775,73342.0,-2.0,0.5,-152.0,0.0,0.0,-999.0,1.0,3.0,7.0
05:49:01,95165.0,RTL,0.00159676733892411,0.002818371751345694,0.18452397733926773,0.003251005371566862,0.0007759063737466931,0.006091842311434448,-35.3628281,149.1653775,76447.5,-2.0,0.0,-152.0,0.0,0.0,-1000.5,4.5,1.5,7.0
05:49:03,131072.0,RTL,0.0019013133714906871,0.002620291546918452,0.19276440888643265,1.2726697605103254e-05,-0.00015241221990436316,0.003027196042239666,-35.3628281,149.1653775,79556.5,-2.0,1.0,-152.0,0.0,0.0,-1000.5,1.0,1.0,3.5
05:49:05,131072.0,RTL,0.0012125420616939664,0.003030093270353973,0.19998279958963394,-0.00034507730742916465,-0.0004710689536295831,0.004566351417452097,-35.3628281,149.1653775,82738.0,-2.0,1.0,-152.0,0.0,0.0,-1000.0,1.5,0.5,5.5
05:49:06,84892.0,RTL,0.0009056228445842862,0.002860587148461491,0.2035445161163807,0.00041522798710502684,0.0002265844668727368,0.00393388228258118,-35.3628281,149.1653775,84368.25,-2.0,0.5,-152.0,0.0,0.0,-1000.0,1.5,1.5,5.0
05:49:07,84892.0,RTL,0.0013332028174772859,0.002679082448594272,0.20665640383958817,-0.00032791635021567345,0.0006116316071711481,0.0031638320069760084,-35.3628281,149.1653775,85921.0,-2.0,0.0,-152.0,0.0,0.0,-999.5,1.5,2.0,4.0
05:49:09,84892.0,RTL,0.0012098514707759023,0.0026854214956983924,0.21194206923246384,0.0005661997711285949,0.0006548232631757855,0.0024615259026177227,-35.3628281,149.1653775,89030.5,-2.0,0.0,-152.0,0.0,0.0,-1000.0,2.0,2.0,3.5
05:49:11,84892.0,RTL,0.0017740335315465927,0.00254100956954062,0.21664056181907654,0.0005719026084989309,0.0016423688502982259,0.003313031862489879,-35.3628281,149.1653775,92135.0,-2.0,0.0,-152.0,0.0,0.0,-999.5,2.0,3.0,4.5
05:49:12,9958.0,RTL,0.002108136599417776,0.0024483982124365866,0.2189030423760414,0.0010760463774204254,-1.4463381376117468e-05,0.0030894156370777637,-35.3628281,149.1653775,93696.75,-2.0,1.0,-152.0,0.0,0.0,-1000.0,2.75,1.5,4.25
05:49:13,9958.0,RTL,0.0017041300889104605,0.002662111190147698,0.22079022228717804,-0.0005874100606888533,0.0006705261184833944,0.001676013635005802,-35.3628281,149.1653775,95245.5,-2.0,1.0,-152.0,0.0,0.0,-1000.0,1.0,2.0,3.0
05:49:15,9958.0,RTL,0.0007204605208244175,0.0024662453215569258,0.22437801212072372,0.00019561313092708588,-0.0002194030676037073,0.0018588159000501037,-35.3628281,149.1653775,98355.0,-1.5,0.5,-152.0,0.0,0.0,-1000.0,1.5,1.5,3.0
05:49:17,14391.0,RTL,0.0012912209494970739,0.00254438747651875,0.22824615240097046,0.0013340929290279746,-0.0010886170784942806,0.0011837963829748333,-35.3628281,149.1653775,101461.0,-1.5,0.0,-152.0,0.0,0.0,-1000.5,3.0,0.5,2.5
05:49:19,18824.0,RTL,0.001347046869341284,0.002400205237790942,0.23089716583490372,-0.0004798932932317257,-0.000811657402664423,0.0014714482822455466,-35.3628281,149.1653775,104568.0,-1.0,0.0,-152.0,0.0,0.0,-1000.0,0.5,0.5,2.5
05:49:21,18824.0,RTL,0.0017305021174252033,0.0026620845310389996,0.23338299244642258,-0.0005935519002377987,-0.0007931628497317433,0.002252034901175648,-35.3628281,149.1653775,107676.5,-2.0,0.0,-152.0,0.0,0.0,-1000.0,0.5,1.0,3.0
05:49:22,17774.0,RTL,0.0020625404722522944,0.0024048194754868746,0.23438657820224762,0.001064901181962341,0.0004838025779463351,0.001243947132024914,-35.3628281,149.1653775,109228.75,-2.0,1.0,-152.0,0.0,0.0,-999.75,2.5,2.0,2.5
05:49:23,17774.0,RTL,0.0015642870566807687,0.002584809553809464,0.2353273183107376,-0.0008446139981970191,-0.00034840102307498455,0.002493219100870192,-35.3628281,149.1653775,110782.5,-2.0,1.0,-152.0,0.0,0.0,-1000.0,0.5,1.5,4.0
05:49:25,17774.0,RTL,0.0007053935842122883,0.002557505271397531,0.2371237948536873,-0.002062051324173808,-0.0013176568318158388,0.0005832758615724742,-35.3628281,149.1653775,113887.0,-2.0,0.5,-152.0,0.0,0.0,-1000.0,0.0,0.5,1.5
05:49:27,17774.0,RTL,0.0012232657172717154,0.002115829032845795,0.23860129714012146,-0.000981645833235234,0.0004739360883831978,0.00011314096627756953,-35.3628281,149.1653775,116994.5,-1.0,0.0,-152.0,0.0,0.0,-999.5,0.0,2.0,1.0
05:49:28,112497.0,RTL,0.0013049407280050218,0.002323246910236776,0.23920397832989693,0.0009092875407077372,-0.00012158681056462228,0.002127996936906129,-35.3628281,149.1653775,118549.5,-1.0,0.0,-152.0,0.0,0.0,-1000.0,2.25,1.5,3.5
05:49:29,112497.0,RTL,0.0012250511208549142,0.0023460735101252794,0.24000957608222961,0.00029907014686614275,0.00013453466817736626,0.0013781174784526229,-35.3628281,149.1653775,120104.5,-1.0,0.0,-152.0,0.0,0.0,-1000.0,2.0,2.0,2.5
05:49:31,112497.0,RTL,0.0012686785194091499,0.002417212352156639,0.24109923839569092,-0.0017342244973406196,-0.0009427013574168086,-0.00025765819009393454,-35.3628281,149.1653775,123211.0,-1.0,0.0,-152.0,0.0,0.0,-1000.0,0.0,1.0,1.0
05:49:33,126409.5,RTL,0.001629697682801634,0.0024830183247104287,0.24273820221424103,-0.0010286010801792145,0.0014582251897081733,0.004372224444523454,-35.3628281,149.1653775,126321.5,-1.0,1.0,-152.0,0.0,0.0,-999.0,0.5,3.5,5.5
05:49:35,140322.0,RTL,0.0006853246013633907,0.0025615114718675613,0.2435617670416832,-0.0014821103541180491,-0.0006706420099362731,0.00048619770677760243,-35.3628281,149.1653775,129431.5,-1.0,0.5,-152.0,0.0,0.0,-1000.5,0.0,0.5,2.0
05:49:37,140322.0,RTL,0.0009561899059917778,0.002479210030287504,0.2445884570479393,0.0015025762841105461,0.0004343019099906087,2.4392560590058565e-05,-35.3628281,149.1653775,132537.5,-1.0,0.0,-152.0,0.0,0.0,-1000.5,3.5,2.0,1.5
05:49:38,13802.0,RTL,0.0011963675788138062,0.00250412238528952,0.2446935996413231,0.0012461788719519973,0.000590625568293035,0.0003011974331457168,-35.3628281,149.1653775,134091.25,-1.0,0.0,-152.0,0.0,0.0,-999.75,2.75,2.5,1.5
05:49:39,13802.0,RTL,0.0016064884257502854,0.0027423230931162834,0.24519330263137817,0.0006488715298473835,0.000915129785425961,5.94195444136858e-06,-35.3628281,149.1653775,135645.5,-2.0,0.0,-152.0,0.0,0.0,-1000.0,2.0,2.5,1.0
05:49:41,13802.0,RTL,0.001827946223784238,0.0023336157901212573,0.2455487921833992,0.0006272222381085157,-9.46114887483418e-05,0.0002490337938070297,-35.3628281,149.1653775,138753.0,-2.0,0.5,-152.0,0.0,0.0,-1000.0,2.5,1.5,1.5
05:49:43,13802.0,RTL,0.0009161215566564351,0.002336425590328872,0.24608076363801956,-0.002046231471467763,0.000986143364571035,-0.0005567859625443816,-35.3628281,149.1653775,141856.5,-1.0,1.0,-152.0,0.0,0.0,-999.5,0.5,2.5,1.5
05:49:44,55407.0,RTL,0.0006847191980341449,0.002629099879413843,0.246203001588583,0.0004800931201316416,0.000715293048415333,0.0012619212502613664,-35.3628281,149.1653775,143410.25,-1.0,0.0,-152.0,0.0,0.0,-1000.0,2.25,2.5,3.0
05:49:45,55407.0,RTL,0.0008328010444529355,0.019117662799544632,0.24637849628925323,0.0009555626893416047,0.027263729833066463,0.0004619043320417404,-35.362828199999996,149.1653775,144960.0,-6.0,-0.5,-151.5,0.5,0.0,-999.5,3.0,29.5,2.0
05:49:47,55407.0,RTL,-0.010949258459731936,0.09555617719888687,0.24695096164941788,-0.009627355495467782,0.037667276337742805,0.003954964107833803,-35.36283615,149.16537535,148063.5,-101.0,-23.5,-141.5,16.5,9.5,-992.5,-6.5,39.5,5.5
05:49:49,38155.0,RTL,0.026236822828650475,0.15850739181041718,0.6976566910743713,0.11087743937969208,-0.12973448634147644,0.23172464966773987,-35.36285885,149.1653665,149888.0,-250.5,-106.0,-65.5,52.5,18.5,-936.5,106.5,-148.0,294.5
05:49:51,20903.0,RTL,0.045832253992557526,0.16800503432750702,0.8006942868232727,-0.3511701822280884,0.028707701712846756,-0.06014316901564598,-35.3629242,149.165345,150064.0,-433.0,-79.0,25.0,107.0,-26.0,-987.0,-349.0,31.0,-58.0
05:49:53,20903.0,RTL,-0.016165537759661674,0.1599026471376419,0.7193124294281006,-0.1563582606613636,-0.04445524699985981,-0.04965490289032459,-35.36300655,149.1653237,149794.0,-528.5,-129.0,-1.0,121.5,5.0,-1000.5,-154.0,-41.5,-47.0
05:49:54,154713.0,RTL,-0.030713944882154464,0.12496955245733261,0.662718391418457,-0.08618362694978714,-0.022550393594428897,-0.044829655438661575,-35.36307256,149.16530240000003,149827.4,-533.0,-146.0,-3.4,125.4,15.4,-989.4,-83.8,-19.6,-41.8
05:49:55,154713.0,RTL,-0.03868795186281204,0.10006800293922424,0.6350939869880676,0.18555717170238495,-0.040672264993190765,-0.00012794462963938713,-35.3631085,149.1652902,149841.0,-527.0,-145.0,-5.0,125.0,54.0,-998.0,188.0,-38.0,2.0
05:49:57,154713.0,RTL,-0.07264148443937302,0.011277697165496647,0.5784744620323181,-0.5591949373483658,-0.04981014784425497,-0.039736563339829445,-35.3631897,149.16526245,149894.5,-415.5,-117.0,-1.0,101.0,17.5,-995.0,-556.5,-46.5,-37.0
05:49:59,154713.0,RTL,-0.04901605471968651,-0.06789803132414818,0.5373948216438293,-0.5663517266511917,-0.01711022760719061,-0.013439646922051907,-35.3632451,149.1652418,149849.5,-194.0,-55.0,4.5,46.0,2.5,-988.0,-562.5,-14.5,-10.5
05:50:00,177695.0,RTL,-0.01687246561050415,-0.0479807086288929,0.514492416381836,-0.08889528959989548,0.02167994324117899,-0.01613993486389518,-35.363260399999994,149.1652358,149821.0,-74.4,-16.4,0.4,18.4,3.6,-1000.8,-86.4,23.8,-13.4
05:50:01,177695.0,RTL,-0.004306156653910875,-0.03610258549451828,0.5033468008041382,0.7403766512870789,0.017306964844465256,-0.004652842879295349,-35.3632643,149.1652346,149812.0,-34.0,-3.0,0.0,8.0,32.0,-1011.0,743.0,19.0,-2.0
05:50:03,177695.0,RTL,0.006801837123930454,0.007206809241324663,0.47959189116954803,0.5355203300714493,0.016415275167673826,-0.007008843356743455,-35.363266,149.1652355,149826.5,2.5,2.5,-0.5,0.5,12.5,-989.0,537.0,18.5,-4.0
05:50:05,177695.0,RTL,0.006097298857639544,-0.00875493697822094,0.46259792149066925,-0.15075674653053284,0.0044796926667913795,-0.007594265043735504,-35.3632656,149.165236,149828.0,10.5,0.0,-2.0,-2.0,-19.0,-997.5,-149.0,6.5,-4.5
05:50:06,47904.0,RTL,0.012767330335918814,-0.001848719228291884,0.45391206443309784,0.15253554098308086,0.006885010516270995,-0.007846967549994588,-35.36326435,149.165235775,149828.25,10.5,5.75,-0.25,-2.5,-2.25,-1001.5,154.5,8.75,-5.0
05:50:07,47904.0,RTL,-0.003201084677129984,0.0030079700518399477,0.4487592577934265,-0.23037750273942947,0.008642879780381918,-0.00963139208033681,-35.363263700000005,149.16523619999998,149827.5,7.5,8.0,-0.5,-1.0,5.5,-994.0,-227.5,10.5,-6.5
05:50:09,47904.0,RTL,0.0018094321712851524,0.0020290680695325136,0.4359138011932373,1.0768636465072632,-0.0003123220521956682,0.003412459744140506,-35.363263,149.1652375,149578.0,3.0,2.0,59.0,0.0,68.0,-930.0,1080.0,2.0,5.0
05:50:11,25072.0,RTL,-0.018274803180247545,-0.0025220494717359543,0.42684780061244965,-1.2853866815567017,0.0031723869033157825,-0.011716225650161505,-35.3632626,149.1652371,147650.5,1.0,1.0,107.5,-3.0,-29.5,-1027.0,-1281.5,5.0,-8.5
05:50:13,2240.0,RTL,0.021785900928080082,-0.004403411759994924,0.41816718876361847,-1.5244768857955933,0.006021383684128523,-0.00017913617193698883,-35.3632613,149.16523389999998,145579.0,-5.0,17.5,101.0,-2.5,-52.5,-974.5,-1521.0,7.5,2.5
05:50:15,2240.0,RTL,0.028379191644489765,0.005123143550008535,0.41126203536987305,-1.2235061526298523,0.007778062019497156,-0.010543085169047117,-35.3632602,149.1652321,143557.0,-15.5,41.0,97.0,1.5,-75.5,-1033.0,-1220.0,9.5,-7.5
05:50:16,171675.0,RTL,0.002970421308418736,0.011415216606110334,0.40697456896305084,-0.9736389219760895,0.0013850332470610738,-0.015277133788913488,-35.3632607,149.1652345,142287.25,-14.25,34.5,98.5,7.0,-78.0,-1000.25,-970.75,3.5,-12.25
05:50:17,171675.0,RTL,-0.024070056155323982,0.013265392277389765,0.4046311527490616,-1.1887971758842468,-0.001021186588332057,-0.015914815478026867,-35.363261449999996,149.165237,141528.0,-10.0,22.5,100.0,8.0,-91.0,-970.0,-1185.5,1.0,-13.0
05:50:19,171675.0,RTL,-0.06532759591937065,0.004936005687341094,0.3984711170196533,-1.361716628074646,-0.004516072105616331,-0.0030482617439702153,-35.36326405,149.16524295,139508.0,10.5,-30.5,103.5,5.5,-68.0,-992.5,-1358.0,-2.0,-0.5
05:50:21,171675.0,RTL,-0.05979681946337223,0.0027981644961982965,0.39296188950538635,-0.7848670184612274,-0.0013846554211340845,-0.009775314014405012,-35.363265350000006,149.16524585000002,137489.5,26.5,-64.0,110.5,2.5,-84.5,-946.5,-784.5,0.5,-7.0
05:50:22,8193.0,RTL,-0.05284624546766281,0.0007289943787327502,0.38955334573984146,-0.4684384614229202,-0.0012125344655942172,-0.001407689822372049,-35.3632656,149.165246625,136231.75,32.0,-75.75,106.5,0.25,-58.25,-973.75,-469.0,1.0,1.0
05:50:23,8193.0,RTL,-0.05172484926879406,8.335684674420918e-05,0.3884134441614151,-0.6795478314161301,0.0005693237180821598,-0.0037456555292010307,-35.363265549999994,149.1652465,135462.5,33.0,-78.5,105.0,-0.5,-64.0,-997.0,-680.0,2.5,-1.0
05:50:25,8193.0,RTL,-0.05555715039372444,-0.0011367587139829993,0.38364820182323456,-1.0837600529193878,0.0015991598484106362,-0.005293324473313987,-35.363265150000004,149.1652455,133396.5,30.5,-72.5,107.0,-1.5,-79.5,-958.5,-1085.5,3.0,-3.0
05:50:27,8193.0,RTL,-0.009008689783513546,-0.005223619984462857,0.38002556562423706,-0.19324778020381927,-0.003821885446086526,0.014023422729223967,-35.363264150000006,149.16524249999998,131344.0,23.5,-56.0,103.0,-4.5,-43.5,-944.0,-197.5,-1.0,16.0
05:50:28,10911.0,RTL,0.001676956657320261,-0.0028237144579179585,0.3781602904200554,-0.5360560938715935,-0.0024942557211034,0.00701236363966018,-35.36326327500001,149.165240225,130062.25,15.75,-36.5,103.0,-4.75,-52.5,-976.5,-539.75,0.25,9.5
05:50:29,10911.0,RTL,0.01885544089600444,-0.0033033810323104262,0.3770565986633301,-0.21466674655675888,0.0016246988088823855,0.003204224747605622,-35.363262649999996,149.16523869999997,129284.0,10.5,-26.5,105.0,-4.5,-52.0,-987.5,-218.5,3.0,5.5
05:50:31,10911.0,RTL,0.027596919797360897,-0.0037271821638569236,0.37497569620609283,-1.196525126695633,0.0003342077834531665,-0.0007610033499076962,-35.3632612,149.1652344,127228.5,-3.0,7.5,101.0,-4.5,-72.5,-940.0,-1199.0,2.5,1.5
05:50:33,15116.0,RTL,0.026766661554574966,7.4004776251968e-05,0.3733148127794266,-1.2332373261451721,0.0038366419030353427,-0.004983442835509777,-35.36326015,149.16523139999998,125188.5,-15.0,41.0,100.5,-0.5,-46.0,-1045.0,-1233.5,6.0,-1.5
05:50:35,19321.0,RTL,-0.0061133663257351145,0.00664172088727355,0.37098298966884613,-1.2843939065933228,-0.0004090339643880725,-0.00031639914959669113,-35.363260499999996,149.16523310000002,123147.0,-16.5,44.5,101.0,2.5,-36.0,-983.5,-1283.5,1.0,2.0
05:50:37,19321.0,RTL,-0.012021004687994719,0.002274809288792312,0.3699380159378052,0.20525028184056282,-0.002390695153735578,0.0009992111008614302,-35.36326165,149.16523619999998,121108.5,-9.5,21.0,100.0,0.0,48.5,-962.0,206.5,0.0,4.0
05:50:38,42810.0,RTL,-0.00040409842040389776,-0.0021855864906683564,0.36838556081056595,0.2192235493566841,0.0003596573369577527,-0.0039576791459694505,-35.3632619,149.165236175,119822.75,-6.0,13.5,99.25,-0.25,54.25,-989.75,221.25,2.0,-1.25
05:50:39,42810.0,RTL,0.016835815273225307,-0.002717005554586649,0.36848755180835724,0.8128390908241272,-0.006525966222397983,-0.0037065824144519866,-35.3632619,149.16523560000002,119057.5,-5.0,15.5,97.0,-0.5,69.5,-1017.5,814.5,-4.0,-0.5
05:50:41,42810.0,RTL,0.038640351966023445,0.0018859615083783865,0.3670782297849655,0.8821940124034882,0.003361629380378872,0.002335593570023775,-35.3632614,149.1652346,117015.0,-6.5,22.5,98.5,0.0,14.0,-1036.5,881.5,5.0,4.5
05:50:43,42810.0,RTL,0.013038885779678822,0.006152118090540171,0.36570771038532257,-0.13637994229793549,-0.0017783479415811598,-0.009365757461637259,-35.3632614,149.16523595,114971.0,-7.5,18.5,99.0,1.5,-48.0,-982.5,-137.0,0.5,-6.0
05:50:44,23659.0,RTL,0.0045840798411518335,0.004135401570238173,0.36494230479002,-0.550869308412075,-0.0029243929602671415,-0.0024641224881634116,-35.363261725,149.165237075,113699.25,-5.5,8.0,99.25,1.5,-64.75,-988.75,-550.75,-0.5,0.5
05:50:45,23659.0,RTL,0.0023264897608896717,0.00314264465123415,0.36492301523685455,-0.7579488754272461,-0.00046255113556981087,-0.006117190350778401,-35.363261949999995,149.16523755,112936.0,-3.5,4.0,102.5,2.5,-70.0,-951.5,-758.5,1.5,-3.5
05:50:47,23659.0,RTL,-0.032009705901145935,0.00431217672303319,0.36367638409137726,-1.2842023968696594,0.0001252599759027362,-0.0017295517027378082,-35.363262649999996,149.16523955,110911.0,2.0,-10.0,99.0,1.5,-59.5,-993.0,-1283.5,2.0,1.0
05:50:49,23659.0,RTL,-0.026617546565830708,-0.0005379224458010867,0.3628269135951996,-0.6865202486515045,0.0023103469284251332,0.001897541107609868,-35.3632629,149.1652397,108873.5,4.5,-19.5,100.5,-3.0,0.0,-1007.5,-683.5,4.5,4.0
05:50:50,51702.0,RTL,0.008539484231732786,-0.0008337274775840342,0.362571656703949,1.0925463289022446,0.006617191364057362,0.0038770980900153518,-35.363262524999996,149.165238425,107512.25,2.75,-11.5,102.25,-2.25,72.0,-1000.5,1094.5,8.5,6.75
05:50:51,51702.0,RTL,0.002227324905106798,0.003387024626135826,0.3622905910015106,0.90188068151474,0.010382635984569788,0.003838207689113915,-35.36326235,149.1652382,106741.5,2.0,-6.5,103.0,-0.5,69.5,-1008.0,903.5,12.5,6.0
05:50:53,51702.0,RTL,-0.015256426762789488,0.007766151102259755,0.3615121841430664,1.0260595381259918,-0.003658058471046388,-0.0005190509837120771,-35.3632623,149.16523990000002,104710.5,1.0,-12.5,105.0,1.0,67.5,-994.5,1027.5,-1.0,2.0
05:50:55,57688.0,RTL,-0.01962729450315237,0.0007425545190926641,0.36104756593704224,1.0415373146533966,-0.00019911595154553652,0.010689993854612112,-35.3632631,149.16524125,102689.0,5.0,-28.5,104.0,-0.5,73.5,-1002.5,1042.5,2.5,13.5
05:50:57,63674.0,RTL,0.004205934528727084,-0.002165574231185019,0.36153700947761536,1.1234537959098816,0.00012529152445495129,0.002565669361501932,-35.36326285,149.16523905,100635.5,5.0,-17.5,104.5,-2.0,73.0,-1007.5,1124.0,2.5,5.0
05:50:59,63674.0,RTL,0.016870183870196342,0.00045409960875986144,0.36075474321842194,1.135020673274994,0.0037639844231307507,-0.0029959874227643013,-35.3632619,149.1652368,98586.0,0.0,-1.0,104.5,-2.5,79.5,-1003.0,1135.5,6.0,0.0
05:51:00,5514.0,RTL,0.01433744840323925,0.002380615478614345,0.3604092448949814,1.1275779604911804,0.0007640635594725609,0.004586023365845904,-35.363261525,149.16523617500002,97312.5,-4.25,8.5,103.75,-0.75,77.75,-984.0,1128.25,3.25,7.25
05:51:01,5514.0,RTL,0.015263122972100973,0.00032189370540436357,0.36081089079380035,0.9593766033649445,-0.004809974925592542,0.0018235016614198685,-35.3632615,149.1652359,96539.5,-5.0,9.5,102.0,-0.5,69.5,-1036.5,960.5,-2.0,4.5
05:51:03,5514.0,RTL,0.019713694229722023,0.001768327143508941,0.3604874610900879,1.4055709838867188,-0.0043329226318746805,0.005880735698156059,-35.3632616,149.16523595,94502.5,-6.0,15.0,104.5,1.0,69.0,-1004.5,1406.0,-1.5,8.5
05:51:05,5514.0,RTL,0.027544756419956684,-0.002307756512891501,0.35923731327056885,0.9102413356304169,-0.005490933544933796,0.0021300934022292495,-35.363262,149.1652365,92440.5,-2.0,6.0,103.0,0.0,5.0,-989.5,908.5,-2.5,5.0
05:51:06,21922.0,RTL,0.04181591980159283,-0.002706998900976032,0.3596523851156235,1.2738712131977081,-0.0025535120512358844,-0.0006918039871379733,-35.36326185,149.165235475,91171.0,-3.25,13.25,100.75,-0.75,37.0,-993.25,1273.0,0.25,2.25
05:51:07,21922.0,RTL,0.03782829828560352,-0.0014208643115125597,0.3595566153526306,0.7525079548358917,0.002833142760209739,0.0017876758938655257,-35.36326165,149.16523495,90406.0,-5.0,18.5,104.0,-2.0,3.5,-994.0,751.0,5.0,5.0
05:51:09,21922.0,RTL,0.04940334893763065,0.0008958754769992083,0.3592192232608795,0.6276073604822159,-0.0005905251018702984,0.002546438481658697,-35.36326095,149.1652333,88367.0,-9.5,29.0,102.5,0.5,-7.5,-1037.5,627.0,1.0,5.5
05:51:11,59373.0,RTL,0.0200697248801589,0.00644703721627593,0.3600188046693802,0.5871343016624451,0.0018369326135143638,0.008891933131963015,-35.36326115,149.1652353,86332.5,-10.5,25.5,100.0,2.0,-17.0,-951.0,586.0,4.5,11.5
05:51:13,96824.0,RTL,0.005044829682447016,0.005055396817624569,0.3600132614374161,0.6025542318820953,-0.007279089419171214,-0.0014627290656790137,-35.363261949999995,149.16523805,84263.0,-4.0,2.5,98.5,1.5,-13.5,-1045.0,602.5,-4.0,1.5
05:51:15,96824.0,RTL,-0.017193925566971302,0.0017976209637708962,0.36040882766246796,-1.1377333402633667,-0.0011498092208057642,-0.009949825122021139,-35.36326255,149.16523925,82221.5,1.0,-11.0,98.5,1.5,-74.0,-972.0,-1137.5,1.5,-6.5
05:51:16,12427.0,RTL,0.0043499189778231084,0.0024782430118648335,0.36069386452436447,0.008952174335718155,0.0039441713015548885,-0.0021089105284772813,-35.3632626,149.165239225,80940.5,3.0,-14.25,97.75,0.75,-39.0,-977.75,7.75,5.75,1.0
05:51:17,12427.0,RTL,-0.006876608356833458,0.006050486350432038,0.3610492944717407,-0.5184164345264435,0.004646532703191042,0.004488486796617508,-35.363262649999996,149.16523965,80183.5,4.0,-15.0,99.5,2.0,-72.0,-927.0,-519.0,7.0,8.0
05:51:19,12427.0,RTL,-0.019820112735033035,0.0005856313509866595,0.35872821509838104,-0.7832479476928711,-0.003044655139092356,-0.005000990931876004,-35.363262950000006,149.1652409,78138.0,5.5,-27.0,99.5,-1.5,-62.0,-965.5,-784.5,-0.5,-1.5
05:51:21,28787.5,RTL,0.018164013978093863,-0.0048600416630506516,0.35889552533626556,-0.4617712199687958,0.0029899378423579037,0.008215801790356636,-35.36326255,149.16523795,76107.0,3.5,-14.5,99.5,-5.5,-52.5,-965.0,-463.0,5.5,11.0
05:51:23,45148.0,RTL,0.0367568526417017,-0.003268666216172278,0.358930841088295,-0.7545290887355804,0.00468884757719934,0.00033003382850438356,-35.36326115,149.16523365,74052.0,-5.5,18.0,97.5,-3.5,-58.5,-1019.0,-754.5,6.5,3.5
05:51:25,45148.0,RTL,0.008072740805801004,0.005456090904772282,0.3599337339401245,-1.456469714641571,0.005534653784707189,-0.005587851162999868,-35.36326045,149.16523275,72002.0,-14.0,40.0,98.0,2.5,-61.0,-1001.5,-1454.5,7.5,-2.0
05:51:26,45786.0,RTL,-0.01343328773509711,0.007304886938072741,0.3595094084739685,-1.3331977427005768,0.0010544357064645737,-0.00850567949237302,-35.363260925000006,149.165234975,70722.5,-13.5,31.75,96.75,2.0,-59.0,-998.5,-1331.5,3.25,-4.5
05:51:27,45786.0,RTL,-0.017649450339376926,0.0028757869149558246,0.3589128106832504,-1.324090301990509,-0.006439965218305588,-0.0019219554960727692,-35.363261249999994,149.1652357,69951.0,-11.5,21.0,96.5,0.0,-31.5,-987.0,-1321.0,-3.0,1.0
05:51:29,45786.0,RTL,0.014220139710232615,-0.0025993536110036075,0.36107634007930756,-1.3506576418876648,0.009679552167654037,-0.00502056407276541,-35.3632613,149.16523415,67910.5,-9.0,23.0,98.0,-1.0,-41.5,-1037.5,-1347.5,12.0,-1.5
05:51:31,45786.0,RTL,-0.003743578272406012,0.004904045490548015,0.36023537814617157,-1.161251962184906,0.006650891620665789,-0.006752110552042723,-35.3632613,149.16523495,65881.5,-8.5,24.5,99.5,0.5,-51.5,-1080.5,-1157.0,9.0,-2.5
05:51:32,214105.0,RTL,-0.01772678643465042,0.004870977834798396,0.359216533601284,-0.5593805685639381,0.001018894457956776,0.0028249853057786822,-35.36326155,149.165236325,64615.5,-8.0,18.5,99.5,1.5,15.0,-980.25,-554.25,3.25,6.5
05:51:33,214105.0,RTL,-0.011157430009916425,0.0034127302933484316,0.3604235202074051,0.0697336345911026,-0.0016932145226746798,0.004240473383106291,-35.3632618,149.16523705,63847.0,-5.5,11.0,96.5,1.0,32.0,-1022.5,74.5,1.5,7.5
05:51:35,214105.0,RTL,0.004904822912067175,0.0004086640110472217,0.3594856411218643,1.1081810593605042,-0.0025278652319684625,0.010154364164918661,-35.3632622,149.1652377,61806.5,-2.0,2.0,97.5,-0.5,72.5,-1002.5,1112.5,0.5,13.5
05:51:37,214105.0,RTL,-0.01542571745812893,0.005646537523716688,0.3601153641939163,0.29951024055480957,0.00492444820702076,-0.0036673108115792274,-35.36326215,149.1652376,59756.5,-1.0,4.0,100.5,2.0,58.0,-896.5,304.5,7.0,0.0
05:51:38,128201.0,RTL,-0.02783969510346651,0.007570879883132875,0.3595016747713089,0.21964310854673386,0.0006518908776342869,0.0025577734922990203,-35.36326235,149.16523922500002,58477.75,0.25,-4.75,97.0,1.75,45.0,-996.5,224.25,3.0,6.0
05:51:39,128201.0,RTL,-0.028027808293700218,0.0047306336928159,0.3592072129249573,0.2482847347855568,-0.002829807111993432,0.0005710172699764371,-35.3632626,149.16524005,57707.5,0.5,-12.0,96.0,0.0,51.5,-1000.5,253.0,0.0,3.5
05:51:41,128201.0,RTL,0.0038632058713119477,0.00031255019712261856,0.3599991947412491,1.4081940650939941,-0.004570143879391253,-0.002194803790189326,-35.363263,149.16524,55669.5,6.0,-21.0,100.0,0.5,66.0,-1043.5,1411.5,-1.0,1.5
05:51:43,128201.0,RTL,0.002634888705870253,0.0006007364281686023,0.35987575352191925,1.3765385746955872,-0.003948151716031134,0.0015268895076587796,-35.36326285,149.16523955000002,53625.0,5.5,-17.5,95.5,-1.0,62.0,-1108.5,1379.0,-1.0,4.5
05:51:44,35021.0,RTL,0.00908767362125218,0.0020558273245114833,0.35924554616212845,1.3860931098461151,-0.0005936556844972074,0.008106291526928544,-35.363262625,149.16523907500002,52360.75,4.0,-13.75,96.5,-0.25,64.0,-995.0,1388.75,2.0,11.5
05:51:45,35021.0,RTL,0.008422004990279675,0.0022458345629274845,0.3593681752681732,1.282546579837799,-0.0044672415824607015,0.003046942292712629,-35.3632625,149.16523905000003,51598.5,3.0,-13.0,97.5,0.0,52.0,-1015.0,1284.5,-1.5,6.5
05:51:47,35021.0,RTL,0.012985239271074533,7.784651825204492e-05,0.3593924790620804,0.0056354813277721405,-0.0018867366015911102,-0.004465004312805831,-35.3632624,149.16523834999998,49582.5,3.0,-11.5,101.0,-0.5,-42.5,-976.0,5.5,1.0,-0.5
05:51:49,29500.5,RTL,-0.00808890676125884,-0.0003062947216676548,0.35988545417785645,-1.3603442907333374,-4.0531158447265625e-05,0.0002636578865349293,-35.3632621,149.1652371,47545.0,0.0,-1.0,102.0,0.0,-53.5,-998.0,-1358.5,3.0,4.0
05:51:51,23980.0,RTL,-0.0007115646731108427,-0.001053415922797285,0.35889334976673126,-0.42697032541036606,-0.0030453915242105722,0.0002854267368093133,-35.36326175,149.16523605,45508.5,-3.5,7.0,100.0,-1.5,12.5,-1029.0,-422.5,0.0,3.5
05:51:53,23980.0,RTL,0.003965138806961477,0.0010614353814162314,0.3594544380903244,-0.6727325916290283,0.004728901898488402,0.0003990442492067814,-35.3632613,149.1652346,43466.5,-8.0,21.0,98.5,-1.0,0.5,-1022.5,-668.0,7.5,4.0
05:51:54,45294.0,RTL,0.02357490547001362,0.0031989754643291235,0.35981664806604385,1.260719746351242,-0.002655176678672433,0.0035378989414311945,-35.36326115,149.1652348,42091.0,-9.75,25.0,101.75,0.0,80.0,-960.0,1264.5,0.5,7.0
05:51:55,45294.0,RTL,0.030615254305303097,0.0023698355071246624,0.3597060739994049,1.449208676815033,-0.005724104819819331,-0.0013704390730708838,-35.3632612,149.165235,41308.0,-10.0,22.5,100.5,0.0,64.5,-1021.5,1452.5,-2.0,2.5
05:51:57,45294.0,RTL,0.035205572843551636,0.0009379125423644533,0.36022011439005536,0.7787134051322937,-0.002601014838243524,0.0011608971593280633,-35.3632613,149.16523483333333,39391.0,-8.0,21.333333333333332,99.33333333333333,1.6666666666666667,-1.6666666666666667,-1014.0,780.0,1.0,4.666666666666667
05:51:59,45294.0,RTL,0.016655756781498592,0.0014801746001467109,0.35979604721069336,0.011733355621496836,-0.0010896331320206325,0.008170824497938156,-35.3632617,149.1652361,37330.666666666664,-6.0,16.0,102.0,-0.3333333333333333,-43.333333333333336,-972.6666666666666,13.666666666666666,2.0,12.333333333333334
05:52:00,170447.0,RTL,0.007462129811756313,-0.0022154458856675774,0.3596380278468132,-1.1515876948833466,-0.0038233670056797564,0.0025493057328276336,-35.363261725,149.165235775,35935.25,-4.5,12.25,97.5,-1.6666666666666667,-65.66666666666667,-993.3333333333334,-1100.6666666666667,-2.0,6.666666666666667
05:52:01,170447.0,RTL,0.013528287410736084,-0.002346288238186389,0.3601924329996109,-1.3178653717041016,-0.0019413447007536888,0.001826754305511713,-35.36326165,149.16523504999998,35169.5,-4.0,15.0,96.5,-0.6666666666666666,-71.66666666666667,-1003.6666666666666,-1307.3333333333333,1.6666666666666667,5.666666666666667
05:52:03,170447.0,RTL,-0.02053063176572323,0.005543984239920974,0.3597625344991684,-1.445392668247223,-0.0005679200403392315,-0.0006437505362555385,-35.3632618,149.16523669999998,33123.5,-3.5,13.5,97.5,3.5,-65.0,-1004.5,-1441.5,2.5,3.0
05:52:05,170447.0,RTL,-0.018645362618068855,0.001578471817386647,0.3597232898076375,-1.4428314367930095,0.00025149461968491477,-0.003674703029294809,-35.36326226666667,149.16523793333332,31215.666666666668,0.0,-0.3333333333333333,97.0,2.3333333333333335,-60.666666666666664,-1009.6666666666666,-1438.0,2.6666666666666665,0.3333333333333333
05:52:06,3703.0,RTL,-0.031060962472110987,0.002176146808778867,0.35930608958005905,-1.4318251311779022,0.0037183173117227852,-0.006759148323908448,-35.363262625000004,149.165238875,29821.75,2.25,-6.0,97.25,0.75,-56.75,-1018.25,-1427.25,6.5,-2.5
05:52:07,3703.0,RTL,-0.033482376486063004,0.0020683726761490107,0.3599916845560074,-1.2154312133789062,-0.0013586421264335513,0.0002285040682181716,-35.3632628,149.16523934999998,29058.5,4.5,-11.5,98.5,1.5,-36.5,-1008.5,-1210.5,1.0,4.0
05:52:09,3703.0,RTL,-0.03450442415972551,0.0010517198243178427,0.35981765389442444,-0.48238106568654376,0.001252028625458479,-0.001549533490712444,-35.3632631,149.16524026666667,27144.0,7.666666666666667,-19.333333333333332,100.0,0.0,19.0,-993.6666666666666,-476.3333333333333,4.0,2.0
05:52:11,3703.0,RTL,-0.029292781526843708,-0.004255920648574829,0.35929004351298016,-0.5533391137917837,-0.0028221230022609234,0.0037335595892121396,-35.36326316666666,149.16523953333333,25116.0,8.0,-19.666666666666668,100.66666666666667,-3.3333333333333335,23.666666666666668,-968.3333333333334,-547.6666666666666,0.3333333333333333,7.333333333333333
05:52:12,12569.0,RTL,-0.009014479195078215,-0.004720724420621991,0.35987067222595215,-1.1714468598365784,0.003429863601922989,0.0012967621441930532,-35.363262633333335,149.1652375333333,23848.0,5.666666666666667,-9.666666666666666,102.33333333333333,-3.0,-17.666666666666668,-968.3333333333334,-1166.6666666666667,6.0,4.666666666666667
05:52:13,12569.0,RTL,-0.0020416430434124777,-0.002505191252566874,0.36024221777915955,-1.0574926137924194,0.005427687506501873,-0.0003793415768692891,-35.3632623,149.1652366333333,23087.0,3.0,-0.6666666666666666,100.0,-2.0,-17.0,-998.0,-1052.6666666666667,8.333333333333334,3.0
05:52:15,12569.0,RTL,0.004935402888804674,0.00269235767579327,0.36031148831049603,0.8981454571088155,0.0009421748109161854,0.005747054237872362,-35.3632619,149.16523646666667,21051.666666666668,-1.0,9.333333333333334,102.33333333333333,0.0,73.33333333333333,-959.3333333333334,903.0,3.3333333333333335,9.0
05:52:17,58362.5,RTL,0.012988170919318994,0.0008124319332030913,0.36033113797505695,0.9829840362071991,-0.00022187704841295877,0.006153237695495288,-35.363262133333336,149.16523766666668,19012.0,-1.0,1.0,103.0,-1.0,16.333333333333332,-998.6666666666666,984.6666666666666,2.3333333333333335,10.0
05:52:19,104156.0,RTL,0.03765703241030375,-0.004099043396612008,0.35999350746472675,0.2791779624919097,0.0015021538517127435,-0.0032262996149559817,-35.3632619,149.16523583333333,16962.333333333332,-1.3333333333333333,5.666666666666667,101.66666666666667,-2.3333333333333335,-26.0,-951.0,280.6666666666667,4.333333333333333,1.0
05:52:21,104156.0,RTL,0.014915831775094071,0.004917522581915061,0.3608800768852234,-0.5323130115866661,0.005023212482531865,-0.009402648933852712,-35.3632615,149.16523546666667,14920.666666666666,-4.333333333333333,18.666666666666668,101.33333333333333,3.3333333333333335,-63.666666666666664,-996.3333333333334,-529.6666666666666,7.333333333333333,-5.333333333333333
05:52:22,72825.0,RTL,-0.0072551323877026635,0.005044372131427129,0.36073824763298035,-0.5694298793872198,-0.006698475840191047,-0.0073808661351601286,-35.363262066666664,149.1652377,13636.666666666666,-1.3333333333333333,6.0,101.0,3.0,-62.666666666666664,-996.6666666666666,-567.0,-3.3333333333333335,-2.6666666666666665
05:52:23,72825.0,RTL,-0.02325146272778511,0.0019287587686752279,0.36029524604479474,-1.1734601855278015,-0.006664336503793796,-0.006197122546533744,-35.363262399999996,149.16523853333334,12874.0,0.3333333333333333,-1.3333333333333333,101.66666666666667,1.3333333333333333,-76.0,-959.3333333333334,-1170.3333333333333,-4.0,-2.0
05:52:25,72825.0,RTL,-0.006734112122406562,-0.00017269862170602815,0.36059050758679706,0.05880997578303019,0.003365732729434967,0.0024081832574059567,-35.3632627,149.16523853333334,11229.666666666666,4.0,-7.333333333333333,36.333333333333336,0.6666666666666666,12.666666666666666,-1046.0,63.0,5.666666666666667,5.666666666666667
05:52:27,82551.0,RTL,-0.02028782603641351,0.001078937842976302,0.36034907897313434,0.643860250711441,-0.009134157250324884,0.0029226811602711678,-35.3632631,149.16524006666668,10703.0,6.666666666666667,-14.333333333333334,31.666666666666668,0.0,47.666666666666664,-994.3333333333334,648.3333333333334,-6.333333333333333,6.666666666666667
05:52:29,92277.0,RTL,0.025755042520662148,-0.007948627229779959,0.3598983387152354,0.48228003084659576,-0.0011200228085120518,0.0018937303684651852,-35.363262600000006,149.16523726666665,10030.666666666666,5.333333333333333,-11.0,35.666666666666664,-5.0,31.0,-990.0,486.0,1.6666666666666667,5.666666666666667
05:52:31,92277.0,RTL,0.028902397801478703,0.0010489449293042223,0.36090243856112164,0.7346406181653341,0.0016872365182886522,-0.0008719910401850939,-35.3632615,149.1652345,9347.333333333334,-3.0,20.666666666666668,35.0,0.3333333333333333,41.0,-1015.0,738.6666666666666,4.333333333333333,3.0
05:52:32,23032.0,RTL,0.0017767546790613171,0.0023999318946152925,0.3609035611152649,-0.6627094348271688,-0.0020102482909957566,-0.0017194777416686218,-35.3632614,149.1652351,8927.333333333334,-6.333333333333333,21.333333333333332,35.0,0.0,-23.666666666666668,-992.0,-658.0,1.0,2.0
05:52:33,23032.0,RTL,0.014337949144343535,0.0011481248269168038,0.36037232478459674,0.4587724606196086,-0.00347300855598102,-0.0002172301368167003,-35.3632614,149.1652353,8704.333333333334,-7.0,19.666666666666668,19.666666666666668,-0.3333333333333333,29.0,-1044.0,462.6666666666667,-0.3333333333333333,3.3333333333333335
05:52:35,23032.0,RTL,0.0062353799197201925,0.0013159413550359507,0.3612511058648427,-0.33746660097191733,0.004031661742677291,-0.002484513989960154,-35.363261533333336,149.1652354,8751.333333333334,-6.0,19.333333333333332,-2.3333333333333335,0.3333333333333333,-8.0,-995.6666666666666,-333.0,6.333333333333333,1.0
05:52:37,23032.0,RTL,0.0032777516171336174,0.0022843029194821915,0.36137981216112774,0.3518383267025153,-0.0028140643456329903,-0.0013709914249678452,-35.36326196666666,149.16523686666667,8772.0,-3.0,9.333333333333334,1.0,1.0,10.666666666666666,-992.3333333333334,356.0,0.0,2.3333333333333335
05:52:38,21851.0,RTL,0.0008759133828183016,0.0011462625504160922,0.3613986869653066,0.27622318267822266,-8.217885624617338e-05,-0.0017215819098055363,-35.3632623,149.16523763333333,8770.0,-0.3333333333333333,2.6666666666666665,0.0,1.0,7.333333333333333,-1005.6666666666666,280.6666666666667,2.3333333333333335,2.3333333333333335
05:52:39,21851.0,RTL,-0.011237941216677427,0.0015376807423308492,0.36146095395088196,-0.1189516931772232,0.001060820883139968,0.0014189117743323247,-35.36326243333334,149.1652381,8768.333333333334,0.6666666666666666,-0.3333333333333333,0.0,1.3333333333333333,6.0,-1001.3333333333334,-113.66666666666667,3.6666666666666665,5.0
05:52:41,21851.0,RTL,-0.02252137754112482,0.002248343313112855,0.3607913851737976,0.4540621389945348,-0.000551748089492321,-0.00011321281393369038,-35.36326303333333,149.1652399666667,8399.0,5.666666666666667,-12.666666666666666,41.333333333333336,1.0,29.666666666666668,-1007.3333333333334,459.0,2.0,3.0
05:52:43,14911.5,RTL,-0.016947429937620957,-0.0015850790853922565,0.36088985204696655,0.27130738894144696,0.0022865631617605686,0.0028905440121889114,-35.363263366666665,149.1652402,7635.0,10.0,-21.333333333333332,34.0,0.3333333333333333,30.0,-993.0,276.0,4.666666666666667,6.333333333333333
05:52:45,7972.0,RTL,-0.020294712856411934,-0.0032958340210219226,0.3602580626805623,-0.48402421176433563,-0.0022758770113190017,0.0017006438380728166,-35.36326316666666,149.16523963333333,6941.0,9.0,-21.0,32.0,-4.0,3.0,-1006.0,-479.6666666666667,0.6666666666666666,5.333333333333333
05:52:47,7972.0,RTL,0.011562687965730825,-0.003251039112607638,0.36089004079500836,-0.709632933139801,0.003635342155272762,-0.0013363986896971862,-35.36326209999999,149.16523623333333,6252.333333333333,2.0,0.3333333333333333,31.666666666666668,-1.0,-27.666666666666668,-994.3333333333334,-705.6666666666666,6.0,2.3333333333333335
05:52:48,32411.0,RTL,0.016572634999950726,0.001083396947554623,0.36132754882176715,0.5152776502072811,0.00010590585103879373,0.0014370799375077088,-35.3632619,149.16523606666667,5819.666666666667,0.0,10.0,32.0,0.6666666666666666,4.0,-994.6666666666666,518.3333333333334,2.3333333333333335,5.0
05:52:49,32411.0,RTL,-0.01102567978280907,0.0025279557642837367,0.3615983823935191,-0.7819903095563253,0.0024387416585038104,-0.0021245169142882028,-35.3632619,149.1652366,5564.333333333333,-1.0,9.0,31.0,1.0,-33.666666666666664,-993.6666666666666,-778.0,4.666666666666667,1.6666666666666667
05:52:51,32411.0,RTL,-0.006466899067163467,0.0002670024987310171,0.36135174830754596,0.19747270147005716,-0.001285413047298789,-0.002139323391020298,-35.36326226666667,149.16523776666668,4867.666666666667,0.0,-0.3333333333333333,32.0,0.0,22.333333333333332,-995.6666666666666,202.0,1.0,1.6666666666666667
05:52:53,32411.0,RTL,-0.002615431323647499,-0.0027882334931443133,0.3610503474871318,0.005861430739363034,0.0040916619667162495,0.002910051572447022,-35.3632625,149.16523753333334,4194.666666666667,2.0,-2.0,33.0,-0.6666666666666666,15.666666666666666,-999.0,10.666666666666666,6.0,6.333333333333333
05:52:54,63028.0,RTL,-0.005778529526044925,0.000436132017057389,0.36163032054901123,-0.6687188645203909,0.004012182199706634,-0.0042735731694847345,-35.3632625,149.16523743333332,3775.6666666666665,3.0,0.0,33.666666666666664,1.0,-37.666666666666664,-984.3333333333334,-665.3333333333334,6.0,-0.3333333333333333
05:52:55,63028.0,RTL,-0.006272893010949095,0.002793832371632258,0.3611347476641337,0.5102843741575877,0.0026721844915300608,0.001932897682612141,-35.3632625,149.16523816666665,3520.0,2.6666666666666665,-0.3333333333333333,33.333333333333336,0.6666666666666666,24.666666666666668,-1007.6666666666666,513.6666666666666,4.666666666666667,5.333333333333333
05:52:57,63028.0,RTL,-0.006394501503867407,0.0006985006621107459,0.3609507878621419,0.6420093576113383,-0.005813024627665679,-0.0006847554662575325,-35.3632627,149.16523923333332,2831.3333333333335,4.333333333333333,-11.666666666666666,33.0,0.0,30.333333333333332,-997.6666666666666,645.0,-2.6666666666666665,2.6666666666666665
05:52:59,63028.0,RTL,-0.012261696625500917,-0.002381431326890985,0.36120153466860455,-0.09179645776748657,-0.000604254969706138,-0.00023308497232695421,-35.3632628,149.16523876666665,2141.6666666666665,5.0,-11.666666666666666,32.333333333333336,-2.0,20.666666666666668,-1005.0,-87.66666666666667,1.6666666666666667,3.0
05:53:00,132808.0,RTL,-0.0023234902570645013,-0.00162369462971886,0.3611260751883189,-0.6301836172739664,0.0015988789964467287,0.0006669876941790184,-35.36326256666666,149.1652379,1717.6666666666667,4.0,-7.0,32.0,-1.0,-33.333333333333336,-995.6666666666666,-627.3333333333334,3.6666666666666665,4.333333333333333
05:53:01,132808.0,RTL,0.008136245460870365,-0.0015556650469079614,0.3610345721244812,0.5770799567302068,-0.0012602078107496102,0.0002505454079558452,-35.36326246666667,149.16523753333334,1463.6666666666667,2.3333333333333335,-2.6666666666666665,31.333333333333332,-1.3333333333333333,29.666666666666668,-1005.6666666666666,580.0,1.0,3.6666666666666665
05:53:03,132808.0,RTL,0.024145349239309628,-0.0008330502605531365,0.36133354902267456,0.8075899481773376,0.0008252727178235849,-0.0010444323997944593,-35.363262,149.16523613333334,772.0,-0.3333333333333333,7.0,30.666666666666668,-1.0,21.666666666666668,-1001.3333333333334,810.3333333333334,3.0,2.3333333333333335
05:53:05,74921.0,RTL,-0.0009203258280952772,-0.00011290103429928422,0.3624491294225057,0.22361062979325652,-0.036239811995377146,-0.001735783414915204,-35.36326183333333,149.16523623333333,142.66666666666666,8.333333333333334,-10.333333333333334,-5.666666666666667,62.666666666666664,-379.3333333333333,-1406.3333333333333,226.33333333333334,-34.0,2.0
05:53:07,74921.0,RTL,-0.0029415120370686054,0.00195978368477275,0.3611055513223012,0.00021108775399625301,0.0008088790345937014,-0.0006341952830553055,-35.363261466666664,149.1652351,222.66666666666666,5.333333333333333,-12.666666666666666,-17.0,0.0,0.3333333333333333,-1000.0,2.3333333333333335,2.6666666666666665,3.0
05:53:09,74921.0,RTL,0.0009086872839058439,0.0034794344877203307,0.3591185013453166,0.0002622450701892376,0.0007910559264322122,-0.0006270147860050201,-35.36326176666666,149.16523546666667,201.66666666666666,-1.6666666666666667,-3.0,-10.0,0.0,0.3333333333333333,-1000.0,3.0,3.0,2.6666666666666665
05:53:11,74921.0,RTL,0.0023520588098714748,0.0036290785452971854,0.3569558560848236,0.00030953305152555305,0.000651311439772447,-0.0006340485997498035,-35.3632621,149.16523593333332,159.33333333333334,-5.0,2.0,-4.333333333333333,0.0,0.3333333333333333,-999.6666666666666,2.0,2.6666666666666665,2.0
