time_stamp,MODE,lat,lon,relative_alt,roll,pitch,yaw,rollspeed,pitchspeed,yawspeed,xacc,yacc,zacc,xgyro,ygyro,zgyro,vx,vy,vz,RTL_ALT
12:23:28.297,STABILIZE,-35.3632621,149.1652374,0,-0.00042360828956589103,0.0016083967639133334,0.027705973014235497,0.00028580334037542343,0.00038677884731441736,0.002363454317674041,0,1,-1000,0,0,0,-1,0,0,208894.0
12:23:28.498,STABILIZE,-35.3632621,149.1652374,0,-0.00042360828956589103,0.0016083967639133334,0.027705973014235497,0.00028580334037542343,0.00038677884731441736,0.002363454317674041,0,1,-1000,0,0,0,-1,0,0,208894.0
12:23:28.698,STABILIZE,-35.3632621,149.1652374,0,-0.00042360828956589103,0.0016083967639133334,0.027705973014235497,0.00028580334037542343,0.00038677884731441736,0.002363454317674041,0,1,-1000,0,0,0,-1,0,0,208894.0
12:23:28.899,STABILIZE,-35.3632621,149.1652374,0,-0.00042360828956589103,0.0016083967639133334,0.027705973014235497,0.00028580334037542343,0.00038677884731441736,0.002363454317674041,0,1,-1000,0,0,0,-1,0,0,208894.0
12:23:29.100,STABILIZE,-35.3632621,149.1652374,0,-0.00042360828956589103,0.0016083967639133334,0.027705973014235497,0.00028580334037542343,0.00038677884731441736,0.002363454317674041,0,1,-1000,0,0,0,-1,0,0,208894.0
12:23:29.301,STABILIZE,-35.3632621,149.1652374,0,-0.00043302576523274183,0.0016052928986027837,0.027162807062268257,0.00022971024736762047,0.00019593496108427644,0.002092422917485237,0,1,-1000,0,0,0,-1,1,0,208894.0
12:23:29.502,STABILIZE,-35.3632621,149.1652374,0,-0.00043302576523274183,0.0016052928986027837,0.027162807062268257,0.00022971024736762047,0.00019593496108427644,0.002092422917485237,0,1,-1000,0,0,0,-1,1,0,208894.0
12:23:29.703,STABILIZE,-35.3632621,149.1652374,0,-0.00043302576523274183,0.0016052928986027837,0.027162807062268257,0.00022971024736762047,0.00019593496108427644,0.002092422917485237,0,1,-1000,0,0,0,-1,1,0,208894.0
12:23:29.904,STABILIZE,-35.3632621,149.1652374,0,-0.00048400324885733426,0.0015408371109515429,0.02691255323588848,0.00015067169442772865,0.00017069047316908836,0.00224925484508276,0,1,-1000,0,0,0,-2,1,0,208894.0
12:23:30.106,STABILIZE,-35.3632621,149.1652374,0,-0.00048400324885733426,0.0015408371109515429,0.02691255323588848,0.00015067169442772865,0.00017069047316908836,0.00224925484508276,0,1,-1000,0,0,0,-2,1,0,208894.0
12:23:30.307,STABILIZE,-35.3632622,149.1652374,0,-0.0005592955858446658,0.0014312571147456765,0.026696516200900078,0.0001796223223209381,0.00012814466026611626,0.002259147120639682,0,1,-1000,0,0,0,-2,1,0,208894.0
12:23:30.508,STABILIZE,-35.3632622,149.1652374,0,-0.0005973826046101749,0.001382308779284358,0.026582470163702965,0.0001590732135809958,0.0003258200013078749,0.002237331122159958,0,1,-1000,0,0,1,-2,1,0,208894.0
12:23:30.710,STABILIZE,-35.3632622,149.1652374,0,-0.0005973826046101749,0.001382308779284358,0.026582470163702965,0.0001590732135809958,0.0003258200013078749,0.002237331122159958,0,1,-1000,0,0,1,-2,1,0,208894.0
12:23:30.912,STABILIZE,-35.3632622,149.1652374,0,-0.0005973826046101749,0.001382308779284358,0.026582470163702965,0.0001590732135809958,0.0003258200013078749,0.002237331122159958,0,1,-1000,0,0,1,-2,1,0,208894.0
12:23:31.113,STABILIZE,-35.3632622,149.1652374,0,-0.0005973826046101749,0.001382308779284358,0.026582470163702965,0.0001590732135809958,0.0003258200013078749,0.002237331122159958,0,1,-1000,0,0,1,-2,1,0,208894.0
12:23:31.314,STABILIZE,-35.3632622,149.1652374,0,-0.0005973826046101749,0.001382308779284358,0.026582470163702965,0.0001590732135809958,0.0003258200013078749,0.002237331122159958,0,1,-1000,0,0,1,-2,1,0,208894.0
12:23:31.515,STABILIZE,-35.3632622,149.1652374,0,-0.0007667348836548626,0.001167363254353404,0.026165368035435677,0.0002880780375562608,0.0001948827994056046,0.002052091294899583,0,1,-1000,0,0,1,-1,1,0,208894.0
12:23:31.717,STABILIZE,-35.3632622,149.1652374,0,-0.0007667348836548626,0.001167363254353404,0.026165368035435677,0.0002880780375562608,0.0001948827994056046,0.002052091294899583,0,1,-1000,0,0,1,-1,1,0,208894.0
12:23:31.918,STABILIZE,-35.3632622,149.1652374,0,-0.0007667348836548626,0.001167363254353404,0.026165368035435677,0.0002880780375562608,0.0001948827994056046,0.002052091294899583,0,1,-1000,0,0,1,-1,1,0,208894.0
12:23:32.120,STABILIZE,-35.3632622,149.1652374,0,-0.0007667348836548626,0.001167363254353404,0.026165368035435677,0.0002880780375562608,0.0001948827994056046,0.002052091294899583,0,1,-1000,0,0,0,-1,1,0,208894.0
12:23:32.321,STABILIZE,-35.3632622,149.1652374,0,-0.0008727509994059801,0.0010478758485987782,0.025882646441459656,0.00011943007120862603,0.00022322393488138914,0.0021702549420297146,0,1,-1000,0,0,0,-1,1,0,208894.0
12:23:32.522,STABILIZE,-35.3632622,149.1652374,0,-0.0008727509994059801,0.0010478758485987782,0.025882646441459656,0.00011943007120862603,0.00022322393488138914,0.0021702549420297146,0,1,-1000,0,0,0,-1,1,0,208894.0
12:23:32.723,STABILIZE,-35.3632622,149.1652374,0,-0.0008727509994059801,0.0010478758485987782,0.025882646441459656,0.00011943007120862603,0.00022322393488138914,0.0021702549420297146,0,1,-1000,0,0,0,-1,1,0,208894.0
12:23:32.933,STABILIZE,-35.3632622,149.1652374,0,-0.0008727509994059801,0.0010478758485987782,0.025882646441459656,0.00011943007120862603,0.00022322393488138914,0.0021702549420297146,0,1,-1000,0,0,0,-1,1,0,208894.0
12:23:33.134,STABILIZE,-35.3632622,149.1652374,0,-0.0008727509994059801,0.0010478758485987782,0.025882646441459656,0.00011943007120862603,0.00022322393488138914,0.0021702549420297146,0,1,-1000,0,0,0,-1,1,0,208894.0
12:23:33.336,STABILIZE,-35.3632621,149.1652374,0,-0.000806798052508384,0.0009457248379476368,0.025539837777614594,0.0002847845898941159,0.00019446853548288345,0.002043986227363348,0,1,-1000,0,0,0,-1,1,0,208894.0
12:23:33.537,STABILIZE,-35.3632621,149.1652374,0,-0.000806798052508384,0.0009457248379476368,0.025539837777614594,0.0002847845898941159,0.00019446853548288345,0.002043986227363348,0,1,-1000,0,0,0,-1,1,0,208894.0
12:23:33.738,STABILIZE,-35.3632621,149.1652374,0,-0.000806798052508384,0.0009457248379476368,0.025539837777614594,0.0002847845898941159,0.00019446853548288345,0.002043986227363348,0,1,-1000,0,0,0,-1,1,0,208894.0
12:23:33.939,STABILIZE,-35.3632621,149.1652374,0,-0.000806798052508384,0.0009457248379476368,0.025539837777614594,0.0002847845898941159,0.00019446853548288345,0.002043986227363348,0,1,-1000,0,0,0,-1,1,0,208894.0
12:23:34.140,STABILIZE,-35.3632621,149.1652374,0,-0.0008911327458918095,0.000910030328668654,0.02528308518230915,0.00030757079366594553,0.0002765124081633985,0.002015024656429887,0,1,-1000,0,0,0,-1,1,0,208894.0
12:23:34.342,STABILIZE,-35.3632621,149.1652374,0,-0.0008911327458918095,0.000910030328668654,0.02528308518230915,0.00030757079366594553,0.0002765124081633985,0.002015024656429887,0,1,-1000,0,0,0,-1,1,0,208894.0
12:23:34.543,STABILIZE,-35.3632621,149.1652374,0,-0.0008911327458918095,0.000910030328668654,0.02528308518230915,0.00030757079366594553,0.0002765124081633985,0.002015024656429887,0,1,-1000,0,0,0,-1,1,0,208894.0
12:23:34.744,STABILIZE,-35.3632621,149.1652374,0,-0.0008911327458918095,0.000910030328668654,0.02528308518230915,0.00030757079366594553,0.0002765124081633985,0.002015024656429887,0,1,-1000,0,0,0,-1,1,0,208894.0
12:23:34.945,STABILIZE,-35.3632621,149.1652374,0,-0.0008911327458918095,0.000910030328668654,0.02528308518230915,0.00030757079366594553,0.0002765124081633985,0.002015024656429887,0,1,-1000,0,0,0,-1,1,0,208894.0
12:23:35.146,STABILIZE,-35.3632621,149.1652374,0,-0.0008911327458918095,0.000910030328668654,0.02528308518230915,0.00030757079366594553,0.0002765124081633985,0.002015024656429887,0,1,-1000,0,0,0,-1,1,0,208894.0
12:23:35.348,STABILIZE,-35.3632621,149.1652374,0,-0.0008911327458918095,0.000910030328668654,0.02528308518230915,0.00030757079366594553,0.0002765124081633985,0.002015024656429887,0,1,-1000,0,0,0,-1,1,0,208894.0
12:23:35.549,STABILIZE,-35.3632621,149.1652374,0,-0.0008911327458918095,0.000910030328668654,0.02528308518230915,0.00030757079366594553,0.0002765124081633985,0.002015024656429887,0,1,-1000,0,0,0,-1,1,0,208894.0
12:23:35.750,STABILIZE,-35.3632621,149.1652374,0,-0.0008911327458918095,0.000910030328668654,0.02528308518230915,0.00030757079366594553,0.0002765124081633985,0.002015024656429887,0,1,-1000,0,0,0,-1,1,0,208894.0
12:23:35.952,STABILIZE,-35.3632621,149.1652374,0,-0.0008911327458918095,0.000910030328668654,0.02528308518230915,0.00030757079366594553,0.0002765124081633985,0.002015024656429887,0,1,-1000,0,0,0,-1,1,0,208894.0
12:23:36.153,STABILIZE,-35.3632621,149.1652374,0,-0.0010415120050311089,0.0009135819273069501,0.024630937725305557,0.0002585971378721297,0.0004074662574566901,0.0018559691961854696,0,1,-1000,1,0,1,-1,1,0,208894.0
12:23:36.354,STABILIZE,-35.3632621,149.1652374,0,-0.0010415120050311089,0.0009135819273069501,0.024630937725305557,0.0002585971378721297,0.0004074662574566901,0.0018559691961854696,0,1,-1000,1,0,1,-1,1,0,208894.0
12:23:36.555,STABILIZE,-35.3632621,149.1652374,0,-0.000735530979000032,0.0009328721789643168,0.024471145123243332,0.017800647765398026,0.00028167746495455503,0.0017905611312016845,0,6,-992,18,0,1,-1,1,0,208894.0
12:23:36.756,STABILIZE,-35.3632621,149.1652374,0,-0.000735530979000032,0.0009328721789643168,0.024471145123243332,0.017800647765398026,0.00028167746495455503,0.0017905611312016845,0,6,-992,18,0,1,-1,1,0,208894.0
12:23:36.958,STABILIZE,-35.3632621,149.1652374,0,-0.000735530979000032,0.0009328721789643168,0.024471145123243332,0.017800647765398026,0.00028167746495455503,0.0017905611312016845,0,6,-992,18,0,1,-1,1,0,208894.0
12:23:37.159,STABILIZE,-35.3632621,149.1652374,0,-0.000735530979000032,0.0009328721789643168,0.024471145123243332,0.017800647765398026,0.00028167746495455503,0.0017905611312016845,0,6,-992,18,0,1,-1,1,0,208894.0
12:23:37.360,STABILIZE,-35.3632621,149.1652374,0,-0.000735530979000032,0.0009328721789643168,0.024471145123243332,0.017800647765398026,0.00028167746495455503,0.0017905611312016845,0,6,-992,18,0,1,-1,1,0,208894.0
12:23:37.562,STABILIZE,-35.3632621,149.1652374,0,-0.0007865977240726352,0.0009550513932481408,0.024163449183106422,0.0003240594523958862,0.00022670964244753122,0.0018045254983007908,0,1,-1000,1,1,1,-1,1,0,208894.0
12:23:37.763,STABILIZE,-35.3632621,149.1652374,0,-0.0007939315401017666,0.0009559177560731769,0.02409491501748562,0.00014559435658156872,0.0002726030652411282,0.0017499306704849005,0,2,-1000,0,0,0,-1,1,0,208894.0
12:23:37.964,STABILIZE,-35.3632621,149.1652374,0,-0.0007939315401017666,0.0009559177560731769,0.02409491501748562,0.00014559435658156872,0.0002726030652411282,0.0017499306704849005,0,2,-1000,0,0,0,-1,1,0,208894.0
12:23:38.165,STABILIZE,-35.3632621,149.1652374,0,-0.0007939315401017666,0.0009559177560731769,0.02409491501748562,0.00014559435658156872,0.0002726030652411282,0.0017499306704849005,0,2,-1000,0,0,0,-1,1,0,208894.0
12:23:38.367,STABILIZE,-35.3632622,149.1652375,0,-0.000818262342363596,0.0009709803853183985,0.02393624745309353,0.00023836706532165408,0.00016123312525451183,0.0018214413430541754,0,1,-1000,0,0,1,-1,1,0,208894.0
12:23:38.568,STABILIZE,-35.3632622,149.1652375,0,-0.000818262342363596,0.0009709803853183985,0.02393624745309353,0.00023836706532165408,0.00016123312525451183,0.0018214413430541754,0,2,-1000,1,0,0,-1,1,0,208894.0
12:23:38.769,STABILIZE,-35.3632622,149.1652375,0,-0.000818262342363596,0.0009709803853183985,0.02393624745309353,0.00023836706532165408,0.00016123312525451183,0.0018214413430541754,0,2,-1000,1,0,0,-1,1,0,208894.0
12:23:38.971,STABILIZE,-35.3632622,149.1652375,0,-0.000818262342363596,0.0009709803853183985,0.02393624745309353,0.00023836706532165408,0.00016123312525451183,0.0018214413430541754,0,2,-1000,1,0,0,-1,1,0,208894.0
12:23:39.172,STABILIZE,-35.3632622,149.1652375,0,-0.000818262342363596,0.0009709803853183985,0.02393624745309353,0.00023836706532165408,0.00016123312525451183,0.0018214413430541754,0,2,-1000,1,0,0,-1,1,0,208894.0
12:23:39.373,STABILIZE,-35.3632622,149.1652375,0,-0.000818262342363596,0.0009709803853183985,0.02393624745309353,0.00023836706532165408,0.00016123312525451183,0.0018214413430541754,0,2,-1000,1,0,0,-1,1,0,208894.0
12:23:39.575,STABILIZE,-35.3632622,149.1652375,0,-0.000818262342363596,0.0009709803853183985,0.02393624745309353,0.00023836706532165408,0.00016123312525451183,0.0018214413430541754,0,2,-1000,1,0,0,-1,1,0,208894.0
12:23:39.776,STABILIZE,-35.3632622,149.1652375,0,-0.000818262342363596,0.0009709803853183985,0.02393624745309353,0.00023836706532165408,0.00016123312525451183,0.0018214413430541754,0,2,-1000,1,0,0,-1,1,0,208894.0
12:23:39.977,STABILIZE,-35.3632622,149.1652375,0,-0.000818262342363596,0.0009709803853183985,0.02393624745309353,0.00023836706532165408,0.00016123312525451183,0.0018214413430541754,0,2,-1000,1,0,0,-1,1,0,208894.0
12:23:40.178,STABILIZE,-35.3632622,149.1652375,0,-0.000818262342363596,0.0009709803853183985,0.02393624745309353,0.00023836706532165408,0.00016123312525451183,0.0018214413430541754,0,2,-1000,1,0,0,-1,1,0,208894.0
12:23:40.380,STABILIZE,-35.3632622,149.1652375,0,-0.0006602187640964985,0.0009757722727954388,0.023330124095082283,0.00022017600713297725,0.00026936817448586226,0.0016134135657921433,0,1,-1000,1,0,0,-1,2,2,208894.0
12:23:40.581,STABILIZE,-35.3632622,149.1652375,0,-0.0007157186628319323,0.0009783408604562283,0.023244142532348633,0.00031145766843110323,0.00021192419808357954,0.0017505378928035498,0,1,-1000,0,0,1,-1,2,2,208894.0
12:23:40.782,STABILIZE,-35.3632622,149.1652375,0,-0.0007157186628319323,0.0009783408604562283,0.023244142532348633,0.00031145766843110323,0.00021192419808357954,0.0017505378928035498,0,1,-1000,0,0,1,-1,2,2,208894.0
12:23:40.984,STABILIZE,-35.3632622,149.1652375,0,-0.0007157186628319323,0.0009783408604562283,0.023244142532348633,0.00031145766843110323,0.00021192419808357954,0.0017505378928035498,0,1,-1000,0,0,1,-1,2,2,208894.0
12:23:41.185,STABILIZE,-35.3632622,149.1652375,0,-0.0007157186628319323,0.0009783408604562283,0.023244142532348633,0.00031145766843110323,0.00021192419808357954,0.0017505378928035498,0,1,-1000,0,0,1,-1,2,2,208894.0
12:23:41.386,STABILIZE,-35.3632622,149.1652375,0,-0.0008840318769216537,0.000984520767815411,0.023005371913313866,0.00024282780941575766,0.0002436898648738861,0.0016464197542518377,0,1,-1000,1,0,1,-1,2,1,208894.0
12:23:41.587,STABILIZE,-35.3632622,149.1652375,0,-0.0009363313438370824,0.0009749819873832166,0.02294228784739971,0.0002309088595211506,0.0002753234002739191,0.0016899392940104008,0,2,-1000,0,0,1,-1,2,1,208894.0
12:23:41.789,STABILIZE,-35.3632622,149.1652375,0,-0.0009363313438370824,0.0009749819873832166,0.02294228784739971,0.0002309088595211506,0.0002753234002739191,0.0016899392940104008,0,2,-1000,0,0,1,-1,2,1,208894.0
12:23:41.990,STABILIZE,-35.3632622,149.1652375,0,-0.0010246973251923919,0.000974183960352093,0.022826895117759705,0.0002463716082274914,0.0002655416028574109,0.001645165029913187,0,1,-1000,0,0,0,-1,1,1,208894.0
12:23:42.191,STABILIZE,-35.3632622,149.1652375,0,-0.0010246973251923919,0.000974183960352093,0.022826895117759705,0.0002463716082274914,0.0002655416028574109,0.001645165029913187,0,1,-1000,0,0,0,-1,1,1,208894.0
12:23:42.393,STABILIZE,-35.3632622,149.1652375,0,-0.001057639834471047,0.0009712798055261374,0.022760307416319847,0.000218546309042722,0.0002822768874466419,0.001552082016132772,0,1,-1000,1,0,1,-1,1,1,208894.0
12:23:42.594,STABILIZE,-35.3632622,149.1652375,0,-0.001057639834471047,0.0009712798055261374,0.022760307416319847,0.000218546309042722,0.0002822768874466419,0.001552082016132772,0,1,-1000,0,0,1,-1,1,0,208894.0
12:23:42.797,AUTO,-35.3632622,149.1652375,0,-0.001057639834471047,0.0009712798055261374,0.022760307416319847,0.000218546309042722,0.0002822768874466419,0.001552082016132772,0,1,-1000,0,0,1,-1,1,0,208894.0
12:23:42.998,AUTO,-35.3632622,149.1652375,0,-0.001057639834471047,0.0009712798055261374,0.022760307416319847,0.000218546309042722,0.0002822768874466419,0.001552082016132772,0,1,-1000,0,0,1,-1,1,0,298528.0
12:23:43.200,AUTO,-35.3632622,149.1652375,0,-0.001057639834471047,0.0009712798055261374,0.022760307416319847,0.000218546309042722,0.0002822768874466419,0.001552082016132772,0,1,-1000,0,0,1,-1,1,0,298528.0
12:23:43.401,AUTO,-35.3632622,149.1652375,5,-0.0011613136157393456,0.0009679419454187155,0.022562317550182343,0.00031211896566674113,0.0004075909382663667,0.001463789609260857,0,2,-1000,1,0,0,-1,1,0,298528.0
12:23:43.602,AUTO,-35.3632622,149.1652375,3,-0.0010078124469146132,0.0009656007750891149,0.022508876398205757,0.00023010635050013661,0.00013634486822411418,0.0016089507844299078,0,1,-1001,0,0,0,-1,2,2,298528.0
12:23:43.804,AUTO,-35.3632621,149.1652375,0,-0.0010056042810902,0.0009778111707419157,0.022457865998148918,0.0002157231792807579,0.00034517364110797644,0.0015214511658996344,0,1,-1000,0,1,1,0,1,2,298528.0
12:23:44.005,AUTO,-35.3632621,149.1652375,0,-0.0010049541015177965,0.0010122981620952487,0.022403543815016747,0.00020972517086192966,0.00026691018138080835,0.0015951012028381228,0,2,-1000,0,0,0,0,1,1,298528.0
12:23:44.207,AUTO,-35.3632621,149.1652375,0,-0.0010049541015177965,0.0010122981620952487,0.022403543815016747,0.00020972517086192966,0.00026691018138080835,0.0015951012028381228,0,2,-1000,0,0,0,0,1,1,298528.0
12:23:44.409,AUTO,-35.3632621,149.1652375,0,-0.000990617205388844,0.0010652701603248715,0.022348517552018166,0.00014045595889911056,0.0002909473842009902,0.001606147037819028,0,1,-1000,0,0,1,0,0,1,298528.0
12:23:44.610,AUTO,-35.3632621,149.1652375,0,-0.0009582144557498395,0.0011200346052646637,0.02229660376906395,0.00013745890464633703,0.00029169151093810797,0.0015399514231830835,0,2,-1000,0,0,1,0,0,1,298528.0
12:23:44.812,AUTO,-35.3632621,149.1652375,0,-0.0009582144557498395,0.0011200346052646637,0.02229660376906395,0.00013745890464633703,0.00029169151093810797,0.0015399514231830835,0,2,-1000,0,0,1,0,0,1,298528.0
12:23:45.013,AUTO,-35.3632621,149.1652375,0,-0.0009582144557498395,0.0011200346052646637,0.02229660376906395,0.00013745890464633703,0.00029169151093810797,0.0015399514231830835,0,2,-1000,0,0,1,0,0,1,298528.0
12:23:45.214,AUTO,-35.3632621,149.1652375,0,-0.0009582144557498395,0.0011200346052646637,0.02229660376906395,0.00013745890464633703,0.00029169151093810797,0.0015399514231830835,0,2,-1000,0,0,1,0,0,1,298528.0
12:23:45.416,AUTO,-35.3632621,149.1652375,0,-0.0008167588384822011,0.0013238820247352123,0.022154131904244423,0.00020884728292003274,0.00041420769412070513,0.0014725330984219909,0,2,-1000,1,0,0,0,0,1,298528.0
12:23:45.617,AUTO,-35.3632621,149.1652374,0,-0.0007664509466849267,0.0013928428525105119,0.02207665890455246,0.00031469884561374784,0.0002490437473170459,0.0015330173773691058,0,2,-1000,0,1,0,0,0,0,298528.0
12:23:45.823,AUTO,-35.3632621,149.1652374,0,-0.000717473856639117,0.0014654983533546329,0.022009966894984245,0.0002755546011030674,0.00028365227626636624,0.0014792870497331023,0,1,-1000,0,0,0,0,0,0,298528.0
12:23:46.026,AUTO,-35.3632621,149.1652374,0,-0.000656177056953311,0.0015371321933344007,0.021943943575024605,0.0002965355524793267,0.00029540067771449685,0.0014427404385060072,0,2,-1000,1,0,0,0,0,0,241784.0
12:23:46.228,AUTO,-35.3632621,149.1652374,0,-0.0005976859829388559,0.0016170763410627842,0.021888822317123413,0.00033585901837795973,0.00031927478266879916,0.0015123218763619661,0,1,-1000,1,1,0,0,0,0,241784.0
12:23:46.429,AUTO,-35.3632621,149.1652374,0,-0.0005976859829388559,0.0016170763410627842,0.021888822317123413,0.00033585901837795973,0.00031927478266879916,0.0015123218763619661,0,1,-1000,1,1,0,0,0,0,241784.0
12:23:46.632,AUTO,-35.3632621,149.1652374,0,-0.0005355377215892076,0.0016847101505845785,0.02181212604045868,0.0002804131363518536,0.0002294747973792255,0.001439646352082491,0,1,-1000,0,1,1,0,0,0,241784.0
12:23:46.840,AUTO,-35.3632621,149.1652374,0,-0.0005355377215892076,0.0016847101505845785,0.02181212604045868,0.0002804131363518536,0.0002294747973792255,0.001439646352082491,0,1,-1000,0,1,1,0,0,0,241784.0
12:23:47.042,AUTO,-35.3632621,149.1652374,0,-0.0005355377215892076,0.0016847101505845785,0.02181212604045868,0.0002804131363518536,0.0002294747973792255,0.001439646352082491,0,1,-1000,0,1,1,0,0,0,241784.0
12:23:47.244,AUTO,-35.3632621,149.1652375,185,0.003252584720030427,3.1196123018162325e-06,0.021722251549363136,0.0007008641841821373,0.005133023019880056,0.0009266728302463889,0,0,-1130,1,5,0,0,0,-69,241784.0
12:23:47.445,AUTO,-35.3632621,149.1652375,185,0.003252584720030427,3.1196123018162325e-06,0.021722251549363136,0.0007008641841821373,0.005133023019880056,0.0009266728302463889,0,0,-1130,1,5,0,0,0,-69,241784.0
12:23:47.647,AUTO,-35.3632621,149.1652375,396,0.0020172030199319124,0.0011383643141016364,0.02146202139556408,-0.0033175982534885406,0.00359452236443758,0.0008251017425209284,0,0,-1110,-2,4,0,0,0,-98,241784.0
12:23:47.848,AUTO,-35.3632621,149.1652375,675,0.0011780642671510577,0.0017240096349269152,0.021282831206917763,-0.0035229737404733896,0.0006164884543977678,0.00010698012192733586,0,0,-1089,-2,1,0,0,0,-122,241784.0
12:23:48.049,AUTO,-35.3632621,149.1652375,1011,0.009565427899360657,0.000891128380317241,0.020886607468128204,0.046915438026189804,-0.006121017038822174,0.0010377820581197739,0,0,-1043,47,-5,0,0,1,-138,241784.0
12:23:48.251,AUTO,-35.363262,149.1652375,1378,0.021417859941720963,-0.0008461338584311306,0.02080588787794113,0.04723445326089859,-0.00712920306250453,0.002042323350906372,0,0,-1018,47,-6,1,0,5,-144,241784.0
12:23:48.453,AUTO,-35.363262,149.1652375,1378,0.021417859941720963,-0.0008461338584311306,0.02080588787794113,0.04723445326089859,-0.00712920306250453,0.002042323350906372,0,0,-1018,47,-6,1,0,5,-144,241784.0
12:23:48.654,AUTO,-35.363262,149.1652377,1757,0.032832253724336624,-0.0028031636029481888,0.020907225087285042,0.04463744908571243,-0.008036643266677856,0.002730009611696005,0,-1,-1007,45,-7,2,1,11,-147,241784.0
12:23:48.856,AUTO,-35.363262,149.1652377,1757,0.032832253724336624,-0.0028031636029481888,0.020907225087285042,0.04463744908571243,-0.008036643266677856,0.002730009611696005,0,-1,-1007,45,-7,2,1,11,-147,209144.0
12:23:49.057,AUTO,-35.363262,149.1652377,1757,0.032832253724336624,-0.0028031636029481888,0.020907225087285042,0.04463744908571243,-0.008036643266677856,0.002730009611696005,0,-1,-1007,45,-7,2,1,11,-147,209144.0
12:23:49.259,AUTO,-35.3632616,149.1652397,2911,0.061004213988780975,-0.009327972307801247,-0.006803285796195269,-0.005476533900946379,0.01563953049480915,-0.035442814230918884,0,-9,-992,-4,16,-35,8,41,-148,209144.0
12:23:49.460,AUTO,-35.3632616,149.1652397,2911,0.061004213988780975,-0.009327972307801247,-0.006803285796195269,-0.005476533900946379,0.01563953049480915,-0.035442814230918884,0,-9,-992,-4,16,-35,8,41,-148,209144.0
12:23:49.662,AUTO,-35.3632614,149.165241,3292,0.043264538049697876,0.011081897653639317,-0.028057945892214775,-0.12755918502807617,0.10499009490013123,-0.10256299376487732,1,-9,-991,-126,105,-103,10,52,-146,209144.0
12:23:49.864,AUTO,-35.3632612,149.1652424,3669,-0.0002155966794816777,0.023583482950925827,-0.04821665957570076,-0.18126074969768524,0.00404119910672307,-0.0733797550201416,3,-12,-998,-180,4,-73,6,54,-144,209144.0
12:23:50.065,AUTO,-35.363261,149.1652438,4047,-0.026416193693876266,0.020743250846862793,-0.0629810243844986,-0.05964045971632004,-0.01365591213107109,-0.059957876801490784,4,-11,-1011,-59,-13,-60,3,46,-147,209144.0
12:23:50.267,AUTO,-35.3632609,149.1652449,4431,-0.03594658523797989,0.016305649653077126,-0.07485681027173996,-0.037003546953201294,-0.013729424215853214,-0.04751209542155266,5,-10,-1005,-36,-13,-47,0,36,-149,209144.0
12:23:50.469,AUTO,-35.3632609,149.1652449,4431,-0.03594658523797989,0.016305649653077126,-0.07485681027173996,-0.037003546953201294,-0.013729424215853214,-0.04751209542155266,5,-10,-1005,-36,-13,-47,0,36,-149,209144.0
12:23:50.671,AUTO,-35.3632609,149.1652458,4820,-0.048980310559272766,0.010223174467682838,-0.0832647904753685,-0.06401562690734863,-0.0294790081679821,-0.02408180572092533,4,-5,-1001,-63,-28,-24,-2,24,-149,209144.0
12:23:50.873,AUTO,-35.3632609,149.1652458,4820,-0.048980310559272766,0.010223174467682838,-0.0832647904753685,-0.06401562690734863,-0.0294790081679821,-0.02408180572092533,4,-5,-1001,-63,-28,-24,-2,24,-149,209144.0
12:23:51.075,AUTO,-35.3632609,149.1652458,4820,-0.048980310559272766,0.010223174467682838,-0.0832647904753685,-0.06401562690734863,-0.0294790081679821,-0.02408180572092533,4,-5,-1001,-63,-28,-24,-2,24,-149,209144.0
12:23:51.276,AUTO,-35.363261,149.1652458,5970,-0.06836642324924469,-0.007626898121088743,-0.09090039134025574,0.05097413808107376,-0.0031407878268510103,-0.007169196382164955,-1,4,-1002,51,-2,-7,-2,-28,-149,209144.0
12:23:51.478,AUTO,-35.3632611,149.1652449,6356,-0.05458332970738411,-0.0079161012545228,-0.09345711022615433,0.057842567563056946,0.0017173715168610215,-0.004036533646285534,-3,7,-1001,58,2,-4,-2,-42,-149,209144.0
12:23:51.680,AUTO,-35.3632611,149.1652449,6356,-0.05458332970738411,-0.0079161012545228,-0.09345711022615433,0.057842567563056946,0.0017173715168610215,-0.004036533646285534,-3,7,-1001,58,2,-4,-2,-42,-149,209144.0
12:23:51.881,AUTO,-35.3632611,149.1652436,6741,-0.03973144292831421,-0.006749835330992937,-0.09527095407247543,0.059679437428712845,0.006640441250056028,-0.0015739690279588103,-6,9,-1001,60,7,-2,-2,-52,-150,29625.0
12:23:52.083,AUTO,-35.3632612,149.1652421,7125,-0.02413986437022686,-0.004468986764550209,-0.09606282413005829,0.06372760981321335,0.010553015395998955,0.0003407726180739701,-6,9,-1002,64,11,0,-3,-58,-150,29625.0
12:23:52.285,AUTO,-35.3632613,149.1652405,7511,-0.007838250137865543,-0.0013986285775899887,-0.09624415636062622,0.06537039577960968,0.01289007905870676,0.001572972978465259,-7,12,-1003,66,13,1,-3,-59,-151,29625.0
12:23:52.487,AUTO,-35.3632614,149.1652388,7901,0.008559809997677803,0.0019026981899514794,-0.09601560235023499,0.0661717876791954,0.013096095994114876,0.002733438042923808,-7,11,-1003,66,13,2,-5,-57,-152,29625.0
12:23:52.689,AUTO,-35.3632614,149.1652388,7901,0.008559809997677803,0.0019026981899514794,-0.09601560235023499,0.0661717876791954,0.013096095994114876,0.002733438042923808,-7,11,-1003,66,13,2,-5,-57,-152,29625.0
12:23:52.892,AUTO,-35.3632614,149.1652388,7901,0.008559809997677803,0.0019026981899514794,-0.09601560235023499,0.0661717876791954,0.013096095994114876,0.002733438042923808,-7,11,-1003,66,13,2,-5,-57,-152,29625.0
12:23:53.094,AUTO,-35.3632614,149.1652388,7901,0.008559809997677803,0.0019026981899514794,-0.09601560235023499,0.0661717876791954,0.013096095994114876,0.002733438042923808,-7,11,-1003,66,13,2,-5,-57,-152,29625.0
12:23:53.295,AUTO,-35.3632619,149.1652351,9077,0.056518618017435074,0.008966143243014812,-0.09336739778518677,0.060896262526512146,0.0035403685178607702,0.004363340325653553,-3,8,-1002,61,4,4,-9,-26,-154,29625.0
12:23:53.497,AUTO,-35.3632621,149.1652345,9476,0.06641818583011627,0.005190419033169746,-0.08795621246099472,0.0024681566283106804,-0.044706206768751144,0.04807176813483238,-1,5,-996,3,-44,47,-10,-9,-153,29625.0
12:23:53.698,AUTO,-35.3632621,149.1652345,9476,0.06641818583011627,0.005190419033169746,-0.08795621246099472,0.0024681566283106804,-0.044706206768751144,0.04807176813483238,-1,5,-996,3,-44,47,-10,-9,-153,29625.0
12:23:53.900,AUTO,-35.3632623,149.1652344,9865,0.05369599908590317,-0.006095004267990589,-0.07939545065164566,-0.07953860610723495,-0.02854701317846775,0.027231812477111816,1,1,-993,-78,-27,27,-8,5,-151,29625.0
12:23:54.103,AUTO,-35.3632625,149.1652346,10250,0.03152347728610039,-0.008887902833521366,-0.07626058906316757,-0.08989623188972473,0.00011966656893491745,0.003091563703492284,1,0,-997,-89,0,2,-4,14,-150,29625.0
12:23:54.305,AUTO,-35.3632625,149.1652349,10634,0.011960582807660103,-0.007686215452849865,-0.07809392362833023,-0.06528499722480774,0.008259530179202557,-0.015049509704113007,2,-2,-1001,-64,8,-15,-1,18,-150,29625.0
12:23:54.507,AUTO,-35.3632626,149.1652353,11017,-0.0015506627969443798,-0.005788804031908512,-0.08294058591127396,-0.040766242891550064,0.007102700415998697,-0.021641362458467484,1,-3,-1003,-40,7,-21,1,17,-150,29625.0
12:23:54.709,AUTO,-35.3632626,149.1652353,11017,-0.0015506627969443798,-0.005788804031908512,-0.08294058591127396,-0.040766242891550064,0.007102700415998697,-0.021641362458467484,1,-3,-1003,-40,7,-21,1,17,-150,29625.0
12:23:54.910,AUTO,-35.3632626,149.1652353,11017,-0.0015506627969443798,-0.005788804031908512,-0.08294058591127396,-0.040766242891550064,0.007102700415998697,-0.021641362458467484,1,-3,-1003,-40,7,-21,1,17,-150,15617.0
12:23:55.112,AUTO,-35.3632626,149.1652353,11017,-0.0015506627969443798,-0.005788804031908512,-0.08294058591127396,-0.040766242891550064,0.007102700415998697,-0.021641362458467484,1,-3,-1003,-40,7,-21,1,17,-150,15617.0
12:23:55.314,AUTO,-35.3632624,149.1652362,12177,-0.014083487913012505,-0.001839320408180356,-0.10460872203111649,0.005398457404226065,0.007023907266557217,-0.030916444957256317,0,-2,-1002,5,7,-31,5,5,-152,15617.0
12:23:55.515,AUTO,-35.3632622,149.1652363,12566,-0.011843244545161724,-0.0003242875391151756,-0.11217351257801056,0.012601824477314949,0.0051662917248904705,-0.02642219141125679,0,-1,-1001,13,5,-26,5,1,-152,15617.0
12:23:55.717,AUTO,-35.3632622,149.1652363,12566,-0.011843244545161724,-0.0003242875391151756,-0.11217351257801056,0.012601824477314949,0.0051662917248904705,-0.02642219141125679,0,-1,-1001,13,5,-26,5,1,-152,15617.0
12:23:55.919,AUTO,-35.3632621,149.1652363,12956,-0.00821866188198328,0.0009075302514247596,-0.11914458125829697,0.015903042629361153,0.005102312192320824,-0.024721844121813774,-1,0,-1001,16,5,-25,5,-2,-153,15617.0
12:23:56.121,AUTO,-35.363262,149.1652362,13346,-0.00427902489900589,0.002279269974678755,-0.12558339536190033,0.015617622062563896,0.007033308502286673,-0.02297508530318737,-1,0,-1000,16,7,-23,4,-4,-153,15617.0
12:23:56.323,AUTO,-35.3632619,149.1652361,13735,-0.0005306668463163078,0.003931421786546707,-0.13158653676509857,0.013429959304630756,0.006544529926031828,-0.021704666316509247,-2,0,-1000,13,7,-22,3,-5,-153,15617.0
12:23:56.526,AUTO,-35.3632618,149.1652359,14127,0.002599027007818222,0.005319546442478895,-0.13700219988822937,0.013830098323523998,0.006256443914026022,-0.01849057339131832,-2,0,-1000,14,6,-18,2,-5,-153,15617.0
12:23:56.728,AUTO,-35.3632618,149.1652359,14127,0.002599027007818222,0.005319546442478895,-0.13700219988822937,0.013830098323523998,0.006256443914026022,-0.01849057339131832,-2,0,-1000,14,6,-18,2,-5,-153,15617.0
12:23:56.930,AUTO,-35.3632618,149.1652359,14127,0.002599027007818222,0.005319546442478895,-0.13700219988822937,0.013830098323523998,0.006256443914026022,-0.01849057339131832,-2,0,-1000,14,6,-18,2,-5,-153,15617.0
12:23:57.140,AUTO,-35.3632618,149.1652359,14127,0.002599027007818222,0.005319546442478895,-0.13700219988822937,0.013830098323523998,0.006256443914026022,-0.01849057339131832,-2,0,-1000,14,6,-18,2,-5,-153,15617.0
12:23:57.342,AUTO,-35.3632616,149.1652355,15296,0.008281719870865345,0.006915399804711342,-0.14938749372959137,0.004304082598537207,0.0010775788687169552,-0.013661475852131844,-1,0,-1000,4,1,-13,0,-1,-153,15617.0
12:23:57.544,AUTO,-35.3632616,149.1652354,15687,0.00864040944725275,0.006823298521339893,-0.15262718498706818,-9.767018491402268e-05,-0.0020021051168441772,-0.01170576922595501,0,0,-1000,0,-1,-11,-1,0,-153,15617.0
12:23:57.745,AUTO,-35.3632616,149.1652354,16076,0.008454814553260803,0.006468574050813913,-0.1557183861732483,-0.002000851556658745,-0.0024863723665475845,-0.012064986862242222,0,0,-1000,-1,-2,-12,-2,1,-153,15617.0
12:23:57.946,AUTO,-35.3632616,149.1652354,16076,0.008454814553260803,0.006468574050813913,-0.1557183861732483,-0.002000851556658745,-0.0024863723665475845,-0.012064986862242222,0,0,-1000,-1,-2,-12,-2,1,-153,86586.0
12:23:58.148,AUTO,-35.3632616,149.1652354,16472,0.00792974978685379,0.005826805252581835,-0.15880374610424042,-0.0020816572941839695,-0.0012997651938349009,-0.013065315783023834,0,0,-1000,-1,0,-13,-2,3,-153,86586.0
12:23:58.350,AUTO,-35.3632616,149.1652354,16862,0.007037152070552111,0.005615344736725092,-0.16229881346225739,-0.003849659115076065,0.00030377821531146765,-0.01456068642437458,0,0,-1000,-3,1,-14,-3,4,-153,86586.0
12:23:58.551,AUTO,-35.3632616,149.1652354,17252,0.00622729305177927,0.005225339904427528,-0.16586965322494507,-0.0037643604446202517,-0.0006155503797344863,-0.014246675185859203,0,0,-1000,-2,0,-14,-3,5,-153,86586.0
12:23:58.753,AUTO,-35.3632616,149.1652354,17252,0.00622729305177927,0.005225339904427528,-0.16586965322494507,-0.0037643604446202517,-0.0006155503797344863,-0.014246675185859203,0,0,-1000,-2,0,-14,-3,5,-153,86586.0
12:23:58.954,AUTO,-35.3632616,149.1652354,17252,0.00622729305177927,0.005225339904427528,-0.16586965322494507,-0.0037643604446202517,-0.0006155503797344863,-0.014246675185859203,0,0,-1000,-2,0,-14,-3,5,-153,86586.0
12:23:59.156,AUTO,-35.3632616,149.1652354,17252,0.00622729305177927,0.005225339904427528,-0.16586965322494507,-0.0037643604446202517,-0.0006155503797344863,-0.014246675185859203,0,0,-1000,-2,0,-14,-3,5,-153,86586.0
12:23:59.358,AUTO,-35.3632616,149.1652357,18411,0.001709013944491744,0.00422951765358448,-0.1782912015914917,-0.03157918527722359,0.0012001409195363522,-0.018307259306311607,0,0,-996,-30,1,-18,-3,6,-153,86586.0
12:23:59.559,AUTO,-35.3632616,149.1652358,18798,-0.015253763645887375,0.00396444508805871,-0.18305638432502747,-0.08710325509309769,-0.00027367041911929846,-0.019826028496026993,0,0,-996,-86,0,-20,-4,3,-152,86586.0
12:23:59.761,AUTO,-35.3632617,149.1652357,19183,-0.04000880941748619,0.003541977144777775,-0.187211811542511,-0.09428466856479645,0.0057934001088142395,0.0036828159354627132,0,0,-995,-93,6,3,-5,-3,-151,86586.0
12:23:59.962,AUTO,-35.3632617,149.1652357,19183,-0.04000880941748619,0.003541977144777775,-0.187211811542511,-0.09428466856479645,0.0057934001088142395,0.0036828159354627132,0,0,-995,-93,6,3,-5,-3,-151,86586.0
12:24:00.164,AUTO,-35.3632618,149.1652355,19562,-0.051122430711984634,0.020630616694688797,-0.15684206783771515,-0.015499603003263474,0.09713107347488403,0.2340509593486786,0,1,-981,-14,97,233,-9,-14,-146,86586.0
12:24:00.366,AUTO,-35.363262,149.1652349,19928,-0.051134102046489716,0.049791328608989716,-0.06297249346971512,-0.02452704682946205,0.08266571909189224,0.4889264404773712,0,4,-981,-23,83,488,-18,-25,-141,86586.0
12:24:00.567,AUTO,-35.3632625,149.1652341,20276,-0.03117363713681698,0.042188264429569244,0.03468269109725952,0.11927413940429688,-0.14513887465000153,0.28212860226631165,1,7,-955,120,-144,281,-29,-34,-131,86586.0
12:24:00.769,AUTO,-35.3632625,149.1652341,20276,-0.03117363713681698,0.042188264429569244,0.03468269109725952,0.11927413940429688,-0.14513887465000153,0.28212860226631165,1,7,-955,120,-144,281,-29,-34,-131,86586.0
12:24:00.973,AUTO,-35.3632625,149.1652341,20276,-0.03117363713681698,0.042188264429569244,0.03468269109725952,0.11927413940429688,-0.14513887465000153,0.28212860226631165,1,7,-955,120,-144,281,-29,-34,-131,108751.0
12:24:01.174,AUTO,-35.3632625,149.1652341,20276,-0.03117363713681698,0.042188264429569244,0.03468269109725952,0.11927413940429688,-0.14513887465000153,0.28212860226631165,1,7,-955,120,-144,281,-29,-34,-131,108751.0
12:24:01.376,AUTO,-35.3632643,149.1652314,21157,0.051843781024217606,-0.04075591266155243,0.07422066479921341,0.0500984787940979,-0.021446092054247856,-0.046199314296245575,2,7,-961,50,-20,-46,-20,-16,-99,108751.0
12:24:01.578,AUTO,-35.3632647,149.1652311,21397,0.05922779068350792,-0.0411713533103466,0.06375045329332352,0.011029817163944244,0.008261723443865776,-0.03735848143696785,1,3,-965,11,8,-37,-10,-1,-89,108751.0
12:24:01.780,AUTO,-35.3632648,149.1652312,21612,0.05723940581083298,-0.03602476418018341,0.057019490748643875,-0.02474585734307766,0.025684932246804237,-0.01937296614050865,0,0,-969,-23,26,-19,-1,12,-80,108751.0
12:24:01.981,AUTO,-35.3632648,149.1652312,21612,0.05723940581083298,-0.03602476418018341,0.057019490748643875,-0.02474585734307766,0.025684932246804237,-0.01937296614050865,0,0,-969,-23,26,-19,-1,12,-80,108751.0
12:24:02.183,AUTO,-35.3632647,149.1652315,21806,0.049248453229665756,-0.028358465060591698,0.05382980778813362,-0.03863859549164772,0.03404415398836136,-0.008300334215164185,0,-4,-972,-37,34,-8,6,23,-73,108751.0
12:24:02.386,AUTO,-35.3632645,149.1652322,21983,0.03882675990462303,-0.019590076059103012,0.052634768187999725,-0.04497233033180237,0.03561386093497276,0.0024740740191191435,0,-6,-975,-44,36,2,12,32,-66,108751.0
12:24:02.588,AUTO,-35.3632642,149.1652331,22143,0.027621665969491005,-0.010676024481654167,0.052164267748594284,-0.03809434548020363,0.03712315112352371,0.002173003740608692,0,-8,-976,-37,37,2,16,37,-60,108751.0
12:24:02.789,AUTO,-35.3632642,149.1652331,22143,0.027621665969491005,-0.010676024481654167,0.052164267748594284,-0.03809434548020363,0.03712315112352371,0.002173003740608692,0,-8,-976,-37,37,2,16,37,-60,108751.0
12:24:02.991,AUTO,-35.3632642,149.1652331,22143,0.027621665969491005,-0.010676024481654167,0.052164267748594284,-0.03809434548020363,0.03712315112352371,0.002173003740608692,0,-8,-976,-37,37,2,16,37,-60,108751.0
12:24:03.193,AUTO,-35.3632642,149.1652331,22143,0.027621665969491005,-0.010676024481654167,0.052164267748594284,-0.03809434548020363,0.03712315112352371,0.002173003740608692,0,-8,-976,-37,37,2,16,37,-60,108751.0
12:24:03.395,AUTO,-35.3632629,149.1652361,22529,-3.783549982472323e-05,0.00937863439321518,0.05052510276436806,-0.025114906951785088,0.018308604136109352,-0.0001163398555945605,0,-9,-978,-24,19,0,17,37,-43,108751.0
12:24:03.596,AUTO,-35.3632625,149.165237,22629,-0.004805301781743765,0.012684100307524204,0.04972739890217781,0.0037217349745333195,0.012212173081934452,-0.00012277631321921945,0,-8,-977,4,12,0,15,33,-38,108751.0
12:24:03.798,AUTO,-35.3632621,149.1652379,22715,-0.009369867853820324,0.014331649988889694,0.04890817403793335,-0.044341810047626495,0.0020703268237411976,-0.001102203270420432,0,-9,-976,-43,2,-1,13,29,-32,108751.0
12:24:03.999,AUTO,-35.3632618,149.1652386,22784,-0.011920464225113392,0.014591471292078495,0.0481526255607605,-0.011430022306740284,0.00047730549704283476,-0.002309623174369335,0,-4,-975,-10,1,-2,10,24,-25,28521.0
12:24:04.201,AUTO,-35.3632618,149.1652386,22784,-0.011920464225113392,0.014591471292078495,0.0481526255607605,-0.011430022306740284,0.00047730549704283476,-0.002309623174369335,0,-4,-975,-10,1,-2,10,24,-25,28521.0
12:24:04.403,AUTO,-35.3632615,149.1652391,22837,-0.011749643832445145,0.014569240622222424,0.047398798167705536,0.07621821761131287,-0.0009300824021920562,-0.003380157984793186,0,0,-973,77,0,-3,7,19,-19,28521.0
12:24:04.604,AUTO,-35.3632614,149.1652396,22873,-0.0116572892293334,0.013774431310594082,0.04655555263161659,-0.032826054841279984,-0.004807721823453903,-0.005734635517001152,0,-9,-968,-31,-3,-5,5,14,-11,28521.0
12:24:04.806,AUTO,-35.3632614,149.1652396,22873,-0.0116572892293334,0.013774431310594082,0.04655555263161659,-0.032826054841279984,-0.004807721823453903,-0.005734635517001152,0,-9,-968,-31,-3,-5,5,14,-11,28521.0
12:24:05.008,AUTO,-35.3632614,149.1652396,22873,-0.0116572892293334,0.013774431310594082,0.04655555263161659,-0.032826054841279984,-0.004807721823453903,-0.005734635517001152,0,-9,-968,-31,-3,-5,5,14,-11,28521.0
12:24:05.210,AUTO,-35.3632614,149.1652396,22873,-0.0116572892293334,0.013774431310594082,0.04655555263161659,-0.032826054841279984,-0.004807721823453903,-0.005734635517001152,0,-9,-968,-31,-3,-5,5,14,-11,28521.0
12:24:05.411,AUTO,-35.3632612,149.1652399,22819,-0.0408664345741272,0.019315633922815323,0.0436750203371048,0.6018633246421814,-0.043665703386068344,-0.006996609270572662,0,52,-992,603,-42,-7,-5,-8,21,28521.0
12:24:05.613,AUTO,-35.3632612,149.1652396,22763,-0.03246700391173363,0.00888811331242323,0.04322781041264534,0.7201839089393616,-0.03406805172562599,-0.008641980588436127,0,38,-1033,721,-33,-9,-8,-18,19,28521.0
12:24:05.816,AUTO,-35.3632614,149.165239,22716,-0.029745249077677727,0.002103351289406419,0.041573625057935715,0.3641577363014221,-0.021939115598797798,-0.006137730088084936,-1,-1,-1010,364,-21,-6,-9,-28,14,28521.0
12:24:06.018,AUTO,-35.3632616,149.1652381,22680,-0.04175548255443573,-0.002439171075820923,0.03989550843834877,-0.36955752968788147,-0.016275959089398384,-0.005256957840174437,-2,-25,-1020,-369,-15,-5,-8,-37,9,28521.0
12:24:06.220,AUTO,-35.3632616,149.1652381,22680,-0.04175548255443573,-0.002439171075820923,0.03989550843834877,-0.36955752968788147,-0.016275959089398384,-0.005256957840174437,-2,-25,-1020,-369,-15,-5,-8,-37,9,28521.0
12:24:06.422,AUTO,-35.3632618,149.1652371,22657,-0.05204707384109497,-0.00653358967974782,0.03911343589425087,-0.6232028603553772,-0.019785769283771515,-0.002881725085899234,-3,-11,-1025,-622,-19,-3,-8,-45,3,28521.0
12:24:06.624,AUTO,-35.3632619,149.1652358,22643,-0.060379691421985626,-0.009899500757455826,0.03866441920399666,-0.3106456995010376,-0.010260572656989098,-0.0024281239602714777,-4,22,-1009,-308,-9,-2,-6,-53,2,28521.0
12:24:06.826,AUTO,-35.3632619,149.1652358,22643,-0.060379691421985626,-0.009899500757455826,0.03866441920399666,-0.3106456995010376,-0.010260572656989098,-0.0024281239602714777,-4,22,-1009,-308,-9,-2,-6,-53,2,28521.0
12:24:07.029,AUTO,-35.3632619,149.1652358,22643,-0.060379691421985626,-0.009899500757455826,0.03866441920399666,-0.3106456995010376,-0.010260572656989098,-0.0024281239602714777,-4,22,-1009,-308,-9,-2,-6,-53,2,203974.0
12:24:07.230,AUTO,-35.3632619,149.1652358,22643,-0.060379691421985626,-0.009899500757455826,0.03866441920399666,-0.3106456995010376,-0.010260572656989098,-0.0024281239602714777,-4,22,-1009,-308,-9,-2,-6,-53,2,203974.0
12:24:07.433,AUTO,-35.3632622,149.1652301,22633,-0.05972019582986832,-0.032125502824783325,-0.20297101140022278,0.01401976216584444,-0.023097114637494087,-0.8760080337524414,-13,5,-1009,14,-22,-876,-1,-87,-4,203974.0
12:24:07.634,AUTO,-35.3632622,149.1652275,22640,-0.07050145417451859,-0.05179925635457039,-0.4357520341873169,-0.6179369688034058,-0.007476416416466236,-0.9404141902923584,-23,-6,-1005,-617,-6,-940,0,-101,-5,203974.0
12:24:07.836,AUTO,-35.3632622,149.1652245,22644,-0.06276435405015945,-0.07420676946640015,-0.6658487915992737,-0.1313752382993698,-0.03506851568818092,-0.8952035307884216,-27,16,-1008,-129,-34,-895,1,-117,-4,203974.0
12:24:08.038,AUTO,-35.3632622,149.1652209,22650,-0.03838545083999634,-0.09363865107297897,-0.8792255520820618,0.468205064535141,-0.0399169921875,-0.8360194563865662,-32,34,-1005,469,-39,-836,3,-135,-5,203974.0
12:24:08.240,AUTO,-35.3632622,149.1652169,22657,-0.022705357521772385,-0.11182136088609695,-1.0797003507614136,0.16555564105510712,-0.0532141737639904,-0.7731232643127441,-37,-6,-998,165,-52,-773,4,-154,-4,203974.0
12:24:08.442,AUTO,-35.3632622,149.1652169,22657,-0.022705357521772385,-0.11182136088609695,-1.0797003507614136,0.16555564105510712,-0.0532141737639904,-0.7731232643127441,-37,-6,-998,165,-52,-773,4,-154,-4,203974.0
12:24:08.645,AUTO,-35.3632622,149.1652124,22662,-0.010115005075931549,-0.1286771148443222,-1.2746952772140503,-0.44110429286956787,-0.042654674500226974,-0.7608721852302551,-43,-40,-1004,-440,-41,-761,4,-175,-3,203974.0
12:24:08.849,AUTO,-35.3632622,149.1652124,22662,-0.010115005075931549,-0.1286771148443222,-1.2746952772140503,-0.44110429286956787,-0.042654674500226974,-0.7608721852302551,-43,-40,-1004,-440,-41,-761,4,-175,-3,203974.0
12:24:09.051,AUTO,-35.3632622,149.1652124,22662,-0.010115005075931549,-0.1286771148443222,-1.2746952772140503,-0.44110429286956787,-0.042654674500226974,-0.7608721852302551,-43,-40,-1004,-440,-41,-761,4,-175,-3,203974.0
12:24:09.253,AUTO,-35.3632619,149.1651946,22673,0.04872040078043938,-0.16215729713439941,-1.5632987022399902,0.33724474906921387,-0.011149407364428043,0.06683741509914398,-49,-28,-994,337,-10,66,8,-253,-3,203974.0
12:24:09.455,AUTO,-35.3632619,149.1651946,22673,0.04872040078043938,-0.16215729713439941,-1.5632987022399902,0.33724474906921387,-0.011149407364428043,0.06683741509914398,-49,-28,-994,337,-10,66,8,-253,-3,203974.0
12:24:09.657,AUTO,-35.3632618,149.1651871,22677,0.043789323419332504,-0.16519790887832642,-1.538034200668335,-0.1802339106798172,0.008095002733170986,0.1245504841208458,-54,-50,-1014,-179,8,124,10,-281,-4,203974.0
12:24:09.859,AUTO,-35.3632616,149.1651789,22684,0.042839713394641876,-0.1644013524055481,-1.5126255750656128,-0.1497628539800644,0.0034825883340090513,0.0793641060590744,-66,-36,-1010,-148,4,79,13,-308,-5,203974.0
12:24:10.061,AUTO,-35.3632613,149.16517,22694,0.049386970698833466,-0.1701742559671402,-1.499132752418518,0.2608007788658142,-0.01712125353515148,0.030145680531859398,-72,-27,-1007,262,-16,30,16,-334,-6,39591.0
12:24:10.263,AUTO,-35.363261,149.1651603,22705,0.05160215497016907,-0.17319349944591522,-1.495175838470459,0.034860000014305115,-0.00030957424314692616,0.005497009493410587,-74,-50,-1004,35,0,5,18,-360,-6,39591.0
12:24:10.465,AUTO,-35.363261,149.1651603,22705,0.05160215497016907,-0.17319349944591522,-1.495175838470459,0.034860000014305115,-0.00030957424314692616,0.005497009493410587,-74,-50,-1004,35,0,5,18,-360,-6,39591.0
12:24:10.667,AUTO,-35.3632606,149.1651499,22717,0.048037778586149216,-0.17676956951618195,-1.4962456226348877,-0.24435880780220032,-0.023552021011710167,0.0031787350308150053,-75,-56,-1002,-243,-23,2,20,-385,-6,39591.0
12:24:10.869,AUTO,-35.3632606,149.1651499,22717,0.048037778586149216,-0.17676956951618195,-1.4962456226348877,-0.24435880780220032,-0.023552021011710167,0.0031787350308150053,-75,-56,-1002,-243,-23,2,20,-385,-6,39591.0
12:24:11.071,AUTO,-35.3632606,149.1651499,22717,0.048037778586149216,-0.17676956951618195,-1.4962456226348877,-0.24435880780220032,-0.023552021011710167,0.0031787350308150053,-75,-56,-1002,-243,-23,2,20,-385,-6,39591.0
12:24:11.273,AUTO,-35.3632592,149.1651148,22755,0.05559737607836723,-0.19742944836616516,-1.5019205808639526,0.0199191402643919,-0.01772274449467659,-0.002866552909836173,-92,-57,-1002,20,-16,-3,24,-464,-6,39591.0
12:24:11.475,AUTO,-35.3632592,149.1651148,22755,0.05559737607836723,-0.19742944836616516,-1.5019205808639526,0.0199191402643919,-0.01772274449467659,-0.002866552909836173,-92,-57,-1002,20,-16,-3,24,-464,-6,39591.0
12:24:11.677,AUTO,-35.3632586,149.1651016,22769,0.05489538237452507,-0.20187102258205414,-1.502833366394043,-0.010910363867878914,-0.003800240345299244,-0.00501623610034585,-100,-59,-1002,-9,-3,-5,26,-490,-7,39591.0
12:24:11.879,AUTO,-35.363258,149.1650877,22786,0.05480322241783142,-0.1965266764163971,-1.5030745267868042,0.014326458796858788,0.036300353705883026,-0.0040931301191449165,-95,-63,-1006,15,37,-4,27,-515,-8,39591.0
12:24:12.082,AUTO,-35.3632573,149.1650731,22808,0.05733328312635422,-0.18613877892494202,-1.5034115314483643,0.02019224688410759,0.04637626186013222,-0.0009940799791365862,-111,-62,-1012,21,47,-1,27,-539,-11,39591.0
12:24:12.284,AUTO,-35.3632566,149.1650578,22838,0.05848495289683342,-0.1749228537082672,-1.5039738416671753,0.0023541036061942577,0.043722234666347504,-0.006662255153059959,-117,-56,-1008,3,44,-6,28,-558,-14,39591.0
12:24:12.488,AUTO,-35.363256,149.1650421,22874,0.061422329396009445,-0.16746032238006592,-1.5043102502822876,0.010990983806550503,0.009695529006421566,-0.0050996653735637665,-94,-42,-986,11,10,-5,28,-575,-16,39591.0
12:24:12.690,AUTO,-35.363256,149.1650421,22874,0.061422329396009445,-0.16746032238006592,-1.5043102502822876,0.010990983806550503,0.009695529006421566,-0.0050996653735637665,-94,-42,-986,11,10,-5,28,-575,-16,39591.0
12:24:12.895,AUTO,-35.363256,149.1650421,22874,0.061422329396009445,-0.16746032238006592,-1.5043102502822876,0.010990983806550503,0.009695529006421566,-0.0050996653735637665,-94,-42,-986,11,10,-5,28,-575,-16,39591.0
12:24:13.100,AUTO,-35.363256,149.1650421,22874,0.061422329396009445,-0.16746032238006592,-1.5043102502822876,0.010990983806550503,0.009695529006421566,-0.0050996653735637665,-94,-42,-986,11,10,-5,28,-575,-16,184724.0
12:24:13.302,AUTO,-35.3632539,149.1649927,22989,0.06331491470336914,-0.16481073200702667,-1.504218578338623,0.022250395268201828,0.026351168751716614,-0.009184533730149269,-131,-74,-1002,23,27,-9,29,-615,-15,184724.0
12:24:13.503,AUTO,-35.3632532,149.1649756,23029,0.06526012718677521,-0.1606987863779068,-1.5050299167633057,0.034434691071510315,0.015592438168823719,-0.011115672066807747,-124,-68,-991,35,16,-11,29,-625,-16,184724.0
12:24:13.706,AUTO,-35.3632532,149.1649756,23029,0.06526012718677521,-0.1606987863779068,-1.5050299167633057,0.034434691071510315,0.015592438168823719,-0.011115672066807747,-124,-68,-991,35,16,-11,29,-625,-16,184724.0
12:24:13.908,AUTO,-35.3632525,149.1649582,23069,0.06651777774095535,-0.15872357785701752,-1.5062164068222046,0.015398917719721794,0.01926179975271225,-0.011448237113654613,-129,-66,-988,16,19,-11,30,-634,-15,184724.0
12:24:14.110,AUTO,-35.3632518,149.1649406,23108,0.06763611733913422,-0.1557139903306961,-1.5068402290344238,-0.0023630699142813683,0.03653500974178314,-0.007595260161906481,-122,-66,-989,-1,37,-7,29,-642,-15,184724.0
12:24:14.312,AUTO,-35.3632511,149.1649227,23148,0.07272455841302872,-0.15056830644607544,-1.5070104598999023,0.011397888883948326,0.03836173936724663,-0.0035606944002211094,-132,-78,-989,12,39,-3,28,-648,-15,184724.0
12:24:14.514,AUTO,-35.3632504,149.1649046,23188,0.07316501438617706,-0.13769635558128357,-1.50669527053833,0.03370099887251854,0.031869836151599884,0.0048554022796452045,-130,-58,-998,34,33,4,30,-653,-17,184724.0
12:24:14.716,AUTO,-35.3632504,149.1649046,23188,0.07316501438617706,-0.13769635558128357,-1.50669527053833,0.03370099887251854,0.031869836151599884,0.0048554022796452045,-130,-58,-998,34,33,4,30,-653,-17,184724.0
12:24:14.919,AUTO,-35.3632504,149.1649046,23188,0.07316501438617706,-0.13769635558128357,-1.50669527053833,0.03370099887251854,0.031869836151599884,0.0048554022796452045,-130,-58,-998,34,33,4,30,-653,-17,184724.0
12:24:15.121,AUTO,-35.3632504,149.1649046,23188,0.07316501438617706,-0.13769635558128357,-1.50669527053833,0.03370099887251854,0.031869836151599884,0.0048554022796452045,-130,-58,-998,34,33,4,30,-653,-17,184724.0
12:24:15.323,AUTO,-35.3632484,149.1648503,23315,0.0769708901643753,-0.12088491022586823,-1.5080198049545288,-0.016800761222839355,-0.01846238411962986,-0.007581782527267933,-138,-54,-978,-15,-17,-7,31,-654,-15,184724.0
12:24:15.524,AUTO,-35.3632477,149.1648322,23352,0.07452013343572617,-0.12484971433877945,-1.5083744525909424,0.01854080520570278,-0.01047736220061779,0.005338899791240692,-130,-82,-985,19,-9,5,31,-654,-12,184724.0
12:24:15.726,AUTO,-35.3632477,149.1648322,23352,0.07452013343572617,-0.12484971433877945,-1.5083744525909424,0.01854080520570278,-0.01047736220061779,0.005338899791240692,-130,-82,-985,19,-9,5,31,-654,-12,184724.0
12:24:15.929,AUTO,-35.363247,149.1648139,23383,0.07619582861661911,-0.12331467866897583,-1.50852632522583,0.0308757983148098,0.017519310116767883,-0.0018958401633426547,-124,-70,-987,31,18,-1,31,-654,-10,97824.0
12:24:16.131,AUTO,-35.3632462,149.1647959,23413,0.07484273612499237,-0.10721483081579208,-1.5078121423721313,-0.016968337818980217,0.04385981336236,0.0028639312367886305,-132,-76,-1001,-16,44,2,32,-652,-12,97824.0
12:24:16.333,AUTO,-35.3632455,149.1647779,23450,0.07638411223888397,-0.09711012989282608,-1.5079435110092163,-0.019780512899160385,0.038867197930812836,-0.005903099197894335,-138,-69,-991,-18,39,-5,31,-645,-13,97824.0
12:24:16.535,AUTO,-35.3632448,149.1647602,23487,0.06836098432540894,-0.08824983239173889,-1.5069489479064941,-0.04276483878493309,0.06207359582185745,-0.003289612242951989,-129,-73,-989,-41,62,-3,33,-637,-13,97824.0
12:24:16.737,AUTO,-35.3632448,149.1647602,23487,0.06836098432540894,-0.08824983239173889,-1.5069489479064941,-0.04276483878493309,0.06207359582185745,-0.003289612242951989,-129,-73,-989,-41,62,-3,33,-637,-13,97824.0
12:24:16.947,AUTO,-35.3632448,149.1647602,23487,0.06836098432540894,-0.08824983239173889,-1.5069489479064941,-0.04276483878493309,0.06207359582185745,-0.003289612242951989,-129,-73,-989,-41,62,-3,33,-637,-13,97824.0
12:24:17.149,AUTO,-35.3632448,149.1647602,23487,0.06836098432540894,-0.08824983239173889,-1.5069489479064941,-0.04276483878493309,0.06207359582185745,-0.003289612242951989,-129,-73,-989,-41,62,-3,33,-637,-13,97824.0
12:24:17.351,AUTO,-35.3632428,149.1647088,23601,0.07678330689668655,-0.05024871602654457,-1.5082021951675415,-0.021558281034231186,0.03512493893504143,-0.005354408174753189,-122,-73,-991,-20,36,-5,28,-597,-12,97824.0
12:24:17.553,AUTO,-35.3632421,149.1646925,23635,0.07692684233188629,-0.03376554697751999,-1.5079175233840942,0.06738118082284927,0.07526034861803055,-0.007969595491886139,-110,-65,-995,68,76,-8,28,-582,-11,97824.0
12:24:17.755,AUTO,-35.3632415,149.1646767,23668,0.07476301491260529,-0.020243244245648384,-1.507464051246643,-0.02257884293794632,0.04221899062395096,0.009989294223487377,-107,-72,-987,-21,43,10,28,-562,-10,97824.0
12:24:17.957,AUTO,-35.3632415,149.1646767,23668,0.07476301491260529,-0.020243244245648384,-1.507464051246643,-0.02257884293794632,0.04221899062395096,0.009989294223487377,-107,-72,-987,-21,43,10,28,-562,-10,97824.0
12:24:18.159,AUTO,-35.3632409,149.1646615,23698,0.07146292924880981,-0.01042237225919962,-1.507510781288147,-0.09128454327583313,0.040928930044174194,0.0014190231449902058,-109,-85,-989,-90,41,1,27,-540,-9,97824.0
12:24:18.361,AUTO,-35.3632402,149.164647,23723,0.0690348744392395,-0.001110065495595336,-1.5074238777160645,-0.019009768962860107,0.04184660315513611,-0.0017332755960524082,-102,-70,-990,-17,42,-2,27,-516,-6,97824.0
12:24:18.563,AUTO,-35.3632396,149.1646331,23744,0.07087980955839157,0.010912845842540264,-1.5077670812606812,0.12713566422462463,0.059083305299282074,-0.007059216499328613,-101,-59,-992,128,60,-6,26,-491,-5,97824.0
12:24:18.765,AUTO,-35.3632396,149.1646331,23744,0.07087980955839157,0.010912845842540264,-1.5077670812606812,0.12713566422462463,0.059083305299282074,-0.007059216499328613,-101,-59,-992,128,60,-6,26,-491,-5,97824.0
12:24:18.967,AUTO,-35.3632396,149.1646331,23744,0.07087980955839157,0.010912845842540264,-1.5077670812606812,0.12713566422462463,0.059083305299282074,-0.007059216499328613,-101,-59,-992,128,60,-6,26,-491,-5,98960.0
12:24:19.169,AUTO,-35.3632396,149.1646331,23744,0.07087980955839157,0.010912845842540264,-1.5077670812606812,0.12713566422462463,0.059083305299282074,-0.007059216499328613,-101,-59,-992,128,60,-6,26,-491,-5,98960.0
12:24:19.371,AUTO,-35.3632378,149.1645959,23774,0.053287580609321594,0.053004711866378784,-1.5075253248214722,0.28970491886138916,0.051488105207681656,-0.040853410959243774,-80,-28,-1005,291,52,-40,23,-404,2,98960.0
12:24:19.573,AUTO,-35.3632372,149.1645852,23771,0.056373149156570435,0.0573451928794384,-1.5088272094726562,0.6753242611885071,-0.002325585577636957,-0.02311255782842636,-74,-10,-1029,676,-1,-23,22,-372,2,98960.0
12:24:19.774,AUTO,-35.3632367,149.1645754,23768,0.0566190667450428,0.05557863414287567,-1.5089198350906372,0.5896137356758118,-0.006821324583142996,0.007839971221983433,-62,-40,-999,589,-6,7,19,-342,4,98960.0
12:24:19.976,AUTO,-35.3632367,149.1645754,23768,0.0566190667450428,0.05557863414287567,-1.5089198350906372,0.5896137356758118,-0.006821324583142996,0.007839971221983433,-62,-40,-999,589,-6,7,19,-342,4,98960.0
12:24:20.178,AUTO,-35.3632362,149.1645663,23764,0.04789496958255768,0.0558537021279335,-1.509155035018921,-0.22028319537639618,-0.006714499089866877,0.031932007521390915,-64,-70,-1007,-220,-5,31,17,-312,2,98960.0
12:24:20.380,AUTO,-35.3632358,149.164558,23762,0.030152469873428345,0.05492372438311577,-1.508899450302124,-0.6710270643234253,0.009166814386844635,-0.0020519548561424017,-58,-56,-1000,-669,10,-2,16,-284,2,98960.0
12:24:20.582,AUTO,-35.3632355,149.1645506,23759,0.029886234551668167,0.06036074832081795,-1.5077247619628906,0.07174500077962875,0.022966839373111725,-0.014982311055064201,-52,-8,-997,73,24,-14,15,-257,2,98960.0
12:24:20.787,AUTO,-35.3632355,149.1645506,23759,0.029886234551668167,0.06036074832081795,-1.5077247619628906,0.07174500077962875,0.022966839373111725,-0.014982311055064201,-52,-8,-997,73,24,-14,15,-257,2,98960.0
12:24:20.989,AUTO,-35.3632355,149.1645506,23759,0.029886234551668167,0.06036074832081795,-1.5077247619628906,0.07174500077962875,0.022966839373111725,-0.014982311055064201,-52,-8,-997,73,24,-14,15,-257,2,98960.0
12:24:21.190,AUTO,-35.3632355,149.1645506,23759,0.029886234551668167,0.06036074832081795,-1.5077247619628906,0.07174500077962875,0.022966839373111725,-0.014982311055064201,-52,-8,-997,73,24,-14,15,-257,2,98960.0
12:24:21.392,AUTO,-35.3632349,149.164533,23757,0.04159710183739662,0.07624201476573944,-1.5089558362960815,0.5319862961769104,0.019328957423567772,-0.006052213720977306,-35,-7,-989,532,20,-6,11,-175,0,98960.0
12:24:21.594,AUTO,-35.3632348,149.1645286,23758,0.031464774161577225,0.07764967530965805,-1.5094778537750244,-0.33020269870758057,-0.028479522094130516,0.014290889725089073,-28,-53,-999,-330,-27,14,9,-148,0,98960.0
12:24:21.796,AUTO,-35.3632347,149.1645249,23759,0.02211570553481579,0.06954441219568253,-1.5091358423233032,-0.668359637260437,-0.041959747672080994,0.010624377056956291,-26,-45,-1008,-667,-41,10,9,-123,0,98960.0
12:24:21.998,AUTO,-35.3632346,149.1645219,23761,0.016989095136523247,0.05997184291481972,-1.5089107751846313,-0.06446690112352371,-0.03376542031764984,-0.010936707258224487,-21,2,-995,-62,-32,-10,11,-101,0,209280.0
12:24:22.201,AUTO,-35.3632346,149.1645219,23761,0.016989095136523247,0.05997184291481972,-1.5089107751846313,-0.06446690112352371,-0.03376542031764984,-0.010936707258224487,-21,2,-995,-62,-32,-10,11,-101,0,209280.0
12:24:22.403,AUTO,-35.3632346,149.1645194,23762,0.02594274841248989,0.05414080247282982,-1.5093586444854736,0.6144686937332153,-0.015749996528029442,-0.004799343645572662,-17,22,-1014,615,-14,-5,10,-83,0,209280.0
12:24:22.605,AUTO,-35.3632345,149.1645174,23761,0.02473284676671028,0.04960756376385689,-1.5095036029815674,0.4284989535808563,-0.025309143587946892,-0.0006607602117583156,-13,-6,-1007,429,-24,0,9,-66,1,209280.0
12:24:22.807,AUTO,-35.3632345,149.1645174,23761,0.02473284676671028,0.04960756376385689,-1.5095036029815674,0.4284989535808563,-0.025309143587946892,-0.0006607602117583156,-13,-6,-1007,429,-24,0,9,-66,1,209280.0
12:24:23.009,AUTO,-35.3632345,149.1645174,23761,0.02473284676671028,0.04960756376385689,-1.5095036029815674,0.4284989535808563,-0.025309143587946892,-0.0006607602117583156,-13,-6,-1007,429,-24,0,9,-66,1,209280.0
12:24:23.211,AUTO,-35.3632345,149.1645174,23761,0.02473284676671028,0.04960756376385689,-1.5095036029815674,0.4284989535808563,-0.025309143587946892,-0.0006607602117583156,-13,-6,-1007,429,-24,0,9,-66,1,209280.0
12:24:23.414,AUTO,-35.3632345,149.1645139,23759,-0.0023206917103379965,0.03646773844957352,-1.5107671022415161,-0.4118563234806061,-0.01965465024113655,-0.0006854888051748276,-5,-3,-1007,-409,-18,0,8,-28,0,209280.0
12:24:23.616,AUTO,-35.3632345,149.1645133,23756,0.0031041791662573814,0.031079120934009552,-1.510915756225586,0.11603158712387085,-0.028198009356856346,0.002197301248088479,-4,25,-999,118,-27,2,8,-18,1,209280.0
12:24:23.819,AUTO,-35.3632346,149.1645131,23756,0.011748697608709335,0.02512158267199993,-1.5113120079040527,0.599559485912323,-0.023218728601932526,0.0004472673172131181,-2,34,-1006,601,-22,0,8,-10,0,209280.0
12:24:24.021,AUTO,-35.3632346,149.164513,23759,0.014335324987769127,0.019084913656115532,-1.511758804321289,0.27520743012428284,-0.017453573644161224,0.0047471532598137856,0,-3,-991,275,-16,4,7,-4,-1,209280.0
12:24:24.224,AUTO,-35.3632346,149.164513,23759,0.014335324987769127,0.019084913656115532,-1.511758804321289,0.27520743012428284,-0.017453573644161224,0.0047471532598137856,0,-3,-991,275,-16,4,7,-4,-1,209280.0
12:24:24.426,AUTO,-35.3632347,149.164513,23764,0.00040431448724120855,0.013265225104987621,-1.512296199798584,-0.4616120457649231,-0.027930408716201782,0.0023463922552764416,0,-33,-998,-460,-27,2,6,0,-2,209280.0
12:24:24.628,AUTO,-35.3632347,149.1645131,23768,-0.005230288486927748,0.00602608872577548,-1.5126739740371704,-0.48196274042129517,-0.03243536502122879,0.003256513038650155,2,0,-985,-479,-31,3,6,1,0,209280.0
