time_stamp,MODE,lat,lon,relative_alt,roll,pitch,yaw,rollspeed,pitchspeed,yawspeed,xacc,yacc,zacc,xgyro,ygyro,zgyro,vx,vy,vz,RTL_ALT
14:05:37.650,STABILIZE,-35.3632621,149.1652374,0,0.00042414950439706445,0.0014455955242738128,0.027166565880179405,0.00022753147641196847,0.0003293866175226867,0.002343888161703944,0,1,-1000,0,0,0,0,0,2,1500.0
14:05:37.851,STABILIZE,-35.3632621,149.1652374,0,0.00045842278632335365,0.001500734593719244,0.0270033311098814,0.000335579999955371,0.00025007216027006507,0.002429850632324815,0,1,-1000,0,0,0,0,1,2,1500.0
14:05:38.052,STABILIZE,-35.3632621,149.1652374,0,0.0004716386611107737,0.0015489382203668356,0.02681797556579113,0.00020584336016327143,0.0002007198054343462,0.002316666767001152,0,1,-1000,0,0,0,-1,1,2,1500.0
14:05:38.252,STABILIZE,-35.3632621,149.1652374,0,0.0004716386611107737,0.0015489382203668356,0.02681797556579113,0.00020584336016327143,0.0002007198054343462,0.002316666767001152,0,1,-1000,0,0,0,-1,1,2,1500.0
14:05:38.453,STABILIZE,-35.3632621,149.1652374,0,0.0004716386611107737,0.0015489382203668356,0.02681797556579113,0.00020584336016327143,0.0002007198054343462,0.002316666767001152,0,1,-1000,0,0,0,-1,1,2,1500.0
14:05:38.654,STABILIZE,-35.3632621,149.1652374,0,0.000472427811473608,0.001613027066923678,0.026462474837899208,0.00024284745450131595,0.0003449833602644503,0.0023622880689799786,0,1,-1000,0,0,0,-1,1,2,1500.0
14:05:38.856,STABILIZE,-35.3632621,149.1652374,0,0.000472427811473608,0.001613027066923678,0.026462474837899208,0.00024284745450131595,0.0003449833602644503,0.0023622880689799786,0,1,-1000,0,0,0,-1,1,2,1500.0
14:05:39.061,STABILIZE,-35.3632621,149.1652374,0,0.000472427811473608,0.001613027066923678,0.026462474837899208,0.00024284745450131595,0.0003449833602644503,0.0023622880689799786,0,1,-1000,0,0,0,-1,1,2,1500.0
14:05:39.264,STABILIZE,-35.3632621,149.1652375,0,0.00033047187025658786,0.0016020635375753045,0.025934914126992226,0.00014240574091672897,0.00029191747307777405,0.002174468245357275,0,1,-1000,0,0,0,-1,2,1,1500.0
14:05:39.465,STABILIZE,-35.3632621,149.1652375,0,0.00033047187025658786,0.0016020635375753045,0.025934914126992226,0.00014240574091672897,0.00029191747307777405,0.002174468245357275,0,1,-1000,0,0,0,-1,2,1,1500.0
14:05:39.666,STABILIZE,-35.3632621,149.1652375,0,0.00033047187025658786,0.0016020635375753045,0.025934914126992226,0.00014240574091672897,0.00029191747307777405,0.002174468245357275,0,1,-1000,0,0,0,-2,2,1,1500.0
14:05:39.867,STABILIZE,-35.3632621,149.1652375,0,0.00033047187025658786,0.0016020635375753045,0.025934914126992226,0.00014240574091672897,0.00029191747307777405,0.002174468245357275,0,1,-1000,0,0,0,-2,2,1,1500.0
14:05:40.068,STABILIZE,-35.3632621,149.1652375,0,0.00033047187025658786,0.0016020635375753045,0.025934914126992226,0.00014240574091672897,0.00029191747307777405,0.002174468245357275,0,1,-1000,0,0,0,-2,2,1,1500.0
14:05:40.269,STABILIZE,-35.3632622,149.1652375,0,2.3281265384866856e-05,0.0014440841041505337,0.02533930353820324,5.326888640411198e-05,0.0002391244051977992,0.002173407468944788,0,1,-1000,0,0,0,-2,2,2,1500.0
14:05:40.471,STABILIZE,-35.3632622,149.1652375,0,2.3281265384866856e-05,0.0014440841041505337,0.02533930353820324,5.326888640411198e-05,0.0002391244051977992,0.002173407468944788,0,1,-1000,0,0,0,-2,2,2,1500.0
14:05:40.672,STABILIZE,-35.3632622,149.1652375,0,2.3281265384866856e-05,0.0014440841041505337,0.02533930353820324,5.326888640411198e-05,0.0002391244051977992,0.002173407468944788,0,1,-1000,0,0,0,-2,2,2,1500.0
14:05:40.873,STABILIZE,-35.3632622,149.1652375,0,2.3281265384866856e-05,0.0014440841041505337,0.02533930353820324,5.326888640411198e-05,0.0002391244051977992,0.002173407468944788,0,1,-1000,0,0,0,-2,2,2,1500.0
14:05:41.075,STABILIZE,-35.3632622,149.1652375,0,2.3281265384866856e-05,0.0014440841041505337,0.02533930353820324,5.326888640411198e-05,0.0002391244051977992,0.002173407468944788,0,1,-1000,0,0,0,-2,2,2,1500.0
14:05:41.276,STABILIZE,-35.3632622,149.1652375,0,-0.0005013477639295161,0.001232558279298246,0.02483282797038555,0.00024374114582315087,0.0002155367110390216,0.0019446727819740772,0,1,-1000,0,0,0,-1,2,2,1500.0
14:05:41.477,STABILIZE,-35.3632622,149.1652375,0,-0.0005013477639295161,0.001232558279298246,0.02483282797038555,0.00024374114582315087,0.0002155367110390216,0.0019446727819740772,0,1,-1000,0,0,0,-1,2,2,1500.0
14:05:41.678,STABILIZE,-35.3632622,149.1652375,0,-0.0005968682817183435,0.0011973974760621786,0.02473006211221218,0.0001102756941691041,0.00022489714319817722,0.0021036029793322086,0,1,-1000,0,0,0,-1,1,1,1500.0
14:05:41.879,STABILIZE,-35.3632622,149.1652375,0,-0.0005968682817183435,0.0011973974760621786,0.02473006211221218,0.0001102756941691041,0.00022489714319817722,0.0021036029793322086,0,1,-1000,0,0,0,-1,1,1,1500.0
14:05:42.080,STABILIZE,-35.3632622,149.1652375,0,-0.0007710098871029913,0.0011113201035186648,0.024552732706069946,0.00014077092055231333,0.00019713310757651925,0.002076773438602686,0,1,-1000,0,0,0,-1,1,1,1500.0
14:05:42.282,STABILIZE,-35.3632622,149.1652375,0,-0.0008495354559272528,0.001080743852071464,0.02445179596543312,0.00019583827815949917,0.0002516760432627052,0.001965317875146866,0,1,-1000,0,1,1,-1,1,1,1500.0
14:05:42.483,STABILIZE,-35.3632622,149.1652375,0,-0.0008495354559272528,0.001080743852071464,0.02445179596543312,0.00019583827815949917,0.0002516760432627052,0.001965317875146866,0,1,-1000,0,1,1,-1,1,1,1500.0
14:05:42.684,STABILIZE,-35.3632622,149.1652375,0,-0.0009123042109422386,0.001052681589499116,0.02436101622879505,7.302645826712251e-05,0.000295775244012475,0.0019834116101264954,0,1,-1000,0,0,0,-1,1,1,1500.0
14:05:42.886,STABILIZE,-35.3632622,149.1652375,0,-0.0009123042109422386,0.001052681589499116,0.02436101622879505,7.302645826712251e-05,0.000295775244012475,0.0019834116101264954,0,1,-1000,0,0,0,-1,1,1,1500.0
14:05:43.087,STABILIZE,-35.3632622,149.1652375,0,-0.0009123042109422386,0.001052681589499116,0.02436101622879505,7.302645826712251e-05,0.000295775244012475,0.0019834116101264954,0,1,-1000,0,0,0,-1,1,1,1500.0
14:05:43.288,STABILIZE,-35.3632621,149.1652375,0,-0.0008928090101107955,0.000996783608570695,0.024129297584295273,0.00012766453437507153,0.0002088238252326846,0.002037365920841694,0,1,-1000,0,0,0,-1,0,0,1500.0
14:05:43.489,STABILIZE,-35.3632621,149.1652375,0,-0.0008928090101107955,0.000996783608570695,0.024129297584295273,0.00012766453437507153,0.0002088238252326846,0.002037365920841694,0,1,-1000,0,0,0,-1,0,0,1500.0
14:05:43.690,STABILIZE,-35.3632621,149.1652375,0,-0.0009039842989295721,0.0009835243690758944,0.02406652271747589,7.798202568665147e-05,0.0002393886970821768,0.001892730826511979,0,1,-1000,0,0,0,-1,0,0,1500.0
14:05:43.892,STABILIZE,-35.3632621,149.1652375,0,-0.0008947908063419163,0.0009794660145416856,0.023988796398043633,0.0003221146180294454,0.00023336111917160451,0.0020522200502455235,0,1,-1000,0,0,0,-1,0,0,1500.0
14:05:44.093,STABILIZE,-35.3632621,149.1652375,0,-0.0008811454754322767,0.0009774435311555862,0.02391425520181656,0.00016571697778999805,0.00032449656282551587,0.001984186703339219,0,1,-1000,0,0,0,-1,0,0,1500.0
14:05:44.294,STABILIZE,-35.3632621,149.1652375,0,-0.0008811454754322767,0.0009774435311555862,0.02391425520181656,0.00016571697778999805,0.00032449656282551587,0.001984186703339219,0,1,-1000,0,0,0,-1,0,0,1500.0
14:05:44.495,STABILIZE,-35.3632621,149.1652375,0,-0.0008811454754322767,0.0009774435311555862,0.02391425520181656,0.00016571697778999805,0.00032449656282551587,0.001984186703339219,0,1,-1000,0,0,0,-1,0,0,1500.0
14:05:44.697,STABILIZE,-35.3632621,149.1652375,0,-0.0008811454754322767,0.0009774435311555862,0.02391425520181656,0.00016571697778999805,0.00032449656282551587,0.001984186703339219,0,1,-1000,0,0,0,-1,0,0,1500.0
14:05:44.898,STABILIZE,-35.3632621,149.1652375,0,-0.0008811454754322767,0.0009774435311555862,0.02391425520181656,0.00016571697778999805,0.00032449656282551587,0.001984186703339219,0,1,-1000,0,0,0,-1,0,0,1500.0
14:05:45.099,STABILIZE,-35.3632621,149.1652375,0,-0.0008811454754322767,0.0009774435311555862,0.02391425520181656,0.00016571697778999805,0.00032449656282551587,0.001984186703339219,0,1,-1000,0,0,0,-1,0,0,1500.0
14:05:45.301,STABILIZE,-35.3632621,149.1652375,0,-0.0008498526294715703,0.0009413412190042436,0.023574544116854668,0.00022628391161561012,0.00016910675913095474,0.001849598134867847,0,1,-1000,0,0,0,-1,0,0,1500.0
14:05:45.502,STABILIZE,-35.3632621,149.1652375,0,-0.0008498526294715703,0.0009413412190042436,0.023574544116854668,0.00022628391161561012,0.00016910675913095474,0.001849598134867847,0,1,-1000,0,0,0,-1,0,0,1500.0
14:05:45.703,STABILIZE,-35.3632621,149.1652375,0,-0.0008474927744828165,0.0009324171696789563,0.023492928594350815,0.0002689193352125585,0.00024190638214349747,0.0017838783096522093,0,1,-1000,0,0,0,-1,0,0,1500.0
14:05:45.904,STABILIZE,-35.3632621,149.1652375,0,-0.0008568171178922057,0.0009352659690193832,0.023409882560372353,0.00014813448069617152,0.00021987146465107799,0.001735473284497857,0,1,-1000,0,0,0,-1,0,0,1500.0
14:05:46.106,STABILIZE,-35.3632621,149.1652375,0,-0.0008592093945480883,0.0009383084252476692,0.023341046646237373,0.0002356109325774014,0.00027385243447497487,0.0019298354163765907,0,1,-1000,0,0,0,-1,0,0,1500.0
14:05:46.307,STABILIZE,-35.3632621,149.1652375,0,-0.0008578366250731051,0.0009386165766045451,0.02326643094420433,0.0003285147249698639,0.0003765170113183558,0.0018426422029733658,0,1,-1000,1,0,0,-1,1,0,1500.0
14:05:46.509,STABILIZE,-35.3632621,149.1652375,0,-0.0008578366250731051,0.0009386165766045451,0.02326643094420433,0.0003285147249698639,0.0003765170113183558,0.0018426422029733658,0,-11,-1021,9,0,0,-1,0,-2,1500.0
14:05:46.711,STABILIZE,-35.3632621,149.1652375,0,-0.0008578366250731051,0.0009386165766045451,0.02326643094420433,0.0003285147249698639,0.0003765170113183558,0.0018426422029733658,0,-11,-1021,9,0,0,-1,0,-2,1500.0
14:05:46.913,STABILIZE,-35.3632621,149.1652375,0,-0.0008578366250731051,0.0009386165766045451,0.02326643094420433,0.0003285147249698639,0.0003765170113183558,0.0018426422029733658,0,-11,-1021,9,0,0,-1,0,-2,1500.0
14:05:47.118,STABILIZE,-35.3632621,149.1652375,0,-0.0008578366250731051,0.0009386165766045451,0.02326643094420433,0.0003285147249698639,0.0003765170113183558,0.0018426422029733658,0,-11,-1021,9,0,0,-1,0,-2,1500.0
14:05:47.320,STABILIZE,-35.3632621,149.1652375,0,-0.0008578366250731051,0.0009386165766045451,0.02326643094420433,0.0003285147249698639,0.0003765170113183558,0.0018426422029733658,0,-11,-1021,9,0,0,-1,0,-2,1500.0
14:05:47.521,STABILIZE,-35.3632621,149.1652375,0,-0.0005892539047636092,0.0009378758259117603,0.022872194647789,0.0002669764216989279,0.0002868789597414434,0.0017899712547659874,0,-11,-1021,9,0,0,-1,0,-2,1500.0
14:05:47.723,STABILIZE,-35.3632621,149.1652375,0,-0.0005892539047636092,0.0009378758259117603,0.022872194647789,0.0002669764216989279,0.0002868789597414434,0.0017899712547659874,0,-11,-1021,9,0,0,-1,0,-2,1500.0
14:05:47.924,STABILIZE,-35.3632621,149.1652375,0,-0.0005609167856164277,0.0009443449671380222,0.02280571311712265,0.00024245469830930233,0.00018083612667396665,0.0017811052966862917,0,1,-1000,0,0,1,-1,0,-2,1500.0
14:05:48.125,STABILIZE,-35.3632621,149.1652375,0,-0.000538378837518394,0.0009453356615267694,0.02272375486791134,0.0002614583936519921,0.00029232032829895616,0.001657190266996622,0,1,-1000,0,0,0,-1,0,-1,1500.0
14:05:48.327,STABILIZE,-35.3632621,149.1652375,0,-0.0005271900445222855,0.0009533710544928908,0.022639451548457146,0.00017397780902683735,0.0003319288371130824,0.0016806344501674175,0,1,-1000,0,0,0,-1,1,-1,1500.0
14:05:48.528,STABILIZE,-35.3632621,149.1652375,0,-0.000527748023159802,0.0009562482009641826,0.022558804601430893,0.0002519847475923598,0.0003195611061528325,0.0017612656811252236,0,1,-1000,0,0,0,-1,1,-1,1500.0
14:05:48.729,STABILIZE,-35.3632621,149.1652375,0,-0.000527748023159802,0.0009562482009641826,0.022558804601430893,0.0002519847475923598,0.0003195611061528325,0.0017612656811252236,0,1,-1000,0,0,0,-1,1,-1,1500.0
14:05:48.931,STABILIZE,-35.3632621,149.1652375,0,-0.000527748023159802,0.0009562482009641826,0.022558804601430893,0.0002519847475923598,0.0003195611061528325,0.0017612656811252236,0,1,-1000,0,0,0,-1,1,-1,1500.0
14:05:49.132,STABILIZE,-35.3632621,149.1652375,0,-0.000527748023159802,0.0009562482009641826,0.022558804601430893,0.0002519847475923598,0.0003195611061528325,0.0017612656811252236,0,1,-1000,0,0,0,-1,1,-1,1500.0
14:05:49.334,STABILIZE,-35.3632622,149.1652375,0,-0.0005472456687130034,0.0009595559095032513,0.022314919158816338,0.0001717776758596301,0.00015472585801035166,0.0016622842522338033,0,1,-1000,0,1,1,-1,1,-1,1500.0
14:05:49.536,STABILIZE,-35.3632622,149.1652375,0,-0.0005472456687130034,0.0009595559095032513,0.022314919158816338,0.0001717776758596301,0.00015472585801035166,0.0016622842522338033,0,1,-1000,1,0,0,-1,1,-1,1500.0
14:05:49.737,STABILIZE,-35.3632622,149.1652375,0,-0.0005472456687130034,0.0009595559095032513,0.022314919158816338,0.0001717776758596301,0.00015472585801035166,0.0016622842522338033,0,1,-1000,1,0,0,-1,1,-1,1500.0
14:05:49.938,STABILIZE,-35.3632622,149.1652375,0,-0.0005990677746012807,0.0009679020731709898,0.022151151672005653,0.000245876784902066,0.00023307092487812042,0.0014826406259089708,0,1,-1000,0,0,0,-1,1,-1,1500.0
14:05:50.140,STABILIZE,-35.3632622,149.1652375,0,-0.00045610268716700375,0.0009649083949625492,0.022069182246923447,3.803940489888191e-05,0.00032845570240169764,0.001566061982885003,0,-21,-1035,0,1,1,-1,0,-2,1500.0
14:05:50.342,STABILIZE,-35.3632622,149.1652375,0,-0.000472074665594846,0.0009712242754176259,0.021999690681695938,0.0002783393138088286,0.00016335118561983109,0.0016289049526676536,0,-21,-1035,0,1,1,-1,0,-2,1500.0
14:05:50.545,STABILIZE,-35.3632622,149.1652375,0,-0.000472074665594846,0.0009712242754176259,0.021999690681695938,0.0002783393138088286,0.00016335118561983109,0.0016289049526676536,0,-21,-1035,0,1,1,-1,1,-2,1500.0
14:05:50.746,STABILIZE,-35.3632622,149.1652375,0,-0.000472074665594846,0.0009712242754176259,0.021999690681695938,0.0002783393138088286,0.00016335118561983109,0.0016289049526676536,0,-21,-1035,0,1,1,-1,1,-2,1500.0
14:05:50.948,STABILIZE,-35.3632622,149.1652375,0,-0.000472074665594846,0.0009712242754176259,0.021999690681695938,0.0002783393138088286,0.00016335118561983109,0.0016289049526676536,0,-21,-1035,0,1,1,-1,1,-2,1500.0
14:05:51.150,STABILIZE,-35.3632622,149.1652375,0,-0.000472074665594846,0.0009712242754176259,0.021999690681695938,0.0002783393138088286,0.00016335118561983109,0.0016289049526676536,0,-21,-1035,0,1,1,-1,1,-2,1500.0
14:05:51.351,STABILIZE,-35.3632622,149.1652375,0,-0.000472074665594846,0.0009712242754176259,0.021999690681695938,0.0002783393138088286,0.00016335118561983109,0.0016289049526676536,0,-21,-1035,0,1,1,-1,1,-2,1500.0
14:05:51.552,STABILIZE,-35.3632622,149.1652375,0,-0.000472074665594846,0.0009712242754176259,0.021999690681695938,0.0002783393138088286,0.00016335118561983109,0.0016289049526676536,0,-21,-1035,0,1,1,-1,1,-2,1500.0
14:05:51.753,STABILIZE,-35.3632622,149.1652375,0,-0.000472074665594846,0.0009712242754176259,0.021999690681695938,0.0002783393138088286,0.00016335118561983109,0.0016289049526676536,0,-21,-1035,0,1,1,-1,1,-2,1500.0
14:05:51.956,AUTO,-35.3632622,149.1652375,0,-0.0004868445103056729,0.0009609119151718915,0.021571196615695953,0.00033573416294530034,0.0002664724597707391,0.0016052868450060487,0,1,-1000,0,1,0,-1,1,-1,1500.0
14:05:52.157,AUTO,-35.3632622,149.1652375,1,-0.0004918706836178899,0.0009609841508790851,0.02150585688650608,0.0002885033027268946,0.00022328883642330766,0.001472647418268025,0,1,-1000,0,0,0,-1,1,-1,1500.0
14:05:52.359,AUTO,-35.3632622,149.1652375,1,-0.0005116553511470556,0.000962545454967767,0.021433549001812935,0.00027263181982561946,0.00020116573432460427,0.0016146402340382338,0,2,-1000,0,0,1,-1,1,-1,1500.0
14:05:52.561,AUTO,-35.3632622,149.1652375,1,-0.0005274545401334763,0.0009735087514854968,0.021360650658607483,0.0003769578761421144,0.00027401698753237724,0.0014458410441875458,0,2,-1000,0,1,0,-1,1,0,1500.0
14:05:52.762,AUTO,-35.3632622,149.1652375,1,-0.0005274545401334763,0.0009735087514854968,0.021360650658607483,0.0003769578761421144,0.00027401698753237724,0.0014458410441875458,0,2,-1000,0,1,0,-1,1,0,1500.0
14:05:52.967,AUTO,-35.3632622,149.1652375,1,-0.0005274545401334763,0.0009735087514854968,0.021360650658607483,0.0003769578761421144,0.00027401698753237724,0.0014458410441875458,0,2,-1000,0,1,0,-1,1,0,1500.0
14:05:53.173,AUTO,-35.3632622,149.1652375,1,-0.0005274545401334763,0.0009735087514854968,0.021360650658607483,0.0003769578761421144,0.00027401698753237724,0.0014458410441875458,0,2,-1000,0,1,0,-1,1,0,1500.0
14:05:53.375,AUTO,-35.3632621,149.1652375,1,-0.0004702101578004658,0.0010899663902819157,0.021149734035134315,0.0003038199502043426,0.00027693540323525667,0.0015694941394031048,0,2,-1000,0,0,0,0,0,0,1500.0
14:05:53.576,AUTO,-35.3632621,149.1652375,1,-0.0004413978895172477,0.0011483588023111224,0.021086756139993668,0.0001667194301262498,0.0002936302335001528,0.001492192386649549,0,1,-1000,0,0,0,0,0,0,287384.0
14:05:53.778,AUTO,-35.3632621,149.1652375,1,-0.00039174186531454325,0.0012140137841925025,0.021008813753724098,0.00032899825600907207,0.00024378398666158319,0.0015575956786051393,0,1,-1000,1,0,0,0,0,0,287384.0
14:05:53.979,AUTO,-35.3632621,149.1652375,1,-0.00039174186531454325,0.0012140137841925025,0.021008813753724098,0.00032899825600907207,0.00024378398666158319,0.0015575956786051393,0,1,-1000,1,0,0,0,0,0,287384.0
14:05:54.181,AUTO,-35.3632621,149.1652375,0,-0.0003420543798711151,0.0012767806183546782,0.020939866080880165,0.00038897997001186013,0.0002543156733736396,0.0014028634177520871,0,1,-1000,0,1,0,0,0,0,287384.0
14:05:54.382,AUTO,-35.3632621,149.1652375,0,-0.0002857073559425771,0.0013397815637290478,0.020868618041276932,0.0003016312257386744,0.00023710104869678617,0.0014268705854192376,0,2,-1000,0,0,0,0,0,0,287384.0
14:05:54.583,AUTO,-35.3632621,149.1652375,0,-0.0002280254557263106,0.0014040316455066204,0.02080298401415348,0.00032471073791384697,0.00027816026704385877,0.0014143168227747083,0,1,-1000,0,1,0,0,0,0,287384.0
14:05:54.785,AUTO,-35.3632621,149.1652375,0,-0.0002280254557263106,0.0014040316455066204,0.02080298401415348,0.00032471073791384697,0.00027816026704385877,0.0014143168227747083,0,1,-1000,0,1,0,0,0,0,287384.0
14:05:54.986,AUTO,-35.3632621,149.1652375,0,-0.0002280254557263106,0.0014040316455066204,0.02080298401415348,0.00032471073791384697,0.00027816026704385877,0.0014143168227747083,0,1,-1000,0,1,0,0,0,0,287384.0
14:05:55.188,AUTO,-35.3632621,149.1652375,0,-0.0002280254557263106,0.0014040316455066204,0.02080298401415348,0.00032471073791384697,0.00027816026704385877,0.0014143168227747083,0,1,-1000,0,1,0,0,0,0,287384.0
14:05:55.389,AUTO,-35.3632621,149.1652375,0,-3.8719867006875575e-05,0.0016264704754576087,0.020594660192728043,0.00035122729605063796,0.0002094919327646494,0.0015011430950835347,0,2,-1000,1,1,0,0,0,0,287384.0
14:05:55.591,AUTO,-35.3632621,149.1652375,0,2.7995871278108098e-05,0.0017067866865545511,0.0204994585365057,0.000397691095713526,0.00039032002678141,0.0015076212584972382,0,1,-1000,1,0,1,0,0,0,287384.0
14:05:55.792,AUTO,-35.3632621,149.1652375,0,0.0011528173927217722,0.0011189073557034135,0.020405644550919533,0.0086721396073699,-0.009309696964919567,0.0024440758861601353,0,0,-1087,9,-8,1,0,0,-5,287384.0
14:05:55.993,AUTO,-35.3632621,149.1652375,0,0.0011528173927217722,0.0011189073557034135,0.020405644550919533,0.0086721396073699,-0.009309696964919567,0.0024440758861601353,0,0,-1087,9,-8,1,0,0,-5,287384.0
14:05:56.194,AUTO,-35.3632621,149.1652375,52,0.0037756566889584064,-0.0005606873892247677,0.020497849211096764,0.0077148908749222755,-0.0006758486852049828,0.002238702028989792,0,0,-1141,8,0,1,0,0,-38,287384.0
14:05:56.396,AUTO,-35.3632621,149.1652375,190,0.003092376282438636,0.00014103110879659653,0.02043648064136505,-0.004596289247274399,0.0047910744324326515,0.0008465693099424243,0,0,-1130,-3,5,0,0,0,-71,287384.0
14:05:56.598,AUTO,-35.3632621,149.1652375,403,0.0020983710419386625,0.0010981826344504952,0.020325154066085815,-0.005913563538342714,0.0030494178645312786,0.0008508018217980862,0,0,-1110,-5,3,0,0,0,-100,287384.0
14:05:56.800,AUTO,-35.3632621,149.1652375,403,0.0020983710419386625,0.0010981826344504952,0.020325154066085815,-0.005913563538342714,0.0030494178645312786,0.0008508018217980862,0,0,-1110,-5,3,0,0,0,-100,287384.0
14:05:57.002,AUTO,-35.3632621,149.1652375,403,0.0020983710419386625,0.0010981826344504952,0.020325154066085815,-0.005913563538342714,0.0030494178645312786,0.0008508018217980862,0,0,-1110,-5,3,0,0,0,-100,287384.0
14:05:57.203,AUTO,-35.3632621,149.1652375,403,0.0020983710419386625,0.0010981826344504952,0.020325154066085815,-0.005913563538342714,0.0030494178645312786,0.0008508018217980862,0,0,-1110,-5,3,0,0,0,-100,287384.0
14:05:57.405,AUTO,-35.363262,149.1652375,1385,0.023574553430080414,-0.0011015876661986113,0.019944002851843834,0.04701786860823631,-0.007485228590667248,0.0023374264128506184,0,0,-1017,47,-6,1,1,5,-144,287384.0
14:05:57.606,AUTO,-35.363262,149.1652377,1770,0.03523799031972885,-0.0031027409713715315,0.02008119970560074,0.04506135731935501,-0.008394717238843441,0.0029176436364650726,0,-1,-1007,45,-7,2,1,12,-146,300000.0
14:05:57.808,AUTO,-35.3632619,149.1652381,2151,0.04605485498905182,-0.0053623514249920845,0.02030799724161625,0.042141951620578766,-0.00984727032482624,0.0032484116964042187,0,-3,-1002,42,-9,2,3,21,-147,300000.0
14:05:58.009,AUTO,-35.3632619,149.1652381,2151,0.04605485498905182,-0.0053623514249920845,0.02030799724161625,0.042141951620578766,-0.00984727032482624,0.0032484116964042187,0,-3,-1002,42,-9,2,3,21,-147,300000.0
14:05:58.211,AUTO,-35.3632618,149.1652388,2534,0.056098610162734985,-0.008055451326072216,0.020523792132735252,0.03875577077269554,-0.01180148683488369,0.003525655949488282,0,-5,-1000,39,-11,3,5,31,-147,300000.0
14:05:58.412,AUTO,-35.3632616,149.1652398,2918,0.061731040477752686,-0.00829643476754427,-0.009696434251964092,-0.017278581857681274,0.028627201914787292,-0.047545500099658966,1,-8,-993,-16,29,-47,8,44,-146,300000.0
14:05:58.614,AUTO,-35.3632614,149.1652411,3297,0.039092715829610825,0.014608853496611118,-0.032858408987522125,-0.1460513174533844,0.0896078422665596,-0.09857398271560669,3,-10,-991,-145,90,-99,9,53,-144,300000.0
14:05:58.816,AUTO,-35.3632614,149.1652411,3297,0.039092715829610825,0.014608853496611118,-0.032858408987522125,-0.1460513174533844,0.0896078422665596,-0.09857398271560669,3,-10,-991,-145,90,-99,9,53,-144,300000.0
14:05:59.018,AUTO,-35.3632614,149.1652411,3297,0.039092715829610825,0.014608853496611118,-0.032858408987522125,-0.1460513174533844,0.0896078422665596,-0.09857398271560669,3,-10,-991,-145,90,-99,9,53,-144,300000.0
14:05:59.221,AUTO,-35.3632614,149.1652411,3297,0.039092715829610825,0.014608853496611118,-0.032858408987522125,-0.1460513174533844,0.0896078422665596,-0.09857398271560669,3,-10,-991,-145,90,-99,9,53,-144,300000.0
14:05:59.423,AUTO,-35.363261,149.165245,4430,-0.037568558007478714,0.023011425510048866,-0.08670450747013092,-0.049979519098997116,-0.02152242884039879,-0.04794928431510925,6,-7,-1003,-49,-20,-48,-2,35,-148,300000.0
14:05:59.625,AUTO,-35.3632609,149.1652459,4812,-0.05432764068245888,0.010946949012577534,-0.09036405384540558,-0.07893231511116028,-0.06634674221277237,0.005500710103660822,4,-6,-1000,-78,-65,5,-6,22,-148,300000.0
14:05:59.826,AUTO,-35.363261,149.1652463,5195,-0.0737200379371643,-0.007382591255009174,-0.08416299521923065,-0.05462770536541939,-0.060595590621232986,0.012536430731415749,3,-2,-1004,-53,-59,12,-6,5,-147,300000.0
14:06:00.029,AUTO,-35.3632611,149.1652461,5578,-0.0751364529132843,-0.012799638323485851,-0.08400687575340271,0.024129772558808327,0.000713629589881748,-0.006082118023186922,0,1,-1004,24,1,-6,-3,-14,-148,300000.0
14:06:00.231,AUTO,-35.3632611,149.1652461,5578,-0.0751364529132843,-0.012799638323485851,-0.08400687575340271,0.024129772558808327,0.000713629589881748,-0.006082118023186922,0,1,-1004,24,1,-6,-3,-14,-148,300000.0
14:06:00.433,AUTO,-35.3632612,149.1652455,5962,-0.0647561326622963,-0.01240819413214922,-0.08634454756975174,0.04953746125102043,0.0013055652379989624,-0.002855201018974185,-2,5,-1001,50,2,-3,-2,-31,-148,300000.0
14:06:00.636,AUTO,-35.3632613,149.1652446,6348,-0.0507817342877388,-0.011947514489293098,-0.08847276866436005,0.05824783071875572,0.0031517334282398224,-0.0003215625765733421,-3,6,-1000,58,3,0,-1,-44,-148,300000.0
14:06:00.839,AUTO,-35.3632613,149.1652446,6348,-0.0507817342877388,-0.011947514489293098,-0.08847276866436005,0.05824783071875572,0.0031517334282398224,-0.0003215625765733421,-3,6,-1000,58,3,0,-1,-44,-148,300000.0
14:06:01.048,AUTO,-35.3632613,149.1652446,6348,-0.0507817342877388,-0.011947514489293098,-0.08847276866436005,0.05824783071875572,0.0031517334282398224,-0.0003215625765733421,-3,6,-1000,58,3,0,-1,-44,-148,300000.0
14:06:01.251,AUTO,-35.3632613,149.1652446,6348,-0.0507817342877388,-0.011947514489293098,-0.08847276866436005,0.05824783071875572,0.0031517334282398224,-0.0003215625765733421,-3,6,-1000,58,3,0,-1,-44,-148,163038.0
14:06:01.453,AUTO,-35.3632613,149.16524,7496,-0.0039845919236540794,-0.003992775455117226,-0.08947478234767914,0.06488368660211563,0.015001971274614334,0.003402057569473982,-8,14,-1003,65,15,3,0,-59,-149,163038.0
14:06:01.655,AUTO,-35.3632614,149.1652384,7884,0.012331916950643063,-0.00017098418902605772,-0.08880668133497238,0.06619667261838913,0.015440418384969234,0.0038729968946427107,-7,10,-1004,66,15,3,-1,-56,-150,163038.0
14:06:01.857,AUTO,-35.3632614,149.1652369,8274,0.02865251898765564,0.0034967369865626097,-0.08785314857959747,0.06459877640008926,0.013891595415771008,0.0044031646102666855,-7,12,-1004,65,14,3,-2,-49,-151,163038.0
14:06:02.059,AUTO,-35.3632615,149.1652356,8665,0.044409867376089096,0.006456134840846062,-0.08665911853313446,0.06300445646047592,0.010462095029652119,0.004653275478631258,-5,7,-1003,63,11,4,-3,-38,-152,163038.0
14:06:02.260,AUTO,-35.3632615,149.1652356,8665,0.044409867376089096,0.006456134840846062,-0.08665911853313446,0.06300445646047592,0.010462095029652119,0.004653275478631258,-5,7,-1003,63,11,4,-3,-38,-152,163038.0
14:06:02.462,AUTO,-35.3632616,149.1652346,9058,0.05965455621480942,0.008378664031624794,-0.08541254699230194,0.059367675334215164,0.005639586132019758,0.0049218181520700455,-3,7,-1002,60,6,4,-4,-24,-152,163038.0
14:06:02.664,AUTO,-35.3632617,149.1652341,9451,0.06771613657474518,0.012760335579514503,-0.08768315613269806,-0.004456201568245888,0.02121734246611595,-0.010525303892791271,-1,4,-995,-3,21,-10,-6,-8,-151,163038.0
14:06:02.872,AUTO,-35.3632617,149.1652341,9451,0.06771613657474518,0.012760335579514503,-0.08768315613269806,-0.004456201568245888,0.02121734246611595,-0.010525303892791271,-1,4,-995,-3,21,-10,-6,-8,-151,163038.0
14:06:03.074,AUTO,-35.3632617,149.1652341,9451,0.06771613657474518,0.012760335579514503,-0.08768315613269806,-0.004456201568245888,0.02121734246611595,-0.010525303892791271,-1,4,-995,-3,21,-10,-6,-8,-151,163038.0
14:06:03.276,AUTO,-35.3632622,149.1652346,10605,0.01509576104581356,0.0013963752426207066,-0.0862807184457779,-0.0654725506901741,-0.020542088896036148,0.001959615619853139,3,-2,-1001,-64,-19,1,-7,21,-148,163038.0
14:06:03.478,AUTO,-35.3632622,149.1652346,10605,0.01509576104581356,0.0013963752426207066,-0.0862807184457779,-0.0654725506901741,-0.020542088896036148,0.001959615619853139,3,-2,-1001,-64,-19,1,-7,21,-148,163038.0
14:06:03.680,AUTO,-35.3632623,149.1652352,10992,0.0008897860534489155,-0.002683686325326562,-0.0870080515742302,-0.0445675328373909,-0.013815402053296566,-0.0057673645205795765,4,-4,-1003,-44,-13,-6,-6,21,-148,163038.0
14:06:03.881,AUTO,-35.3632625,149.1652357,11376,-0.008230556733906269,-0.005024104844778776,-0.0896829217672348,-0.030732151120901108,-0.005483610555529594,-0.01298139151185751,3,-2,-1002,-30,-4,-13,-3,18,-149,163038.0
14:06:04.083,AUTO,-35.3632625,149.1652361,11762,-0.013099730014801025,-0.005850185174494982,-0.09423333406448364,-0.009917378425598145,-0.0003461106098257005,-0.020575596019625664,2,-2,-1002,-9,0,-20,-1,13,-150,163038.0
14:06:04.284,AUTO,-35.3632625,149.1652363,12150,-0.014142443425953388,-0.005832045339047909,-0.09980085492134094,0.001933637890033424,-0.00024657370522618294,-0.02210289053618908,1,-2,-1002,2,0,-22,0,8,-150,163038.0
14:06:04.486,AUTO,-35.3632625,149.1652363,12150,-0.014142443425953388,-0.005832045339047909,-0.09980085492134094,0.001933637890033424,-0.00024657370522618294,-0.02210289053618908,1,-2,-1002,2,0,-22,0,8,-150,163038.0
14:06:04.688,AUTO,-35.3632625,149.1652365,12538,-0.012869457714259624,-0.005365804303437471,-0.10592835396528244,0.008186783641576767,0.00609559565782547,-0.026089876890182495,0,-1,-1001,8,6,-26,1,4,-151,163038.0
14:06:04.889,AUTO,-35.3632625,149.1652365,12538,-0.012869457714259624,-0.005365804303437471,-0.10592835396528244,0.008186783641576767,0.00609559565782547,-0.026089876890182495,0,-1,-1001,8,6,-26,1,4,-151,163038.0
14:06:05.092,AUTO,-35.3632625,149.1652365,12538,-0.012869457714259624,-0.005365804303437471,-0.10592835396528244,0.008186783641576767,0.00609559565782547,-0.026089876890182495,0,-1,-1001,8,6,-26,1,4,-151,163038.0
14:06:05.294,AUTO,-35.3632624,149.1652364,13702,-0.002729913219809532,-0.0014995409874245524,-0.12437038868665695,0.014586804434657097,0.008925794623792171,-0.022384392097592354,-1,0,-1000,15,9,-22,4,-4,-151,123494.0
14:06:05.495,AUTO,-35.3632624,149.1652364,13702,-0.002729913219809532,-0.0014995409874245524,-0.12437038868665695,0.014586804434657097,0.008925794623792171,-0.022384392097592354,-1,0,-1000,15,9,-22,4,-4,-151,123494.0
14:06:05.697,AUTO,-35.3632622,149.1652363,14091,0.0010240181582048535,0.0006699220393784344,-0.13057880103588104,0.016123048961162567,0.008643776178359985,-0.0220065638422966,-1,0,-1000,16,9,-22,4,-5,-151,123494.0
14:06:05.898,AUTO,-35.3632621,149.1652361,14481,0.0039040842093527317,0.002527786884456873,-0.13628490269184113,0.00952844973653555,0.006576620973646641,-0.01967020519077778,-2,0,-999,10,7,-19,4,-5,-151,123494.0
14:06:06.100,AUTO,-35.363262,149.1652359,14871,0.0066855777986347675,0.004046513233333826,-0.1415436565876007,0.011360491625964642,0.006199451629072428,-0.019677435979247093,-2,0,-1000,12,6,-20,3,-4,-151,123494.0
14:06:06.301,AUTO,-35.3632619,149.1652357,15260,0.008507107384502888,0.005175353493541479,-0.14618545770645142,0.008435141295194626,0.0038669114001095295,-0.017267953604459763,-1,0,-1000,9,4,-17,2,-3,-151,123494.0
14:06:06.503,AUTO,-35.3632619,149.1652357,15260,0.008507107384502888,0.005175353493541479,-0.14618545770645142,0.008435141295194626,0.0038669114001095295,-0.017267953604459763,-1,0,-1000,9,4,-17,2,-3,-151,123494.0
14:06:06.705,AUTO,-35.3632618,149.1652356,15654,0.00954084750264883,0.006023640278726816,-0.15053698420524597,0.00325252884067595,0.004696262069046497,-0.01731596700847149,-1,0,-999,3,5,-17,1,-1,-151,123494.0
14:06:06.907,AUTO,-35.3632618,149.1652356,15654,0.00954084750264883,0.006023640278726816,-0.15053698420524597,0.00325252884067595,0.004696262069046497,-0.01731596700847149,-1,0,-999,3,5,-17,1,-1,-151,123494.0
14:06:07.109,AUTO,-35.3632618,149.1652356,15654,0.00954084750264883,0.006023640278726816,-0.15053698420524597,0.00325252884067595,0.004696262069046497,-0.01731596700847149,-1,0,-999,3,5,-17,1,-1,-151,123494.0
14:06:07.311,AUTO,-35.3632617,149.1652354,16818,0.008974038995802402,0.00651472806930542,-0.1614106148481369,-0.0009554641437716782,-0.0006925631896592677,-0.011540008708834648,0,0,-1000,0,0,-11,0,2,-151,123494.0
14:06:07.512,AUTO,-35.3632616,149.1652354,17208,0.008305178955197334,0.006074013188481331,-0.16460959613323212,-0.0006835268577560782,-0.0015904806787148118,-0.012952846474945545,0,0,-1000,0,0,-13,-1,4,-151,123494.0
14:06:07.713,AUTO,-35.3632616,149.1652354,17208,0.008305178955197334,0.006074013188481331,-0.16460959613323212,-0.0006835268577560782,-0.0015904806787148118,-0.012952846474945545,0,0,-1000,0,0,-13,-1,4,-151,123494.0
14:06:07.915,AUTO,-35.3632616,149.1652354,17597,0.00723622553050518,0.00586484232917428,-0.1680959016084671,-0.006128270644694567,-0.00035825459053739905,-0.013341309502720833,0,0,-999,-5,0,-13,-1,5,-151,123494.0
14:06:08.117,AUTO,-35.3632616,149.1652355,17986,0.005982250906527042,0.005553707014769316,-0.17172937095165253,-0.004419771954417229,-0.001451757736504078,-0.015133542940020561,0,0,-1000,-3,0,-15,-2,5,-151,123494.0
14:06:08.319,AUTO,-35.3632616,149.1652356,18376,0.005128384567797184,0.005189754068851471,-0.1755879521369934,0.00022113800514489412,0.0004569709999486804,-0.01613318920135498,0,0,-1000,0,0,-16,-2,6,-152,123494.0
14:06:08.522,AUTO,-35.3632616,149.1652357,18766,0.004561965819448233,0.004751980770379305,-0.17942366003990173,-0.00113778212107718,-0.0008531456114724278,-0.013355444185435772,0,0,-1000,0,0,-13,-2,6,-152,123494.0
14:06:08.724,AUTO,-35.3632616,149.1652357,18766,0.004561965819448233,0.004751980770379305,-0.17942366003990173,-0.00113778212107718,-0.0008531456114724278,-0.013355444185435772,0,0,-1000,0,0,-13,-2,6,-152,123494.0
14:06:08.926,AUTO,-35.3632616,149.1652357,18766,0.004561965819448233,0.004751980770379305,-0.17942366003990173,-0.00113778212107718,-0.0008531456114724278,-0.013355444185435772,0,0,-1000,0,0,-13,-2,6,-152,123494.0
14:06:09.128,AUTO,-35.3632616,149.1652357,18766,0.004561965819448233,0.004751980770379305,-0.17942366003990173,-0.00113778212107718,-0.0008531456114724278,-0.013355444185435772,0,0,-1000,0,0,-13,-2,6,-152,200.0
14:06:09.330,AUTO,-35.3632617,149.1652357,19925,-0.0437803752720356,0.007118030916899443,-0.18657635152339935,-0.05733020603656769,0.049854252487421036,0.0758943110704422,-1,0,-985,-56,50,75,-5,-6,-148,200.0
14:06:09.532,AUTO,-35.3632618,149.1652354,20303,-0.048925381153821945,0.031183544546365738,-0.1352481096982956,-0.008842704817652702,0.10113992542028427,0.3254564702510834,0,2,-981,-8,102,325,-11,-17,-144,200.0
14:06:09.733,AUTO,-35.3632618,149.1652354,20303,-0.048925381153821945,0.031183544546365738,-0.1352481096982956,-0.008842704817652702,0.10113992542028427,0.3254564702510834,0,2,-981,-8,102,325,-11,-17,-144,200.0
14:06:09.936,AUTO,-35.3632621,149.1652348,20665,-0.046847034245729446,0.05488232523202896,-0.026405947282910347,0.01816328428685665,0.006627470254898071,0.44580966234207153,0,6,-967,18,7,445,-22,-27,-138,200.0
14:06:10.139,AUTO,-35.3632627,149.1652338,21006,-0.020066604018211365,0.030482668429613113,0.05616705119609833,0.12393558770418167,-0.17239847779273987,0.2182677537202835,0,8,-954,124,-171,217,-32,-34,-127,200.0
14:06:10.341,AUTO,-35.3632633,149.1652329,21318,0.01369999535381794,-0.01064393762499094,0.08582760393619537,0.12510283291339874,-0.13731640577316284,0.04107680544257164,2,11,-956,125,-136,40,-32,-33,-116,200.0
14:06:10.543,AUTO,-35.363264,149.165232,21603,0.039812494069337845,-0.03381430730223656,0.08451302349567413,0.0845068171620369,-0.058140937238931656,-0.03404124826192856,2,8,-959,85,-57,-34,-26,-24,-105,200.0
14:06:10.745,AUTO,-35.363264,149.165232,21603,0.039812494069337845,-0.03381430730223656,0.08451302349567413,0.0845068171620369,-0.058140937238931656,-0.03404124826192856,2,8,-959,85,-57,-34,-26,-24,-105,200.0
14:06:10.947,AUTO,-35.363264,149.165232,21603,0.039812494069337845,-0.03381430730223656,0.08451302349567413,0.0845068171620369,-0.058140937238931656,-0.03404124826192856,2,8,-959,85,-57,-34,-26,-24,-105,200.0
14:06:11.149,AUTO,-35.363264,149.165232,21603,0.039812494069337845,-0.03381430730223656,0.08451302349567413,0.0845068171620369,-0.058140937238931656,-0.03404124826192856,2,8,-959,85,-57,-34,-26,-24,-105,200.0
14:06:11.351,AUTO,-35.3632647,149.1652314,22304,0.05488875135779381,-0.03479152172803879,0.057750776410102844,-0.022726889699697495,0.027272799983620644,-0.015453157015144825,1,-1,-969,-21,28,-15,0,15,-78,200.0
14:06:11.553,AUTO,-35.3632647,149.1652318,22495,0.04694143310189247,-0.02674682065844536,0.05529218539595604,-0.04314742982387543,0.03617791831493378,-0.004304729402065277,0,-5,-972,-42,36,-4,8,26,-70,200.0
14:06:11.754,AUTO,-35.3632647,149.1652318,22495,0.04694143310189247,-0.02674682065844536,0.05529218539595604,-0.04314742982387543,0.03617791831493378,-0.004304729402065277,0,-5,-972,-42,36,-4,8,26,-70,200.0
14:06:11.956,AUTO,-35.3632644,149.1652325,22668,0.03584269806742668,-0.01730763539671898,0.05460629612207413,-0.04657510668039322,0.038415707647800446,0.0014361481880769134,0,-7,-976,-45,39,1,13,33,-64,200.0
14:06:12.159,AUTO,-35.3632641,149.1652334,22824,0.0246275682002306,-0.008565852418541908,0.054202497005462646,-0.03958369418978691,0.034359414130449295,0.00013113714521750808,1,-10,-976,-38,35,0,17,38,-58,200.0
14:06:12.363,AUTO,-35.3632636,149.1652344,22967,0.014574030414223671,-0.000609164999332279,0.0538356639444828,-0.04468569532036781,0.02791973575949669,0.0014079437823966146,0,-9,-977,-43,28,1,18,39,-52,200.0
14:06:12.565,AUTO,-35.3632632,149.1652355,23093,0.0057085007429122925,0.005238322541117668,0.053261641412973404,-0.03291485831141472,0.023022497072815895,0.0003032883396372199,-1,-9,-977,-32,23,0,18,38,-46,200.0
14:06:12.776,AUTO,-35.3632632,149.1652355,23093,0.0057085007429122925,0.005238322541117668,0.053261641412973404,-0.03291485831141472,0.023022497072815895,0.0003032883396372199,-1,-9,-977,-32,23,0,18,38,-46,200.0
14:06:12.977,AUTO,-35.3632632,149.1652355,23093,0.0057085007429122925,0.005238322541117668,0.053261641412973404,-0.03291485831141472,0.023022497072815895,0.0003032883396372199,-1,-9,-977,-32,23,0,18,38,-46,200.0
14:06:13.179,AUTO,-35.3632632,149.1652355,23093,0.0057085007429122925,0.005238322541117668,0.053261641412973404,-0.03291485831141472,0.023022497072815895,0.0003032883396372199,-1,-9,-977,-32,23,0,18,38,-46,200.0
14:06:13.381,AUTO,-35.363262,149.1652381,23383,-0.009686581790447235,0.014674930833280087,0.050368282943964005,-0.008171575143933296,0.005784829147160053,-0.0027878519613295794,0,-7,-975,-7,6,-2,12,27,-29,200.0
14:06:13.582,AUTO,-35.3632617,149.1652388,23449,-0.011465746909379959,0.014993623830378056,0.04944579303264618,-0.0031434304546564817,0.0003496914287097752,-0.0020124996080994606,0,-6,-974,-2,1,-2,10,22,-23,200.0
14:06:13.784,AUTO,-35.3632615,149.1652394,23498,-0.012373382225632668,0.014405881986021996,0.04863330349326134,-0.010363339446485043,-0.0034084192011505365,-0.003639365080744028,0,-4,-972,-9,-2,-3,7,17,-16,200.0
14:06:13.985,AUTO,-35.3632615,149.1652394,23498,-0.012373382225632668,0.014405881986021996,0.04863330349326134,-0.010363339446485043,-0.0034084192011505365,-0.003639365080744028,0,-4,-972,-9,-2,-3,7,17,-16,200.0
14:06:14.187,AUTO,-35.3632613,149.1652398,23529,-0.01218830794095993,0.013141638599336147,0.04781928285956383,0.017428327351808548,-0.006569422781467438,-0.0037885040510445833,0,-2,-968,18,-5,-4,4,13,-9,200.0
14:06:14.389,AUTO,-35.3632612,149.16524,23539,-0.02283904328942299,0.016176320612430573,0.04655404016375542,-0.3933907449245453,0.14791239798069,-0.012841575779020786,-4,-15,-944,-393,148,-13,2,8,0,200.0
14:06:14.591,AUTO,-35.3632612,149.1652401,23514,-0.05218031629920006,0.02488810196518898,0.045241788029670715,-0.1588537096977234,-0.03811652958393097,-0.00696788914501667,0,5,-969,-157,-37,-7,-2,-1,15,200.0
14:06:14.793,AUTO,-35.3632612,149.1652401,23514,-0.05218031629920006,0.02488810196518898,0.045241788029670715,-0.1588537096977234,-0.03811652958393097,-0.00696788914501667,0,5,-969,-157,-37,-7,-2,-1,15,200.0
14:06:14.995,AUTO,-35.3632612,149.1652401,23514,-0.05218031629920006,0.02488810196518898,0.045241788029670715,-0.1588537096977234,-0.03811652958393097,-0.00696788914501667,0,5,-969,-157,-37,-7,-2,-1,15,200.0
14:06:15.197,AUTO,-35.3632612,149.1652401,23514,-0.05218031629920006,0.02488810196518898,0.045241788029670715,-0.1588537096977234,-0.03811652958393097,-0.00696788914501667,0,5,-969,-157,-37,-7,-2,-1,15,200.0
14:06:15.399,AUTO,-35.3632612,149.1652389,23359,-0.020838694646954536,-0.02482355758547783,0.0434197336435318,-0.08890516310930252,-0.045043595135211945,0.002088790526613593,-3,-21,-1013,-89,-44,1,0,-26,15,200.0
14:06:15.601,AUTO,-35.3632612,149.1652381,23322,-0.02946355938911438,-0.03496813401579857,0.04166966676712036,-0.6531354784965515,-0.036945413798093796,-0.003902065334841609,-4,-28,-1019,-652,-36,-4,7,-32,10,200.0
14:06:15.802,AUTO,-35.3632609,149.1652372,23298,-0.03397497162222862,-0.042482804507017136,0.04094472527503967,-0.1894168108701706,-0.032824885100126266,-0.01129293255507946,-8,12,-1017,-187,-31,-11,15,-36,5,200.0
14:06:16.004,AUTO,-35.3632609,149.1652372,23298,-0.03397497162222862,-0.042482804507017136,0.04094472527503967,-0.1894168108701706,-0.032824885100126266,-0.01129293255507946,-8,12,-1017,-187,-31,-11,15,-36,5,200.0
14:06:16.205,AUTO,-35.3632605,149.1652362,23284,-0.026461269706487656,-0.0506550669670105,0.03996657207608223,0.5875760316848755,-0.032741013914346695,-0.008898410014808178,-10,34,-1015,588,-31,-9,25,-41,2,200.0
14:06:16.407,AUTO,-35.3632598,149.165235,23276,-0.02788059040904045,-0.05856145918369293,0.03415092080831528,0.21607328951358795,-0.030162055045366287,-0.09234058111906052,-12,1,-1008,216,-29,-92,36,-49,0,200.0
14:06:16.609,AUTO,-35.3632589,149.1652337,23272,-0.03689004108309746,-0.0687873587012291,-0.05961861088871956,-0.5620280504226685,-0.00018017040565609932,-0.6445479989051819,-19,-28,-1002,-561,0,-644,48,-57,0,200.0
14:06:16.812,AUTO,-35.3632589,149.1652337,23272,-0.03689004108309746,-0.0687873587012291,-0.05961861088871956,-0.5620280504226685,-0.00018017040565609932,-0.6445479989051819,-19,-28,-1002,-561,0,-644,48,-57,0,200.0
14:06:17.014,AUTO,-35.3632589,149.1652337,23272,-0.03689004108309746,-0.0687873587012291,-0.05961861088871956,-0.5620280504226685,-0.00018017040565609932,-0.6445479989051819,-19,-28,-1002,-561,0,-644,48,-57,0,200.0
14:06:17.216,AUTO,-35.3632589,149.1652337,23272,-0.03689004108309746,-0.0687873587012291,-0.05961861088871956,-0.5620280504226685,-0.00018017040565609932,-0.6445479989051819,-19,-28,-1002,-561,0,-644,48,-57,0,244439.0
14:06:17.418,AUTO,-35.3632543,149.1652284,23269,0.021995168179273605,-0.10670424997806549,-0.725430428981781,0.3197071850299835,-0.04010019823908806,-0.3594241142272949,-24,-4,-1013,320,-39,-359,89,-86,-1,244439.0
14:06:17.620,AUTO,-35.3632522,149.165226,23271,0.01692225970327854,-0.11820879578590393,-0.758743405342102,-0.362567275762558,-0.05733014643192291,0.02003948949277401,-30,-48,-991,-362,-56,19,104,-101,-1,244439.0
14:06:17.822,AUTO,-35.3632497,149.1652232,23271,0.013572813011705875,-0.13158868253231049,-0.7364595532417297,-0.3146325349807739,-0.05891444906592369,0.11400441825389862,-32,-27,-1006,-313,-57,113,121,-115,0,244439.0
14:06:18.024,AUTO,-35.3632469,149.16522,23269,0.023504752665758133,-0.1436191350221634,-0.7067463397979736,0.3443046808242798,-0.04436756670475006,0.0881757140159607,-38,1,-1004,345,-43,87,139,-131,0,244439.0
14:06:18.226,AUTO,-35.3632469,149.16522,23269,0.023504752665758133,-0.1436191350221634,-0.7067463397979736,0.3443046808242798,-0.04436756670475006,0.0881757140159607,-38,1,-1004,345,-43,87,139,-131,0,244439.0
14:06:18.429,AUTO,-35.3632436,149.1652163,23265,0.03199731558561325,-0.1559276133775711,-0.6870331764221191,0.3454022705554962,-0.050505220890045166,0.06433043628931046,-43,-21,-996,345,-49,64,158,-149,1,244439.0
14:06:18.632,AUTO,-35.3632399,149.1652121,23260,0.026940224692225456,-0.16779078543186188,-0.6805412769317627,-0.3157549202442169,-0.04989418014883995,0.024039778858423233,-47,-53,-1004,-315,-49,23,179,-167,1,244439.0
14:06:18.835,AUTO,-35.3632399,149.1652121,23260,0.026940224692225456,-0.16779078543186188,-0.6805412769317627,-0.3157549202442169,-0.04989418014883995,0.024039778858423233,-47,-53,-1004,-315,-49,23,179,-167,1,244439.0
14:06:19.038,AUTO,-35.3632399,149.1652121,23260,0.026940224692225456,-0.16779078543186188,-0.6805412769317627,-0.3157549202442169,-0.04989418014883995,0.024039778858423233,-47,-53,-1004,-315,-49,23,179,-167,1,244439.0
14:06:19.240,AUTO,-35.3632399,149.1652121,23260,0.026940224692225456,-0.16779078543186188,-0.6805412769317627,-0.3157549202442169,-0.04989418014883995,0.024039778858423233,-47,-53,-1004,-315,-49,23,179,-167,1,244439.0
14:06:19.442,AUTO,-35.3632258,149.1651965,23243,0.04044703021645546,-0.17697477340698242,-0.6887406706809998,-0.05812106281518936,-0.004916933830827475,-0.008269762620329857,-66,-54,-1004,-57,-4,-8,244,-222,0,244439.0
14:06:19.644,AUTO,-35.3632202,149.1651902,23240,0.042435888200998306,-0.17967569828033447,-0.6911046504974365,-0.10923171043395996,-0.01880032755434513,-0.0037654503248631954,-67,-49,-1001,-108,-17,-3,264,-238,0,244439.0
14:06:19.847,AUTO,-35.363214,149.1651834,23237,0.05041477084159851,-0.18575610220432281,-0.6926255822181702,0.15090954303741455,-0.03041961044073105,-0.0003531750990077853,-78,-43,-1000,151,-29,0,284,-255,1,244439.0
14:06:20.050,AUTO,-35.3632075,149.1651763,23232,0.051250047981739044,-0.1926867514848709,-0.6932072043418884,-0.05186442658305168,-0.019767748191952705,0.0054588355123996735,-82,-54,-998,-51,-18,5,304,-271,1,244439.0
14:06:20.252,AUTO,-35.3632075,149.1651763,23232,0.051250047981739044,-0.1926867514848709,-0.6932072043418884,-0.05186442658305168,-0.019767748191952705,0.0054588355123996735,-82,-54,-998,-51,-18,5,304,-271,1,244439.0
14:06:20.454,AUTO,-35.3632005,149.1651686,23225,0.05164335295557976,-0.19539719820022583,-0.6936420202255249,-0.05997756868600845,0.008328217081725597,0.0021506273187696934,-90,-50,-1003,-59,9,2,325,-288,2,244439.0
14:06:20.657,AUTO,-35.363193,149.1651605,23218,0.0567246712744236,-0.19835636019706726,-0.6943250298500061,0.0918239876627922,-0.025083797052502632,-0.006009573116898537,-94,-52,-1001,92,-24,-6,345,-306,2,244439.0
14:06:20.859,AUTO,-35.363193,149.1651605,23218,0.0567246712744236,-0.19835636019706726,-0.6943250298500061,0.0918239876627922,-0.025083797052502632,-0.006009573116898537,-94,-52,-1001,92,-24,-6,345,-306,2,244439.0
14:06:21.061,AUTO,-35.363193,149.1651605,23218,0.0567246712744236,-0.19835636019706726,-0.6943250298500061,0.0918239876627922,-0.025083797052502632,-0.006009573116898537,-94,-52,-1001,92,-24,-6,345,-306,2,244439.0
14:06:21.263,AUTO,-35.363193,149.1651605,23218,0.0567246712744236,-0.19835636019706726,-0.6943250298500061,0.0918239876627922,-0.025083797052502632,-0.006009573116898537,-94,-52,-1001,92,-24,-6,345,-306,2,215001.0
14:06:21.465,AUTO,-35.363168,149.1651331,23192,0.06608391553163528,-0.20577311515808105,-0.6975089311599731,0.0034893834963440895,0.039990440011024475,0.0007283366867341101,-101,-58,-1006,4,40,0,404,-356,1,215001.0
14:06:21.667,AUTO,-35.3631588,149.1651231,23189,0.06790689378976822,-0.1966271847486496,-0.6975717544555664,0.07099855691194534,0.03910433501005173,-0.0020721189212054014,-112,-52,-1004,71,39,-2,422,-370,0,215001.0
14:06:21.869,AUTO,-35.3631492,149.1651127,23191,0.07072411477565765,-0.18925082683563232,-0.6986390948295593,0.0021163986530154943,0.017795395106077194,-0.0005287727108225226,-116,-68,-1001,2,18,0,437,-382,-2,215001.0
14:06:22.071,AUTO,-35.3631392,149.1651019,23197,0.07268917560577393,-0.18476764857769012,-0.6987718939781189,0.0032138503156602383,0.028471078723669052,0.0019681411795318127,-127,-71,-1003,3,29,1,450,-394,-3,215001.0
14:06:22.275,AUTO,-35.363129,149.1650908,23207,0.07759664207696915,-0.177321195602417,-0.6995519995689392,0.028815992176532745,0.019392922520637512,-0.004071364179253578,-129,-67,-995,29,20,-4,461,-403,-5,215001.0
14:06:22.477,AUTO,-35.363129,149.1650908,23207,0.07759664207696915,-0.177321195602417,-0.6995519995689392,0.028815992176532745,0.019392922520637512,-0.004071364179253578,-129,-67,-995,29,20,-4,461,-403,-5,215001.0
14:06:22.679,AUTO,-35.3631185,149.1650795,23218,0.07886143773794174,-0.16898773610591888,-0.6998185515403748,0.0032003349624574184,0.0357721745967865,-0.0008477120427414775,-110,-68,-991,3,36,0,473,-413,-5,215001.0
14:06:22.880,AUTO,-35.3631185,149.1650795,23218,0.07886143773794174,-0.16898773610591888,-0.6998185515403748,0.0032003349624574184,0.0357721745967865,-0.0008477120427414775,-110,-68,-991,3,36,0,473,-413,-5,215001.0
14:06:23.082,AUTO,-35.3631185,149.1650795,23218,0.07886143773794174,-0.16898773610591888,-0.6998185515403748,0.0032003349624574184,0.0357721745967865,-0.0008477120427414775,-110,-68,-991,3,36,0,473,-413,-5,215001.0
14:06:23.285,AUTO,-35.3630859,149.1650444,23248,0.07814396917819977,-0.1625688523054123,-0.699472188949585,-0.04611564427614212,0.04213902726769447,0.0002175377740059048,-124,-37,-985,-45,42,0,497,-429,-2,215001.0
14:06:23.487,AUTO,-35.3630859,149.1650444,23248,0.07814396917819977,-0.1625688523054123,-0.699472188949585,-0.04611564427614212,0.04213902726769447,0.0002175377740059048,-124,-37,-985,-45,42,0,497,-429,-2,215001.0
14:06:23.689,AUTO,-35.3630746,149.1650324,23256,0.08067139983177185,-0.1526089608669281,-0.6996640563011169,0.04639152064919472,0.05393131449818611,-0.014692793600261211,-125,-69,-988,46,54,-14,502,-435,-3,215001.0
14:06:23.890,AUTO,-35.3630633,149.1650202,23265,0.08114346861839294,-0.14781156182289124,-0.7000966668128967,-0.04534856230020523,-0.0026334235444664955,0.0002545961760915816,-130,-75,-986,-44,-1,0,505,-438,-4,215001.0
14:06:24.092,AUTO,-35.363052,149.165008,23275,0.08208968490362167,-0.14840278029441833,-0.7007533311843872,-0.0025137625634670258,0.023689964786171913,-0.006273698527365923,-129,-67,-977,-1,24,-6,508,-440,-2,215001.0
14:06:24.294,AUTO,-35.3630405,149.1649957,23281,0.08327103406190872,-0.1387200653553009,-0.7010334134101868,0.0047096977941691875,0.06972503662109375,0.0037782983854413033,-130,-73,-991,5,70,3,510,-442,-2,215001.0
14:06:24.496,AUTO,-35.3630405,149.1649957,23281,0.08327103406190872,-0.1387200653553009,-0.7010334134101868,0.0047096977941691875,0.06972503662109375,0.0037782983854413033,-130,-73,-991,5,70,3,510,-442,-2,215001.0
14:06:24.698,AUTO,-35.3630291,149.1649834,23290,0.08735055476427078,-0.1273808479309082,-0.7007259130477905,0.02993370033800602,0.035862043499946594,0.0019525418756529689,-133,-78,-991,30,36,1,510,-443,-4,215001.0
14:06:24.900,AUTO,-35.3630291,149.1649834,23290,0.08735055476427078,-0.1273808479309082,-0.7007259130477905,0.02993370033800602,0.035862043499946594,0.0019525418756529689,-133,-78,-991,30,36,1,510,-443,-4,215001.0
14:06:25.102,AUTO,-35.3630291,149.1649834,23290,0.08735055476427078,-0.1273808479309082,-0.7007259130477905,0.02993370033800602,0.035862043499946594,0.0019525418756529689,-133,-78,-991,30,36,1,510,-443,-4,215001.0
14:06:25.304,AUTO,-35.3629948,149.1649466,23304,0.08724747598171234,-0.13517217338085175,-0.7028620839118958,-0.020155224949121475,-0.014402058906853199,0.0003403324808459729,-140,-78,-982,-19,-13,0,508,-440,2,200.0
14:06:25.507,AUTO,-35.3629948,149.1649466,23304,0.08724747598171234,-0.13517217338085175,-0.7028620839118958,-0.020155224949121475,-0.014402058906853199,0.0003403324808459729,-140,-78,-982,-19,-13,0,508,-440,2,200.0
14:06:25.708,AUTO,-35.3629834,149.1649344,23295,0.08696900308132172,-0.13839469850063324,-0.7034972906112671,0.008671506308019161,0.02719518542289734,-0.013397186994552612,-145,-77,-987,9,27,-13,510,-442,4,200.0
14:06:25.910,AUTO,-35.3629718,149.164922,23285,0.08709976822137833,-0.13899672031402588,-0.7043441534042358,-0.010306301526725292,-0.01852801814675331,-0.009817010723054409,-136,-81,-988,-9,-17,-10,510,-443,4,200.0
14:06:26.112,AUTO,-35.3629602,149.1649097,23273,0.08423419296741486,-0.14045235514640808,-0.704153299331665,0.007576024625450373,0.008051077835261822,0.0026217810809612274,-145,-94,-1000,8,8,2,512,-444,4,200.0
14:06:26.314,AUTO,-35.3629487,149.1648975,23262,0.07948293536901474,-0.1399192214012146,-0.7036216855049133,0.0034319953992962837,-0.005661634262651205,-0.0035194694064557552,-142,-93,-993,4,-4,-3,513,-445,4,200.0
14:06:26.516,AUTO,-35.3629487,149.1648975,23262,0.07948293536901474,-0.1399192214012146,-0.7036216855049133,0.0034319953992962837,-0.005661634262651205,-0.0035194694064557552,-142,-93,-993,4,-4,-3,513,-445,4,200.0
14:06:26.718,AUTO,-35.3629371,149.1648851,23251,0.08281943202018738,-0.1389807015657425,-0.7047260403633118,0.032944224774837494,0.03230457007884979,-0.006449732929468155,-148,-75,-1001,33,32,-6,514,-447,3,200.0
14:06:26.920,AUTO,-35.3629371,149.1648851,23251,0.08281943202018738,-0.1389807015657425,-0.7047260403633118,0.032944224774837494,0.03230457007884979,-0.006449732929468155,-148,-75,-1001,33,32,-6,514,-447,3,200.0
14:06:27.122,AUTO,-35.3629371,149.1648851,23251,0.08281943202018738,-0.1389807015657425,-0.7047260403633118,0.032944224774837494,0.03230457007884979,-0.006449732929468155,-148,-75,-1001,33,32,-6,514,-447,3,200.0
14:06:27.325,AUTO,-35.3629024,149.1648479,23240,0.0816887840628624,-0.13352905213832855,-0.7059112191200256,-0.016578294336795807,0.005735696293413639,0.0007916836766526103,-123,-64,-982,-15,6,0,516,-449,1,200.0
14:06:27.526,AUTO,-35.3628907,149.1648355,23237,0.07924140244722366,-0.13380159437656403,-0.7054624557495117,0.07381824404001236,0.003087372053414583,-0.00943282712250948,-130,-80,-986,74,3,-9,516,-450,1,200.0
14:06:27.729,AUTO,-35.3628907,149.1648355,23237,0.07924140244722366,-0.13380159437656403,-0.7054624557495117,0.07381824404001236,0.003087372053414583,-0.00943282712250948,-130,-80,-986,74,3,-9,516,-450,1,200.0
14:06:27.932,AUTO,-35.3628791,149.1648231,23234,0.0814414992928505,-0.1321064829826355,-0.7060944437980652,-0.00772874103859067,0.008890104480087757,-0.006253760773688555,-108,-102,-979,-6,9,-6,515,-452,1,200.0
14:06:28.134,AUTO,-35.3628676,149.1648106,23232,0.08472146838903427,-0.1305648237466812,-0.707490086555481,-0.025664357468485832,-0.017028843984007835,-0.0005797643680125475,-140,-79,-990,-24,-16,0,514,-451,0,200.0
14:06:28.339,AUTO,-35.362856,149.1647981,23230,0.08347171545028687,-0.13417550921440125,-0.7079980373382568,0.0019706108141690493,0.00613794568926096,-0.0007172353216446936,-127,-70,-979,2,6,0,514,-451,2,200.0
14:06:28.542,AUTO,-35.3628444,149.1647856,23227,0.08318855613470078,-0.12382154911756516,-0.7073039412498474,-0.014822248369455338,0.060987528413534164,0.002295549027621746,-134,-82,-999,-13,61,2,514,-451,0,200.0
14:06:28.744,AUTO,-35.3628444,149.1647856,23227,0.08318855613470078,-0.12382154911756516,-0.7073039412498474,-0.014822248369455338,0.060987528413534164,0.002295549027621746,-134,-82,-999,-13,61,2,514,-451,0,200.0
14:06:28.946,AUTO,-35.3628444,149.1647856,23227,0.08318855613470078,-0.12382154911756516,-0.7073039412498474,-0.014822248369455338,0.060987528413534164,0.002295549027621746,-134,-82,-999,-13,61,2,514,-451,0,200.0
14:06:29.149,AUTO,-35.3628444,149.1647856,23227,0.08318855613470078,-0.12382154911756516,-0.7073039412498474,-0.014822248369455338,0.060987528413534164,0.002295549027621746,-134,-82,-999,-13,61,2,514,-451,0,200.0
14:06:29.352,AUTO,-35.3628101,149.1647485,23264,0.08836537599563599,-0.0781983807682991,-0.7077880501747131,0.007636141963303089,0.04831231012940407,-0.012537267990410328,-119,-82,-984,8,49,-12,497,-436,-6,289075.0
14:06:29.554,AUTO,-35.362799,149.1647364,23282,0.08921077102422714,-0.06531407684087753,-0.7073938846588135,-0.002094958908855915,0.057895105332136154,-0.005957843270152807,-125,-84,-988,-1,58,-6,486,-427,-6,289075.0
14:06:29.757,AUTO,-35.362799,149.1647364,23282,0.08921077102422714,-0.06531407684087753,-0.7073938846588135,-0.002094958908855915,0.057895105332136154,-0.005957843270152807,-125,-84,-988,-1,58,-6,486,-427,-6,289075.0
14:06:29.958,AUTO,-35.3627882,149.1647247,23299,0.08928366750478745,-0.05343565717339516,-0.7071456909179688,-0.014408105053007603,0.04738163203001022,-0.003740015672519803,-126,-82,-988,-13,48,-3,474,-416,-5,289075.0
14:06:30.160,AUTO,-35.3627776,149.1647133,23313,0.08711347728967667,-0.04264857620000839,-0.7061414122581482,0.020076315850019455,0.04497898370027542,-0.0017556938109919429,-116,-70,-983,20,45,-1,463,-403,-3,289075.0
14:06:30.363,AUTO,-35.3627674,149.1647023,23323,0.08547400683164597,-0.03311113268136978,-0.7062791585922241,-0.00204502884298563,0.0377512201666832,-0.0028693240601569414,-116,-79,-984,-1,38,-3,448,-390,-1,289075.0
14:06:30.565,AUTO,-35.3627574,149.1646916,23328,0.08465506881475449,-0.02199135534465313,-0.7066810131072998,-0.022809308022260666,0.053035151213407516,-0.003834920469671488,-114,-75,-989,-22,53,-3,432,-376,0,289075.0
14:06:30.767,AUTO,-35.3627574,149.1646916,23328,0.08465506881475449,-0.02199135534465313,-0.7066810131072998,-0.022809308022260666,0.053035151213407516,-0.003834920469671488,-114,-75,-989,-22,53,-3,432,-376,0,289075.0
14:06:30.970,AUTO,-35.3627574,149.1646916,23328,0.08465506881475449,-0.02199135534465313,-0.7066810131072998,-0.022809308022260666,0.053035151213407516,-0.003834920469671488,-114,-75,-989,-22,53,-3,432,-376,0,289075.0
14:06:31.186,AUTO,-35.3627574,149.1646916,23328,0.08465506881475449,-0.02199135534465313,-0.7066810131072998,-0.022809308022260666,0.053035151213407516,-0.003834920469671488,-114,-75,-989,-22,53,-3,432,-376,0,289075.0
14:06:31.388,AUTO,-35.3627298,149.1646622,23322,0.07021325081586838,0.012666230089962482,-0.7064139246940613,-0.2856478691101074,0.047947052866220474,0.003642336931079626,-88,-73,-990,-284,48,3,378,-327,3,289075.0
14:06:31.589,AUTO,-35.3627214,149.1646534,23314,0.07629716396331787,0.02387419529259205,-0.7058719396591187,0.6098097562789917,0.02817455120384693,-0.0269019678235054,-92,-33,-987,611,29,-26,357,-308,5,289075.0
14:06:31.791,AUTO,-35.3627135,149.164645,23298,0.07829723507165909,0.037642866373062134,-0.7060844302177429,0.26885154843330383,0.06397919356822968,0.016091005876660347,-89,-53,-999,268,64,15,335,-289,7,289075.0
14:06:31.993,AUTO,-35.3627135,149.164645,23298,0.07829723507165909,0.037642866373062134,-0.7060844302177429,0.26885154843330383,0.06397919356822968,0.016091005876660347,-89,-53,-999,268,64,15,335,-289,7,289075.0
14:06:32.195,AUTO,-35.362706,149.1646373,23284,0.05842987447977066,0.05130700767040253,-0.7064862251281738,-0.7268127799034119,0.03692192584276199,0.0371941477060318,-84,-103,-989,-727,38,37,312,-269,7,289075.0
14:06:32.397,AUTO,-35.3626992,149.1646302,23267,0.044094815850257874,0.053782910108566284,-0.705795168876648,-0.6952428221702576,-0.012529577128589153,-0.002855990082025528,-76,-65,-1010,-693,-11,-2,288,-247,7,289075.0
14:06:32.599,AUTO,-35.3626929,149.1646237,23248,0.04684207960963249,0.0490134097635746,-0.7069112062454224,0.15952882170677185,-0.009877216070890427,-0.032382529228925705,-70,-23,-1005,161,-8,-32,266,-227,8,289075.0
14:06:32.801,AUTO,-35.3626929,149.1646237,23248,0.04684207960963249,0.0490134097635746,-0.7069112062454224,0.15952882170677185,-0.009877216070890427,-0.032382529228925705,-70,-23,-1005,161,-8,-32,266,-227,8,289075.0
14:06:33.003,AUTO,-35.3626929,149.1646237,23248,0.04684207960963249,0.0490134097635746,-0.7069112062454224,0.15952882170677185,-0.009877216070890427,-0.032382529228925705,-70,-23,-1005,161,-8,-32,266,-227,8,289075.0
14:06:33.206,AUTO,-35.3626929,149.1646237,23248,0.04684207960963249,0.0490134097635746,-0.7069112062454224,0.15952882170677185,-0.009877216070890427,-0.032382529228925705,-70,-23,-1005,161,-8,-32,266,-227,8,289075.0
14:06:33.408,AUTO,-35.362677,149.164607,23203,0.046466369181871414,0.05624723434448242,-0.706992506980896,-0.23333469033241272,0.01554599404335022,0.025556795299053192,-54,-65,-1007,-233,16,25,203,-176,4,15303.0
14:06:33.611,AUTO,-35.3626726,149.1646023,23194,0.03299771621823311,0.06207985058426857,-0.7061629891395569,-0.7213339805603027,0.018247950822114944,0.018377158790826797,-46,-74,-1005,-721,19,18,182,-158,3,15303.0
14:06:33.813,AUTO,-35.3626687,149.1645981,23186,0.026276255026459694,0.06713730096817017,-0.7062350511550903,-0.5046811103820801,0.022464755922555923,-0.003951185382902622,-43,-31,-1004,-503,23,-4,163,-139,3,15303.0
14:06:34.015,AUTO,-35.3626687,149.1645981,23186,0.026276255026459694,0.06713730096817017,-0.7062350511550903,-0.5046811103820801,0.022464755922555923,-0.003951185382902622,-43,-31,-1004,-503,23,-4,163,-139,3,15303.0
14:06:34.217,AUTO,-35.3626653,149.1645944,23182,0.03188677132129669,0.07400690764188766,-0.70611572265625,0.40316241979599,0.028785811737179756,-0.011598538607358932,-40,10,-1004,405,30,-11,143,-121,1,15303.0
