time_stamp,MODE,RTL_ALT,roll,pitch,yaw,rollspeed,pitchspeed,yawspeed,lat,lon,relative_alt,vx,vy,vz,xacc,yacc,zacc,xgyro,ygyro,zgyro
14:38:32,STABILIZE,200.0,5.1623770559672266e-05,0.0014803102239966393,0.027150694280862808,0.0001175031065940857,0.0002777082263492048,0.00219467980787158,-35.3632622,149.1652375,0.0,-2.0,3.0,2.0,0.0,1.0,-1000.0,0.0,0.0,0.0
14:38:34,STABILIZE,200.0,-0.0010369643568992615,0.0010445534717291594,0.02607567608356476,0.000207039644010365,0.0002325752575416118,0.002010379219427705,-35.3632622,149.1652375,0.0,-1.0,1.0,1.0,0.0,1.0,-1000.0,0.0,0.0,1.0
14:38:40,STABILIZE,200.0,-0.001122472749557346,0.0009871066431514919,0.02419859729707241,0.00023604370653629303,0.00036372937029227614,0.0017702559125609696,-35.3632621,149.1652375,0.0,-1.0,0.0,0.0,0.0,1.0,-1000.0,0.0,0.0,0.5
14:38:44,STABILIZE,200.0,-0.0009814529912546277,0.0009760157554410398,0.023073410615324974,0.0003754835925064981,0.0003180224448442459,0.0016254467191174626,-35.3632622,149.1652375,0.0,-1.0,1.0,0.0,0.0,2.0,-1000.0,1.0,0.0,0.0
14:38:46,AUTO,200.0,-0.0008870519232004881,0.0009623093064874411,0.022527474910020828,0.0003653703024610877,0.00024138175649568439,0.0015581328189000487,-35.3632622,149.1652375,0.0,-1.0,0.0,-1.0,0.0,1.0,-1000.0,0.5,0.0,0.5
14:38:47,AUTO,270248.0,-0.0007861554234599074,0.0009843717173983653,0.02223595107595126,0.0002489662147127092,0.00027051053863639635,0.0015186965853596728,-35.36326213333333,149.1652375,6.666666666666667,-0.6666666666666666,0.0,-1.0,0.0,1.3333333333333333,-1000.0,0.3333333333333333,0.3333333333333333,0.3333333333333333
14:38:48,AUTO,270248.0,-0.0007030063813241819,0.0010899107437580824,0.022046905631820362,0.0002450029132887721,0.00019684579456225038,0.001498944281289975,-35.3632621,149.1652375,8.333333333333334,0.0,0.0,-0.3333333333333333,0.0,1.3333333333333333,-1000.0,1.0,0.0,0.6666666666666666
14:38:50,AUTO,270248.0,7.498595005017705e-05,0.0016242160151402156,0.021405054877201717,0.0003646885937390228,0.0002761920526002844,0.0014248036701853077,-35.3632621,149.1652375,2.0,0.0,0.0,0.0,0.0,1.3333333333333333,-1000.0,0.3333333333333333,0.0,0.6666666666666666
14:38:51,AUTO,95269.0,0.0027774740010499954,0.0009562462801113725,0.02115847294529279,-0.0022940997344752154,0.0027724396592626968,0.0010030365374404937,-35.3632621,149.1652375,432.3333333333333,0.0,1.0,-98.0,0.0,0.0,-1109.0,-1.6666666666666667,2.6666666666666665,0.3333333333333333
14:38:52,AUTO,95269.0,0.02274216090639432,-0.0010441269259899855,0.02047051303088665,0.046400771786769233,-0.006950093898922205,0.0017121016668776672,-35.363262033333335,149.16523756666666,1395.3333333333333,0.6666666666666666,6.0,-143.0,0.0,-0.3333333333333333,-1022.0,46.666666666666664,-6.0,1.0
14:38:54,AUTO,95269.0,-0.0342867070188125,0.010100919598092636,-0.06951382507880528,-0.04770412854850292,-0.024003067674736183,-0.03453224338591099,-35.3632609,149.16524496666668,4438.0,1.6666666666666667,36.333333333333336,-148.33333333333334,4.0,-9.0,-1005.3333333333334,-46.666666666666664,-23.0,-34.0
14:38:55,AUTO,200.0,-0.05677032222350439,5.8027508202940226e-06,-0.10233791172504425,0.05637358253200849,0.0018309139413759112,-0.013001206486175457,-35.363260833333335,149.16524496666668,6354.0,-4.0,-41.0,-149.0,-2.6666666666666665,6.666666666666667,-1001.0,57.0,2.3333333333333335,-13.0
14:38:56,AUTO,200.0,-0.009865330842634043,0.005431529289732377,-0.10791224241256714,0.06680138160785039,0.010644251791139444,-0.0014836414678332706,-35.36326123333333,149.16524056666665,7505.666666666667,-10.0,-59.0,-150.0,-6.0,12.666666666666666,-1003.0,67.0,10.666666666666666,-1.6666666666666667
14:38:58,AUTO,200.0,0.02771122257884902,-0.04471942658225695,-0.051960101972023644,-0.09859785934289296,-0.019357064583649237,0.0388111745317777,-35.363263933333336,149.1652351,10618.666666666666,2.0,26.333333333333332,-148.66666666666666,3.0,-3.6666666666666665,-998.3333333333334,-97.66666666666667,-18.666666666666668,38.333333333333336
14:38:59,AUTO,89104.0,-0.02424727442363898,0.0075071884590821964,-0.12230997035900752,0.017786662559956312,0.02769940160214901,-0.06256868566075961,-35.36326173333334,149.16523723333333,12539.333333333334,22.666666666666668,-1.6666666666666667,-151.66666666666666,-4.333333333333333,-4.0,-1002.6666666666666,18.0,27.666666666666668,-62.333333333333336
14:39:00,AUTO,89104.0,-0.002181150756465892,0.01929186594982942,-0.1574067771434784,0.031027987599372864,0.0074317554632822675,-0.028760734324653942,-35.36326056666667,149.1652365,13715.666666666666,8.333333333333334,-13.0,-153.0,-4.0,0.3333333333333333,-1000.3333333333334,31.333333333333332,7.666666666666667,-28.333333333333332
14:39:02,AUTO,89104.0,0.008213458427538475,0.004710571529964606,-0.16694805026054382,-0.008238828120132288,-0.008856728517760834,-0.005797626528268059,-35.363261099999995,149.16523536666668,16829.666666666668,-10.666666666666666,7.0,-152.0,1.6666666666666667,0.0,-1000.0,-7.0,-7.666666666666667,-5.666666666666667
14:39:03,AUTO,200.0,-0.05407233784596125,0.02802870934829116,-0.09299122511098783,0.0198498978279531,0.02920137842496236,0.2770073140660922,-35.3632622,149.16523506666667,18741.333333333332,-17.666666666666668,-22.333333333333332,-141.0,0.0,4.666666666666667,-971.6666666666666,21.0,29.666666666666668,276.3333333333333
14:39:04,AUTO,200.0,0.025717805450161297,-0.017500158088902634,0.05730443323651949,0.11546788364648819,-0.09775839870174725,0.02867437320916603,-35.3632638,149.16523229999999,19718.0,-27.333333333333332,-31.0,-110.0,1.3333333333333333,10.333333333333334,-955.6666666666666,115.66666666666667,-96.66666666666667,28.333333333333332
14:39:06,AUTO,200.0,0.009342403228705129,0.00486842606915161,0.033736505856116615,-0.03467166610062122,0.021673351526260376,0.003882834299777945,-35.36326343333334,149.16523503333335,21296.333333333332,18.0,40.666666666666664,-45.666666666666664,1.0,-10.666666666666666,-978.0,-33.333333333333336,22.0,3.3333333333333335
14:39:07,AUTO,5037.0,-0.011969911865890026,0.014678476999203363,0.030716807891925175,0.014134678989648819,-0.0018710462609305978,-0.0013417491766934593,-35.36326163333333,149.16523916666668,21690.0,7.333333333333333,20.0,-15.666666666666666,0.0,-4.666666666666667,-971.6666666666666,15.333333333333334,-0.6666666666666666,-1.0
14:39:08,AUTO,5037.0,-0.031328548366824784,0.01377828634576872,0.028103284537792206,0.19290313124656677,-0.009901077797015509,-0.0042587852803990245,-35.3632613,149.16524006666668,21697.0,-1.3333333333333333,0.0,12.333333333333334,-0.3333333333333333,8.666666666666666,-962.6666666666666,193.66666666666666,-9.0,-4.0
14:39:10,AUTO,5037.0,0.01657764644672473,-0.10383246093988419,0.08294359346230824,-0.06992398202419281,-0.040715682009855904,0.07452728506177664,-35.363255966666664,149.16523750000002,21475.666666666668,90.33333333333333,-4.333333333333333,-2.6666666666666665,-19.666666666666668,-11.666666666666666,-1007.6666666666666,-68.66666666666667,-39.333333333333336,74.0
14:39:11,AUTO,200.0,0.0290583036839962,-0.16151469945907593,0.0805668756365776,0.0489191139737765,-0.0491237665216128,0.0009103463962674141,-35.36323933333333,149.16523730000003,21503.666666666668,213.66666666666666,8.333333333333334,-4.0,-43.0,-20.666666666666668,-1004.3333333333334,50.333333333333336,-48.0,1.3333333333333333
14:39:12,AUTO,200.0,0.04062798495093981,-0.1839457501967748,0.07570735613505046,0.028048162659009297,-0.004871070384979248,0.0022257999517023563,-35.3632219,149.16523783333335,21531.666666666668,304.3333333333333,14.0,-6.0,-59.0,-35.0,-1008.6666666666666,28.666666666666668,-3.6666666666666665,2.0
14:39:14,AUTO,200.0,0.06116428722937902,-0.2158872385819753,0.0702745368083318,0.02345436563094457,0.004269975237548351,-0.00030694177257828414,-35.363147700000006,149.16524163333332,21685.333333333332,526.0,27.666666666666668,-10.333333333333334,-102.0,-56.333333333333336,-1001.3333333333334,24.666666666666668,5.0,0.0
14:39:15,AUTO,299296.0,0.06748730937639873,-0.18251574536164603,0.06987286607424419,0.009541292985280355,0.03828705040117105,-0.002158026366184155,-35.3630825,149.16524563333334,21876.333333333332,628.6666666666666,33.0,-20.666666666666668,-128.66666666666666,-58.0,-999.3333333333334,10.666666666666666,38.666666666666664,-1.6666666666666667
14:39:16,AUTO,299296.0,0.07037683079640071,-0.17107548316319784,0.06884622077147166,0.013548981243123611,0.004368048549319307,-0.0018494900626440842,-35.36303899999999,149.1652483,22033.333333333332,661.3333333333334,34.0,-21.666666666666668,-135.33333333333334,-64.33333333333333,-987.0,14.333333333333334,5.0,-1.6666666666666667
14:39:18,AUTO,299296.0,0.08062121272087097,-0.12535744657119116,0.06774317224820454,0.020997523019711178,-0.028296835720539093,-0.009468916648377975,-35.36291616666667,149.16525549999997,22452.333333333332,681.6666666666666,35.333333333333336,-18.666666666666668,-137.33333333333334,-77.0,-979.6666666666666,22.0,-27.0,-9.0
14:39:19,AUTO,275309.0,0.07975819955269496,-0.14123604198296866,0.06479514390230179,0.0020096556593974433,-0.0035409056581556797,-0.003443725872784853,-35.36283933333333,149.16525993333335,22619.333333333332,684.3333333333334,37.0,-11.333333333333334,-131.33333333333334,-77.66666666666667,-986.3333333333334,3.3333333333333335,-2.3333333333333335,-3.0
14:39:20,AUTO,275309.0,0.08090377599000931,-0.1373483488957087,0.06354934473832448,0.004409275017678738,0.003935751970857382,-0.006433546358797078,-35.362792899999995,149.1652627,22718.666666666668,687.6666666666666,36.333333333333336,-14.0,-131.66666666666666,-78.0,-987.0,6.0,4.333333333333333,-6.0
14:39:22,AUTO,275309.0,0.07752847919861476,-0.13014081120491028,0.060281106581290565,0.014382779501223316,-0.00892130813250939,-0.0055412399815395474,-35.362669,149.1652702,23033.666666666668,683.6666666666666,34.666666666666664,-14.666666666666666,-132.66666666666666,-74.66666666666667,-988.3333333333334,15.666666666666666,-8.333333333333334,-4.666666666666667
14:39:23,AUTO,155411.0,0.08274657527605693,-0.07982254773378372,0.0595644973218441,0.009416789514943957,0.0519726195683082,-0.006969450817753871,-35.36259256666667,149.16527453333333,23266.0,659.6666666666666,31.666666666666668,-22.333333333333332,-137.66666666666666,-78.0,-992.3333333333334,10.333333333333334,52.0,-6.333333333333333
14:39:24,AUTO,155411.0,0.08114057034254074,-0.044924831638733544,0.060042060911655426,0.005531173820296924,0.04215736873447895,-0.0019338749504337709,-35.36254923333334,149.16527706666668,23430.333333333332,613.3333333333334,30.0,-18.666666666666668,-117.0,-76.66666666666667,-982.3333333333334,6.666666666666667,42.666666666666664,-1.6666666666666667
14:39:26,AUTO,155411.0,0.05940992757678032,0.04856624330083529,0.0601626473168532,0.06389476358890533,0.02815613088508447,0.012793027485410372,-35.36245486666667,149.16528353333334,23672.0,413.0,20.666666666666668,-3.0,-83.0,-63.666666666666664,-995.0,64.33333333333333,28.666666666666668,13.0
14:39:27,AUTO,200.0,0.04244466250141462,0.05516523619492849,0.05870239684979121,0.4186633974313736,0.011929706670343876,-0.0041815706839164095,-35.36241656666667,149.16528626666664,23693.666666666668,269.3333333333333,13.333333333333334,-0.3333333333333333,-51.666666666666664,-27.0,-1014.6666666666666,419.6666666666667,13.0,-3.6666666666666665
14:39:28,AUTO,200.0,0.026872238765160244,0.07422499110301335,0.05928618833422661,-0.04508046309153239,0.02363457732523481,-0.00190297265847524,-35.362401033333335,149.16528726666664,23713.333333333332,188.66666666666666,8.333333333333334,-2.0,-39.0,-22.333333333333332,-1003.0,-42.666666666666664,24.0,-1.3333333333333333
14:39:30,AUTO,200.0,0.007113497083385785,0.03879531845450401,0.056938124199708305,-0.1542261838912964,-0.01901273801922798,0.0029910115214685598,-35.3623835,149.1652881,23731.0,31.333333333333332,2.0,0.0,-7.0,-18.666666666666668,-1003.0,-152.66666666666666,-17.666666666666668,2.6666666666666665
14:39:31,AUTO,300000.0,0.0016918691496054332,0.009133945723685125,0.055621897180875145,-0.1268773376941681,-0.028037529438734055,0.0021397018184264502,-35.362382499999995,149.16528766666667,23735.666666666668,-2.6666666666666665,1.3333333333333333,0.0,-0.3333333333333333,-1.3333333333333333,-1000.6666666666666,-125.33333333333333,-26.666666666666668,2.0
14:39:32,RTL,300000.0,0.006101074444207673,-0.009269850483785072,0.054176513105630875,-0.12602612376213074,-0.011490347639967998,0.004009391025950511,-35.3623829,149.1652871,23737.666666666668,-2.0,1.3333333333333333,0.0,-0.3333333333333333,-7.666666666666667,-994.3333333333334,-124.33333333333333,-10.666666666666666,4.0
14:39:34,RTL,300000.0,0.010123140333841244,-0.0002301997495427107,0.05336442217230797,-0.030613703032334644,0.00165248258660237,0.00744222446034352,-35.362383,149.165286,23878.666666666668,2.6666666666666665,9.333333333333334,-29.333333333333332,-0.3333333333333333,-3.0,-1041.6666666666667,-29.0,2.0,7.666666666666667
14:39:35,RTL,97277.0,0.006454042159020901,0.0007639631609587619,0.05326175441344579,0.006582409143447876,-0.0007524640532210469,0.0037945943574110665,-35.362383,149.16528603333333,24610.333333333332,1.0,10.0,-85.0,0.0,0.0,-1044.6666666666667,9.333333333333334,0.0,4.333333333333333
14:39:36,RTL,97277.0,0.005397249828092754,0.000741254868141065,0.053019482642412186,0.01224584598094225,0.00048669866130997735,0.001547398918773979,-35.362383,149.1652862,25414.666666666668,1.0,10.0,-124.66666666666667,0.0,-0.3333333333333333,-1063.6666666666667,14.666666666666666,1.0,2.3333333333333335
14:39:38,RTL,97277.0,0.040689672653873764,0.0036222949468841157,0.03637193484852711,-0.06799352541565895,0.04614713632812103,-0.0644872438473006,-35.3623825,149.16528990000003,28389.333333333332,7.666666666666667,48.0,-147.0,1.6666666666666667,-9.666666666666666,-995.0,-65.66666666666667,46.666666666666664,-63.333333333333336
14:39:39,RTL,216516.0,-0.08019107580184937,0.005319393705576658,-0.029444557925065357,0.006591782905161381,-0.010465253765384356,-0.025948202858368557,-35.36238206666666,149.16529486666664,30286.666666666668,-2.0,-4.0,-149.66666666666666,1.6666666666666667,-2.6666666666666665,-1005.3333333333334,8.666666666666666,-9.0,-24.333333333333332
14:39:40,RTL,216516.0,-0.047884248197078705,0.0023817313679804406,-0.04151743898789088,0.05784376710653305,0.004443720448762178,-0.008636991959065199,-35.36238206666666,149.16529273333333,31451.666666666668,-5.0,-49.333333333333336,-149.0,-3.3333333333333335,7.0,-1000.3333333333334,59.333333333333336,4.666666666666667,-7.0
14:39:42,RTL,216516.0,0.047397430986166,-0.014141871593892574,-0.018981502595124766,-0.04131708852946758,-0.062351097663243614,0.06744017452001572,-35.36238363333333,149.1652839,34573.666666666664,-14.666666666666666,-3.0,-151.0,0.6666666666666666,3.0,-995.6666666666666,-39.0,-60.666666666666664,68.0
14:39:43,RTL,227716.0,-0.018634483839074772,-0.0011973314491721492,-0.03457049590845903,-0.013476204359903932,0.028553116445740063,-0.054612266520659127,-35.362383066666666,149.16528540000002,36502.333333333336,12.666666666666666,5.0,-150.66666666666666,-1.3333333333333333,-4.333333333333333,-1002.6666666666666,-11.0,29.0,-53.0
14:39:44,RTL,227716.0,-0.013735919569929441,0.011567791923880577,-0.07045058906078339,0.016523877779642742,0.012147343717515469,-0.037336486081282295,-35.362382000000004,149.16528563333333,37671.0,8.0,-7.333333333333333,-152.0,-3.0,-1.3333333333333333,-1000.6666666666666,18.333333333333332,12.666666666666666,-35.666666666666664
14:39:46,RTL,227716.0,0.003791219942892591,0.008322290455301603,-0.10376099248727162,-0.006435104180127382,-0.004976854970057805,-0.009229450641820828,-35.3623816,149.165285,40799.0,-9.666666666666666,0.0,-152.0,0.6666666666666666,0.0,-999.6666666666666,-3.6666666666666665,-3.3333333333333335,-7.666666666666667
14:39:47,RTL,245467.0,-0.00252944432819883,0.0020439382642507553,-0.12252000470956166,-0.002935045127136012,-0.0018186542244317632,-0.01833897891143958,-35.362382233333335,149.16528563333335,42743.666666666664,-8.333333333333334,2.6666666666666665,-152.0,1.0,0.0,-1000.0,-1.0,-0.3333333333333333,-16.666666666666668
14:39:48,RTL,245467.0,-0.0038245670342197022,0.0012560371542349458,-0.13967091341813406,-0.001079507249717911,0.00044156382015595835,-0.024646613125999767,-35.362382466666666,149.165286,43912.0,-6.0,1.3333333333333333,-152.0,0.6666666666666666,0.0,-1000.0,1.0,1.0,-22.666666666666668
14:39:50,RTL,245467.0,-0.0014637252703929942,0.003579702383528153,-0.18908081452051798,0.0007412866689264774,0.001637569551045696,-0.022256385535001755,-35.3623826,149.16528643333334,47030.666666666664,-3.0,0.0,-153.0,0.0,0.0,-1000.0,2.3333333333333335,2.3333333333333335,-20.333333333333332
14:39:51,RTL,182213.0,-0.0012198334637408454,0.003239051982139548,-0.21559844414393106,0.00010967658211787541,-0.0006511696459104618,-0.018646258860826492,-35.36238266666667,149.1652866,48979.0,-3.0,0.0,-153.0,0.0,0.0,-999.6666666666666,2.0,0.6666666666666666,-16.666666666666668
14:39:52,RTL,182213.0,-0.00028191481639320653,0.0038687778481592736,-0.22705652813116708,0.0015576764320333798,0.004121756530366838,-0.005724855698645115,-35.3623827,149.1652867,50150.0,-3.0,0.0,-152.33333333333334,0.0,0.0,-999.3333333333334,3.6666666666666665,4.666666666666667,-4.333333333333333
14:39:54,RTL,182213.0,-0.0017764501584072907,0.0021010193740949035,-0.1855415403842926,-0.002131299930624664,-0.0013602442340925336,0.025487206255396206,-35.36238303333334,149.1652874,53251.0,-4.0,3.0,-152.0,0.0,0.0,-1000.0,-0.3333333333333333,-0.3333333333333333,26.333333333333332
14:39:55,RTL,89870.0,-0.0025707371532917023,0.0014308902124563854,-0.15702279408772787,0.0005826146807521582,0.00037359547180434066,0.02170717529952526,-35.3623831,149.1652877,55196.333333333336,-2.3333333333333335,0.3333333333333333,-152.0,0.0,0.0,-1000.0,2.0,1.3333333333333333,22.666666666666668
14:39:56,RTL,89870.0,-0.0017937752806271117,0.0015668433625251055,-0.1419439216454824,0.0008109248786543807,0.0017450630354384582,0.019522131731112797,-35.3623831,149.1652877,56366.333333333336,-2.0,0.0,-152.0,0.0,0.0,-999.6666666666666,2.0,2.6666666666666665,20.333333333333332
14:39:58,RTL,89870.0,-0.0004531942055715869,0.0022210765164345503,-0.10995096961657207,-0.00039648462552577257,0.0006551729359974464,0.014578030444681644,-35.3623831,149.16528756666665,59466.333333333336,-1.0,-1.0,-152.0,0.0,0.0,-999.6666666666666,1.0,1.6666666666666667,15.666666666666666
14:39:59,RTL,200.0,0.0003135343285975978,0.0023820788289109864,-0.09388816356658936,1.776812132447958e-05,-0.00014309907176842293,0.01147713977843523,-35.362382966666665,149.16528736666666,61404.666666666664,-1.0,-0.3333333333333333,-152.0,0.0,0.0,-1000.3333333333334,1.6666666666666667,1.0,12.333333333333334
14:40:00,RTL,200.0,0.0005649069401745995,0.0026010331542541585,-0.0856389378507932,0.0005720428501566251,7.887330139055848e-05,0.010370274384816488,-35.3623829,149.16528726666664,62569.0,-1.3333333333333333,0.0,-152.0,0.0,0.0,-1000.0,2.0,1.0,11.0
14:40:02,RTL,200.0,0.00012235945420494923,0.0022302263726790747,-0.06771639237801234,0.0011182156546662252,0.0016310566570609808,0.008679044588158527,-35.3623829,149.1652872,65681.33333333333,-1.3333333333333333,0.0,-152.0,0.0,0.0,-999.6666666666666,2.3333333333333335,2.6666666666666665,9.666666666666666
14:40:03,RTL,300000.0,0.000111825641397445,0.003003247625504931,-0.05875210836529732,6.485369522124529e-05,-4.758480160186688e-05,0.006161593055973451,-35.3623828,149.1652871,67622.33333333333,-2.0,0.0,-152.0,0.0,0.0,-1000.0,1.6666666666666667,1.0,7.0
14:40:04,RTL,300000.0,0.0004057684806563581,0.00256971533720692,-0.05374171709020933,0.0003910068965827425,0.000517395829471449,0.007379103607187669,-35.3623828,149.1652871,68791.0,-2.0,0.0,-152.0,0.0,0.0,-999.6666666666666,2.0,1.6666666666666667,8.333333333333334
14:40:06,RTL,300000.0,0.00011972285513669097,0.0014499380874137084,-0.042008319248755775,-0.00019351517160733542,0.001530036679469049,0.006193303192655246,-35.3623828,149.1652871,71891.66666666667,-1.3333333333333333,0.0,-152.0,0.0,0.0,-1000.0,1.3333333333333333,2.6666666666666665,7.0
14:40:07,RTL,300000.0,0.0003397005784790963,0.0020524171801904836,-0.03509572520852089,-0.0006795007502660155,0.0010434893580774467,0.005492777408411105,-35.3623828,149.1652871,73832.33333333333,-1.0,0.0,-152.0,0.0,0.0,-999.6666666666666,0.6666666666666666,2.3333333333333335,6.333333333333333
14:40:08,RTL,300000.0,0.00033943458887127537,0.0020662928000092506,-0.031261916582783066,0.0012508298580845196,0.00212458703511705,0.00666276349996527,-35.3623828,149.1652871,74997.0,-1.0,0.0,-152.0,0.0,0.0,-999.3333333333334,2.6666666666666665,3.3333333333333335,7.666666666666667
14:40:10,RTL,300000.0,0.0009057044517248869,0.0019424204559375842,-0.02172013372182846,-0.00046451234569152194,0.0003498764708638191,0.004552376417753597,-35.3623828,149.1652869,78107.0,-1.0,1.0,-152.0,0.0,0.0,-999.6666666666666,1.0,1.6666666666666667,5.666666666666667
14:40:11,RTL,291835.0,0.0006082374214505156,0.002174058541034659,-0.016727042694886524,-0.0004901050124317408,0.001184929395094514,0.004523102349291245,-35.3623828,149.1652869,80043.66666666667,-1.0,1.0,-152.0,0.0,0.0,-1000.0,1.0,2.3333333333333335,5.666666666666667
14:40:12,RTL,291835.0,0.0001722419759839037,0.001954115771998962,-0.013654305910070738,-0.0013649283597866695,-4.700412197659413e-05,0.004588890975962083,-35.3623828,149.1652869,81210.66666666667,-1.0,0.6666666666666666,-152.0,0.0,0.0,-1000.0,0.6666666666666666,1.6666666666666667,5.666666666666667
14:40:14,RTL,291835.0,0.000519645216021066,0.002803513935456673,-0.00722737501685818,0.00016000432272752127,0.0008436122831578056,0.004016116416702668,-35.3623828,149.165287,84314.66666666667,-1.6666666666666667,0.0,-152.0,0.0,0.0,-999.6666666666666,2.0,2.3333333333333335,5.0
14:40:15,RTL,233890.0,0.0003583156600749741,0.00229368902121981,-0.003025138440231482,0.0005755947592357794,0.0006699810813491543,0.003741468108880023,-35.3623827,149.165287,86259.66666666667,-2.0,0.0,-152.0,0.0,0.0,-1000.0,2.0,2.3333333333333335,4.666666666666667
14:40:16,RTL,233890.0,0.00022353122767526656,0.0017285826615989208,-0.0011947607660355668,0.00040743368056913215,-0.0014412834231431286,0.0018461292299131553,-35.3623827,149.165287,87429.66666666667,-2.0,0.0,-152.0,0.0,0.0,-1000.6666666666666,2.3333333333333335,0.0,2.6666666666666665
14:40:18,RTL,233890.0,0.0010629040965189536,0.0013377451105043292,0.004093418596312404,0.0006539756044124564,0.0016038223014523585,0.003364020415271322,-35.3623828,149.1652869,90530.66666666667,-1.0,1.0,-152.0,0.0,0.0,-999.6666666666666,2.6666666666666665,2.6666666666666665,4.333333333333333
14:40:19,RTL,96430.0,0.0007321212324313819,0.0018746268857891362,0.007000501888493697,-0.00018085787693659464,0.0009492547251284122,0.001362642467332383,-35.3623828,149.1652869,92472.33333333333,-1.0,1.0,-152.0,0.0,0.0,-1000.0,1.3333333333333333,2.6666666666666665,2.6666666666666665
14:40:20,RTL,96430.0,0.0008039375340255598,0.0019205964248006542,0.008603355226417383,0.0006803308303157488,0.0004747076891362667,0.0025968224120636783,-35.3623828,149.1652869,93636.66666666667,-1.0,1.0,-152.0,0.0,0.0,-999.6666666666666,2.3333333333333335,2.0,4.0
14:40:22,RTL,96430.0,7.121253414273572e-05,0.001956717033560077,0.012638388201594353,-0.00044646975584328175,-0.0002232071322699388,0.0013861665114139516,-35.3623828,149.1652869,96750.66666666667,-1.0,0.6666666666666666,-152.0,0.0,0.0,-1000.0,1.3333333333333333,1.3333333333333333,2.6666666666666665
14:40:23,RTL,300000.0,0.0003102961394082134,0.0017713581134254734,0.014843417331576347,0.0002901445065314571,0.00031469188009699184,0.0011268304272865255,-35.3623828,149.165287,98692.33333333333,-1.0,0.0,-152.0,0.0,0.0,-1000.0,2.0,1.6666666666666667,2.6666666666666665
14:40:24,RTL,300000.0,0.000649252828831474,0.0017625022834787767,0.016164032742381096,0.001350395071009795,0.0011294768967976172,0.0019552343292161822,-35.3623828,149.165287,99860.0,-1.0,0.0,-152.0,0.0,0.0,-999.6666666666666,2.6666666666666665,2.6666666666666665,3.3333333333333335
14:40:26,RTL,300000.0,0.0014352382471164067,0.0016772591043263674,0.019781180347005527,0.00029800723617275554,0.0006891260078797737,0.001885039188588659,-35.3623828,149.1652869,102964.0,-1.0,0.6666666666666666,-152.0,0.0,0.0,-1000.0,2.0,2.3333333333333335,3.3333333333333335
14:40:27,RTL,232504.0,0.0008630331528062621,0.0018781775142997503,0.021493817990024883,0.00026292346107463044,6.04814849793911e-05,0.0022960684339826307,-35.3623828,149.1652869,104905.66666666667,-1.0,1.0,-152.0,0.0,0.0,-1000.0,2.0,1.6666666666666667,4.0
14:40:28,RTL,232504.0,0.0008184725884348154,0.0018169862451031804,0.02245632621149222,0.0005857721359158555,0.0004896889440715313,0.0019931019827102623,-35.3623828,149.1652869,106070.66666666667,-1.0,1.0,-152.0,0.0,0.0,-999.6666666666666,2.3333333333333335,1.6666666666666667,3.6666666666666665
14:40:30,RTL,232504.0,0.0007256033325878283,0.0018913081924741466,0.024610464150706928,0.00024451195107152063,0.0006716581216702858,0.0027981476547817388,-35.3623828,149.1652869,109179.0,-1.0,1.0,-152.0,0.0,0.0,-999.6666666666666,2.0,2.3333333333333335,4.333333333333333
14:40:31,RTL,222172.0,0.0007453238746772209,0.0016531584939608972,0.025819530710577965,0.0012238341538856428,0.0007140124992777904,0.0026126623464127383,-35.3623828,149.1652869,111117.0,-1.0,1.0,-152.0,0.0,0.0,-999.3333333333334,3.0,2.3333333333333335,4.0
14:40:32,RTL,222172.0,0.000697694932265828,0.001791967738730212,0.02664753422141075,-0.0006745483260601759,0.0006387723066533605,0.001920883310958743,-35.3623828,149.1652869,112282.66666666667,-1.0,1.0,-152.0,0.0,0.0,-1000.0,1.0,2.3333333333333335,3.3333333333333335
14:40:34,RTL,222172.0,0.00046620188125719625,0.0016820596453423302,0.028154994671543438,0.0005702021686981121,-0.0002016460057348013,0.0016683626842374604,-35.3623828,149.165287,115387.66666666667,-1.0,0.0,-152.0,0.0,0.0,-1000.0,2.3333333333333335,1.3333333333333333,3.0
14:40:35,RTL,191029.0,0.0009055684592264394,0.0017483341895664732,0.029224620511134464,0.0010155163860569398,0.0005517405613015095,0.001267364714294672,-35.3623828,149.165287,117333.0,-1.0,0.0,-152.0,0.0,0.0,-999.6666666666666,2.6666666666666665,2.0,2.6666666666666665
14:40:36,RTL,191029.0,0.0013785655610263348,0.001775846544963618,0.02962657871345679,-0.00019411917310208082,0.0006210681361456712,0.00045501634789009887,-35.3623828,149.16528693333333,118500.66666666667,-1.0,0.3333333333333333,-152.0,0.0,0.0,-999.6666666666666,1.6666666666666667,2.3333333333333335,2.0
14:40:38,RTL,191029.0,0.0007730095336834589,0.0018111516255885363,0.0309843048453331,0.0016595704946666956,0.000408002408221364,0.0035738591104745865,-35.3623828,149.1652869,121605.0,-1.0,1.0,-152.0,0.0,0.0,-999.6666666666666,3.3333333333333335,2.3333333333333335,5.0
14:40:39,RTL,200.0,0.0008946621092036366,0.001896561123430729,0.03167687108119329,0.0008438155831148227,0.00014046862876663604,0.001356077496893704,-35.3623828,149.1652869,123546.33333333333,-1.0,1.0,-152.0,0.0,0.0,-1000.0,2.6666666666666665,2.0,2.6666666666666665
14:40:40,RTL,200.0,0.0008297858488125106,0.0016913195528710883,0.03211211164792379,0.0007882877252995968,0.0005587357251594464,0.0007205234918122491,-35.3623828,149.1652869,124712.0,-1.0,1.0,-152.0,0.0,0.0,-1000.0,3.0,2.0,2.3333333333333335
14:40:42,RTL,200.0,0.0008965899663356444,0.0013503246009349823,0.033706181993087135,0.0007474271891017755,0.00033068742292622727,0.0008125256281346083,-35.3623828,149.1652869,127826.33333333333,-1.0,1.0,-152.0,0.0,0.0,-1000.3333333333334,3.0,2.3333333333333335,2.6666666666666665
14:40:43,RTL,202199.0,0.0008095420004489521,0.0017085224390029907,0.03410960858066877,-0.0005939608284582695,7.026301076014836e-05,-0.0012474647179866831,-35.3623828,149.1652869,129768.0,-1.0,1.0,-152.0,0.0,0.0,-1000.0,1.3333333333333333,2.0,0.3333333333333333
14:40:44,RTL,202199.0,0.0009027629275806248,0.0017054008009533088,0.03436878820260366,0.000916333170607686,4.388442418227593e-05,0.001236684387549758,-35.3623828,149.1652869,130933.33333333333,-1.0,1.0,-152.0,0.0,0.0,-1000.0,2.6666666666666665,2.0,3.0
14:40:46,RTL,202199.0,0.0009127437951974571,0.0019224411807954311,0.035248291989167534,0.0007775815514226755,-0.0005572517402470112,0.00045612357401599485,-35.3623828,149.1652869,134040.33333333334,-1.0,1.0,-152.0,0.0,0.0,-999.6666666666666,2.6666666666666665,1.3333333333333333,2.0
14:40:47,RTL,151172.0,0.0007399185172592601,0.0017523985588923097,0.03560372442007065,0.0001359440696736177,0.00043362448923289776,0.0015446570081015427,-35.3623828,149.1652869,135985.0,-1.0,1.0,-152.0,0.0,0.0,-999.6666666666666,2.3333333333333335,2.6666666666666665,3.3333333333333335
14:40:48,RTL,151172.0,0.0009793817492512364,0.0017860763085385163,0.03588076556722323,0.0014348769715676706,0.00026410197218259174,0.0019720525791247687,-35.3623828,149.1652869,137151.66666666666,-1.0,1.0,-152.0,0.0,0.0,-1000.0,3.3333333333333335,2.3333333333333335,3.6666666666666665
14:40:50,RTL,151172.0,0.00041544498162693344,0.0018902149361868699,0.03630560760696729,-0.0016751655687888463,0.0004174275478969018,-0.000566614248479406,-35.3623828,149.1652869,140256.0,-1.0,1.0,-152.0,0.0,0.0,-999.3333333333334,0.6666666666666666,2.0,1.0
14:40:51,RTL,213238.0,0.00016062284218302617,0.0016964434180408716,0.03645376736919085,8.5877215800186e-05,0.0008217042001585165,0.000388067914173007,-35.3623828,149.1652869,142195.33333333334,-1.0,0.0,-152.0,0.0,0.0,-999.3333333333334,2.0,2.6666666666666665,2.0
14:40:52,RTL,213238.0,0.0006699946243315935,0.0015888789979120095,0.0367058590054512,0.0018788119001934926,0.00038720589751998585,0.002189614654829105,-35.3623828,149.1652869,143360.33333333334,-1.0,0.0,-152.0,0.0,0.0,-1000.0,4.0,2.3333333333333335,4.0
14:40:54,RTL,213238.0,0.0009689625391426185,0.0016168032307177782,0.03731307635704676,0.0001536111036936442,-0.0003511608811095357,0.0012756867799907923,-35.3623828,149.1652869,146467.0,-1.0,1.0,-152.0,0.0,0.0,-1000.3333333333334,2.0,1.6666666666666667,2.6666666666666665
14:40:55,RTL,96761.0,0.000870724810132136,0.0013954928144812584,0.037242258588473,0.001974603005995353,0.0007750267007698616,0.0010649549464384715,-35.3623828,149.1652869,148411.0,-1.0,1.0,-152.0,0.0,0.0,-1000.0,4.0,2.6666666666666665,3.0
14:40:56,RTL,96761.0,0.0007859989224622647,0.0014452044464026887,0.03736018389463425,-0.0008198548263559738,0.0001206535380333662,0.0008661214572687944,-35.3623828,149.1652869,149578.0,-1.0,1.0,-152.0,0.0,0.0,-999.6666666666666,1.3333333333333333,2.0,2.3333333333333335
14:40:58,RTL,96761.0,0.0009005189640447497,0.0016114895697683096,0.03831370795766512,-6.677485847224791e-05,-0.0003186229926844438,0.001194500441973408,-35.3623828,149.1652869,152684.66666666666,-1.0,1.0,-152.0,0.0,0.0,-1000.0,2.3333333333333335,2.0,3.0
14:40:59,RTL,295110.0,0.0008992264823367199,0.0021138793090358377,0.038463592529296875,0.00042515779690196115,0.00025699310936033726,-2.70548431823651e-05,-35.3623828,149.1652869,154628.66666666666,-1.0,1.0,-152.0,0.0,0.0,-1000.3333333333334,2.6666666666666665,2.3333333333333335,1.6666666666666667
14:41:00,RTL,295110.0,0.0008329897536896169,0.0020120920768628516,0.03841354822119077,-0.0009900787845253944,-0.0010202961663405101,0.00039398491693039733,-35.3623828,149.1652869,155799.66666666666,-1.0,1.0,-152.0,0.0,0.0,-1000.3333333333334,1.3333333333333333,1.0,2.0
14:41:02,RTL,295110.0,0.0005972038488835096,0.0019190556292111676,0.038726769387722015,-0.00033970635073880356,-1.7787407462795574e-05,0.00044856239886333543,-35.3623828,149.1652869,158900.66666666666,-1.0,1.0,-152.0,0.0,0.0,-999.6666666666666,1.6666666666666667,2.0,2.3333333333333335
14:41:03,RTL,300000.0,0.0007851167465560138,0.00166668933040152,0.03890630851189295,-0.0001416127197444439,-0.0006397451118876537,0.001574707217514515,-35.3623828,149.1652869,160847.33333333334,-1.0,1.0,-152.0,0.0,0.0,-999.6666666666666,2.0,1.3333333333333333,3.6666666666666665
14:41:04,RTL,300000.0,0.0008174644123452405,0.001817221714494129,0.03872184952100118,-0.00020525255240499973,-0.0002624011831358075,0.0006142877973616123,-35.3623828,149.1652869,162012.66666666666,-1.0,1.0,-152.0,0.0,0.0,-1000.0,2.0,1.6666666666666667,2.3333333333333335
14:41:06,RTL,300000.0,0.000708473400057604,0.0018131656106561422,0.03891471525033315,-3.620757100482782e-05,3.3338243762652078e-06,0.000904281196805338,-35.3623828,149.1652869,165119.0,-1.0,1.0,-152.0,0.0,0.0,-1000.0,2.3333333333333335,2.0,2.6666666666666665
14:41:07,RTL,283325.0,0.0007533725971976916,0.001790007809177041,0.03899678339560827,0.00025294542623062927,4.543728816012541e-05,0.0007829751508931319,-35.3623828,149.1652869,167062.0,-1.0,1.0,-152.0,0.0,0.0,-1000.0,2.6666666666666665,2.0,2.6666666666666665
14:41:08,RTL,283325.0,0.0009138148743659258,0.0017352415015920997,0.03900951767961184,-0.00020741954601059356,0.0004075202935685714,0.001428117121880253,-35.3623828,149.1652869,168230.0,-1.0,1.0,-152.0,0.0,0.0,-1000.0,2.0,2.6666666666666665,3.6666666666666665
14:41:10,RTL,283325.0,0.0007565718648644785,0.0015396445523947477,0.03919686252872149,0.001170641432205836,-0.0009439205750823021,0.0006701977302630743,-35.3623828,149.1652869,171333.33333333334,-1.0,1.0,-152.0,0.0,0.0,-1000.3333333333334,3.3333333333333335,1.3333333333333333,2.6666666666666665
14:41:11,RTL,242348.0,0.0008304427998761336,0.001395281443061928,0.03919147948424021,-0.0009740615108360847,0.00041702839856346446,0.0007459242672969898,-35.3623828,149.1652869,173274.0,-1.0,1.0,-152.0,0.0,0.0,-999.3333333333334,1.3333333333333333,2.6666666666666665,2.6666666666666665
14:41:12,RTL,242348.0,0.0008076991070993245,0.0016202906457086403,0.03920213505625725,0.0007110823256274065,0.00011407529624799888,0.0009395622182637453,-35.3623828,149.1652869,174439.33333333334,-1.0,1.0,-152.0,0.0,0.0,-1000.0,2.6666666666666665,2.3333333333333335,3.0
14:41:14,RTL,242348.0,0.0003506239930478235,0.001498849558023115,0.04013940443595251,0.0011142856286217768,0.0006089181794474522,0.002446306093285481,-35.3623828,149.1652869,177545.66666666666,-1.0,0.0,-152.0,0.0,0.0,-999.6666666666666,3.6666666666666665,2.6666666666666665,4.333333333333333
14:41:15,RTL,300000.0,0.0013386898596460621,0.0019624916603788733,0.04008988291025162,0.0018886727436135213,0.00043343457703789073,0.002325313398614526,-35.3623828,149.1652869,179488.0,-1.0,0.0,-152.0,0.0,0.0,-999.6666666666666,4.333333333333333,2.6666666666666665,4.666666666666667
14:41:16,RTL,300000.0,0.0012507721160848935,0.0018804853704447548,0.04010151450832685,-0.0012695251498371363,-0.000949728419072926,0.0014225910417735577,-35.3623828,149.1652869,180657.0,-1.0,1.0,-152.0,0.0,0.0,-999.6666666666666,1.0,1.3333333333333333,3.3333333333333335
14:41:18,RTL,300000.0,0.0007031190325506032,0.0017534504489352305,0.03996327022711436,3.9944114784399666e-05,0.00024884116525451344,-0.00043736448666701716,-35.3623828,149.1652869,183762.33333333334,-1.0,1.0,-152.0,0.0,0.0,-1000.0,2.3333333333333335,2.6666666666666665,1.6666666666666667
14:41:19,RTL,154368.0,0.0008912935348538061,0.0016733695520088077,0.03996086741487185,0.0005925344303250313,0.0002688727496812741,0.0017991136604299147,-35.3623828,149.1652869,185704.0,-1.0,1.0,-152.0,0.0,0.0,-1000.0,3.0,2.6666666666666665,4.0
14:41:20,RTL,154368.0,0.000840147549752146,0.0017929374395559232,0.040102494259675346,-0.0005003304686397314,0.0002728183753788471,0.0007980000227689743,-35.3623828,149.1652869,186872.66666666666,-1.0,1.0,-152.0,0.0,0.0,-1000.0,2.0,2.3333333333333335,3.0
14:41:22,RTL,154368.0,0.0007382641973284384,0.0016641608672216535,0.039913603415091835,0.0006899596968044838,-0.00047155267869432765,0.00043180615951617557,-35.3623828,149.1652869,189975.66666666666,-1.0,1.0,-152.0,0.0,0.0,-1000.0,3.3333333333333335,1.6666666666666667,2.6666666666666665
14:41:23,RTL,22296.0,0.0007893364721288284,0.001395838102325797,0.03978193178772926,0.0006431014044210315,0.0008239446518321832,6.588276786108811e-05,-35.3623828,149.1652869,191921.66666666666,-1.0,1.0,-152.0,0.0,0.0,-999.6666666666666,3.3333333333333335,3.3333333333333335,2.0
14:41:24,RTL,22296.0,0.0008906492924628159,0.0015907253061110775,0.03989581142862638,-6.287397506336372e-05,-6.867231180270512e-05,0.00036430560673276585,-35.3623828,149.1652869,193094.66666666666,-1.0,1.0,-152.0,0.0,0.0,-1000.3333333333334,2.6666666666666665,2.6666666666666665,2.6666666666666665
14:41:26,RTL,22296.0,0.0008462919116330644,0.0017615922261029482,0.03984276329477628,-0.0002889423631131649,-7.653655484318733e-05,0.0004449147575845321,-35.3623828,149.1652869,196193.0,-1.0,1.0,-152.0,0.0,0.0,-1000.3333333333334,2.0,2.3333333333333335,2.3333333333333335
14:41:27,RTL,6492.0,0.0008288647513836622,0.0017739044269546866,0.03981215258439382,-0.0007178932040308913,0.0005897688679397106,0.00015046028420329094,-35.3623828,149.1652869,198134.33333333334,-1.0,1.0,-152.0,0.0,0.0,-1000.0,2.0,3.0,2.3333333333333335
14:41:28,RTL,6492.0,0.0007889963065584501,0.0020297926384955645,0.03978637481729189,0.0012701614759862423,0.0006997524760663509,0.0010836294386535883,-35.3623828,149.1652869,199299.66666666666,-1.0,1.0,-152.0,0.0,0.0,-999.6666666666666,3.6666666666666665,3.3333333333333335,3.0
14:41:30,RTL,6492.0,0.0007510409535219272,0.0016730402906735737,0.04066599036256472,0.0006104435306042433,8.674509202440579e-05,0.001138046073416869,-35.3623828,149.1652869,202414.33333333334,-1.0,1.0,-152.0,0.0,0.0,-1000.0,3.3333333333333335,2.6666666666666665,3.0
14:41:31,RTL,273181.0,0.0007696114286469916,0.001727632712572813,0.04057774071892103,0.00024396468264361223,0.0003228976856917143,0.0006897604713837305,-35.3623828,149.1652869,204356.0,-1.0,1.0,-152.0,0.0,0.0,-999.6666666666666,3.0,3.0,2.6666666666666665
14:41:33,RTL,273181.0,0.0008615197924276193,0.0016495418191576998,0.04029299194614092,0.001096942462027073,0.0006025931021819512,0.0006606451546152433,-35.3623828,149.1652869,207462.33333333334,-1.0,1.0,-152.0,0.0,0.0,-1000.0,3.6666666666666665,3.3333333333333335,3.0
14:41:34,RTL,212210.0,0.0007883559834832946,0.001649916754104197,0.04025142888228098,-0.00039639944831530255,-0.0006624781914676229,0.0010207134764641523,-35.3623828,149.1652869,208627.66666666666,-1.0,1.0,-152.0,0.0,0.0,-1000.0,2.0,2.0,3.0
14:41:35,RTL,212210.0,0.0008311513617324332,0.0013134829932823777,0.040291186422109604,0.00030437759899844724,0.00011717054682473342,0.0002608598830799262,-35.3623828,149.1652869,210569.33333333334,-1.0,1.0,-152.0,0.0,0.0,-1000.0,2.3333333333333335,2.6666666666666665,2.6666666666666665
14:41:36,RTL,212210.0,0.0009058080807638665,0.0015117501995215814,0.040258130679527916,-0.0001185927540063858,0.0005536749958992004,0.0002784659154713154,-35.3623828,149.1652869,211734.66666666666,-1.0,1.0,-152.0,0.0,0.0,-1000.0,2.6666666666666665,3.3333333333333335,2.3333333333333335
14:41:37,RTL,200.0,0.0007020575188410779,0.0017181684185440342,0.039945354064305626,0.0005646285911401113,-0.0005513814588387808,0.00040981600371499855,-35.3623828,149.1652869,213677.66666666666,-1.0,1.0,-152.0,0.0,0.0,-1000.3333333333334,3.0,2.3333333333333335,2.6666666666666665
14:41:38,RTL,200.0,0.0009419991207929949,0.001553316794646283,0.04015366484721502,-0.0009610946290194988,0.00012514437548816204,0.0009967093355953693,-35.3623828,149.1652869,214846.0,-1.0,1.0,-152.0,0.0,0.0,-999.6666666666666,2.0,3.0,3.3333333333333335
14:41:40,RTL,200.0,0.0008133614125351111,0.0021062333835288882,0.040190638353427253,0.0008247965791573127,0.0016421766486018896,0.0005074816290289164,-35.3623828,149.1652869,217949.0,-1.0,1.0,-152.0,0.0,0.0,-1000.0,3.3333333333333335,4.0,3.0
14:41:41,RTL,100624.0,0.00082401029067114,0.001957896437185506,0.040090495099624,9.097841878732045e-05,5.85292000323534e-05,2.32779032861193e-05,-35.3623828,149.1652869,219890.0,-1.0,1.0,-152.0,0.0,0.0,-1000.0,3.0,2.6666666666666665,2.3333333333333335
14:41:42,RTL,100624.0,0.0008444933919236064,0.001834927941672504,0.040120972941319145,-0.00017092966785033545,-0.0004913505011548599,0.0006126289566357931,-35.3623828,149.1652869,221055.0,-1.0,1.0,-152.0,0.0,0.0,-1000.0,2.6666666666666665,2.3333333333333335,3.3333333333333335
14:41:44,RTL,100624.0,0.0008019328233785927,0.0017981719380865495,0.04013216495513916,0.0001961022304991881,0.00019181314079711834,0.000436015659943223,-35.3623828,149.1652869,224168.33333333334,-1.0,1.0,-152.0,0.0,0.0,-999.6666666666666,3.3333333333333335,2.6666666666666665,2.6666666666666665
14:41:45,RTL,295309.0,0.0006351235206238925,0.0019704628114899,0.04024795318643252,0.00030292019558449584,0.0010712566630293925,0.001582839759066701,-35.3623828,149.1652869,226106.66666666666,-1.0,1.0,-152.0,0.0,0.0,-999.6666666666666,3.0,3.6666666666666665,4.0
14:41:46,RTL,295309.0,0.0006978421006351709,0.00181266397703439,0.04077685003479322,0.0002610700127358238,-0.0006960881485914191,0.0015206819710632165,-35.3623828,149.1652869,227271.33333333334,-1.0,1.0,-152.0,0.0,0.0,-999.6666666666666,3.0,2.0,3.6666666666666665
14:41:48,RTL,295309.0,0.0008116640189352135,0.0014775704282025497,0.04066675901412964,0.0006124638797094425,0.0003502574594070514,0.0002827159672354658,-35.3623828,149.1652869,230378.33333333334,-1.0,1.0,-152.0,0.0,0.0,-1000.3333333333334,3.6666666666666665,3.0,3.0
14:41:49,RTL,77822.0,0.0008146551166040202,0.0016333126307775576,0.04035487025976181,0.0011023252736777067,0.0005678771218905846,-0.00011914432980120182,-35.3623828,149.1652869,232320.33333333334,-1.0,1.0,-152.0,0.0,0.0,-1000.0,4.0,3.3333333333333335,2.3333333333333335
14:41:51,RTL,77822.0,0.000792472215835005,0.0016035701264627278,0.040293389931321144,-0.0008394429460167885,8.046254515647888e-05,0.0014219314325600863,-35.3623828,149.1652869,235241.0,-1.0,1.0,-152.0,0.0,0.0,-999.5,2.5,3.0,4.0
14:41:52,RTL,121129.0,0.0010277409164700657,0.0018051252409350127,0.04045029450207949,4.889979027211666e-05,0.0011806681286543608,0.0011481858673505485,-35.3623828,149.1652869,236405.5,-1.0,1.0,-152.0,0.0,0.0,-999.75,3.0,4.0,3.75
14:41:53,RTL,121129.0,0.0007895556821798285,0.0020590071799233556,0.04037975644071897,-0.0009905354430278142,-0.0009186928315709034,0.000494763565560182,-35.3623828,149.1652869,238541.66666666666,-1.0,1.0,-152.0,0.0,0.0,-1000.5,3.5,2.5,3.5
14:41:55,RTL,121129.0,0.0008310697933969399,0.0017506456545864542,0.040303981552521385,0.00047028988289336365,0.00010515966763099034,0.00028896556856731576,-35.3623828,149.1652869,241647.0,-1.0,1.0,-152.0,0.0,0.0,-1000.0,3.3333333333333335,3.0,2.6666666666666665
14:41:56,RTL,180447.0,0.0008661987376399338,0.0017720968074475725,0.04025393103559812,0.0002086687988291184,4.3891059855620064e-05,0.002136360310638944,-35.3623828,149.1652869,242812.33333333334,-1.0,1.0,-152.0,0.0,0.0,-999.6666666666666,3.3333333333333335,2.6666666666666665,4.666666666666667
14:41:57,RTL,180447.0,0.0006242336821742356,0.0018583769754817088,0.04031824320554733,-0.0013864922802895308,-0.00039125389109055203,-0.0003770745825022459,-35.3623828,149.1652869,244754.33333333334,-1.0,1.0,-152.0,0.0,0.0,-999.5,1.0,3.0,2.5
14:41:58,RTL,180447.0,0.0010976403718814254,0.0016745623433962464,0.0401796189447244,0.002277660338828961,-0.00046717111642162007,0.0005264212377369404,-35.3623828,149.1652869,245923.33333333334,-1.0,1.0,-152.0,0.0,0.0,-1000.25,4.5,2.0,2.75
14:41:59,RTL,271223.0,0.001000805893757691,0.001202298483500878,0.040140180538098015,0.00011378433555364609,0.0004166028617570798,0.0013059276000907023,-35.3623828,149.1652869,247860.66666666666,-1.0,1.0,-152.0,0.0,0.0,-1000.0,3.0,3.3333333333333335,4.0
14:42:01,RTL,271223.0,0.000616337745062386,0.001781729399226606,0.04038758327563604,-0.000686880045880874,0.0011201490027209122,0.0014527836659302313,-35.3623828,149.1652869,250773.0,-1.0,1.0,-152.0,0.0,0.0,-999.5,1.5,3.5,3.0
14:42:02,RTL,207607.0,0.000450156726098309,0.0018395312363281846,0.0407235361635685,0.001057140063494444,0.00042701846299072105,0.0008453583965698878,-35.3623828,149.1652869,251937.75,-1.0,0.75,-152.0,0.0,0.0,-999.75,4.25,3.5,4.25
14:42:03,RTL,207607.0,0.0008638646686449647,0.0015821924898773432,0.04085611800352732,0.00027751301725705463,0.0002794816003491481,0.0016890418094893296,-35.3623828,149.1652869,254078.66666666666,-1.0,1.0,-152.0,0.0,0.0,-999.5,2.0,3.0,5.0
14:42:05,RTL,207607.0,0.0009205306705553085,0.0021676658652722836,0.04067159257829189,0.001155384350568056,0.00011250702664256096,0.0016292865620926023,-35.3623828,149.1652869,256991.5,-1.0,1.0,-152.0,0.0,0.0,-1000.0,4.0,3.0,4.0
14:42:06,RTL,300000.0,0.0008392905438086018,0.001970489101950079,0.04058075789362192,-7.540977094322443e-05,-2.669298555701971e-05,0.0005521267594303936,-35.3623828,149.1652869,258156.5,-1.0,1.0,-152.0,0.0,0.0,-999.75,3.0,2.75,3.25
14:42:07,RTL,300000.0,0.0008044966089073569,0.001847952720709145,0.04053330048918724,0.0003866013139486313,0.00027847057208418846,0.00042671640403568745,-35.3623828,149.1652869,260098.5,-1.0,1.0,-152.0,0.0,0.0,-1000.0,3.5,3.0,3.5
14:42:09,RTL,300000.0,0.0009520457533653826,0.001804472878575325,0.04052486643195152,0.0013440261827781796,0.000306964386254549,0.000732716522179544,-35.3623828,149.1652869,263360.0,-1.0,1.0,-152.0,0.0,0.0,-999.5,4.5,3.5,3.5
14:42:10,RTL,300000.0,0.0007234918448375538,0.0016942169168032706,0.04029661696404219,-0.0006585852243006229,-0.0005383146344684064,0.001143958477769047,-35.3623828,149.1652869,264532.75,-1.0,1.0,-152.0,0.0,0.0,-999.75,2.25,3.0,3.75
14:42:11,RTL,300000.0,0.0008931073534768075,0.0017990610213018954,0.040062613785266876,0.0005695702275261283,-0.00035945605486631393,-0.0005072327330708504,-35.3623828,149.1652869,266319.0,-1.0,1.0,-152.0,0.0,0.0,-1000.0,3.5,2.5,2.0
14:42:13,RTL,300000.0,0.0008763924415688962,0.0015177027089521289,0.04034494794905186,-0.002144181285984814,0.00018988351803272963,-0.0006313038757070899,-35.3623828,149.1652868,269425.5,-1.0,1.0,-152.0,0.0,0.0,-1000.0,1.5,3.0,2.5
14:42:14,RTL,275946.0,0.000979154123342596,0.0017092294292524457,0.04028484970331192,-0.00012285669799894094,0.0002736097085289657,0.0009037955314852297,-35.3623828,149.1652868,270590.5,-1.0,1.0,-152.0,0.0,0.0,-999.75,3.0,3.25,3.75
14:42:15,RTL,275946.0,0.0008609306532889605,0.0017171853687614202,0.0401480458676815,0.0014639424625784159,-0.00041121302638202906,0.0010710529750213027,-35.3623828,149.1652868,272688.0,-1.0,1.0,-152.0,0.0,0.0,-1000.5,4.5,3.0,4.0
14:42:17,RTL,275946.0,0.0006950614042580128,0.0017613909440115094,0.040083546191453934,-0.0006436853436753154,5.054124630987644e-05,-0.0007601886754855514,-35.3623828,149.1652868,275797.5,-1.0,1.0,-152.0,0.0,0.0,-1000.0,3.0,3.0,2.0
14:42:18,RTL,200.0,0.0007121482194634154,0.002304509689565748,0.04078937694430351,0.0007314450340345502,0.0010467232787050307,0.0019125714316032827,-35.3623828,149.1652868,276963.25,-1.0,0.5,-152.0,0.0,0.0,-1000.0,4.0,4.25,5.0
14:42:19,RTL,200.0,0.000890753319254145,0.0017383802332915366,0.04088049568235874,0.0007331416709348559,-0.0006689672591164708,0.0015692737651988864,-35.3623828,149.1652868,278900.5,-1.0,1.0,-152.0,0.0,0.0,-1000.0,4.5,2.5,4.5
14:42:21,RTL,200.0,0.0007913264271337539,0.0016937147011049092,0.040834248065948486,0.00046741939149796963,0.00024699815548956394,0.0017805378884077072,-35.3623828,149.1652868,282008.0,-1.0,1.0,-152.0,0.0,0.0,-1000.0,3.5,3.5,5.0
14:42:22,RTL,271757.0,0.0008582271839259192,0.0018441290012560785,0.040591257624328136,-0.0008049311581999063,-0.00013190077152103186,0.0006227278499864042,-35.3623828,149.1652868,283173.25,-1.0,1.0,-152.0,0.0,0.0,-1000.0,2.5,3.0,3.5
14:42:23,RTL,271757.0,0.0006994525028858334,0.0016014489810913801,0.04066832736134529,0.00035410234704613686,-0.0007170980679802597,-0.0013630370958708227,-35.3623828,149.1652868,285118.0,-1.0,1.0,-152.0,0.0,0.0,-1000.0,4.0,3.0,1.5
14:42:25,RTL,271757.0,0.0008379526261705905,0.0016988148563541472,0.040364738553762436,0.00042996450792998075,0.002580133848823607,-0.00012610596604645252,-35.3623828,149.1652868,288224.0,-1.0,1.0,-152.0,0.0,0.0,-999.5,4.0,6.0,3.0
14:42:26,RTL,200.0,0.0009504873160040006,0.02607610239647329,0.04049255698919296,-0.0006381726125255227,0.04677172005176544,0.00025450129760429263,-35.362383,149.1652868,289384.0,-8.5,0.5,-150.75,0.5,0.25,-998.25,2.75,50.0,3.25
14:42:27,RTL,200.0,-0.003666339907795191,0.07546191290020943,0.04067469388246536,-0.006524040596559644,0.031025948002934456,-6.386905442923307e-05,-35.3623863,149.1652868,291293.5,-63.5,0.0,-147.0,10.5,4.5,-996.5,-2.5,34.5,3.5
14:42:29,RTL,200.0,0.005031371023505926,0.18152573704719543,0.43475325405597687,0.09748466685414314,-0.14945745468139648,0.3141896352171898,-35.36241195,149.16528405,293857.0,-253.5,-47.5,-72.5,49.0,3.0,-935.5,101.0,-145.0,317.0
14:42:30,RTL,200.0,0.07656945940107107,0.12385174818336964,0.5559411346912384,0.027259952388703823,-0.00258948327973485,0.08604037668555975,-35.362431475,149.1652804,294221.75,-317.25,-31.75,-26.5,74.25,4.75,-942.5,31.0,1.0,89.25
14:42:31,RTL,200.0,0.0818207710981369,0.19013822078704834,0.5893939435482025,0.09028076380491257,0.07058745250105858,-0.01357433432713151,-35.3624727,149.1652793,294180.0,-429.5,13.0,25.0,101.0,3.0,-987.5,94.5,74.0,-9.5
14:42:33,RTL,200.0,0.003805335611104965,0.20409342646598816,0.5053857266902924,0.022378340363502502,-0.02028669696301222,-0.04011799767613411,-35.3625691,149.16528025,293832.5,-624.5,-17.0,-1.0,139.5,5.5,-1005.0,26.0,-16.0,-36.0
14:42:34,RTL,42041.0,-0.00775222942684195,0.1896074377000332,0.47507742792367935,-0.006557825952768326,-0.021721498109400272,-0.03717443719506264,-35.362612350000006,149.1652782,293852.75,-660.75,-29.5,-4.75,145.75,16.75,-990.0,-2.5,-17.75,-33.0
14:42:35,RTL,42041.0,-0.021861405111849308,0.15392129123210907,0.42867614328861237,0.0010363906621932983,-0.035202981904149055,-0.03171854745596647,-35.36268785,149.16527309999998,293924.0,-683.5,-38.0,-5.5,149.0,20.5,-986.0,5.5,-31.0,-27.0
14:42:37,RTL,42041.0,-0.028472323901951313,0.15843108296394348,0.3655349463224411,-0.06752201542258263,0.009250364266335964,-0.024991068989038467,-35.3628102,149.1652646,293930.0,-686.5,-35.0,0.5,157.5,20.5,-991.0,-62.5,13.0,-21.0
14:42:38,RTL,200.0,-0.03596614859998226,0.1572386883199215,0.3468891680240631,0.028623662889003754,-0.006796739879064262,-0.019046282744966447,-35.362856475,149.1652617,293924.75,-689.25,-33.5,0.0,160.0,38.0,-995.0,32.5,-3.0,-15.0
14:42:39,RTL,200.0,-0.03692360781133175,0.14926640689373016,0.31952449679374695,-0.060345363803207874,-0.016230564331635833,-0.02681747078895569,-35.36293365,149.1652567,293923.0,-688.5,-33.5,-0.5,155.5,37.5,-992.5,-56.5,-12.0,-22.5
14:42:41,RTL,200.0,-0.049608875066041946,0.10577414557337761,0.28517767786979675,0.22654812783002853,-0.06497353874146938,-0.008008635602891445,-35.36305595,149.16524909999998,293947.5,-662.5,-28.0,-6.0,153.0,52.5,-996.5,230.0,-60.5,-4.0
14:42:42,RTL,197559.0,-0.0588025888428092,0.06511746998876333,0.27605879306793213,0.034158963710069656,-0.050466036424040794,-0.017589095514267683,-35.363099025,149.165246475,293980.0,-618.0,-26.0,-4.0,133.5,46.0,-986.75,38.5,-45.75,-13.5
14:42:43,RTL,197559.0,-0.05969661474227905,0.008988265821244568,0.26369352638721466,0.45639506727457047,-0.05164828896522522,0.027631674893200397,-35.363162700000004,149.16524245,293982.5,-507.5,-21.0,0.5,111.5,75.0,-1006.5,460.5,-47.0,31.0
14:42:45,RTL,197559.0,-0.035471104085445404,-0.04705335199832916,0.24783746898174286,0.6072460263967514,-0.02021528221666813,0.004239166155457497,-35.3632326,149.1652376,293923.0,-276.0,-12.0,1.5,63.0,43.0,-1015.0,611.0,-15.5,8.0
14:42:46,RTL,133395.0,-0.048736048862338066,-0.06827056594192982,0.2425432652235031,-0.3121274635195732,-0.020769209950231016,-0.013941618439275771,-35.363248325,149.165236825,293910.75,-191.0,-8.75,0.25,45.25,11.5,-1008.5,-307.25,-16.5,-10.0
14:42:47,RTL,133395.0,-0.03125104121863842,-0.05677870661020279,0.23368214815855026,-0.4957212954759598,0.01606450229883194,-0.021948555018752813,-35.36326335,149.1652365,293901.5,-69.0,-9.0,0.5,18.0,-28.0,-1001.5,-491.5,19.5,-18.0
14:42:49,RTL,133395.0,-0.013790497090667486,-0.016750280745327473,0.2198512852191925,-0.23606672137975693,0.027876021340489388,3.7155114114284515e-05,-35.36326805,149.1652368,293904.0,12.5,-6.5,-0.5,-2.0,2.5,-1011.5,-231.0,31.5,3.5
14:42:50,RTL,146918.0,0.005124736329889856,-0.002082470018649474,0.21637165546417236,0.039867520332336426,0.0015503773465752602,-0.003095052146818489,-35.363267625000006,149.165236625,293914.0,12.0,-4.75,-0.5,-2.0,-2.75,-996.0,43.5,5.5,1.0
14:42:51,RTL,146918.0,0.019328330643475056,-0.014288476202636957,0.21142809838056564,0.14301595091819763,-8.550845086574554e-05,-0.009721870999783278,-35.3632669,149.16523569999998,293924.0,13.0,3.0,0.5,-3.5,-5.0,-992.5,146.5,4.0,-5.0
14:42:53,RTL,146918.0,0.0031681701075285673,-0.0012686008994933218,0.20299970358610153,-0.34265391156077385,0.008063271176069975,-0.005729056429117918,-35.363264650000005,149.16523535,293926.5,13.5,14.5,0.0,-2.0,-3.5,-1005.0,-337.5,11.0,-1.5
14:42:54,RTL,35689.0,0.007098250673152506,0.0011825930523627903,0.19955430924892426,0.0076746270060539246,0.0010214524227194488,-0.007504364009946585,-35.363264025,149.165235925,293927.25,11.0,12.75,0.5,-0.5,-7.75,-1005.75,11.75,4.5,-3.25
14:42:55,RTL,35689.0,0.0021897515980526805,0.0020931775216013193,0.19378819316625595,0.29427097365260124,-0.004424217855557799,-0.004165283520705998,-35.36326335,149.1652371,293918.5,7.0,5.5,6.5,0.0,-6.0,-959.5,298.0,-0.5,0.0
14:42:57,RTL,35689.0,-0.018531897570937872,-0.0019937645993195474,0.18688656389713287,-1.6180050373077393,0.0016530430875718594,-0.010470742359757423,-35.3632631,149.1652381,292547.5,5.0,-4.0,121.0,0.0,-78.0,-948.0,-1614.0,4.5,-6.5
14:42:58,RTL,241739.0,-0.005901127879042178,-0.002101896039675921,0.18574023619294167,-1.0769176930189133,0.0019855366554111242,-0.0024356202338822186,-35.36326305,149.1652382,291675.75,5.25,-5.25,106.75,-0.5,-80.0,-992.0,-1074.25,5.0,1.25
14:42:59,RTL,241739.0,-0.014904072973877192,-0.0028867690125480294,0.1811094582080841,-1.199155330657959,-0.003935698536224663,-0.005447004223242402,-35.363263,149.1652382,290353.5,6.0,-6.0,98.0,0.0,-65.5,-1027.5,-1195.5,-0.5,-0.5
14:43:01,RTL,241739.0,-0.010791192064061761,-0.00029574401560239494,0.17743464559316635,-0.8086460083723068,0.001552408910356462,-0.005691951839253306,-35.3632629,149.1652387,288301.5,6.0,-8.0,99.0,1.0,-69.0,-995.5,-806.0,4.0,-1.5
14:43:02,RTL,186628.0,-0.018938733264803886,0.0016743506130296737,0.17591134831309319,-1.0070992410182953,0.0042650161776691675,-0.011952338507398963,-35.363262925,149.1652395,287539.5,7.0,-13.25,99.25,3.5,-83.75,-958.0,-1004.5,7.0,-7.75
14:43:03,RTL,186628.0,-0.04325290769338608,0.0013864380307495594,0.17241841554641724,-1.3026664853096008,-0.00865869503468275,-0.0067234080052003264,-35.3632631,149.16524145,286267.0,8.5,-27.0,102.0,3.0,-80.0,-983.5,-1300.0,-5.0,-3.0
14:43:05,RTL,186628.0,-0.027900653891265392,0.0002444533311063424,0.16882412880659103,0.6096925735473633,-0.013071945868432522,-0.014739049132913351,-35.3632636,149.165244,284230.5,12.5,-48.0,98.5,2.5,-12.0,-956.5,610.0,-9.0,-10.5
14:43:06,RTL,53051.0,-0.0401269756257534,-0.0007886185339884833,0.16632306203246117,0.18163751251995564,-0.006650287949014455,0.003713970654644072,-35.363263675,149.165244825,283473.25,13.25,-55.5,99.5,0.25,-21.75,-1011.5,181.5,-3.25,7.25
14:43:07,RTL,53051.0,-0.015502704307436943,-0.006554838502779603,0.1642029955983162,0.5181170180439949,-0.01051967591047287,-0.009346456732600927,-35.3632637,149.165244,282204.5,13.5,-62.0,104.5,-4.0,-8.0,-1021.5,517.0,-6.5,-5.0
14:43:09,RTL,53051.0,0.00799930328503251,-0.00735651096329093,0.16170897334814072,-0.6764526814222336,-0.0021916592959314585,-0.00807854626327753,-35.363263149999995,149.16523915,280168.0,10.5,-30.5,98.5,-4.5,-49.0,-1015.5,-677.0,1.0,-4.0
14:43:10,RTL,209074.0,0.010441034653922543,-0.004079084377735853,0.16150523722171783,-0.7443053172901273,0.004366983950603753,-0.0016576150665059686,-35.363262774999995,149.1652379,279392.0,8.75,-18.75,103.25,-2.5,-62.0,-992.75,-744.75,6.75,2.25
14:43:11,RTL,209074.0,-0.0016591373132541776,0.0033236119197681546,0.16173678636550903,-0.3022855520248413,0.0029895492480136454,-0.01690296269953251,-35.3632624,149.1652378,278125.5,5.5,-3.5,103.0,4.0,-54.0,-975.0,-303.0,5.5,-12.5
14:43:13,RTL,209074.0,-0.019218760076910257,0.0010863354109460488,0.15681112557649612,0.03790736384689808,-0.011721053626388311,0.0017536799423396587,-35.3632626,149.16524114999999,276074.5,4.0,-24.5,101.5,0.5,-35.5,-963.5,36.0,-8.5,5.0
14:43:14,RTL,66450.0,-0.007752757577691227,-0.004416341573232785,0.1560836210846901,0.009969042614102364,-0.005310886888764799,0.005448327283374965,-35.363262750000004,149.165240925,275316.5,4.0,-30.0,101.5,-2.25,-37.75,-970.25,8.25,-2.25,9.25
14:43:15,RTL,66450.0,0.025593804195523262,-0.009863288141787052,0.15544799715280533,0.32368701696395874,-0.006608449388295412,-0.0009170006960630417,-35.3632628,149.1652381,274019.5,4.0,-18.5,100.5,-5.0,-11.0,-1010.5,321.5,-3.0,3.5
14:43:17,RTL,66450.0,0.045355504378676414,-0.0026408255798742175,0.1548377051949501,1.3803520202636719,0.0004988787695765495,0.00191679154522717,-35.3632622,149.1652341,271969.5,2.0,17.0,95.5,-1.0,70.0,-1010.5,1381.5,3.0,5.5
14:43:18,RTL,200.0,0.04350006580352783,-0.0003777850456572196,0.15415052324533463,1.1249279975891113,0.0004777628055308014,0.003522675368003547,-35.363262025,149.165233925,271212.75,0.5,24.25,99.25,0.75,18.5,-985.0,1124.25,3.0,7.75
14:43:19,RTL,200.0,0.03208756446838379,0.0013521640794351697,0.15365733206272125,1.1091866493225098,-0.006565154762938619,-0.0038570209871977568,-35.363262,149.16523469999998,269933.5,0.0,25.5,96.0,0.5,22.0,-1008.0,1108.5,-3.5,0.5
14:43:21,RTL,200.0,0.032810892909765244,-0.00104258929786738,0.1524389237165451,1.1580999493598938,-0.008675224147737026,0.001652345759794116,-35.3632621,149.1652353,267893.0,0.0,19.5,99.5,0.0,23.5,-995.0,1158.0,-5.5,5.0
14:43:22,RTL,223336.0,0.03364894539117813,-0.0014694923447677866,0.1505536362528801,1.090689778327942,-0.001924741780385375,0.0023438986390829086,-35.363262150000004,149.1652353,267128.0,0.0,19.0,99.0,1.0,19.75,-1007.25,1090.5,1.25,6.25
14:43:23,RTL,223336.0,0.03478557337075472,-0.004688407760113478,0.1511239930987358,1.3751952648162842,-0.0015653319424018264,0.008305212715640664,-35.3632623,149.16523495,265860.0,0.0,20.5,97.5,-1.0,53.0,-1031.0,1376.5,1.0,12.0
14:43:25,RTL,223336.0,0.030376468785107136,-0.0012748244334943593,0.15031682699918747,1.4245362877845764,-0.004092428251169622,0.0041646347381174564,-35.3632623,149.16523504999998,263832.5,1.0,24.0,102.0,0.5,42.5,-985.5,1425.0,-1.5,7.5
14:43:26,RTL,186747.0,0.029933206271380186,-0.0005028741288697347,0.14964637905359268,1.2813564836978912,0.0006564459763467312,0.0013273717486299574,-35.3632623,149.16523532500003,263066.25,0.75,21.75,99.5,0.0,43.25,-1029.75,1282.5,3.25,5.0
14:43:27,RTL,186747.0,0.03520929254591465,-0.0013516509206965566,0.14842896908521652,1.2533319592475891,-0.006693859351798892,-0.005386154865846038,-35.3632622,149.16523515,261797.5,0.0,21.0,100.0,-1.0,43.5,-998.0,1254.5,-3.5,-1.0
14:43:29,RTL,186747.0,0.06829813867807388,-0.0022757481783628464,0.1493111103773117,0.746435672044754,0.007971413433551788,0.00046584662050008774,-35.3632617,149.16523189999998,259751.5,-3.5,38.0,105.0,-1.5,-3.5,-941.0,747.5,10.0,4.5
14:43:30,RTL,163177.0,0.05884030740708113,-0.0002744846569839865,0.14814027771353722,0.4348173327744007,0.002962813654448837,-0.0006979146273806691,-35.363261475,149.165231275,258987.0,-4.5,46.75,101.25,0.75,-15.75,-995.75,436.25,5.0,3.25
14:43:31,RTL,163177.0,0.04222243092954159,0.004202762618660927,0.14841897785663605,0.13678373210132122,-0.0020012613385915756,-0.005136270076036453,-35.3632614,149.16523195,257716.5,-5.0,49.5,103.0,5.0,-39.0,-980.0,138.5,0.5,-1.0
14:43:33,RTL,163177.0,0.015427753329277039,0.005030108615756035,0.14797460287809372,0.8010295033454895,-0.001648611854761839,-0.006213582353666425,-35.36326185,149.16523555,255673.0,-3.0,29.0,99.5,5.0,-2.5,-998.5,803.5,1.0,-2.0
14:43:34,RTL,217175.0,0.0029245273981359787,0.005130933364853263,0.1484280824661255,0.5542118288576603,-0.0027314929175190628,-0.006362635234836489,-35.3632621,149.1652373,254902.25,-1.0,16.0,102.0,3.75,-13.25,-990.75,556.5,0.0,-2.25
14:43:35,RTL,217175.0,-0.00245887681376189,0.0021360369864851236,0.1453832983970642,1.2581185698509216,-0.009076845133677125,0.009402250405400991,-35.36326255,149.16523975,253607.0,1.0,-5.0,96.5,4.0,31.5,-1051.0,1261.5,-6.5,13.0
