time_stamp,MODE,RTL_ALT,LAND_SPEED_HIGH,WPNAV_SPEED_DN,roll,pitch,yaw,rollspeed,pitchspeed,yawspeed,lat,lon,relative_alt,vx,vy,vz,xacc,yacc,zacc,xgyro,ygyro,zgyro
11:12:00,GUIDED,1500.0,370.0,90.0,0.00015733111649751663,0.0016027214005589485,0.02618989534676075,0.00018488234491087496,0.0003867808263748884,0.0022553950548171997,-35.3632621,149.1652374,0.0,-1.0,1.0,2.0,0.0,1.0,-1000.0,0.0,0.0,0.0
11:12:02,GUIDED,1500.0,370.0,90.0,-0.00012048861390212551,0.0013701033312827349,0.024930477142333984,0.0003476646961644292,0.00025096541503444314,0.002150114858523011,-35.3632622,149.1652376,5.0,-2.0,3.0,3.0,0.0,1.0,-1000.0,0.0,0.0,0.0
11:12:04,GUIDED,1500.0,370.0,90.0,-0.0006860894500277936,0.0013951202854514122,0.024021903052926064,0.00024368957383558154,0.0002795512555167079,0.001984251430258155,-35.3632621,149.1652375,0.0,0.0,0.0,1.0,0.0,1.0,-1000.0,0.0,0.0,0.0
11:12:06,GUIDED,1500.0,370.0,90.0,0.0017972624627873302,0.0008029364398680627,0.023184867575764656,0.01755124144256115,-0.010232211090624332,0.0013112868182361126,-35.3632621,149.1652374,13.0,0.0,-1.0,-12.0,0.0,0.0,-1128.0,18.0,-9.0,0.0
11:12:08,GUIDED,1500.0,370.0,90.0,0.04850707948207855,-0.008154338225722313,0.02288295514881611,0.039921339601278305,-0.007990725338459015,0.0036802799440920353,-35.3632615,149.1652386,2254.0,8.0,25.0,-149.0,0.0,-4.0,-1001.0,40.0,-7.0,3.0
11:12:10,GUIDED,1500.0,370.0,90.0,-0.03718612343072891,0.003430754877626896,-0.0816667340695858,-0.0685751736164093,-0.003712658421136439,-0.03147740010172129,-35.36325965,149.16524815000002,5141.0,3.5,31.0,-150.5,3.5,-8.0,-998.5,-68.0,-3.0,-31.5
11:12:14,GUIDED,1500.0,370.0,90.0,0.05668749287724495,-0.06866318732500076,-0.05120639130473137,-0.0226112212985754,-0.11016019433736801,0.1282135397195816,-35.3632649,149.1652366,11388.0,-4.0,45.0,-150.0,7.0,-5.0,-1003.0,-21.0,-109.0,127.0
11:12:16,GUIDED,1500.0,370.0,90.0,-0.047505978494882584,0.03170236945152283,-0.19790899753570557,0.04367036372423172,0.02217378281056881,-0.05419051647186279,-35.3632576,149.1652418,14459.0,26.0,-30.0,-154.0,-10.0,-1.0,-1001.0,44.0,22.0,-54.0
11:12:18,GUIDED,1500.0,370.0,90.0,0.06702879816293716,0.03994465246796608,-0.22766020894050598,0.05995958670973778,-0.025889458134770393,0.003150594187900424,-35.3632604,149.1652349,17600.0,-51.0,10.0,-153.0,7.0,8.0,-1000.0,60.0,-25.0,2.0
11:12:20,GUIDED,1500.0,370.0,90.0,-0.07358011603355408,-0.024530498310923576,-0.20738795399665833,-0.003558021504431963,0.058064475655555725,-0.10545184463262558,-35.3632618,149.1652433,20674.0,44.0,-4.0,-152.0,-6.0,-8.0,-1005.0,-2.0,58.0,-106.0
11:12:22,GUIDED,1500.0,370.0,90.0,0.0011977269314229488,0.06773566454648972,-0.34110063314437866,0.07372880727052689,0.01922353357076645,-0.01865905523300171,-35.3632592,149.1652308,23763.0,-44.0,-66.0,-153.0,-7.0,17.0,-1004.0,74.0,19.0,-19.0
11:12:24,GUIDED,1500.0,370.0,90.0,0.08959781378507614,-0.04695265367627144,-0.3025754392147064,-0.09449761360883713,-0.21541737020015717,0.16738271713256836,-35.3632722,149.1652327,26846.0,-54.0,103.0,-147.0,26.0,-2.0,-1007.0,-93.0,-214.0,166.0
11:12:26,GUIDED,1500.0,370.0,90.0,-0.08361715078353882,0.0013855935540050268,-0.292604923248291,0.05377248302102089,0.11764160543680191,0.0050973230972886086,-35.3632594,149.1652417,29779.0,118.0,-76.0,-147.0,-25.0,-8.0,-1018.0,54.0,118.0,4.0
11:12:28,GUIDED,1500.0,370.0,90.0,0.019063109163350116,0.1261842424670855,-0.3027707040309906,0.07987140615781148,0.024762053430701297,0.001769455790054053,-35.363253766666666,149.16522210000002,32505.333333333332,-61.333333333333336,-78.66666666666667,-153.0,-8.333333333333334,20.333333333333332,-1002.0,80.0,25.0,1.3333333333333333
11:12:30,GUIDED,1500.0,370.0,90.0,0.13645124435424805,0.03354072105139494,-0.2899038890997569,0.030025632431109745,-0.13256269817550978,0.04940925460929672,-35.36327095,149.16522511666668,34888.0,-131.0,119.0,-138.0,37.5,6.333333333333333,-1006.1666666666666,30.666666666666668,-131.33333333333334,48.833333333333336
11:12:32,GUIDED,1500.0,370.0,90.0,-0.10532452818006277,-0.13656404241919518,-0.3102409057319164,-0.17331234738230705,0.11789294891059399,-0.16790595650672913,-35.363267475,149.165269525,38000.5,198.0,107.25,-139.25,-6.5,-53.5,-1035.25,-172.0,118.25,-167.75
11:12:34,GUIDED,1500.0,370.0,90.0,-0.11722727306187153,0.12442764826118946,-0.4459819197654724,0.061861203983426094,0.11465048603713512,0.003669137164251879,-35.363240475,149.16525694999999,40827.25,32.75,-166.75,-149.25,-39.0,9.0,-1013.25,62.25,114.75,3.25
11:12:36,GUIDED,1500.0,370.0,90.0,0.09028270840644836,0.044096775352954865,-0.31817203760147095,0.12070917338132858,-0.14134660363197327,0.09347851574420929,-35.3632756,149.165231,44070.0,-275.0,31.0,-138.0,46.0,46.0,-1042.0,121.0,-140.0,93.0
11:12:38,GUIDED,1500.0,90.0,90.0,0.05513213947415352,-0.25499022006988525,-0.15539811551570892,-0.19696982204914093,0.07714897394180298,-0.07897544652223587,-35.3632968,149.1652609,47091.0,118.0,188.0,-123.0,5.0,-47.0,-986.0,-195.0,78.0,-78.0
11:12:40,LAND,1500.0,90.0,90.0,-0.1791265606880188,0.010785314254462719,-0.5057077407836914,0.05295301228761673,0.22525125741958618,-0.02610449306666851,-35.3632543,149.1652674,49643.0,208.0,-174.0,-138.0,-58.0,-29.0,-1045.0,54.0,226.0,-25.0
11:12:42,LAND,1500.0,450.0,90.0,-0.036850590258836746,0.22932769358158112,-0.5218221545219421,0.07568647712469101,-0.18089696764945984,0.09109410643577576,-35.3632563,149.1652217,52474.0,-249.0,-139.0,-112.0,-13.0,62.0,-990.0,76.0,-179.0,91.0
11:12:44,LAND,1500.0,460.0,90.0,0.07419677823781967,-0.18345922231674194,-0.16515715420246124,-1.112431526184082,0.5082436800003052,-0.04046659544110298,-35.3632816,149.165224,53756.0,164.0,130.0,50.0,-12.0,-82.0,-949.0,-1110.0,508.0,-39.0
11:12:46,LAND,1500.0,460.0,90.0,-0.07618072628974915,0.08767438679933548,-0.22796280682086945,-1.6070095300674438,-0.034497760236263275,-0.023496780544519424,-35.3632579,149.1652412,51824.0,39.0,15.0,181.0,0.0,-107.0,-792.0,-1615.0,-33.0,-23.0
11:12:48,LAND,1500.0,490.0,90.0,-0.029785068705677986,3.772003886600336e-05,-0.25652556618054706,-0.94224480787913,0.05406778499794503,0.009033767875128737,-35.36325876666667,149.1652425,45821.666666666664,-20.666666666666668,-11.666666666666666,366.0,1.75,-13.5,-973.75,-964.0,38.25,5.0
11:12:50,LAND,1500.0,490.0,90.0,-0.032663166522979736,-0.008080010302364826,-0.2881309986114502,1.3317595720291138,0.10527455061674118,-0.05304284393787384,-35.3632612,149.1652447,37758.0,0.0,-27.0,327.0,0.0,103.0,-1028.0,1341.0,105.0,-52.0
11:12:52,LAND,1500.0,490.0,90.0,-0.02892543189227581,-0.0024282413069158792,-0.3083510994911194,1.460739016532898,0.08625892549753189,-0.012437643483281136,-35.3632609,149.1652454,31350.0,-1.0,-42.0,319.0,-6.0,108.0,-1020.0,1470.0,86.0,-11.0
11:12:54,LAND,1500.0,370.0,90.0,-0.04179232940077782,-0.0029003304662182927,-0.32239751517772675,-1.7576144337654114,-0.004125548934098333,-0.016198445577174425,-35.36326115,149.16524235,25507.0,-3.0,-32.5,232.0,-8.0,-33.5,-1074.5,-1754.0,-4.0,-15.5
11:12:56,LAND,1500.0,100.0,90.0,0.03879791311919689,-0.004405379605789979,-0.33649957180023193,0.3790098230044047,0.01201809182142218,-0.00826225553949674,-35.36326256666667,149.16523673333333,21215.333333333332,7.0,5.0,220.66666666666666,-6.0,82.66666666666667,-979.6666666666666,390.3333333333333,12.333333333333334,-7.0
11:12:58,LAND,1500.0,100.0,90.0,0.03720710799098015,0.004508597310632467,-0.3462825417518616,-1.0504099130630493,-0.004820769652724266,-0.0020435829646885395,-35.3632632,149.1652329,19394.0,17.0,39.0,42.0,-2.0,-39.0,-951.0,-1050.0,-4.0,-1.0
11:13:00,LAND,1500.0,200.0,90.0,0.016853176057338715,0.008051309734582901,-0.3571454584598541,-1.8117034435272217,0.003435430582612753,-0.01396551076322794,-35.3632628,149.1652339,17326.0,18.0,49.0,153.0,2.5,-80.5,-1033.5,-1865.5,-3.0,-7.5
11:13:02,LAND,1500.0,260.0,90.0,0.035414960235357285,0.011501231230795383,-0.36663535237312317,1.9544658660888672,0.016052991151809692,-0.0007582990219816566,-35.363262,149.165237,14488.0,14.0,34.0,142.0,4.0,74.0,-914.0,1957.0,16.0,0.0
11:13:10,LAND,1500.0,210.0,90.0,0.006040072767063975,0.008645116972426573,-0.3877326001723607,0.19794208804766336,0.0012423669152970736,-0.004335882588444899,-35.3632613,149.16523943333334,9709.166666666666,2.1666666666666665,5.333333333333333,34.166666666666664,1.8333333333333333,-8.0,-997.5,197.5,1.3333333333333333,-3.0
11:13:14,LAND,1500.0,440.0,90.0,-0.015251091759031018,0.006568944236884515,-0.3963526984055837,0.03160259065528711,0.0015373935457319021,-0.0006143776602887859,-35.3632603,149.1652425,8417.0,-8.166666666666666,-19.833333333333332,22.0,0.0,10.0,-1022.3333333333334,35.166666666666664,1.3333333333333333,0.6666666666666666
11:13:27,LAND,1500.0,490.0,90.0,0.03462480381131172,0.0049497042782604694,-0.4128168076276779,0.9668830335140228,0.0006929452065378428,-0.003614443354308605,-35.36326175,149.16523815,7369.5,2.0,8.5,34.5,-2.5,32.5,-1008.0,967.5,0.5,-1.5
11:13:53,LAND,1500.0,170.0,90.0,0.007807062938809395,0.011927592800930142,-0.4235554188489914,-0.00017021503299474716,0.0017126704333350062,0.000589564791880548,-35.363261949999995,149.1652387,259.75,-2.25,10.75,-12.5,0.0,0.0,-1000.0,2.0,2.0,2.0
