time_stamp,MODE,lat,lon,relative_alt,roll,pitch,yaw,rollspeed,pitchspeed,yawspeed,xacc,yacc,zacc,xgyro,ygyro,zgyro,vx,vy,vz,RTL_ALT
02:12:13.498,STABILIZE,-35.3632622,149.1652375,0,-0.0003839643904939294,0.0013726117322221398,0.0266810841858387,0.000300190644338727,0.00021539779845625162,0.0021880287677049637,0,1,-1000,0,0,0,-2,1,0,1500.0
02:12:13.699,STABILIZE,-35.3632622,149.1652375,0,-0.0003839643904939294,0.0013726117322221398,0.0266810841858387,0.000300190644338727,0.00021539779845625162,0.0021880287677049637,0,1,-1000,0,0,0,-2,1,0,1500.0
02:12:13.901,STABILIZE,-35.3632622,149.1652375,0,-0.0005533299990929663,0.0012073391117155552,0.026319054886698723,0.0003408976481296122,0.00033203416387550533,0.002046555746346712,0,1,-1000,0,0,0,-2,1,0,1500.0
02:12:14.102,STABILIZE,-35.3632622,149.1652375,0,-0.0006085594068281353,0.0011695899302139878,0.02619936317205429,0.00023929931921884418,0.00024350095191039145,0.002130466513335705,0,1,-1000,0,0,0,-2,1,0,1500.0
02:12:14.303,STABILIZE,-35.3632622,149.1652375,0,-0.0006085594068281353,0.0011695899302139878,0.02619936317205429,0.00023929931921884418,0.00024350095191039145,0.002130466513335705,0,1,-1000,0,0,0,-2,1,0,1500.0
02:12:14.505,STABILIZE,-35.3632622,149.1652375,0,-0.0006553342682309449,0.0011252745753154159,0.026086051017045975,0.0002468670718371868,0.00022133425227366388,0.0020659174770116806,0,1,-1000,0,0,0,-1,1,0,1500.0
02:12:14.706,STABILIZE,-35.3632622,149.1652375,0,-0.0006553342682309449,0.0011252745753154159,0.026086051017045975,0.0002468670718371868,0.00022133425227366388,0.0020659174770116806,0,1,-1000,0,0,0,-1,1,0,1500.0
02:12:14.907,STABILIZE,-35.3632622,149.1652375,0,-0.000729102932382375,0.001067975303158164,0.025880662724375725,0.00021283922251313925,0.00031626183772459626,0.00204146234318614,0,1,-1000,0,0,0,-1,1,0,1500.0
02:12:15.108,STABILIZE,-35.3632622,149.1652375,0,-0.000729102932382375,0.001067975303158164,0.025880662724375725,0.00021283922251313925,0.00031626183772459626,0.00204146234318614,0,1,-1000,0,0,0,-1,1,0,1500.0
02:12:15.309,STABILIZE,-35.3632622,149.1652375,0,-0.000729102932382375,0.001067975303158164,0.025880662724375725,0.00021283922251313925,0.00031626183772459626,0.00204146234318614,0,1,-1000,0,0,0,-1,1,0,1500.0
02:12:15.511,STABILIZE,-35.3632622,149.1652375,0,-0.000729102932382375,0.001067975303158164,0.025880662724375725,0.00021283922251313925,0.00031626183772459626,0.00204146234318614,0,1,-1000,0,0,0,-1,1,0,1500.0
02:12:15.712,STABILIZE,-35.3632622,149.1652375,0,-0.000729102932382375,0.001067975303158164,0.025880662724375725,0.00021283922251313925,0.00031626183772459626,0.00204146234318614,0,1,-1000,0,0,0,-1,1,0,1500.0
02:12:15.913,STABILIZE,-35.3632621,149.1652374,0,-0.0006934166303835809,0.0009902489837259054,0.025472819805145264,8.42103036120534e-05,0.0002630437375046313,0.0020720078609883785,0,1,-1000,0,0,0,-1,0,-1,1500.0
02:12:16.114,STABILIZE,-35.3632621,149.1652374,0,-0.0006934166303835809,0.0009902489837259054,0.025472819805145264,8.42103036120534e-05,0.0002630437375046313,0.0020720078609883785,0,1,-1000,0,0,0,-1,0,-1,1500.0
02:12:16.316,STABILIZE,-35.3632621,149.1652374,0,-0.0006934166303835809,0.0009902489837259054,0.025472819805145264,8.42103036120534e-05,0.0002630437375046313,0.0020720078609883785,0,1,-1000,0,0,0,-1,0,-1,1500.0
02:12:16.518,STABILIZE,-35.3632621,149.1652374,0,-0.0006934166303835809,0.0009902489837259054,0.025472819805145264,8.42103036120534e-05,0.0002630437375046313,0.0020720078609883785,0,1,-1000,0,0,0,-1,0,-1,1500.0
02:12:16.719,STABILIZE,-35.3632621,149.1652374,0,-0.0006934166303835809,0.0009902489837259054,0.025472819805145264,8.42103036120534e-05,0.0002630437375046313,0.0020720078609883785,0,1,-1000,0,1,0,-1,0,-1,1500.0
02:12:16.920,STABILIZE,-35.3632621,149.1652374,0,-0.0006934166303835809,0.0009902489837259054,0.025472819805145264,8.42103036120534e-05,0.0002630437375046313,0.0020720078609883785,0,1,-1000,0,1,0,-1,0,-1,1500.0
02:12:17.121,STABILIZE,-35.3632621,149.1652374,0,-0.0006256544729694724,0.0009606779785826802,0.0250371266156435,0.00019321648869663477,0.00035782501799985766,0.0018575615249574184,0,1,-1000,0,0,0,-1,0,-1,1500.0
02:12:17.323,STABILIZE,-35.3632621,149.1652374,0,-0.0006256544729694724,0.0009606779785826802,0.0250371266156435,0.00019321648869663477,0.00035782501799985766,0.0018575615249574184,0,1,-1000,0,0,0,-1,0,-1,1500.0
02:12:17.525,STABILIZE,-35.3632621,149.1652374,0,-0.0006256544729694724,0.0009606779785826802,0.0250371266156435,0.00019321648869663477,0.00035782501799985766,0.0018575615249574184,0,1,-1000,0,0,0,-1,0,-1,1500.0
02:12:17.731,STABILIZE,-35.3632621,149.1652374,0,-0.0006256544729694724,0.0009606779785826802,0.0250371266156435,0.00019321648869663477,0.00035782501799985766,0.0018575615249574184,0,1,-1000,0,0,0,-1,0,-1,1500.0
02:12:17.932,STABILIZE,-35.3632621,149.1652374,0,-0.0006204185774549842,0.0009531098185107112,0.02473587356507778,0.00025167386047542095,0.00020071325707249343,0.0019008296076208353,0,1,-1000,0,0,0,-1,1,0,1500.0
02:12:18.133,STABILIZE,-35.3632621,149.1652374,0,-0.0006223258678801358,0.000939760182518512,0.024643167853355408,0.00022922252537682652,0.00021512422244995832,0.0018368649762123823,0,1,-1000,0,0,0,-1,1,0,1500.0
02:12:18.334,STABILIZE,-35.3632621,149.1652374,0,-0.0006390478229150176,0.0009351347107440233,0.024542186409235,0.0002442974364385009,0.00026335730217397213,0.0018582248594611883,0,1,-1000,0,0,0,-1,1,0,1500.0
02:12:18.536,STABILIZE,-35.3632621,149.1652374,0,-0.0006390478229150176,0.0009351347107440233,0.024542186409235,0.0002442974364385009,0.00026335730217397213,0.0018582248594611883,0,1,-1000,0,0,0,-1,1,0,1500.0
02:12:18.737,STABILIZE,-35.3632621,149.1652374,0,-0.0006390478229150176,0.0009351347107440233,0.024542186409235,0.0002442974364385009,0.00026335730217397213,0.0018582248594611883,0,1,-1000,0,0,0,-1,1,0,1500.0
02:12:18.939,STABILIZE,-35.3632621,149.1652374,0,-0.0006390478229150176,0.0009351347107440233,0.024542186409235,0.0002442974364385009,0.00026335730217397213,0.0018582248594611883,0,1,-1000,0,0,0,-1,1,0,1500.0
02:12:19.141,STABILIZE,-35.3632621,149.1652375,0,-0.0006390478229150176,0.0009351347107440233,0.024542186409235,0.0002442974364385009,0.00026335730217397213,0.0018582248594611883,0,1,-1000,0,0,0,-1,1,0,1500.0
02:12:19.344,STABILIZE,-35.3632621,149.1652375,0,-0.0006390478229150176,0.0009351347107440233,0.024542186409235,0.0002442974364385009,0.00026335730217397213,0.0018582248594611883,0,1,-1000,0,0,0,-1,1,0,1500.0
02:12:19.545,STABILIZE,-35.3632621,149.1652375,0,-0.0006390478229150176,0.0009351347107440233,0.024542186409235,0.0002442974364385009,0.00026335730217397213,0.0018582248594611883,0,1,-1000,0,0,0,-1,1,0,1500.0
02:12:19.747,STABILIZE,-35.3632621,149.1652375,0,-0.0006390478229150176,0.0009351347107440233,0.024542186409235,0.0002442974364385009,0.00026335730217397213,0.0018582248594611883,0,1,-1000,0,0,0,-1,1,0,1500.0
02:12:19.948,STABILIZE,-35.3632621,149.1652375,0,-0.0006758607923984528,0.000945347361266613,0.02399788796901703,0.0003480623126961291,0.00024089595535770059,0.0017462342511862516,0,1,-1000,0,1,0,-1,1,0,1500.0
02:12:20.149,STABILIZE,-35.3632621,149.1652375,0,-0.0006758607923984528,0.000945347361266613,0.02399788796901703,0.0003480623126961291,0.00024089595535770059,0.0017462342511862516,0,1,-1000,0,1,0,-1,1,0,1500.0
02:12:20.351,STABILIZE,-35.3632621,149.1652375,0,-0.0007232782081700861,0.0009514950215816498,0.023830795660614967,0.00024858565302565694,0.00027089042123407125,0.001726941205561161,0,1,-1000,0,0,0,-1,1,0,1500.0
02:12:20.552,STABILIZE,-35.3632621,149.1652375,0,-0.0007232782081700861,0.0009514950215816498,0.023830795660614967,0.00024858565302565694,0.00027089042123407125,0.001726941205561161,0,1,-1000,0,0,0,-1,1,0,1500.0
02:12:20.753,STABILIZE,-35.3632621,149.1652375,0,-0.0007232782081700861,0.0009514950215816498,0.023830795660614967,0.00024858565302565694,0.00027089042123407125,0.001726941205561161,0,1,-1000,0,0,1,-1,1,0,1500.0
02:12:20.954,STABILIZE,-35.3632621,149.1652375,0,-0.0007232782081700861,0.0009514950215816498,0.023830795660614967,0.00024858565302565694,0.00027089042123407125,0.001726941205561161,0,1,-1000,0,0,1,-1,1,0,1500.0
02:12:21.155,STABILIZE,-35.3632622,149.1652375,0,-0.0007232782081700861,0.0009514950215816498,0.023830795660614967,0.00024858565302565694,0.00027089042123407125,0.001726941205561161,0,1,-1000,0,0,0,-1,1,0,1500.0
02:12:21.357,STABILIZE,-35.3632622,149.1652375,0,-0.0007232782081700861,0.0009514950215816498,0.023830795660614967,0.00024858565302565694,0.00027089042123407125,0.001726941205561161,0,1,-1000,0,0,0,-1,1,0,1500.0
02:12:21.558,STABILIZE,-35.3632622,149.1652375,0,-0.0007232782081700861,0.0009514950215816498,0.023830795660614967,0.00024858565302565694,0.00027089042123407125,0.001726941205561161,0,1,-1000,0,0,0,-1,1,0,1500.0
02:12:21.759,STABILIZE,-35.3632622,149.1652375,0,-0.0007232782081700861,0.0009514950215816498,0.023830795660614967,0.00024858565302565694,0.00027089042123407125,0.001726941205561161,0,1,-1000,0,0,0,-1,1,0,1500.0
02:12:21.960,STABILIZE,-35.3632622,149.1652375,0,-0.0008201671880669892,0.0009645202080719173,0.023349056020379066,0.00022553355665877461,0.0003011031658388674,0.0015613911673426628,0,2,-1000,0,0,0,-1,1,0,1500.0
02:12:22.162,STABILIZE,-35.3632622,149.1652375,0,-0.0008201671880669892,0.0009645202080719173,0.023349056020379066,0.00022553355665877461,0.0003011031658388674,0.0015613911673426628,0,1,-1000,0,1,0,-1,1,0,1500.0
02:12:22.364,STABILIZE,-35.3632622,149.1652375,0,-0.0008201671880669892,0.0009645202080719173,0.023349056020379066,0.00022553355665877461,0.0003011031658388674,0.0015613911673426628,0,2,-1000,0,0,1,-1,1,0,1500.0
02:12:22.566,STABILIZE,-35.3632622,149.1652375,0,-0.0008201671880669892,0.0009645202080719173,0.023349056020379066,0.00022553355665877461,0.0003011031658388674,0.0015613911673426628,0,2,-1000,0,0,1,-1,1,0,1500.0
02:12:22.767,STABILIZE,-35.3632622,149.1652375,0,-0.0008201671880669892,0.0009645202080719173,0.023349056020379066,0.00022553355665877461,0.0003011031658388674,0.0015613911673426628,0,2,-1000,0,0,1,-1,1,0,1500.0
02:12:22.969,STABILIZE,-35.3632622,149.1652375,0,-0.0007467738469131291,0.0009674743050709367,0.023057345300912857,0.00018940767040476203,0.00023678492289036512,0.0017136059468612075,0,1,-1000,0,0,0,-1,0,-1,1500.0
02:12:23.171,STABILIZE,-35.3632622,149.1652374,0,-0.0007467738469131291,0.0009674743050709367,0.023057345300912857,0.00018940767040476203,0.00023678492289036512,0.0017136059468612075,0,1,-1000,0,0,0,-1,0,-1,1500.0
02:12:23.372,STABILIZE,-35.3632622,149.1652374,0,-0.0007467738469131291,0.0009674743050709367,0.023057345300912857,0.00018940767040476203,0.00023678492289036512,0.0017136059468612075,0,1,-1000,0,0,0,-1,0,-1,1500.0
02:12:23.573,STABILIZE,-35.3632622,149.1652374,0,-0.0007467738469131291,0.0009674743050709367,0.023057345300912857,0.00018940767040476203,0.00023678492289036512,0.0017136059468612075,0,1,-1000,0,0,0,-1,0,-1,1500.0
02:12:23.775,STABILIZE,-35.3632622,149.1652374,0,-0.0007467738469131291,0.0009674743050709367,0.023057345300912857,0.00018940767040476203,0.00023678492289036512,0.0017136059468612075,0,1,-1000,0,0,0,-1,0,-1,1500.0
02:12:23.977,STABILIZE,-35.3632622,149.1652374,0,-0.0007467738469131291,0.0009674743050709367,0.023057345300912857,0.00018940767040476203,0.00023678492289036512,0.0017136059468612075,0,1,-1000,0,0,0,-1,0,-1,1500.0
02:12:24.178,STABILIZE,-35.3632622,149.1652374,0,-0.0007467738469131291,0.0009674743050709367,0.023057345300912857,0.00018940767040476203,0.00023678492289036512,0.0017136059468612075,0,1,-1000,0,1,0,-1,0,-1,1500.0
02:12:24.380,STABILIZE,-35.3632622,149.1652374,0,-0.0007467738469131291,0.0009674743050709367,0.023057345300912857,0.00018940767040476203,0.00023678492289036512,0.0017136059468612075,0,1,-1000,0,1,0,-1,0,-1,1500.0
02:12:24.581,STABILIZE,-35.3632622,149.1652374,0,-0.0007467738469131291,0.0009674743050709367,0.023057345300912857,0.00018940767040476203,0.00023678492289036512,0.0017136059468612075,0,1,-1000,0,1,1,-1,0,-1,1500.0
02:12:24.783,STABILIZE,-35.3632622,149.1652374,0,-0.0007467738469131291,0.0009674743050709367,0.023057345300912857,0.00018940767040476203,0.00023678492289036512,0.0017136059468612075,0,1,-1000,0,1,1,-1,0,-1,1500.0
02:12:24.984,STABILIZE,-35.3632622,149.1652374,0,-0.0007467738469131291,0.0009674743050709367,0.023057345300912857,0.00018940767040476203,0.00023678492289036512,0.0017136059468612075,0,1,-1000,0,1,1,-1,0,-1,1500.0
02:12:25.185,STABILIZE,-35.3632622,149.1652375,0,-0.0006573835271410644,0.0009718457004055381,0.022434616461396217,0.0002790385624393821,0.0002682770136743784,0.001651934115216136,0,1,-1000,0,1,0,-1,1,0,1500.0
02:12:25.386,STABILIZE,-35.3632622,149.1652375,0,-0.0006573835271410644,0.0009718457004055381,0.022434616461396217,0.0002790385624393821,0.0002682770136743784,0.001651934115216136,0,1,-1000,0,1,0,-1,1,0,1500.0
02:12:25.587,STABILIZE,-35.3632622,149.1652375,0,-0.0006573835271410644,0.0009718457004055381,0.022434616461396217,0.0002790385624393821,0.0002682770136743784,0.001651934115216136,0,1,-1000,0,1,0,-1,1,0,1500.0
02:12:25.789,STABILIZE,-35.3632622,149.1652375,0,-0.0006573835271410644,0.0009718457004055381,0.022434616461396217,0.0002790385624393821,0.0002682770136743784,0.001651934115216136,0,1,-1000,0,1,0,-1,1,0,1500.0
02:12:25.990,STABILIZE,-35.3632622,149.1652375,0,-0.0006573835271410644,0.0009718457004055381,0.022434616461396217,0.0002790385624393821,0.0002682770136743784,0.001651934115216136,0,1,-1000,0,1,0,-1,1,0,1500.0
02:12:26.191,STABILIZE,-35.3632622,149.1652375,0,-0.0006981581682339311,0.000978871714323759,0.022166941314935684,0.00027948711067438126,0.0002791496808640659,0.0015956440474838018,0,1,-1000,0,0,0,-1,1,0,1500.0
02:12:26.393,AUTO,-35.3632622,149.1652375,0,-0.00041973518091253936,0.0009797671809792519,0.022115198895335197,0.00038526824209839106,0.00021154381101951003,0.0015309054870158434,0,2,-1000,0,1,0,-1,3,2,1500.0
02:12:26.598,AUTO,-35.3632622,149.1652376,4,-0.0004910193965770304,0.000979865319095552,0.022026490420103073,0.0002802597591653466,0.0002696915762498975,0.0014686350477859378,0,1,-1000,0,0,0,-1,3,2,46779.0
02:12:26.800,AUTO,-35.3632622,149.1652376,4,-0.0004910193965770304,0.000979865319095552,0.022026490420103073,0.0002802597591653466,0.0002696915762498975,0.0014686350477859378,0,1,-1000,0,0,0,-1,3,2,46779.0
02:12:27.002,AUTO,-35.3632622,149.1652376,1,-0.0005613138200715184,0.0009818394901230931,0.021955372765660286,0.00030270166462287307,0.0002596198464743793,0.001412615180015564,0,2,-1000,1,0,0,-1,3,2,46779.0
02:12:27.203,AUTO,-35.3632622,149.1652376,0,-0.0006230937433429062,0.0009956591529771686,0.021900730207562447,0.00023422547383233905,0.0002978086704388261,0.0014300527982413769,0,1,-1000,0,0,0,-1,2,2,46779.0
02:12:27.405,AUTO,-35.3632622,149.1652376,0,-0.0006230937433429062,0.0009956591529771686,0.021900730207562447,0.00023422547383233905,0.0002978086704388261,0.0014300527982413769,0,1,-1000,0,0,0,-1,2,2,46779.0
02:12:27.606,AUTO,-35.3632622,149.1652376,0,-0.0006230937433429062,0.0009956591529771686,0.021900730207562447,0.00023422547383233905,0.0002978086704388261,0.0014300527982413769,0,1,-1000,0,0,0,-1,2,2,46779.0
02:12:27.808,AUTO,-35.3632622,149.1652376,0,-0.0006230937433429062,0.0009956591529771686,0.021900730207562447,0.00023422547383233905,0.0002978086704388261,0.0014300527982413769,0,1,-1000,0,0,0,-1,2,2,46779.0
02:12:28.009,AUTO,-35.3632621,149.1652375,0,-0.0006268814322538674,0.0011119256960228086,0.02172533981502056,0.00041298684664070606,0.0002836115309037268,0.001479930942878127,0,1,-1000,0,0,0,0,0,2,46779.0
02:12:28.210,AUTO,-35.3632621,149.1652375,0,-0.0005907055456191301,0.0011705555953085423,0.02165866270661354,0.0003115872968919575,0.00034671835601329803,0.0015966083155944943,0,1,-1000,1,0,1,0,0,2,46779.0
02:12:28.411,AUTO,-35.3632621,149.1652375,0,-0.0005407343851402402,0.0012310949387028813,0.021583709865808487,0.000382726255338639,0.0002630357048474252,0.0014030530583113432,0,1,-1000,0,1,1,0,0,1,46779.0
02:12:28.612,AUTO,-35.3632621,149.1652375,0,-0.000487274955958128,0.0012980250176042318,0.02152892015874386,0.0002658051089383662,0.00028209510492160916,0.0015840077539905906,0,1,-1000,1,0,0,0,0,1,46779.0
02:12:28.814,AUTO,-35.3632621,149.1652375,0,-0.000487274955958128,0.0012980250176042318,0.02152892015874386,0.0002658051089383662,0.00028209510492160916,0.0015840077539905906,0,1,-1000,1,0,0,0,0,1,46779.0
02:12:29.015,AUTO,-35.3632621,149.1652374,0,-0.00043060019379481673,0.001370687736198306,0.021453388035297394,0.00031028897501528263,0.00030206417432054877,0.0014336246531456709,0,2,-1000,1,0,0,0,0,1,46779.0
02:12:29.216,AUTO,-35.3632621,149.1652374,0,-0.00037562058423645794,0.0014360613422468305,0.021374328061938286,0.0002478549722582102,0.00027953338576480746,0.001459725433960557,0,1,-1000,0,1,0,0,0,1,46779.0
02:12:29.418,AUTO,-35.3632621,149.1652374,0,-0.00037562058423645794,0.0014360613422468305,0.021374328061938286,0.0002478549722582102,0.00027953338576480746,0.001459725433960557,0,1,-1000,0,1,0,0,0,1,60453.0
02:12:29.619,AUTO,-35.3632621,149.1652374,0,-0.00037562058423645794,0.0014360613422468305,0.021374328061938286,0.0002478549722582102,0.00027953338576480746,0.001459725433960557,0,1,-1000,0,1,0,0,0,1,60453.0
02:12:29.821,AUTO,-35.3632621,149.1652374,0,-0.00037562058423645794,0.0014360613422468305,0.021374328061938286,0.0002478549722582102,0.00027953338576480746,0.001459725433960557,0,1,-1000,0,1,0,0,0,1,60453.0
02:12:30.022,AUTO,-35.3632621,149.1652374,0,-0.00018361520778853446,0.0016470735426992178,0.021158212795853615,0.0003173430450260639,0.00034142850199714303,0.0013663099380210042,0,1,-1000,1,0,1,0,-1,0,60453.0
02:12:30.223,AUTO,-35.3632621,149.1652374,0,-0.00011267090303590521,0.0017247215146198869,0.02108081430196762,0.0004023428773507476,0.0003046360216103494,0.0014187539927661419,0,2,-1000,1,0,0,0,-1,0,60453.0
02:12:30.424,AUTO,-35.3632621,149.1652374,6,0.003361483570188284,0.00047405168879777193,0.021054524928331375,0.009645751677453518,-0.010652276687324047,0.0014106264570727944,0,0,-1161,10,-9,1,0,-1,-16,60453.0
02:12:30.626,AUTO,-35.3632621,149.1652374,102,0.005327205173671246,-0.00043507287045940757,0.02090068720281124,-0.0003277013311162591,0.0020191785879433155,0.001337208435870707,0,0,-1160,0,2,0,0,0,-56,60453.0
02:12:30.828,AUTO,-35.3632621,149.1652374,102,0.005327205173671246,-0.00043507287045940757,0.02090068720281124,-0.0003277013311162591,0.0020191785879433155,0.001337208435870707,0,0,-1160,0,2,0,0,0,-56,60453.0
02:12:31.030,AUTO,-35.3632621,149.1652375,289,0.0035663037560880184,0.0006383421714417636,0.02102680690586567,0.0022811242379248142,0.005667068995535374,0.002042002510279417,0,0,-1126,3,6,1,0,0,-91,60453.0
02:12:31.232,AUTO,-35.3632621,149.1652375,550,0.001729635987430811,0.0015581438783556223,0.020938333123922348,-0.012513648718595505,0.0015123437624424696,-0.0002075137454085052,0,0,-1092,-11,2,0,0,1,-117,60453.0
02:12:31.433,AUTO,-35.3632621,149.1652375,550,0.001729635987430811,0.0015581438783556223,0.020938333123922348,-0.012513648718595505,0.0015123437624424696,-0.0002075137454085052,0,0,-1092,-11,2,0,0,1,-117,60453.0
02:12:31.649,AUTO,-35.3632621,149.1652375,550,0.001729635987430811,0.0015581438783556223,0.020938333123922348,-0.012513648718595505,0.0015123437624424696,-0.0002075137454085052,0,0,-1092,-11,2,0,0,1,-117,60453.0
02:12:31.851,AUTO,-35.3632621,149.1652375,550,0.001729635987430811,0.0015581438783556223,0.020938333123922348,-0.012513648718595505,0.0015123437624424696,-0.0002075137454085052,0,0,-1092,-11,2,0,0,1,-117,60453.0
02:12:32.054,AUTO,-35.363262,149.1652375,1599,0.0164414644241333,0.0016530456487089396,0.016659904271364212,0.029457412660121918,0.00012897164560854435,-0.00966639257967472,0,0,-1010,30,1,-10,0,4,-146,60453.0
02:12:32.256,AUTO,-35.363262,149.1652377,1980,0.024652652442455292,0.0015594400465488434,0.014130599796772003,0.03777657449245453,-0.0018105704803019762,-0.007026547100394964,0,0,-1005,38,-1,-7,0,8,-148,60453.0
02:12:32.457,AUTO,-35.363262,149.165238,2366,0.03515235334634781,7.863255450502038e-05,0.01232953742146492,0.04274843633174896,-0.008495748974382877,-0.0036803255788981915,0,-2,-1002,43,-8,-4,1,15,-149,180946.0
02:12:32.659,AUTO,-35.3632619,149.1652385,2754,0.04573730379343033,-0.002403763821348548,0.011160159483551979,0.04114942252635956,-0.011251033283770084,-0.0012306086719036102,0,-3,-1000,41,-10,-1,1,23,-149,180946.0
02:12:32.860,AUTO,-35.3632618,149.1652393,3141,0.05558560788631439,-0.005356122273951769,-0.016944050788879395,0.038817644119262695,-0.012816013768315315,7.963931420817971e-05,1,-6,-999,39,-12,0,4,34,-149,180946.0
02:12:33.062,AUTO,-35.3632618,149.1652393,3141,0.05558560788631439,-0.005356122273951769,-0.016944050788879395,0.038817644119262695,-0.012816013768315315,7.963931420817971e-05,1,-6,-999,39,-12,0,4,34,-149,180946.0
02:12:33.266,AUTO,-35.3632617,149.1652404,3526,0.05790985748171806,-0.003505752421915531,-0.02360786311328411,-0.05040864646434784,0.05646218731999397,-0.07605268061161041,1,-8,-990,-49,57,-76,6,46,-147,180946.0
02:12:33.469,AUTO,-35.3632617,149.1652404,3526,0.05790985748171806,-0.003505752421915531,-0.02360786311328411,-0.05040864646434784,0.05646218731999397,-0.07605268061161041,1,-8,-990,-49,57,-76,6,46,-147,180946.0
02:12:33.672,AUTO,-35.3632617,149.1652404,3526,0.05790985748171806,-0.003505752421915531,-0.02360786311328411,-0.05040864646434784,0.05646218731999397,-0.07605268061161041,1,-8,-990,-49,57,-76,6,46,-147,180946.0
02:12:33.874,AUTO,-35.3632611,149.1652443,4655,-0.06302595883607864,0.008757592178881168,-0.0688927099108696,-0.1254957765340805,-0.01157288160175085,-0.050567254424095154,4,-9,-1011,-124,-10,-50,4,35,-146,180946.0
02:12:34.077,AUTO,-35.3632611,149.1652443,4655,-0.06302595883607864,0.008757592178881168,-0.0688927099108696,-0.1254957765340805,-0.01157288160175085,-0.050567254424095154,4,-9,-1011,-124,-10,-50,4,35,-146,180946.0
02:12:34.280,AUTO,-35.363261,149.165245,5037,-0.08200901746749878,0.00532869715243578,-0.07988790422677994,-0.03858603537082672,-0.005976056680083275,-0.04523544758558273,2,-6,-1009,-38,-5,-45,3,14,-148,180946.0
02:12:34.481,AUTO,-35.3632609,149.1652451,5421,-0.08305240422487259,0.003388759447261691,-0.08967576920986176,0.01942826621234417,-0.002895519370213151,-0.03512841463088989,0,-1,-1005,20,-2,-35,1,-7,-149,180946.0
02:12:34.683,AUTO,-35.3632609,149.1652446,5813,-0.07306674122810364,0.002160991309210658,-0.09749618172645569,0.04919392243027687,-0.0019399554003030062,-0.0251470897346735,-2,3,-1001,49,-1,-25,-1,-26,-149,180946.0
02:12:34.885,AUTO,-35.363261,149.1652438,6197,-0.05973202362656593,0.0018436312675476074,-0.10274745523929596,0.056722622364759445,0.0024181746412068605,-0.017153771594166756,-3,6,-1000,57,3,-17,-3,-42,-149,180946.0
02:12:35.087,AUTO,-35.363261,149.1652425,6581,-0.04501789063215256,0.002959208795800805,-0.10633637756109238,0.06090669706463814,0.007395417429506779,-0.01182875782251358,-5,9,-1001,61,8,-12,-6,-53,-149,180946.0
02:12:35.289,AUTO,-35.363261,149.1652425,6581,-0.04501789063215256,0.002959208795800805,-0.10633637756109238,0.06090669706463814,0.007395417429506779,-0.01182875782251358,-5,9,-1001,61,8,-12,-6,-53,-149,180946.0
02:12:35.491,AUTO,-35.363261,149.1652425,6581,-0.04501789063215256,0.002959208795800805,-0.10633637756109238,0.06090669706463814,0.007395417429506779,-0.01182875782251358,-5,9,-1001,61,8,-12,-6,-53,-149,179783.0
02:12:35.693,AUTO,-35.363261,149.1652425,6581,-0.04501789063215256,0.002959208795800805,-0.10633637756109238,0.06090669706463814,0.007395417429506779,-0.01182875782251358,-5,9,-1001,61,8,-12,-6,-53,-149,179783.0
02:12:35.895,AUTO,-35.3632616,149.1652375,7728,0.004044467583298683,0.010610425844788551,-0.11009051650762558,0.06884613633155823,0.01151062548160553,-0.0012982945190742612,-5,15,-1004,69,12,-1,-14,-60,-151,179783.0
02:12:36.096,AUTO,-35.363262,149.1652359,8118,0.021155742928385735,0.013082053512334824,-0.10983207821846008,0.06889860332012177,0.008669652044773102,0.0009799405233934522,-5,13,-1004,69,9,0,-18,-54,-152,179783.0
02:12:36.298,AUTO,-35.363262,149.1652359,8118,0.021155742928385735,0.013082053512334824,-0.10983207821846008,0.06889860332012177,0.008669652044773102,0.0009799405233934522,-5,13,-1004,69,9,0,-18,-54,-152,179783.0
02:12:36.500,AUTO,-35.3632624,149.1652345,8509,0.03806427866220474,0.01472665648907423,-0.10893645137548447,0.06712071597576141,0.004606378264725208,0.0012405985035002232,-5,12,-1004,67,5,0,-20,-44,-152,179783.0
02:12:36.702,AUTO,-35.3632629,149.1652334,8902,0.05449563264846802,0.015099992975592613,-0.10767000913619995,0.064773790538311,-0.000837789149954915,0.003643146250396967,-1,11,-1003,65,0,3,-23,-30,-153,179783.0
02:12:36.904,AUTO,-35.3632634,149.1652327,9295,0.06952086091041565,0.013570443727076054,-0.10548891872167587,0.04311738163232803,-0.017740746960043907,0.02616744488477707,0,7,-999,44,-16,25,-24,-13,-153,179783.0
02:12:37.106,AUTO,-35.363264,149.1652325,9686,0.06754454970359802,-0.00446606520563364,-0.0906057357788086,-0.03742014244198799,-0.10373327881097794,0.09163457900285721,3,4,-995,-36,-103,91,-23,3,-151,179783.0
02:12:37.308,AUTO,-35.363264,149.1652325,9686,0.06754454970359802,-0.00446606520563364,-0.0906057357788086,-0.03742014244198799,-0.10373327881097794,0.09163457900285721,3,4,-995,-36,-103,91,-23,3,-151,179783.0
02:12:37.510,AUTO,-35.363264,149.1652325,9686,0.06754454970359802,-0.00446606520563364,-0.0906057357788086,-0.03742014244198799,-0.10373327881097794,0.09163457900285721,3,4,-995,-36,-103,91,-23,3,-151,179783.0
02:12:37.712,AUTO,-35.363264,149.1652325,9686,0.06754454970359802,-0.00446606520563364,-0.0906057357788086,-0.03742014244198799,-0.10373327881097794,0.09163457900285721,3,4,-995,-36,-103,91,-23,3,-151,179783.0
02:12:37.914,AUTO,-35.3632645,149.165234,10847,0.01636965572834015,-0.059512048959732056,-0.03265731781721115,-0.12459944933652878,0.07044278830289841,-0.02507197856903076,0,-6,-997,-124,71,-25,15,33,-147,179783.0
02:12:38.115,AUTO,-35.3632641,149.1652348,11226,-0.008996738120913506,-0.036634404212236404,-0.04738439992070198,-0.08555889874696732,0.09566368162631989,-0.07744095474481583,0,-9,-1004,-85,96,-77,28,31,-147,179783.0
02:12:38.317,AUTO,-35.3632641,149.1652348,11226,-0.008996738120913506,-0.036634404212236404,-0.04738439992070198,-0.08555889874696732,0.09566368162631989,-0.07744095474481583,0,-9,-1004,-85,96,-77,28,31,-147,179783.0
02:12:38.519,AUTO,-35.3632634,149.1652355,11607,-0.02375512383878231,-0.015548830851912498,-0.07035372406244278,-0.04337192699313164,0.07748663425445557,-0.09649905562400818,-1,-9,-1006,-42,77,-96,34,23,-149,181616.0
02:12:38.720,AUTO,-35.3632626,149.165236,11991,-0.0300375334918499,-0.001188879949040711,-0.09391982108354568,-0.01058764848858118,0.04585285112261772,-0.0870889350771904,-4,-7,-1006,-10,46,-87,34,13,-150,181616.0
02:12:38.922,AUTO,-35.3632619,149.1652362,12378,-0.03003464825451374,0.008614213205873966,-0.11600008606910706,0.011016813106834888,0.03742518275976181,-0.07869833707809448,-6,-7,-1004,11,38,-79,31,3,-151,181616.0
02:12:39.124,AUTO,-35.3632612,149.1652362,12768,-0.025120042264461517,0.015780748799443245,-0.1350141018629074,0.02599583938717842,0.02719542756676674,-0.06599432229995728,-6,-3,-1003,26,27,-66,26,-4,-152,181616.0
02:12:39.325,AUTO,-35.3632612,149.1652362,12768,-0.025120042264461517,0.015780748799443245,-0.1350141018629074,0.02599583938717842,0.02719542756676674,-0.06599432229995728,-6,-3,-1003,26,27,-66,26,-4,-152,181616.0
02:12:39.527,AUTO,-35.3632612,149.1652362,12768,-0.025120042264461517,0.015780748799443245,-0.1350141018629074,0.02599583938717842,0.02719542756676674,-0.06599432229995728,-6,-3,-1003,26,27,-66,26,-4,-152,181616.0
02:12:39.729,AUTO,-35.3632612,149.1652362,12768,-0.025120042264461517,0.015780748799443245,-0.1350141018629074,0.02599583938717842,0.02719542756676674,-0.06599432229995728,-6,-3,-1003,26,27,-66,26,-4,-152,181616.0
02:12:39.931,AUTO,-35.36326,149.1652353,13942,0.0020199501886963844,0.02622850053012371,-0.168803408741951,0.03579036146402359,0.004117220640182495,-0.021911082789301872,-4,0,-1000,36,5,-22,6,-13,-153,181616.0
02:12:40.133,AUTO,-35.3632599,149.1652349,14334,0.009490334428846836,0.025775689631700516,-0.1726650893688202,0.024121234193444252,-0.003972024656832218,-0.010992079973220825,-2,1,-999,24,-3,-11,0,-11,-153,181616.0
02:12:40.334,AUTO,-35.3632599,149.1652349,14334,0.009490334428846836,0.025775689631700516,-0.1726650893688202,0.024121234193444252,-0.003972024656832218,-0.010992079973220825,-2,1,-999,24,-3,-11,0,-11,-153,181616.0
02:12:40.536,AUTO,-35.3632599,149.1652346,14725,0.014837026596069336,0.023618070408701897,-0.17354290187358856,0.017226774245500565,-0.012079770676791668,-0.0006183545337989926,-2,2,-999,17,-11,-1,-5,-7,-152,181616.0
02:12:40.738,AUTO,-35.3632599,149.1652344,15119,0.017354866489768028,0.020040394738316536,-0.17234528064727783,0.005027854349464178,-0.014802670106291771,0.005447835195809603,0,2,-999,5,-14,5,-9,-3,-152,181616.0
02:12:40.940,AUTO,-35.3632601,149.1652343,15509,0.017360758036375046,0.0161536056548357,-0.17038822174072266,-0.004271059762686491,-0.0147809237241745,0.0068883756175637245,0,2,-999,-3,-14,6,-12,1,-152,181616.0
02:12:41.142,AUTO,-35.3632604,149.1652342,15898,0.015546634793281555,0.012513753026723862,-0.16877210140228271,-0.007356411311775446,-0.012729857116937637,0.0038883404340595007,2,0,-1000,-6,-12,3,-13,5,-152,181616.0
02:12:41.350,AUTO,-35.3632604,149.1652342,15898,0.015546634793281555,0.012513753026723862,-0.16877210140228271,-0.007356411311775446,-0.012729857116937637,0.0038883404340595007,2,0,-1000,-6,-12,3,-13,5,-152,181616.0
02:12:41.552,AUTO,-35.3632604,149.1652342,15898,0.015546634793281555,0.012513753026723862,-0.16877210140228271,-0.007356411311775446,-0.012729857116937637,0.0038883404340595007,2,0,-1000,-6,-12,3,-13,5,-152,33511.0
02:12:41.754,AUTO,-35.3632604,149.1652342,15898,0.015546634793281555,0.012513753026723862,-0.16877210140228271,-0.007356411311775446,-0.012729857116937637,0.0038883404340595007,2,0,-1000,-6,-12,3,-13,5,-152,33511.0
02:12:41.956,AUTO,-35.3632612,149.1652348,17059,0.006734298542141914,0.002771952887997031,-0.1681680530309677,-0.011109351180493832,-0.009359300136566162,-0.0071123214438557625,3,0,-1000,-10,-8,-7,-13,11,-152,33511.0
02:12:42.158,AUTO,-35.3632614,149.165235,17447,0.004156963434070349,0.000760180177167058,-0.17051482200622559,-0.010290808044373989,-0.006746266037225723,-0.011221117340028286,3,0,-1000,-9,-5,-11,-12,11,-152,33511.0
02:12:42.360,AUTO,-35.3632616,149.1652353,17836,0.0020686283241957426,-0.0007020318880677223,-0.17400184273719788,-0.006193873938173056,-0.006026837974786758,-0.01505210530012846,2,0,-1000,-5,-4,-15,-10,11,-152,33511.0
02:12:42.562,AUTO,-35.3632616,149.1652353,17836,0.0020686283241957426,-0.0007020318880677223,-0.17400184273719788,-0.006193873938173056,-0.006026837974786758,-0.01505210530012846,2,0,-1000,-5,-4,-15,-10,11,-152,33511.0
02:12:42.765,AUTO,-35.3632618,149.1652355,18225,0.00026737459120340645,-0.001696541323326528,-0.1786324679851532,-0.006180975586175919,-0.0031845737248659134,-0.020222464576363564,2,0,-1000,-5,-2,-20,-9,10,-152,33511.0
02:12:42.967,AUTO,-35.363262,149.1652357,18614,-0.0004965169937349856,-0.0024601866025477648,-0.18382775783538818,-0.0015547741204500198,-0.0015320671955123544,-0.02124369516968727,2,0,-1001,0,0,-21,-7,9,-152,33511.0
02:12:43.170,AUTO,-35.3632621,149.1652358,19003,-0.0007528875721618533,-0.0023911718744784594,-0.18997317552566528,0.0030082599259912968,0.0020606834441423416,-0.025135820731520653,2,0,-1001,3,2,-25,-5,7,-152,33511.0
02:12:43.372,AUTO,-35.3632621,149.1652358,19003,-0.0007528875721618533,-0.0023911718744784594,-0.18997317552566528,0.0030082599259912968,0.0020606834441423416,-0.025135820731520653,2,0,-1001,3,2,-25,-5,7,-152,33511.0
02:12:43.574,AUTO,-35.3632621,149.1652358,19003,-0.0007528875721618533,-0.0023911718744784594,-0.18997317552566528,0.0030082599259912968,0.0020606834441423416,-0.025135820731520653,2,0,-1001,3,2,-25,-5,7,-152,33511.0
02:12:43.777,AUTO,-35.3632621,149.1652358,19003,-0.0007528875721618533,-0.0023911718744784594,-0.18997317552566528,0.0030082599259912968,0.0020606834441423416,-0.025135820731520653,2,0,-1001,3,2,-25,-5,7,-152,33511.0
02:12:43.979,AUTO,-35.3632622,149.1652361,20173,0.0007504876120947301,-0.0008467603474855423,-0.21034233272075653,0.004569182172417641,0.003957082517445087,-0.028140943497419357,0,0,-1000,5,4,-28,-2,4,-152,33511.0
02:12:44.180,AUTO,-35.3632622,149.1652361,20563,0.0016252268105745316,6.666022818535566e-05,-0.2172088474035263,0.004327273927628994,0.0034619844518601894,-0.025503119453787804,0,0,-1000,5,4,-25,-1,3,-153,33511.0
02:12:44.382,AUTO,-35.3632622,149.1652362,20953,0.002446727128699422,0.0008567213662900031,-0.22389660775661469,0.0027455466333776712,0.002838872605934739,-0.0249987430870533,0,0,-999,3,3,-25,-1,2,-153,33511.0
02:12:44.584,AUTO,-35.3632622,149.1652362,20953,0.002446727128699422,0.0008567213662900031,-0.22389660775661469,0.0027455466333776712,0.002838872605934739,-0.0249987430870533,0,0,-999,3,3,-25,-1,2,-153,41930.0
02:12:44.785,AUTO,-35.3632622,149.1652362,21342,0.0031519168987870216,0.0014656784478574991,-0.23033566772937775,0.004331822507083416,0.003786351066082716,-0.02840433642268181,0,0,-1000,5,4,-28,0,2,-153,41930.0
02:12:44.988,AUTO,-35.3632622,149.1652362,21732,0.0035918625071644783,0.0024991994723677635,-0.23680448532104492,0.0021888860501348972,0.002659659367054701,-0.023992309346795082,0,0,-1000,2,3,-24,0,2,-153,41930.0
02:12:45.190,AUTO,-35.3632622,149.1652362,22122,0.004026448354125023,0.0030894316732883453,-0.24297288060188293,0.004321491811424494,0.005116274580359459,-0.024613332003355026,0,0,-1000,5,5,-24,0,2,-153,41930.0
02:12:45.391,AUTO,-35.3632622,149.1652362,22122,0.004026448354125023,0.0030894316732883453,-0.24297288060188293,0.004321491811424494,0.005116274580359459,-0.024613332003355026,0,0,-1000,5,5,-24,0,2,-153,41930.0
02:12:45.593,AUTO,-35.3632622,149.1652362,22122,0.004026448354125023,0.0030894316732883453,-0.24297288060188293,0.004321491811424494,0.005116274580359459,-0.024613332003355026,0,0,-1000,5,5,-24,0,2,-153,41930.0
02:12:45.795,AUTO,-35.3632622,149.1652362,22122,0.004026448354125023,0.0030894316732883453,-0.24297288060188293,0.004321491811424494,0.005116274580359459,-0.024613332003355026,0,0,-1000,5,5,-24,0,2,-153,41930.0
02:12:45.998,AUTO,-35.3632622,149.1652362,23290,0.004816919565200806,0.00421092240139842,-0.2598690986633301,0.0017701229080557823,0.0005668502417393029,-0.02064124122262001,0,0,-1000,2,1,-20,-1,3,-153,41930.0
02:12:46.199,AUTO,-35.3632622,149.1652363,23680,0.004527541808784008,0.0038022068329155445,-0.2645687758922577,-2.5099143385887146e-07,-0.0010411669500172138,-0.017970997840166092,0,0,-1000,0,0,-18,-1,4,-153,41930.0
02:12:46.401,AUTO,-35.3632622,149.1652363,24069,0.004002290312200785,0.0035331493709236383,-0.2692107558250427,-0.0039027517195791006,-0.001509286230430007,-0.01709156297147274,0,0,-999,-3,0,-17,-1,4,-153,41930.0
02:12:46.603,AUTO,-35.3632622,149.1652364,24462,0.003349531441926956,0.0031874484848231077,-0.27382364869117737,-0.0022118506021797657,-0.0016960675129666924,-0.01786114275455475,0,0,-1000,-1,0,-17,-1,4,-153,41930.0
02:12:46.805,AUTO,-35.3632622,149.1652364,24462,0.003349531441926956,0.0031874484848231077,-0.27382364869117737,-0.0022118506021797657,-0.0016960675129666924,-0.01786114275455475,0,0,-1000,-1,0,-17,-1,4,-153,41930.0
02:12:47.006,AUTO,-35.3632622,149.1652365,24852,0.0026916656643152237,0.0030270630959421396,-0.2785157263278961,-0.00042045346344821155,0.0016228166641667485,-0.018546517938375473,0,0,-1000,0,2,-18,-1,4,-153,41930.0
02:12:47.208,AUTO,-35.3632622,149.1652365,25241,-0.001951523358002305,0.0034914803691208363,-0.2821112871170044,-0.09895513206720352,0.013581188395619392,0.0028079007752239704,0,-2,-981,-98,14,2,-1,4,-152,41930.0
02:12:47.410,AUTO,-35.3632622,149.1652365,25241,-0.001951523358002305,0.0034914803691208363,-0.2821112871170044,-0.09895513206720352,0.013581188395619392,0.0028079007752239704,0,-2,-981,-98,14,2,-1,4,-152,41930.0
02:12:47.611,AUTO,-35.3632622,149.1652365,25241,-0.001951523358002305,0.0034914803691208363,-0.2821112871170044,-0.09895513206720352,0.013581188395619392,0.0028079007752239704,0,-2,-981,-98,14,2,-1,4,-152,58172.0
02:12:47.813,AUTO,-35.3632622,149.1652365,25241,-0.001951523358002305,0.0034914803691208363,-0.2821112871170044,-0.09895513206720352,0.013581188395619392,0.0028079007752239704,0,-2,-981,-98,14,2,-1,4,-152,58172.0
02:12:48.015,AUTO,-35.3632622,149.1652365,26399,0.0035981356631964445,0.005403757560998201,-0.2690269649028778,0.02673051878809929,-0.005056002177298069,0.026781411841511726,0,0,-1000,27,-4,26,-5,0,-153,58172.0
02:12:48.216,AUTO,-35.3632622,149.1652365,26788,0.008455418981611729,0.00436217850074172,-0.26185280084609985,0.012296068482100964,-0.002354795578867197,0.027082858607172966,0,0,-999,13,-1,26,-5,0,-153,58172.0
02:12:48.418,AUTO,-35.3632623,149.1652365,27178,0.01031932607293129,0.00324922613799572,-0.25476911664009094,0.00292995129711926,-0.0019186480203643441,0.02604771964251995,0,0,-999,3,0,25,-4,2,-153,58172.0
02:12:48.619,AUTO,-35.3632624,149.1652365,27566,0.010600011795759201,0.002575059188529849,-0.24793274700641632,0.0007556024938821793,-0.00258077890612185,0.025768328458070755,0,0,-999,1,-1,25,-4,4,-152,58172.0
02:12:48.821,AUTO,-35.3632624,149.1652365,27566,0.010600011795759201,0.002575059188529849,-0.24793274700641632,0.0007556024938821793,-0.00258077890612185,0.025768328458070755,0,0,-999,1,-1,25,-4,4,-152,58172.0
02:12:49.023,AUTO,-35.3632624,149.1652366,27954,0.009338495321571827,0.0017770614940673113,-0.24174535274505615,-0.0053262533619999886,-0.00103093427605927,0.02534790337085724,0,0,-999,-4,0,25,-3,6,-152,58172.0
02:12:49.224,AUTO,-35.3632624,149.1652368,28342,0.007580276113003492,0.0015274877659976482,-0.23601172864437103,-0.007239517290145159,0.0017030923627316952,0.022743118926882744,1,0,-1000,-6,2,22,-2,7,-152,58172.0
02:12:49.426,AUTO,-35.3632624,149.1652368,28342,0.007580276113003492,0.0015274877659976482,-0.23601172864437103,-0.007239517290145159,0.0017030923627316952,0.022743118926882744,1,0,-1000,-6,2,22,-2,7,-152,58172.0
02:12:49.628,AUTO,-35.3632624,149.1652368,28342,0.007580276113003492,0.0015274877659976482,-0.23601172864437103,-0.007239517290145159,0.0017030923627316952,0.022743118926882744,1,0,-1000,-6,2,22,-2,7,-152,58172.0
02:12:49.830,AUTO,-35.3632624,149.1652368,28342,0.007580276113003492,0.0015274877659976482,-0.23601172864437103,-0.007239517290145159,0.0017030923627316952,0.022743118926882744,1,0,-1000,-6,2,22,-2,7,-152,58172.0
02:12:50.031,AUTO,-35.3632624,149.1652373,29505,0.002665602834895253,0.0015223657246679068,-0.21999365091323853,-0.004537343513220549,0.0002984401071444154,0.021192766726017,0,-1,-1000,-3,1,21,0,8,-152,58172.0
02:12:50.233,AUTO,-35.3632624,149.1652374,29893,0.0012287533609196544,0.001610633684322238,-0.21493399143218994,-0.0029524872079491615,0.0014274551067501307,0.021029526367783546,0,-1,-1000,-1,2,21,0,7,-152,58172.0
02:12:50.435,AUTO,-35.3632624,149.1652376,30281,0.00026041254750452936,0.0016818060539662838,-0.2103874683380127,-0.002158281859010458,0.001222995575517416,0.017157016322016716,0,-1,-1000,-1,2,16,0,7,-152,58172.0
02:12:50.636,AUTO,-35.3632624,149.1652377,30668,-0.00020029614097438753,0.0017421802040189505,-0.20599569380283356,0.0006388034671545029,3.875547554343939e-05,0.019267218187451363,0,0,-1000,1,0,19,0,6,-152,247251.0
02:12:50.839,AUTO,-35.3632624,149.1652378,31057,-0.0005318750045262277,0.001627669669687748,-0.20165741443634033,0.001282567740418017,-0.0007149159209802747,0.017061837017536163,0,0,-1001,2,0,16,0,5,-152,247251.0
02:12:51.041,AUTO,-35.3632624,149.1652378,31057,-0.0005318750045262277,0.001627669669687748,-0.20165741443634033,0.001282567740418017,-0.0007149159209802747,0.017061837017536163,0,0,-1001,2,0,16,0,5,-152,247251.0
02:12:51.242,AUTO,-35.3632624,149.1652379,31445,-0.0008202116587199271,0.0012589909601956606,-0.19726577401161194,-0.0026900500524789095,-0.0011363507946953177,0.015983404591679573,0,-1,-1000,-2,0,15,0,4,-152,247251.0
02:12:51.448,AUTO,-35.3632624,149.1652379,31445,-0.0008202116587199271,0.0012589909601956606,-0.19726577401161194,-0.0026900500524789095,-0.0011363507946953177,0.015983404591679573,0,-1,-1000,-2,0,15,0,4,-152,247251.0
02:12:51.650,AUTO,-35.3632624,149.1652379,31445,-0.0008202116587199271,0.0012589909601956606,-0.19726577401161194,-0.0026900500524789095,-0.0011363507946953177,0.015983404591679573,0,-1,-1000,-2,0,15,0,4,-152,247251.0
02:12:51.853,AUTO,-35.3632624,149.165238,32609,-1.8832593923434615e-05,0.0011023265542462468,-0.18525497615337372,-0.00022793642710894346,0.0012585927033796906,0.016517948359251022,0,-1,-1000,-2,0,15,0,1,-152,247251.0
02:12:52.054,AUTO,-35.3632624,149.165238,32609,-1.8832593923434615e-05,0.0011023265542462468,-0.18525497615337372,-0.00022793642710894346,0.0012585927033796906,0.016517948359251022,0,0,-999,0,2,16,0,1,-152,247251.0
02:12:52.256,AUTO,-35.3632624,149.165238,32998,0.00033133861143141985,0.0009758100495673716,-0.1815626472234726,0.004187757149338722,0.00020879070507362485,0.015387414023280144,0,0,-1001,5,1,15,0,1,-152,247251.0
02:12:52.457,AUTO,-35.3632623,149.165238,33390,0.0007178285741247237,0.0008948400500230491,-0.17805171012878418,0.002453332766890526,-0.0026280246675014496,0.0157464686781168,0,0,-1000,3,-1,15,0,0,-153,247251.0
02:12:52.659,AUTO,-35.3632623,149.165238,33778,0.0011232758406549692,0.0008436424541287124,-0.17456352710723877,6.0778926126658916e-05,2.2829219233244658e-05,0.012716155499219894,0,0,-1000,0,1,12,0,0,-152,247251.0
02:12:52.862,AUTO,-35.3632623,149.165238,34166,0.0015010181814432144,0.0009598716860637069,-0.17123720049858093,0.0018473226809874177,0.00016416155267506838,0.012632022611796856,0,0,-1000,2,1,12,0,0,-152,247251.0
02:12:53.064,AUTO,-35.3632623,149.165238,34166,0.0015010181814432144,0.0009598716860637069,-0.17123720049858093,0.0018473226809874177,0.00016416155267506838,0.012632022611796856,0,0,-1000,2,1,12,0,0,-152,247251.0
02:12:53.266,AUTO,-35.3632623,149.165238,34554,0.0017205059994012117,0.0008818851783871651,-0.16792957484722137,0.0024529334623366594,0.0007883697981014848,0.015111733227968216,0,0,-1000,3,1,14,0,0,-152,247251.0
02:12:53.467,AUTO,-35.3632623,149.165238,34554,0.0017205059994012117,0.0008818851783871651,-0.16792957484722137,0.0024529334623366594,0.0007883697981014848,0.015111733227968216,0,0,-1000,3,1,14,0,0,-152,247251.0
02:12:53.677,AUTO,-35.3632623,149.165238,34554,0.0017205059994012117,0.0008818851783871651,-0.16792957484722137,0.0024529334623366594,0.0007883697981014848,0.015111733227968216,0,0,-1000,3,1,14,0,0,-152,182485.0
02:12:53.879,AUTO,-35.3632623,149.1652378,35705,-0.026758136227726936,0.02946953848004341,-0.09754284471273422,-0.18183259665966034,0.17221105098724365,0.44744566082954407,-1,0,-948,-181,173,447,-3,-2,-141,182485.0
02:12:54.081,AUTO,-35.3632623,149.1652378,35705,-0.026758136227726936,0.02946953848004341,-0.09754284471273422,-0.18183259665966034,0.17221105098724365,0.44744566082954407,-1,0,-948,-181,173,447,-3,-2,-141,182485.0
02:12:54.282,AUTO,-35.3632623,149.1652376,36050,-0.06499038636684418,0.0773257464170456,0.050696469843387604,-0.12478230148553848,0.07478902488946915,0.5811653733253479,1,3,-929,-123,75,581,-15,-14,-127,182485.0
02:12:54.484,AUTO,-35.3632628,149.1652369,36349,-0.05537225678563118,0.05672420188784599,0.15361979603767395,0.096737340092659,-0.20933467149734497,0.27249014377593994,3,6,-924,97,-208,272,-29,-29,-107,182485.0
02:12:54.685,AUTO,-35.3632635,149.165236,36602,-0.025458982214331627,0.0049710338935256,0.19764819741249084,0.10631705820560455,-0.20482392609119415,0.09963138401508331,4,9,-935,107,-203,99,-33,-37,-90,182485.0
02:12:54.887,AUTO,-35.3632642,149.1652349,36815,0.0031443622428923845,-0.032209426164627075,0.20916837453842163,0.10784042626619339,-0.10780411213636398,0.01471155509352684,3,11,-946,108,-106,14,-28,-36,-76,182485.0
02:12:55.089,AUTO,-35.3632642,149.1652349,36815,0.0031443622428923845,-0.032209426164627075,0.20916837453842163,0.10784042626619339,-0.10780411213636398,0.01471155509352684,3,11,-946,108,-106,14,-28,-36,-76,182485.0
02:12:55.291,AUTO,-35.3632648,149.165234,36994,0.02549567259848118,-0.04926792532205582,0.2058832347393036,0.1031016856431961,-0.04007447138428688,-0.02112468332052231,2,9,-958,104,-38,-21,-19,-29,-64,182485.0
02:12:55.493,AUTO,-35.3632648,149.165234,36994,0.02549567259848118,-0.04926792532205582,0.2058832347393036,0.1031016856431961,-0.04007447138428688,-0.02112468332052231,2,9,-958,104,-38,-21,-19,-29,-64,182485.0
02:12:55.696,AUTO,-35.3632648,149.165234,36994,0.02549567259848118,-0.04926792532205582,0.2058832347393036,0.1031016856431961,-0.04007447138428688,-0.02112468332052231,2,9,-958,104,-38,-21,-19,-29,-64,182485.0
02:12:55.898,AUTO,-35.3632651,149.1652329,37390,0.046166110783815384,-0.04124115779995918,0.17895540595054626,0.10028020292520523,0.035611480474472046,-0.03626846894621849,-2,-6,-976,100,36,-36,9,5,-42,182485.0
02:12:56.100,AUTO,-35.3632648,149.1652331,37488,0.032139163464307785,-0.0313103012740612,0.17136363685131073,-0.5251151323318481,0.042811278253793716,-0.02587488293647766,-3,-25,-992,-524,43,-25,16,14,-37,182485.0
02:12:56.301,AUTO,-35.3632648,149.1652331,37488,0.032139163464307785,-0.0313103012740612,0.17136363685131073,-0.5251151323318481,0.042811278253793716,-0.02587488293647766,-3,-25,-992,-524,43,-25,16,14,-37,182485.0
02:12:56.503,AUTO,-35.3632644,149.1652334,37579,0.026422040536999702,-0.02048923447728157,0.1649116724729538,-0.07257294654846191,0.038518026471138,-0.010646582581102848,0,1,-1002,-70,39,-10,20,22,-36,113395.0
02:12:56.705,AUTO,-35.3632639,149.165234,37669,0.02977488748729229,-0.00956866703927517,0.15946926176548004,0.4569074809551239,0.04056791588664055,-0.014931044541299343,-2,16,-1015,458,41,-14,23,27,-37,113395.0
02:12:56.907,AUTO,-35.3632634,149.1652347,37767,0.01921827532351017,-0.0003715667116921395,0.15425308048725128,-0.13029196858406067,0.03415819630026817,-0.01774228736758232,-3,-26,-991,-130,35,-17,23,28,-40,113395.0
02:12:57.109,AUTO,-35.3632628,149.1652354,37861,0.003333115018904209,0.0064098648726940155,0.14920471608638763,-0.4940434694290161,0.02492164820432663,-0.011899520643055439,-3,-21,-973,-492,26,-11,22,29,-35,113395.0
02:12:57.310,AUTO,-35.3632628,149.1652354,37861,0.003333115018904209,0.0064098648726940155,0.14920471608638763,-0.4940434694290161,0.02492164820432663,-0.011899520643055439,-3,-21,-973,-492,26,-11,22,29,-35,113395.0
02:12:57.512,AUTO,-35.3632628,149.1652354,37861,0.003333115018904209,0.0064098648726940155,0.14920471608638763,-0.4940434694290161,0.02492164820432663,-0.011899520643055439,-3,-21,-973,-492,26,-11,22,29,-35,113395.0
02:12:57.714,AUTO,-35.3632628,149.1652354,37861,0.003333115018904209,0.0064098648726940155,0.14920471608638763,-0.4940434694290161,0.02492164820432663,-0.011899520643055439,-3,-21,-973,-492,26,-11,22,29,-35,113395.0
02:12:57.916,AUTO,-35.3632616,149.1652372,37986,-0.004070619586855173,0.04679794982075691,0.14249154925346375,0.6501763463020325,0.02837897092103958,-0.01487069483846426,1,9,-951,650,29,-14,9,19,4,113395.0
02:12:58.117,AUTO,-35.3632615,149.1652375,37966,-0.0021983319893479347,0.04251360148191452,0.13752639293670654,-0.02519560232758522,-0.03324265405535698,-0.012749064713716507,1,-27,-985,-25,-32,-12,0,12,8,113395.0
02:12:58.319,AUTO,-35.3632615,149.1652375,37966,-0.0021983319893479347,0.04251360148191452,0.13752639293670654,-0.02519560232758522,-0.03324265405535698,-0.012749064713716507,1,-27,-985,-25,-32,-12,0,12,8,113395.0
02:12:58.521,AUTO,-35.3632615,149.1652377,37945,-0.00041062739910557866,0.037545617669820786,0.13308186829090118,-0.6892837882041931,-0.005562779027968645,-0.019365960732102394,0,-47,-1003,-688,-4,-19,-10,10,6,113395.0
02:12:58.722,AUTO,-35.3632618,149.1652378,37925,0.009462612681090832,0.036899466067552567,0.1294817328453064,-0.5544655323028564,0.005997491534799337,-0.012517550028860569,3,-11,-1016,-552,7,-12,-18,12,4,113395.0
02:12:58.924,AUTO,-35.3632623,149.165238,37915,0.022735202684998512,0.03874453902244568,0.12663261592388153,0.10822686553001404,0.01608768105506897,-0.006372420582920313,7,28,-989,110,17,-6,-27,17,0,113395.0
02:12:59.126,AUTO,-35.363263,149.1652384,37914,0.042288124561309814,0.043054480105638504,0.12463384866714478,0.6532921195030212,0.01559149008244276,-0.00873677060008049,10,29,-1035,654,16,-8,-36,22,-5,113395.0
02:12:59.327,AUTO,-35.363263,149.1652384,37914,0.042288124561309814,0.043054480105638504,0.12463384866714478,0.6532921195030212,0.01559149008244276,-0.00873677060008049,10,29,-1035,654,16,-8,-36,22,-5,113395.0
02:12:59.529,AUTO,-35.363263,149.1652384,37914,0.042288124561309814,0.043054480105638504,0.12463384866714478,0.6532921195030212,0.01559149008244276,-0.00873677060008049,10,29,-1035,654,16,-8,-36,22,-5,104564.0
02:12:59.731,AUTO,-35.363263,149.1652384,37914,0.042288124561309814,0.043054480105638504,0.12463384866714478,0.6532921195030212,0.01559149008244276,-0.00873677060008049,10,29,-1035,654,16,-8,-36,22,-5,104564.0
02:12:59.933,AUTO,-35.3632665,149.1652407,37968,0.05074848607182503,0.05289722606539726,0.273587703704834,-0.40804338455200195,-0.0019960328936576843,0.7638609409332275,19,-7,-998,-406,0,764,-68,47,-13,104564.0
02:13:00.135,AUTO,-35.3632681,149.1652421,38001,0.07798026502132416,0.048140425235033035,0.4813390374183655,0.3768593668937683,0.041835080832242966,0.8651812672615051,19,10,-1024,379,43,865,-81,57,-18,104564.0
02:13:00.337,AUTO,-35.3632681,149.1652421,38001,0.07798026502132416,0.048140425235033035,0.4813390374183655,0.3768593668937683,0.041835080832242966,0.8651812672615051,19,10,-1024,379,43,865,-81,57,-18,104564.0
02:13:00.539,AUTO,-35.3632701,149.1652438,38043,0.09955357015132904,0.03835258260369301,0.6918306350708008,0.3973535895347595,0.04170922562479973,0.8166405558586121,20,-10,-1008,398,42,817,-95,68,-19,104564.0
02:13:00.741,AUTO,-35.3632725,149.1652458,38088,0.1056833267211914,0.025702036917209625,0.8883234262466431,-0.3358527421951294,0.01646427996456623,0.7597498893737793,19,-50,-1007,-335,17,759,-110,79,-22,104564.0
02:13:00.944,AUTO,-35.3632752,149.1652482,38139,0.11378646641969681,0.010982802137732506,1.0739398002624512,-0.2927111089229584,0.017146844416856766,0.7348094582557678,23,-43,-1013,-291,18,734,-127,91,-23,104564.0
02:13:01.146,AUTO,-35.3632783,149.165251,38195,0.13416603207588196,-0.006879846565425396,1.2515429258346558,0.2885909974575043,0.02413691207766533,0.7215338945388794,13,-19,-1019,290,25,721,-147,103,-26,104564.0
02:13:01.350,AUTO,-35.3632783,149.165251,38195,0.13416603207588196,-0.006879846565425396,1.2515429258346558,0.2885909974575043,0.02413691207766533,0.7215338945388794,13,-19,-1019,290,25,721,-147,103,-26,104564.0
02:13:01.553,AUTO,-35.3632783,149.165251,38195,0.13416603207588196,-0.006879846565425396,1.2515429258346558,0.2885909974575043,0.02413691207766533,0.7215338945388794,13,-19,-1019,290,25,721,-147,103,-26,104564.0
02:13:01.762,AUTO,-35.3632783,149.165251,38195,0.13416603207588196,-0.006879846565425396,1.2515429258346558,0.2885909974575043,0.02413691207766533,0.7215338945388794,13,-19,-1019,290,25,721,-147,103,-26,104564.0
02:13:01.964,AUTO,-35.3632907,149.1652617,38423,0.13886936008930206,-0.08476655930280685,1.767186164855957,-0.058422572910785675,-0.015370168723165989,0.6974421143531799,-13,-54,-1024,-57,-14,697,-215,142,-39,104564.0
02:13:02.166,AUTO,-35.3632959,149.165266,38523,0.13477744162082672,-0.10974863916635513,1.9401973485946655,0.22520169615745544,0.015415176749229431,0.7091268301010132,-27,-54,-1026,226,16,709,-239,156,-44,104564.0
02:13:02.369,AUTO,-35.3633016,149.1652708,38636,0.1143350824713707,-0.12735483050346375,2.116703510284424,-0.09300684928894043,0.01637682504951954,0.7233416438102722,-37,-66,-1028,-92,17,723,-263,171,-50,104564.0
02:13:02.572,AUTO,-35.3633016,149.1652708,38636,0.1143350824713707,-0.12735483050346375,2.116703510284424,-0.09300684928894043,0.01637682504951954,0.7233416438102722,-37,-66,-1028,-92,17,723,-263,171,-50,123658.0
02:13:02.773,AUTO,-35.3633079,149.165276,38764,0.0898565724492073,-0.13932080566883087,2.295213222503662,-0.049244146794080734,-0.009624877013266087,0.7087563872337341,-55,-57,-1028,-48,-8,708,-287,184,-56,123658.0
02:13:02.976,AUTO,-35.3633147,149.1652815,38910,0.06777273863554001,-0.15754462778568268,2.474452495574951,0.058317556977272034,-0.02166721597313881,0.7139432430267334,-65,-37,-1024,59,-20,714,-308,196,-63,123658.0
02:13:03.178,AUTO,-35.3633219,149.1652874,39070,0.040917765349149704,-0.17663097381591797,2.6463842391967773,0.02544010989367962,-0.029777538031339645,0.5942573547363281,-83,-38,-1019,26,-28,594,-329,210,-67,123658.0
02:13:03.380,AUTO,-35.3633219,149.1652874,39070,0.040917765349149704,-0.17663097381591797,2.6463842391967773,0.02544010989367962,-0.029777538031339645,0.5942573547363281,-83,-38,-1019,26,-28,594,-329,210,-67,123658.0
02:13:03.582,AUTO,-35.3633219,149.1652874,39070,0.040917765349149704,-0.17663097381591797,2.6463842391967773,0.02544010989367962,-0.029777538031339645,0.5942573547363281,-83,-38,-1019,26,-28,594,-329,210,-67,123658.0
02:13:03.784,AUTO,-35.3633219,149.1652874,39070,0.040917765349149704,-0.17663097381591797,2.6463842391967773,0.02544010989367962,-0.029777538031339645,0.5942573547363281,-83,-38,-1019,26,-28,594,-329,210,-67,123658.0
02:13:03.985,AUTO,-35.3633462,149.1653067,39622,0.03660082072019577,-0.1523299515247345,2.8100225925445557,-0.015620935708284378,0.017374655231833458,0.089525006711483,-99,-34,-1014,-14,18,89,-386,235,-82,123658.0
02:13:04.187,AUTO,-35.363355,149.1653134,39830,0.031089406460523605,-0.15316584706306458,2.831406593322754,-0.03910786658525467,-0.004531016573309898,0.09280640631914139,-98,-33,-999,-37,-3,93,-399,239,-84,123658.0
02:13:04.389,AUTO,-35.3633641,149.1653203,40041,0.020928533747792244,-0.14807061851024628,2.8525915145874023,0.003173853736370802,0.04223031550645828,0.0715043693780899,-105,-16,-1000,4,42,71,-410,245,-85,123658.0
02:13:04.591,AUTO,-35.3633641,149.1653203,40041,0.020928533747792244,-0.14807061851024628,2.8525915145874023,0.003173853736370802,0.04223031550645828,0.0715043693780899,-105,-16,-1000,4,42,71,-410,245,-85,123658.0
02:13:04.794,AUTO,-35.3633734,149.1653273,40256,0.009037330746650696,-0.13655082881450653,2.8754239082336426,-0.023470602929592133,0.03728487715125084,0.07973452657461166,-110,-33,-1003,-22,38,79,-418,251,-86,123658.0
02:13:04.996,AUTO,-35.3633828,149.1653345,40476,0.004952439107000828,-0.13071312010288239,2.8937008380889893,0.019432825967669487,0.011384517885744572,0.05040329322218895,-121,-27,-1004,20,12,50,-423,261,-88,123658.0
02:13:05.199,AUTO,-35.3633923,149.1653418,40698,-0.004149468149989843,-0.13389952480793,2.913517951965332,-0.02804521471261978,-0.02173589915037155,0.07370255142450333,-99,-29,-986,-27,-20,74,-427,267,-87,123658.0
02:13:05.401,AUTO,-35.3633923,149.1653418,40698,-0.004149468149989843,-0.13389952480793,2.913517951965332,-0.02804521471261978,-0.02173589915037155,0.07370255142450333,-99,-29,-986,-27,-20,74,-427,267,-87,123658.0
02:13:05.603,AUTO,-35.3633923,149.1653418,40698,-0.004149468149989843,-0.13389952480793,2.913517951965332,-0.02804521471261978,-0.02173589915037155,0.07370255142450333,-99,-29,-986,-27,-20,74,-427,267,-87,108231.0
02:13:05.805,AUTO,-35.3633923,149.1653418,40698,-0.004149468149989843,-0.13389952480793,2.913517951965332,-0.02804521471261978,-0.02173589915037155,0.07370255142450333,-99,-29,-986,-27,-20,74,-427,267,-87,108231.0
02:13:06.007,AUTO,-35.3634214,149.1653651,41298,-0.013277385383844376,-0.18968552350997925,2.9609012603759766,0.05646391585469246,-0.04182681068778038,0.02969410829246044,-124,-12,-955,57,-40,30,-451,295,-64,108231.0
02:13:06.209,AUTO,-35.3634316,149.1653734,41451,-0.00850299559533596,-0.19682250916957855,2.966398000717163,-0.003331199288368225,-0.022047679871320724,0.03386232629418373,-121,-10,-965,-2,-20,34,-467,303,-55,108231.0
02:13:06.410,AUTO,-35.3634422,149.165382,41587,-0.002757167676463723,-0.1943933665752411,2.968533754348755,0.046906452625989914,0.025532051920890808,-0.012156073935329914,-117,-19,-981,47,26,-11,-482,313,-51,108231.0
02:13:06.612,AUTO,-35.3634531,149.1653908,41721,0.0143820121884346,-0.17131257057189941,2.960775852203369,0.06368537247180939,0.12071710079908371,-0.03988204523921013,-143,-7,-1025,64,121,-39,-495,321,-54,108231.0
02:13:06.814,AUTO,-35.3634531,149.1653908,41721,0.0143820121884346,-0.17131257057189941,2.960775852203369,0.06368537247180939,0.12071710079908371,-0.03988204523921013,-143,-7,-1025,64,121,-39,-495,321,-54,108231.0
02:13:07.016,AUTO,-35.3634643,149.1653997,41870,0.020305421203374863,-0.15071097016334534,2.9552009105682373,0.02327590622007847,0.06486685574054718,-0.022192880511283875,-139,-29,-1033,24,66,-22,-503,323,-63,108231.0
02:13:07.218,AUTO,-35.3634755,149.1654086,42042,0.030735770240426064,-0.1382077932357788,2.9469666481018066,0.02381950244307518,0.01440348569303751,-0.018108084797859192,-140,-10,-1023,24,15,-17,-505,323,-71,108231.0
02:13:07.420,AUTO,-35.3634755,149.1654086,42042,0.030735770240426064,-0.1382077932357788,2.9469666481018066,0.02381950244307518,0.01440348569303751,-0.018108084797859192,-140,-10,-1023,24,15,-17,-505,323,-71,108231.0
02:13:07.622,AUTO,-35.3634755,149.1654086,42042,0.030735770240426064,-0.1382077932357788,2.9469666481018066,0.02381950244307518,0.01440348569303751,-0.018108084797859192,-140,-10,-1023,24,15,-17,-505,323,-71,108231.0
02:13:07.824,AUTO,-35.3634755,149.1654086,42042,0.030735770240426064,-0.1382077932357788,2.9469666481018066,0.02381950244307518,0.01440348569303751,-0.018108084797859192,-140,-10,-1023,24,15,-17,-505,323,-71,108231.0
02:13:08.026,AUTO,-35.3635092,149.1654349,42622,0.03473988547921181,-0.12039312720298767,2.9399900436401367,-0.013383280485868454,0.08420339226722717,-0.0018505158368498087,-124,-19,-1019,-12,85,-1,-508,316,-82,108231.0
02:13:08.228,AUTO,-35.3635206,149.1654435,42845,0.03836233913898468,-0.09269243478775024,2.9376416206359863,0.00723470002412796,0.11441300809383392,-0.02500395104289055,-146,-21,-1050,8,115,-24,-503,312,-93,108231.0
02:13:08.431,AUTO,-35.3635317,149.1654521,43098,0.04685917869210243,-0.07251863926649094,2.9319188594818115,0.03186992555856705,0.04248940199613571,-0.024002179503440857,-141,-20,-1045,32,43,-23,-492,307,-105,108231.0
02:13:08.632,AUTO,-35.3635426,149.1654604,43378,0.04689408466219902,-0.06316980719566345,2.928640365600586,0.016655074432492256,0.03481230512261391,-0.03321133181452751,-118,-46,-1026,17,35,-33,-479,299,-114,173906.0
02:13:08.834,AUTO,-35.3635426,149.1654604,43378,0.04689408466219902,-0.06316980719566345,2.928640365600586,0.016655074432492256,0.03481230512261391,-0.03321133181452751,-118,-46,-1026,17,35,-33,-479,299,-114,173906.0
02:13:09.036,AUTO,-35.3635533,149.1654686,43683,0.050429459661245346,-0.05091588571667671,2.924485206604004,-0.012592880055308342,0.0686509907245636,-0.00792382936924696,-134,-14,-1028,-11,69,-7,-465,288,-122,173906.0
02:13:09.238,AUTO,-35.3635636,149.1654765,44004,0.05407319217920303,-0.039339594542980194,2.9212985038757324,0.0036328076384961605,0.03206103667616844,-0.009271661750972271,-125,-12,-1022,4,32,-8,-447,278,-129,173906.0
02:13:09.440,AUTO,-35.3635636,149.1654765,44004,0.05407319217920303,-0.039339594542980194,2.9212985038757324,0.0036328076384961605,0.03206103667616844,-0.009271661750972271,-125,-12,-1022,4,32,-8,-447,278,-129,173906.0
02:13:09.642,AUTO,-35.3635636,149.1654765,44004,0.05407319217920303,-0.039339594542980194,2.9212985038757324,0.0036328076384961605,0.03206103667616844,-0.009271661750972271,-125,-12,-1022,4,32,-8,-447,278,-129,173906.0
02:13:09.847,AUTO,-35.3635636,149.1654765,44004,0.05407319217920303,-0.039339594542980194,2.9212985038757324,0.0036328076384961605,0.03206103667616844,-0.009271661750972271,-125,-12,-1022,4,32,-8,-447,278,-129,173906.0
02:13:10.049,AUTO,-35.3635921,149.1654981,44995,0.026397641748189926,-0.09586954116821289,2.825606107711792,-0.16214752197265625,-0.14449869096279144,-0.5621635317802429,-122,-26,-892,-161,-143,-561,-405,252,-108,173906.0
