time_stamp,RTL_ALT,lat,lon,relative_alt,vx,vy,vz,xacc,yacc,zacc,xgyro,ygyro,zgyro,MODE,roll,pitch,yaw,rollspeed,pitchspeed,yawspeed
08:56:11,90671.0,-35.3632622,149.1652375,0.0,-1.0,1.0,0.0,0.0,1.0,-1000.0,1.0,0.0,0.0,STABILIZE,-0.00040792813524603844,0.001198832644149661,0.026905905455350876,0.00025413365801796317,0.00025097824982367456,0.0021066779736429453
08:56:17,90671.0,-35.3632621,149.1652375,0.0,-1.0,2.0,2.0,0.0,1.0,-1000.5,0.0,0.5,0.0,STABILIZE,-0.0009077665163204074,0.0009595519513823092,0.02449467033147812,0.0002528989571146667,0.00036205764627084136,0.0017935691867023706
08:56:23,90671.0,-35.3632622,149.1652375,0.0,-1.0,0.0,0.0,0.0,2.0,-1000.0,0.0,0.0,0.0,STABILIZE,-0.001251742010936141,0.0009731127647683024,0.02314116060733795,0.00030594668351113796,0.0003382761497050524,0.0015489753568544984
08:56:25,90671.0,-35.3632622,149.1652375,5.0,-1.0,1.0,0.0,0.0,1.0,-1000.0,1.0,1.0,0.0,AUTO,-0.0010449228575453162,0.0009779500542208552,0.02269178442656994,0.00031557667534798384,0.00027378025697544217,0.0013703994918614626
08:56:27,81521.5,-35.3632621,149.1652375,8.0,0.0,0.0,0.0,0.0,1.0,-1000.0,1.0,0.5,0.0,AUTO,-0.0008732062415219843,0.0012341870460659266,0.02233152650296688,0.0003329671162646264,0.0003129732795059681,0.0014084072317928076
08:56:29,72372.0,-35.3632621,149.16523745,105.5,0.0,0.0,-36.0,0.0,0.5,-1065.5,3.0,2.5,0.5,AUTO,0.0012643022928386927,0.0009212982113240287,0.02181953378021717,0.0029967698501423,0.002274603903060779,0.0017758944304659963
08:56:31,72372.0,-35.363262,149.1652377,1773.0,1.0,11.0,-148.0,0.0,-1.0,-1007.0,45.0,-7.0,2.0,AUTO,0.03382802754640579,-0.0030031350906938314,0.021734721958637238,0.044627681374549866,-0.008114578202366829,0.0029842203948646784
08:56:33,270705.0,-35.36326095,149.16524575,4787.0,-4.0,24.5,-149.5,5.0,-7.0,-1001.0,-73.0,-46.0,-10.5,AUTO,-0.05334513820707798,0.010989954229444265,-0.0834302082657814,-0.07435379549860954,-0.04751419275999069,-0.009913732297718525
08:56:35,270705.0,-35.363261449999996,149.1652386,7875.5,-3.0,-55.0,-151.5,-7.0,13.5,-1004.0,67.0,14.5,2.5,AUTO,0.010477454867213964,0.0010235240042675287,-0.08786390349268913,0.06642856448888779,0.014091047924011946,0.0031230038730427623
08:56:37,270705.0,-35.3632624,149.16523525,10989.0,-1.0,18.0,-150.0,2.5,-3.0,-1002.5,-44.0,-1.0,-15.0,AUTO,-0.0004709898494184017,-0.00398214056622237,-0.08115112036466599,-0.04492170549929142,-0.0020606384496204555,-0.015387315303087234
08:56:38,67855.0,-35.363262250000005,149.165236275,12923.25,3.75,-0.5,-152.5,-0.5,-0.5,-1000.5,13.75,5.0,-23.0,AUTO,-0.008130161848384887,-0.0009514626581221819,-0.1121065653860569,0.013488946482539177,0.005133475526235998,-0.023256463930010796
08:56:39,67855.0,-35.363261949999995,149.165236,14093.0,3.0,-4.0,-153.0,-1.5,0.0,-1000.0,13.5,5.0,-19.0,AUTO,0.0020369508711155504,0.0029091951437294483,-0.12955708801746368,0.013017826713621616,0.004881952307187021,-0.01898959092795849
08:56:41,67855.0,-35.3632616,149.1652354,17209.5,-2.0,4.5,-153.0,0.0,0.0,-1000.0,-1.5,-0.5,-13.5,AUTO,0.0070803407579660416,0.005582954967394471,-0.16126396507024765,-0.0028958083130419254,-0.001865866535808891,-0.013345456682145596
08:56:43,67855.0,-35.3632617,149.1652361,20321.0,-4.0,-3.0,-150.0,0.0,0.0,-990.0,-73.0,31.5,36.5,AUTO,-0.03406541235744953,0.006121814250946045,-0.19245291501283646,-0.07440942898392677,0.03091595636215061,0.03674215171486139
08:56:44,3242.0,-35.36326375,149.16523275,22019.75,-27.0,-26.5,-111.25,1.5,8.25,-958.25,93.25,-97.0,43.0,AUTO,0.02047125273384154,-0.015540249412879348,0.08008250314742327,0.09274317044764757,-0.09826671029441059,0.043492650613188744
08:56:45,3242.0,-35.36326485,149.16523145000002,22768.5,-3.0,7.5,-82.0,0.5,0.5,-968.0,-12.0,23.0,-24.0,AUTO,0.05572848208248615,-0.03888178616762161,0.06509621255099773,-0.01266935741296038,0.0223788283765316,-0.024370018392801285
08:56:47,3242.0,-35.3632622,149.1652377,23898.5,14.0,29.0,-33.0,0.0,-8.0,-976.5,-12.5,6.5,-0.5,AUTO,-0.007120138267055154,0.014016738627105951,0.05523763597011566,-0.013681302545592189,0.006088927329983562,-0.0008044068817980587
08:56:49,3242.0,-35.3632614,149.16523905,23939.5,-10.0,-25.5,17.5,-1.5,-21.5,-994.5,-706.0,-18.0,-7.5,AUTO,-0.046381136402487755,0.007511578034609556,0.047513753175735474,-0.7076319456100464,-0.019223597832024097,-0.007748699048534036
08:56:50,112288.0,-35.3632626,149.16523202500002,23826.25,-11.0,-72.0,-1.25,-7.75,20.25,-1005.25,-9.0,-18.25,-474.75,AUTO,-0.056559388525784016,-0.012311395665165037,-0.07002257462590933,-0.010023292154073715,-0.019485595184960403,-0.47515885782195255
08:56:51,112288.0,-35.363263450000005,149.16522429999998,23828.5,-12.5,-111.0,-3.5,-26.5,-14.5,-1001.5,-423.0,-23.5,-1166.0,AUTO,-0.057291628792881966,-0.06520152650773525,-0.7421028017997742,-0.42400050163269043,-0.025118619203567505,-1.1666208505630493
08:56:53,112288.0,-35.36326705,149.1651804,23864.5,-26.5,-302.5,-4.0,-60.5,-41.5,-1006.5,-66.5,-6.0,59.5,AUTO,0.03938852623105049,-0.17174182832241058,-1.625914454460144,-0.06775176711380482,-0.006781911011785269,0.06017620489001274
08:56:55,112288.0,-35.36327275,149.1650905,23933.0,-42.0,-518.5,-5.5,-101.5,-59.0,-1003.5,22.5,12.0,-3.0,AUTO,0.0535547137260437,-0.2087690755724907,-1.6271213293075562,0.021986027248203754,0.011710145132383332,-0.00355721905361861
08:56:56,75374.0,-35.363278025,149.1650116,24057.0,-49.25,-615.75,-13.25,-127.5,-58.0,-999.25,17.5,18.25,-5.0,AUTO,0.06817911006510258,-0.179523304104805,-1.629640370607376,0.01700211619026959,0.01743421790888533,-0.0052891510422341526
08:56:57,75374.0,-35.3632815,149.1649592,24163.0,-51.0,-651.5,-14.5,-131.0,-63.5,-990.0,-6.5,18.0,-2.5,AUTO,0.07452518865466118,-0.16352583467960358,-1.6312817335128784,-0.0074527302058413625,0.01785246329382062,-0.00256554241059348
08:56:59,75374.0,-35.3632908,149.16481140000002,24438.5,-50.5,-672.0,-8.0,-139.5,-82.0,-983.5,-20.0,-25.0,1.0,AUTO,0.0773470588028431,-0.1313859447836876,-1.6326878666877747,-0.02171052899211645,-0.02672850899398327,0.00117781781591475
08:57:01,75374.0,-35.3633003,149.16466335,24636.0,-50.0,-646.5,-13.0,-131.5,-81.0,-989.0,-26.0,61.5,2.0,AUTO,0.0843893401324749,-0.07513085752725601,-1.634527325630188,-0.02750867884606123,0.06065592169761658,0.001999927102588117
08:57:02,221866.0,-35.36330545,149.16457965,24797.5,-40.0,-552.0,-7.0,-112.75,-70.75,-986.75,-78.5,42.75,-1.25,AUTO,0.07460962049663067,-0.010850030928850174,-1.633428931236267,-0.07938487268984318,0.04198406729847193,-0.0011787079274654388
08:57:03,221866.0,-35.363308,149.1645363,24845.5,-33.0,-475.0,-0.5,-99.5,-47.0,-992.0,459.5,69.0,-24.0,AUTO,0.07098577544093132,0.025921077467501163,-1.6344090104103088,0.4579278454184532,0.06804969534277916,-0.024600251112133265
08:57:05,221866.0,-35.3633119,149.1644574,24822.0,-16.5,-242.5,1.5,-48.0,-60.5,-1000.0,-512.5,18.0,15.0,AUTO,0.024797167163342237,0.06221638061106205,-1.6345289945602417,-0.5133044421672821,0.01771941315382719,0.015262492466717958
08:57:07,221866.0,-35.3633121,149.16442634999999,24815.5,-16.0,-56.5,0.5,-10.5,15.5,-1008.5,511.5,-22.5,-0.5,AUTO,-0.005296631949022412,0.04777084290981293,-1.636959195137024,0.5114803165197372,-0.024163033813238144,-0.0005431408644653857
08:57:08,54489.0,-35.363312775,149.16442317500002,24816.75,-17.75,-3.75,0.0,-0.75,-5.5,-995.0,-124.0,-26.0,-1.5,AUTO,-0.007082762545906007,0.01606555376201868,-1.6365351676940918,-0.12422638945281506,-0.02757820626720786,-0.0019721071585081518
08:57:09,54489.0,-35.3633133,149.1644235,24820.0,-15.5,3.0,0.0,0.0,12.5,-992.0,358.5,-29.5,-1.5,AUTO,-0.0011841473751701415,-0.00542964122723788,-1.6371508836746216,0.3590647391974926,-0.031321313232183456,-0.0023456797935068607
08:57:11,54489.0,-35.36331465,149.1644232,24835.5,-4.5,-16.0,-5.5,-3.0,22.5,-1020.5,371.5,9.5,-2.5,RTL,0.0059772616950795054,0.0014650902594439685,-1.6398492455482483,0.37062953412532806,0.009041562210768461,-0.003238944220356643
08:57:13,54489.0,-35.36331595,149.1644225,25770.5,3.5,-2.5,-93.5,-1.0,7.0,-1045.5,97.0,-1.5,2.5,RTL,0.014302970375865698,-0.0014997997204773128,-1.6427569389343262,0.0971257146447897,-0.002077456272672862,0.002664296596776694
08:57:14,135252.0,-35.3633168,149.164422675,27300.0,15.0,-2.75,-142.5,-0.25,1.5,-1025.5,39.5,-1.25,3.0,RTL,0.028751765843480825,-0.00357016792986542,-1.6440029442310333,0.03923165099695325,-0.0023095748329069465,0.0029572430066764355
08:57:15,135252.0,-35.363316600000005,149.16442265,28428.0,36.0,-6.5,-150.0,0.5,-2.0,-1001.0,44.0,-6.5,4.0,RTL,0.059593258425593376,-0.007495848461985588,-1.6448115110397339,0.043820058926939964,-0.007958674803376198,0.0035281029995530844
08:57:17,135252.0,-35.36331075,149.1644208,31466.5,2.0,0.0,-151.0,0.0,-1.5,-1003.0,31.0,-2.5,-26.0,RTL,-0.0709400624036789,0.001535388350021094,-1.7303487658500671,0.030316331889480352,-0.003927138634026051,-0.02745673432946205
08:57:19,135252.0,-35.363318500000005,149.16442295,34580.5,-25.0,19.5,-153.5,-4.0,10.0,-1002.5,63.0,4.0,3.5,RTL,0.04425226338207722,0.011455359868705273,-1.7446608543395996,0.06226838938891888,0.003606331767514348,0.0031524663791060448
08:57:20,15346.0,-35.363318275,149.164424375,36523.5,30.75,-3.75,-149.0,2.0,-4.75,-999.75,-83.5,0.25,3.75,RTL,0.019418419513385743,-0.0287311221472919,-1.7094909250736237,-0.0852670893073082,-0.0008893627673387527,0.003275615628808737
08:57:21,15346.0,-35.363316850000004,149.16442310000002,37675.5,16.5,-17.5,-151.5,-1.0,-6.5,-1004.5,-9.0,32.0,-65.0,RTL,-0.024433053098618984,-0.00257653440348804,-1.7454940676689148,-0.01066386018646881,0.031515682116150856,-0.06654423475265503
08:57:23,15346.0,-35.36331745,149.16442095000002,40800.0,-1.0,7.5,-152.5,0.0,0.0,-999.0,4.5,-4.5,-9.0,RTL,0.009199291002005339,0.014167227782309055,-1.8199850916862488,0.003535715863108635,-0.006392020033672452,-0.010237168986350298
08:57:25,15346.0,-35.3633167,149.16442215,43916.5,7.5,8.5,-152.0,2.0,0.0,-1000.5,-1.0,-0.5,-19.0,RTL,-0.0004582527324146213,-0.00010782341996673495,-1.8435803055763245,-0.002755512250587344,-0.001361335685942322,-0.020978565327823162
08:57:26,20060.0,-35.3633162,149.16442254999998,45860.5,3.75,4.0,-153.0,0.5,0.0,-1000.0,2.5,3.0,-24.0,RTL,-0.0010712462244555354,-9.383709402754903e-05,-1.874526709318161,0.0014891057799104601,0.0020188551279716194,-0.025576280429959297
08:57:27,20060.0,-35.3633161,149.1644226,47028.5,2.0,3.0,-153.0,0.0,0.0,-1000.0,3.5,2.0,-22.5,RTL,0.0007544318505097181,0.0007353175024036318,-1.893753170967102,0.002199780661612749,0.0008964568842202425,-0.023751123808324337
08:57:29,20060.0,-35.3633159,149.1644226,50145.0,3.0,2.0,-152.5,0.0,0.0,-999.5,5.0,4.5,-6.5,RTL,0.0019018701859749854,0.0025525877717882395,-1.9366652369499207,0.0037820969009771943,0.0037824151222594082,-0.007562799612060189
08:57:31,33683.0,-35.36331525,149.1644228,53251.5,6.0,3.0,-152.0,0.5,0.0,-1000.0,-2.0,-1.0,27.5,RTL,0.0003306371108919848,0.001896326313726604,-1.8953882455825806,-0.003544896957464516,-0.0034904959611594677,0.026675608940422535
08:57:33,47306.0,-35.3633149,149.1644229,56355.5,1.5,1.5,-152.0,0.0,0.0,-1000.0,1.0,0.5,20.5,RTL,1.8154321878682822e-05,0.0004218742687953636,-1.849924385547638,-0.0005083494470454752,-0.0011824669782072306,0.020118034444749355
08:57:35,47306.0,-35.36331495,149.1644229,59469.0,0.0,1.0,-152.0,0.0,0.0,-999.0,0.0,1.5,16.0,RTL,0.0012186263920739293,0.0006095666030887514,-1.8166130185127258,-0.0016461669001728296,0.0007182497647590935,0.015213220845907927
08:57:36,14633.0,-35.3633151,149.164422825,61401.75,0.0,0.25,-152.0,0.0,0.0,-1000.0,2.0,2.5,13.75,RTL,0.0017797525215428323,0.0005290091503411531,-1.800110399723053,0.0005881710676476359,0.0014214482507668436,0.012982014333829284
08:57:37,14633.0,-35.3633152,149.1644228,62574.0,0.5,0.0,-152.0,0.0,0.0,-1000.5,2.5,1.0,12.5,RTL,0.002327323309145868,0.000873893266543746,-1.791965126991272,0.0009820458362810314,-0.00041608180617913604,0.012278424110263586
08:57:39,14633.0,-35.3633153,149.1644227,65672.5,1.0,0.5,-152.0,0.0,0.0,-1000.5,1.0,1.0,9.0,RTL,0.0018530512461438775,0.001210392510984093,-1.7731337547302246,-0.00017561635468155146,7.72664207033813e-05,0.008413491770625114
08:57:41,14633.0,-35.3633153,149.1644226,68785.5,1.0,1.0,-152.0,0.0,0.0,-999.0,1.0,2.5,9.5,RTL,0.0015423764125443995,0.0011290666298009455,-1.7588276863098145,-0.00010791479144245386,0.0011613582028076053,0.00883028213866055
08:57:42,118218.0,-35.3633153,149.1644226,70728.5,1.0,1.0,-152.0,0.0,0.0,-1000.0,1.75,1.0,8.75,RTL,0.0015541113389190286,0.0011009302252205089,-1.7512222826480865,0.0003834550880128518,-0.00014818768249824643,0.007820610189810395
08:57:43,118218.0,-35.3633153,149.1644226,71895.0,1.0,1.0,-152.0,0.0,0.0,-1000.0,0.5,0.5,7.0,RTL,0.0016575151239521801,0.0007810023962520063,-1.746858835220337,-0.0003964223724324256,-0.0008770286804065108,0.006057902472093701
08:57:45,118218.0,-35.3633153,149.1644226,74999.0,1.0,1.0,-152.0,0.0,0.0,-1000.0,1.5,2.5,7.5,RTL,0.0016197205404751003,0.0008292205748148263,-1.7360765933990479,-9.961414616554976e-05,0.0009170957491733134,0.006416640942916274
08:57:47,118218.0,-35.3633154,149.1644226,78102.0,1.0,1.0,-152.0,0.0,0.0,-999.5,1.0,1.0,7.0,RTL,0.0017965697916224599,0.0006049583025742322,-1.7264283895492554,-0.0005964073934592307,-3.9846578147262335e-05,0.006320969900116324
08:57:48,90688.0,-35.3633154,149.1644226,80043.25,1.0,1.0,-152.0,0.0,0.0,-1000.5,2.5,1.5,4.75,RTL,0.0017207946511916816,0.0006537437147926539,-1.7213618159294128,0.0009767001902218908,0.00014159444253891706,0.004000364686362445
08:57:49,90688.0,-35.3633154,149.1644226,81208.0,1.0,1.0,-152.0,0.0,0.0,-1000.0,1.0,1.0,7.0,RTL,0.001809731125831604,0.0005929546896368265,-1.7183057069778442,-0.00023416266776621342,-0.0009934526751749218,0.005920490249991417
08:57:51,90688.0,-35.3633154,149.1644226,84317.0,1.0,1.0,-152.0,0.0,0.0,-1000.0,1.0,2.0,3.5,RTL,0.001865809375885874,0.000801674003014341,-1.7114494442939758,-0.00034460180904716253,0.0010719497222453356,0.0026690883678384125
08:57:53,77288.0,-35.3633154,149.1644226,87419.5,2.0,1.0,-152.0,0.0,0.0,-1000.0,1.0,1.5,6.0,RTL,0.002055538585409522,0.000899834354640916,-1.7052983045578003,-0.001148772076703608,0.00012011104263365269,0.004772485699504614
08:57:55,63888.0,-35.3633154,149.1644226,90534.0,1.0,1.0,-152.0,0.0,0.0,-1000.0,1.0,2.0,2.5,RTL,0.0017434751498512924,0.0007238476537168026,-1.6999719142913818,-0.00085105822654441,0.0003688790602609515,0.0013982137315906584
08:57:57,63888.0,-35.3633154,149.1644226,93635.0,1.0,1.0,-152.0,0.0,0.0,-1000.0,2.5,2.0,3.5,RTL,0.00178819103166461,0.0006757973751518875,-1.6954688429832458,0.0002701666671782732,0.0006508149672299623,0.002291959011927247
08:57:58,18546.0,-35.3633154,149.1644226,95576.5,1.0,1.0,-152.0,0.0,0.0,-999.75,2.25,3.0,4.75,RTL,0.0018020432617049664,0.0006398073746822774,-1.69295734167099,0.0007221831183414906,0.0014437450154218823,0.0034444814373273402
08:57:59,18546.0,-35.3633154,149.1644226,96742.0,1.0,1.0,-152.0,0.0,0.0,-1000.0,1.0,1.5,4.5,RTL,0.001847491366788745,0.0006135794974397868,-1.691257357597351,-0.00027339125517755747,0.00012231763685122132,0.0033856850350275636
08:58:01,18546.0,-35.3633154,149.1644226,99852.0,1.0,1.0,-152.0,0.0,0.0,-1000.0,2.0,1.0,5.0,RTL,0.0017616415861994028,0.000663735467242077,-1.6878188252449036,6.34300522506237e-06,-0.001226820982992649,0.003801932674832642
08:58:03,18546.0,-35.3633154,149.1644226,102958.5,1.0,1.0,-152.0,0.0,0.0,-1000.0,1.0,1.0,2.5,RTL,0.0017807824769988656,0.00036981143057346344,-1.68421471118927,-0.0005362996598705649,-0.0004475167952477932,0.0015212289290502667
08:58:04,12527.0,-35.3633154,149.1644226,104867.0,1.0,1.0,-152.0,0.0,0.0,-999.6666666666666,2.0,2.3333333333333335,3.6666666666666665,RTL,0.001879343685383598,0.00012059717664669733,-1.6825290123621623,0.0005332712704936663,0.0005865269340574741,0.002317642948279778
08:58:05,12527.0,-35.3633154,149.1644226,106034.66666666667,1.0,0.0,-152.0,0.0,0.0,-1000.0,2.3333333333333335,1.6666666666666667,3.3333333333333335,RTL,0.00202147134890159,0.000333662845150684,-1.6816320419311523,0.0010167711103955905,0.0003811266894141833,0.0022000582345450916
08:58:07,12527.0,-35.3633154,149.1644226,109180.5,1.0,0.0,-152.0,0.0,0.0,-1000.0,1.0,1.5,1.0,RTL,0.0019503498333506286,0.0004817752487724647,-1.679336428642273,-0.00026550330221652985,-0.00010895135346800089,-0.00031892250990495086
08:58:09,12527.0,-35.3633154,149.1644226,112287.0,1.0,1.0,-152.0,0.0,0.0,-1000.0,2.0,1.0,4.0,RTL,0.0018398922984488308,0.0007777698629070073,-1.6773266196250916,0.0004701469442807138,-0.0009981428738683462,0.003053106600418687
08:58:10,23757.0,-35.3633154,149.1644226,114228.5,1.0,1.0,-152.0,0.0,0.0,-1000.0,2.0,2.0,2.25,RTL,0.0018149111128877848,0.0007480327767552808,-1.676111787557602,0.000124961428809911,0.0003883330209646374,0.000793715676991269
08:58:11,23757.0,-35.3633154,149.1644226,115394.0,1.0,1.0,-152.0,0.0,0.0,-999.5,2.0,1.5,1.5,RTL,0.001757031714078039,0.0005399743386078626,-1.6754943132400513,5.528738256543875e-05,-7.669732440263033e-05,0.00046021188609302044
08:58:13,23757.0,-35.3633154,149.1644226,118464.66666666667,1.0,1.0,-152.0,0.0,0.0,-1000.0,3.0,2.0,4.666666666666667,RTL,0.0017332505667582154,0.0005548480160844823,-1.6740429401397705,0.0011823748548825581,0.00028236481981972855,0.003361463158701857
08:58:15,47149.0,-35.3633154,149.1644226,121570.33333333333,1.0,1.0,-152.0,0.0,0.0,-1000.0,2.0,2.0,3.0,RTL,0.0018125666538253427,0.0006038762900667886,-1.6727359294891357,9.61166030416886e-05,-5.801906809210777e-06,0.001508311756576101
08:58:17,70541.0,-35.3633154,149.1644226,124675.33333333333,1.0,0.6666666666666666,-152.0,0.0,0.0,-1000.0,1.3333333333333333,2.3333333333333335,3.6666666666666665,RTL,0.001873465992199878,0.00023375800325690457,-1.6717455387115479,-0.0005325704502562681,0.000441758893430233,0.002205045932593445
08:58:19,70541.0,-35.3633154,149.1644226,127782.33333333333,1.0,1.0,-152.0,0.0,0.0,-1000.0,2.3333333333333335,1.0,3.3333333333333335,RTL,0.0021029500445971885,0.0004826246780188133,-1.6699527104695637,0.0007011861695597569,-0.0008064948488026857,0.001939869214159747
08:58:20,211156.0,-35.3633154,149.1644226,129725.66666666667,1.0,1.0,-152.0,0.0,0.0,-999.6666666666666,2.0,2.6666666666666665,2.6666666666666665,RTL,0.0018574272592862446,0.0005271115902966509,-1.6694976886113484,-0.0001574686417977015,0.0009434305441876253,0.0012619261785099904
08:58:21,211156.0,-35.3633154,149.1644226,130893.0,1.0,1.0,-152.0,0.0,0.0,-999.6666666666666,2.3333333333333335,2.3333333333333335,3.3333333333333335,RTL,0.0021912931697443128,0.0007061823853291571,-1.669098138809204,0.0006580417199681202,0.0005946817497412363,0.001464463071897626
08:58:23,211156.0,-35.3633154,149.1644226,134000.0,2.0,1.0,-152.0,0.0,0.0,-999.6666666666666,2.3333333333333335,2.3333333333333335,3.6666666666666665,RTL,0.002016855947052439,0.0009131088736467063,-1.668446660041809,0.0003940149520834287,0.000643096980638802,0.0020824818251033625
08:58:25,211156.0,-35.3633154,149.1644226,137115.0,1.0,1.0,-152.0,0.0,0.0,-1000.0,1.3333333333333333,2.3333333333333335,2.6666666666666665,RTL,0.0014226586790755391,0.0006989558460190892,-1.6678989330927532,-0.0009792506073911984,0.00037375581450760365,0.001057642822464307
08:58:26,105328.0,-35.3633154,149.1644226,139049.33333333334,1.0,1.0,-152.0,0.0,0.0,-999.6666666666666,1.0,2.3333333333333335,2.0,RTL,0.0018647319326798122,0.0005848831691158315,-1.6676205396652222,-0.0011173418412605922,0.0006787645785758892,0.0006669852882623672
08:58:27,105328.0,-35.3633154,149.1644226,140216.33333333334,1.0,1.0,-152.0,0.0,0.0,-999.3333333333334,1.0,2.6666666666666665,1.6666666666666667,RTL,0.001899862118686239,0.0005720976138642678,-1.6672652165095012,-0.0007678982413684329,0.0009219957670817772,0.0002559719917674859
08:58:29,105328.0,-35.3633154,149.1644226,143329.0,1.0,1.0,-152.0,0.0,0.0,-999.6666666666666,2.6666666666666665,3.0,0.6666666666666666,RTL,0.001929694398616751,0.00022966433607507497,-1.6668627659479778,0.0009965443362792332,0.0011357375575850408,-0.0007234572355325023
08:58:31,105328.0,-35.3633154,149.1644226,146436.66666666666,1.0,0.6666666666666666,-152.0,0.0,0.0,-1000.0,3.0,2.0,1.6666666666666667,RTL,0.0017303578012312453,0.0006229010953878363,-1.6667288939158122,0.0010059811174869537,7.975473999977112e-05,0.00016107631381601095
08:58:32,63403.0,-35.3633154,149.1644226,148377.66666666666,1.0,1.0,-152.0,0.0,0.0,-1000.0,2.3333333333333335,1.3333333333333333,3.3333333333333335,RTL,0.0020441681457062564,0.0004954048878668497,-1.6662633419036865,6.041846548517545e-05,-0.00033086064892510575,0.001749134932955106
08:58:33,63403.0,-35.3633154,149.1644226,149546.66666666666,1.0,0.6666666666666666,-152.0,0.0,0.0,-1000.0,0.6666666666666666,1.3333333333333333,3.3333333333333335,RTL,0.0016883306282882888,0.0004336300286619614,-1.6659962336222331,-0.0015117342118173838,-0.0005189201716954509,0.0016757994114110868
08:58:35,63403.0,-35.3633154,149.1644226,152649.66666666666,1.0,1.0,-152.0,0.0,0.0,-999.6666666666666,2.3333333333333335,2.0,2.3333333333333335,RTL,0.0019493686268106103,0.0007040681472669045,-1.6650192737579346,0.00039774101848403615,0.0002226419746875763,0.0006224350072443485
08:58:37,63403.0,-35.3633154,149.1644226,155756.0,1.0,1.0,-152.0,0.0,0.0,-1000.0,1.0,2.6666666666666665,1.3333333333333333,RTL,0.0021177917175615826,0.0006570095429196954,-1.6649866501490276,-0.001239268962914745,0.00046232536745568115,-0.0002646115996564428
08:58:38,224133.0,-35.3633154,149.1644226,157697.66666666666,1.0,1.0,-152.0,0.0,0.0,-999.6666666666666,2.3333333333333335,2.3333333333333335,4.0,RTL,0.0019019354367628694,0.0007090455813643833,-1.66484530766805,0.00034694583155214787,0.0003119779285043478,0.002016351946319143
08:58:39,224133.0,-35.3633154,149.1644226,158862.33333333334,1.0,1.0,-152.0,0.0,0.0,-1000.0,3.0,2.0,1.3333333333333333,RTL,0.0018266326126952965,0.0006121739473504325,-1.6647769610087078,0.00062755619486173,0.0001257581946750482,-0.0002387941349297762
08:58:41,224133.0,-35.3633154,149.1644226,161972.66666666666,1.0,0.6666666666666666,-152.0,0.0,0.0,-1000.0,2.3333333333333335,2.0,2.6666666666666665,RTL,0.0018941005691885948,0.00016786952134377012,-1.6645750204722087,0.00029595204008122283,-5.9748378892739616e-05,0.001056696055456996
08:58:43,224133.0,-35.3633154,149.1644226,165087.33333333334,1.0,0.6666666666666666,-152.0,0.0,0.0,-1000.0,4.0,3.3333333333333335,3.3333333333333335,RTL,0.0018538006503755848,0.0005767770732442538,-1.6646943887074788,0.00194536242634058,0.0011113155633211136,0.0018068307545036077
08:58:44,290240.0,-35.3633154,149.1644226,167021.66666666666,1.0,1.0,-152.0,0.0,0.0,-1000.0,1.0,1.6666666666666667,1.6666666666666667,RTL,0.0019142407303055127,0.0004612392319055895,-1.6645338535308838,-0.0013537983177229762,-0.0004943903768435121,-8.679635357111692e-05
08:58:45,290240.0,-35.3633154,149.1644226,168192.0,1.0,0.0,-152.0,0.0,0.0,-999.6666666666666,2.3333333333333335,3.0,1.3333333333333333,RTL,0.0019265624384085338,0.0005289932111433396,-1.664481282234192,-3.173753308753172e-05,0.0009070635618021091,-0.000542763116148611
08:58:47,290240.0,-35.3633154,149.1644226,171294.66666666666,1.0,1.0,-152.0,0.0,0.0,-1000.0,2.3333333333333335,2.3333333333333335,2.3333333333333335,RTL,0.0018786780225733917,0.0005578109800505141,-1.664333422978719,-0.0004525586652259032,5.0169144136210285e-05,0.00032771223535140354
08:58:49,290240.0,-35.3633154,149.1644226,174409.66666666666,1.0,1.0,-152.0,0.0,0.0,-1000.0,2.0,2.0,3.3333333333333335,RTL,0.0017791622473547857,0.000590843555983156,-1.6643141905466716,3.2341728607813515e-05,-0.00017720980880161127,0.0014663083323587973
08:58:50,92048.0,-35.3633154,149.1644226,176353.66666666666,1.0,1.0,-152.0,0.0,0.0,-1000.0,3.6666666666666665,2.6666666666666665,4.0,RTL,0.0017816073959693313,0.000849202120055755,-1.6635204156239827,0.0011845924115429323,0.00031235200973848504,0.002046056557446718
08:58:51,92048.0,-35.3633154,149.1644226,177520.0,1.0,1.0,-152.0,0.0,0.0,-999.6666666666666,2.3333333333333335,2.3333333333333335,3.0,RTL,0.002012242291433116,0.0008477655743869642,-1.6634875933329265,3.243804288407167e-05,-8.9819038597246e-05,0.001124138090138634
08:58:53,92048.0,-35.3633154,149.1644226,180626.0,1.0,1.0,-152.0,0.0,0.0,-1000.3333333333334,1.6666666666666667,2.0,2.0,RTL,0.0018592746152232091,0.0005289814725983888,-1.663525104522705,-0.00043562213735034067,-3.240699879825115e-05,0.0002402664783100287
08:58:55,92048.0,-35.3633154,149.1644226,183730.0,1.0,0.6666666666666666,-152.0,0.0,0.0,-1000.3333333333334,2.3333333333333335,2.0,2.0,RTL,0.001991818193346262,0.00024653723812662065,-1.6636427640914917,-0.00014008783424894014,-0.00025777464422086876,0.00027540729691584903
08:58:56,47267.0,-35.3633154,149.1644226,185671.66666666666,1.0,0.0,-152.0,0.0,0.0,-999.6666666666666,2.3333333333333335,3.3333333333333335,2.3333333333333335,RTL,0.0019199842354282737,0.0006020616759390881,-1.663581411043803,-0.00014650635421276093,0.0009299909385542074,6.55239758392175e-05
08:58:57,47267.0,-35.3633154,149.1644226,186837.0,1.0,1.0,-152.0,0.0,0.0,-1000.0,1.6666666666666667,1.6666666666666667,1.6666666666666667,RTL,0.001900944587153693,0.0004955658902569363,-1.6637262900670369,-0.0007079622397820154,-0.00031609794435401756,-0.000523443566635251
08:58:59,47267.0,-35.3633154,149.1644226,189948.0,1.0,1.0,-152.0,0.0,0.0,-1000.0,3.0,2.6666666666666665,4.333333333333333,RTL,0.0019868522261579833,0.0006115012220107019,-1.6637629667917888,0.0006967128720134497,0.0002699982530126969,0.0022964386735111475
08:59:01,47267.0,-35.3633154,149.1644226,193052.0,1.0,1.0,-152.0,0.0,0.0,-999.3333333333334,2.6666666666666665,4.0,3.0,RTL,0.0014690820050115387,0.0004883742755434165,-1.663402835528056,0.000444133843605717,0.0017552014905959368,0.0006593164677421252
08:59:02,108820.0,-35.3633154,149.1644226,194997.66666666666,1.0,1.0,-152.0,0.0,0.0,-1000.3333333333334,3.6666666666666665,2.3333333333333335,2.0,RTL,0.0017383877420797944,0.00048398471941861015,-1.6637259324391682,0.000833172700367868,-0.00023918140990038714,-0.0005060943852489194
08:59:03,108820.0,-35.3633154,149.1644226,196165.66666666666,1.0,1.0,-152.0,0.0,0.0,-999.6666666666666,2.6666666666666665,3.0,2.6666666666666665,RTL,0.0019267798634245992,0.00043074897257611156,-1.6636784474054973,-3.2319221645593643e-06,0.0005990950545916954,0.0006245382440586885
08:59:05,108820.0,-35.3633154,149.1644226,199270.0,1.0,1.0,-152.0,0.0,0.0,-1000.0,3.3333333333333335,3.0,2.0,RTL,0.0021008901530876756,0.00042266697467615205,-1.6637006600697835,0.0008820720637838045,0.0005425296258181334,9.525039543708165e-05
08:59:07,108820.0,-35.3633154,149.1644226,202375.0,1.0,1.0,-152.0,0.0,0.0,-1000.3333333333334,4.333333333333333,2.3333333333333335,3.6666666666666665,RTL,0.0019044614552209775,0.0008032671951999267,-1.6628366311391194,0.0016891850003351767,-0.00014676696931322417,0.001311295898631215
08:59:08,212491.0,-35.3633154,149.1644226,204321.0,1.0,1.0,-152.0,0.0,0.0,-1000.0,2.6666666666666665,3.0,3.0,RTL,0.0018625532587369282,0.000520971060420076,-1.6631041367848713,-0.00014384339253107706,0.0003502311495443185,0.000832318871592482
08:59:09,212491.0,-35.3633154,149.1644226,205488.33333333334,1.0,1.0,-152.0,0.0,0.0,-999.6666666666666,1.3333333333333333,2.6666666666666665,3.3333333333333335,RTL,0.001850126194767654,0.0003930881794076413,-1.663004954655965,-0.0010972289213289816,-0.00011277354011933009,0.0011003590965022643
08:59:11,212491.0,-35.3633154,149.1644226,208593.0,1.0,0.3333333333333333,-152.0,0.0,0.0,-1000.3333333333334,2.6666666666666665,2.6666666666666665,3.0,RTL,0.0019039454249044259,0.0005173251265659928,-1.663102149963379,-0.00017458468209952116,0.00011833295381317536,0.00028958745921651524
08:59:13,212491.0,-35.3633154,149.1644226,211700.33333333334,1.0,1.0,-152.0,0.0,0.0,-1000.0,2.6666666666666665,3.0,3.6666666666666665,RTL,0.001959675340913236,0.0006268328676621119,-1.6633922656377156,0.00018225649061302343,0.0001033331888417403,0.0014385835578044255
08:59:14,55966.0,-35.3633154,149.1644226,213797.33333333334,1.0,1.0,-152.0,0.0,0.0,-1000.0,4.0,4.0,3.0,RTL,0.001949886519772311,0.0006474703744364282,-1.6632111469904582,0.0014419285580515862,0.0013007584493607283,0.0006558362705012163
08:59:15,55966.0,-35.3633154,149.1644226,214971.0,1.0,1.0,-152.0,0.0,0.0,-1000.0,3.3333333333333335,3.3333333333333335,3.3333333333333335,RTL,0.0019307782252629597,0.0006028192971522609,-1.6633034149805705,0.00045128151153524715,0.0006094269144038359,0.0007779762769738833
08:59:17,55966.0,-35.3633154,149.16442276666666,218072.66666666666,2.0,8.0,-151.0,0.3333333333333333,0.0,-998.6666666666666,1.0,54.0,3.0,RTL,0.001509352393137912,0.02635512314736843,-1.6633213758468628,-0.001914515703295668,0.05112426231304804,0.0003639755304902792
08:59:19,55966.0,-35.3633144,149.16443436666668,221082.33333333334,12.666666666666666,115.66666666666667,-139.33333333333334,18.666666666666668,11.0,-982.0,-28.0,63.0,39.0,RTL,-0.011458085073779026,0.10199901461601257,-1.6604777574539185,-0.031522282088796295,0.06047790000836054,0.03676919961192956
08:59:20,114483.0,-35.36331403333333,149.16445913333334,222513.0,-13.666666666666666,258.0,-72.33333333333333,51.0,15.666666666666666,-936.3333333333334,89.0,-116.0,313.6666666666667,RTL,0.005587756323317687,0.17419963081677756,-1.2649298111597698,0.08605983604987462,-0.11955673744281133,0.3111507147550583
08:59:21,114483.0,-35.36331453333333,149.16448313333333,222893.66666666666,8.333333333333334,320.0,-26.0,68.66666666666667,10.666666666666666,-941.0,35.666666666666664,0.3333333333333333,89.66666666666667,RTL,0.07795940587917964,0.11719357222318649,-1.1356565554936726,0.03303642198443413,-0.002834469157581528,0.08729610343774159
08:59:23,114483.0,-35.363305266666664,149.1645726,222626.33333333334,77.33333333333333,513.3333333333334,22.0,122.66666666666667,5.666666666666667,-1022.6666666666666,-48.0,14.0,-33.666666666666664,RTL,0.05289116129279137,0.22188988824685416,-1.1225615739822388,-0.051459431648254395,0.011204285236696402,-0.03713542285064856
08:59:25,114483.0,-35.363293133333336,149.1647044,222516.66666666666,50.666666666666664,657.3333333333334,-5.0,150.66666666666666,17.0,-995.0,-2.3333333333333335,-18.333333333333332,-35.666666666666664,RTL,-0.014690851792693138,0.1863987942536672,-1.209458629290263,-0.005808146049578984,-0.021885125587383907,-0.03933758040269216
08:59:26,43819.0,-35.3632877,149.1647971333333,222586.66666666666,42.0,679.6666666666666,-5.666666666666667,154.0,26.333333333333332,-990.6666666666666,3.6666666666666665,-29.666666666666668,-33.0,RTL,-0.02766213503976663,0.15109606087207794,-1.2551414171854656,0.0005858521908521652,-0.03332169881711403,-0.03642147903641065
08:59:27,43819.0,-35.3632847,149.1648534,222622.0,42.0,676.3333333333334,-1.0,149.33333333333334,21.666666666666668,-976.0,14.0,15.0,-29.0,RTL,-0.03209369877974192,0.14854179322719574,-1.2820732990900676,0.011129765460888544,0.012108612572774291,-0.03246881440281868
08:59:29,43819.0,-35.3632768,149.16500186666667,222641.66666666666,47.333333333333336,650.3333333333334,-5.0,152.33333333333334,31.666666666666668,-990.6666666666666,-25.0,-60.333333333333336,-18.0,RTL,-0.048636384308338165,0.09684951851765315,-1.3389275868733723,-0.02875311424334844,-0.06402278319001198,-0.021590944069127243
08:59:31,43819.0,-35.3632694,149.16512896666666,222666.0,35.333333333333336,478.6666666666667,2.6666666666666665,110.66666666666667,27.333333333333332,-995.6666666666666,-91.0,-47.0,-43.333333333333336,RTL,-0.06652029852072398,-0.004194656076530616,-1.3794751564661663,-0.09340476989746094,-0.050791176656881966,-0.046916561822096504
08:59:32,27238.0,-35.36326603333334,149.1651851,222610.0,20.666666666666668,327.6666666666667,4.666666666666667,78.33333333333333,19.333333333333332,-1008.3333333333334,191.0,-16.0,-36.333333333333336,RTL,-0.05279671400785446,-0.03957959016164144,-1.3955989281336467,0.18873392045497894,-0.019302010458583634,-0.03924323199316859
08:59:33,27238.0,-35.36326463333333,149.16520903333333,222578.0,12.666666666666666,243.33333333333334,2.0,59.666666666666664,5.333333333333333,-1011.0,-545.0,-23.666666666666668,-17.0,RTL,-0.06240517025192579,-0.055172767490148544,-1.4065694411595662,-0.5491292874018351,-0.027759260187546413,-0.020154485789438088
08:59:35,27238.0,-35.36326313333333,149.1652405,222558.33333333334,0.0,53.666666666666664,0.0,12.333333333333334,24.333333333333332,-1003.0,206.0,18.666666666666668,0.0,RTL,-0.02102818712592125,-0.051192725698153176,-1.42887278397878,0.2022575835386912,0.016225693747401237,-0.003009328773866097
08:59:37,27238.0,-35.36326346666667,149.16524396666668,222569.33333333334,2.3333333333333335,-10.0,0.0,-1.6666666666666667,-12.666666666666666,-1000.6666666666666,-158.66666666666666,32.0,-6.666666666666667,RTL,0.011046572976435224,-0.008635803824290633,-1.4447102944056194,-0.1614826520284017,0.029189043988784153,-0.010221268826474747
08:59:38,137527.0,-35.3632633,149.16524326666666,222570.66666666666,8.333333333333334,-8.0,-0.3333333333333333,0.0,-3.6666666666666665,-1002.3333333333334,125.66666666666667,-6.666666666666667,-2.3333333333333335,RTL,0.008512042928487062,-0.008573420345783234,-1.453072985013326,0.12379126250743866,-0.009900366188958287,-0.0060623047562936945
08:59:39,137527.0,-35.3632631,149.16524266666667,222573.0,7.666666666666667,-12.0,-0.3333333333333333,-1.0,10.0,-997.6666666666666,88.66666666666667,6.0,-1.3333333333333333,RTL,0.001621078602814426,-0.009549623355269432,-1.4574230114618938,0.08482045928637187,0.0033500658658643565,-0.00500881935780247
08:59:41,137527.0,-35.3632633,149.16524030000002,222574.0,6.666666666666667,-11.666666666666666,0.3333333333333333,-4.333333333333333,-1.6666666666666667,-997.6666666666666,245.33333333333334,2.0,-4.666666666666667,RTL,0.019699158146977425,-0.0036780703036735454,-1.468258221944173,0.24269832173983255,-0.0002230363121877114,-0.007918497857948145
08:59:43,137527.0,-35.363264799999996,149.16523863333333,222521.33333333334,21.333333333333332,-5.666666666666667,24.0,-1.0,-32.666666666666664,-932.3333333333334,-561.6666666666666,2.6666666666666665,-7.333333333333333,RTL,0.02079173782840371,-0.0013597719274306048,-1.4781535466512044,-0.5649886367221674,0.00011626266253491242,-0.010579140235980352
08:59:44,195775.0,-35.3632648,149.16523803333334,221714.0,25.333333333333332,-2.3333333333333335,102.33333333333333,-1.6666666666666667,-6.666666666666667,-941.0,-988.3333333333334,1.6666666666666667,-3.0,RTL,-0.0026216374632592,-0.00012854661084323501,-1.4837653239568074,-0.9944906234741211,-0.0006569407414644957,-0.006408606035013993
08:59:45,195775.0,-35.36326466666667,149.16523783333332,220851.33333333334,25.0,-1.0,113.0,0.3333333333333333,-64.33333333333333,-1032.3333333333333,-1433.0,4.0,-9.666666666666666,RTL,-0.00035987810527634184,0.0005111672799102962,-1.486908753712972,-1.437101125717163,0.001077925165494283,-0.012856937750863532
08:59:47,195775.0,-35.36326246666667,149.1652377,218722.33333333334,10.666666666666666,-1.0,99.66666666666667,5.0,-74.0,-1008.6666666666666,-1050.3333333333333,1.6666666666666667,-10.0,RTL,-0.012121850624680519,0.004692683306833108,-1.4940381050109863,-1.052899916966756,-0.000976946981002887,-0.0138467854509751
08:59:49,143914.5,-35.36326006666666,149.16523806666666,216665.33333333334,-17.0,-1.3333333333333333,100.33333333333333,0.0,-64.66666666666667,-1011.3333333333334,-791.0,-4.333333333333333,-5.666666666666667,RTL,-0.01967357440541188,-0.004002339361856381,-1.5017555554707844,-0.7935539782047272,-0.00771145677814881,-0.00883292150683701
08:59:51,92054.0,-35.363261099999995,149.16523846666666,214619.0,-16.0,-5.0,99.33333333333333,-3.0,-45.0,-985.0,-77.33333333333333,0.6666666666666666,-1.3333333333333333,RTL,0.01313399833937486,-0.007125189372648795,-1.5065829753875732,-0.0787081834860146,-0.0022223795919368663,-0.004780376019577186
08:59:53,92054.0,-35.363264066666666,149.16523800000002,212576.66666666666,5.333333333333333,-4.666666666666667,98.66666666666667,-2.6666666666666665,-68.33333333333333,-998.3333333333334,-1025.6666666666667,8.0,-4.0,RTL,0.025513578827182453,-0.004793078250562151,-1.511132796605428,-1.0286243955294292,0.006044459451610844,-0.00741225255963703
08:59:54,29576.0,-35.36326436666667,149.16523759999998,211305.33333333334,19.666666666666668,-3.3333333333333335,100.0,-0.6666666666666666,-56.666666666666664,-985.3333333333334,-1436.6666666666667,8.0,1.6666666666666667,RTL,-0.004355072548302512,0.0022398256696760654,-1.51422115166982,-1.441289226214091,0.006108130095526576,-0.0013195253753413756
08:59:55,29576.0,-35.36326376666667,149.1652374,210529.66666666666,18.666666666666668,-1.6666666666666667,98.33333333333333,2.6666666666666665,-36.333333333333336,-1014.3333333333334,-1170.6666666666667,7.333333333333333,2.0,RTL,-0.015482267985741297,0.0043307811332245665,-1.516262690226237,-1.1762992143630981,0.005243417263651888,-0.0012238379567861557
08:59:57,29576.0,-35.36326209999999,149.16523753333334,208509.0,3.3333333333333335,0.0,101.0,1.0,-17.0,-996.3333333333334,-1026.6666666666667,0.3333333333333333,2.0,RTL,-0.024921319757898647,-0.0004973240429535508,-1.5189264218012493,-1.032892068227132,-0.0020745774187768498,-0.0013930266723036766
08:59:59,29576.0,-35.363261666666666,149.16523793333332,206473.33333333334,-3.3333333333333335,-2.6666666666666665,102.0,1.6666666666666667,20.666666666666668,-983.3333333333334,-341.0,7.0,-2.0,RTL,-0.020159791534145672,-0.0020140910831590495,-1.5218878587086995,-0.34851795931657154,0.004854826955124736,-0.005633945654456814
09:00:00,48871.0,-35.36326123333333,149.165238,205201.66666666666,-5.666666666666667,-3.3333333333333335,101.33333333333333,1.0,17.333333333333332,-995.0,-503.6666666666667,0.6666666666666666,4.0,RTL,-0.02827523338298003,-0.0010317216510884464,-1.523974100748698,-0.510678231716156,-0.0010206986141080658,0.0008913614631940922
09:00:01,48871.0,-35.36326096666667,149.165238,204432.0,-9.0,-3.3333333333333335,100.0,0.3333333333333333,16.666666666666668,-1012.0,-375.0,1.3333333333333333,7.666666666666667,RTL,-0.027759938190380733,-0.00011079511023126543,-1.5253175099690754,-0.3821264108022054,-0.0006834935241689285,0.004496923182159662
09:00:03,48871.0,-35.36326006666666,149.1652379,202383.0,-16.666666666666668,-2.6666666666666665,98.66666666666667,-1.0,56.333333333333336,-992.0,261.6666666666667,-2.3333333333333335,13.0,RTL,-0.028583018109202385,-0.0004117060695231582,-1.5278871059417725,0.25562501202027005,-0.004773569526150823,0.00996468092004458
09:00:05,48871.0,-35.36326283333333,149.1652379,200341.0,-8.0,-1.0,98.66666666666667,-6.666666666666667,56.0,-1006.0,382.0,-2.3333333333333335,7.0,RTL,0.020174768830959994,-0.010026417672634125,-1.530666748682658,0.37612126270929974,-0.004942954983562231,0.00415968398253123
09:00:06,69830.0,-35.36326576666667,149.1652378,199065.33333333334,20.666666666666668,-3.0,99.66666666666667,-2.3333333333333335,50.0,-970.0,154.0,13.666666666666666,10.0,RTL,0.03484163371225198,-0.00418387462074558,-1.5319774945576985,0.14748099943002066,0.011624158748115102,0.006661751928428809
09:00:07,69830.0,-35.36326606666667,149.16523746666667,198299.33333333334,33.666666666666664,-2.3333333333333335,101.0,0.3333333333333333,37.666666666666664,-1004.3333333333334,-74.0,8.666666666666666,7.333333333333333,RTL,0.020342712601025898,0.002156747422607926,-1.5311559041341145,-0.08065396298964818,0.0066806186611453695,0.004433247105528911
09:00:09,69830.0,-35.3632638,149.165237,196257.33333333334,24.333333333333332,2.3333333333333335,99.66666666666667,0.6666666666666666,46.0,-1038.6666666666667,1307.3333333333333,-6.0,0.6666666666666666,RTL,0.021215394760171574,0.0037246610348423323,-1.5319875478744507,1.3031981388727825,-0.009005251030127207,-0.0029445378265033164
09:00:11,69909.0,-35.3632637,149.1652372,194196.0,16.333333333333332,3.0,96.33333333333333,-0.3333333333333333,71.0,-1044.0,1182.0,4.0,-4.666666666666667,RTL,0.02088461599002282,-0.0003017881487418587,-1.5339199701944988,1.1755789915720622,0.002108295060073336,-0.008575242788841328
09:00:12,69909.0,-35.3632644,149.16523725000002,192955.5,18.0,2.0,102.0,-2.0,9.5,-1006.0,1013.5,6.0,2.5,RTL,0.04574738256633282,-0.0008555053209420294,-1.5353169441223145,1.010109394788742,0.0044002876384183764,-0.0010122369276359677
09:00:14,69909.0,-35.363264349999994,149.1652372,190922.0,22.5,1.0,99.0,1.0,0.5,-964.0,907.5,1.5,3.5,RTL,0.037126293405890465,0.0009173884027404711,-1.5354271531105042,0.9043225646018982,-0.0011464499402791262,0.00016729533672332764
09:00:16,69909.0,-35.3632634,149.1652372,188873.0,19.0,0.0,97.0,4.5,40.0,-1009.5,1382.5,11.0,13.0,RTL,0.02527676336467266,0.005029362626373768,-1.5369747281074524,1.3771594166755676,0.008472875226289034,0.009779619984328747
09:00:17,69164.0,-35.3632618,149.1652372,188105.0,10.0,0.0,97.5,6.0,35.75,-1035.0,1389.75,2.25,5.5,RTL,0.0015766206197440624,0.007959736394695938,-1.5373109579086304,1.3846076130867004,-0.0006773582426831126,0.0020919492817483842
09:00:18,69164.0,-35.363259049999996,149.1652373,186839.0,-12.5,1.0,96.0,2.0,68.0,-989.5,1503.5,-4.0,21.5,RTL,-0.026397154666483402,0.005843545775860548,-1.537387490272522,1.4968091249465942,-0.007186784641817212,0.018080496462062
09:00:20,69164.0,-35.363258200000004,149.1652378,184821.0,-39.5,0.0,100.0,-1.5,29.5,-1031.0,1189.5,0.0,5.0,RTL,-0.0032213954254984856,-0.003481837804429233,-1.5381305813789368,1.1860221028327942,-0.0026233316166326404,0.0016750406939536333
09:00:22,69164.0,-35.3632609,149.16523784999998,182781.5,-25.0,-1.0,104.5,-3.0,-34.5,-966.0,55.5,1.0,0.5,RTL,0.01701030693948269,-0.003374979365617037,-1.538941502571106,0.053463153541088104,-0.0012506087077781558,-0.002811760059557855
09:00:23,114919.0,-35.363261725,149.16523770000003,182006.0,-15.75,-1.25,99.5,-0.75,-12.0,-1022.0,515.0,3.75,-1.0,RTL,0.024512757547199726,-0.0018301359086763114,-1.5392567217350006,0.5128461048007011,0.0017511783516965806,-0.004794510547071695
09:00:24,114919.0,-35.3632616,149.1652374,180723.0,-6.5,-0.5,101.5,0.5,-42.5,-991.0,190.5,5.5,-1.0,RTL,0.005199627368710935,0.0045140262227505445,-1.539132833480835,0.18868839740753174,0.0034415803384035826,-0.004805914591997862
09:00:26,114919.0,-35.36326065,149.1652373,178688.0,-16.0,1.0,104.5,0.5,-76.0,-951.0,-1490.5,-2.5,0.5,RTL,-0.024120258167386055,0.00038492803287226707,-1.5393509268760681,-1.494139552116394,-0.005219104466959834,-0.0033666183007881045
09:00:28,114919.0,-35.3632611,149.16523755,176632.0,-13.0,0.0,95.5,-0.5,-30.0,-1043.5,-13.5,-4.5,13.0,RTL,0.0020932960615027696,-0.0029589589685201645,-1.540196716785431,-0.014897212386131287,-0.0075800553895533085,0.009360911208204925
09:00:29,11765.0,-35.3632621,149.1652377,175872.25,-10.25,0.0,99.5,-2.75,-50.5,-971.75,-401.75,-2.75,4.0,RTL,0.01688286999706179,-0.006683847168460488,-1.5401918292045593,-0.40385719016194344,-0.005141232570167631,0.00025234243366867304
09:00:30,11765.0,-35.363263849999996,149.1652378,174611.5,4.5,-1.5,100.5,-0.5,-76.0,-977.5,-1026.5,5.5,-2.0,RTL,0.017521733418107033,-0.003648877260275185,-1.5408999919891357,-1.0293730795383453,0.003670412173960358,-0.006026489660143852
09:00:32,11765.0,-35.36326375,149.16523725000002,172561.0,14.5,0.0,97.5,0.5,-43.0,-1047.5,-1372.0,0.5,4.5,RTL,-0.009762198198586702,0.0034243519185110927,-1.5404948592185974,-1.3767986297607422,-0.001823100436013192,0.0012068909127265215
09:00:34,11765.0,-35.363263599999996,149.16523715,170507.0,11.5,2.5,98.5,-1.0,-19.5,-1011.5,-1194.5,-0.5,-1.0,RTL,-0.008556232787668705,-0.0008133578230626881,-1.54135262966156,-1.2008426785469055,-0.0035963758127763867,-0.0051646309439092875
09:00:35,203167.0,-35.3632643,149.1652373,169736.0,15.25,2.75,97.75,-3.0,-8.5,-1015.0,-925.0,2.5,7.0,RTL,0.006351718780933879,-0.0035609647165983915,-1.5412754714488983,-0.9318363517522812,-0.00015302503015846014,0.0035214917734265327
09:00:36,203167.0,-35.36326575,149.1652374,168470.5,29.5,0.5,100.5,-1.5,27.5,-996.0,-272.5,6.0,12.5,RTL,0.02053057122975588,-0.003075229818932712,-1.5412853360176086,-0.28037257492542267,0.004159581381827593,0.008836152497678995
09:00:38,203167.0,-35.3632655,149.16523725000002,166433.5,38.5,0.0,100.0,1.5,44.5,-989.0,267.0,5.0,9.5,RTL,0.012213920708745718,0.003646042663604021,-1.5419987440109253,0.2583889290690422,0.0030389586463570595,0.006237102439627051
09:00:40,203167.0,-35.363263950000004,149.1652372,164398.0,24.0,2.0,100.5,0.0,62.5,-1070.5,1276.0,2.5,12.0,RTL,0.02255185227841139,0.001735936850309372,-1.5409284234046936,1.269095242023468,0.0006005283212289214,0.008763107936829329
09:00:41,49066.0,-35.363263925,149.1652373,163628.0,21.5,2.0,99.5,0.0,69.25,-1002.0,1438.75,0.75,7.25,RTL,0.027063860557973385,-0.0007634518697159365,-1.5407875180244446,1.4317677915096283,-0.001716017781291157,0.0034485203213989735
09:00:42,49066.0,-35.36326455,149.16523755,162340.0,22.0,1.0,99.5,-3.0,71.5,-1035.5,1001.5,2.0,3.5,RTL,0.025365320034325123,-0.004335005767643452,-1.542092204093933,0.9936082065105438,-8.773524314165115e-06,-5.295046139508486e-05
09:00:44,49066.0,-35.36326595,149.16523765,160326.5,34.5,-1.0,100.5,0.0,10.0,-1012.5,986.0,10.5,14.0,RTL,0.052611954510211945,-0.001111796431359835,-1.5418133735656738,0.9804673194885254,0.00861077755689621,0.01041553309187293
09:00:46,33160.5,-35.36326445,149.1652374,158176.5,28.0,0.0,102.0,3.0,-74.0,-999.5,-896.5,0.5,0.0,RTL,0.013466657139360905,0.0033305530669167638,-1.5411179661750793,-0.9026772975921631,-0.0018495941767469049,-0.004414194030687213
09:00:48,17255.0,-35.363262,149.1652375,156140.5,6.5,0.0,99.5,1.5,-73.0,-1022.5,-1285.0,2.0,-3.0,RTL,-0.01972394622862339,0.002517522545531392,-1.541514277458191,-1.2926023602485657,-0.00020352774299681187,-0.007902082288637757
09:00:50,17255.0,-35.36326045,149.16523765,154114.0,-11.5,-1.0,101.5,2.5,-58.5,-1020.0,-1370.0,-1.0,11.0,RTL,-0.03293559141457081,0.000771697930758819,-1.5420438647270203,-1.3787582516670227,-0.003929256112314761,0.007138719782233238
09:00:51,18327.0,-35.36325965,149.1652377,153353.75,-19.0,-1.25,101.75,1.5,-49.75,-1017.25,-1381.25,2.25,2.5,RTL,-0.04312366060912609,0.0017560317064635456,-1.5419491827487946,-1.389664649963379,6.336171645671129e-05,-0.0011716966982930899
09:00:52,18327.0,-35.3632583,149.1652377,152090.5,-31.0,-2.0,104.5,2.0,-37.5,-998.0,-1262.0,3.5,-2.5,RTL,-0.05376572906970978,0.002411572728306055,-1.5433011054992676,-1.270746111869812,0.0007603168487548828,-0.00674589048139751
09:00:54,18327.0,-35.3632571,149.16523784999998,150054.5,-49.5,-1.0,103.0,-1.5,37.0,-1002.5,-99.5,-0.5,3.0,RTL,-0.04672316834330559,-0.001966022595297545,-1.5419394373893738,-0.10841347277164459,-0.003172036842443049,-0.0005447351140901446
09:00:56,18327.0,-35.36325945,149.1652381,148004.5,-37.5,-2.0,103.0,-5.5,3.5,-956.0,-895.0,-0.5,6.0,RTL,-0.028473339043557644,-0.0075304999481886625,-1.5419484972953796,-0.9032043218612671,-0.003752832068130374,0.0023183070588856936
09:00:57,132707.0,-35.363261075,149.1652381,147225.0,-28.0,-2.75,104.0,-5.0,-9.0,-1000.25,-984.5,3.5,6.0,RTL,-0.007868221087846905,-0.008027443778701127,-1.5418933033943176,-0.9921502023935318,0.0010429427493363619,0.002291072567459196
09:00:58,132707.0,-35.3632628,149.16523784999998,145953.0,-3.0,-3.5,102.0,-2.0,-8.0,-977.0,-936.0,8.5,6.0,RTL,-0.008809253806248307,-0.0019577289349399507,-1.5421868562698364,-0.9438943266868591,0.006452088011428714,0.0026436103507876396
09:01:00,132707.0,-35.36326235,149.1652374,143902.5,3.0,0.0,102.0,0.0,53.5,-1032.0,567.0,1.0,5.5,RTL,-0.008066437439993024,0.0019564052345231175,-1.5418185591697693,0.5594860166311264,-0.0012814924120903015,0.0013525374233722687
09:01:02,132707.0,-35.36326165,149.16523745,141838.0,-3.0,0.0,100.5,1.0,54.5,-990.0,446.5,2.0,7.5,RTL,-0.01419453090056777,0.0006494182453025132,-1.5420193672180176,0.43912404775619507,-0.0005824959371238947,0.0036034020595252514
09:01:03,77399.0,-35.3632612,149.1652375,141083.5,-5.5,0.0,99.75,1.0,57.5,-984.0,444.0,5.0,7.5,RTL,-0.016830806620419025,0.0014538965042447671,-1.54191192984581,0.43653174489736557,0.0027593584381975234,0.00339852407341823
09:01:04,77399.0,-35.363260350000004,149.1652376,139808.0,-14.0,0.0,98.0,0.5,50.0,-1004.5,298.5,-4.0,1.5,RTL,-0.027436355128884315,-0.00035409865085966885,-1.5420256853103638,0.29121118038892746,-0.006654170923866332,-0.0025412542745471
09:01:06,77399.0,-35.36326055,149.16523784999998,137771.0,-17.0,-2.0,101.5,-1.5,71.5,-999.5,891.0,0.5,2.0,RTL,-0.005998543230816722,-0.0029376063030213118,-1.5415855050086975,0.883973628282547,-0.001858398551121354,-0.0013325950130820274
09:01:08,77399.0,-35.363261449999996,149.1652379,135716.5,-9.5,-3.0,99.0,-2.0,59.5,-991.5,42.0,2.0,16.0,RTL,-0.012197402771562338,-0.0019445865764282644,-1.541678011417389,0.03529728204011917,-0.00027351523749530315,0.012249449733644724
09:01:09,17441.0,-35.3632615,149.165237775,134954.75,-6.75,-2.0,97.75,-0.25,52.75,-1009.0,412.75,0.0,9.75,RTL,-0.01009555091150105,-0.0011015078853233717,-1.5414574146270752,0.40618082135915756,-0.0023109642206691206,0.005990592995658517
09:01:10,17441.0,-35.3632616,149.16523755,133670.5,-6.5,-1.0,99.5,-1.5,47.0,-1018.0,236.0,6.5,10.0,RTL,-0.006517066387459636,0.000759479618864134,-1.5413599610328674,0.22948839515447617,0.004504948854446411,0.0063581697177141905
09:01:12,17441.0,-35.363262899999995,149.1652374,131648.5,1.0,1.5,98.5,-4.0,79.0,-995.0,1125.0,-0.5,0.5,RTL,0.02337557729333639,-0.004192356253042817,-1.5423870086669922,1.118759661912918,-0.0024859020486474037,-0.0032925890991464257
09:01:14,17441.0,-35.36326715,149.1652374,129604.0,36.5,1.0,101.5,-3.0,80.0,-1011.0,1371.5,4.5,6.5,RTL,0.06609739363193512,-0.0051999392453581095,-1.5418169498443604,1.3648606538772583,0.00219937926158309,0.003247437532991171
09:01:15,155373.0,-35.36326795,149.16523734999998,128852.0,49.75,0.0,98.5,-0.5,69.75,-1004.75,1050.0,10.0,1.75,RTL,0.05505286157131195,-0.0013625757928821258,-1.5417016446590424,1.0425709336996078,0.00825261470163241,-0.00208914780523628
09:01:16,155373.0,-35.363267449999995,149.1652371,127584.0,57.0,0.0,102.5,4.5,64.0,-989.0,1463.0,2.5,7.0,RTL,0.04648290574550629,0.004752289038151503,-1.5407635569572449,1.4560872316360474,-0.0001499574864283204,0.003502893727272749
09:01:18,155373.0,-35.3632621,149.16523725000002,125521.0,21.5,0.0,100.0,8.0,14.0,-994.5,1125.5,-4.5,2.0,RTL,-0.008899251173716038,0.008371579926460981,-1.5399209260940552,1.1206522285938263,-0.006906404509209096,-0.0017943212296813726
09:01:20,155373.0,-35.3632581,149.1652379,123518.0,-28.0,-1.0,106.0,4.0,-69.0,-1082.0,-600.0,-10.0,-11.0,RTL,-0.04257732257246971,-0.00043405921314843,-1.5412861108779907,-0.6043094396591187,-0.012345496565103531,-0.015531696379184723
09:01:21,123190.0,-35.3632577,149.165238075,122883.25,-37.75,-2.5,103.25,2.0,-78.25,-969.5,-1359.5,-4.0,-0.5,RTL,-0.04626322537660599,-0.0016523701953701675,-1.5415608882904053,-1.3718933820724488,-0.006322994269430638,-0.004987785033881665
09:01:22,123190.0,-35.36325753333333,149.16523816666665,121654.33333333333,-46.333333333333336,-3.6666666666666665,101.66666666666667,0.0,-68.66666666666667,-1006.0,-1339.6666666666667,-1.0,-2.6666666666666665,RTL,-0.04122299700975418,-0.002157633367460221,-1.5416316986083984,-1.314315915107727,-0.0020267118234187365,-0.00709127401933074
09:01:24,123190.0,-35.363257649999994,149.1652381,119321.5,-51.5,-4.0,101.5,-1.5,-18.5,-1038.0,451.0,3.5,6.5,RTL,-0.014677529223263264,-0.0023521685507148504,-1.540563941001892,0.4495580065995455,0.0017694903654046357,0.0029063625261187553
09:01:26,123190.0,-35.36325696666666,149.1652379,117596.33333333333,-52.0,-4.0,105.0,3.3333333333333335,-47.333333333333336,-917.3333333333334,-90.0,0.6666666666666666,-1.6666666666666667,RTL,-0.0326803686718146,0.0025327647454105318,-1.54148530960083,-0.09086175262928009,-0.0013156426915278037,-0.0057455171675731736
09:01:27,3357.0,-35.3632558,149.1652378,116653.66666666667,-60.0,-2.6666666666666665,103.33333333333333,0.3333333333333333,-66.0,-1004.0,-875.6666666666666,-0.6666666666666666,0.3333333333333333,RTL,-0.05837627872824669,0.002663990637908379,-1.5414152940114338,-0.8764528830846151,-0.002830704557709396,-0.0033949435067673526
09:01:28,3357.0,-35.3632558,149.1652378,115545.33333333333,-68.0,-1.0,103.0,-3.0,-48.666666666666664,-975.0,-404.3333333333333,-4.333333333333333,3.3333333333333335,RTL,-0.0405918825417757,-0.0025036565493792295,-1.5410298903783162,-0.4041686902443568,-0.007190435038258632,-0.0001246119694163402
09:01:30,3357.0,-35.3632604,149.1652379,113174.5,-38.5,-2.0,97.0,-4.5,36.0,-1040.5,1176.5,4.0,2.5,RTL,0.026195521466434002,-0.007552634458988905,-1.5407683849334717,1.176390290260315,0.002487743739038706,-0.0007076032925397158
09:01:32,3357.0,-35.363262649999996,149.1652377,111649.0,-8.0,-2.0,102.5,-3.5,56.0,-966.0,1310.0,1.0,4.0,RTL,0.027569557540118694,-0.003565087798051536,-1.539915919303894,1.3093256950378418,-0.0009704548865556717,0.00044322817120701075
09:01:33,88379.0,-35.3632636,149.16523755,110634.25,2.75,-1.25,103.0,-0.75,3.0,-1001.75,788.75,4.75,2.5,RTL,0.0357445077970624,-0.0016370925004594028,-1.5399389863014221,0.7894590646028519,0.0029306563665159047,-0.0010549658327363431
09:01:34,88379.0,-35.363263700000005,149.16523745,109609.0,10.5,-0.5,101.0,1.5,11.5,-1032.5,901.0,1.5,-1.0,RTL,0.028641491197049618,1.1624768376350403e-05,-1.5396913886070251,0.901299923658371,-0.0005733649013563991,-0.005147101823240519
09:01:36,88379.0,-35.363263700000005,149.1652375,107595.5,12.0,0.0,102.5,-1.0,-16.0,-975.0,488.0,-3.0,2.0,RTL,0.026833669282495975,-0.0018920134170912206,-1.5400657653808594,0.4888334721326828,-0.0049812066135928035,-0.0008770300773903728
09:01:38,88379.0,-35.3632652,149.16523765,105561.0,23.0,-0.5,99.0,0.5,-1.0,-951.5,615.5,2.0,-17.5,RTL,0.05291922576725483,-0.005426519317552447,-1.5405352711677551,0.6157215088605881,0.0004957798519171774,-0.02217517513781786
09:01:39,271992.0,-35.363265999999996,149.16523767500001,104539.75,33.75,-1.5,103.75,1.5,14.5,-1016.5,976.0,8.5,9.25,RTL,0.054987204261124134,-0.001995514292502776,-1.5399611294269562,0.9753856807947159,0.006946349749341607,0.006130698136985302
09:01:40,271992.0,-35.363265150000004,149.1652375,103506.5,35.5,-1.5,103.5,3.0,25.5,-1055.5,1175.0,0.0,2.5,RTL,0.03625135775655508,0.0036662393249571323,-1.5395952463150024,1.1734620332717896,-0.0018980404711328447,-0.0013441760675050318
09:01:42,271992.0,-35.363263149999995,149.1652374,101465.0,15.5,0.0,100.0,2.5,36.0,-1017.5,1256.0,-2.0,-1.0,RTL,0.019941615872085094,0.00027960966690443456,-1.5399927496910095,1.253967434167862,-0.0039726829854771495,-0.004885978531092405
09:01:44,271992.0,-35.3632621,149.1652375,99432.0,5.0,0.0,105.5,2.5,-55.5,-979.5,-217.5,-4.0,-3.0,RTL,-0.001333592925220728,0.0026783435605466366,-1.5409297943115234,-0.21844791620969772,-0.005727400945033878,-0.007105120690539479
09:01:45,7426.0,-35.3632613,149.165237525,98403.25,-4.25,0.0,102.75,0.75,-56.75,-979.75,-412.5,-0.5,1.5,RTL,-0.0012016295513603836,0.00016776995289546903,-1.540591299533844,-0.41333454102277756,-0.002361121471039951,-0.002555886982008815
09:01:46,7426.0,-35.3632614,149.16523765,97379.5,-8.0,0.0,106.5,0.0,-60.0,-989.0,-697.0,-1.5,-3.0,RTL,0.002205918077379465,-0.0024935660185292363,-1.539607286453247,-0.6985478848218918,-0.003468908602371812,-0.0063317453023046255
09:01:48,7426.0,-35.3632616,149.16523775000002,95322.5,-3.0,-2.0,98.0,1.0,-77.0,-980.5,-1079.0,4.0,-2.0,RTL,-0.010871653445065022,0.002102773549268022,-1.5405302047729492,-1.0798676311969757,0.0023508495651185513,-0.00562776462174952
09:01:50,7426.0,-35.363259299999996,149.1652376,93269.0,-22.5,-0.5,95.5,2.0,-59.0,-987.5,-563.5,-0.5,-1.5,RTL,-0.02484634518623352,0.0027244213270023465,-1.5404648780822754,-0.5637246519327164,-0.002326536225154996,-0.005715883104130626
09:01:51,67180.0,-35.363258224999996,149.1652376,92248.0,-33.5,0.0,98.75,2.25,-62.75,-975.0,-587.5,5.0,1.75,RTL,-0.030312913469970226,0.0043379118433222175,-1.5398289561271667,-0.5875532329082489,0.003093068895395845,-0.002093300921842456
09:01:52,67180.0,-35.363257000000004,149.1652376,91226.0,-46.0,0.0,96.5,3.0,-75.5,-966.5,-1210.5,0.0,-2.0,RTL,-0.054496487602591515,0.003637094749137759,-1.5397865176200867,-1.2105112075805664,-0.0016474552103318274,-0.005316495546139777
09:01:54,67180.0,-35.36325615,149.16523784999998,89183.0,-63.5,0.0,97.5,-2.5,-56.5,-987.0,-1397.0,-0.5,1.0,RTL,-0.053747937083244324,-0.00326405098894611,-1.5397732853889465,-1.3976353406906128,-0.0031921155750751495,-0.002299157902598381
09:01:56,67180.0,-35.36326005,149.16523805,87120.5,-41.0,-1.5,100.5,-6.5,-42.5,-980.0,-1385.5,-4.5,6.5,RTL,-0.012768037733621895,-0.00922435149550438,-1.5388127565383911,-1.3864890336990356,-0.006727757630869746,0.003649242571555078
09:01:57,115301.0,-35.3632627,149.16523805,86086.5,-16.0,-2.75,94.0,-5.75,-46.0,-1008.25,-1375.5,3.75,3.5,RTL,0.00991879787761718,-0.008455651579424739,-1.5390160977840424,-1.3760622441768646,0.0021987447107676417,0.0004988691071048379
09:01:58,115301.0,-35.363264799999996,149.1652378,85080.5,8.0,-2.5,94.0,-4.0,-20.5,-998.0,-1096.0,7.0,1.0,RTL,0.018811470828950405,-0.005214648670516908,-1.5394906997680664,-1.098114550113678,0.005489954957738519,-0.0021257682819850743
09:02:00,115301.0,-35.3632667,149.16523745,83040.5,39.0,-1.0,101.5,0.0,-15.5,-1017.0,-993.5,2.0,6.5,RTL,0.020681319292634726,-0.0005961839924566448,-1.5386354327201843,-0.995979517698288,0.0010494927410036325,0.0035515434574335814
09:02:02,115301.0,-35.36326545,149.1652373,81010.0,37.0,0.0,97.5,1.0,23.0,-1001.0,-143.0,-1.5,6.5,RTL,0.007785595953464508,0.0009881778387352824,-1.5393013954162598,-0.14637895300984383,-0.003209408838301897,0.0037118595791980624
09:02:03,5513.0,-35.36326505,149.165237325,79988.25,33.5,0.0,97.5,1.0,53.5,-1000.0,447.5,-0.25,3.25,RTL,0.012081807130016387,0.000955868796154391,-1.5387283563613892,0.44375228974968195,-0.001870649983175099,0.00024814653443172574
09:02:04,5513.0,-35.36326475,149.16523745,78964.0,29.5,0.0,95.5,0.5,65.5,-1008.5,754.5,1.5,5.0,RTL,0.02000381052494049,-0.0010302173905074596,-1.5389368534088135,0.7510522305965424,-0.000264673144556582,0.0018545044586062431
09:02:06,5513.0,-35.36326405,149.16523765,76887.5,22.5,-1.0,99.0,1.5,12.5,-983.0,812.5,-1.0,2.5,RTL,0.02933105919510126,-0.00040731420449446887,-1.5387998819351196,0.8113366514444351,-0.0023026397393550724,-0.0008954670047387481
09:02:08,18604.0,-35.363262500000005,149.1652377,74804.5,10.0,-1.0,97.5,1.5,-7.0,-1027.0,329.5,0.5,1.0,RTL,0.005190862342715263,0.002733281464315951,-1.538831651210785,0.3290833570063114,-0.0008239695453085005,-0.002595458645373583
09:02:10,31695.0,-35.3632604,149.1652377,72780.5,-11.0,-1.5,97.5,3.0,-62.5,-978.0,-449.0,0.5,-4.5,RTL,-0.016636269632726908,0.0028869856614619493,-1.5392587184906006,-0.4488285332918167,-0.0007673714426346123,-0.008157524047419429
09:02:12,31695.0,-35.363257250000004,149.1652377,70796.0,-40.0,-1.0,105.0,1.5,-35.0,-1006.0,-280.5,-3.0,4.5,RTL,-0.040750859305262566,0.0028537013567984104,-1.538584291934967,-0.2800355553627014,-0.005109652527607977,0.0015192648861557245
09:02:14,93399.0,-35.363257733333334,149.16523803333334,68816.33333333333,-47.666666666666664,-1.6666666666666667,99.66666666666667,-2.6666666666666665,53.333333333333336,-1014.0,1247.3333333333333,0.3333333333333333,8.0,RTL,-0.007882748264819384,-0.0058304728008806705,-1.5390947262446086,1.247127095858256,-0.001171793167789777,0.005328689236193895
09:02:16,93399.0,-35.36326205,149.16523805,66653.0,-19.0,-3.0,100.0,-4.5,8.0,-1022.5,764.0,2.5,4.5,RTL,0.03982391953468323,-0.007555366726592183,-1.538455843925476,0.7659134566783905,0.001835245406255126,0.00185614253859967
09:02:18,89484.0,-35.3632647,149.16523745,64599.5,16.0,-1.5,99.5,0.0,-37.0,-1042.5,-80.0,3.5,-4.5,RTL,0.035528672859072685,0.0014932620106264949,-1.5384920239448547,-0.07844020053744316,0.002471710613463074,-0.00800729263573885
09:02:20,85569.0,-35.363262750000004,149.1652371,62541.0,11.0,0.5,96.5,2.0,-47.5,-1019.0,-82.5,0.5,-4.5,RTL,-5.315709859132767e-05,0.005545094842091203,-1.538083255290985,-0.08105196803808212,-0.0009332837071269751,-0.00801096553914249
09:02:22,85569.0,-35.363260249999996,149.1652373,60499.5,-12.5,1.0,96.5,3.0,-65.0,-997.5,-717.0,-1.5,0.0,RTL,-0.019774131011217833,0.0032098288647830486,-1.538016140460968,-0.7154242992401123,-0.003138723666779697,-0.003216361626982689
