time_stamp,RTL_ALT,roll,pitch,yaw,rollspeed,pitchspeed,yawspeed,lat,lon,relative_alt,vx,vy,vz,xacc,yacc,zacc,xgyro,ygyro,zgyro,MODE
15:17:15,224491.0,-0.0011665112106129527,0.0010848260717466474,0.027151508256793022,9.370927000418305e-05,0.00023025990230962634,0.002251747064292431,-35.3632622,149.1652375,33.0,-1.0,0.0,0.0,0.0,1.0,-1000.0,0.5,0.5,0.0,STABILIZE
15:17:17,224491.0,-0.0013189746532589197,0.000972255424130708,0.026331249624490738,0.0002009748131968081,0.00029407572583295405,0.0018552334513515234,-35.3632621,149.1652375,17.5,-1.0,1.0,1.0,0.0,1.0,-1000.0,0.0,0.0,0.0,STABILIZE
15:17:27,224491.0,-0.0006856229738332331,0.000981706427410245,0.02321393849949042,0.0003275151054064433,0.0002118040768740078,0.00159632022647808,-35.3632622,149.1652375,10.0,-1.0,0.0,-3.6666666666666665,0.0,1.3333333333333333,-1000.0,0.3333333333333333,1.0,0.0,AUTO
15:17:29,224491.0,-0.00024997453147079796,0.0013459953867519896,0.02253171739478906,0.00030729333714892465,0.0003127950670508047,0.0014511180731157463,-35.3632621,149.1652375,19.0,0.0,0.0,-2.0,0.0,1.6666666666666667,-1000.0,0.3333333333333333,0.6666666666666666,0.0,AUTO
15:17:30,8347.0,0.0004915123378547529,0.0014046367723494768,0.022084541618824005,0.0044286165696879225,-0.003038443527960529,0.0019047975074499846,-35.3632621,149.1652375,17.666666666666668,0.0,0.0,-3.6666666666666665,0.0,1.0,-1036.0,4.333333333333333,-3.0,0.6666666666666666,AUTO
15:17:31,8347.0,0.002468912241359552,0.00032324241086219746,0.021983611087004345,-0.0008577375556342304,0.002370519796386361,0.0017882523437341054,-35.3632621,149.1652375,250.66666666666666,0.0,0.6666666666666666,-74.66666666666667,0.0,0.0,-1126.6666666666667,-0.6666666666666666,2.6666666666666665,0.3333333333333333,AUTO
15:17:33,8347.0,0.051568581412235893,0.00037903524935245514,-0.008111659437417984,-0.05060108254353205,0.03921947938700517,-0.053353209203730025,-35.363261566666665,149.16524,2959.6666666666665,8.0,44.333333333333336,-146.66666666666666,1.6666666666666667,-8.333333333333334,-994.0,-49.666666666666664,39.666666666666664,-53.666666666666664,AUTO
15:17:36,7348.0,0.010529902414418757,0.009165648836642504,-0.10667149350047112,0.06835265085101128,0.009411867242306471,0.0003395809617359191,-35.36326165,149.16523840000002,7881.0,-14.5,-56.5,-150.5,-5.5,12.0,-1004.0,68.5,9.5,-0.5,AUTO
15:17:38,6349.0,-0.002286922186613083,-0.04373345151543617,-0.04644371569156647,-0.09261839836835861,0.07909271121025085,-0.05047131050378084,-35.3632639,149.1652359,10978.5,20.0,28.0,-147.0,1.5,-7.0,-1002.5,-91.5,79.5,-50.5,AUTO
15:17:40,6349.0,0.006937061669304967,0.023457719944417477,-0.16657109558582306,0.028114610351622105,-0.0026789481926243752,-0.012351670302450657,-35.363260049999994,149.1652359,14076.5,2.5,-13.0,-152.0,-3.5,1.0,-999.5,28.0,-2.0,-12.0,AUTO
15:17:41,80426.0,0.015521459514275193,0.016510890563949943,-0.16715456917881966,-6.7999353632330894e-06,-0.011739481473341584,0.002529117788071744,-35.36326015,149.16523517500002,15246.75,-9.25,-2.25,-151.25,-0.25,1.25,-999.0,0.75,-10.5,1.75,AUTO
15:17:42,80426.0,0.00543441716581583,0.001467897804104723,-0.16650713980197906,-0.009819671977311373,-0.008275208994746208,-0.008114523719996214,-35.3632613,149.1652355,17187.5,-11.5,9.0,-151.0,2.5,0.0,-1000.0,-8.5,-7.0,-8.0,AUTO
15:17:44,80426.0,0.002115198702085763,-8.435483323410153e-05,-0.20883183181285858,0.0029549412429332733,0.002919341204687953,-0.024598772637546062,-35.3632621,149.1652364,20301.5,-1.5,2.5,-152.0,0.0,0.0,-999.5,3.5,3.5,-24.0,AUTO
15:17:46,80426.0,0.004466706188395619,0.0038682209560647607,-0.2551266849040985,0.0004083880048710853,-0.0004069005080964416,-0.01776587963104248,-35.3632621,149.1652365,23418.5,-1.0,3.0,-152.0,0.0,0.0,-1000.0,1.0,0.5,-17.5,AUTO
15:17:47,134229.0,0.0013556024641729891,0.0036509641213342547,-0.26865464448928833,-0.016437017984571867,0.003298016235930845,-0.013017815188504755,-35.3632621,149.16523665,24585.75,-1.0,3.75,-151.75,0.0,0.0,-998.75,-15.75,3.5,-12.75,AUTO
15:17:48,134229.0,0.007198263192549348,0.004407120402902365,-0.2570018172264099,0.017017947044223547,-0.003911643987521529,0.027439003810286522,-35.3632622,149.1652367,26527.5,-5.0,0.5,-152.0,0.0,0.0,-999.5,17.5,-2.0,27.0,AUTO
15:17:50,134229.0,0.025558085180819035,-0.047987667843699455,0.13283760100603104,0.04075434384867549,-0.025294626131653786,-0.04230087250471115,-35.363265299999995,149.16523415,29100.0,-16.5,-16.5,-82.0,2.0,4.5,-961.0,42.0,-23.5,-42.0,AUTO
15:17:52,134229.0,0.0066055286733899266,0.008392343064770103,0.09455734863877296,0.17083308100700378,0.01919464021921158,-0.0022974132443778217,-35.36326295,149.16523660000001,30192.0,23.0,27.0,-30.5,-1.5,5.0,-981.0,172.0,19.5,-1.5,AUTO
15:17:53,82901.0,-0.007778026396408677,0.015034529147669673,0.08919578790664673,-0.35704851523041725,0.0020011832675663754,-0.004031213524285704,-35.36326165,149.16523832500002,30346.25,13.5,18.75,-11.75,-0.5,-18.75,-969.5,-356.25,2.75,-3.5,AUTO
15:17:54,82901.0,-0.02076638024300337,-0.015262763947248459,0.0806908942759037,0.5338708907365799,-0.07580282539129257,-0.0008932537748478353,-35.363261249999994,149.16523885,30267.0,-2.0,-13.0,8.0,0.0,13.0,-1018.5,534.5,-74.0,-1.0,AUTO
15:17:56,82901.0,0.009947623824700713,-0.09799839183688164,-0.48055849969387054,-0.29633432626724243,-0.046911055222153664,-0.566995233297348,-35.36325525,149.16523055,30441.5,90.0,-66.0,-29.5,-23.0,-23.0,-1028.0,-295.5,-45.5,-566.5,AUTO
15:17:58,82901.0,0.039267705753445625,-0.16445718705654144,-0.5385079681873322,-0.0046816254034638405,0.004964574472978711,-0.004716883529908955,-35.36322645,149.1652039,31514.0,255.0,-164.0,-82.0,-66.0,-25.5,-1038.5,-3.0,5.5,-4.0,AUTO
15:17:59,30194.0,0.039255484007298946,-0.11096624657511711,-0.5515029281377792,-0.003588723571738228,0.08307509124279022,-0.012293315216084011,-35.363207575,149.165187675,32228.25,302.75,-193.25,-102.25,-75.0,-30.5,-1023.25,-2.5,83.5,-11.5,AUTO
15:18:00,30194.0,0.05658227577805519,-0.23493345826864243,-0.6249395310878754,0.014577625785022974,-0.1320199891924858,-0.08529288694262505,-35.36317185,149.16515705,33484.0,361.5,-239.0,-64.5,-89.5,-24.5,-921.5,15.5,-130.5,-84.5,AUTO
15:18:02,30194.0,0.07292501628398895,-0.051887260749936104,-0.8672625124454498,-0.01933585829101503,0.005860816687345505,-0.14722000807523727,-35.363090650000004,149.1650879,34484.0,481.0,-334.5,-93.5,-108.5,-86.5,-1045.5,-17.5,7.0,-146.5,AUTO
15:18:04,30194.0,0.1010957695543766,-0.0913694016635418,-0.9013345539569855,-0.002376061398535967,0.037571897730231285,0.02375667169690132,-35.3630081,149.165019,36525.0,463.5,-296.0,-79.5,-83.5,-84.0,-996.0,-1.0,38.0,23.5,AUTO
15:18:05,47967.0,0.0845430288463831,-0.07427605800330639,-0.8773074597120285,-0.022383092204108834,0.011759328132029623,0.022660729475319386,-35.36297655,149.164994075,37204.0,463.0,-295.0,-90.25,-83.75,-94.25,-1002.75,-20.75,12.5,22.25,AUTO
15:18:06,47967.0,0.07154003903269768,-0.060564905405044556,-0.8421341478824615,0.009094110690057278,0.04598123859614134,0.01630715373903513,-35.36292525,149.16495300000003,38442.0,445.5,-293.0,-101.5,-98.5,-82.5,-1010.5,10.0,46.0,16.0,AUTO
15:18:08,47967.0,0.0518810972571373,-0.0011062409030273557,-0.795791894197464,-0.0001367451623082161,0.01917928270995617,0.02587451320141554,-35.36285205,149.16489245000002,40982.0,353.0,-240.5,-138.0,-74.0,-47.0,-1007.0,2.0,19.5,25.0,AUTO
15:18:10,47967.0,0.021372799761593342,0.060116320848464966,-0.7568769752979279,-0.01960895163938403,0.007805461063981056,0.021175609901547432,-35.36280055,149.16484905,44108.0,210.0,-140.5,-160.0,-48.5,-32.0,-1007.5,-17.5,8.5,20.5,AUTO
15:18:11,165435.0,0.016062902053818107,0.05866371467709541,-0.7446281909942627,-0.0075689468649216,0.005282782425638288,0.018491401337087154,-35.362788699999996,149.16483915,45348.5,152.25,-101.75,-158.5,-33.5,-28.25,-999.75,-5.75,6.25,18.0,AUTO
15:18:12,165435.0,0.009223433211445808,0.049162182956933975,-0.7015883326530457,-0.004064509645104408,-0.011411855462938547,0.050501540303230286,-35.3627762,149.164829,47376.5,73.0,-45.5,-154.5,-16.5,-12.0,-998.0,-2.0,-9.5,50.5,AUTO
15:18:14,165435.0,-0.010424800915643573,0.08566160872578621,-0.3486431688070297,-0.0616034846752882,0.047738200053572655,-0.01591961446683854,-35.36276565,149.16482455,49669.0,41.5,1.0,-25.5,-5.5,-7.5,-925.5,-59.5,48.5,-15.5,AUTO
15:18:16,165435.0,-0.014276312664151192,-0.006612214376218617,-0.39952149987220764,-0.012285292148590088,-0.04246330540627241,-0.019336036406457424,-35.36276865,149.16482405,49502.0,-39.5,-9.5,10.0,2.5,23.5,-1008.0,-9.0,-41.0,-18.5,RTL
15:18:17,161870.0,0.0037259641103446484,-0.01512853120220825,-0.41488993912935257,0.13586858473718166,0.01117015304043889,-0.027192416600883007,-35.362770525,149.164823325,49438.5,-21.0,-13.0,3.75,0.5,1.75,-1020.5,136.75,12.25,-26.25,RTL
15:18:18,161870.0,0.0007527238922193646,0.005103359464555979,-0.4357149302959442,0.17684539407491684,0.004163995239650831,-0.020155252888798714,-35.36277165,149.16482265000002,49541.0,-8.0,-9.5,-30.0,0.0,-1.0,-1040.5,178.0,4.5,-19.0,RTL
15:18:20,161870.0,-0.0016397045401390642,0.003260078257881105,-0.4664441794157028,-0.010764827951788902,-0.0009458650602027774,-0.013696981128305197,-35.3627725,149.1648224,50989.5,-4.5,-5.0,-113.0,0.0,-1.0,-1040.0,-9.5,0.0,-13.0,RTL
15:18:22,161870.0,0.05719580501317978,-0.002589948766399175,-0.48458510637283325,-0.01350884884595871,0.034399997908622026,-0.044388804701156914,-35.362771699999996,149.1648237,54022.5,25.5,29.0,-149.0,0.0,-7.0,-994.5,-12.0,35.5,-44.0,RTL
15:18:23,61720.0,-0.0307884537614882,0.02287421328946948,-0.5363195985555649,-0.1266879364848137,-0.00217060511931777,-0.05271036829799414,-35.362769825,149.1648267,55155.25,21.5,33.0,-147.25,3.5,-9.5,-1003.5,-124.5,-1.0,-51.75,RTL
15:18:24,61720.0,-0.05074003525078297,0.00569662032648921,-0.5658656060695648,0.056621432304382324,0.0016120601212605834,-0.008121837861835957,-35.3627697,149.16482704999999,57070.5,-24.0,-31.0,-150.0,-3.5,6.5,-1000.0,57.5,2.0,-7.0,RTL
15:18:26,61720.0,0.04240180365741253,-0.015522078843787313,-0.5367850661277771,-0.0184014777187258,-0.06365489773452282,0.0710408203303814,-35.3627748,149.16482015,60183.5,-14.5,-0.5,-152.0,0.0,4.5,-998.0,-16.5,-62.0,71.5,RTL
15:18:28,61720.0,-0.003707226598635316,0.017430175095796585,-0.5827985405921936,0.010755969677120447,0.007480950327590108,-0.029316704720258713,-35.362773000000004,149.1648195,63282.5,5.5,-4.0,-152.0,-2.0,-1.5,-1000.5,11.5,8.0,-28.0,RTL
15:18:29,26635.0,0.003803289197094273,0.019290836062282324,-0.5998077392578125,0.00847474462352693,-0.0005697879823856056,-0.015845481539145112,-35.36277265,149.164819,64451.75,-0.75,0.0,-152.0,-1.0,0.0,-999.75,9.25,0.75,-14.75,RTL
15:18:30,26635.0,0.00489082932472229,0.012803205288946629,-0.6147944033145905,-0.00599220534786582,-0.006627288414165378,-0.010773241519927979,-35.36277265,149.1648192,66400.0,-4.0,9.5,-152.0,1.0,0.0,-999.5,-4.0,-5.0,-9.5,RTL
15:18:32,26635.0,-0.0018091024830937386,0.006109509617090225,-0.653106302022934,0.0018840882694348693,-0.0008480495889671147,-0.022292880341410637,-35.3627728,149.16482075,69515.0,-2.0,5.5,-152.5,0.0,0.0,-1000.0,3.0,0.0,-21.0,RTL
15:18:34,16423.0,0.001162523403763771,0.008601472713053226,-0.7009326815605164,0.002321520703844726,0.0015251298318617046,-0.021622353233397007,-35.3627728,149.164821,72630.0,-1.0,2.0,-153.0,0.0,0.0,-1000.0,3.0,2.5,-20.0,RTL
15:18:36,6211.0,0.0011256178258918226,0.009203759487718344,-0.7430917024612427,0.0005714157596230507,-3.56379896402359e-05,-0.019576589576900005,-35.3627728,149.1648213,75749.0,-1.0,4.0,-153.0,0.0,0.0,-1000.0,1.5,1.0,-18.0,RTL
15:18:38,6211.0,0.00028363705496303737,0.008361423388123512,-0.7839682698249817,0.00035610259510576725,-4.138506483286619e-06,-0.018607513047754765,-35.3627727,149.16482175,78863.0,-1.0,3.0,-153.0,0.0,0.0,-1000.0,1.5,1.0,-17.5,RTL
15:18:39,47674.0,9.733769184094854e-05,0.00795926502905786,-0.7990559190511703,8.588217315264046e-05,0.0001608863240107894,-0.019319751299917698,-35.3627727,149.16482185,80034.5,-1.0,3.0,-153.0,0.0,0.0,-1000.0,1.25,1.5,-18.0,RTL
15:18:40,47674.0,0.0033154762350022793,0.01058979518711567,-0.8037781119346619,0.00030525284819304943,0.0008398427744396031,0.01678525749593973,-35.3627727,149.16482205,81973.5,-1.0,4.5,-152.0,0.0,0.0,-1000.0,1.5,2.0,17.0,RTL
15:18:42,47674.0,-0.0010165200219489634,0.006528535159304738,-0.7669257521629333,-0.0001758468570187688,-0.0009026117622852325,0.016996169462800026,-35.3627727,149.16482285,85085.5,0.0,4.5,-152.0,0.0,0.0,-1000.0,1.5,0.5,17.5,RTL
15:18:44,47674.0,0.0004382916522445157,0.006907131522893906,-0.7395656406879425,0.0005131187499500811,-2.9631773941218853e-05,0.011164778843522072,-35.3627727,149.1648229,88190.0,0.0,0.5,-152.0,0.0,0.0,-1000.0,2.0,1.0,11.5,RTL
15:18:45,284232.0,0.0014002099924255162,0.007073476328514516,-0.7312408834695816,0.002111613401211798,0.0005978549597784877,0.011855982709676027,-35.3627727,149.16482280000002,89358.25,0.0,0.0,-152.25,0.0,0.0,-1000.0,3.5,1.75,12.25,RTL
15:18:46,284232.0,0.0021940030856058,0.007441469468176365,-0.718846321105957,4.301359876990318e-05,-0.000879391620401293,0.008525241632014513,-35.3627727,149.1648225,91296.5,0.0,1.0,-153.0,0.0,0.0,-1000.0,1.5,0.0,9.0,RTL
15:18:48,284232.0,0.002046778390649706,0.007772836135700345,-0.7034041881561279,-0.001982312009204179,-0.000569933676160872,0.007226834772154689,-35.3627727,149.16482225,94401.5,0.0,2.0,-152.0,0.0,0.0,-1000.0,0.0,1.0,8.0,RTL
15:18:50,284232.0,0.0016201313701458275,0.007364505901932716,-0.690664142370224,0.0013105329126119614,-0.0009228283306583762,0.008029092568904161,-35.3627727,149.1648221,97506.5,0.0,2.0,-152.0,0.0,0.0,-1000.0,2.5,0.5,8.5,RTL
15:18:51,122099.0,0.0014898523222655058,0.007438323809765279,-0.6863813549280167,0.0008450383029412478,0.00029952748445793986,0.006040473352186382,-35.3627727,149.1648221,98671.25,0.0,2.0,-152.0,0.0,0.0,-1000.0,2.25,1.5,6.75,RTL
15:18:52,122099.0,0.0014710420509800315,0.007499381434172392,-0.6792528629302979,-0.0007603127742186189,6.94395275786519e-05,0.007264176616445184,-35.3627727,149.1648221,100612.0,0.0,2.0,-152.0,0.0,0.0,-1000.0,0.5,1.5,8.0,RTL
15:18:54,122099.0,0.0015791810001246631,0.0073847221210598946,-0.6693029999732971,-3.24495485983789e-05,-9.000836871564388e-05,0.005419593071565032,-35.3627727,149.1648221,103717.0,0.0,2.0,-152.0,0.0,0.0,-1000.0,1.5,1.5,6.0,RTL
15:18:56,122099.0,0.0012231875055780013,0.0076486651475230856,-0.6615293025970459,0.0015219512085119884,0.0005991386715322733,0.005079767821977536,-35.3627727,149.1648221,106607.0,0.0,2.0,-152.0,0.0,0.0,-1000.0,3.0,2.0,5.666666666666667,RTL
15:18:57,133832.0,0.001204656931804493,0.007550701848231256,-0.6578454077243805,-0.00013950199354439974,-0.00017298676539212465,0.0046394323580898345,-35.3627727,149.1648221,108150.25,0.0,2.0,-152.0,0.0,0.0,-999.75,1.5,1.5,5.75,RTL
15:18:58,133832.0,0.0011327918036840856,0.007077405229210854,-0.6533958613872528,-8.102855645120144e-05,9.076902642846107e-05,0.004083010600879788,-35.3627727,149.1648221,110088.0,0.0,2.0,-152.0,0.0,0.0,-1000.0,2.0,1.5,5.0,RTL
15:19:00,133832.0,0.0010583936527837068,0.007199666695669293,-0.6470875442028046,0.0006246123812161386,0.00025088689289987087,0.0031449436210095882,-35.3627727,149.1648221,113194.0,0.0,1.0,-152.0,0.0,0.0,-1000.0,2.5,1.5,4.0,RTL
15:19:02,133832.0,0.0012579762454455097,0.0070511627321441965,-0.6422080993652344,0.0011858978929618995,0.0005688051848361889,0.005088064353913069,-35.3627727,149.1648221,115850.0,0.0,1.0,-152.0,0.0,0.0,-1000.0,3.0,2.0,6.0,RTL
15:19:03,57013.0,0.0012235385074745864,0.007124213152565062,-0.6395436972379684,-0.00032438215566799045,-0.0004471623688004911,0.0024630147963762283,-35.3627727,149.1648221,117468.0,0.0,1.0,-152.0,0.0,0.0,-1000.0,1.75,1.25,3.75,RTL
15:19:04,57013.0,0.0016506625106558204,0.00694985082373023,-0.6367164254188538,0.002485339413397014,0.0018083539325743914,0.004133043810725212,-35.3627727,149.1648221,119409.5,0.0,1.0,-152.0,0.0,0.0,-999.5,4.0,3.5,5.5,RTL
15:19:06,57013.0,0.001373449107632041,0.007309938548132777,-0.6323872804641724,-3.151607234030962e-05,0.00041691435035318136,0.003021497745066881,-35.3627727,149.1648221,122520.0,0.0,2.0,-152.0,0.0,0.0,-1000.0,2.0,2.0,4.0,RTL
15:19:08,57013.0,0.0010350878001190722,0.007788603659719229,-0.6286835372447968,-0.000716367969289422,0.0014878365909680724,0.0022318875999189913,-35.3627727,149.1648221,125622.0,0.0,2.0,-152.0,0.0,0.0,-999.5,1.0,3.5,3.0,RTL
15:19:09,53595.0,0.0010307171905878931,0.0075349422404542565,-0.6269221156835556,0.00020394602324813604,-0.0005972570506855845,0.0025503707001917064,-35.3627727,149.1648221,126791.25,0.0,2.0,-152.0,0.0,0.0,-1000.0,2.25,0.75,3.75,RTL
15:19:10,53595.0,0.0009520915627945215,0.0070932782255113125,-0.6250481903553009,-0.0006782861892133951,-1.9062426872551441e-06,0.004154519294388592,-35.3627727,149.1648221,128737.0,0.0,1.5,-152.0,0.0,0.0,-999.5,1.0,2.0,5.5,RTL
15:19:12,53595.0,0.0011812624870799482,0.007211611140519381,-0.6224215626716614,0.0001900126226246357,0.00014136481331661344,0.0008249284001067281,-35.3627727,149.1648221,131843.0,0.0,1.0,-152.0,0.0,0.0,-1000.0,2.0,1.5,2.0,RTL
15:19:14,53595.0,0.0011855570483021438,0.007203138433396816,-0.6198340952396393,0.0006790588377043605,0.001986785908229649,0.0028478596941567957,-35.3627727,149.1648221,134952.0,0.0,1.0,-152.0,0.0,0.0,-999.5,2.5,3.5,4.5,RTL
15:19:15,218167.0,0.0012885946198366582,0.007002036436460912,-0.6194028556346893,0.0007360076415352523,-0.0007959736103657633,0.0013925029197707772,-35.3627727,149.1648221,136119.0,0.0,1.0,-152.0,0.0,0.0,-1000.0,2.5,1.0,2.5,RTL
15:19:16,218167.0,0.0013853773707523942,0.006806060904636979,-0.6179172694683075,-0.0020483238622546196,0.00014073133934289217,0.0014359070919454098,-35.3627727,149.1648221,138057.5,0.0,1.0,-152.0,0.0,0.0,-1000.0,0.5,2.0,3.0,RTL
15:19:18,218167.0,0.0012051290832459927,0.007214338053017855,-0.6161211729049683,0.0017387181287631392,-4.037574399262667e-06,0.0031451736576855183,-35.3627727,149.1648221,141163.0,0.0,1.0,-152.0,0.0,0.0,-1000.0,3.5,2.0,4.5,RTL
15:19:20,218167.0,0.0010155164636671543,0.007538576610386372,-0.614486813545227,0.0011574819218367338,0.0009860610589385033,0.00020677095744758844,-35.3627727,149.1648221,144236.0,0.0,1.0,-152.0,0.0,0.0,-1000.0,3.0,3.0,2.0,RTL
15:19:21,13658.0,0.0010438687313580886,0.007364609045907855,-0.6141162365674973,0.0016050859121605754,0.0009231185540556908,0.0016347351775038987,-35.3627727,149.1648221,145207.5,0.0,1.0,-152.0,0.0,0.0,-999.75,3.75,2.75,3.0,RTL
15:19:22,13658.0,0.0012107035727240145,0.0072477099020034075,-0.6134686470031738,0.000989786465652287,2.565031172707677e-05,0.0015940892626531422,-35.3627727,149.1648221,146762.0,0.0,1.0,-152.0,0.0,0.0,-1000.0,3.0,1.5,3.0,RTL
15:19:24,13658.0,0.0010846120421774685,0.007251492002978921,-0.6122069358825684,0.0011885797139257193,-0.00025206379359588027,0.0011262463522143662,-35.3627727,149.1648221,149867.5,0.0,1.0,-152.0,0.0,0.0,-1000.0,3.5,2.0,2.5,RTL
15:19:26,13658.0,0.0011370645952410996,0.00717148557305336,-0.6104869544506073,-0.0010637488448992372,0.000923720421269536,0.0020612715743482113,-35.3627727,149.1648221,152973.5,0.0,1.0,-152.0,0.0,0.0,-999.5,1.0,3.0,3.5,RTL
15:19:27,45583.0,0.0010449882538523525,0.007169012329541147,-0.6099863201379776,-0.0012762436526827514,0.0008607970084995031,0.0004422575584612787,-35.3627727,149.1648221,154529.75,0.0,1.0,-152.0,0.0,0.0,-999.5,1.0,2.75,2.0,RTL
15:19:28,45583.0,0.001094134640879929,0.0073512643575668335,-0.6096504628658295,-0.0009954284178093076,-0.0002465044381096959,0.0014916782965883613,-35.3627727,149.1648221,156082.0,0.0,1.0,-152.0,0.0,0.0,-1000.0,1.0,1.5,3.0,RTL
15:19:30,45583.0,0.0013476533349603415,0.006849717814475298,-0.6089063882827759,9.572028648108244e-05,0.0011059512617066503,0.0002583967871032655,-35.3627727,149.1648221,159191.5,0.0,1.0,-152.0,0.0,0.0,-1000.5,2.0,3.0,1.5,RTL
15:19:32,45583.0,0.0012470781221054494,0.007208291674032807,-0.6080182790756226,-0.00027289922581985593,-0.0002829524455592036,0.0013691683998331428,-35.3627727,149.1648221,162302.0,0.0,1.0,-152.0,0.0,0.0,-1000.0,2.0,1.5,3.0,RTL
15:19:33,52216.0,0.0010905310919042677,0.007374579436145723,-0.6078603863716125,2.0881416276097298e-05,0.0010658710962161422,0.001972631027456373,-35.3627727,149.1648221,163852.75,0.0,1.0,-152.0,0.0,0.0,-999.75,2.25,3.0,3.75,RTL
15:19:34,52216.0,0.0003945351709262468,0.0072296010330319405,-0.6076502799987793,-0.0014087323797866702,0.0001669178018346429,0.00022619584342464805,-35.3627727,149.16482215000002,165410.5,0.0,1.0,-152.0,0.0,0.0,-1000.0,1.0,2.5,2.0,RTL
15:19:36,52216.0,0.0013949889689683914,0.0071868072263896465,-0.6072085499763489,-9.978131856769323e-05,0.0020987053867429495,-0.0003096085856668651,-35.3627727,149.1648222,168517.5,0.0,1.0,-152.0,0.0,0.0,-999.5,2.0,4.0,1.5,RTL
15:19:38,52216.0,0.0015146859223023057,0.007541952189058065,-0.6066122651100159,0.0018530718516558409,0.0008111887145787477,6.119674071669579e-05,-35.3627727,149.16482215000002,171627.0,0.0,2.0,-152.0,0.0,0.0,-1000.5,4.0,3.5,1.5,RTL
15:19:39,22051.0,0.0013011303963139653,0.007315854541957378,-0.6064548492431641,0.0005855421186424792,0.00019401393365114927,0.0013224421709310263,-35.3627727,149.1648221,173182.0,0.0,2.0,-152.0,0.0,0.0,-1000.0,3.0,2.5,3.0,RTL
15:19:40,22051.0,0.0009620079363230616,0.007284065941348672,-0.6063322424888611,-0.0017228741198778152,-0.00013421033509075642,0.000977254007011652,-35.3627727,149.1648221,174735.5,0.0,2.0,-152.0,0.0,0.0,-1000.0,0.5,2.0,2.5,RTL
15:19:42,22051.0,0.0010372328688390553,0.0066732915583997965,-0.6053654849529266,-0.0004675035015679896,0.001337965251877904,0.0009868680499494076,-35.3627727,149.16482215000002,177841.5,0.0,1.0,-152.0,0.0,0.0,-999.5,1.5,3.5,3.0,RTL
15:19:44,22051.0,0.001249830675078556,0.007095289183780551,-0.6051906943321228,0.0014149965718388557,0.0010084304958581924,-0.0003468698705546558,-35.3627727,149.1648222,180945.5,0.0,1.0,-152.0,0.0,0.0,-1000.0,3.5,3.0,1.5,RTL
15:19:45,21977.0,0.001789221540093422,0.007443438051268458,-0.6050127446651459,0.0012020697467960417,0.0001273738162126392,0.0005959793634247035,-35.3627727,149.1648222,182499.0,0.0,1.0,-152.0,0.0,0.0,-1000.25,3.25,2.25,2.25,RTL
15:19:46,21977.0,0.001340429240372032,0.007414622465148568,-0.6049849987030029,-0.0006768270395696163,0.0010806643404066563,0.0016307909972965717,-35.3627727,149.1648222,184052.5,0.0,1.5,-152.0,0.0,0.0,-999.5,1.0,3.5,3.0,RTL
15:19:48,21977.0,0.0010195281938649714,0.007354954490438104,-0.604992151260376,-4.498404450714588e-05,0.0002703245263546705,-0.0014285623910836875,-35.3627727,149.1648222,187160.5,0.0,1.5,-152.0,0.0,0.0,-1000.0,2.0,2.5,0.5,RTL
15:19:50,21977.0,0.0010840667528100312,0.007279094774276018,-0.6045018136501312,0.0009930887026712298,0.0006183499936014414,0.0012322384864091873,-35.3627727,149.1648222,190268.0,0.0,1.0,-152.0,0.0,0.0,-1000.5,3.5,3.0,3.5,RTL
15:19:51,114656.0,0.0011124341108370572,0.007239559781737626,-0.6045895218849182,-0.0006430846406146884,-0.0001131806056946516,0.0006548513774760067,-35.3627727,149.1648222,191825.0,0.0,1.0,-152.0,0.0,0.0,-1000.0,1.75,2.25,2.5,RTL
15:19:52,114656.0,0.0012629579869098961,0.017940417397767305,-0.6044442653656006,-0.0019210859318263829,0.029112434131093323,0.0006493881228379905,-35.3627727,149.1648222,193456.5,-2.0,2.5,-151.5,0.0,0.0,-999.5,0.5,31.5,3.0,RTL
15:19:54,114656.0,-0.006107888882979751,0.08996858820319176,-0.6041640937328339,-0.006783831864595413,0.029284676536917686,0.0008287053788080812,-35.36277735,149.16482639999998,196578.5,-67.5,50.5,-145.0,13.0,6.5,-994.5,-3.5,31.0,2.5,RTL
15:19:56,114656.0,0.04022877094394062,0.15611566230654716,-0.1521204374730587,0.05998766981065273,-0.08601627219468355,0.20718536525964737,-35.3628042,149.16484595,198834.0,-246.0,135.5,-54.0,59.0,7.0,-939.5,62.5,-83.0,209.5,RTL
15:19:57,153990.0,0.09167470410466194,0.1470466200262308,-0.057526642456650734,0.004368181806057692,0.06310420529916883,0.023385998385492712,-35.3628285,149.1648646,199105.75,-291.0,215.0,2.25,85.25,0.25,-955.0,7.25,65.5,25.5,RTL
15:19:58,153990.0,0.07721012458205223,0.20807237178087234,-0.06540056318044662,0.21002381294965744,0.03536870889365673,-0.027459707111120224,-35.3628577,149.16489265,198912.0,-362.0,293.5,23.5,108.5,1.5,-1005.0,212.5,38.0,-24.5,RTL
15:20:00,153990.0,0.0008559204288758337,0.19957612454891205,-0.1535189524292946,-0.025010811164975166,-0.026657264679670334,-0.038912225514650345,-35.362937900000006,149.1649668,198678.5,-516.0,367.5,-1.5,142.5,7.0,-997.5,-22.0,-23.0,-36.0,RTL
15:20:02,153990.0,-0.024235697463154793,0.1551354080438614,-0.22855999320745468,-0.014406978152692318,-0.04150999151170254,-0.035782039165496826,-35.36303575,149.1650488,198767.0,-554.0,378.5,-4.0,157.0,30.0,-989.5,-10.5,-38.0,-32.5,RTL
15:20:03,239248.0,-0.0356249432079494,0.12357780709862709,-0.26049505546689034,-0.04637943906709552,-0.04587652673944831,-0.032221554312855005,-35.363085425,149.16508965,198789.75,-541.5,370.25,-3.75,150.0,32.25,-992.75,-43.25,-42.5,-29.0,RTL
15:20:04,239248.0,-0.05910859629511833,0.07349283806979656,-0.28605465590953827,-0.2926425226032734,-0.04214250482618809,-0.0321835606591776,-35.3631327,149.16512895,198810.5,-497.0,341.5,-3.5,139.5,34.5,-992.0,-289.5,-38.5,-29.5,RTL
15:20:06,239248.0,-0.073396235704422,-0.01924225431866944,-0.3225870132446289,-0.0656450092792511,-0.029720244114287198,-0.015435909852385521,-35.3632094,149.16519325000002,198769.5,-334.0,223.0,0.5,99.0,32.0,-1006.0,-62.0,-26.5,-13.0,RTL
15:20:08,239248.0,-0.0516777727752924,-0.06486806832253933,-0.35407325625419617,-0.030870497226715088,0.009875367395579815,-0.01748333522118628,-35.3632529,149.1652292,198713.5,-144.0,88.0,-1.5,41.0,9.5,-1004.5,-28.0,12.5,-14.0,RTL
15:20:09,15670.0,-0.03742455784231424,-0.054152424447238445,-0.36775144189596176,-0.12909524282440543,0.01679497119039297,-0.016823005862534046,-35.363262575,149.16523755,198705.5,-67.25,30.75,-1.75,18.25,-0.75,-1000.0,-126.25,19.0,-13.75,RTL
15:20:10,15670.0,-0.010745457373559475,-0.037348415702581406,-0.3795446902513504,0.01652705669403076,0.017521390691399574,-0.006142602302134037,-35.36326645,149.1652401,198709.0,-20.5,1.5,-2.5,3.5,12.5,-1006.5,19.5,20.0,-3.5,RTL
15:20:12,15670.0,0.018983457703143358,0.0008026291616261005,-0.39559972286224365,0.01455041766166687,0.008343475870788097,-0.012445356231182814,-35.363267199999996,149.16523865,198721.5,10.0,1.0,-3.0,-3.5,2.0,-1003.5,17.5,11.0,-9.5,RTL
15:20:14,15670.0,0.02054019644856453,0.00017373007722198963,-0.4084869623184204,-0.1936054676771164,0.008020921144634485,-0.012707798043265939,-35.363266249999995,149.16523660000001,198738.5,20.5,12.5,-0.5,-1.0,-14.5,-988.0,-190.0,10.0,-9.5,RTL
15:20:15,29068.0,0.006442413869081065,0.007844387902878225,-0.4154893532395363,-0.05535498261451721,0.005154372949618846,-0.0065786499180831015,-35.363264949999994,149.165236725,198742.0,20.0,14.75,-0.5,0.0,-2.25,-999.0,-51.5,7.25,-3.5,RTL
15:20:16,29068.0,-0.005515311611816287,0.009799694176763296,-0.4216301292181015,0.06334795523434877,-0.0009149906109087169,-0.00435943208867684,-35.36326365,149.1652377,198743.0,13.0,8.5,-0.5,1.0,1.5,-995.5,66.0,1.0,-2.0,RTL
15:20:18,29068.0,-0.030181875452399254,0.0036534066312015057,-0.4326154887676239,-0.8429981768131256,-0.007762237219139934,-0.0014008153229951859,-35.363262399999996,149.16523955,198347.0,0.5,-8.0,66.5,0.0,-10.0,-940.5,-838.0,-5.0,1.5,RTL
15:20:20,29068.0,-0.015072675421833992,-2.766895340755582e-05,-0.44179701805114746,-0.9767029881477356,-0.002762273303233087,-0.003245567320846021,-35.36326245,149.16523905,196266.0,-0.5,-13.0,103.5,-1.0,-19.0,-1059.0,-972.0,-0.5,-0.5,RTL
15:20:21,161190.0,-0.01718047959730029,0.003605643520131707,-0.4456319510936737,-0.08766721189022064,0.004291821853257716,-0.0026042318204417825,-35.363262375,149.16523899999999,195220.0,1.75,-9.25,97.75,0.25,24.25,-969.75,-82.5,6.0,0.25,RTL
15:20:22,161190.0,-0.024722435511648655,0.004532505990937352,-0.4487883895635605,0.44058534502983093,-0.0021419329568743706,0.006663633044809103,-35.363261949999995,149.1652397,194191.0,0.0,-12.5,97.0,0.5,56.0,-1002.5,445.5,0.5,9.0,RTL
15:20:24,161190.0,-0.009183754213154316,-0.0003475619487289805,-0.45574863255023956,0.7446218132972717,0.0050301821902394295,0.0009937472641468048,-35.3632619,149.1652396,192141.0,-3.0,-17.5,98.5,-2.5,61.0,-1062.5,749.0,7.0,3.5,RTL
15:20:26,161190.0,0.021252362057566643,-0.00013066605606582016,-0.4613826721906662,1.498249351978302,-0.0015201466158032417,0.001732197473756969,-35.363262500000005,149.1652383,190099.0,0.5,-10.5,99.5,-2.5,62.0,-998.5,1500.5,0.5,4.0,RTL
15:20:27,242478.0,0.02285323152318597,0.0017049686284735799,-0.46379631757736206,1.493871033191681,0.0007420395559165627,0.0002642950275912881,-35.3632626,149.165237775,189073.0,2.75,-5.0,97.75,-0.25,56.25,-1002.5,1496.25,2.5,3.0,RTL
15:20:28,242478.0,0.019677509553730488,0.00408109393902123,-0.4664505124092102,1.3560428619384766,-0.0006934195989742875,-0.0009376906091347337,-35.363262500000005,149.16523775000002,188053.5,3.0,-4.5,95.5,2.5,38.5,-1010.5,1357.5,1.5,1.5,RTL
15:20:30,242478.0,-0.01181357353925705,0.006761615630239248,-0.47142697870731354,0.4473114162683487,-0.0035306040663272142,0.007820471888408065,-35.363261449999996,149.16523984999998,186018.0,-2.5,-13.5,98.0,3.0,-7.5,-1028.5,447.0,-1.5,10.0,RTL
15:20:32,242478.0,-0.02416649740189314,0.0012181080528534949,-0.4746011942625046,-0.8686956465244293,0.0004072466981597245,-0.006768501130864024,-35.363261050000006,149.16524114999999,184003.0,-11.5,-29.0,100.0,1.0,-63.0,-944.0,-711.0,1.0,0.0,RTL
15:20:33,23239.0,-0.025431493762880564,0.0010855894215637818,-0.47650565952062607,-1.2683192491531372,0.0023403665982186794,0.0016154480399563909,-35.3632612,149.165240925,182985.25,-11.5,-29.25,99.25,-1.4,-68.4,-988.2,-1220.2,3.6,1.6,RTL
15:20:34,23239.0,-0.020728878676891327,0.000555917036763276,-0.4787594825029373,-1.0415510535240173,-0.0050774054834619164,-0.0045835343189537525,-35.363261449999996,149.16524025,181962.0,-9.5,-26.0,97.0,-3.0,-56.5,-1096.5,-1041.5,-3.0,-2.0,RTL
15:20:36,23239.0,-0.0054167157504707575,0.0015561130276182666,-0.48106805980205536,-1.4705044627189636,0.0018990984535776079,0.0012150914408266544,-35.36326235,149.1652377,179919.5,-2.5,-11.0,101.5,-2.0,-54.5,-1035.5,-1469.0,3.5,4.0,RTL
15:20:38,23239.0,-0.017946165055036545,0.007500526495277882,-0.48273399472236633,-1.6164816617965698,0.0018755326746031642,-0.008709670975804329,-35.3632623,149.1652371,178267.0,2.0,1.0,97.0,0.5,-74.0,-1002.0,-1459.5,4.0,-4.0,RTL
15:20:39,14618.0,-0.01280220178887248,0.004434841126203537,-0.4847809374332428,-1.3918670415878296,-0.0026095818262547254,-0.0012932911049574614,-35.36326222,149.16523704000002,176983.2,-0.6,0.2,98.8,-0.4,-55.8,-998.4,-1390.8,-0.8,1.2,RTL
15:20:40,14618.0,-0.0072751769330352545,0.004434290109202266,-0.4847845286130905,-1.5070146322250366,0.00578324357047677,-0.007260998478159308,-35.36326245,149.16523665,175839.0,0.5,3.0,98.0,-1.5,-62.5,-962.0,-1506.0,7.0,-4.5,RTL
15:20:42,14618.0,-0.025360053405165672,0.009507072158157825,-0.4868873804807663,-1.447063684463501,0.000890925235580653,-0.005119786714203656,-35.363261800000004,149.16523784999998,173811.5,-1.0,-1.0,100.5,2.5,-67.0,-971.5,-1446.5,2.0,-1.5,RTL
15:20:44,14618.0,-0.03576730750501156,0.00881173787638545,-0.4892067611217499,-1.2897321581840515,-0.0005495100631378591,-0.015765375923365355,-35.36326065,149.1652406,171763.5,-11.5,-19.5,98.0,3.5,-86.0,-924.5,-1291.0,1.0,-12.5,RTL
15:20:45,151927.0,-0.03925665421411395,0.005673838430084288,-0.48995280265808105,-1.0496374666690826,-0.007312499801628292,-0.009186159877572209,-35.363260325,149.1652417,170733.25,-17.25,-29.75,99.25,2.0,-73.25,-1000.25,-1051.0,-4.75,-6.0,RTL
15:20:46,151927.0,-0.02850191295146942,0.0020052227191627026,-0.4900483787059784,-0.6913802325725555,-0.004276747058611363,-0.004647803260013461,-35.363260350000004,149.1652421,169709.5,-20.0,-35.5,98.0,-1.0,-61.5,-958.0,-694.0,-2.5,-1.5,RTL
15:20:48,151927.0,-0.013472865335643291,-0.0012815496884286404,-0.4909369647502899,-1.476055383682251,0.004820647649466991,0.003171134740114212,-35.3632614,149.1652401,168061.0,-16.0,-31.0,103.0,-6.0,-63.0,-991.0,-1477.0,6.0,6.0,RTL
15:20:50,151927.0,0.0070600195322185755,0.0010815535206347704,-0.49308061599731445,-0.2867319881916046,-0.0002889268798753619,0.0072829724522307515,-35.363262750000004,149.1652365,166060.0,-0.5,-2.0,99.0,-5.0,27.0,-1019.5,-285.0,1.5,10.0,RTL
15:20:51,59017.0,0.017085068859159946,0.0028075239388272166,-0.49295400083065033,-0.15866585727781057,0.0028983440424781293,0.003747969458345324,-35.363263425,149.16523455,164790.75,8.0,14.5,103.25,-3.5,37.25,-985.5,-156.5,4.5,6.5,RTL
15:20:52,59017.0,0.027714303694665432,0.004434620961546898,-0.4933200925588608,0.6304913461208344,0.005304199177771807,-5.093030631542206e-05,-35.36326375,149.1652337,164041.5,12.0,23.0,101.5,-1.5,63.0,-995.5,632.5,6.5,3.5,RTL
15:20:54,59017.0,0.01975094433873892,0.009282025042921305,-0.49239304661750793,1.2157626152038574,0.013424010016024113,0.002287561073899269,-35.36326325,149.16523445,162014.5,15.0,29.5,103.0,1.5,67.0,-1000.0,1217.5,14.5,5.0,RTL
15:20:56,59017.0,0.01206332491710782,0.004591684555634856,-0.49484938383102417,1.2950677275657654,-0.0013581978855654597,-0.00022584188263863325,-35.36326245,149.16523665,159964.5,3.5,12.5,104.0,0.0,74.5,-1040.5,1296.0,0.5,2.5,RTL
15:20:57,42281.0,0.03050361480563879,0.0033104437752626836,-0.4951679855585098,1.2326253354549408,0.003432013589190319,0.005286303116008639,-35.36326265,149.1652365,158692.75,3.25,8.75,103.75,-0.75,44.0,-1008.75,1232.5,5.0,8.25,RTL
15:20:58,42281.0,0.030430100858211517,0.004189957166090608,-0.4946698844432831,0.9079449772834778,-0.002109724562615156,-0.006315859034657478,-35.3632628,149.1652363,157930.0,5.0,9.5,104.5,1.0,7.0,-959.0,907.0,0.0,-2.5,RTL
15:21:00,42281.0,0.03568660467863083,0.0028798040002584457,-0.49640245735645294,1.2870858907699585,0.000320901395753026,0.008074874058365822,-35.363263,149.16523575000002,155878.5,6.5,13.5,107.5,-2.5,44.5,-1016.5,1287.0,2.0,11.5,RTL
15:21:02,42281.0,0.07076732069253922,-0.0025612569879740477,-0.4978034049272537,1.2517004609107971,-0.010698212776333094,0.001907797297462821,-35.3632645,149.16523260000002,153838.0,16.0,31.5,103.5,-5.5,30.5,-944.0,1252.0,-8.5,5.0,RTL
15:21:03,60544.0,0.08673916943371296,0.00032799719338072464,-0.4971098452806473,1.3879859745502472,0.011946824961341918,0.00868175271898508,-35.363265850000005,149.1652297,152559.25,31.0,54.75,101.25,-3.0,72.5,-1006.0,1391.25,13.25,12.0,RTL
15:21:04,60544.0,0.08664488792419434,0.0049110474064946175,-0.4955065995454788,1.2331867814064026,0.01089835586026311,0.0011888365261256695,-35.3632661,149.1652287,151804.5,37.5,65.5,103.5,-1.5,37.0,-1010.5,1235.5,12.0,4.5,RTL
15:21:06,60544.0,0.03848990239202976,0.015516160055994987,-0.4953756630420685,1.0770331621170044,-0.001543368329294026,-0.0035801695194095373,-35.36326425,149.1652315,149742.5,31.5,60.5,104.5,7.5,11.0,-1009.5,1079.5,0.0,0.0,RTL
15:21:08,60544.0,0.006636203499510884,0.01134360209107399,-0.4961409419775009,1.1316600441932678,-0.005663801683112979,-0.003647741163149476,-35.363261949999995,149.16523690000002,147679.5,6.5,22.0,103.5,3.0,7.0,-929.0,1134.0,-3.5,-0.5,RTL
15:21:09,63275.0,0.005632327578496188,0.0067416325910016894,-0.4964427575469017,1.3457424342632294,-0.005203912907745689,0.0017921238322742283,-35.363261475,149.165238575,146399.0,-1.5,3.75,99.25,3.25,41.75,-1023.5,1349.75,-2.5,5.0,RTL
15:21:10,63275.0,0.00908392365090549,0.004394573625177145,-0.49729765951633453,1.278671383857727,-0.003542141930665821,0.0034056304721161723,-35.363261449999996,149.165239,145646.0,-5.0,-3.5,101.0,0.0,34.5,-987.5,1282.0,-1.5,6.5,RTL
15:21:12,63275.0,0.02555117756128311,0.00143615179695189,-0.4968511611223221,0.20052321068942547,-0.0012794258072972298,-0.0015515314880758524,-35.3632622,149.1652378,143618.5,-3.5,-5.0,101.5,-2.0,-23.5,-965.0,202.5,1.0,1.5,RTL
15:21:14,63275.0,0.039697589352726936,0.005573879694566131,-0.496510773897171,0.09191977418959141,0.004510064609348774,0.002081587561406195,-35.3632631,149.1652354,141569.5,5.0,11.0,101.0,-1.5,-39.0,-970.0,93.5,6.0,5.0,RTL
15:21:15,218986.0,0.030155010521411896,0.007797146332450211,-0.4976816475391388,0.43831590563058853,-0.0012700288207270205,-0.007672103471122682,-35.363262825,149.1652355,140297.0,6.75,15.0,102.0,1.25,-24.0,-990.25,440.5,1.0,-3.75,RTL
15:21:16,218986.0,0.02464232873171568,0.007093010237440467,-0.49735546112060547,0.36009249091148376,-0.007752205245196819,-0.0015049444045871496,-35.3632627,149.16523575000002,139527.5,5.5,14.5,101.0,0.0,-25.0,-965.0,362.5,-5.0,2.0,RTL
15:21:18,218986.0,0.014156796038150787,0.006655111210420728,-0.4971596747636795,-0.39465952664613724,-0.005424967152066529,-0.015872913412749767,-35.3632625,149.16523635,137479.5,3.5,11.0,102.0,2.5,-59.5,-955.5,-391.0,-2.5,-11.5,RTL
15:21:20,218986.0,0.009167203214019537,0.004278549458831549,-0.4976150393486023,-0.4384024441242218,-0.0025212373584508896,-0.0029170718044042587,-35.3632624,149.165237,135438.0,0.0,2.5,101.0,0.5,-59.0,-945.0,-435.0,0.0,0.5,RTL
15:21:21,71004.0,-0.0033743621897883713,0.008505000965669751,-0.49705109745264053,-0.6729030981659889,0.0019293978693895042,-0.017190840328112245,-35.363262075,149.16523775000002,134171.75,1.25,1.5,102.0,3.75,-68.75,-972.75,-669.25,3.75,-13.0,RTL
15:21:22,71004.0,-0.02219892106950283,0.009459623601287603,-0.4991394430398941,-0.9709566235542297,-0.004023711197078228,-0.000778603833168745,-35.3632614,149.16523899999999,133404.0,-1.5,-4.0,99.0,4.0,-63.0,-1029.5,-967.0,-1.5,2.5,RTL
15:21:24,71004.0,-0.025336255319416523,0.003975488245487213,-0.4977753758430481,-1.1518582105636597,-0.002793083607684821,-0.003329537983518094,-35.36326065,149.1652409,131359.5,-16.0,-25.5,102.0,0.0,-78.5,-981.5,-1148.0,-0.5,0.0,RTL
15:21:26,71004.0,-0.00371739047113806,0.003202547552064061,-0.49925631284713745,-0.6634374260902405,0.00520288001280278,-0.009547922760248184,-35.36326115,149.16523990000002,129329.0,-13.5,-25.0,97.5,0.0,-60.5,-1026.5,-661.0,7.5,-5.5,RTL
15:21:27,8438.0,-0.008044148060434964,0.004640633473172784,-0.49795063585042953,-0.6668474823236465,-0.0031628760043531656,0.001231243775691837,-35.363261275,149.16523945,128063.75,-11.0,-19.75,103.25,0.0,-63.5,-974.0,-664.25,-0.75,4.75,RTL
15:21:28,8438.0,0.0018237088224850595,0.004574018530547619,-0.4978558123111725,-0.430859811604023,-0.002330502262338996,-0.004856144078075886,-35.363261449999996,149.16523905000003,127292.5,-10.5,-17.5,103.0,0.0,-59.0,-1027.0,-428.5,0.0,-1.5,RTL
15:21:30,8438.0,0.004831463098526001,0.0038101349491626024,-0.4981237202882767,-0.8034285008907318,-0.0011936560040339828,0.006589469034224749,-35.36326185,149.1652379,125256.0,-6.0,-8.5,102.5,-1.5,-61.5,-989.5,-801.0,1.0,10.0,RTL
15:21:32,8438.0,0.009008502820506692,0.005089546786621213,-0.4971529543399811,-0.929494321346283,-0.001044789096340537,-0.0014888453297317028,-35.36326245,149.16523660000001,123214.0,0.5,3.0,100.5,-1.0,-68.5,-945.0,-927.5,1.5,2.5,RTL
15:21:33,172289.0,0.0024453457954223268,0.0038315540878102183,-0.4981512501835823,-1.270098090171814,-0.00046552944695577025,0.0008206504862755537,-35.363262750000004,149.165235975,121952.25,2.25,6.75,100.5,-0.5,-61.75,-988.25,-1266.25,1.5,4.25,RTL
15:21:34,172289.0,0.00042517956603660423,0.004259825102053583,-0.4978274703025818,-1.3990063667297363,-0.0009413767838850617,-0.004743186291307211,-35.3632629,149.16523575000002,121189.0,4.5,9.5,106.0,0.5,-49.5,-999.0,-1393.5,1.0,-1.0,RTL
15:21:36,172289.0,-0.0069333394058048725,0.006951377959921956,-0.49761927127838135,0.5156756788492203,0.00022226892178878188,0.0042241469491273165,-35.36326235,149.16523695,119141.5,4.5,8.5,101.5,0.0,54.0,-1002.0,522.0,2.0,8.0,RTL
15:21:38,172289.0,-0.0015094601549208164,0.003934703185223043,-0.49771852791309357,0.542846143245697,0.0004424767685122788,0.004447798244655132,-35.3632622,149.16523775000002,117088.5,0.0,0.5,101.5,0.0,59.0,-1045.5,549.0,2.5,8.0,RTL
15:21:39,101325.0,0.002261673624161631,0.0029031374724581838,-0.49792787432670593,0.9591659307479858,0.002178077644202858,0.0006918652798049152,-35.363262225,149.165237775,115711.0,0.5,0.5,102.25,-0.75,71.25,-1002.25,965.25,4.5,4.25,RTL
15:21:40,101325.0,0.00952712306752801,0.0009860230929916725,-0.49774718284606934,1.1080191731452942,0.004335780628025532,0.006291505880653858,-35.36326245,149.16523734999998,114950.0,0.5,0.5,102.5,-3.5,75.0,-1020.0,1114.5,6.5,10.0,RTL
15:21:42,101325.0,0.03048226423561573,0.0013796857674606144,-0.498523011803627,1.0815391540527344,0.004966875188983977,-0.0017280562315136194,-35.3632634,149.16523535,112901.0,9.5,13.5,101.0,-1.5,73.5,-1015.5,1088.0,6.5,2.5,RTL
15:21:44,101325.0,0.056269558146595955,-0.00010394762648502365,-0.4977286010980606,1.221670925617218,0.002371504553593695,0.00360759231261909,-35.36326425,149.1652335,110867.0,17.0,27.0,102.0,-1.5,39.5,-1004.0,1226.0,4.5,7.5,RTL
15:21:45,91508.0,0.05928657576441765,0.003995633916929364,-0.4975716844201088,1.305290848016739,0.004266502859536558,0.0017811241559684277,-35.363264575,149.16523245000002,109586.0,23.75,39.0,100.25,0.0,51.5,-1025.5,1310.75,6.0,5.25,RTL
15:21:46,91508.0,0.04967788979411125,0.0061867942567914724,-0.4972519427537918,1.1368933320045471,0.005608872510492802,0.0029466546839103103,-35.36326445,149.1652326,108826.5,24.5,40.5,103.5,2.0,23.0,-981.5,1141.5,7.5,6.0,RTL
15:21:48,91508.0,0.02106667123734951,0.008403807878494263,-0.49815836548805237,0.8199441432952881,-0.003014919115230441,-0.004721867619082332,-35.363262950000006,149.16523545,106771.0,14.5,27.0,101.5,3.5,-1.5,-989.5,824.5,-0.5,-0.5,RTL
15:21:50,91508.0,0.036390140652656555,0.0010775761911645532,-0.497398242354393,1.2530488967895508,-0.0010630517499521375,-0.0008970759809017181,-35.36326285,149.16523635,104702.0,4.5,9.5,102.0,0.0,24.5,-1027.0,1258.5,1.0,3.0,RTL
15:21:51,90349.0,0.02790853986516595,0.005238118639681488,-0.4970516338944435,1.016910269856453,0.001770336093613878,-0.0023540875990875065,-35.363262925,149.16523635000001,103444.25,9.25,12.0,97.5,3.0,18.25,-1016.5,1022.5,3.5,1.25,RTL
15:21:52,90349.0,0.014205214101821184,0.00800974783487618,-0.49675630033016205,0.7164673805236816,-0.002155374502763152,0.004408964654430747,-35.363262500000005,149.16523725,102668.0,7.5,9.0,101.0,3.0,-9.5,-1016.5,721.5,0.0,8.5,RTL
15:21:54,90349.0,0.0011692450980262947,0.006228110520169139,-0.4972190111875534,1.009685218334198,-0.0031600341899320483,-0.0010190517641603947,-35.3632612,149.16523990000002,100619.0,-5.5,-13.0,97.5,2.5,10.5,-1007.0,1014.5,-1.0,2.5,RTL
15:21:56,72997.5,-0.00581313599832356,0.00437981216236949,-0.4984709769487381,0.15231796819716692,0.00023640459403395653,-0.0024853330105543137,-35.363260749999995,149.16524114999999,98595.5,-14.5,-28.5,99.5,0.0,-38.0,-981.0,156.0,2.5,1.5,RTL
15:21:58,55646.0,-0.016050412319600582,0.0029101662803441286,-0.4974813163280487,-0.9875157177448273,0.002868293086066842,-0.0018006146419793367,-35.3632609,149.16524075,96558.5,-15.0,-30.0,99.5,-1.5,-81.0,-973.5,-983.0,4.5,2.0,RTL
15:22:00,55646.0,0.01122968690469861,0.002747043501585722,-0.49756811559200287,-0.23849064111709595,0.003341180505231023,-0.0022100277710705996,-35.36326165,149.16523899999999,94524.5,-8.5,-19.0,101.0,-1.0,-48.5,-982.0,-235.0,5.5,2.0,RTL
15:22:02,15406.0,0.010602845344692469,0.0055359588004648685,-0.4972919523715973,-0.5303002893924713,0.004065023735165596,0.0016392238903790712,-35.363261949999995,149.1652379,92469.5,-4.0,-8.5,100.0,0.5,-65.0,-968.5,-527.0,6.0,5.0,RTL
15:22:04,15406.0,-0.023402806371450424,0.005185482325032353,-0.4971883147954941,-1.2509076595306396,-0.003729038406163454,-0.00035945302806794643,-35.3632619,149.1652381,90403.0,-2.0,-4.5,97.5,0.5,-42.0,-1021.0,-1244.5,-1.0,3.0,RTL
15:22:06,15406.0,-0.03396649286150932,0.005033073015511036,-0.49761512875556946,-1.5672639608383179,-0.0006844333838671446,-0.004560674540698528,-35.363261550000004,149.16523905000003,88363.5,-6.0,-11.5,99.5,0.0,-69.0,-903.0,-1562.5,1.0,-1.0,RTL
15:22:07,54210.0,-0.024741534143686295,0.004742417600937188,-0.49708472937345505,-1.3597021698951721,0.00019282574066892266,-0.006497452966868877,-35.3632614,149.1652394,87107.0,-7.5,-15.25,97.75,0.25,-73.0,-1004.25,-1355.5,2.25,-2.25,RTL
15:22:08,54210.0,-0.027408120222389698,0.0045048450119793415,-0.49689781665802,-1.237870454788208,-0.0007064776727929711,-0.010438931174576283,-35.363261249999994,149.1652398,86338.5,-8.0,-17.0,98.0,1.0,-75.0,-1006.0,-1234.5,1.5,-6.5,RTL
15:22:10,54210.0,-0.034073906019330025,0.0020970076438970864,-0.497245192527771,-1.1732594966888428,-0.00580497260671109,0.009647050639614463,-35.3632612,149.16524015,84306.5,-12.0,-23.5,98.5,0.0,-36.5,-988.5,-1167.5,-3.5,12.5,RTL
15:22:12,54210.0,-0.03827505372464657,0.00541100837290287,-0.4975276589393616,-1.2221187353134155,-0.0018414417863823473,-0.00014691916294395924,-35.36326115,149.16523999999998,82248.0,-9.5,-21.0,95.5,0.0,-36.0,-975.5,-1217.0,0.0,3.0,RTL
15:22:13,253037.0,-0.028563146479427814,0.0052191923605278134,-0.49787958711385727,-1.1363246887922287,-0.0038717928691767156,-0.007015075825620443,-35.363260749999995,149.16524087500002,80983.25,-13.25,-26.0,99.75,0.5,-78.5,-975.25,-1134.75,-1.75,-3.25,RTL
15:22:14,253037.0,-0.028678721748292446,0.0018065360491164029,-0.497844398021698,-1.1593080759048462,-0.007610196713358164,-0.0013830529060214758,-35.363260749999995,149.16524090000001,80219.0,-15.0,-28.0,95.5,-1.0,-63.5,-1009.5,-1157.5,-5.0,2.0,RTL
15:22:16,253037.0,-0.0018682254012674093,-0.0015297901700250804,-0.49797986447811127,-1.1606844663619995,-0.002455831679981202,-0.0011441688984632492,-35.3632621,149.16523869999997,78184.5,-6.5,-18.0,97.0,-2.5,-67.5,-991.5,-1159.0,-0.5,2.0,RTL
15:22:18,253037.0,-0.004737386712804437,0.0019397044670768082,-0.4977864623069763,-1.3717923760414124,0.003896597190760076,-0.0027398839592933655,-35.36326305,149.16523619999998,76154.0,5.5,2.0,98.5,-1.5,-42.0,-1003.5,-1368.0,5.5,1.0,RTL
15:22:19,117135.0,-0.017004881286993623,0.007913142326287925,-0.4965052604675293,-1.3246009349822998,0.0026479963562451303,-0.006676140474155545,-35.363262649999996,149.165236625,74893.0,6.75,6.0,100.5,2.75,-50.25,-984.5,-1320.5,4.5,-2.25,RTL
15:22:20,117135.0,-0.03899100236594677,0.011453063692897558,-0.4970415234565735,-1.2450286149978638,-0.0038378549506887794,0.003816995187662542,-35.36326185,149.16523790000002,74132.0,4.0,2.0,102.0,4.0,-32.0,-1032.0,-1241.0,-1.5,7.5,RTL
15:22:22,117135.0,-0.028271899558603764,0.0013429448299575597,-0.4972614347934723,-0.39035850763320923,-0.0016742601292207837,0.009980772389099002,-35.363261249999994,149.16523975,72106.0,-10.0,-16.0,103.5,-1.5,23.5,-1005.0,-385.0,0.5,13.0,RTL
15:22:24,117135.0,-0.012006232049316168,0.0028402735479176044,-0.4964248538017273,-0.2797010987997055,0.004677854012697935,0.002035714569501579,-35.3632622,149.16523815,70041.5,-1.0,-8.0,100.0,0.0,28.5,-979.5,-274.0,6.0,5.5,RTL
15:22:25,122114.0,-0.027817219495773315,0.005698086111806333,-0.4970148205757141,-0.7330000549554825,0.0008392730087507516,-0.004140979726798832,-35.363261924999996,149.16523832500002,68757.0,-1.25,-6.75,99.75,-0.5,0.5,-991.0,-728.5,2.25,-0.5,RTL
15:22:26,122114.0,-0.024436998181045055,0.005382670555263758,-0.4967159628868103,-0.6303346157073975,-0.007448721909895539,-0.0001745130866765976,-35.3632618,149.1652384,67986.0,-3.5,-8.5,100.5,0.5,-2.0,-1007.5,-626.0,-5.0,3.5,RTL
15:22:28,122114.0,-0.014344189781695604,0.0015441658324562013,-0.4969736337661743,-0.7291654646396637,0.004433473106473684,-0.004785121884196997,-35.36326215,149.1652379,65934.0,-2.5,-5.0,99.0,-2.0,1.5,-1022.5,-724.5,6.0,-0.5,RTL
15:22:30,122114.0,-0.009038866497576237,0.004370344569906592,-0.49641773104667664,-0.09736848343163729,0.002031489391811192,0.0016849965322762728,-35.3632626,149.16523705,63882.0,4.0,3.0,96.0,0.0,34.0,-1017.0,-92.5,3.5,5.0,RTL
15:22:31,168018.0,-0.018454744247719646,0.0030200799519661814,-0.49702560156583786,-0.506652407348156,-0.006711458321660757,0.0026671637315303087,-35.3632624,149.1652375,62614.25,1.75,1.25,99.0,-1.5,17.0,-999.5,-501.75,-4.25,6.25,RTL
15:22:32,168018.0,-0.003969548764871433,-2.6295760108041577e-05,-0.4965479075908661,-0.012479465454816818,-0.0015335798379965127,0.002653321367688477,-35.363262500000005,149.16523725000002,61852.0,1.0,0.5,97.5,-2.5,38.5,-1009.0,-7.5,0.5,6.0,RTL
15:22:34,168018.0,0.060751104106505714,-0.002666427753865719,-0.49699802199999493,1.3421717882156372,0.001795674751823147,0.002983805723488331,-35.363263999999994,149.16523413333334,59840.0,11.666666666666666,18.333333333333332,97.66666666666667,-5.0,55.0,-1040.0,1344.6666666666667,3.0,6.333333333333333,RTL
15:22:36,168018.0,0.06670072923103969,0.004417690370852749,-0.4970249632994334,0.20550007124741873,0.004637622662509481,-0.014164510493477186,-35.363265266666666,149.16523093333333,57808.666666666664,29.0,46.0,102.0,0.6666666666666666,-29.666666666666668,-995.0,206.66666666666666,6.0,-10.0,RTL
15:22:37,25289.0,0.03698002174496651,0.009046896360814571,-0.49588019649187726,0.3575892597436905,0.0027153017775466046,-0.005020816577598453,-35.3632644,149.16523243333333,56526.333333333336,29.333333333333332,48.333333333333336,98.0,3.6666666666666665,-25.0,-1007.0,359.3333333333333,4.666666666666667,-1.3333333333333333,RTL
15:22:38,25289.0,0.023232371856768925,0.008664782779912153,-0.49592960874239606,-0.10271430263916652,-0.00515510980039835,-0.011152899824082851,-35.3632637,149.1652339,55761.333333333336,22.333333333333332,39.0,100.33333333333333,3.3333333333333335,-51.333333333333336,-970.0,-100.33333333333333,-3.3333333333333335,-7.0,RTL
15:22:40,25289.0,0.027410515273610752,0.003735233951980869,-0.4954302708307902,0.39542144536972046,-0.004500314670925339,0.0023758428481717906,-35.3632632,149.16523586666668,53714.333333333336,11.0,18.666666666666668,99.66666666666667,2.0,-24.666666666666668,-984.6666666666666,398.0,-2.6666666666666665,6.0,RTL
15:22:42,25289.0,0.017269973022242386,0.005971045543750127,-0.4956316550572713,1.0434889594713848,0.0050022344415386515,-0.0002824666444212198,-35.363262600000006,149.1652375333333,51661.666666666664,8.333333333333334,6.666666666666667,98.66666666666667,3.0,9.333333333333334,-992.3333333333334,1046.6666666666667,6.0,3.0,RTL
15:22:43,132159.0,-0.004119472034896414,0.007981000778575739,-0.49604329466819763,0.4044440935055415,-0.0025947982212528586,-0.009064677559460202,-35.363261533333336,149.16523949999998,50385.0,-0.6666666666666666,-8.0,98.33333333333333,2.6666666666666665,-28.0,-980.0,406.6666666666667,-1.0,-5.333333333333333,RTL
15:22:44,132159.0,-0.022107785567641258,0.008170412387698889,-0.49509547154108685,-0.4064170519510905,-0.0004863646657516559,-0.010637680068612099,-35.363261,149.16524060000003,49620.0,-6.0,-17.666666666666668,97.33333333333333,4.0,-56.333333333333336,-985.3333333333334,-404.0,1.0,-6.333333333333333,RTL
15:22:46,132159.0,-0.053315057108799614,0.003739678611358007,-0.49646662672360736,-1.3796460628509521,-0.007116119338509937,-0.0005262226331979036,-35.363260033333326,149.16524283333334,47585.333333333336,-19.333333333333332,-38.666666666666664,97.0,1.0,-57.333333333333336,-978.6666666666666,-1375.6666666666667,-5.333333333333333,3.0,RTL
15:22:48,132159.0,-0.04679146036505699,0.0010555060386347275,-0.4962739845116933,-1.3369619051615398,-0.004926772594141464,-0.0011466496313611667,-35.363260333333336,149.16524246666668,45534.0,-21.333333333333332,-43.0,99.66666666666667,-1.3333333333333333,-40.0,-970.3333333333334,-1333.0,-3.3333333333333335,2.3333333333333335,RTL
15:22:49,54105.0,-0.03398839756846428,0.0008775187258531029,-0.49581613143285114,-0.7751479546229044,0.004030776132519047,-0.001585854683071375,-35.3632608,149.16524133333334,44260.0,-16.333333333333332,-36.333333333333336,95.66666666666667,-2.0,-0.6666666666666666,-994.6666666666666,-770.3333333333334,5.333333333333333,1.6666666666666667,RTL
15:22:50,54105.0,-0.03687581419944763,0.0026393752389897904,-0.4962971806526184,-0.6229591369628906,0.000938074003594617,0.0017362556730707486,-35.36326093333333,149.16524093333334,43490.333333333336,-14.0,-32.333333333333336,98.0,-1.0,5.333333333333333,-1045.6666666666667,-618.0,2.0,4.666666666666667,RTL
15:22:52,54105.0,-0.0322368536144495,0.0030885517286757627,-0.4953843255837758,-0.2645077705383301,-0.0027849977680792413,0.005041209515184164,-35.3632612,149.1652402,41458.0,-10.333333333333334,-24.333333333333332,98.66666666666667,-1.0,34.666666666666664,-948.6666666666666,-259.6666666666667,-1.0,8.333333333333334,RTL
15:22:54,54105.0,-0.02650830273826917,0.0025135164614766836,-0.4957919518152873,-0.29170111985877156,-0.0008485361274021367,-0.00019155295255283514,-35.3632614,149.1652396,39441.0,-8.666666666666666,-19.666666666666668,99.0,-1.0,25.333333333333332,-959.0,-287.3333333333333,0.0,3.0,RTL
15:22:55,86359.0,0.0037531776276106634,0.0006087993533583358,-0.49677841862042743,1.1621121565500896,0.0006728846346959472,0.00010077763969699542,-35.3632618,149.16523883333335,38161.0,-6.666666666666667,-15.0,101.33333333333333,-3.3333333333333335,76.33333333333333,-994.0,1164.6666666666667,1.3333333333333333,3.3333333333333335,RTL
15:22:56,86359.0,0.019405812956392765,-0.0007787372305756435,-0.49596066276232403,1.3636541366577148,-0.003213906893506646,-0.004010385212798913,-35.36326223333333,149.16523786666667,37400.333333333336,-3.3333333333333335,-9.333333333333334,99.0,-2.0,77.0,-993.6666666666666,1366.3333333333333,-1.6666666666666667,-1.0,RTL
15:22:58,86359.0,0.04366251081228256,0.002815613173879683,-0.49606455365816754,1.269741137822469,0.0031069465912878513,0.004204094409942627,-35.363263366666665,149.1652351,35373.0,8.0,12.0,102.33333333333333,-1.3333333333333333,39.666666666666664,-1006.0,1270.3333333333333,4.333333333333333,7.333333333333333,RTL
15:23:00,86359.0,0.03950032964348793,0.006006139641006787,-0.49562038977940875,1.3832474946975708,0.0017403882229700685,0.0006067624781280756,-35.36326333333333,149.16523453333332,33332.333333333336,12.666666666666666,23.666666666666668,100.0,0.6666666666666666,37.0,-1028.0,1384.6666666666667,2.6666666666666665,4.0,RTL
15:23:01,37101.0,0.017499393473068874,0.005583760018150012,-0.4949871301651001,1.340990424156189,0.0019218858797103167,0.003302943737556537,-35.36326303333333,149.16523536666668,32055.0,11.333333333333334,22.333333333333332,100.33333333333333,0.3333333333333333,67.0,-1019.6666666666666,1343.6666666666667,3.0,6.0,RTL
15:23:02,37101.0,0.02752530761063099,0.005169312780102094,-0.4952300588289897,1.3691856463750203,-8.910917676985264e-05,0.0007300275222708782,-35.36326296666667,149.1652357,31292.0,9.0,17.0,100.33333333333333,1.6666666666666667,48.333333333333336,-1002.0,1371.3333333333333,1.0,3.3333333333333335,RTL
15:23:04,37101.0,0.011408351827412844,0.006317852841069301,-0.4959871272246043,1.403586705525716,0.004394289882232745,0.0010630656033754349,-35.36326246666667,149.16523723333333,29241.333333333332,6.666666666666667,8.333333333333334,100.33333333333333,4.333333333333333,58.0,-1032.6666666666667,1406.0,6.0,4.0,RTL
15:23:06,37101.0,0.005803075929482778,0.001040146453306079,-0.4956308603286743,1.1513462662696838,0.00017014145851135254,-7.658738953371842e-05,-35.3632619,149.16523903333336,27198.333333333332,-1.3333333333333333,-7.333333333333333,102.33333333333333,-0.3333333333333333,65.33333333333333,-1020.0,1154.0,1.3333333333333333,3.3333333333333335,RTL
15:23:07,16677.0,0.004345221173328658,-0.0017193194944411516,-0.4964594344298045,0.832208514213562,-0.0041021980966130895,0.004090593584502737,-35.36326233333333,149.16523823333333,25920.333333333332,-1.0,-6.0,99.66666666666667,-5.0,73.66666666666667,-997.3333333333334,836.3333333333334,-2.3333333333333335,6.666666666666667,RTL
15:23:08,16677.0,0.03672510137160619,-0.003795650787651539,-0.49647892514864606,1.222420374552409,0.0014088651708637674,0.0022961264476180077,-35.363263100000005,149.16523646666667,25159.666666666668,2.0,0.3333333333333333,99.66666666666667,-6.333333333333333,85.33333333333333,-994.3333333333334,1226.6666666666667,2.6666666666666665,5.666666666666667,RTL
15:23:10,16677.0,0.07060706118742625,0.0017236579830447833,-0.4948742588361104,1.4610459407170613,0.0024106381461024284,0.00014902247736851373,-35.363265033333334,149.16523170000002,23134.0,24.0,37.333333333333336,99.66666666666667,-1.3333333333333333,60.666666666666664,-1014.6666666666666,1464.6666666666667,3.3333333333333335,3.6666666666666665,RTL
15:23:12,16677.0,0.028896361589431763,0.01038266314814488,-0.49421530961990356,1.4097028970718384,0.0016243749996647239,0.0032076938077807426,-35.363264066666666,149.16523273333334,21098.0,27.333333333333332,47.666666666666664,101.33333333333333,3.6666666666666665,61.666666666666664,-1035.0,1414.6666666666667,2.6666666666666665,6.0,RTL
15:23:13,249811.0,0.008498199516907334,0.007612786876658599,-0.49414973457654315,0.9738597869873047,-0.0008884566486813128,0.003130085455874602,-35.3632632,149.1652348,19816.333333333332,16.666666666666668,32.666666666666664,100.66666666666667,1.6666666666666667,70.66666666666667,-1011.0,980.0,0.0,6.333333333333333,RTL
15:23:14,249811.0,0.010938503546640277,0.00631208469470342,-0.49411215384801227,1.134440004825592,-0.002314765239134431,0.007661631020406882,-35.36326293333334,149.1652356,19046.0,12.0,24.666666666666668,102.66666666666667,2.3333333333333335,67.0,-984.0,1140.0,-1.0,10.333333333333334,RTL
15:23:16,249811.0,0.009603900834918022,0.00595292200644811,-0.4945252637068431,1.3896194696426392,-0.001898144759858648,-0.0002443252597004175,-35.36326209999999,149.16523803333334,16997.666666666668,4.0,5.333333333333333,100.66666666666667,1.6666666666666667,46.0,-1006.3333333333334,1393.6666666666667,-0.6666666666666666,2.6666666666666665,RTL
15:23:18,249811.0,0.02750324209531148,-0.000880430847852646,-0.4952365656693776,0.7454594373703003,-0.0066381520591676235,-0.006338079071914156,-35.3632624,149.1652379,14953.0,-1.0,-4.0,103.33333333333333,-2.0,3.3333333333333335,-971.6666666666666,748.0,-5.333333333333333,-3.0,RTL
15:23:19,127099.0,0.033516112715005875,0.001750750020922472,-0.49406692385673523,0.3409487505753835,0.004818551824428141,0.0019106181183209021,-35.363262966666674,149.16523653333334,13671.333333333334,4.666666666666667,2.3333333333333335,100.33333333333333,0.3333333333333333,-22.666666666666668,-1001.0,343.0,5.333333333333333,4.333333333333333,RTL
15:23:20,127099.0,0.01452400969962279,0.005360610006997983,-0.4938874344031016,-0.5072776476542155,0.0037606394616886973,-0.00874676244954268,-35.3632629,149.1652365,12902.666666666666,7.333333333333333,6.0,99.66666666666667,2.0,-66.33333333333333,-980.3333333333334,-504.3333333333333,4.333333333333333,-5.0,RTL
15:23:22,127099.0,-0.019678052825232346,0.004403213349481423,-0.4944378634293874,-0.19828451673189798,-0.005953046338011821,0.004022607812657952,-35.3632617,149.16523886666664,11233.0,-1.6666666666666667,-5.333333333333333,33.333333333333336,-0.6666666666666666,1.6666666666666667,-1063.0,-193.0,-4.666666666666667,6.666666666666667,RTL
15:23:24,127099.0,0.005504174934079249,0.0018362525540093582,-0.49424957235654193,0.05319945762554804,0.002112148329615593,0.0028554036592443786,-35.36326243333334,149.16523733333335,10713.666666666666,0.0,-1.3333333333333333,30.666666666666668,-1.3333333333333333,25.333333333333332,-995.0,59.666666666666664,2.6666666666666665,5.666666666666667,RTL
15:23:25,25449.0,0.006001315778121352,0.005564076825976372,-0.4941798647244771,-0.2214928170045217,0.0028513306363796196,-0.003184323043872913,-35.3632625,149.165237,10308.0,2.0,2.0,32.666666666666664,0.0,-27.666666666666668,-1001.6666666666666,-218.0,3.3333333333333335,0.0,RTL
15:23:26,25449.0,-0.005106949630620268,0.006973211498310168,-0.49382654825846356,-0.13537254184484482,6.557145388796926e-05,0.0015393441232542198,-35.3632623,149.16523706666666,10055.0,2.0,3.0,34.0,0.6666666666666666,9.666666666666666,-1001.3333333333334,-129.33333333333334,0.3333333333333333,4.333333333333333,RTL
15:23:28,25449.0,-0.0222622857739528,0.007697847516586383,-0.4942121704419454,-0.22690541545550028,-0.0034808218091105423,-0.00023336599891384444,-35.3632613,149.1652389666667,9369.666666666666,-5.0,-6.0,33.0,1.0,5.0,-996.0,-221.0,-2.0,2.0,RTL
