time_stamp,MODE,lat,lon,relative_alt,roll,pitch,yaw,rollspeed,pitchspeed,yawspeed,xacc,yacc,zacc,xgyro,ygyro,zgyro,vx,vy,vz,RTL_ALT
15:17:11.241,STABILIZE,-35.3632621,149.1652374,62,-0.0003535974828992039,0.001437207916751504,0.030139202252030373,0.00014744096552021801,0.0002599780564196408,0.002439882606267929,0,1,-1000,0,0,0,0,0,-3,224491.0
15:17:11.442,STABILIZE,-35.3632621,149.1652374,62,-0.0003535974828992039,0.001437207916751504,0.030139202252030373,0.00014744096552021801,0.0002599780564196408,0.002439882606267929,0,1,-1000,0,0,0,0,0,-3,224491.0
15:17:11.643,STABILIZE,-35.3632621,149.1652374,62,-0.0003535974828992039,0.001437207916751504,0.030139202252030373,0.00014744096552021801,0.0002599780564196408,0.002439882606267929,0,1,-1000,0,0,0,0,0,-3,224491.0
15:17:11.843,STABILIZE,-35.3632621,149.1652374,62,-0.0003535974828992039,0.001437207916751504,0.030139202252030373,0.00014744096552021801,0.0002599780564196408,0.002439882606267929,0,1,-1000,0,0,0,0,0,-3,224491.0
15:17:12.044,STABILIZE,-35.3632621,149.1652374,62,-0.0003535974828992039,0.001437207916751504,0.030139202252030373,0.00014744096552021801,0.0002599780564196408,0.002439882606267929,0,1,-1000,0,0,0,0,0,-3,224491.0
15:17:12.245,STABILIZE,-35.3632621,149.1652374,62,-0.0003535974828992039,0.001437207916751504,0.030139202252030373,0.00014744096552021801,0.0002599780564196408,0.002439882606267929,0,1,-1000,0,0,0,0,0,-3,224491.0
15:17:12.445,STABILIZE,-35.3632621,149.1652374,62,-0.0003535974828992039,0.001437207916751504,0.030139202252030373,0.00014744096552021801,0.0002599780564196408,0.002439882606267929,0,1,-1000,0,0,0,0,0,-3,224491.0
15:17:12.646,STABILIZE,-35.3632621,149.1652374,62,-0.0003535974828992039,0.001437207916751504,0.030139202252030373,0.00014744096552021801,0.0002599780564196408,0.002439882606267929,0,1,-1000,0,0,0,0,0,-3,224491.0
15:17:12.847,STABILIZE,-35.3632621,149.1652375,50,-2.7130954549647868e-05,0.0015914114192128181,0.028705913573503494,0.00028530051349662244,0.0002253169077448547,0.0024177883751690388,0,0,-1001,0,0,0,-2,3,0,224491.0
15:17:13.048,STABILIZE,-35.3632621,149.1652375,43,-2.7130954549647868e-05,0.0015914114192128181,0.028705913573503494,0.00028530051349662244,0.0002253169077448547,0.0024177883751690388,0,1,-1000,0,0,0,-2,3,0,224491.0
15:17:13.250,STABILIZE,-35.3632621,149.1652375,43,-2.7130954549647868e-05,0.0015914114192128181,0.028705913573503494,0.00028530051349662244,0.0002253169077448547,0.0024177883751690388,0,1,-1000,0,1,0,-2,3,0,224491.0
15:17:13.452,STABILIZE,-35.3632621,149.1652375,43,-2.7130954549647868e-05,0.0015914114192128181,0.028705913573503494,0.00028530051349662244,0.0002253169077448547,0.0024177883751690388,0,1,-1000,0,1,0,-2,3,0,224491.0
15:17:13.653,STABILIZE,-35.3632622,149.1652376,35,-2.7130954549647868e-05,0.0015914114192128181,0.028705913573503494,0.00028530051349662244,0.0002253169077448547,0.0024177883751690388,0,1,-1000,0,0,0,-2,2,0,224491.0
15:17:13.855,STABILIZE,-35.3632622,149.1652376,35,-2.7130954549647868e-05,0.0015914114192128181,0.028705913573503494,0.00028530051349662244,0.0002253169077448547,0.0024177883751690388,0,1,-1000,0,0,0,-2,2,0,224491.0
15:17:14.058,STABILIZE,-35.3632622,149.1652376,35,-2.7130954549647868e-05,0.0015914114192128181,0.028705913573503494,0.00028530051349662244,0.0002253169077448547,0.0024177883751690388,0,1,-1000,0,0,0,-2,2,0,224491.0
15:17:14.259,STABILIZE,-35.3632622,149.1652376,35,-2.7130954549647868e-05,0.0015914114192128181,0.028705913573503494,0.00028530051349662244,0.0002253169077448547,0.0024177883751690388,0,1,-1000,0,0,0,-2,2,0,224491.0
15:17:14.461,STABILIZE,-35.3632622,149.1652375,34,-0.0008809685241430998,0.0012373075587674975,0.027623727917671204,0.00020240904996171594,0.00026817654725164175,0.0021263654343783855,0,1,-1000,0,0,0,-1,1,0,224491.0
15:17:14.663,STABILIZE,-35.3632622,149.1652375,33,-0.0008809685241430998,0.0012373075587674975,0.027623727917671204,0.00020240904996171594,0.00026817654725164175,0.0021263654343783855,0,1,-1000,0,0,0,-1,1,0,224491.0
15:17:14.864,STABILIZE,-35.3632622,149.1652375,33,-0.0008809685241430998,0.0012373075587674975,0.027623727917671204,0.00020240904996171594,0.00026817654725164175,0.0021263654343783855,0,1,-1000,0,0,0,-1,1,0,224491.0
15:17:15.066,STABILIZE,-35.3632622,149.1652375,33,-0.0008809685241430998,0.0012373075587674975,0.027623727917671204,0.00020240904996171594,0.00026817654725164175,0.0021263654343783855,0,1,-1000,0,0,0,-1,1,0,224491.0
15:17:15.268,STABILIZE,-35.3632622,149.1652375,33,-0.0008809685241430998,0.0012373075587674975,0.027623727917671204,0.00020240904996171594,0.00026817654725164175,0.0021263654343783855,0,1,-1000,0,0,0,-1,1,0,224491.0
15:17:15.470,STABILIZE,-35.3632622,149.1652375,33,-0.0011665112106129527,0.0010848260717466474,0.027151508256793022,9.370927000418305e-05,0.00023025990230962634,0.002251747064292431,0,1,-1000,0,1,0,-1,0,0,224491.0
15:17:15.671,STABILIZE,-35.3632622,149.1652375,33,-0.0011665112106129527,0.0010848260717466474,0.027151508256793022,9.370927000418305e-05,0.00023025990230962634,0.002251747064292431,0,1,-1000,1,0,0,-1,0,0,224491.0
15:17:15.873,STABILIZE,-35.3632622,149.1652375,33,-0.0011665112106129527,0.0010848260717466474,0.027151508256793022,9.370927000418305e-05,0.00023025990230962634,0.002251747064292431,0,1,-1000,1,0,0,-1,0,0,224491.0
15:17:16.075,STABILIZE,-35.3632622,149.1652375,33,-0.0011665112106129527,0.0010848260717466474,0.027151508256793022,9.370927000418305e-05,0.00023025990230962634,0.002251747064292431,0,1,-1000,1,0,0,-1,0,0,224491.0
15:17:16.276,STABILIZE,-35.3632622,149.1652375,33,-0.0011665112106129527,0.0010848260717466474,0.027151508256793022,9.370927000418305e-05,0.00023025990230962634,0.002251747064292431,0,1,-1000,1,0,0,-1,0,0,224491.0
15:17:16.478,STABILIZE,-35.3632622,149.1652375,33,-0.0011665112106129527,0.0010848260717466474,0.027151508256793022,9.370927000418305e-05,0.00023025990230962634,0.002251747064292431,0,1,-1000,1,0,0,-1,0,0,224491.0
15:17:16.680,STABILIZE,-35.3632622,149.1652375,21,-0.0010863138595595956,0.0009899550350382924,0.02662654034793377,0.0002220261376351118,0.00032492223544977605,0.0019587965216487646,0,1,-1000,0,0,0,-1,2,2,224491.0
15:17:16.882,STABILIZE,-35.3632622,149.1652375,21,-0.0010863138595595956,0.0009899550350382924,0.02662654034793377,0.0002220261376351118,0.00032492223544977605,0.0019587965216487646,0,1,-1000,0,0,0,-1,2,2,224491.0
15:17:17.084,STABILIZE,-35.3632622,149.1652375,21,-0.0010863138595595956,0.0009899550350382924,0.02662654034793377,0.0002220261376351118,0.00032492223544977605,0.0019587965216487646,0,1,-1000,0,1,0,-1,2,2,224491.0
15:17:17.286,STABILIZE,-35.3632621,149.1652375,18,-0.0010863138595595956,0.0009899550350382924,0.02662654034793377,0.0002220261376351118,0.00032492223544977605,0.0019587965216487646,0,1,-1000,0,1,0,-1,1,1,224491.0
15:17:17.488,STABILIZE,-35.3632621,149.1652375,17,-0.0013189746532589197,0.000972255424130708,0.026331249624490738,0.0002009748131968081,0.00029407572583295405,0.0018552334513515234,0,1,-1000,0,0,0,-1,1,1,224491.0
15:17:17.690,STABILIZE,-35.3632621,149.1652375,17,-0.0013189746532589197,0.000972255424130708,0.026331249624490738,0.0002009748131968081,0.00029407572583295405,0.0018552334513515234,0,1,-1000,0,0,0,-1,1,1,224491.0
15:17:17.892,STABILIZE,-35.3632621,149.1652375,17,-0.0013189746532589197,0.000972255424130708,0.026331249624490738,0.0002009748131968081,0.00029407572583295405,0.0018552334513515234,0,1,-1000,0,0,0,-1,1,1,224491.0
15:17:18.105,STABILIZE,-35.3632621,149.1652375,17,-0.0013189746532589197,0.000972255424130708,0.026331249624490738,0.0002009748131968081,0.00029407572583295405,0.0018552334513515234,0,1,-1000,0,0,0,-1,1,1,224491.0
15:17:18.308,STABILIZE,-35.3632621,149.1652375,17,-0.0013189746532589197,0.000972255424130708,0.026331249624490738,0.0002009748131968081,0.00029407572583295405,0.0018552334513515234,0,1,-1000,0,0,0,-1,1,1,224491.0
15:17:18.509,STABILIZE,-35.3632621,149.1652375,17,-0.0013189746532589197,0.000972255424130708,0.026331249624490738,0.0002009748131968081,0.00029407572583295405,0.0018552334513515234,0,1,-1000,0,0,0,-1,1,1,224491.0
15:17:18.711,STABILIZE,-35.3632621,149.1652375,17,-0.0014917353400960565,0.0009427664917893708,0.02591071091592312,0.00016224943101406097,0.00012136955047026277,0.0018620304763317108,0,1,-1000,0,0,0,-1,0,0,224491.0
15:17:18.912,STABILIZE,-35.3632621,149.1652375,17,-0.0014917353400960565,0.0009427664917893708,0.02591071091592312,0.00016224943101406097,0.00012136955047026277,0.0018620304763317108,0,1,-1000,1,0,0,-1,0,0,224491.0
15:17:19.114,STABILIZE,-35.3632621,149.1652375,17,-0.0014917353400960565,0.0009427664917893708,0.02591071091592312,0.00016224943101406097,0.00012136955047026277,0.0018620304763317108,0,1,-1000,1,0,0,-1,0,0,224491.0
15:17:19.316,STABILIZE,-35.3632621,149.1652375,17,-0.0014917353400960565,0.0009427664917893708,0.02591071091592312,0.00016224943101406097,0.00012136955047026277,0.0018620304763317108,0,1,-1000,1,0,0,-1,0,0,224491.0
15:17:19.518,STABILIZE,-35.3632621,149.1652375,17,-0.0014917353400960565,0.0009427664917893708,0.02591071091592312,0.00016224943101406097,0.00012136955047026277,0.0018620304763317108,0,1,-1000,1,0,0,-1,0,0,224491.0
15:17:19.721,STABILIZE,-35.3632621,149.1652375,19,-0.001495687523856759,0.0009318073280155659,0.02560407668352127,0.00014404242392629385,0.0002527917386032641,0.0018459444399923086,0,1,-1000,0,0,0,-1,0,0,224491.0
15:17:19.924,STABILIZE,-35.3632621,149.1652375,19,-0.001495687523856759,0.0009318073280155659,0.02560407668352127,0.00014404242392629385,0.0002527917386032641,0.0018459444399923086,0,1,-1000,0,0,0,-1,0,0,224491.0
15:17:20.126,STABILIZE,-35.3632621,149.1652375,19,-0.001495687523856759,0.0009318073280155659,0.02560407668352127,0.00014404242392629385,0.0002527917386032641,0.0018459444399923086,0,1,-1000,0,0,0,-1,0,0,224491.0
15:17:20.327,STABILIZE,-35.3632621,149.1652375,19,-0.001495687523856759,0.0009318073280155659,0.02560407668352127,0.00014404242392629385,0.0002527917386032641,0.0018459444399923086,0,1,-1000,0,0,0,-1,0,0,224491.0
15:17:20.529,STABILIZE,-35.3632621,149.1652375,22,-0.0014576499816030264,0.000938856101129204,0.025373466312885284,0.00033066602190956473,0.0002233473933301866,0.0017548527102917433,0,2,-1000,0,0,0,-1,0,0,224491.0
15:17:20.731,STABILIZE,-35.3632621,149.1652375,22,-0.0014576499816030264,0.000938856101129204,0.025373466312885284,0.00033066602190956473,0.0002233473933301866,0.0017548527102917433,0,2,-1000,0,0,0,-1,0,0,224491.0
15:17:20.933,STABILIZE,-35.3632621,149.1652375,24,-0.0014373718295246363,0.0009464950999245048,0.02523384802043438,0.00023673888063058257,0.00018249533604830503,0.0018251751316711307,0,2,-1000,0,0,0,-1,0,0,224491.0
15:17:21.135,STABILIZE,-35.3632621,149.1652375,24,-0.0014373718295246363,0.0009464950999245048,0.02523384802043438,0.00023673888063058257,0.00018249533604830503,0.0018251751316711307,0,2,-1000,0,0,0,-1,0,0,224491.0
15:17:21.336,STABILIZE,-35.3632621,149.1652375,25,-0.0014150915667414665,0.0009484669426456094,0.025161132216453552,0.00018682656809687614,0.00038981984835118055,0.0016786281485110521,0,1,-1000,0,0,0,-1,0,0,224491.0
15:17:21.538,STABILIZE,-35.3632621,149.1652375,26,-0.0014001791132614017,0.0009500454179942608,0.025091681629419327,0.00023872533347457647,0.00029925262788310647,0.0017383387312293053,0,1,-1000,0,0,0,-1,0,0,224491.0
15:17:21.740,STABILIZE,-35.3632621,149.1652375,26,-0.0013875699369236827,0.0009547800291329622,0.025012709200382233,0.00029094121418893337,0.00020217220298945904,0.0016104450915008783,0,1,-1000,0,0,0,-1,0,0,224491.0
15:17:21.942,STABILIZE,-35.3632621,149.1652375,26,-0.0013875699369236827,0.0009547800291329622,0.025012709200382233,0.00029094121418893337,0.00020217220298945904,0.0016104450915008783,0,1,-1000,0,0,0,-1,0,0,224491.0
15:17:22.143,STABILIZE,-35.3632621,149.1652375,26,-0.0013875699369236827,0.0009547800291329622,0.025012709200382233,0.00029094121418893337,0.00020217220298945904,0.0016104450915008783,0,1,-1000,0,0,0,-1,0,0,224491.0
15:17:22.345,STABILIZE,-35.3632621,149.1652375,26,-0.0013875699369236827,0.0009547800291329622,0.025012709200382233,0.00029094121418893337,0.00020217220298945904,0.0016104450915008783,0,1,-1000,0,0,0,-1,0,0,224491.0
15:17:22.547,STABILIZE,-35.3632622,149.1652375,30,-0.0013436505105346441,0.0009551341645419598,0.02480398677289486,0.00029443937819451094,0.000390404078643769,0.0017239435110241175,0,1,-1000,0,0,0,-1,0,0,224491.0
15:17:22.748,STABILIZE,-35.3632622,149.1652375,30,-0.0013436505105346441,0.0009551341645419598,0.02480398677289486,0.00029443937819451094,0.000390404078643769,0.0017239435110241175,0,1,-1000,0,0,0,-1,0,0,224491.0
15:17:22.950,STABILIZE,-35.3632622,149.1652375,32,-0.00132359575945884,0.0009643108933232725,0.024652279913425446,0.00014469603775069118,0.0002615992561914027,0.0016783636528998613,0,1,-1000,0,0,0,-1,0,-1,224491.0
15:17:23.152,STABILIZE,-35.3632622,149.1652375,36,-0.0011435687774792314,0.0009639126947149634,0.02457076497375965,0.0002167405909858644,0.00021080969600006938,0.001573011977598071,0,1,-1000,0,0,0,-1,0,-2,224491.0
15:17:23.354,STABILIZE,-35.3632622,149.1652375,36,-0.0011435687774792314,0.0009639126947149634,0.02457076497375965,0.0002167405909858644,0.00021080969600006938,0.001573011977598071,0,1,-1000,0,0,0,-1,0,-2,224491.0
15:17:23.555,STABILIZE,-35.3632622,149.1652375,36,-0.0011435687774792314,0.0009639126947149634,0.02457076497375965,0.0002167405909858644,0.00021080969600006938,0.001573011977598071,0,1,-1000,0,0,0,-1,0,-2,224491.0
15:17:23.757,STABILIZE,-35.3632622,149.1652375,36,-0.0011435687774792314,0.0009639126947149634,0.02457076497375965,0.0002167405909858644,0.00021080969600006938,0.001573011977598071,0,1,-1000,0,0,0,-1,0,-2,224491.0
15:17:23.960,STABILIZE,-35.3632622,149.1652375,36,-0.0011435687774792314,0.0009639126947149634,0.02457076497375965,0.0002167405909858644,0.00021080969600006938,0.001573011977598071,0,1,-1000,0,0,0,-1,0,-2,224491.0
15:17:24.161,STABILIZE,-35.3632622,149.1652375,36,-0.0011435687774792314,0.0009639126947149634,0.02457076497375965,0.0002167405909858644,0.00021080969600006938,0.001573011977598071,0,1,-1000,0,0,0,-1,0,-2,224491.0
15:17:24.363,STABILIZE,-35.3632622,149.1652375,36,-0.0011435687774792314,0.0009639126947149634,0.02457076497375965,0.0002167405909858644,0.00021080969600006938,0.001573011977598071,0,1,-1000,0,0,0,-1,0,-2,224491.0
15:17:24.565,STABILIZE,-35.3632622,149.1652375,36,-0.0011435687774792314,0.0009639126947149634,0.02457076497375965,0.0002167405909858644,0.00021080969600006938,0.001573011977598071,0,1,-1000,0,0,0,-1,0,-2,224491.0
15:17:24.766,STABILIZE,-35.3632622,149.1652375,49,-0.0009173748549073935,0.0009658055496402085,0.024096444249153137,0.0002659154706634581,0.00015040842117741704,0.0016502256039530039,0,2,-1000,0,0,0,-1,0,-2,224491.0
15:17:24.968,STABILIZE,-35.3632622,149.1652375,49,-0.0009173748549073935,0.0009658055496402085,0.024096444249153137,0.0002659154706634581,0.00015040842117741704,0.0016502256039530039,0,2,-1000,0,0,0,-1,0,-2,224491.0
15:17:25.169,STABILIZE,-35.3632622,149.1652375,51,-0.0009173748549073935,0.0009658055496402085,0.024096444249153137,0.0002659154706634581,0.00015040842117741704,0.0016502256039530039,0,1,-1000,0,1,0,-1,0,-2,224491.0
15:17:25.371,STABILIZE,-35.3632622,149.1652375,51,-0.0009173748549073935,0.0009658055496402085,0.024096444249153137,0.0002659154706634581,0.00015040842117741704,0.0016502256039530039,0,1,-1000,0,1,0,-1,0,-2,224491.0
15:17:25.572,STABILIZE,-35.3632622,149.1652375,51,-0.0008494592038914561,0.0009655191097408533,0.023853501304984093,0.00026895158225670457,0.0002744848607107997,0.0017618323909118772,0,1,-1000,1,0,0,-1,1,-2,224491.0
15:17:25.774,STABILIZE,-35.3632622,149.1652375,52,-0.0008367535774596035,0.00096672005020082,0.02376922406256199,0.0003011146909557283,0.0002842891262844205,0.0015275124460458755,0,2,-1000,0,1,0,-1,1,-1,224491.0
15:17:25.976,STABILIZE,-35.3632622,149.1652375,52,-0.0008367535774596035,0.00096672005020082,0.02376922406256199,0.0003011146909557283,0.0002842891262844205,0.0015275124460458755,0,2,-1000,0,1,0,-1,1,-1,224491.0
15:17:26.178,STABILIZE,-35.3632622,149.1652375,52,-0.0008367535774596035,0.00096672005020082,0.02376922406256199,0.0003011146909557283,0.0002842891262844205,0.0015275124460458755,0,2,-1000,0,1,0,-1,1,-1,224491.0
15:17:26.379,STABILIZE,-35.3632622,149.1652375,52,-0.0008367535774596035,0.00096672005020082,0.02376922406256199,0.0003011146909557283,0.0002842891262844205,0.0015275124460458755,0,2,-1000,0,1,0,-1,1,-1,224491.0
15:17:26.581,STABILIZE,-35.3632622,149.1652375,53,-0.0008243421325460076,0.0009821605635806918,0.023513222113251686,0.0003246191772632301,0.0003155073500238359,0.0015573205891996622,0,2,-1000,0,0,0,-1,1,-1,224491.0
15:17:26.783,STABILIZE,-35.3632622,149.1652375,59,-0.0008275298750959337,0.0009742815745994449,0.02343461662530899,0.0001782724866643548,0.00029385689413174987,0.0015347411390393972,0,1,-1000,0,1,0,-1,0,-4,224491.0
15:17:26.985,AUTO,-35.3632622,149.1652375,64,-0.0007986940909177065,0.0009814101504161954,0.023359602317214012,0.0001756912679411471,0.0002530540805310011,0.0015929299406707287,0,1,-1000,1,0,1,-1,0,-4,224491.0
15:17:27.188,AUTO,-35.3632622,149.1652375,7,-0.0007404686766676605,0.0009831773350015283,0.023282893002033234,0.00032210012432187796,0.00023412768496200442,0.0015811158809810877,0,1,-1000,0,1,0,-1,0,-4,224491.0
15:17:27.389,AUTO,-35.3632622,149.1652375,7,-0.0007404686766676605,0.0009831773350015283,0.023282893002033234,0.00032210012432187796,0.00023412768496200442,0.0015811158809810877,0,1,-1000,0,1,0,-1,0,-4,224491.0
15:17:27.591,AUTO,-35.3632622,149.1652375,10,-0.0006815697997808456,0.0009788630995899439,0.02322372980415821,0.00034988299012184143,0.000161590869538486,0.0016311230137944221,0,2,-1000,1,1,0,-1,0,-4,224491.0
15:17:27.793,AUTO,-35.3632622,149.1652375,13,-0.0006348304450511932,0.0009830788476392627,0.023135192692279816,0.00031056220177561045,0.00023969367612153292,0.00157672178465873,0,1,-1000,0,1,0,-1,0,-3,224491.0
15:17:27.995,AUTO,-35.3632622,149.1652375,13,-0.0006348304450511932,0.0009830788476392627,0.023135192692279816,0.00031056220177561045,0.00023969367612153292,0.00157672178465873,0,1,-1000,0,1,0,-1,0,-3,224491.0
15:17:28.197,AUTO,-35.3632622,149.1652375,13,-0.0006348304450511932,0.0009830788476392627,0.023135192692279816,0.00031056220177561045,0.00023969367612153292,0.00157672178465873,0,1,-1000,0,1,0,-1,0,-3,224491.0
15:17:28.410,AUTO,-35.3632621,149.1652375,17,-0.0004929258720949292,0.0011007426073774695,0.022894112393260002,0.0003098761080764234,0.00023490103194490075,0.0015339176170527935,0,1,-1000,0,0,0,0,0,-3,224491.0
15:17:28.679,AUTO,-35.3632621,149.1652375,18,-0.00043652986641973257,0.0011504209833219647,0.022813109681010246,0.0003919659648090601,0.0002189573715440929,0.0015117477159947157,0,2,-1000,1,1,0,0,0,-2,224491.0
15:17:28.889,AUTO,-35.3632621,149.1652375,18,-0.00043652986641973257,0.0011504209833219647,0.022813109681010246,0.0003919659648090601,0.0002189573715440929,0.0015117477159947157,0,2,-1000,1,1,0,0,0,-2,224491.0
15:17:29.154,AUTO,-35.3632621,149.1652375,19,-0.0003114213468506932,0.001278033945709467,0.02262856997549534,0.000321757048368454,0.0003215129254385829,0.001430037897080183,0,2,-1000,1,1,0,0,0,-2,224491.0
15:17:29.436,AUTO,-35.3632621,149.1652375,19,-0.0002496946253813803,0.0013466549571603537,0.022526627406477928,0.0003370176418684423,0.0003290576860308647,0.0014489101013168693,0,2,-1000,0,0,0,0,0,-2,224491.0
15:17:29.654,AUTO,-35.3632621,149.1652375,19,-0.00018880762218032032,0.001413297257386148,0.022439954802393913,0.00026310532120987773,0.00028781458968296647,0.0014744062209501863,0,1,-1000,0,1,0,0,0,-2,224491.0
15:17:29.856,AUTO,-35.3632621,149.1652375,19,-0.00018880762218032032,0.001413297257386148,0.022439954802393913,0.00026310532120987773,0.00028781458968296647,0.0014744062209501863,0,1,-1000,0,1,0,0,0,-2,224491.0
15:17:30.058,AUTO,-35.3632621,149.1652375,19,-0.00018880762218032032,0.001413297257386148,0.022439954802393913,0.00026310532120987773,0.00028781458968296647,0.0014744062209501863,0,1,-1000,0,1,0,0,0,-2,224491.0
15:17:30.260,AUTO,-35.3632621,149.1652375,19,-0.00018880762218032032,0.001413297257386148,0.022439954802393913,0.00026310532120987773,0.00028781458968296647,0.0014744062209501863,0,1,-1000,0,1,0,0,0,-2,224491.0
15:17:30.462,AUTO,-35.3632621,149.1652375,17,0.0001519215147709474,0.0016282027354463935,0.02214912883937359,0.00036810903111472726,0.00033040152629837394,0.0014030628371983767,0,2,-1000,0,0,0,0,0,-1,224491.0
15:17:30.664,AUTO,-35.3632621,149.1652375,17,0.00022544102102983743,0.0017011603340506554,0.022059904411435127,0.0003712311736308038,0.00022506003733724356,0.001530536450445652,0,1,-1000,0,0,0,0,0,-1,8347.0
15:17:30.865,AUTO,-35.3632621,149.1652375,17,0.00022544102102983743,0.0017011603340506554,0.022059904411435127,0.0003712311736308038,0.00022506003733724356,0.001530536450445652,0,1,-1000,0,0,0,0,0,-1,8347.0
15:17:31.067,AUTO,-35.3632621,149.1652375,19,0.001097174477763474,0.0008845472475513816,0.0220445916056633,0.012546509504318237,-0.009670792147517204,0.002780793234705925,0,0,-1108,13,-9,2,0,0,-9,8347.0
15:17:31.269,AUTO,-35.3632621,149.1652375,80,0.0028599316719919443,-0.0004959146026521921,0.021990329027175903,0.0039454190991818905,0.0005738665349781513,0.001312721986323595,0,0,-1142,4,1,0,0,0,-43,8347.0
15:17:31.471,AUTO,-35.3632621,149.1652375,225,0.002442021854221821,0.0003065044875256717,0.02198881097137928,-0.007034264970570803,0.00405200244858861,0.0015876367688179016,0,0,-1130,-6,4,0,0,1,-76,8347.0
15:17:31.672,AUTO,-35.3632621,149.1652375,447,0.00210478319786489,0.0011591373477131128,0.021971693262457848,0.0005156332044862211,0.0024856904055923223,0.0024643982760608196,0,0,-1108,0,3,1,0,1,-105,8347.0
15:17:31.874,AUTO,-35.3632621,149.1652375,447,0.00210478319786489,0.0011591373477131128,0.021971693262457848,0.0005156332044862211,0.0024856904055923223,0.0024643982760608196,0,0,-1108,0,3,1,0,1,-105,8347.0
15:17:32.076,AUTO,-35.3632621,149.1652375,447,0.00210478319786489,0.0011591373477131128,0.021971693262457848,0.0005156332044862211,0.0024856904055923223,0.0024643982760608196,0,0,-1108,0,3,1,0,1,-105,8347.0
15:17:32.278,AUTO,-35.3632621,149.1652375,447,0.00210478319786489,0.0011591373477131128,0.021971693262457848,0.0005156332044862211,0.0024856904055923223,0.0024643982760608196,0,0,-1108,0,3,1,0,1,-105,8347.0
15:17:32.480,AUTO,-35.363262,149.1652375,1441,0.025540335103869438,-0.0014995416859164834,0.021393900737166405,0.04658856615424156,-0.007359654176980257,0.0022768850903958082,0,-1,-1015,47,-6,1,1,6,-146,8347.0
15:17:32.681,AUTO,-35.363262,149.1652377,1817,0.03690273314714432,-0.003398315981030464,0.021483752876520157,0.04468667879700661,-0.00777369923889637,0.0028759825509041548,0,-1,-1006,45,-6,2,2,13,-148,8347.0
15:17:32.883,AUTO,-35.363262,149.1652377,1817,0.03690273314714432,-0.003398315981030464,0.021483752876520157,0.04468667879700661,-0.00777369923889637,0.0028759825509041548,0,-1,-1006,45,-6,2,2,13,-148,8347.0
15:17:33.085,AUTO,-35.3632619,149.1652382,2198,0.0476115345954895,-0.0056608011946082115,0.0216838251799345,0.04162899777293205,-0.008980573154985905,0.003162337699905038,0,-4,-1002,42,-8,2,3,22,-149,8347.0
15:17:33.287,AUTO,-35.3632618,149.1652389,2580,0.057573333382606506,-0.008298658765852451,0.02188555710017681,0.03956490382552147,-0.011173402890563011,0.003598544280976057,0,-5,-999,40,-10,3,6,33,-148,8347.0
15:17:33.488,AUTO,-35.3632616,149.1652399,2961,0.06169848516583443,-0.007265615276992321,-0.01112174428999424,-0.03844161704182625,0.045901112258434296,-0.06567604094743729,1,-7,-991,-37,46,-66,9,46,-147,8347.0
15:17:33.691,AUTO,-35.3632613,149.1652412,3338,0.035433925688266754,0.016701379790902138,-0.03509879112243652,-0.15292653441429138,0.08293072879314423,-0.09798213094472885,4,-13,-992,-152,83,-98,9,54,-145,8347.0
15:17:33.893,AUTO,-35.3632613,149.1652412,3338,0.035433925688266754,0.016701379790902138,-0.03509879112243652,-0.15292653441429138,0.08293072879314423,-0.09798213094472885,4,-13,-992,-152,83,-98,9,54,-145,8347.0
15:17:34.095,AUTO,-35.3632613,149.1652412,3338,0.035433925688266754,0.016701379790902138,-0.03509879112243652,-0.15292653441429138,0.08293072879314423,-0.09798213094472885,4,-13,-992,-152,83,-98,9,54,-145,8347.0
15:17:34.297,AUTO,-35.3632613,149.1652412,3338,0.035433925688266754,0.016701379790902138,-0.03509879112243652,-0.15292653441429138,0.08293072879314423,-0.09798213094472885,4,-13,-992,-152,83,-98,9,54,-145,8347.0
15:17:34.568,AUTO,-35.3632609,149.1652452,4468,-0.03444208949804306,0.006987310014665127,-0.0673975944519043,-0.0603066049516201,-0.017502497881650925,-0.03364241495728493,4,-8,-1002,-59,-16,-34,2,37,-148,8347.0
15:17:34.855,AUTO,-35.3632608,149.165246,4850,-0.05416179448366165,0.004064804408699274,-0.07540349662303925,-0.09326303005218506,-0.004811757709830999,-0.03599881753325462,3,-6,-1000,-92,-4,-36,1,24,-148,8347.0
15:17:35.091,AUTO,-35.3632608,149.1652464,5235,-0.07895122468471527,0.003103505587205291,-0.08415845781564713,-0.0656827837228775,0.0012590226251631975,-0.03700462356209755,1,-2,-1005,-65,1,-37,0,5,-148,8347.0
15:17:35.347,AUTO,-35.3632608,149.1652463,5617,-0.07902640849351883,0.001988668693229556,-0.0917033776640892,0.03983408212661743,-0.004297437146306038,-0.02597942389547825,0,0,-1005,40,-3,-26,-1,-15,-148,8347.0
15:17:35.554,AUTO,-35.3632608,149.1652456,6000,-0.06686775386333466,0.0006691277958452702,-0.09732517600059509,0.05278094485402107,-0.0019629865419119596,-0.01785608008503914,-3,4,-1001,53,-1,-18,-3,-32,-148,8347.0
15:17:35.809,AUTO,-35.3632608,149.1652446,6383,-0.05280949920415878,0.0007188066956587136,-0.10160566121339798,0.057688675820827484,0.0034860698506236076,-0.012572133913636208,-5,8,-1000,58,4,-12,-5,-46,-148,8347.0
15:17:36.021,AUTO,-35.3632608,149.1652446,6383,-0.05280949920415878,0.0007188066956587136,-0.10160566121339798,0.057688675820827484,0.0034860698506236076,-0.012572133913636208,-5,8,-1000,58,4,-12,-5,-46,-148,8347.0
15:17:36.225,AUTO,-35.3632608,149.1652446,6383,-0.05280949920415878,0.0007188066956587136,-0.10160566121339798,0.057688675820827484,0.0034860698506236076,-0.012572133913636208,-5,8,-1000,58,4,-12,-5,-46,-148,8347.0
15:17:36.428,AUTO,-35.3632608,149.1652446,6383,-0.05280949920415878,0.0007188066956587136,-0.10160566121339798,0.057688675820827484,0.0034860698506236076,-0.012572133913636208,-5,8,-1000,58,4,-12,-5,-46,-148,6349.0
15:17:36.633,AUTO,-35.3632615,149.1652392,7687,0.002038263948634267,0.007951782085001469,-0.10677327960729599,0.06815510243177414,0.010268251411616802,-0.0007799977320246398,-6,12,-1004,68,10,-1,-13,-59,-150,6349.0
15:17:36.834,AUTO,-35.3632618,149.1652376,8075,0.019021540880203247,0.010379515588283539,-0.10656970739364624,0.06855019927024841,0.00855548307299614,0.001459159655496478,-5,12,-1004,69,9,0,-16,-54,-151,6349.0
15:17:37.036,AUTO,-35.3632622,149.1652362,8464,0.03584467992186546,0.01213249284774065,-0.10580219328403473,0.06655228137969971,0.005410496145486832,0.001577003626152873,-4,12,-1003,67,6,1,-18,-45,-152,6349.0
15:17:37.238,AUTO,-35.3632622,149.1652362,8464,0.03584467992186546,0.01213249284774065,-0.10580219328403473,0.06655228137969971,0.005410496145486832,0.001577003626152873,-4,12,-1003,67,6,1,-18,-45,-152,6349.0
15:17:37.440,AUTO,-35.3632627,149.1652351,8855,0.05219466984272003,0.012743670493364334,-0.10467156767845154,0.06444372236728668,0.00031515228329226375,0.003593198489397764,-1,11,-1003,64,1,3,-20,-32,-152,6349.0
15:17:37.642,AUTO,-35.3632632,149.1652344,9248,0.0676870122551918,0.01194873545318842,-0.1035025343298912,0.06078611686825752,-0.005898055620491505,0.0046677193604409695,0,7,-1001,61,-5,4,-21,-15,-152,6349.0
15:17:37.844,AUTO,-35.3632636,149.1652341,9639,0.070737324655056,-0.0003090132668148726,-0.09274494647979736,-0.029295070096850395,-0.08883889764547348,0.07810824364423752,3,4,-994,-28,-88,77,-21,2,-151,6349.0
15:17:38.047,AUTO,-35.3632636,149.1652341,9639,0.070737324655056,-0.0003090132668148726,-0.09274494647979736,-0.029295070096850395,-0.08883889764547348,0.07810824364423752,3,4,-994,-28,-88,77,-21,2,-151,6349.0
15:17:38.249,AUTO,-35.3632636,149.1652341,9639,0.070737324655056,-0.0003090132668148726,-0.09274494647979736,-0.029295070096850395,-0.08883889764547348,0.07810824364423752,3,4,-994,-28,-88,77,-21,2,-151,6349.0
15:17:38.451,AUTO,-35.3632636,149.1652341,9639,0.070737324655056,-0.0003090132668148726,-0.09274494647979736,-0.029295070096850395,-0.08883889764547348,0.07810824364423752,3,4,-994,-28,-88,77,-21,2,-151,6349.0
15:17:38.653,AUTO,-35.3632641,149.1652355,10789,0.008978002704679966,-0.05458507686853409,-0.03917510434985161,-0.11316144466400146,0.07070693373680115,-0.0274652186781168,3,-6,-1000,-112,71,-28,14,30,-147,6349.0
15:17:38.855,AUTO,-35.3632637,149.1652363,11168,-0.013551847077906132,-0.03288182616233826,-0.053712327033281326,-0.07207535207271576,0.08747848868370056,-0.07347740232944489,0,-8,-1005,-71,88,-73,26,26,-147,6349.0
15:17:39.056,AUTO,-35.3632631,149.1652369,11548,-0.025746595114469528,-0.013908017426729202,-0.07502980530261993,-0.032875265926122665,0.06516221910715103,-0.0846552774310112,-3,-8,-1006,-32,65,-84,30,18,-148,6349.0
15:17:39.258,AUTO,-35.3632624,149.1652372,11934,-0.03010845184326172,-0.0002922592975664884,-0.09797694534063339,-0.0049211736768484116,0.051531221717596054,-0.08679518103599548,-5,-7,-1005,-4,52,-87,31,8,-150,6349.0
15:17:39.461,AUTO,-35.3632624,149.1652372,11934,-0.03010845184326172,-0.0002922592975664884,-0.09797694534063339,-0.0049211736768484116,0.051531221717596054,-0.08679518103599548,-5,-7,-1005,-4,52,-87,31,8,-150,6349.0
15:17:39.711,AUTO,-35.3632617,149.1652373,12324,-0.02818170189857483,0.00911934394389391,-0.11880584806203842,0.015415497124195099,0.03256474435329437,-0.0716366097331047,-5,-5,-1004,16,33,-72,28,0,-151,6349.0
15:17:39.975,AUTO,-35.3632611,149.1652372,12713,-0.022625969722867012,0.015043094754219055,-0.1357363760471344,0.0279773510992527,0.020967451855540276,-0.057787131518125534,-6,-3,-1002,28,21,-58,23,-7,-151,6349.0
15:17:40.188,AUTO,-35.3632611,149.1652372,12713,-0.022625969722867012,0.015043094754219055,-0.1357363760471344,0.0279773510992527,0.020967451855540276,-0.057787131518125534,-6,-3,-1002,28,21,-58,23,-7,-151,6349.0
15:17:40.400,AUTO,-35.3632611,149.1652372,12713,-0.022625969722867012,0.015043094754219055,-0.1357363760471344,0.0279773510992527,0.020967451855540276,-0.057787131518125534,-6,-3,-1002,28,21,-58,23,-7,-151,6349.0
15:17:40.635,AUTO,-35.3632601,149.1652361,13881,0.0034416825510561466,0.023844391107559204,-0.16509179770946503,0.03346068039536476,0.0005303542711772025,-0.017500784248113632,-4,1,-1000,33,1,-17,5,-14,-152,6349.0
15:17:40.837,AUTO,-35.36326,149.1652357,14272,0.010432440787553787,0.02307104878127575,-0.1680503934621811,0.022768540307879448,-0.005888250656425953,-0.007202556356787682,-3,1,-999,23,-5,-7,0,-12,-152,6349.0
15:17:41.040,AUTO,-35.36326,149.1652354,14663,0.01492995023727417,0.021037044003605843,-0.16868872940540314,0.012119458988308907,-0.009478430263698101,-0.0006815246888436377,-2,1,-998,12,-8,-1,-5,-8,-152,6349.0
15:17:41.242,AUTO,-35.36326,149.1652354,14663,0.01492995023727417,0.021037044003605843,-0.16868872940540314,0.012119458988308907,-0.009478430263698101,-0.0006815246888436377,-2,1,-998,12,-8,-1,-5,-8,-152,6349.0
15:17:41.444,AUTO,-35.36326,149.1652352,15053,0.016744643449783325,0.018248405307531357,-0.16794650256633759,0.002308498602360487,-0.010937749408185482,0.0013545237015932798,0,2,-999,3,-10,1,-8,-4,-151,80426.0
15:17:41.646,AUTO,-35.3632602,149.1652351,15441,0.016141237691044807,0.015012645162642002,-0.16654762625694275,-0.007010322995483875,-0.01370313111692667,0.006207488011568785,0,1,-999,-6,-12,5,-11,0,-151,80426.0
15:17:41.848,AUTO,-35.3632604,149.165235,15830,0.01427000667899847,0.011745467782020569,-0.16543541848659515,-0.007444834336638451,-0.012838615104556084,0.0032359841279685497,1,1,-1000,-6,-12,2,-13,3,-151,80426.0
15:17:42.050,AUTO,-35.3632604,149.165235,15830,0.01427000667899847,0.011745467782020569,-0.16543541848659515,-0.007444834336638451,-0.012838615104556084,0.0032359841279685497,1,1,-1000,-6,-12,2,-13,3,-151,80426.0
15:17:42.252,AUTO,-35.3632604,149.165235,15830,0.01427000667899847,0.011745467782020569,-0.16543541848659515,-0.007444834336638451,-0.012838615104556084,0.0032359841279685497,1,1,-1000,-6,-12,2,-13,3,-151,80426.0
15:17:42.455,AUTO,-35.3632604,149.165235,15830,0.01427000667899847,0.011745467782020569,-0.16543541848659515,-0.007444834336638451,-0.012838615104556084,0.0032359841279685497,1,1,-1000,-6,-12,2,-13,3,-151,80426.0
15:17:42.657,AUTO,-35.3632612,149.1652354,16993,0.006513645406812429,0.002574572106823325,-0.16550733149051666,-0.009405248798429966,-0.009019946679472923,-0.006095146760344505,2,0,-1000,-8,-8,-6,-12,9,-151,80426.0
15:17:42.858,AUTO,-35.3632614,149.1652356,17382,0.004355188924819231,0.0003612235013861209,-0.16750694811344147,-0.01023409515619278,-0.007530471310019493,-0.010133900679647923,3,0,-1000,-9,-6,-10,-11,9,-151,80426.0
15:17:43.060,AUTO,-35.3632616,149.1652358,17771,0.002112425398081541,-0.00096803845372051,-0.17098018527030945,-0.005108014214783907,-0.001527473796159029,-0.018336139619350433,2,0,-1001,-4,0,-18,-10,9,-151,80426.0
15:17:43.262,AUTO,-35.3632618,149.165236,18160,0.0009152690763585269,-0.0016886885277926922,-0.17537400126457214,-0.0033723004162311554,-0.0017951473128050566,-0.02078329212963581,1,0,-1000,-2,-1,-21,-8,8,-151,80426.0
15:17:43.463,AUTO,-35.3632618,149.165236,18160,0.0009152690763585269,-0.0016886885277926922,-0.17537400126457214,-0.0033723004162311554,-0.0017951473128050566,-0.02078329212963581,1,0,-1000,-2,-1,-21,-8,8,-151,80426.0
15:17:43.665,AUTO,-35.3632619,149.1652361,18550,0.00012962683103978634,-0.0021571400575339794,-0.1805509328842163,-0.0025567985139787197,0.0008946136804297566,-0.02389584109187126,2,0,-1000,-1,1,-24,-6,7,-152,80426.0
15:17:43.867,AUTO,-35.363262,149.1652362,18939,-0.00019648997113108635,-0.001953246770426631,-0.18642544746398926,-8.137308759614825e-05,0.0008581457659602165,-0.022707050666213036,1,0,-1000,0,1,-23,-5,6,-152,80426.0
15:17:44.069,AUTO,-35.363262,149.1652362,18939,-0.00019648997113108635,-0.001953246770426631,-0.18642544746398926,-8.137308759614825e-05,0.0008581457659602165,-0.022707050666213036,1,0,-1000,0,1,-23,-5,6,-152,80426.0
15:17:44.271,AUTO,-35.363262,149.1652362,18939,-0.00019648997113108635,-0.001953246770426631,-0.18642544746398926,-8.137308759614825e-05,0.0008581457659602165,-0.022707050666213036,1,0,-1000,0,1,-23,-5,6,-152,80426.0
15:17:44.472,AUTO,-35.363262,149.1652362,18939,-0.00019648997113108635,-0.001953246770426631,-0.18642544746398926,-8.137308759614825e-05,0.0008581457659602165,-0.022707050666213036,1,0,-1000,0,1,-23,-5,6,-152,80426.0
15:17:44.674,AUTO,-35.3632621,149.1652364,20107,0.001728334347717464,-0.0004889448755420744,-0.20555996894836426,0.0033396887592971325,0.0034634587354958057,-0.024696873500943184,0,0,-999,4,4,-24,-2,3,-152,80426.0
15:17:44.876,AUTO,-35.3632621,149.1652364,20496,0.0025020630564540625,0.0003202352090738714,-0.2121036946773529,0.002570193726569414,0.0023752236738801003,-0.02450067177414894,0,0,-1000,3,3,-24,-1,2,-152,80426.0
15:17:45.077,AUTO,-35.3632621,149.1652364,20886,0.00297149526886642,0.0012107985094189644,-0.21868909895420074,0.0023840609937906265,0.0024732460733503103,-0.02443743869662285,0,0,-1000,3,3,-24,-1,2,-152,80426.0
15:17:45.279,AUTO,-35.3632621,149.1652364,21276,0.003212805138900876,0.0017578107072040439,-0.22492752969264984,0.002539996523410082,0.003754417411983013,-0.025336265563964844,0,0,-1000,3,4,-25,0,2,-152,80426.0
15:17:45.520,AUTO,-35.3632621,149.1652364,21670,0.0035330995451658964,0.0023881166707724333,-0.2309623807668686,0.002220076508820057,0.0019497263710945845,-0.022840213030576706,0,0,-1000,2,2,-22,0,2,-152,80426.0
15:17:45.797,AUTO,-35.3632621,149.1652364,22059,0.003933489788323641,0.0027177047450095415,-0.23658256232738495,0.0022245701402425766,0.0017168052727356553,-0.021805046126246452,0,0,-1000,2,2,-21,0,2,-152,80426.0
15:17:46.114,AUTO,-35.3632621,149.1652364,22059,0.003933489788323641,0.0027177047450095415,-0.23658256232738495,0.0022245701402425766,0.0017168052727356553,-0.021805046126246452,0,0,-1000,2,2,-21,0,2,-152,80426.0
15:17:46.390,AUTO,-35.3632621,149.1652364,22059,0.003933489788323641,0.0027177047450095415,-0.23658256232738495,0.0022245701402425766,0.0017168052727356553,-0.021805046126246452,0,0,-1000,2,2,-21,0,2,-152,80426.0
15:17:46.657,AUTO,-35.3632621,149.1652365,23224,0.004573700483888388,0.003913325257599354,-0.25271356105804443,0.0007702980656176805,0.00047242542495951056,-0.017344007268548012,0,0,-1000,1,1,-17,-1,3,-152,80426.0
15:17:46.859,AUTO,-35.3632621,149.1652365,23613,0.004359711892902851,0.0038231166545301676,-0.2575398087501526,4.647794412449002e-05,-0.0012862264411523938,-0.01818775199353695,0,0,-1000,1,0,-18,-1,3,-152,80426.0
15:17:47.061,AUTO,-35.3632621,149.1652366,24002,0.0037543736398220062,0.003590335138142109,-0.26226547360420227,-0.0015097249997779727,0.0006352269556373358,-0.02059394121170044,0,0,-1000,0,1,-20,-1,4,-152,80426.0
15:17:47.269,AUTO,-35.3632621,149.1652366,24391,0.0033811333123594522,0.0033155486453324556,-0.26676154136657715,1.372763654217124e-05,0.0008116382523439825,-0.01841156557202339,0,0,-1000,0,1,-18,-1,4,-152,80426.0
15:17:47.471,AUTO,-35.3632621,149.1652366,24391,0.0033811333123594522,0.0033155486453324556,-0.26676154136657715,1.372763654217124e-05,0.0008116382523439825,-0.01841156557202339,0,0,-1000,0,1,-18,-1,4,-152,134229.0
15:17:47.673,AUTO,-35.3632621,149.1652367,24781,0.0031139878556132317,0.0032793122809380293,-0.27137452363967896,-6.262562237679958e-05,0.0009636713075451553,-0.01859891042113304,0,0,-1000,0,1,-18,-1,4,-152,134229.0
15:17:47.875,AUTO,-35.3632621,149.1652367,25169,-0.004827084951102734,0.004418660420924425,-0.27421703934669495,-0.06418944895267487,0.010781528428196907,0.005533156450837851,0,0,-995,-63,11,5,-1,3,-151,134229.0
15:17:48.077,AUTO,-35.3632621,149.1652367,25169,-0.004827084951102734,0.004418660420924425,-0.27421703934669495,-0.06418944895267487,0.010781528428196907,0.005533156450837851,0,0,-995,-63,11,5,-1,3,-151,134229.0
15:17:48.279,AUTO,-35.3632621,149.1652367,25169,-0.004827084951102734,0.004418660420924425,-0.27421703934669495,-0.06418944895267487,0.010781528428196907,0.005533156450837851,0,0,-995,-63,11,5,-1,3,-151,134229.0
15:17:48.481,AUTO,-35.3632621,149.1652367,25169,-0.004827084951102734,0.004418660420924425,-0.27421703934669495,-0.06418944895267487,0.010781528428196907,0.005533156450837851,0,0,-995,-63,11,5,-1,3,-151,134229.0
15:17:48.683,AUTO,-35.3632622,149.1652367,26333,0.00517160864546895,0.004866942763328552,-0.26049017906188965,0.02440204657614231,-0.0038826027885079384,0.02748253382742405,0,0,-1000,25,-2,27,-5,0,-152,134229.0
15:17:48.884,AUTO,-35.3632622,149.1652367,26722,0.009224917739629745,0.003947298042476177,-0.2535134553909302,0.009633847512304783,-0.00394068518653512,0.027395473793148994,0,0,-999,10,-2,27,-5,1,-152,134229.0
15:17:49.086,AUTO,-35.3632623,149.1652367,27111,0.009182670153677464,0.004341748543083668,-0.24338480830192566,-0.031900547444820404,0.027388932183384895,0.09457142651081085,0,0,-982,-31,28,94,-4,3,-151,134229.0
15:17:49.287,AUTO,-35.3632624,149.1652367,27489,-0.011692522093653679,0.024324776604771614,-0.18729503452777863,-0.11711554229259491,0.11226574331521988,0.341750830411911,0,0,-970,-116,113,341,-7,3,-144,134229.0
15:17:49.489,AUTO,-35.3632624,149.1652367,27489,-0.011692522093653679,0.024324776604771614,-0.18729503452777863,-0.11711554229259491,0.11226574331521988,0.341750830411911,0,0,-970,-116,113,341,-7,3,-144,134229.0
15:17:49.691,AUTO,-35.3632626,149.1652367,27848,-0.04180765151977539,0.05630538612604141,-0.06266245245933533,-0.1624021828174591,0.10741591453552246,0.629058837890625,1,1,-975,-161,108,628,-16,-2,-137,134229.0
15:17:49.893,AUTO,-35.3632631,149.1652364,28185,-0.05280525982379913,0.05973716825246811,0.07271826267242432,0.02462257817387581,-0.14415384829044342,0.3913792073726654,4,4,-943,25,-143,391,-30,-14,-125,134229.0
15:17:50.095,AUTO,-35.3632631,149.1652364,28185,-0.05280525982379913,0.05973716825246811,0.07271826267242432,0.02462257817387581,-0.14415384829044342,0.3913792073726654,4,4,-943,25,-143,391,-30,-14,-125,134229.0
15:17:50.297,AUTO,-35.3632631,149.1652364,28185,-0.05280525982379913,0.05973716825246811,0.07271826267242432,0.02462257817387581,-0.14415384829044342,0.3913792073726654,4,4,-943,25,-143,391,-30,-14,-125,134229.0
15:17:50.499,AUTO,-35.3632631,149.1652364,28185,-0.05280525982379913,0.05973716825246811,0.07271826267242432,0.02462257817387581,-0.14415384829044342,0.3913792073726654,4,4,-943,25,-143,391,-30,-14,-125,134229.0
15:17:50.701,AUTO,-35.3632651,149.1652344,28994,0.018600424751639366,-0.045422572642564774,0.13871702551841736,0.08435260504484177,-0.046034712344408035,-0.039289139211177826,3,6,-958,85,-44,-39,-22,-21,-87,134229.0
15:17:50.903,AUTO,-35.3632655,149.1652339,29206,0.0325157456099987,-0.05055276304483414,0.12695817649364471,-0.0028439173474907875,-0.004554539918899536,-0.045312605798244476,1,3,-964,-1,-3,-45,-11,-12,-77,134229.0
15:17:51.105,AUTO,-35.3632656,149.1652336,29394,0.040294937789440155,-0.047590337693691254,0.11683829873800278,0.09570567309856415,0.02124776877462864,-0.032940253615379333,0,7,-970,96,22,-32,0,-2,-69,134229.0
15:17:51.307,AUTO,-35.3632655,149.1652336,29563,0.03970649838447571,-0.04005482420325279,0.10996191948652267,-0.05530541017651558,0.03361579403281212,-0.021714963018894196,0,-7,-973,-54,34,-22,8,7,-61,134229.0
15:17:51.515,AUTO,-35.3632655,149.1652336,29563,0.03970649838447571,-0.04005482420325279,0.10996191948652267,-0.05530541017651558,0.03361579403281212,-0.021714963018894196,0,-7,-973,-54,34,-22,8,7,-61,134229.0
15:17:51.783,AUTO,-35.3632649,149.1652342,29844,0.035628676414489746,-0.021403474733233452,0.1026473417878151,0.40512633323669434,0.036965757608413696,-0.008115405216813087,-3,21,-976,406,37,-8,21,22,-48,134229.0
15:17:52.062,AUTO,-35.3632649,149.1652342,29844,0.035628676414489746,-0.021403474733233452,0.1026473417878151,0.40512633323669434,0.036965757608413696,-0.008115405216813087,-3,21,-976,406,37,-8,21,22,-48,134229.0
15:17:52.315,AUTO,-35.3632649,149.1652342,29844,0.035628676414489746,-0.021403474733233452,0.1026473417878151,0.40512633323669434,0.036965757608413696,-0.008115405216813087,-3,21,-976,406,37,-8,21,22,-48,134229.0
15:17:52.524,AUTO,-35.3632649,149.1652342,29844,0.035628676414489746,-0.021403474733233452,0.1026473417878151,0.40512633323669434,0.036965757608413696,-0.008115405216813087,-3,21,-976,406,37,-8,21,22,-48,134229.0
15:17:52.790,AUTO,-35.3632627,149.1652369,30231,0.01257394626736641,0.010819652117788792,0.09363140165805817,0.6117451786994934,0.012875216081738472,-0.0019070709822699428,-1,17,-989,612,13,-1,22,26,-28,134229.0
15:17:52.993,AUTO,-35.3632627,149.1652369,30231,0.01257394626736641,0.010819652117788792,0.09363140165805817,0.6117451786994934,0.012875216081738472,-0.0019070709822699428,-1,17,-989,612,13,-1,22,26,-28,134229.0
15:17:53.195,AUTO,-35.3632622,149.1652376,30292,0.007124567404389381,0.014010585844516754,0.09179748594760895,0.20853619277477264,0.010373189114034176,-0.004931087605655193,-1,-12,-987,208,11,-4,19,23,-22,134229.0
15:17:53.398,AUTO,-35.3632618,149.1652381,30340,-0.006696411408483982,0.015678154304623604,0.09017263352870941,-0.5501024723052979,0.005007323808968067,-0.005481785163283348,-1,-38,-978,-550,5,-5,15,20,-16,82901.0
15:17:53.602,AUTO,-35.3632614,149.1652386,30371,-0.016248375177383423,0.015766678377985954,0.08810646831989288,-0.7669391632080078,0.0003304497222416103,-0.003379599656909704,0,-37,-957,-766,1,-3,12,17,-8,82901.0
15:17:53.804,AUTO,-35.3632612,149.165239,30382,-0.015291886404156685,0.01468269806355238,0.08670656383037567,-0.319688618183136,-0.007706229574978352,-0.00233238167129457,0,12,-956,-317,-6,-2,8,15,-1,82901.0
15:17:54.006,AUTO,-35.3632612,149.165239,30382,-0.015291886404156685,0.01468269806355238,0.08670656383037567,-0.319688618183136,-0.007706229574978352,-0.00233238167129457,0,12,-956,-317,-6,-2,8,15,-1,82901.0
15:17:54.209,AUTO,-35.3632612,149.165239,30382,-0.015291886404156685,0.01468269806355238,0.08670656383037567,-0.319688618183136,-0.007706229574978352,-0.00233238167129457,0,12,-956,-317,-6,-2,8,15,-1,82901.0
15:17:54.418,AUTO,-35.3632612,149.165239,30382,-0.015291886404156685,0.01468269806355238,0.08670656383037567,-0.319688618183136,-0.007706229574978352,-0.00233238167129457,0,12,-956,-317,-6,-2,8,15,-1,82901.0
15:17:54.620,AUTO,-35.3632612,149.165239,30280,-0.020663928240537643,-0.006625829264521599,0.0814022347331047,0.7616252899169922,-0.09015669673681259,0.0006358361570164561,0,30,-1029,763,-88,0,-4,-10,10,82901.0
15:17:54.821,AUTO,-35.3632613,149.1652387,30254,-0.020868832245469093,-0.02389969862997532,0.0799795538187027,0.3061164915561676,-0.06144895404577255,-0.0024223437067121267,0,-4,-1008,306,-60,-2,0,-16,6,82901.0
15:17:55.023,AUTO,-35.3632613,149.1652382,30237,-0.02329687587916851,-0.036241717636585236,0.07785248756408691,-0.14562489092350006,-0.047156382352113724,0.002616230631247163,-3,-18,-1018,-146,-45,2,7,-22,1,82901.0
15:17:55.226,AUTO,-35.3632613,149.1652382,30237,-0.02329687587916851,-0.036241717636585236,0.07785248756408691,-0.14562489092350006,-0.047156382352113724,0.002616230631247163,-3,-18,-1018,-146,-45,2,7,-22,1,82901.0
15:17:55.428,AUTO,-35.363261,149.1652376,30233,-0.03156299889087677,-0.04635880887508392,0.07570207864046097,-0.480290025472641,-0.04362180456519127,-0.0007521677762269974,-4,-28,-1026,-480,-42,0,16,-28,-2,82901.0
15:17:55.630,AUTO,-35.3632606,149.1652368,30244,-0.04325365647673607,-0.05513933673501015,0.07403042167425156,-0.6097480058670044,-0.03626846522092819,-0.0003813579387497157,-9,-15,-1015,-608,-35,0,27,-34,-8,82901.0
15:17:55.832,AUTO,-35.36326,149.1652358,30267,-0.037675291299819946,-0.06463371962308884,0.06930691748857498,0.07936593890190125,-0.03935425728559494,-0.06281810998916626,-12,23,-1010,81,-38,-62,39,-40,-12,82901.0
15:17:56.034,AUTO,-35.36326,149.1652358,30267,-0.037675291299819946,-0.06463371962308884,0.06930691748857498,0.07936593890190125,-0.03935425728559494,-0.06281810998916626,-12,23,-1010,81,-38,-62,39,-40,-12,82901.0
15:17:56.236,AUTO,-35.36326,149.1652358,30267,-0.037675291299819946,-0.06463371962308884,0.06930691748857498,0.07936593890190125,-0.03935425728559494,-0.06281810998916626,-12,23,-1010,81,-38,-62,39,-40,-12,82901.0
15:17:56.438,AUTO,-35.36326,149.1652358,30267,-0.037675291299819946,-0.06463371962308884,0.06930691748857498,0.07936593890190125,-0.03935425728559494,-0.06281810998916626,-12,23,-1010,81,-38,-62,39,-40,-12,82901.0
15:17:56.641,AUTO,-35.3632562,149.1652315,30405,0.005306361708790064,-0.09458545595407486,-0.4092603623867035,-0.20838657021522522,-0.04450032487511635,-0.8024962544441223,-21,-23,-1032,-208,-43,-802,82,-61,-27,82901.0
15:17:56.843,AUTO,-35.3632543,149.1652296,30478,0.014588885940611362,-0.10141132771968842,-0.5518566370010376,-0.38428208231925964,-0.04932178556919098,-0.33149421215057373,-25,-23,-1024,-383,-48,-331,98,-71,-32,82901.0
15:17:57.045,AUTO,-35.363252,149.1652274,30564,0.02513936161994934,-0.10944879800081253,-0.5881228446960449,0.19956572353839874,-0.02481374517083168,-0.013810873962938786,-31,2,-1025,201,-23,-13,115,-81,-38,82901.0
15:17:57.247,AUTO,-35.363252,149.1652274,30564,0.02513936161994934,-0.10944879800081253,-0.5881228446960449,0.19956572353839874,-0.02481374517083168,-0.013810873962938786,-31,2,-1025,201,-23,-13,115,-81,-38,82901.0
15:17:57.517,AUTO,-35.3632463,149.1652219,30778,0.027997860684990883,-0.13011057674884796,-0.5502504110336304,-0.18764658272266388,-0.04076779633760452,0.10560303181409836,-36,-10,-1027,285,-43,108,151,-104,-49,82901.0
15:17:57.791,AUTO,-35.3632428,149.1652186,30909,0.029806798323988914,-0.1398857831954956,-0.5364953279495239,-0.019895736128091812,-0.03730332478880882,0.03912010043859482,-47,-13,-1031,-18,-36,39,173,-116,-55,82901.0
15:17:58.113,AUTO,-35.3632428,149.1652186,30909,0.029806798323988914,-0.1398857831954956,-0.5364953279495239,-0.019895736128091812,-0.03730332478880882,0.03912010043859482,-47,-13,-1031,-18,-36,39,173,-116,-55,82901.0
15:17:58.327,AUTO,-35.3632428,149.1652186,30909,0.029806798323988914,-0.1398857831954956,-0.5364953279495239,-0.019895736128091812,-0.03730332478880882,0.03912010043859482,-47,-13,-1031,-18,-36,39,173,-116,-55,82901.0
15:17:58.548,AUTO,-35.3632428,149.1652186,30909,0.029806798323988914,-0.1398857831954956,-0.5364953279495239,-0.019895736128091812,-0.03730332478880882,0.03912010043859482,-47,-13,-1031,-18,-36,39,173,-116,-55,82901.0
15:17:58.757,AUTO,-35.3632293,149.1652064,31408,0.0375748835504055,-0.16576170921325684,-0.5369045734405518,-0.027100957930088043,-0.003890587482601404,0.0009571954142302275,-64,-26,-1038,-25,-3,1,243,-157,-78,82901.0
15:17:58.959,AUTO,-35.3632236,149.1652014,31620,0.04096052795648575,-0.16315266489982605,-0.5401113629341125,0.017737707123160362,0.013819736428558826,-0.010390962474048138,-68,-25,-1039,19,14,-9,267,-171,-86,82901.0
15:17:59.161,AUTO,-35.3632176,149.1651962,31846,0.04162336885929108,-0.15140199661254883,-0.5452779531478882,-0.017926780506968498,0.0916222333908081,-0.0003533426788635552,-70,-32,-1024,-16,92,0,287,-183,-92,82901.0
15:17:59.366,AUTO,-35.3632111,149.1651906,32089,0.040419742465019226,-0.11937376856803894,-0.5494765043258667,0.0014973977813497186,0.1364114135503769,-0.008222121745347977,-70,-17,-1027,2,137,-7,302,-192,-99,82901.0
15:17:59.569,AUTO,-35.3632042,149.1651849,32350,0.03581475093960762,-0.09230392426252365,-0.5515875220298767,-0.006320677697658539,0.07404479384422302,-0.013608898967504501,-83,-42,-1027,-5,74,-13,310,-197,-106,30194.0
15:17:59.771,AUTO,-35.3631974,149.165179,32628,0.03916407376527786,-0.08078529685735703,-0.5596697330474854,0.008395166136324406,0.03022192418575287,-0.02698889747262001,-77,-31,-1015,9,31,-26,312,-201,-112,30194.0
15:17:59.973,AUTO,-35.3631974,149.165179,32628,0.03916407376527786,-0.08078529685735703,-0.5596697330474854,0.008395166136324406,0.03022192418575287,-0.02698889747262001,-77,-31,-1015,9,31,-26,312,-201,-112,30194.0
15:18:00.175,AUTO,-35.3631974,149.165179,32628,0.03916407376527786,-0.08078529685735703,-0.5596697330474854,0.008395166136324406,0.03022192418575287,-0.02698889747262001,-77,-31,-1015,9,31,-26,312,-201,-112,30194.0
15:18:00.377,AUTO,-35.3631974,149.165179,32628,0.03916407376527786,-0.08078529685735703,-0.5596697330474854,0.008395166136324406,0.03022192418575287,-0.02698889747262001,-77,-31,-1015,9,31,-26,312,-201,-112,30194.0
15:18:00.579,AUTO,-35.3631759,149.1651605,33400,0.05171634629368782,-0.21992884576320648,-0.6127326488494873,0.018250733613967896,-0.18708980083465576,-0.0819617435336113,-74,-27,-916,19,-186,-81,347,-229,-75,30194.0
15:18:00.781,AUTO,-35.3631678,149.1651536,33568,0.06144820526242256,-0.24993807077407837,-0.6371464133262634,0.010904517956078053,-0.07695017755031586,-0.0886240303516388,-105,-22,-927,12,-75,-88,376,-249,-54,30194.0
15:18:00.982,AUTO,-35.3631678,149.1651536,33568,0.06144820526242256,-0.24993807077407837,-0.6371464133262634,0.010904517956078053,-0.07695017755031586,-0.0886240303516388,-105,-22,-927,12,-75,-88,376,-249,-54,30194.0
15:18:01.185,AUTO,-35.3631591,149.1651462,33688,0.0651111826300621,-0.2553245723247528,-0.6603338718414307,0.002199014415964484,0.024194274097681046,-0.09942582994699478,-104,-67,-951,3,24,-99,406,-271,-36,30194.0
15:18:01.387,AUTO,-35.3631498,149.1651382,33773,0.07596846669912338,-0.24260097742080688,-0.6894533038139343,-0.0017523376736789942,0.07777895033359528,-0.12238270789384842,-102,-57,-973,0,78,-122,436,-293,-26,30194.0
15:18:01.589,AUTO,-35.3631398,149.1651297,33842,0.07870714366436005,-0.21220454573631287,-0.7173219919204712,-0.013203641399741173,0.13985474407672882,-0.1211039274930954,-106,-72,-1011,-11,140,-120,461,-313,-25,30194.0
15:18:01.792,AUTO,-35.3631291,149.1651207,33918,0.08234632760286331,-0.17270618677139282,-0.7484728693962097,-0.04193992540240288,0.13891161978244781,-0.1220451220870018,-123,-40,-1036,-40,139,-121,481,-326,-33,30194.0
15:18:01.994,AUTO,-35.3631291,149.1651207,33918,0.08234632760286331,-0.17270618677139282,-0.7484728693962097,-0.04193992540240288,0.13891161978244781,-0.1220451220870018,-123,-40,-1036,-40,139,-121,481,-326,-33,30194.0
15:18:02.196,AUTO,-35.3631291,149.1651207,33918,0.08234632760286331,-0.17270618677139282,-0.7484728693962097,-0.04193992540240288,0.13891161978244781,-0.1220451220870018,-123,-40,-1036,-40,139,-121,481,-326,-33,30194.0
15:18:02.398,AUTO,-35.3631291,149.1651207,33918,0.08234632760286331,-0.17270618677139282,-0.7484728693962097,-0.04193992540240288,0.13891161978244781,-0.1220451220870018,-123,-40,-1036,-40,139,-121,481,-326,-33,30194.0
15:18:02.600,AUTO,-35.3630961,149.1650926,34364,0.07342017441987991,-0.06012577936053276,-0.8472395539283752,-0.03157724067568779,0.05319800227880478,-0.14259712398052216,-109,-94,-1069,-30,54,-142,485,-338,-87,30194.0
15:18:02.802,AUTO,-35.3630852,149.1650832,34604,0.07242985814809799,-0.04364874213933945,-0.8872854709625244,-0.007094475906342268,-0.04147636890411377,-0.1518428921699524,-108,-79,-1022,-5,-40,-151,477,-331,-100,30194.0
15:18:03.004,AUTO,-35.3630852,149.1650832,34604,0.07242985814809799,-0.04364874213933945,-0.8872854709625244,-0.007094475906342268,-0.04147636890411377,-0.1518428921699524,-108,-79,-1022,-5,-40,-151,477,-331,-100,30194.0
15:18:03.205,AUTO,-35.3630744,149.165074,34866,0.0736699104309082,-0.028644487261772156,-0.9124425053596497,0.0017771910643205047,0.17445847392082214,-0.10025428235530853,-106,-85,-1044,3,175,-100,466,-327,-109,30194.0
15:18:03.420,AUTO,-35.363064,149.165065,35157,0.08317364007234573,-0.006139819975942373,-0.9284157752990723,0.056370411068201065,-0.015990283340215683,-0.05520343407988548,-97,-91,-1026,57,-15,-54,452,-315,-118,30194.0
15:18:03.685,AUTO,-35.3630539,149.1650565,35457,0.09702733904123306,-0.036122582852840424,-0.935409665107727,0.05064447969198227,-0.16349388659000397,-0.0080454396083951,-82,-80,-955,51,-162,-7,444,-302,-115,30194.0
15:18:04.022,AUTO,-35.3630439,149.1650481,35737,0.1073903813958168,-0.06781384348869324,-0.9330622553825378,0.06769567728042603,-0.08688873052597046,0.02695004642009735,-93,-74,-944,69,-86,27,443,-295,-103,30194.0
15:18:04.270,AUTO,-35.3630439,149.1650481,35737,0.1073903813958168,-0.06781384348869324,-0.9330622553825378,0.06769567728042603,-0.08688873052597046,0.02695004642009735,-93,-74,-944,69,-86,27,443,-295,-103,30194.0
15:18:04.502,AUTO,-35.3630439,149.1650481,35737,0.1073903813958168,-0.06781384348869324,-0.9330622553825378,0.06769567728042603,-0.08688873052597046,0.02695004642009735,-93,-74,-944,69,-86,27,443,-295,-103,30194.0
15:18:04.704,AUTO,-35.3630134,149.1650232,36420,0.10367172956466675,-0.0980764776468277,-0.9061654806137085,-0.012846899218857288,0.03874418884515762,0.02137376368045807,-75,-76,-984,-11,39,21,462,-295,-78,30194.0
15:18:04.907,AUTO,-35.3630028,149.1650148,36630,0.09851980954408646,-0.08466232568025589,-0.8965036273002625,0.008094776421785355,0.03639960661530495,0.026139579713344574,-92,-92,-1008,9,37,26,465,-297,-81,30194.0
15:18:05.110,AUTO,-35.3629923,149.1650064,36851,0.0927274078130722,-0.07592462748289108,-0.8885036110877991,-0.018683994188904762,0.04785935953259468,0.018401024863123894,-87,-103,-1015,-17,48,18,465,-297,-86,30194.0
15:18:05.313,AUTO,-35.3629817,149.1649982,37082,0.08463054895401001,-0.07336801290512085,-0.880797266960144,-0.04606708511710167,-0.0033729688730090857,0.027460064738988876,-96,-81,-1005,-44,-2,27,465,-294,-90,30194.0
15:18:05.516,AUTO,-35.3629817,149.1649982,37082,0.08463054895401001,-0.07336801290512085,-0.880797266960144,-0.04606708511710167,-0.0033729688730090857,0.027460064738988876,-96,-81,-1005,-44,-2,27,465,-294,-90,47967.0
15:18:05.719,AUTO,-35.3629713,149.16499,37321,0.0799429714679718,-0.07568663358688354,-0.8739155530929565,0.009124872274696827,0.006721448618918657,0.024460652843117714,-73,-109,-997,10,7,24,462,-295,-92,47967.0
15:18:05.923,AUTO,-35.3629609,149.1649817,37562,0.08087118715047836,-0.07212495803833008,-0.8660134077072144,-0.03390616178512573,-0.004170526750385761,0.020321175456047058,-79,-84,-994,-32,-3,20,460,-294,-93,47967.0
15:18:06.128,AUTO,-35.3629609,149.1649817,37562,0.08087118715047836,-0.07212495803833008,-0.8660134077072144,-0.03390616178512573,-0.004170526750385761,0.020321175456047058,-79,-84,-994,-32,-3,20,460,-294,-93,47967.0
15:18:06.330,AUTO,-35.3629609,149.1649817,37562,0.08087118715047836,-0.07212495803833008,-0.8660134077072144,-0.03390616178512573,-0.004170526750385761,0.020321175456047058,-79,-84,-994,-32,-3,20,460,-294,-93,47967.0
15:18:06.533,AUTO,-35.3629303,149.1649571,38310,0.07377766817808151,-0.06603369116783142,-0.8456411361694336,0.005812987685203552,0.02323686145246029,0.015278685837984085,-106,-83,-1006,7,23,15,448,-293,-99,47967.0
15:18:06.744,AUTO,-35.3629303,149.1649571,38310,0.07377766817808151,-0.06603369116783142,-0.8456411361694336,0.005812987685203552,0.02323686145246029,0.015278685837984085,-106,-83,-1006,7,23,15,448,-293,-99,47967.0
15:18:06.945,AUTO,-35.3629202,149.1649489,38574,0.06930240988731384,-0.05509611964225769,-0.8386271595954895,0.012375233694911003,0.06872561573982239,0.017335621640086174,-91,-82,-1015,13,69,17,443,-293,-104,47967.0
15:18:07.149,AUTO,-35.3629102,149.1649408,38853,0.06139291077852249,-0.040438514202833176,-0.8312236070632935,-0.02659783884882927,0.04776911437511444,0.023683594539761543,-87,-83,-1022,-24,48,23,436,-288,-111,47967.0
15:18:07.351,AUTO,-35.3629004,149.1649328,39149,0.05969342589378357,-0.029609039425849915,-0.8261937499046326,-0.008314856328070164,0.05109073594212532,0.010562659241259098,-86,-53,-1016,-6,51,10,426,-283,-117,47967.0
15:18:07.553,AUTO,-35.362891,149.164925,39460,0.05781726539134979,-0.024978911504149437,-0.8204817771911621,0.015764225274324417,-0.0017640406731516123,0.01946033164858818,-96,-63,-1011,17,0,19,413,-277,-123,47967.0
15:18:07.755,AUTO,-35.362891,149.164925,39460,0.05781726539134979,-0.024978911504149437,-0.8204817771911621,0.015764225274324417,-0.0017640406731516123,0.01946033164858818,-96,-63,-1011,17,0,19,413,-277,-123,47967.0
15:18:07.957,AUTO,-35.3628817,149.1649173,39786,0.05624163895845413,-0.020506424829363823,-0.8153308033943176,-0.007706017233431339,0.017339948564767838,0.02015545405447483,-98,-74,-1008,-6,18,20,400,-270,-126,47967.0
15:18:08.159,AUTO,-35.3628817,149.1649173,39786,0.05624163895845413,-0.020506424829363823,-0.8153308033943176,-0.007706017233431339,0.017339948564767838,0.02015545405447483,-98,-74,-1008,-6,18,20,400,-270,-126,47967.0
15:18:08.361,AUTO,-35.3628817,149.1649173,39786,0.05624163895845413,-0.020506424829363823,-0.8153308033943176,-0.007706017233431339,0.017339948564767838,0.02015545405447483,-98,-74,-1008,-6,18,20,400,-270,-126,47967.0
15:18:08.563,AUTO,-35.362856,149.1648958,40803,0.051242340356111526,-0.0042214300483465195,-0.7989832758903503,-0.01860572025179863,0.01134009100496769,0.017887422814965248,-76,-46,-1009,-16,12,17,361,-245,-136,47967.0
15:18:08.766,AUTO,-35.3628481,149.1648891,41161,0.05251985415816307,0.002008948242291808,-0.7926005125045776,0.018332229927182198,0.02701847441494465,0.03386160358786583,-72,-48,-1005,20,27,33,345,-236,-140,47967.0
15:18:08.968,AUTO,-35.3628481,149.1648891,41161,0.05251985415816307,0.002008948242291808,-0.7926005125045776,0.018332229927182198,0.02701847441494465,0.03386160358786583,-72,-48,-1005,20,27,33,345,-236,-140,47967.0
15:18:09.170,AUTO,-35.3628404,149.1648827,41528,0.04090167209506035,0.014069043099880219,-0.7843526005744934,-0.04294203221797943,0.04413120821118355,0.015813812613487244,-77,-68,-1022,-41,45,15,332,-224,-145,47967.0
15:18:09.372,AUTO,-35.3628331,149.1648765,41906,0.039076656103134155,0.0201891977339983,-0.7809180021286011,-0.016006458550691605,0.025185851380228996,0.010476713068783283,-65,-40,-1010,-14,26,10,315,-213,-148,47967.0
15:18:09.658,AUTO,-35.3628262,149.1648707,42292,0.03597387298941612,0.027230041101574898,-0.776363730430603,0.03610251098871231,0.014814082533121109,0.01583501510322094,-71,-62,-1007,38,16,16,296,-202,-150,47967.0
