time_stamp,MODE,lat,lon,relative_alt,roll,pitch,yaw,rollspeed,pitchspeed,yawspeed,xacc,yacc,zacc,xgyro,ygyro,zgyro,vx,vy,vz,RTL_ALT
11:43:11.625,STABILIZE,-35.3632621,149.1652374,0,-0.0003111876139882952,0.0016110088909044862,0.02788633108139038,0.00020953829516656697,0.0003348714963067323,0.0023288107477128506,0,-4,-1009,0,0,0,-1,-1,-4,1500.0
11:43:11.826,STABILIZE,-35.3632621,149.1652374,0,-0.00035004469100385904,0.0015735116321593523,0.027740320190787315,0.00015166759840212762,0.00020425088587217033,0.002308840164914727,0,-4,-1009,0,0,0,-2,-1,-4,1500.0
11:43:12.026,STABILIZE,-35.3632622,149.1652374,0,-0.00027931659133173525,0.0015167613746598363,0.027610458433628082,0.0002809051948133856,0.00040998164331540465,0.00219862163066864,0,1,-1000,0,0,0,-2,-1,-4,1500.0
11:43:12.227,STABILIZE,-35.3632622,149.1652374,0,-0.00027931659133173525,0.0015167613746598363,0.027610458433628082,0.0002809051948133856,0.00040998164331540465,0.00219862163066864,0,1,-1000,0,0,0,-2,-1,-4,1500.0
11:43:12.428,STABILIZE,-35.3632622,149.1652374,0,-0.00027931659133173525,0.0015167613746598363,0.027610458433628082,0.0002809051948133856,0.00040998164331540465,0.00219862163066864,0,1,-1000,0,0,0,-2,-1,-4,1500.0
11:43:12.629,STABILIZE,-35.3632622,149.1652374,0,-0.00010591234604362398,0.0014165443135425448,0.02731741964817047,0.0002923516440205276,0.00026609082124195993,0.002203571144491434,0,1,-1000,0,0,0,-2,-1,-4,1500.0
11:43:12.830,STABILIZE,-35.3632622,149.1652374,0,-0.00010591234604362398,0.0014165443135425448,0.02731741964817047,0.0002923516440205276,0.00026609082124195993,0.002203571144491434,0,1,-1000,0,0,0,-2,-1,-4,1500.0
11:43:13.031,STABILIZE,-35.3632622,149.1652374,0,-0.00010591234604362398,0.0014165443135425448,0.02731741964817047,0.0002923516440205276,0.00026609082124195993,0.002203571144491434,0,1,-1000,0,0,0,-2,-1,-4,1500.0
11:43:13.232,STABILIZE,-35.3632622,149.1652374,0,-0.00010591234604362398,0.0014165443135425448,0.02731741964817047,0.0002923516440205276,0.00026609082124195993,0.002203571144491434,0,1,-1000,0,0,0,-2,-1,-4,1500.0
11:43:13.433,STABILIZE,-35.3632622,149.1652374,2,2.0342681636975612e-06,0.0012434074888005853,0.026872972026467323,0.00020250401576049626,0.00029787278617732227,0.0022164680995047092,0,1,-1000,0,0,0,-1,0,-3,1500.0
11:43:13.635,STABILIZE,-35.3632622,149.1652374,4,2.0342681636975612e-06,0.0012434074888005853,0.026872972026467323,0.00020250401576049626,0.00029787278617732227,0.0022164680995047092,0,1,-1000,0,0,0,-1,1,-3,1500.0
11:43:13.836,STABILIZE,-35.3632622,149.1652374,4,-3.692069640237605e-06,0.0011655613780021667,0.026599671691656113,0.00036924713640473783,0.00027601863257586956,0.002198118017986417,0,1,-1000,0,0,0,-1,1,-3,1500.0
11:43:14.038,STABILIZE,-35.3632622,149.1652374,7,-3.195650424459018e-05,0.0011228126240894198,0.0264438483864069,0.000191115599591285,0.0004160986572969705,0.0020544815342873335,0,1,-1000,0,1,0,-1,1,-3,1500.0
11:43:14.239,STABILIZE,-35.3632622,149.1652374,7,-3.195650424459018e-05,0.0011228126240894198,0.0264438483864069,0.000191115599591285,0.0004160986572969705,0.0020544815342873335,0,1,-1000,0,1,0,-1,1,-3,1500.0
11:43:14.441,STABILIZE,-35.3632622,149.1652374,8,-3.195650424459018e-05,0.0011228126240894198,0.0264438483864069,0.000191115599591285,0.0004160986572969705,0.0020544815342873335,0,1,-1000,0,0,0,-1,1,-3,1500.0
11:43:14.642,STABILIZE,-35.3632622,149.1652374,9,-0.00010624742571962997,0.001057041808962822,0.026144802570343018,0.00029573385836556554,0.00019572614110074937,0.002164252568036318,0,1,-1000,0,0,0,-1,1,-2,1500.0
11:43:14.844,STABILIZE,-35.3632622,149.1652374,9,-0.00010624742571962997,0.001057041808962822,0.026144802570343018,0.00029573385836556554,0.00019572614110074937,0.002164252568036318,0,1,-1000,0,0,0,-1,1,-2,1500.0
11:43:15.045,STABILIZE,-35.3632622,149.1652374,9,-0.00010624742571962997,0.001057041808962822,0.026144802570343018,0.00029573385836556554,0.00019572614110074937,0.002164252568036318,0,1,-1000,0,0,0,-1,1,-2,1500.0
11:43:15.247,STABILIZE,-35.3632622,149.1652374,9,-0.00010624742571962997,0.001057041808962822,0.026144802570343018,0.00029573385836556554,0.00019572614110074937,0.002164252568036318,0,1,-1000,0,0,0,-1,1,-2,1500.0
11:43:15.449,STABILIZE,-35.3632621,149.1652375,11,-8.221610187320039e-05,0.000986505881883204,0.02573752962052822,0.0003030021325685084,0.0002780136128421873,0.00207122671417892,0,1,-1000,0,0,0,-1,2,-2,1500.0
11:43:15.650,STABILIZE,-35.3632621,149.1652375,11,-8.221610187320039e-05,0.000986505881883204,0.02573752962052822,0.0003030021325685084,0.0002780136128421873,0.00207122671417892,0,1,-1000,0,0,0,-1,2,-2,1500.0
11:43:15.851,STABILIZE,-35.3632621,149.1652375,11,-0.00016900605987757444,0.000977931427769363,0.02546766959130764,0.00023500336101278663,0.0003843346785288304,0.0019009264651685953,0,1,-1000,1,0,0,-1,2,-2,1500.0
11:43:16.053,STABILIZE,-35.3632621,149.1652375,11,-0.00016900605987757444,0.000977931427769363,0.02546766959130764,0.00023500336101278663,0.0003843346785288304,0.0019009264651685953,0,1,-1000,1,0,0,-1,2,-2,1500.0
11:43:16.254,STABILIZE,-35.3632621,149.1652375,11,-0.00016900605987757444,0.000977931427769363,0.02546766959130764,0.00023500336101278663,0.0003843346785288304,0.0019009264651685953,0,1,-1000,1,0,0,-1,2,-2,1500.0
11:43:16.456,STABILIZE,-35.3632621,149.1652375,11,-0.00016900605987757444,0.000977931427769363,0.02546766959130764,0.00023500336101278663,0.0003843346785288304,0.0019009264651685953,0,1,-1000,1,0,0,-1,2,-2,1500.0
11:43:16.657,STABILIZE,-35.3632621,149.1652375,11,-0.00016900605987757444,0.000977931427769363,0.02546766959130764,0.00023500336101278663,0.0003843346785288304,0.0019009264651685953,0,1,-1000,1,0,0,-1,2,-2,1500.0
11:43:16.866,STABILIZE,-35.3632621,149.1652375,11,-0.00016900605987757444,0.000977931427769363,0.02546766959130764,0.00023500336101278663,0.0003843346785288304,0.0019009264651685953,0,1,-1000,1,0,0,-1,2,-2,1500.0
11:43:17.076,STABILIZE,-35.3632621,149.1652375,11,-0.00016900605987757444,0.000977931427769363,0.02546766959130764,0.00023500336101278663,0.0003843346785288304,0.0019009264651685953,0,1,-1000,1,0,0,-1,2,-2,1500.0
11:43:17.278,STABILIZE,-35.3632621,149.1652375,9,-0.0004435131559148431,0.0009257878991775215,0.024757729843258858,0.00021846301387995481,7.681018905714154e-05,0.0019373293034732342,0,1,-1000,0,0,0,-1,2,-1,1500.0
11:43:17.479,STABILIZE,-35.3632621,149.1652375,9,-0.0004435131559148431,0.0009257878991775215,0.024757729843258858,0.00021846301387995481,7.681018905714154e-05,0.0019373293034732342,0,1,-1000,0,0,0,-1,2,-1,1500.0
11:43:17.681,STABILIZE,-35.3632621,149.1652375,9,-0.0004435131559148431,0.0009257878991775215,0.024757729843258858,0.00021846301387995481,7.681018905714154e-05,0.0019373293034732342,0,1,-1000,0,0,0,-1,2,-1,1500.0
11:43:17.882,STABILIZE,-35.3632621,149.1652375,8,-0.0005280420300550759,0.0009293932234868407,0.02453835867345333,0.0003056940040551126,0.0002828650758601725,0.0017894641496241093,0,2,-1000,0,1,0,-1,2,-1,1500.0
11:43:18.083,STABILIZE,-35.3632621,149.1652375,8,-0.0005280420300550759,0.0009293932234868407,0.02453835867345333,0.0003056940040551126,0.0002828650758601725,0.0017894641496241093,0,2,-1000,0,0,0,-1,2,-1,1500.0
11:43:18.285,STABILIZE,-35.3632621,149.1652375,6,-0.0006069953669793904,0.0009248796268366277,0.0243344958871603,0.00019588094437494874,0.0002478355308994651,0.001871931366622448,0,2,-1000,0,0,0,-1,1,-1,1500.0
11:43:18.487,STABILIZE,-35.3632621,149.1652375,6,-0.0006069953669793904,0.0009248796268366277,0.0243344958871603,0.00019588094437494874,0.0002478355308994651,0.001871931366622448,0,2,-1000,0,0,0,-1,1,-1,1500.0
11:43:18.689,STABILIZE,-35.3632621,149.1652375,7,-0.0006366157904267311,0.0009302507969550788,0.02424362301826477,0.0004285574541427195,0.00031195831252261996,0.0019091821741312742,0,2,-1000,0,0,0,-1,0,-2,1500.0
11:43:18.890,STABILIZE,-35.3632621,149.1652375,7,-0.0006366157904267311,0.0009302507969550788,0.02424362301826477,0.0004285574541427195,0.00031195831252261996,0.0019091821741312742,0,2,-1000,0,0,0,-1,0,-2,1500.0
11:43:19.092,STABILIZE,-35.3632621,149.1652375,7,-0.0006366157904267311,0.0009302507969550788,0.02424362301826477,0.0004285574541427195,0.00031195831252261996,0.0019091821741312742,0,2,-1000,0,0,0,-1,0,-2,1500.0
11:43:19.293,STABILIZE,-35.3632621,149.1652375,10,-0.0006509430822916329,0.0009397979592904449,0.02396540343761444,0.000255949969869107,0.00043747061863541603,0.0019255313090980053,0,1,-1000,0,0,0,-1,1,-1,1500.0
11:43:19.495,STABILIZE,-35.3632621,149.1652375,10,-0.0006509430822916329,0.0009397979592904449,0.02396540343761444,0.000255949969869107,0.00043747061863541603,0.0019255313090980053,0,1,-1000,0,0,0,-1,1,-1,1500.0
11:43:19.697,STABILIZE,-35.3632621,149.1652375,10,-0.0006509430822916329,0.0009397979592904449,0.02396540343761444,0.000255949969869107,0.00043747061863541603,0.0019255313090980053,0,1,-1000,0,0,0,-1,1,-1,1500.0
11:43:19.899,STABILIZE,-35.3632621,149.1652375,10,-0.0006575487786903977,0.0009415554231964052,0.023801730945706367,0.00032415793975815177,0.0002426088321954012,0.0016743214800953865,0,1,-1000,0,0,0,-1,1,-1,1500.0
11:43:20.100,STABILIZE,-35.3632621,149.1652375,9,-0.0006616272730752826,0.000941336271353066,0.02370644547045231,0.00024111050879582763,0.00019961217185482383,0.0018256211187690496,0,1,-1000,0,0,0,-1,1,-1,1500.0
11:43:20.303,STABILIZE,-35.3632621,149.1652375,9,-0.0006616272730752826,0.000941336271353066,0.02370644547045231,0.00024111050879582763,0.00019961217185482383,0.0018256211187690496,0,1,-1000,0,0,0,-1,1,-1,1500.0
11:43:20.504,STABILIZE,-35.3632621,149.1652375,9,-0.0006616272730752826,0.000941336271353066,0.02370644547045231,0.00024111050879582763,0.00019961217185482383,0.0018256211187690496,0,1,-1000,0,0,0,-1,1,-1,1500.0
11:43:20.706,STABILIZE,-35.3632621,149.1652375,9,-0.0006616272730752826,0.000941336271353066,0.02370644547045231,0.00024111050879582763,0.00019961217185482383,0.0018256211187690496,0,1,-1000,0,0,0,-1,1,-1,1500.0
11:43:20.908,STABILIZE,-35.3632621,149.1652375,9,-0.0006616272730752826,0.000941336271353066,0.02370644547045231,0.00024111050879582763,0.00019961217185482383,0.0018256211187690496,0,1,-1000,0,0,0,-1,1,-1,1500.0
11:43:21.111,STABILIZE,-35.3632621,149.1652375,9,-0.0006616272730752826,0.000941336271353066,0.02370644547045231,0.00024111050879582763,0.00019961217185482383,0.0018256211187690496,0,1,-1000,0,0,0,-1,1,-1,1500.0
11:43:21.313,STABILIZE,-35.3632621,149.1652375,9,-0.0006616272730752826,0.000941336271353066,0.02370644547045231,0.00024111050879582763,0.00019961217185482383,0.0018256211187690496,0,1,-1000,0,0,0,-1,1,-1,1500.0
11:43:21.515,STABILIZE,-35.3632622,149.1652375,4,-0.0006616272730752826,0.000941336271353066,0.02370644547045231,0.00024111050879582763,0.00019961217185482383,0.0018256211187690496,0,1,-1000,0,0,0,-1,1,0,1500.0
11:43:21.716,STABILIZE,-35.3632622,149.1652375,4,-0.0006616272730752826,0.000941336271353066,0.02370644547045231,0.00024111050879582763,0.00019961217185482383,0.0018256211187690496,0,1,-1000,0,0,0,-1,1,0,1500.0
11:43:21.918,STABILIZE,-35.3632622,149.1652375,4,-0.0006616272730752826,0.000941336271353066,0.02370644547045231,0.00024111050879582763,0.00019961217185482383,0.0018256211187690496,0,1,-1000,0,0,0,-1,1,0,1500.0
11:43:22.119,STABILIZE,-35.3632622,149.1652375,0,-0.0006393273361027241,0.000961242476478219,0.023063771426677704,0.0002226393553428352,0.00030912429792806506,0.0016320280265063047,0,1,-1000,0,0,0,-1,2,0,1500.0
11:43:22.320,STABILIZE,-35.3632622,149.1652375,0,-0.0006393273361027241,0.000961242476478219,0.023063771426677704,0.0002226393553428352,0.00030912429792806506,0.0016320280265063047,0,1,-1000,1,0,0,-1,2,0,1500.0
11:43:22.522,STABILIZE,-35.3632622,149.1652375,0,-0.0006393273361027241,0.000961242476478219,0.023063771426677704,0.0002226393553428352,0.00030912429792806506,0.0016320280265063047,0,1,-1000,1,0,0,-1,2,0,1500.0
11:43:22.724,STABILIZE,-35.3632622,149.1652375,0,-0.0006393273361027241,0.000961242476478219,0.023063771426677704,0.0002226393553428352,0.00030912429792806506,0.0016320280265063047,0,1,-1000,1,0,0,-1,2,0,1500.0
11:43:22.926,STABILIZE,-35.3632622,149.1652375,0,-0.0006393273361027241,0.000961242476478219,0.023063771426677704,0.0002226393553428352,0.00030912429792806506,0.0016320280265063047,0,1,-1000,1,0,0,-1,2,0,1500.0
11:43:23.127,STABILIZE,-35.3632622,149.1652375,0,-0.0006393273361027241,0.000961242476478219,0.023063771426677704,0.0002226393553428352,0.00030912429792806506,0.0016320280265063047,0,1,-1000,1,0,0,-1,2,0,1500.0
11:43:23.328,STABILIZE,-35.3632622,149.1652375,0,-0.0008574940729886293,0.0009541651816107333,0.022703584283590317,8.245237404480577e-05,0.000282422115560621,0.0015987572260200977,0,1,-1000,0,0,0,-1,2,1,1500.0
11:43:23.529,STABILIZE,-35.3632622,149.1652375,0,-0.0008574940729886293,0.0009541651816107333,0.022703584283590317,8.245237404480577e-05,0.000282422115560621,0.0015987572260200977,0,1,-1000,0,0,0,-1,2,1,1500.0
11:43:23.730,STABILIZE,-35.3632622,149.1652375,0,-0.0008574940729886293,0.0009541651816107333,0.022703584283590317,8.245237404480577e-05,0.000282422115560621,0.0015987572260200977,0,1,-1000,0,0,0,-1,2,1,1500.0
11:43:23.932,STABILIZE,-35.3632622,149.1652375,0,-0.0009256008197553456,0.0009527914226055145,0.02258159965276718,0.00019136990886181593,0.0002599259605631232,0.0015848514158278704,0,1,-1000,0,0,0,-1,1,0,1500.0
11:43:24.133,STABILIZE,-35.3632622,149.1652375,0,-0.0009256008197553456,0.0009527914226055145,0.02258159965276718,0.00019136990886181593,0.0002599259605631232,0.0015848514158278704,0,2,-1000,0,0,0,-1,1,0,1500.0
11:43:24.334,STABILIZE,-35.3632622,149.1652375,0,-0.0009256008197553456,0.0009527914226055145,0.02258159965276718,0.00019136990886181593,0.0002599259605631232,0.0015848514158278704,0,2,-1000,0,0,0,-1,1,0,1500.0
11:43:24.535,STABILIZE,-35.3632622,149.1652375,0,-0.0010165951680392027,0.0009584007784724236,0.02239660732448101,0.0001850439002737403,0.00035163009306415915,0.0016672322526574135,0,2,-1000,1,0,0,-1,1,0,1500.0
11:43:24.737,STABILIZE,-35.3632622,149.1652375,0,-0.0010165951680392027,0.0009584007784724236,0.02239660732448101,0.0001850439002737403,0.00035163009306415915,0.0016672322526574135,0,2,-1000,1,0,0,-1,1,0,1500.0
11:43:24.938,STABILIZE,-35.3632622,149.1652375,0,-0.0010165951680392027,0.0009584007784724236,0.02239660732448101,0.0001850439002737403,0.00035163009306415915,0.0016672322526574135,0,2,-1000,1,0,0,-1,1,0,1500.0
11:43:25.140,STABILIZE,-35.3632622,149.1652375,0,-0.0010165951680392027,0.0009584007784724236,0.02239660732448101,0.0001850439002737403,0.00035163009306415915,0.0016672322526574135,0,2,-1000,1,0,0,-1,1,0,1500.0
11:43:25.341,STABILIZE,-35.3632622,149.1652375,0,-0.0010165951680392027,0.0009584007784724236,0.02239660732448101,0.0001850439002737403,0.00035163009306415915,0.0016672322526574135,0,2,-1000,1,0,0,-1,1,0,1500.0
11:43:25.542,STABILIZE,-35.3632622,149.1652375,0,-0.0010165951680392027,0.0009584007784724236,0.02239660732448101,0.0001850439002737403,0.00035163009306415915,0.0016672322526574135,0,1,-1000,0,0,0,-1,1,0,1500.0
11:43:25.743,STABILIZE,-35.3632622,149.1652375,0,-0.0010165951680392027,0.0009584007784724236,0.02239660732448101,0.0001850439002737403,0.00035163009306415915,0.0016672322526574135,0,1,-1000,0,0,0,-1,1,0,1500.0
11:43:25.946,AUTO,-35.3632622,149.1652375,0,-0.0010792894754558802,0.0009824299486353993,0.022119054570794106,0.00031839957227930427,0.00022374652326107025,0.0014844303950667381,0,1,-1000,0,0,0,-1,0,-2,1500.0
11:43:26.149,AUTO,-35.3632622,149.1652375,9,-0.0010286633623763919,0.00098085543140769,0.022091617807745934,0.0003432757221162319,0.0002959445118904114,0.0015469728969037533,0,1,-1000,0,1,0,-1,0,-1,1788.0
11:43:26.351,AUTO,-35.3632622,149.1652375,11,-0.0009701686212792993,0.0009804320288822055,0.02205425687134266,0.0002469309256412089,0.0002752585569396615,0.0016663306159898639,0,2,-1000,1,0,1,-1,0,-1,1788.0
11:43:26.552,AUTO,-35.3632621,149.1652375,12,-0.0009227429982274771,0.000981987570412457,0.021995428949594498,0.00033324630931019783,0.0002518451656214893,0.0015983376652002335,0,2,-1000,0,0,1,-1,0,-1,1788.0
11:43:26.754,AUTO,-35.3632621,149.1652375,12,-0.0009227429982274771,0.000981987570412457,0.021995428949594498,0.00033324630931019783,0.0002518451656214893,0.0015983376652002335,0,2,-1000,0,0,1,-1,0,-1,1788.0
11:43:26.956,AUTO,-35.3632621,149.1652375,12,-0.0009227429982274771,0.000981987570412457,0.021995428949594498,0.00033324630931019783,0.0002518451656214893,0.0015983376652002335,0,2,-1000,0,0,1,-1,0,-1,1788.0
11:43:27.158,AUTO,-35.3632621,149.1652375,12,-0.0009227429982274771,0.000981987570412457,0.021995428949594498,0.00033324630931019783,0.0002518451656214893,0.0015983376652002335,0,2,-1000,0,0,1,-1,0,-1,1788.0
11:43:27.375,AUTO,-35.3632621,149.1652375,14,-0.0007741362787783146,0.001099178334698081,0.02185213938355446,0.0003744848072528839,0.00025071081472560763,0.0015117357252165675,0,1,-1000,0,0,1,0,0,-1,1788.0
11:43:27.576,AUTO,-35.3632621,149.1652375,14,-0.0007254941738210618,0.0011616258416324854,0.021787559613585472,0.00024234113516286016,0.0003288929001428187,0.0015232881996780634,0,1,-1000,0,0,0,0,0,-1,1788.0
11:43:27.777,AUTO,-35.3632621,149.1652375,14,-0.0006706573185510933,0.0012296241475269198,0.021722547709941864,0.00034045183565467596,0.00025564589304849505,0.0014594884123653173,0,1,-1000,0,1,0,0,0,-1,1788.0
11:43:27.979,AUTO,-35.3632621,149.1652375,14,-0.0006706573185510933,0.0012296241475269198,0.021722547709941864,0.00034045183565467596,0.00025564589304849505,0.0014594884123653173,0,1,-1000,0,1,0,0,0,-1,1788.0
11:43:28.181,AUTO,-35.3632621,149.1652375,14,-0.0006110035465098917,0.0012990438845008612,0.021658791229128838,0.0003432115772739053,0.00030455831438302994,0.0015248089330270886,0,1,-1000,0,0,0,0,0,0,1788.0
11:43:28.382,AUTO,-35.3632621,149.1652375,14,-0.0005548606859520078,0.00137181649915874,0.02158275432884693,0.00026281748432666063,0.0003904557670466602,0.0014890083111822605,0,2,-1000,0,0,0,0,0,0,1788.0
11:43:28.584,AUTO,-35.3632621,149.1652375,13,-0.0004977725329808891,0.0014377067564055324,0.021511077880859375,0.00033639842877164483,0.00031326099997386336,0.0014672749675810337,0,2,-1000,0,0,0,0,0,0,1788.0
11:43:28.786,AUTO,-35.3632621,149.1652375,13,-0.0004977725329808891,0.0014377067564055324,0.021511077880859375,0.00033639842877164483,0.00031326099997386336,0.0014672749675810337,0,2,-1000,0,0,0,0,0,0,1788.0
11:43:28.988,AUTO,-35.3632621,149.1652375,13,-0.0004977725329808891,0.0014377067564055324,0.021511077880859375,0.00033639842877164483,0.00031326099997386336,0.0014672749675810337,0,2,-1000,0,0,0,0,0,0,12199.0
11:43:29.190,AUTO,-35.3632621,149.1652375,13,-0.0004977725329808891,0.0014377067564055324,0.021511077880859375,0.00033639842877164483,0.00031326099997386336,0.0014672749675810337,0,2,-1000,0,0,0,0,0,0,12199.0
11:43:29.392,AUTO,-35.3632621,149.1652375,12,-0.0001743222092045471,0.0016487385146319866,0.021297594532370567,0.00037185754626989365,0.0002943623694591224,0.0013493115548044443,0,2,-1000,1,1,0,0,0,0,12199.0
11:43:29.593,AUTO,-35.3632621,149.1652375,12,-0.00010100781946675852,0.0017211604863405228,0.02122657187283039,0.0002944638254120946,0.0003219706122763455,0.001429254887625575,0,2,-1000,0,0,1,0,0,0,12199.0
11:43:29.795,AUTO,-35.3632621,149.1652375,14,0.0007411527913063765,0.0009209141135215759,0.021064788103103638,0.008408267982304096,-0.009579818695783615,0.001053980435244739,0,0,-1100,9,-9,0,0,0,-6,12199.0
11:43:29.997,AUTO,-35.3632621,149.1652375,14,0.0007411527913063765,0.0009209141135215759,0.021064788103103638,0.008408267982304096,-0.009579818695783615,0.001053980435244739,0,0,-1100,9,-9,0,0,0,-6,12199.0
11:43:30.199,AUTO,-35.3632621,149.1652375,75,0.00287042954005301,-0.0005743576330132782,0.021075956523418427,0.010627547279000282,0.0003475178382359445,0.0029610181227326393,0,0,-1141,11,1,2,0,0,-40,12199.0
11:43:30.401,AUTO,-35.3632621,149.1652375,217,0.002362757222726941,0.0002558113483246416,0.021129926666617393,-0.005960701033473015,0.004437051247805357,0.002161365933716297,0,0,-1129,-5,4,1,0,1,-74,12199.0
11:43:30.603,AUTO,-35.3632621,149.1652375,435,0.0017154014203697443,0.0011191023513674736,0.021012693643569946,-0.003700424451380968,0.00248997425660491,0.0008180797449313104,0,0,-1108,-3,3,0,0,1,-102,12199.0
11:43:30.804,AUTO,-35.3632621,149.1652375,435,0.0017154014203697443,0.0011191023513674736,0.021012693643569946,-0.003700424451380968,0.00248997425660491,0.0008180797449313104,0,0,-1108,-3,3,0,0,1,-102,12199.0
11:43:31.007,AUTO,-35.3632621,149.1652375,435,0.0017154014203697443,0.0011191023513674736,0.021012693643569946,-0.003700424451380968,0.00248997425660491,0.0008180797449313104,0,0,-1108,-3,3,0,0,1,-102,12199.0
11:43:31.208,AUTO,-35.3632621,149.1652375,435,0.0017154014203697443,0.0011191023513674736,0.021012693643569946,-0.003700424451380968,0.00248997425660491,0.0008180797449313104,0,0,-1108,-3,3,0,0,1,-102,12199.0
11:43:31.410,AUTO,-35.363262,149.1652375,1427,0.024109790101647377,-0.0010751683730632067,0.02080262079834938,0.04705394059419632,-0.007210478186607361,0.002345117973163724,0,0,-1016,47,-6,1,1,6,-145,12199.0
11:43:31.612,AUTO,-35.363262,149.1652377,1804,0.03548957407474518,-0.0029704177286475897,0.020940274000167847,0.04509053751826286,-0.007657298352569342,0.0030583268962800503,0,-1,-1007,45,-6,2,1,12,-147,12199.0
11:43:31.813,AUTO,-35.3632619,149.1652382,2187,0.04630470648407936,-0.005247193388640881,0.021189332008361816,0.04166358709335327,-0.009558206424117088,0.0035386879462748766,1,-3,-1002,42,-8,2,3,21,-148,12199.0
11:43:32.015,AUTO,-35.3632618,149.1652388,2571,0.05635309964418411,-0.007879179902374744,0.021446969360113144,0.03937317058444023,-0.012074697762727737,0.004011133220046759,0,-4,-1000,40,-11,3,5,32,-148,23994.0
11:43:32.216,AUTO,-35.3632618,149.1652388,2571,0.05635309964418411,-0.007879179902374744,0.021446969360113144,0.03937317058444023,-0.012074697762727737,0.004011133220046759,0,-4,-1000,40,-11,3,5,32,-148,23994.0
11:43:32.418,AUTO,-35.3632616,149.1652399,2962,0.06195968762040138,-0.00813332200050354,-0.009198423475027084,-0.026628294959664345,0.03503938019275665,-0.05632587894797325,0,-8,-991,-25,35,-56,8,45,-147,23994.0
11:43:32.620,AUTO,-35.3632614,149.1652412,3340,0.037117406725883484,0.0151109229773283,-0.03271849453449249,-0.15200890600681305,0.08653087168931961,-0.09807141870260239,4,-13,-992,-151,87,-98,9,54,-144,23994.0
11:43:32.822,AUTO,-35.3632614,149.1652412,3340,0.037117406725883484,0.0151109229773283,-0.03271849453449249,-0.15200890600681305,0.08653087168931961,-0.09807141870260239,4,-13,-992,-151,87,-98,9,54,-144,23994.0
11:43:33.024,AUTO,-35.3632614,149.1652412,3340,0.037117406725883484,0.0151109229773283,-0.03271849453449249,-0.15200890600681305,0.08653087168931961,-0.09807141870260239,4,-13,-992,-151,87,-98,9,54,-144,23994.0
11:43:33.226,AUTO,-35.3632614,149.1652412,3340,0.037117406725883484,0.0151109229773283,-0.03271849453449249,-0.15200890600681305,0.08653087168931961,-0.09807141870260239,4,-13,-992,-151,87,-98,9,54,-144,23994.0
11:43:33.428,AUTO,-35.3632609,149.1652451,4465,-0.03191123902797699,0.007066159974783659,-0.0663151815533638,-0.035724300891160965,-0.023239584639668465,-0.030949823558330536,5,-11,-1004,-35,-22,-31,2,37,-148,23994.0
11:43:33.630,AUTO,-35.3632608,149.1652459,4850,-0.04622667282819748,0.0035648478660732508,-0.0738956555724144,-0.07429065555334091,-0.007002442609518766,-0.032711513340473175,3,-6,-999,-73,-6,-33,1,25,-148,23994.0
11:43:33.832,AUTO,-35.3632608,149.1652464,5232,-0.0686546042561531,0.002410698449239135,-0.08286330848932266,-0.09926005452871323,-0.00011161953443661332,-0.03617235645651817,1,-4,-998,-98,0,-36,1,9,-148,23994.0
11:43:34.034,AUTO,-35.3632608,149.1652464,5613,-0.08090338855981827,0.0016647271113470197,-0.09145984798669815,0.011976595968008041,-0.0023938578087836504,-0.028457138687372208,0,0,-1006,12,-1,-28,0,-10,-148,23994.0
11:43:34.237,AUTO,-35.3632608,149.1652464,5613,-0.08090338855981827,0.0016647271113470197,-0.09145984798669815,0.011976595968008041,-0.0023938578087836504,-0.028457138687372208,0,0,-1006,12,-1,-28,0,-10,-148,23994.0
11:43:34.439,AUTO,-35.3632608,149.1652458,5996,-0.07058314234018326,0.00040468518272973597,-0.09759104251861572,0.050972841680049896,-0.0027998972218483686,-0.01931839808821678,-2,3,-1002,51,-2,-19,-2,-29,-148,23994.0
11:43:34.641,AUTO,-35.3632608,149.1652449,6379,-0.05691550672054291,0.00012766332656610757,-0.10184145718812943,0.05751846730709076,0.0027039763517677784,-0.013111577369272709,-3,8,-1000,58,3,-13,-4,-43,-148,23994.0
11:43:34.843,AUTO,-35.3632608,149.1652449,6379,-0.05691550672054291,0.00012766332656610757,-0.10184145718812943,0.05751846730709076,0.0027039763517677784,-0.013111577369272709,-3,8,-1000,58,3,-13,-4,-43,-148,23994.0
11:43:35.045,AUTO,-35.3632608,149.1652449,6379,-0.05691550672054291,0.00012766332656610757,-0.10184145718812943,0.05751846730709076,0.0027039763517677784,-0.013111577369272709,-3,8,-1000,58,3,-13,-4,-43,-148,91125.0
11:43:35.247,AUTO,-35.3632608,149.1652449,6379,-0.05691550672054291,0.00012766332656610757,-0.10184145718812943,0.05751846730709076,0.0027039763517677784,-0.013111577369272709,-3,8,-1000,58,3,-13,-4,-43,-148,91125.0
11:43:35.449,AUTO,-35.3632613,149.1652403,7538,-0.009109201841056347,0.0061938827857375145,-0.10768391191959381,0.06742314249277115,0.011779115535318851,-0.0019530290737748146,-5,14,-1003,67,12,-2,-11,-61,-149,91125.0
11:43:35.651,AUTO,-35.3632616,149.1652386,7925,0.007787160575389862,0.008994604460895061,-0.10787333548069,0.06861677020788193,0.010331414639949799,0.0003005927719641477,-6,12,-1004,69,11,0,-13,-58,-150,91125.0
11:43:35.853,AUTO,-35.3632619,149.165237,8315,0.02475639618933201,0.011359569616615772,-0.10729344934225082,0.06777869164943695,0.008434122428297997,0.001773714437149465,-4,13,-1004,68,9,1,-16,-51,-151,91125.0
11:43:36.054,AUTO,-35.3632623,149.1652357,8706,0.04145517572760582,0.012827480211853981,-0.10613206773996353,0.06629657000303268,0.004009186290204525,0.0038338699378073215,-2,12,-1003,66,4,3,-18,-40,-152,91125.0
11:43:36.256,AUTO,-35.3632623,149.1652357,8706,0.04145517572760582,0.012827480211853981,-0.10613206773996353,0.06629657000303268,0.004009186290204525,0.0038338699378073215,-2,12,-1003,66,4,3,-18,-40,-152,91125.0
11:43:36.458,AUTO,-35.3632627,149.1652347,9098,0.057477619498968124,0.01313329953700304,-0.10487714409828186,0.06327496469020844,-0.0013538900529965758,0.0041168732568621635,-1,9,-1002,63,0,3,-20,-26,-152,91125.0
11:43:36.660,AUTO,-35.3632632,149.1652341,9490,0.07239429652690887,0.01166295725852251,-0.10299371182918549,0.04798879846930504,-0.013710700906813145,0.023427074775099754,0,6,-999,48,-13,23,-21,-9,-152,91125.0
11:43:36.862,AUTO,-35.3632632,149.1652341,9490,0.07239429652690887,0.01166295725852251,-0.10299371182918549,0.04798879846930504,-0.013710700906813145,0.023427074775099754,0,6,-999,48,-13,23,-21,-9,-152,91125.0
11:43:37.064,AUTO,-35.3632632,149.1652341,9490,0.07239429652690887,0.01166295725852251,-0.10299371182918549,0.04798879846930504,-0.013710700906813145,0.023427074775099754,0,6,-999,48,-13,23,-21,-9,-152,91125.0
11:43:37.278,AUTO,-35.3632642,149.165235,10648,0.029283827170729637,-0.06029006466269493,-0.0412769578397274,-0.1250755786895752,-0.004662996623665094,0.03369900584220886,4,-4,-996,-124,-4,33,3,31,-147,91125.0
11:43:37.480,AUTO,-35.3632642,149.165235,10648,0.029283827170729637,-0.06029006466269493,-0.0412769578397274,-0.1250755786895752,-0.004662996623665094,0.03369900584220886,4,-4,-996,-124,-4,33,3,31,-147,91125.0
11:43:37.681,AUTO,-35.363264,149.1652358,11027,-0.001455221907235682,-0.04655644670128822,-0.04578579589724541,-0.10404010117053986,0.0816819965839386,-0.04550227150321007,1,-7,-1003,-103,82,-45,18,31,-147,91125.0
11:43:37.883,AUTO,-35.3632635,149.1652366,11407,-0.02052471600472927,-0.025667225942015648,-0.06276549398899078,-0.05825463682413101,0.07879576086997986,-0.07910452038049698,-1,-7,-1006,-57,79,-79,26,25,-148,91125.0
11:43:38.084,AUTO,-35.3632629,149.1652371,11789,-0.02935711108148098,-0.009930849075317383,-0.08345206081867218,-0.02106323279440403,0.05558546259999275,-0.08412662893533707,-1,-7,-1006,-20,56,-84,30,16,-149,202061.0
11:43:38.286,AUTO,-35.3632622,149.1652374,12179,-0.031081929802894592,0.0018716021440923214,-0.10548022389411926,0.006991500034928322,0.03972884267568588,-0.07771004736423492,-5,-6,-1005,7,40,-78,29,5,-150,202061.0
11:43:38.488,AUTO,-35.3632622,149.1652374,12179,-0.031081929802894592,0.0018716021440923214,-0.10548022389411926,0.006991500034928322,0.03972884267568588,-0.07771004736423492,-5,-6,-1005,7,40,-78,29,5,-150,202061.0
11:43:38.690,AUTO,-35.3632616,149.1652374,12567,-0.0280325785279274,0.009921618737280369,-0.12500281631946564,0.019694320857524872,0.03153415396809578,-0.06892962008714676,-6,-5,-1003,20,32,-69,26,-3,-151,202061.0
11:43:38.892,AUTO,-35.3632616,149.1652374,12567,-0.0280325785279274,0.009921618737280369,-0.12500281631946564,0.019694320857524872,0.03153415396809578,-0.06892962008714676,-6,-5,-1003,20,32,-69,26,-3,-151,202061.0
11:43:39.093,AUTO,-35.3632616,149.1652374,12567,-0.0280325785279274,0.009921618737280369,-0.12500281631946564,0.019694320857524872,0.03153415396809578,-0.06892962008714676,-6,-5,-1003,20,32,-69,26,-3,-151,202061.0
11:43:39.295,AUTO,-35.3632603,149.1652365,13734,-0.0027808798477053642,0.022654876112937927,-0.16252762079238892,0.03787219524383545,0.009545227512717247,-0.02977621555328369,-5,0,-1000,38,10,-29,9,-15,-152,202061.0
11:43:39.497,AUTO,-35.3632603,149.1652365,13734,-0.0027808798477053642,0.022654876112937927,-0.16252762079238892,0.03787219524383545,0.009545227512717247,-0.02977621555328369,-5,0,-1000,38,10,-29,9,-15,-152,202061.0
11:43:39.698,AUTO,-35.3632601,149.165236,14126,0.005585141014307737,0.023603780195116997,-0.1681046038866043,0.029766183346509933,0.0021381869446486235,-0.017861858010292053,-3,2,-1000,30,2,-18,3,-14,-152,202061.0
11:43:39.900,AUTO,-35.36326,149.1652356,14517,0.011644533835351467,0.02295915223658085,-0.17072638869285583,0.02012878656387329,-0.004778949543833733,-0.0061469366773962975,-3,2,-999,20,-4,-6,-2,-11,-152,202061.0
11:43:40.102,AUTO,-35.3632601,149.1652353,14908,0.015270105563104153,0.02071399800479412,-0.17100004851818085,0.01132026594132185,-0.009935174137353897,0.0016586994752287865,-1,2,-999,12,-9,1,-6,-7,-152,202061.0
11:43:40.304,AUTO,-35.3632602,149.1652351,15298,0.01637287810444832,0.017595939338207245,-0.16992402076721191,0.0013701473362743855,-0.011335032060742378,0.003097092267125845,0,2,-999,1,-10,2,-9,-3,-151,202061.0
11:43:40.507,AUTO,-35.3632602,149.1652351,15298,0.01637287810444832,0.017595939338207245,-0.16992402076721191,0.0013701473362743855,-0.011335032060742378,0.003097092267125845,0,2,-999,1,-10,2,-9,-3,-151,202061.0
11:43:40.709,AUTO,-35.3632603,149.1652351,15687,0.015838617458939552,0.014357060194015503,-0.1685783416032791,-0.0041517894715070724,-0.012293748557567596,0.00493199285119772,0,2,-999,-3,-11,4,-12,1,-151,202061.0
11:43:40.911,AUTO,-35.3632603,149.1652351,15687,0.015838617458939552,0.014357060194015503,-0.1685783416032791,-0.0041517894715070724,-0.012293748557567596,0.00493199285119772,0,2,-999,-3,-11,4,-12,1,-151,202061.0
11:43:41.113,AUTO,-35.3632603,149.1652351,15687,0.015838617458939552,0.014357060194015503,-0.1685783416032791,-0.0041517894715070724,-0.012293748557567596,0.00493199285119772,0,2,-999,-3,-11,4,-12,1,-151,271395.0
11:43:41.315,AUTO,-35.363261,149.1652352,16847,-0.018032249063253403,0.004555231425911188,-0.16727949678897858,-0.11381630599498749,-0.009984666481614113,-0.008067605085670948,2,0,-996,-113,-9,-8,-14,5,-149,271395.0
11:43:41.517,AUTO,-35.3632613,149.1652351,17229,-0.0496492013335228,0.00235090428031981,-0.16876813769340515,-0.11770401149988174,8.19058041088283e-05,0.01102712843567133,2,1,-995,-117,1,10,-14,-3,-148,271395.0
11:43:41.719,AUTO,-35.3632613,149.1652351,17229,-0.0496492013335228,0.00235090428031981,-0.16876813769340515,-0.11770401149988174,8.19058041088283e-05,0.01102712843567133,2,1,-995,-117,1,10,-14,-3,-148,271395.0
11:43:41.921,AUTO,-35.3632616,149.1652349,17604,-0.06452782452106476,0.021045945584774017,-0.13117609918117523,-0.018437106162309647,0.10740704089403152,0.2834171652793884,0,4,-978,-17,108,283,-18,-17,-143,271395.0
11:43:42.122,AUTO,-35.3632621,149.1652342,17964,-0.05709540471434593,0.04616343602538109,-0.03676252067089081,0.08264650404453278,-0.01060841791331768,0.36193034052848816,1,5,-955,83,-9,361,-27,-31,-135,271395.0
11:43:42.324,AUTO,-35.3632627,149.1652332,18296,-0.019435478374361992,0.020245803520083427,0.02883625216782093,0.16961176693439484,-0.16060775518417358,0.16779722273349762,2,10,-951,170,-159,167,-34,-38,-123,271395.0
11:43:42.526,AUTO,-35.3632634,149.1652321,18599,0.02017357014119625,-0.01651216857135296,0.05072452500462532,0.14320236444473267,-0.11803635954856873,0.027585143223404884,3,11,-955,143,-117,27,-33,-35,-112,271395.0
11:43:42.728,AUTO,-35.3632634,149.1652321,18599,0.02017357014119625,-0.01651216857135296,0.05072452500462532,0.14320236444473267,-0.11803635954856873,0.027585143223404884,3,11,-955,143,-117,27,-33,-35,-112,271395.0
11:43:42.930,AUTO,-35.3632634,149.1652321,18599,0.02017357014119625,-0.01651216857135296,0.05072452500462532,0.14320236444473267,-0.11803635954856873,0.027585143223404884,3,11,-955,143,-117,27,-33,-35,-112,271395.0
11:43:43.131,AUTO,-35.3632634,149.1652321,18599,0.02017357014119625,-0.01651216857135296,0.05072452500462532,0.14320236444473267,-0.11803635954856873,0.027585143223404884,3,11,-955,143,-117,27,-33,-35,-112,271395.0
11:43:43.333,AUTO,-35.3632648,149.1652304,19344,0.06578216701745987,-0.038473792374134064,0.0312981978058815,-0.007540518417954445,0.015469919890165329,-0.026502592489123344,1,1,-966,-6,16,-26,-7,5,-81,271395.0
11:43:43.535,AUTO,-35.3632648,149.1652306,19542,0.06053241342306137,-0.03214258700609207,0.02670297399163246,-0.03076469898223877,0.032599352300167084,-0.012257368303835392,0,-2,-970,-29,33,-12,1,19,-72,271395.0
11:43:43.737,AUTO,-35.3632648,149.1652306,19542,0.06053241342306137,-0.03214258700609207,0.02670297399163246,-0.03076469898223877,0.032599352300167084,-0.012257368303835392,0,-2,-970,-29,33,-12,1,19,-72,271395.0
11:43:43.938,AUTO,-35.3632648,149.1652312,19720,0.04947873577475548,-0.023060984909534454,0.024795444682240486,-0.045105136930942535,0.03900139033794403,-0.001981596229597926,1,-6,-973,-44,39,-2,8,30,-65,271395.0
11:43:44.140,AUTO,-35.3632645,149.1652321,19880,0.03680175542831421,-0.013563773594796658,0.024421431124210358,-0.0495213083922863,0.03826878219842911,0.004951278679072857,0,-8,-975,-48,38,4,13,38,-58,147275.0
11:43:44.342,AUTO,-35.3632641,149.1652331,20025,0.024725014343857765,-0.005023425444960594,0.024289270862936974,-0.047275591641664505,0.0313783623278141,0.005292543675750494,1,-10,-976,-46,32,5,16,42,-52,147275.0
11:43:44.544,AUTO,-35.3632637,149.1652342,20153,0.014483804814517498,0.0021486128680408,0.023983780294656754,-0.03867665305733681,0.02723570168018341,0.003538926364853978,1,-10,-978,-38,28,3,17,43,-47,147275.0
11:43:44.746,AUTO,-35.3632637,149.1652342,20153,0.014483804814517498,0.0021486128680408,0.023983780294656754,-0.03867665305733681,0.02723570168018341,0.003538926364853978,1,-10,-978,-38,28,3,17,43,-47,147275.0
11:43:44.948,AUTO,-35.3632637,149.1652342,20153,0.014483804814517498,0.0021486128680408,0.023983780294656754,-0.03867665305733681,0.02723570168018341,0.003538926364853978,1,-10,-978,-38,28,3,17,43,-47,147275.0
11:43:45.150,AUTO,-35.3632637,149.1652342,20153,0.014483804814517498,0.0021486128680408,0.023983780294656754,-0.03867665305733681,0.02723570168018341,0.003538926364853978,1,-10,-978,-38,28,3,17,43,-47,147275.0
11:43:45.352,AUTO,-35.3632624,149.1652373,20452,-0.007471819873899221,0.013852160423994064,0.023021144792437553,-0.014979220926761627,0.008583277463912964,0.0011623324826359749,1,-9,-977,-14,9,0,14,34,-30,147275.0
11:43:45.554,AUTO,-35.3632621,149.1652381,20522,-0.010905688628554344,0.015466487035155296,0.022403879091143608,-0.0112686175853014,0.004901356529444456,-0.000453415879746899,0,-8,-975,-10,5,0,11,29,-24,147275.0
11:43:45.756,AUTO,-35.3632621,149.1652381,20522,-0.010905688628554344,0.015466487035155296,0.022403879091143608,-0.0112686175853014,0.004901356529444456,-0.000453415879746899,0,-8,-975,-10,5,0,11,29,-24,147275.0
11:43:45.957,AUTO,-35.3632618,149.1652388,20576,-0.012800956144928932,0.015516412444412708,0.02176201343536377,-0.007807122077792883,-0.001553891459479928,-0.001922480296343565,1,-6,-974,-7,0,-2,8,24,-18,147275.0
11:43:46.159,AUTO,-35.3632616,149.1652394,20613,-0.0135741475969553,0.014619230292737484,0.021218864247202873,0.007883177138864994,-0.003914279863238335,-0.0018713835161179304,0,-5,-971,8,-3,-2,6,19,-11,147275.0
11:43:46.360,AUTO,-35.3632614,149.1652398,20631,-0.013534107245504856,0.013204614631831646,0.02066950686275959,-0.003786612069234252,-0.007298989687114954,-0.0026339704636484385,0,-4,-965,-3,-6,-2,3,14,-3,147275.0
11:43:46.562,AUTO,-35.3632613,149.1652401,20622,-0.05141426622867584,0.025259437039494514,0.019298739731311798,-0.35780540108680725,0.02289692498743534,-0.004818391054868698,0,-16,-939,-357,23,-5,0,5,11,147275.0
11:43:46.776,AUTO,-35.3632613,149.1652401,20622,-0.05141426622867584,0.025259437039494514,0.019298739731311798,-0.35780540108680725,0.02289692498743534,-0.004818391054868698,0,-16,-939,-357,23,-5,0,5,11,147275.0
11:43:46.980,AUTO,-35.3632613,149.1652401,20622,-0.05141426622867584,0.025259437039494514,0.019298739731311798,-0.35780540108680725,0.02289692498743534,-0.004818391054868698,0,-16,-939,-357,23,-5,0,5,11,147275.0
11:43:47.182,AUTO,-35.3632613,149.1652401,20622,-0.05141426622867584,0.025259437039494514,0.019298739731311798,-0.35780540108680725,0.02289692498743534,-0.004818391054868698,0,-16,-939,-357,23,-5,0,5,11,213195.0
11:43:47.384,AUTO,-35.3632616,149.1652393,20472,-0.021652283146977425,0.02521672286093235,0.017677055671811104,0.5579530000686646,0.004005283582955599,-0.004511355888098478,0,8,-1014,558,5,-4,-15,-24,16,213195.0
11:43:47.586,AUTO,-35.363262,149.1652385,20431,-0.028671549633145332,0.026249665766954422,0.01658192276954651,-0.3106587827205658,0.0071020955219864845,-0.008359191007912159,0,-22,-1019,-310,8,-8,-21,-30,12,213195.0
11:43:47.787,AUTO,-35.3632625,149.1652376,20403,-0.039869289845228195,0.027868498116731644,0.01560012623667717,-0.6573038101196289,0.006993938237428665,-0.004069632850587368,0,-9,-1024,-656,8,-4,-27,-35,6,213195.0
11:43:47.989,AUTO,-35.3632625,149.1652376,20403,-0.039869289845228195,0.027868498116731644,0.01560012623667717,-0.6573038101196289,0.006993938237428665,-0.004069632850587368,0,-9,-1024,-656,8,-4,-27,-35,6,213195.0
11:43:48.190,AUTO,-35.3632632,149.1652366,20385,-0.04862252250313759,0.02992928773164749,0.015038374811410904,-0.5231176614761353,0.011568033136427402,-0.003959215711802244,1,10,-1029,-521,12,-4,-34,-40,3,213195.0
11:43:48.392,AUTO,-35.363264,149.1652353,20377,-0.04064735025167465,0.03309787064790726,0.014357791282236576,0.19723305106163025,0.01110841240733862,-0.0072501348331570625,0,44,-1026,199,11,-7,-41,-47,-1,213195.0
11:43:48.594,AUTO,-35.363265,149.1652338,20379,-0.038715165108442307,0.03438461571931839,-0.027156801894307137,0.5375837087631226,-0.00629317294806242,-0.3864233195781708,2,39,-1015,538,-5,-386,-49,-54,-3,213195.0
11:43:48.796,AUTO,-35.363265,149.1652338,20379,-0.038715165108442307,0.03438461571931839,-0.027156801894307137,0.5375837087631226,-0.00629317294806242,-0.3864233195781708,2,39,-1015,538,-5,-386,-49,-54,-3,213195.0
11:43:48.998,AUTO,-35.363265,149.1652338,20379,-0.038715165108442307,0.03438461571931839,-0.027156801894307137,0.5375837087631226,-0.00629317294806242,-0.3864233195781708,2,39,-1015,538,-5,-386,-49,-54,-3,213195.0
11:43:49.200,AUTO,-35.363265,149.1652338,20379,-0.038715165108442307,0.03438461571931839,-0.027156801894307137,0.5375837087631226,-0.00629317294806242,-0.3864233195781708,2,39,-1015,538,-5,-386,-49,-54,-3,213195.0
11:43:49.402,AUTO,-35.3632701,149.1652265,20421,-0.07562634348869324,-0.02399415709078312,-0.9360851645469666,0.4048466980457306,-0.02444586716592312,-1.2146121263504028,-21,30,-1005,405,-23,-1214,-83,-85,-8,213195.0
11:43:49.603,AUTO,-35.3632701,149.1652265,20421,-0.07562634348869324,-0.02399415709078312,-0.9360851645469666,0.4048466980457306,-0.02444586716592312,-1.2146121263504028,-21,30,-1005,405,-23,-1214,-83,-85,-8,213195.0
11:43:49.805,AUTO,-35.3632721,149.1652237,20440,-0.08305226266384125,-0.052161600440740585,-1.2250313758850098,-0.4157106876373291,-0.017416993156075478,-1.1155142784118652,-33,-5,-1006,-415,-16,-1115,-97,-97,-10,213195.0
11:43:50.007,AUTO,-35.3632745,149.1652205,20462,-0.07420793175697327,-0.08056803047657013,-1.4965163469314575,-0.3721576929092407,-0.03355541080236435,-1.0673295259475708,-40,5,-1008,-370,-32,-1067,-110,-110,-11,213195.0
11:43:50.208,AUTO,-35.3632772,149.1652169,20487,-0.044598981738090515,-0.10863153636455536,-1.761953592300415,0.4140165150165558,-0.05698917433619499,-1.0610383749008179,-41,22,-1008,415,-56,-1061,-125,-125,-11,261544.0
11:43:50.410,AUTO,-35.3632802,149.1652128,20514,-0.013983609154820442,-0.13072726130485535,-2.0266518592834473,0.05129718780517578,-0.047562506049871445,-1.0454014539718628,-46,-18,-1005,52,-46,-1045,-141,-142,-12,261544.0
11:43:50.612,AUTO,-35.3632802,149.1652128,20514,-0.013983609154820442,-0.13072726130485535,-2.0266518592834473,0.05129718780517578,-0.047562506049871445,-1.0454014539718628,-46,-18,-1005,52,-46,-1045,-141,-142,-12,261544.0
11:43:50.814,AUTO,-35.3632836,149.1652083,20542,0.009389814920723438,-0.14604274928569794,-2.2609777450561523,-0.3472542464733124,-0.057613927870988846,-0.7290668487548828,-48,-45,-1006,-345,-56,-729,-159,-161,-12,261544.0
11:43:51.016,AUTO,-35.3632836,149.1652083,20542,0.009389814920723438,-0.14604274928569794,-2.2609777450561523,-0.3472542464733124,-0.057613927870988846,-0.7290668487548828,-48,-45,-1006,-345,-56,-729,-159,-161,-12,261544.0
11:43:51.218,AUTO,-35.3632836,149.1652083,20542,0.009389814920723438,-0.14604274928569794,-2.2609777450561523,-0.3472542464733124,-0.057613927870988846,-0.7290668487548828,-48,-45,-1006,-345,-56,-729,-159,-161,-12,261544.0
11:43:51.420,AUTO,-35.3632964,149.1651915,20646,0.039527393877506256,-0.15667863190174103,-2.3364171981811523,-0.137576162815094,-0.004051649011671543,0.1529543697834015,-60,-45,-1012,-136,-3,152,-216,-222,-18,261544.0
11:43:51.622,AUTO,-35.3633015,149.1651849,20692,0.04165688529610634,-0.16346044838428497,-2.3055739402770996,0.0707932710647583,-0.030874012038111687,0.09900029748678207,-67,-28,-1009,72,-29,98,-232,-242,-20,261544.0
11:43:51.823,AUTO,-35.3633015,149.1651849,20692,0.04165688529610634,-0.16346044838428497,-2.3055739402770996,0.0707932710647583,-0.030874012038111687,0.09900029748678207,-67,-28,-1009,72,-29,98,-232,-242,-20,261544.0
11:43:52.025,AUTO,-35.3633069,149.1651777,20742,0.044180359691381454,-0.17209792137145996,-2.288982629776001,0.060423292219638824,-0.03037017211318016,0.049844805151224136,-74,-42,-1007,61,-29,49,-248,-263,-21,261544.0
11:43:52.227,AUTO,-35.3633127,149.16517,20796,0.044518109411001205,-0.17647109925746918,-2.284238338470459,-0.02293720468878746,-0.0270879827439785,0.008456576615571976,-80,-47,-1008,-21,-26,8,-265,-283,-22,261544.0
11:43:52.429,AUTO,-35.3633188,149.1651617,20853,0.04738439619541168,-0.1840738207101822,-2.2857136726379395,0.025512035936117172,-0.033150915056467056,-0.007338618393987417,-80,-51,-1004,26,-32,-7,-282,-304,-23,261544.0
11:43:52.631,AUTO,-35.3633254,149.1651529,20913,0.04872284084558487,-0.19350263476371765,-2.2885401248931885,0.0036695986054837704,-0.024038221687078476,-0.004004811402410269,-91,-54,-1008,4,-23,-4,-299,-325,-24,261544.0
11:43:52.833,AUTO,-35.3633254,149.1651529,20913,0.04872284084558487,-0.19350263476371765,-2.2885401248931885,0.0036695986054837704,-0.024038221687078476,-0.004004811402410269,-91,-54,-1008,4,-23,-4,-299,-325,-24,261544.0
11:43:53.035,AUTO,-35.3633254,149.1651529,20913,0.04872284084558487,-0.19350263476371765,-2.2885401248931885,0.0036695986054837704,-0.024038221687078476,-0.004004811402410269,-91,-54,-1008,4,-23,-4,-299,-325,-24,261544.0
11:43:53.238,AUTO,-35.3633254,149.1651529,20913,0.04872284084558487,-0.19350263476371765,-2.2885401248931885,0.0036695986054837704,-0.024038221687078476,-0.004004811402410269,-91,-54,-1008,4,-23,-4,-299,-325,-24,90346.0
11:43:53.440,AUTO,-35.3633473,149.1651232,21112,0.05092831328511238,-0.19898121058940887,-2.2919692993164062,0.004583726637065411,0.035566747188568115,-0.005796053912490606,-107,-60,-1017,5,36,-5,-353,-390,-30,90346.0
11:43:53.642,AUTO,-35.3633554,149.1651122,21195,0.055254530161619186,-0.19006900489330292,-2.2925331592559814,0.01763615757226944,0.032071422785520554,-0.0048441654071211815,-98,-74,-1015,19,33,-4,-370,-408,-34,90346.0
11:43:53.844,AUTO,-35.3633554,149.1651122,21195,0.055254530161619186,-0.19006900489330292,-2.2925331592559814,0.01763615757226944,0.032071422785520554,-0.0048441654071211815,-98,-74,-1015,19,33,-4,-370,-408,-34,90346.0
11:43:54.046,AUTO,-35.3633638,149.1651009,21288,0.06154637038707733,-0.18683674931526184,-2.294288158416748,-0.02410542033612728,-0.021463003009557724,0.004852290730923414,-109,-63,-1002,-22,-20,4,-383,-423,-37,90346.0
11:43:54.247,AUTO,-35.3633724,149.1650891,21387,0.06393904983997345,-0.18648070096969604,-2.2982895374298096,-0.007707091048359871,0.02105855382978916,-0.02943313680589199,-131,-35,-999,-6,21,-29,-394,-436,-38,90346.0
11:43:54.449,AUTO,-35.3633814,149.165077,21488,0.06051771342754364,-0.17573195695877075,-2.3086049556732178,0.010567676275968552,0.03433574363589287,-0.06503478437662125,-107,-74,-1002,11,35,-65,-407,-448,-40,90346.0
11:43:54.651,AUTO,-35.3633907,149.1650644,21597,0.06457735598087311,-0.16393020749092102,-2.3247005939483643,-0.017036430537700653,0.03956303000450134,-0.060003895312547684,-111,-72,-1001,-15,40,-60,-418,-459,-42,90346.0
11:43:54.853,AUTO,-35.3633907,149.1650644,21597,0.06457735598087311,-0.16393020749092102,-2.3247005939483643,-0.017036430537700653,0.03956303000450134,-0.060003895312547684,-111,-72,-1001,-15,40,-60,-418,-459,-42,90346.0
11:43:55.055,AUTO,-35.3633907,149.1650644,21597,0.06457735598087311,-0.16393020749092102,-2.3247005939483643,-0.017036430537700653,0.03956303000450134,-0.060003895312547684,-111,-72,-1001,-15,40,-60,-418,-459,-42,90346.0
11:43:55.257,AUTO,-35.3633907,149.1650644,21597,0.06457735598087311,-0.16393020749092102,-2.3247005939483643,-0.017036430537700653,0.03956303000450134,-0.060003895312547684,-111,-72,-1001,-15,40,-60,-418,-459,-42,90346.0
11:43:55.458,AUTO,-35.3634194,149.1650257,21933,0.07912544906139374,-0.15702681243419647,-2.3558082580566406,0.02043427713215351,0.043779391795396805,-0.04466155171394348,-124,-78,-1002,22,44,-44,-441,-482,-42,90346.0
11:43:55.660,AUTO,-35.3634293,149.1650124,22047,0.08301945775747299,-0.15020319819450378,-2.362360954284668,0.004941191058605909,0.0021431702189147472,-0.006858081091195345,-132,-62,-991,6,2,-6,-445,-489,-43,90346.0
11:43:55.862,AUTO,-35.3634293,149.1650124,22047,0.08301945775747299,-0.15020319819450378,-2.362360954284668,0.004941191058605909,0.0021431702189147472,-0.006858081091195345,-132,-62,-991,6,2,-6,-445,-489,-43,90346.0
11:43:56.064,AUTO,-35.3634393,149.1649989,22162,0.08686193823814392,-0.15392422676086426,-2.3597798347473145,0.051560331135988235,-0.01345397625118494,0.013443569652736187,-106,-58,-974,52,-12,13,-449,-495,-42,3441.0
11:43:56.266,AUTO,-35.3634493,149.1649852,22274,0.08755544573068619,-0.15240395069122314,-2.352607488632202,-0.00014087813906371593,0.030179759487509727,0.02266441099345684,-121,-74,-988,1,31,22,-452,-503,-41,3441.0
11:43:56.468,AUTO,-35.3634593,149.1649713,22386,0.08777467906475067,-0.14920799434185028,-2.3410708904266357,0.007721880450844765,0.02637586183845997,0.07936644554138184,-119,-58,-988,9,27,79,-453,-509,-41,3441.0
11:43:56.670,AUTO,-35.3634695,149.1649573,22502,0.09106183797121048,-0.14027218520641327,-2.3232665061950684,0.008999189361929893,0.009498164989054203,0.08982288837432861,-131,-93,-999,10,10,89,-455,-513,-44,3441.0
11:43:56.872,AUTO,-35.3634695,149.1649573,22502,0.09106183797121048,-0.14027218520641327,-2.3232665061950684,0.008999189361929893,0.009498164989054203,0.08982288837432861,-131,-93,-999,10,10,89,-455,-513,-44,3441.0
11:43:57.074,AUTO,-35.3634695,149.1649573,22502,0.09106183797121048,-0.14027218520641327,-2.3232665061950684,0.008999189361929893,0.009498164989054203,0.08982288837432861,-131,-93,-999,10,10,89,-455,-513,-44,3441.0
11:43:57.279,AUTO,-35.3634695,149.1649573,22502,0.09106183797121048,-0.14027218520641327,-2.3232665061950684,0.008999189361929893,0.009498164989054203,0.08982288837432861,-131,-93,-999,10,10,89,-455,-513,-44,3441.0
11:43:57.480,AUTO,-35.3634997,149.1649145,22851,0.0714845061302185,-0.136127769947052,-2.2801859378814697,-0.03719181567430496,-0.003016970120370388,0.0071165906265378,-105,-85,-973,-35,-2,7,-452,-521,-40,3441.0
11:43:57.682,AUTO,-35.36351,149.1649,22960,0.06417922675609589,-0.13180072605609894,-2.2807774543762207,-0.04624439403414726,0.005992980673909187,-0.004311448894441128,-146,-67,-989,-44,6,-4,-452,-520,-39,3441.0
11:43:57.884,AUTO,-35.3635201,149.1648857,23065,0.06075800955295563,-0.12680143117904663,-2.28340220451355,0.0008131270296871662,0.033551592379808426,-0.014041069895029068,-145,-67,-993,2,34,-13,-455,-518,-38,3441.0
11:43:58.086,AUTO,-35.3635201,149.1648857,23065,0.06075800955295563,-0.12680143117904663,-2.28340220451355,0.0008131270296871662,0.033551592379808426,-0.014041069895029068,-145,-67,-993,2,34,-13,-455,-518,-38,3441.0
11:43:58.287,AUTO,-35.3635302,149.1648716,23169,0.059950217604637146,-0.11932350695133209,-2.286104679107666,0.02351314201951027,0.03328077495098114,-0.021033383905887604,-152,-76,-996,24,34,-20,-455,-514,-38,3441.0
11:43:58.489,AUTO,-35.3635403,149.1648576,23275,0.06422145664691925,-0.10727081447839737,-2.287457227706909,0.010386109352111816,0.05788236856460571,-0.007943211123347282,-132,-64,-988,11,58,-8,-455,-507,-39,3441.0
11:43:58.691,AUTO,-35.3635504,149.1648437,23384,0.0656585618853569,-0.09021268784999847,-2.2882254123687744,0.029027748852968216,0.06821110844612122,-0.006927940063178539,-134,-81,-998,30,69,-6,-451,-500,-41,3441.0
11:43:58.893,AUTO,-35.3635504,149.1648437,23384,0.0656585618853569,-0.09021268784999847,-2.2882254123687744,0.029027748852968216,0.06821110844612122,-0.006927940063178539,-134,-81,-998,30,69,-6,-451,-500,-41,3441.0
11:43:59.095,AUTO,-35.3635504,149.1648437,23384,0.0656585618853569,-0.09021268784999847,-2.2882254123687744,0.029027748852968216,0.06821110844612122,-0.006927940063178539,-134,-81,-998,30,69,-6,-451,-500,-41,21099.0
11:43:59.297,AUTO,-35.3635504,149.1648437,23384,0.0656585618853569,-0.09021268784999847,-2.2882254123687744,0.029027748852968216,0.06821110844612122,-0.006927940063178539,-134,-81,-998,30,69,-6,-451,-500,-41,21099.0
11:43:59.499,AUTO,-35.3635798,149.1648037,23719,0.07039003819227219,-0.053230345249176025,-2.2893121242523193,0.02178475633263588,0.05147505924105644,-0.003589063649997115,-118,-70,-982,22,51,-3,-427,-467,-39,21099.0
11:43:59.701,AUTO,-35.3635893,149.1647909,23823,0.0693296566605568,-0.03983287140727043,-2.288578987121582,0.009324182756245136,0.04786357283592224,0.0029994084034115076,-119,-72,-981,10,48,3,-415,-454,-37,21099.0
11:43:59.902,AUTO,-35.3635984,149.1647785,23923,0.06823369860649109,-0.028777359053492546,-2.288165807723999,-0.07531269639730453,0.049028702080249786,0.00493033230304718,-123,-82,-988,-73,49,4,-401,-439,-34,21099.0
11:44:00.104,AUTO,-35.3635984,149.1647785,23923,0.06823369860649109,-0.028777359053492546,-2.288165807723999,-0.07531269639730453,0.049028702080249786,0.00493033230304718,-123,-82,-988,-73,49,4,-401,-439,-34,21099.0
11:44:00.306,AUTO,-35.3636071,149.1647666,24016,0.07091294974088669,-0.01997111551463604,-2.288219928741455,0.06027999520301819,0.034091267734766006,-0.00025692503550089896,-114,-69,-983,61,34,0,-386,-422,-31,21099.0
11:44:00.508,AUTO,-35.3636156,149.1647552,24101,0.07161585986614227,-0.010072252713143826,-2.2882728576660156,0.013408483937382698,0.05938330292701721,-0.005663552321493626,-108,-72,-985,14,60,-5,-371,-405,-28,21099.0
11:44:00.710,AUTO,-35.3636237,149.1647442,24179,0.06603236496448517,0.0006295045604929328,-2.2885825634002686,-0.07320022583007812,0.04691844433546066,-0.001234681811183691,-102,-71,-986,-72,47,0,-353,-388,-26,21099.0
11:44:00.912,AUTO,-35.3636237,149.1647442,24179,0.06603236496448517,0.0006295045604929328,-2.2885825634002686,-0.07320022583007812,0.04691844433546066,-0.001234681811183691,-102,-71,-986,-72,47,0,-353,-388,-26,21099.0
11:44:01.114,AUTO,-35.3636237,149.1647442,24179,0.06603236496448517,0.0006295045604929328,-2.2885825634002686,-0.07320022583007812,0.04691844433546066,-0.001234681811183691,-102,-71,-986,-72,47,0,-353,-388,-26,21099.0
11:44:01.316,AUTO,-35.3636237,149.1647442,24179,0.06603236496448517,0.0006295045604929328,-2.2885825634002686,-0.07320022583007812,0.04691844433546066,-0.001234681811183691,-102,-71,-986,-72,47,0,-353,-388,-26,21099.0
11:44:01.518,AUTO,-35.3636454,149.1647145,24376,0.056820519268512726,0.035973791033029556,-2.288074493408203,-0.18718217313289642,0.05341411381959915,0.004083825740963221,-85,-68,-991,-185,54,4,-295,-327,-19,21099.0
11:44:01.720,AUTO,-35.3636518,149.1647057,24431,0.05484906584024429,0.04788360372185707,-2.2878987789154053,0.08794868737459183,0.028955264016985893,-0.007136991247534752,-89,-44,-997,89,29,-6,-273,-305,-17,21099.0
11:44:01.921,AUTO,-35.3636577,149.1646976,24478,0.061550479382276535,0.04996531084179878,-2.2888224124908447,0.5440196990966797,-0.0017303633503615856,-0.005868800915777683,-80,-38,-983,544,0,-5,-252,-281,-13,21099.0
11:44:02.124,AUTO,-35.3636633,149.1646899,24513,0.045818571001291275,0.05109274759888649,-2.2877626419067383,-0.5689990520477295,0.020779311656951904,0.0320822149515152,-76,-83,-996,-568,21,32,-232,-259,-9,156456.0
11:44:02.326,AUTO,-35.3636633,149.1646899,24513,0.045818571001291275,0.05109274759888649,-2.2877626419067383,-0.5689990520477295,0.020779311656951904,0.0320822149515152,-76,-83,-996,-568,21,32,-232,-259,-9,156456.0
11:44:02.528,AUTO,-35.3636684,149.164683,24540,0.03813702240586281,0.05484369024634361,-2.2873289585113525,-0.4620276689529419,0.022119589149951935,-0.009467745199799538,-74,-53,-998,-460,22,-9,-211,-239,-6,156456.0
11:44:02.730,AUTO,-35.363673,149.1646766,24564,0.04634510353207588,0.0585327073931694,-2.287686586380005,0.49403849244117737,0.018111037090420723,-0.02800854854285717,-59,-7,-1002,496,18,-27,-192,-219,-6,156456.0
11:44:02.932,AUTO,-35.363673,149.1646766,24564,0.04634510353207588,0.0585327073931694,-2.287686586380005,0.49403849244117737,0.018111037090420723,-0.02800854854285717,-59,-7,-1002,496,18,-27,-192,-219,-6,156456.0
11:44:03.134,AUTO,-35.363673,149.1646766,24564,0.04634510353207588,0.0585327073931694,-2.287686586380005,0.49403849244117737,0.018111037090420723,-0.02800854854285717,-59,-7,-1002,496,18,-27,-192,-219,-6,156456.0
11:44:03.336,AUTO,-35.363673,149.1646766,24564,0.04634510353207588,0.0585327073931694,-2.287686586380005,0.49403849244117737,0.018111037090420723,-0.02800854854285717,-59,-7,-1002,496,18,-27,-192,-219,-6,156456.0
11:44:03.538,AUTO,-35.3636843,149.1646611,24624,0.02641020342707634,0.07604258507490158,-2.2883288860321045,-0.6932258605957031,0.013591993600130081,0.0142130795866251,-45,-63,-997,-692,14,14,-135,-158,-5,156456.0
11:44:03.740,AUTO,-35.3636873,149.164657,24644,0.02450617589056492,0.08226771652698517,-2.2885618209838867,-0.09656041115522385,0.030851682648062706,-0.012926379218697548,-38,-11,-1002,-94,31,-12,-115,-138,-5,156456.0
11:44:03.942,AUTO,-35.3636898,149.1646536,24661,0.030572660267353058,0.08619978278875351,-2.288985013961792,0.6501078009605408,-0.0013293232768774033,-0.016155831515789032,-32,14,-997,652,0,-16,-96,-117,-3,156456.0
11:44:04.144,AUTO,-35.363692,149.1646507,24673,0.03112960420548916,0.07915252447128296,-2.2890498638153076,0.40715059638023376,-0.03479635342955589,0.007090072147548199,-22,-13,-999,407,-33,6,-79,-97,-2,156456.0
11:44:04.346,AUTO,-35.363692,149.1646507,24673,0.03112960420548916,0.07915252447128296,-2.2890498638153076,0.40715059638023376,-0.03479635342955589,0.007090072147548199,-22,-13,-999,407,-33,6,-79,-97,-2,156456.0
11:44:04.547,AUTO,-35.3636937,149.1646484,24682,0.018118781968951225,0.06935787945985794,-2.288640022277832,-0.5037848353385925,-0.04641427472233772,0.011253305710852146,-21,-50,-996,-503,-45,11,-63,-80,-1,156456.0
11:44:04.749,AUTO,-35.3636952,149.1646465,24688,0.011173760518431664,0.06138935685157776,-2.288985252380371,-0.5903342366218567,-0.023033712059259415,-0.0048561920411884785,-18,-29,-1003,-588,-22,-4,-49,-66,0,156456.0
11:44:04.951,AUTO,-35.3636952,149.1646465,24688,0.011173760518431664,0.06138935685157776,-2.288985252380371,-0.5903342366218567,-0.023033712059259415,-0.0048561920411884785,-18,-29,-1003,-588,-22,-4,-49,-66,0,156456.0
11:44:05.153,AUTO,-35.3636952,149.1646465,24688,0.011173760518431664,0.06138935685157776,-2.288985252380371,-0.5903342366218567,-0.023033712059259415,-0.0048561920411884785,-18,-29,-1003,-588,-22,-4,-49,-66,0,241442.0
11:44:05.355,AUTO,-35.3636952,149.1646465,24688,0.011173760518431664,0.06138935685157776,-2.288985252380371,-0.5903342366218567,-0.023033712059259415,-0.0048561920411884785,-18,-29,-1003,-588,-22,-4,-49,-66,0,241442.0
11:44:05.557,AUTO,-35.363698,149.1646428,24701,0.005231305956840515,0.046475354582071304,-2.290426254272461,-0.5395458936691284,-0.0141004528850317,0.0018687808187678456,-8,-38,-999,-538,-13,1,-18,-32,0,241442.0
11:44:05.759,AUTO,-35.3636985,149.1646421,24704,0.0011376022594049573,0.042497482150793076,-2.290739059448242,-0.44396138191223145,-0.018373806029558182,-0.0020856368355453014,-6,-5,-994,-442,-17,-2,-10,-24,0,241442.0
11:44:05.961,AUTO,-35.3636988,149.1646417,24703,0.007588460110127926,0.03771331161260605,-2.291307210922241,0.4634599983692169,-0.020088328048586845,-0.00345609406940639,-4,28,-1006,465,-19,-3,-2,-17,0,241442.0
11:44:06.162,AUTO,-35.363699,149.1646414,24701,0.01180917676538229,0.0322517454624176,-2.291632890701294,0.46586328744888306,-0.01906072534620762,-0.0012594186700880527,-1,9,-999,466,-18,0,1,-10,2,241442.0
11:44:06.364,AUTO,-35.363699,149.1646414,24701,0.01180917676538229,0.0322517454624176,-2.291632890701294,0.46586328744888306,-0.01906072534620762,-0.0012594186700880527,-1,9,-999,466,-18,0,1,-10,2,241442.0
11:44:06.566,AUTO,-35.3636991,149.1646413,24700,-0.0015344450948759913,0.02677006460726261,-2.291990280151367,-0.46103429794311523,-0.022931961342692375,0.002172661479562521,0,-32,-996,-460,-21,2,5,-5,0,241442.0
11:44:06.768,AUTO,-35.3636992,149.1646414,24699,-0.006994493305683136,0.020238099619746208,-2.2921628952026367,-0.4000036418437958,-0.029116488993167877,-0.00025189665029756725,0,-4,-997,-397,-28,0,8,-1,0,241442.0
11:44:06.970,AUTO,-35.3636992,149.1646414,24699,-0.006994493305683136,0.020238099619746208,-2.2921628952026367,-0.4000036418437958,-0.029116488993167877,-0.00025189665029756725,0,-4,-997,-397,-28,0,8,-1,0,241442.0
11:44:07.172,AUTO,-35.3636992,149.1646414,24699,-0.006994493305683136,0.020238099619746208,-2.2921628952026367,-0.4000036418437958,-0.029116488993167877,-0.00025189665029756725,0,-4,-997,-397,-28,0,8,-1,0,241442.0
11:44:07.373,AUTO,-35.3636992,149.1646414,24699,-0.006994493305683136,0.020238099619746208,-2.2921628952026367,-0.4000036418437958,-0.029116488993167877,-0.00025189665029756725,0,-4,-997,-397,-28,0,8,-1,0,241442.0
11:44:07.575,AUTO,-35.363699,149.1646417,24694,-0.006103879772126675,-0.002379087498411536,-2.2927587032318115,-0.5535122752189636,-0.026716843247413635,0.0016489292029291391,1,-32,-992,-552,-25,1,9,2,1,241442.0
11:44:07.777,AUTO,-35.3636989,149.1646418,24692,-0.007770389784127474,-0.004950040020048618,-2.293351411819458,-0.1795061230659485,0.01220609713345766,0.005202351603657007,0,2,-1005,-177,13,5,7,0,0,241442.0
11:44:07.979,RTL,-35.3636989,149.1646419,24691,0.0029641054570674896,-0.002937095006927848,-2.2937171459198,0.6458646655082703,-0.0006575165316462517,0.016633054241538048,1,37,-983,648,0,16,6,0,0,241442.0
