time_stamp,roll,pitch,yaw,rollspeed,pitchspeed,yawspeed,lat,lon,relative_alt,vx,vy,vz,xacc,yacc,zacc,xgyro,ygyro,zgyro,RTL_ALT,MODE
13:02:16,0.00018209879635833204,0.0015916277188807726,0.029210587963461876,0.00023442000383511186,0.00038733240216970444,0.002354798372834921,-35.3632621,149.1652375,12.5,-1.5,2.0,0.0,0.0,1.0,-1000.0,0.0,0.0,0.0,1500.0,STABILIZE
13:02:31,-0.0008990491187432781,0.0009842608124017715,0.02339138090610504,0.0012744471750920638,0.00025990566064137965,0.001530932611785829,-35.3632622,149.1652375,1.0,-1.0,1.75,1.0,0.0,1.3333333333333333,-1000.0,0.3333333333333333,0.6666666666666666,0.0,94876.0,AUTO
13:02:32,-0.0009858733392320573,0.0010882578790187836,0.023088736459612846,0.0002384287363383919,0.00029308279044926167,0.0015292870230041444,-35.3632621,149.1652375,0.0,0.0,0.0,0.0,0.0,1.0,-1000.0,0.0,1.0,0.0,94876.0,AUTO
13:02:34,-0.0005117049149703234,0.0016168965375982225,0.022538330405950546,0.0003389150951988995,0.0003167074464727193,0.001488510170020163,-35.3632621,149.16523745,0.5,0.0,0.0,0.5,0.0,1.5,-1000.0,1.0,0.5,0.5,83927.0,AUTO
13:02:36,0.018205479253083467,-0.00028516651946119964,0.02179107256233692,0.04716475307941437,-0.006977365585044026,0.001834878174122423,-35.36326205,149.1652375,1286.5,0.0,3.0,-142.5,0.0,0.0,-1024.0,47.5,-6.0,0.5,72978.0,AUTO
13:02:37,0.04980510380119085,-0.006077775091398507,0.014295144705101848,0.023154946975409985,0.002709463005885482,-0.013050921552348882,-35.363261824999995,149.165238625,2429.0,4.25,27.25,-148.25,0.5,-4.5,-999.75,23.75,3.5,-13.5,201595.0,AUTO
13:02:38,-0.06540838815271854,0.012857783120125532,-0.06864744797348976,-0.10410315170884132,-0.02155809197574854,-0.0459616594016552,-35.36326095,149.1652444,4325.0,1.0,32.5,-147.0,3.5,-9.0,-1010.5,-103.0,-20.5,-46.0,201595.0,AUTO
13:02:40,0.007941634947201237,0.007729255128651857,-0.10277775675058365,0.06652406230568886,0.007531881798058748,0.0016387321520596743,-35.363262,149.16523769999998,7402.5,-14.5,-56.5,-151.5,-5.0,13.0,-1003.5,66.5,7.5,1.0,214355.5,AUTO
13:02:42,-0.0006581973284482956,-0.0353376567363739,-0.04290711134672165,-0.06711315736174583,0.07870359346270561,-0.0555854644626379,-35.3632639,149.16523445,10514.5,22.0,20.5,-149.0,-1.0,-5.5,-1002.0,-66.0,79.0,-55.5,227116.0,AUTO
13:02:43,-0.01753016351722181,0.005541185208130628,-0.09856614097952843,0.0027046391624026,0.0364477951079607,-0.0685463109984994,-35.363262125000006,149.165235375,11669.5,26.25,3.5,-151.5,-4.0,-5.25,-1003.25,3.25,36.5,-68.25,174305.0,AUTO
13:02:44,0.00802167458459735,0.021678637713193893,-0.150621198117733,0.02083900012075901,-0.003463980450760573,-0.012092016637325287,-35.363260249999996,149.16523460000002,13622.0,2.0,-7.0,-153.0,-2.0,0.5,-999.5,20.5,-2.5,-12.0,174305.0,AUTO
13:02:46,0.004233986604958773,0.0015072992537170649,-0.15685318410396576,-0.006161182187497616,-0.007120880763977766,-0.011968106031417847,-35.3632614,149.165235,16698.0,-10.0,10.0,-153.0,2.0,0.0,-1000.0,-5.0,-6.0,-12.0,193262.0,AUTO
13:02:48,0.0002900419058278203,-0.00010157612268812954,-0.19236718118190765,0.0021390054025687277,0.002220105263404548,-0.02552606724202633,-35.36326205,149.165236,19230.0,-3.0,4.5,-153.0,0.5,0.0,-1000.0,2.5,2.5,-26.0,212219.0,AUTO
13:02:49,0.0031141501967795193,0.0018425285816192627,-0.2173028066754341,0.003374837979208678,0.0029504334088414907,-0.023356564808636904,-35.3632621,149.1652362,20788.0,-0.5,2.75,-153.0,0.0,0.0,-1000.0,3.5,3.0,-23.5,281517.0,AUTO
13:02:50,0.003840590283895532,0.0036609513529886803,-0.2429184913635254,-0.0009318347244213024,0.0014452410396188498,-0.02193117265899976,-35.3632621,149.16523630000003,22573.0,-0.6666666666666666,3.6666666666666665,-153.0,0.0,0.0,-1000.0,0.0,2.0,-21.333333333333332,281517.0,AUTO
13:02:52,-0.0003886261838488281,0.006636153440922499,-0.25955525040626526,0.031397495418787,-0.005433175712823868,0.029193250462412834,-35.3632621,149.1652367,26041.0,-5.0,0.0,-153.0,0.0,0.0,-1002.0,32.0,-4.0,29.0,151196.0,AUTO
13:02:54,-0.021899212850257754,0.019455046392977238,-0.031779877841472626,-0.015402894467115402,-0.04972246289253235,0.2095908373594284,-35.363262950000006,149.1652365,28458.0,-19.0,-9.0,-122.0,2.0,2.5,-938.5,-14.5,-49.0,209.0,20875.0,AUTO
13:02:55,0.017329661641269922,-0.040064206812530756,0.14693190902471542,0.11430488555924967,-0.05225980468094349,-0.026734920917078853,-35.363265049999995,149.16523447499998,29402.5,-18.75,-19.5,-61.25,1.75,8.0,-954.5,114.75,-51.0,-26.75,115922.0,AUTO
13:02:56,0.03213431965559721,-0.02788012335076928,0.11833509430289268,0.05287806689739227,0.03755925036966801,-0.016766495304182172,-35.363265,149.1652341,29840.0,14.5,13.0,-34.0,-1.5,-5.0,-987.0,53.5,38.0,-16.5,115922.0,AUTO
13:02:58,-0.025009803473949432,0.040831683203577995,0.0997050441801548,0.09524255990982056,0.01621195301413536,-0.008071665186434984,-35.3632619,149.1652383,30213.5,-0.5,4.5,-3.0,1.0,2.0,-1009.5,96.0,17.0,-7.5,148229.5,AUTO
13:03:00,-0.02686236798763275,0.04712395370006561,-0.17375870794057846,-0.04653075337409973,0.01765554817393422,-0.5015515238046646,-35.363268250000004,149.16523510000002,30578.0,-71.5,-19.5,-44.5,6.0,9.5,-1027.0,-46.0,18.0,-501.0,180537.0,AUTO
13:03:01,-0.06765572912991047,0.018078907334711403,-0.9207223802804947,-0.034247636795043945,0.0005782575171906501,-0.7576962113380432,-35.36327695,149.165231325,31168.5,-121.25,-30.5,-81.0,-8.0,26.5,-1042.75,-33.0,1.25,-757.25,7646.0,AUTO
13:03:02,-0.04115076409652829,-0.016274639405310154,-1.5935490131378174,0.027431441470980644,0.017352773109450936,-0.5681396275758743,-35.36329025,149.1652259,32213.0,-160.0,-39.0,-125.0,-29.0,21.5,-1042.0,28.5,18.0,-567.5,7646.0,AUTO
13:03:04,-0.033853027038276196,-0.07689213380217552,-2.340767979621887,-0.057721973862499,0.030822677072137594,-0.20828156359493732,-35.36332025,149.16521269999998,34957.5,-187.0,-63.5,-132.0,-42.5,-7.0,-1003.5,-56.0,31.5,-208.0,141310.0,AUTO
13:03:06,0.017083334736526012,-0.05763285979628563,-2.4576865434646606,0.03008504305034876,0.0023415004834532738,-0.010248222388327122,-35.36335865,149.16519925,37716.0,-229.5,-59.5,-138.5,-55.0,-7.0,-1002.5,31.0,3.5,-10.5,274974.0,AUTO
13:03:07,0.020269388798624277,-0.04543366376310587,-2.434264659881592,-0.011275604891125113,0.012924493523314595,0.06088089570403099,-35.3633786,149.165191625,39142.75,-218.25,-77.75,-141.0,-49.25,-1.25,-1000.75,-9.5,13.25,60.5,113579.0,AUTO
13:03:08,0.005718843603972346,-0.034185091964900494,-2.3867911100387573,-0.01918991655111313,0.006598650186788291,0.024004231207072735,-35.3633974,149.165183,40591.5,-205.0,-77.5,-142.0,-52.0,-5.5,-998.5,-17.5,7.5,24.0,113579.0,AUTO
13:03:10,0.0013453862629830837,-0.04010530561208725,-2.4444313049316406,0.01313845906406641,0.005759454099461436,-0.0453644935041666,-35.363433150000006,149.16516835,43488.0,-195.5,-58.0,-141.0,-45.5,-3.0,-1000.0,14.0,6.5,-45.0,82966.5,AUTO
13:03:12,0.022056659683585167,0.005505290697328746,-2.5266213417053223,-0.006464139558374882,0.03317294176667929,-0.035320933908224106,-35.3634669,149.1651557,46451.5,-160.5,-51.5,-149.5,-38.0,-10.5,-1004.0,-5.0,33.5,-35.0,52354.0,AUTO
13:03:13,0.010392438154667616,0.02028497267747298,-2.5817883014678955,-0.0570105183578562,-0.03161013167118654,-0.18137850845232606,-35.36347965,149.16515042499998,48002.5,-115.5,-38.5,-148.75,-28.0,-9.0,-980.5,-55.75,-30.5,-180.75,15621.0,AUTO
13:03:14,-0.028854554519057274,0.019485505297780037,-2.910772681236267,0.022508878260850906,0.04396432917565107,-0.30919778160750866,-35.363489349999995,149.1651478,49232.5,-96.0,-4.5,-83.5,-21.5,-8.5,-908.5,24.0,44.5,-309.5,15621.0,AUTO
13:03:16,0.015738817863166332,0.03354514483362436,-2.9410829544067383,0.014137953519821167,-0.044354602694511414,0.010115979705005884,-35.363495799999995,149.165147,49753.5,22.5,-18.5,0.5,5.0,1.5,-981.0,15.5,-43.0,10.0,126174.0,AUTO
13:03:18,0.0016065649688243866,-0.002877798047848046,-2.9277225732803345,-0.04631340689957142,0.022599722258746624,0.010420424863696098,-35.363492300000004,149.1651442,49750.5,11.5,-16.0,-1.5,1.5,-0.5,-1006.5,-44.0,23.5,10.0,236727.0,RTL
13:03:19,-0.000916673889150843,0.009088092716410756,-2.921670436859131,-0.08711368590593338,0.009057125076651573,0.012146209832280874,-35.363492,149.16514329999998,49786.0,8.0,-16.75,-12.25,0.5,-6.0,-1027.5,-85.25,9.75,12.25,157657.0,RTL
13:03:20,-0.003349212172906846,0.011169003788381815,-2.91410756111145,-0.04007364809513092,0.005126934964209795,0.010183163452893496,-35.363492,149.1651425,50099.0,8.5,-9.5,-52.5,0.5,-11.0,-1042.5,-38.5,5.5,10.0,157657.0,RTL
13:03:22,0.004116160736884922,0.008625742979347706,-2.902471899986267,-0.001455213874578476,-0.002846322604455054,0.004443660844117403,-35.363492,149.16514225,51992.5,10.0,-2.5,-133.0,0.0,0.0,-1029.0,0.5,-1.5,4.5,205337.0,RTL
13:03:24,0.004637610167264938,0.009174951119348407,-2.930196523666382,-0.08144019823521376,-0.0006369659677147865,-0.04455043748021126,-35.3634918,149.1651382,54968.5,11.5,-44.0,-148.0,3.5,-8.5,-1000.5,-79.0,1.0,-43.5,253017.0,RTL
13:03:25,-0.0756762009114027,0.008764738100580871,-2.977003574371338,0.005405999254435301,-0.013831066433340311,-0.023665091022849083,-35.363491425,149.16513515,56485.25,7.75,3.0,-149.75,1.75,-1.75,-1005.5,7.5,-11.5,-22.25,120754.0,RTL
13:03:26,-0.02869322244077921,0.0035575489746406674,-2.9888566732406616,0.06160677596926689,0.00190038449363783,-0.004464495577849448,-35.363491350000004,149.16513859999998,58027.5,1.5,48.0,-150.5,-3.5,9.5,-1001.5,63.0,3.5,-3.5,120754.0,RTL
13:03:28,0.01539231080096215,-0.018833543173968792,-2.9601378440856934,-0.03892157971858978,-0.006113545969128609,0.005710061639547348,-35.3634909,149.1651456,61135.5,-2.0,0.5,-150.5,-0.5,0.5,-998.0,-36.5,-4.5,6.5,80915.5,RTL
13:03:30,-0.00193688552826643,0.01708495942875743,-2.9993109703063965,0.04376531206071377,0.006725023500621319,0.06176870875060558,-35.3634926,149.1651474,64226.5,-3.0,23.5,-151.0,-3.0,3.5,-999.5,45.5,8.0,63.0,41077.0,RTL
13:03:31,0.023049340583384037,0.011664150166325271,-2.879554808139801,-0.0019965737592428923,-0.022265074774622917,0.14015860203653574,-35.363492275,149.16514915,65769.75,14.0,5.5,-149.25,1.75,1.75,-998.25,0.0,-20.25,140.75,498.0,RTL
13:03:32,0.01922620553523302,-0.010992093477398157,-2.829170346260071,-0.011872119968757033,-0.009358410723507404,-0.0007391897961497307,-35.36349105,149.16514815,67272.0,12.0,-20.0,-144.0,3.5,-2.5,-993.5,-10.0,-7.5,0.0,498.0,RTL
13:03:34,-0.012804694939404726,0.008414410287514329,-2.833748936653137,-0.004520359914749861,0.0034612663439475,0.000319336453685537,-35.3634907,149.16514180000001,70257.0,-2.0,-20.0,-149.0,0.0,-5.5,-1002.5,-3.0,5.0,0.5,21968.5,RTL
13:03:36,0.028292575851082802,0.009587853099219501,-2.846095085144043,-0.050913041457533836,0.026067944709211588,-0.039143506437540054,-35.36349095,149.16513755,73359.0,4.5,-33.5,-151.0,1.5,-7.0,-995.0,-49.5,28.0,-38.5,43439.0,RTL
13:03:37,-0.06070266431197524,0.013979993527755141,-2.888083517551422,-0.0906742688966915,-0.015086991421412677,-0.03686598315834999,-35.363490425,149.165133675,74895.0,7.0,-21.25,-150.5,3.0,-6.5,-1005.5,-88.25,-13.0,-35.5,63602.0,RTL
13:03:38,-0.06906644999980927,0.01628159498795867,-2.9300731420516968,0.03263657633215189,0.025787631049752235,-0.04729009233415127,-35.36349025,149.1651352,76433.5,0.0,47.0,-150.5,-1.5,7.5,-1000.0,34.5,27.0,-46.0,63602.0,RTL
13:03:40,0.0005834929179400206,0.16040939092636108,-3.021169424057007,-0.03826710022985935,0.09550591930747032,0.10469058528542519,-35.36348415,149.16515155,79435.5,111.5,76.5,-131.0,11.5,24.5,-971.5,-36.5,97.0,105.5,144315.0,RTL
13:03:42,-0.0274959122762084,0.07317537069320679,-2.8294953107833862,-0.04586556367576122,-0.022725115530192852,-0.021345026150811464,-35.36344195,149.16516769999998,80988.5,300.0,69.0,-22.0,61.5,31.5,-946.5,-43.0,-20.5,-20.0,225028.0,RTL
13:03:43,-0.05312287621200085,0.08377623930573463,-2.837646245956421,-0.3147476315498352,0.01825713209109381,-0.006455202121287584,-35.363414875000004,149.16517514999998,80991.75,303.75,69.25,18.0,65.5,23.5,-973.5,-312.75,19.5,-5.5,151200.0,RTL
13:03:44,-0.06145741790533066,0.08710061386227608,-2.83890438079834,-0.03532540798187256,-0.013429728569462895,0.0060835424810647964,-35.363386899999995,149.165184,80773.0,318.5,88.5,13.5,67.5,43.0,-1006.5,-33.5,-12.0,7.5,151200.0,RTL
13:03:46,-0.05353197641670704,0.04465267434716225,-2.8400596380233765,0.023896515369415283,-0.0690017119050026,-0.0010964451357722282,-35.36332895,149.165207,80711.0,317.5,110.5,-5.5,66.5,57.5,-1011.0,25.5,-67.0,0.0,177448.0,RTL
13:03:48,-0.03207355737686157,-0.052739739418029785,-2.8392454385757446,-0.002696216106414795,-0.03771949652582407,0.0007058475166559219,-35.36328175,149.1652279,80723.0,193.0,76.5,-1.5,34.5,31.0,-992.5,-1.0,-35.5,2.0,203696.0,RTL
13:03:49,-0.007061125244945288,-0.06362984236329794,-2.841508626937866,0.17322379350662231,0.03477798501262441,0.0035531680332496762,-35.363268875,149.16523485000002,80710.5,101.0,43.25,-1.75,17.25,24.75,-1003.75,175.0,36.25,4.5,176785.0,RTL
13:03:50,0.001833583286497742,-0.026419288478791714,-2.8432708978652954,-0.21097509190440178,0.02621560636907816,0.0030918288975954056,-35.36326355,149.16523825000002,80702.5,46.0,16.0,-2.5,6.0,-2.5,-991.0,-209.0,27.5,4.5,176785.0,RTL
13:03:52,0.01681863353587687,0.0072909139562398195,-2.8433960676193237,-0.06419850885868073,0.009098934009671211,-0.0005908321472816169,-35.363261249999994,149.1652408,80716.5,15.0,-7.0,-2.0,-0.5,-2.0,-998.5,-62.0,11.0,1.0,93469.0,RTL
13:03:54,0.008352643577381968,0.0003652208251878619,-2.8460603952407837,0.03772887587547302,0.008369332645088434,-0.0017566236201673746,-35.3632608,149.16524075,80727.5,7.5,-19.5,-0.5,0.5,-2.0,-995.0,40.0,10.0,0.0,10153.0,RTL
13:03:55,-0.0064674631066736765,0.006647553411312401,-2.8471299409866333,0.0968322679400444,0.004120313940802589,-0.0008180456643458456,-35.363260925,149.165239125,80724.75,1.5,-14.5,-0.5,0.5,-2.5,-997.0,99.0,5.75,0.5,290371.0,RTL
13:03:56,-0.010880289832130075,0.00738037284463644,-2.847681999206543,0.024141937494277954,0.0006182397482916713,0.0018767821020446718,-35.3632612,149.16523790000002,80728.0,0.0,-4.5,-0.5,0.0,0.0,-995.0,26.5,2.5,3.0,290371.0,RTL
13:03:58,0.008639328181743622,0.005503553431481123,-2.8492902517318726,0.3544604852795601,0.003509765723720193,-0.005521586805116385,-35.363261800000004,149.16523725000002,80583.5,0.0,2.5,34.5,-1.0,-6.5,-929.5,356.0,5.5,-4.0,242894.0,RTL
13:04:00,0.013805560301989317,0.006272496888414025,-2.8501113653182983,0.12255850434303284,0.0038363822968676686,-0.0022750382777303457,-35.363262250000005,149.16523725000002,78923.5,2.0,2.0,104.5,0.0,-32.0,-1019.0,123.5,6.0,-1.0,195417.0,RTL
13:04:01,0.018346801633015275,0.004869329044595361,-2.850770056247711,0.45166708156466484,-0.003738268045708537,-0.0027693378506228328,-35.363262399999996,149.16523755,77913.0,3.25,1.75,94.5,-0.75,-15.5,-986.25,452.0,-1.0,-1.25,174141.0,RTL
13:04:02,0.02054982166737318,0.00384735269472003,-2.8509674072265625,-0.40815143287181854,0.0044739521108567715,0.007320479489862919,-35.3632627,149.1652386,76930.5,4.5,-1.5,97.5,-1.0,-64.0,-990.0,-407.0,6.0,8.0,174141.0,RTL
13:04:04,0.019453355111181736,0.007380218477919698,-2.8531755208969116,-0.4778131991624832,0.01813527848571539,0.0017150596249848604,-35.36326305,149.16523955,74926.0,7.0,-14.5,98.5,0.0,-59.5,-1014.0,-476.5,20.5,3.0,206018.5,RTL
13:04:06,0.00326109875459224,0.009831076487898827,-2.8529789447784424,0.49845785833895206,-0.008543799864128232,-0.009522537933662534,-35.363262750000004,149.16523695,72704.0,7.0,-5.0,99.0,2.5,-17.5,-1042.5,499.5,-5.0,-7.5,237896.0,RTL
13:04:07,0.0017134680383605883,0.006506720324978232,-2.852835714817047,0.6110917031764984,-0.005194090073928237,-0.002719405834795907,-35.36326245,149.16523604999998,71680.0,4.5,6.75,99.0,0.0,-9.25,-992.0,612.0,-1.75,-1.0,207472.0,RTL
13:04:08,0.010893488302826881,0.0030453343642875552,-2.85297167301178,0.058281704783439636,-0.0008168899803422391,-6.564357317984104e-05,-35.3632624,149.1652367,70741.0,3.0,9.0,87.5,-0.5,-37.5,-962.5,59.5,1.5,1.5,207472.0,RTL
13:04:10,0.019963344559073448,0.0066330095287412405,-2.854350447654724,0.22003595903515816,0.004591054166667163,-0.011997298337519169,-35.3632626,149.16523805,68818.5,3.0,-1.0,94.5,3.0,-33.5,-979.0,221.0,7.0,-10.0,153105.5,RTL
13:04:12,-0.016614709049463272,0.009217371931299567,-2.8544018268585205,0.9435308277606964,0.0011879841913469136,0.009632541798055172,-35.363262,149.16523445,66721.5,0.5,12.5,109.0,4.0,5.0,-1037.5,944.5,4.0,11.0,98739.0,RTL
13:04:13,-0.014104757690802217,0.004464629688300192,-2.854219973087311,0.5928826667368412,-0.0031207394786179066,0.0016367469215765595,-35.36326155,149.165233425,65708.0,-3.0,28.25,97.75,1.25,-10.75,-1009.5,592.75,0.5,3.75,147793.0,RTL
13:04:14,-0.011717990040779114,0.0017777628963813186,-2.8540751934051514,-0.2239929772913456,0.004877145402133465,-0.005927391815930605,-35.36326135,149.16523354999998,64700.5,-5.5,33.5,99.5,-1.0,-45.5,-944.0,-224.0,7.5,-3.5,147793.0,RTL
13:04:16,-0.0020972241763956845,0.0034557044273242354,-2.854446053504944,0.6184650920331478,0.00453057064441964,0.005836233263835311,-35.3632615,149.1652343,62659.5,-6.5,28.0,99.5,0.0,-13.5,-948.5,618.0,7.5,8.0,131532.0,RTL
13:04:18,0.016781612299382687,-0.00036618357989937067,-2.8544927835464478,0.768870159983635,-0.0058457027189433575,-0.0062844641506671906,-35.363262,149.16523595,60619.0,-2.0,22.5,98.5,-4.5,9.0,-1041.5,768.5,-2.0,-4.0,115271.0,RTL
13:04:19,0.0386276887729764,-0.003051894484087825,-2.855719566345215,0.29010773822665215,-0.0031742077553644776,-0.008699287078343332,-35.363262575,149.16523865,59610.75,1.25,7.5,98.75,-4.0,-12.0,-976.75,289.75,0.5,-7.0,137429.0,RTL
13:04:20,0.05393010936677456,0.0010360164160374552,-2.8555535078048706,0.3895312249660492,0.005799869308248162,-0.00010018376633524895,-35.3632633,149.1652412,58536.5,6.0,-13.5,109.0,-3.0,-7.0,-1073.5,389.5,8.5,1.5,137429.0,RTL
13:04:22,0.024320185650140047,0.011232143733650446,-2.8558424711227417,1.310198962688446,0.004051431431435049,0.0034730093320831656,-35.363263700000005,149.16524075,56446.5,12.0,-32.0,94.0,4.5,48.5,-1036.0,1312.5,7.0,5.0,122930.0,RTL
13:04:24,-0.013186488300561905,0.008228168589994311,-2.8555248975753784,1.2459754347801208,-0.0033842928241938353,0.00922808819450438,-35.36326265,149.16523684999999,54455.0,7.5,-7.0,101.5,3.5,64.5,-1010.0,1248.5,0.0,11.0,108431.0,RTL
13:04:25,-0.012192823342047632,0.00556267867796123,-2.8555853962898254,1.2960676848888397,-0.0014777129981666803,0.00707769044674933,-35.363262125000006,149.16523562499998,53440.0,2.5,5.75,99.5,1.5,70.0,-1015.0,1298.25,1.5,8.5,60629.0,RTL
13:04:26,-0.024498616345226765,0.0027917326951865107,-2.8556400537490845,0.3239184319972992,0.002009317046031356,0.005647568614222109,-35.36326185,149.16523519999998,52365.5,0.5,12.0,107.5,-1.5,42.0,-1083.0,327.0,5.0,7.0,60629.0,RTL
13:04:28,0.004534628227702342,-0.0027836206718347967,-2.8558281660079956,-0.8916614949703217,0.008372778771445155,-0.0022086026147007942,-35.363262399999996,149.1652389,50219.5,0.5,2.5,98.5,-4.5,5.5,-970.0,-888.0,11.5,-0.5,60629.0,RTL
13:04:29,0.009013728573336266,0.0018451028932418012,-2.8565608859062195,-0.7196840345859528,0.0065916081657633185,0.0024488940834999084,-35.363262875000004,149.16524040000002,49242.5,4.0,-15.25,91.5,-1.75,-5.5,-1012.0,-716.0,9.75,4.25,52828.0,RTL
13:04:30,-0.0007766180206090212,0.005293829599395394,-2.855477452278137,-0.4077757000923157,0.0011301743797957897,-0.003887163707986474,-35.363263149999995,149.16524049999998,48291.5,7.0,-23.0,98.5,-0.5,14.5,-1016.5,-403.5,4.5,-2.0,52828.0,RTL
13:04:32,0.016179747530259192,0.0016064875817392021,-2.8551071882247925,-0.21736159920692444,-0.002974335686303675,0.004182368516921997,-35.36326335,149.16524114999999,46305.0,10.5,-26.0,96.0,-2.0,33.0,-1011.5,-213.0,0.5,5.5,2562.0,RTL
13:04:34,0.021233221516013145,0.0035824445076286793,-2.85532009601593,0.38223953545093536,0.0033405335852876306,0.007935463450849056,-35.3632636,149.16524245,44347.5,13.0,-39.5,102.5,0.5,51.0,-988.0,387.5,6.5,9.0,2562.0,RTL
13:04:35,0.002762666583294049,0.00572301319334656,-2.855878174304962,-0.6532396264374256,0.004551002406515181,0.008581942995078862,-35.36326355,149.16524195,43270.75,12.75,-40.5,116.5,1.5,4.5,-1008.0,-647.5,8.0,10.25,172956.0,RTL
13:04:36,-0.00820117534021847,0.006831848993897438,-2.8559083938598633,-0.7698214948177338,-0.004328976967372,0.013178780674934387,-35.3632633,149.1652408,42143.0,11.5,-36.0,103.5,1.5,1.0,-964.0,-763.5,-1.0,14.5,172956.0,RTL
13:04:38,-0.016862065996974707,0.005616686074063182,-2.8560738563537598,-0.6356834173202515,0.001281458418816328,0.008740686345845461,-35.3632627,149.1652385,40118.5,7.0,-16.5,92.5,1.0,7.5,-959.0,-629.0,5.0,10.5,31156.0,RTL
13:04:40,-0.0344037814065814,0.0077882916666567326,-2.8551512956619263,-1.1308741867542267,0.0030649531399831176,-0.00112360151251778,-35.36326215,149.16523615,38124.0,1.0,3.0,105.0,1.5,-34.5,-954.5,-1125.5,6.5,0.5,31156.0,RTL
13:04:41,-0.03097328683361411,0.007740898639895022,-2.856208860874176,-1.1002224534749985,-0.003562822937965393,-0.0038589130563195795,-35.363261949999995,149.165234975,37080.5,-1.0,14.75,101.25,1.75,-74.25,-1012.5,-1097.0,0.75,-1.5,196434.0,RTL
13:04:42,-0.0296970559284091,0.006967177847400308,-2.855968475341797,-0.9757621586322784,-0.0004114534240216017,-0.01099401107057929,-35.36326165,149.16523395000002,36034.5,-3.5,23.0,99.5,1.0,-76.5,-957.0,-973.0,3.5,-8.0,196434.0,RTL
13:04:44,-0.039613351225852966,0.0014723408676218241,-2.85542893409729,-1.2337836623191833,-0.004316993756219745,-0.0032449866412207484,-35.3632612,149.165233,34040.5,-7.5,38.0,95.0,-0.5,-71.0,-1004.5,-1231.0,-0.5,-0.5,275367.0,RTL
13:04:46,-0.02973984833806753,-5.6500772188883275e-05,-2.8564473390579224,-1.529885709285736,-0.0012880279682576656,-0.0006854734383523464,-35.3632614,149.16523460000002,32089.5,-7.5,29.5,101.5,-1.5,-53.0,-961.5,-1527.0,2.5,1.5,275367.0,RTL
13:04:47,-0.007645564037375152,-0.0005111001473778742,-2.8552281856536865,-1.0356697663664818,-0.0024192584678530693,-0.0003865594626404345,-35.363261675000004,149.1652358,31021.5,-5.75,23.5,111.5,-3.5,-67.0,-987.5,-1034.5,1.0,1.5,203926.0,RTL
13:04:48,0.019751382060348988,-0.00015086086932569742,-2.8568074703216553,-0.5377366347238421,0.002021108753979206,0.001078188419342041,-35.36326215,149.16523755,29914.0,-2.5,11.5,105.0,-0.5,-56.5,-952.5,-537.0,5.5,3.5,203926.0,RTL
13:04:50,-0.0006479877047240734,0.007176805753260851,-2.855118989944458,-0.42897478584200144,-0.001186056761071086,0.005274316528812051,-35.3632625,149.16523734999998,27908.0,0.5,1.0,92.5,1.5,-51.5,-980.5,-427.5,2.5,7.0,15531.0,RTL
13:04:52,0.0123926498927176,0.0012378688079479616,-2.855616569519043,0.08291913568973541,-0.005336365895345807,-0.009914335794746876,-35.3632624,149.1652371,25959.5,1.5,6.0,100.5,-1.5,-23.5,-979.5,83.5,-1.0,-7.5,15531.0,RTL
13:04:53,0.026982684154063463,-0.0029640212887898088,-2.8548505902290344,0.6694446802139282,-0.006471342116128653,-0.002841931884177029,-35.36326245,149.16523835,24921.75,2.75,0.25,103.25,-3.0,4.75,-1023.75,670.25,-2.5,-0.75,112420.0,RTL
13:04:54,0.05137999355792999,-0.0030355151975527406,-2.85589337348938,0.8069879114627838,0.0008586113108322024,-0.0014414122560992837,-35.363262750000004,149.16524040000002,23893.0,4.0,-11.5,97.0,-2.0,2.0,-985.5,808.0,4.5,0.5,112420.0,RTL
13:04:56,0.04390757903456688,0.0036530318902805448,-2.856410264968872,0.11104948073625565,-0.0008442772086709738,-0.011238001054152846,-35.3632634,149.1652422,21828.5,9.5,-33.0,104.5,0.5,-36.0,-1002.5,112.5,2.5,-8.5,60296.0,RTL
13:04:58,0.022267076186835766,0.006338437087833881,-2.8564945459365845,-0.3218226805329323,-0.00174488197080791,-0.010723681887611747,-35.3632634,149.16524125,19742.5,11.0,-35.0,100.0,3.0,-44.5,-996.0,-319.5,2.0,-8.0,60296.0,RTL
13:04:59,0.006199047202244401,0.008277885150164366,-2.856642425060272,-0.3920571431517601,-0.0005210949457250535,-0.010040610563009977,-35.36326305,149.16523965,18745.5,8.75,-27.5,91.0,4.75,-56.75,-1015.75,-389.25,3.0,-7.0,173192.0,RTL
13:05:00,-0.014222349505871534,0.008346745977178216,-2.8550397157669067,-0.3434833809733391,-0.0057227162178605795,-0.011507537681609392,-35.363262500000005,149.1652373,17791.5,4.5,-11.5,97.5,4.0,-68.0,-981.5,-341.0,-1.5,-8.0,173192.0,RTL
13:05:02,0.0027122722240164876,0.0018285908736288548,-2.8556407690048218,0.3480125889182091,-0.007601788500323892,-0.009982867166399956,-35.3632618,149.16523585,15728.5,-0.5,11.0,106.0,2.0,-22.0,-988.0,349.5,-3.0,-7.5,114686.0,RTL
13:05:04,0.0016632297483738512,0.002710931468755007,-2.854570746421814,-0.4146011844277382,0.003878725226968527,0.0036146664060652256,-35.363261949999995,149.16523655,13645.0,-1.0,9.0,96.5,-1.0,-47.0,-976.5,-412.5,8.0,5.5,114686.0,RTL
13:05:05,0.02031824190635234,0.001993639365537092,-2.8553269505500793,0.3803711589425802,-0.0028420964954420924,-0.0018598749884404242,-35.3632622,149.1652373,12580.75,0.0,6.25,113.75,-1.5,-19.25,-982.25,382.5,1.0,1.0,177742.0,RTL
13:05:06,0.02437474485486746,0.001169326831586659,-2.8554270267486572,0.6545036435127258,-0.007232436444610357,-0.001747099100612104,-35.36326245,149.1652383,11547.5,1.5,-1.5,77.5,-1.5,10.0,-1044.5,657.0,-2.5,0.5,177742.0,RTL
13:05:08,0.014473487390205264,0.0030922420555725694,-2.855295777320862,-0.1438547670841217,-0.0020711366087198257,0.002447767066769302,-35.363262950000006,149.1652397,10754.0,5.5,-14.0,27.5,0.0,-14.5,-975.0,-140.0,2.0,4.5,96526.0,RTL
13:05:10,0.010395359480753541,0.004699849057942629,-2.856024146080017,0.05556988716125488,-0.002802576986141503,-0.0015337325748987496,-35.3632629,149.16523935,10113.5,6.0,-16.5,35.0,1.0,-19.5,-993.0,59.0,0.5,0.5,96526.0,RTL
13:05:11,-0.0007555546326329932,0.0031170419533737004,-2.855670690536499,-0.49121490865945816,-0.0003443051828071475,0.0012455059331841767,-35.363262775,149.165239175,9764.25,6.0,-14.75,33.75,0.25,-11.0,-1003.25,-485.75,3.75,3.5,69908.0,RTL
13:05:12,0.008902488043531775,0.0025908665265887976,-2.8555572032928467,0.28547270596027374,0.00017942069098353386,0.001123051275499165,-35.3632626,149.16523895,9418.0,4.0,-13.0,32.0,0.5,7.0,-1001.5,290.0,4.0,3.5,69908.0,RTL
13:05:14,-0.0188320423476398,0.007020779885351658,-2.8559412956237793,-0.07905443198978901,0.00753853190690279,0.0015428513288497925,-35.3632621,149.16523669999998,8822.5,0.5,-2.5,11.5,1.5,-4.0,-1018.5,-74.0,11.0,3.5,239538.0,RTL
13:05:16,-0.02961917780339718,0.006056189304217696,-2.855236053466797,0.019260473549365997,-0.0019407663494348526,0.00032099185045808554,-35.36326165,149.16523404999998,8844.5,-4.0,22.5,-0.5,0.5,-4.0,-1003.0,24.0,2.5,2.5,239538.0,RTL
13:05:17,-0.025065222289413214,0.00453501392621547,-2.8552801609039307,0.126910331659019,-0.0014867616118863225,-0.0005184391047805548,-35.363261425,149.1652335,8845.0,-5.5,29.25,0.25,0.0,0.25,-1004.25,130.75,2.0,2.0,273835.0,RTL
13:05:18,-0.02371754078194499,0.0029594407533295453,-2.854880452156067,-0.019383504986763,-0.0012126839719712734,0.001073100371286273,-35.3632614,149.1652337,8846.0,-6.0,32.0,0.0,-0.5,5.0,-1004.0,-15.5,2.5,3.5,273835.0,RTL
13:05:20,-0.0033629469107836485,-0.0009323321864940226,-2.8551727533340454,0.01497948169708252,0.0012902424205094576,0.0014346236130222678,-35.363261699999995,149.16523595,8800.5,-4.5,21.0,12.0,-2.5,3.5,-1002.0,19.0,5.0,4.0,247940.0,RTL
13:05:22,0.006655469536781311,0.0023193424567580223,-2.855454206466675,-0.05043591558933258,0.005618036724627018,-0.0009279510704800487,-35.36326235,149.16523815,8692.5,0.0,0.5,-0.5,0.0,-2.0,-999.0,-47.0,9.5,1.5,247940.0,RTL
13:05:23,0.004513821178989019,0.004012940393295139,-2.855646550655365,-0.0494050532579422,0.001615734479855746,-0.0003654307802207768,-35.363262575,149.16523842499998,8706.25,1.25,-3.25,-0.25,-0.25,-10.75,-997.25,-45.75,5.5,2.0,131852.0,RTL
13:05:24,0.0015622369828633964,0.004905901849269867,-2.8556790351867676,-0.020317644346505404,0.002134578302502632,0.0016539512434974313,-35.3632626,149.16523825000002,8709.0,2.5,-5.5,0.0,1.0,0.0,-992.5,-16.5,6.0,3.5,131852.0,RTL
13:05:26,-0.01703454600647092,0.004946142202243209,-2.8551238775253296,-0.1532895863056183,0.00020976178348064423,-0.001752230804413557,-35.363262250000005,149.16523655,8706.5,0.5,3.0,0.0,1.0,-12.0,-994.0,-150.0,4.5,1.0,227421.0,RTL
13:05:28,-0.010602584399748594,0.0017061480903066695,-2.854840040206909,0.1923300325870514,-0.001236095791682601,0.001721445471048355,-35.363262,149.1652364,8517.5,-1.0,9.0,34.0,-2.0,17.5,-954.0,196.5,3.0,4.0,227421.0,RTL
13:05:29,0.0057630772644188255,0.0006012311982885876,-2.854949116706848,0.3771642856299877,-0.003515659482218325,-0.0018433881923556328,-35.363262,149.165236825,8131.0,-1.0,7.75,35.75,-2.0,1.75,-1009.75,379.75,0.75,1.0,231674.0,RTL
13:05:30,0.002289443276822567,-0.0003996317864221055,-2.8549752235412598,-0.19919393956661224,0.0030312002636492252,-0.00033151288516819477,-35.3632622,149.1652378,7795.0,0.0,2.5,33.0,-3.0,6.0,-1001.0,-195.5,6.5,2.0,231674.0,RTL
13:05:32,0.0054758470505476,0.004330909927375615,-2.8554755449295044,-0.405550941824913,0.00390731287188828,0.0033297977643087506,-35.363262750000004,149.1652394,7124.5,3.5,-13.5,30.5,0.0,-22.0,-987.0,-402.0,7.5,5.5,62380.0,RTL
13:05:34,0.014719224534928799,0.004216205794364214,-2.855115294456482,0.3697207197546959,-0.0025178103242069483,4.8469053581357e-05,-35.36326285,149.165239,6457.0,5.0,-12.5,33.0,0.0,-2.0,-1003.0,373.0,2.0,3.0,62380.0,RTL
13:05:35,-0.004428204905707389,0.004998414195142686,-2.855516791343689,-0.43299106508493423,0.0037223725812509656,0.0013944077654741704,-35.3632628,149.165238825,6121.5,5.0,-12.0,32.75,0.25,-8.75,-999.75,-428.25,7.75,3.5,127424.0,RTL
13:05:36,0.004537998698651791,0.0045776276383548975,-2.8553744554519653,0.26791146397590637,-0.0020172458607703447,0.0024297914933413267,-35.363262649999996,149.16523834999998,5785.5,4.5,-9.5,33.0,1.5,6.0,-1009.5,271.5,2.5,5.5,127424.0,RTL
13:05:38,-0.0016390215314459056,0.0033773971954360604,-2.855702757835388,0.504840224981308,0.0012481983285397291,0.0029362174682319164,-35.363262250000005,149.16523725,5099.5,1.0,-2.0,32.5,1.0,20.0,-1005.0,508.5,5.5,5.5,154421.0,RTL
13:05:40,-0.006621646462008357,0.002844503032974899,-2.8549853563308716,0.6534330993890762,-0.0015880537685006857,-0.0001462032669223845,-35.363261949999995,149.16523635,4413.5,-1.0,6.0,31.5,-0.5,32.5,-1020.5,657.5,3.0,2.0,154421.0,RTL
13:05:41,-0.005271066409477498,0.001076431100955233,-2.855148673057556,-0.272720318287611,-0.0027020536945201457,-0.002002441498916596,-35.3632619,149.16523645,4067.25,-2.0,9.75,34.75,-0.5,-27.5,-982.25,-269.75,1.5,1.0,85642.0,RTL
13:05:42,-0.010176446288824081,0.001500044483691454,-2.855057954788208,-0.8383468389511108,0.00023776572197675705,-0.0007678498513996601,-35.363262,149.165237,3673.5,-1.5,6.0,36.0,-1.5,-30.0,-1017.5,-834.0,4.0,2.5,85642.0,RTL
13:05:44,0.012046863790601492,0.001667771313805133,-2.854240655899048,-0.2821781560778618,0.0001018112525343895,-0.0005970257334411144,-35.36326255,149.1652386,2969.5,2.0,-3.5,31.0,-1.0,-8.5,-994.0,-278.0,4.0,2.0,158349.0,RTL
13:05:46,0.010724431602284312,0.004126659361645579,-2.854971170425415,-0.4215778186917305,0.0024223470827564597,0.002269757678732276,-35.363262950000006,149.1652397,2276.0,6.5,-17.0,32.5,0.0,-30.0,-990.0,-418.0,6.5,5.0,158349.0,RTL
13:05:47,0.011013023584382609,0.004721448989585042,-2.854888379573822,0.23739801719784737,0.0014350132551044226,0.0006226687110029161,-35.363263,149.165239675,1955.0,7.0,-18.25,23.5,0.0,16.5,-1003.75,241.75,5.25,3.25,299646.0,RTL
13:05:48,0.00618816987844184,0.004568897187709808,-2.855221390724182,-0.40748822316527367,0.0021136364666745067,-0.0007149353041313589,-35.363263,149.1652396,1684.5,7.0,-17.0,28.5,0.0,-25.0,-996.0,-403.0,6.0,2.0,299646.0,RTL
13:05:50,0.0024012234061956406,0.004866429953835905,-2.8554153442382812,-0.2163054496049881,0.00118156336247921,0.0016497907927259803,-35.3632628,149.16523899999999,989.5,6.5,-14.5,36.5,0.0,-13.5,-980.5,-211.5,5.0,4.5,200586.0,RTL
13:05:52,0.00904588506091386,0.0015151257393881679,-2.8543472290039062,-0.02489069104194641,0.0006190789863467216,0.0010276775574311614,-35.3632626,149.16523875000001,252.5,4.5,-9.5,31.5,0.0,-8.5,-1001.5,-20.5,5.5,3.5,200586.0,RTL
13:05:53,0.003180804487783462,0.0006012966805428732,-2.854682981967926,-0.0013743567978963256,-0.0008053688216023147,0.0006574701983481646,-35.3632625,149.165238925,79.5,5.25,-15.0,10.75,0.0,0.0,-1000.0,3.0,3.0,3.25,155478.0,RTL
13:05:54,-0.0007063231023494154,-0.00024388845451994712,-2.85538911819458,-0.0014890411403030157,-0.0008284734794870019,0.0006539707537740469,-35.3632626,149.1652391,36.5,1.0,-9.0,9.0,0.0,0.0,-1000.0,3.0,4.0,3.0,155478.0,RTL
13:05:56,-0.005862837191671133,-0.0008233802509494126,-2.8568276166915894,-0.0015423756558448076,-0.0006712405011057854,0.0005940132541581988,-35.363262950000006,149.1652398,0.0,-5.5,1.0,6.5,0.0,0.0,-1000.0,3.0,3.5,3.0,237715.0,RTL
13:05:58,-0.007790867472067475,-0.00034920923644676805,-2.8568514585494995,-0.0014468946028500795,-0.0006507511716336012,0.0006635694298893213,-35.3632632,149.16524040000002,0.0,-7.0,6.5,4.0,0.0,0.0,-1000.0,3.5,3.5,3.0,237715.0,RTL
13:06:00,-0.007728541968390346,0.0004090246366104111,-2.8565313816070557,-0.0014244203921407461,-0.00045141903683543205,0.0007337186252698302,-35.3632632,149.1652407,0.0,-6.5,7.0,2.5,0.0,0.0,-1000.0,3.0,3.5,3.0,237715.0,RTL
