time_stamp,RTL_ALT,roll,pitch,yaw,rollspeed,pitchspeed,yawspeed,MODE,lat,lon,relative_alt,vx,vy,vz,xacc,yacc,zacc,xgyro,ygyro,zgyro
07:10:00,193767.0,-0.00027634427533484995,0.0013962265802547336,0.027075229212641716,0.00015328999143093824,0.0002691369445528835,0.0021056977566331625,STABILIZE,-35.3632622,149.1652375,0.0,-2.0,2.0,0.0,0.0,1.0,-1000.0,0.0,0.0,0.0
07:10:02,193767.0,-0.0008223082695621997,0.0010759972501546144,0.026249256916344166,0.00021346783614717424,0.0002991637447848916,0.002126172068528831,STABILIZE,-35.3632622,149.1652375,0.0,-1.0,1.0,0.0,0.0,1.0,-1000.0,0.0,0.0,0.0
07:10:12,193767.0,-0.0006852678197901696,0.0009696695196907967,0.022692124359309673,0.00026137809618376195,0.0002154240501113236,0.0016414260026067495,STABILIZE,-35.3632622,149.1652375,17.5,-1.0,1.0,0.0,0.0,1.0,-1000.0,0.5,0.0,0.0
07:10:14,193767.0,-0.0005406091513577849,0.0009478272986598313,0.02219746634364128,0.0002592335513327271,0.0002656907308846712,0.001500676036812365,STABILIZE,-35.3632622,149.1652375,21.666666666666668,-1.0,1.0,-1.0,0.0,1.5,-1000.0,0.5,0.5,0.0
07:10:15,33452.0,-0.0005292366452825566,0.0009682646680933734,0.021844673280914623,0.00034161001288642484,0.0002983056668502589,0.0015042270145689447,AUTO,-35.36326213333333,149.1652375,2.6666666666666665,-0.6666666666666666,1.0,0.0,0.0,1.6666666666666667,-1000.0,0.6666666666666666,0.0,0.0
07:10:16,33452.0,-0.0004722646068936835,0.001071003032848239,0.02164323938389619,0.00032025241913894814,0.000212060889073958,0.0014699010256056984,AUTO,-35.3632621,149.1652375,2.3333333333333335,0.0,0.0,0.0,0.0,1.3333333333333333,-1000.0,0.3333333333333333,0.3333333333333333,0.3333333333333333
07:10:18,33452.0,-2.861327629943844e-05,0.0015988715846712391,0.021055142084757488,0.00038469035644084215,0.00029083428671583533,0.0014168064420421918,AUTO,-35.3632621,149.1652374,12.666666666666666,0.0,0.0,-1.3333333333333333,0.0,1.3333333333333333,-1000.0,0.3333333333333333,0.0,0.3333333333333333
07:10:19,161258.0,0.0014059953003500898,0.0008879895127999285,0.02082091011106968,0.005210035111910353,0.0019786262807125845,0.0012642261184131105,AUTO,-35.3632621,149.16523743333335,456.6666666666667,0.0,0.0,-101.66666666666667,0.0,0.0,-1108.3333333333333,5.666666666666667,2.0,0.3333333333333333
07:10:20,161258.0,0.02448776364326477,-0.0013170392194297165,0.02073159875969092,0.0469059981405735,-0.006786094668010871,0.0023719386275236807,AUTO,-35.363262066666664,149.16523746666667,1427.3333333333333,0.3333333333333333,6.0,-144.0,0.0,-0.3333333333333333,-1019.6666666666666,47.333333333333336,-5.666666666666667,1.6666666666666667
07:10:22,161258.0,-0.0371756162494421,0.012728875347723564,-0.07308546205361684,-0.06531278664867084,-0.02206091272334258,-0.03587354781726996,AUTO,-35.363260966666665,149.16524483333333,4461.666666666667,0.3333333333333333,36.0,-147.66666666666666,4.0,-8.0,-1004.0,-64.33333333333333,-21.0,-36.0
07:10:23,88759.0,-0.052624668926000595,-0.0049717350242038565,-0.09256181865930557,0.05808324242631594,0.0030811797672261796,-0.006216085283085704,AUTO,-35.36326103333334,149.1652442666667,6370.0,-2.3333333333333335,-43.333333333333336,-148.0,-4.0,7.0,-1000.6666666666666,58.333333333333336,3.6666666666666665,-6.0
07:10:24,88759.0,-0.005366268722961347,0.0019702660695960126,-0.09520613650480907,0.06654987732569377,0.012805474922060966,0.0010369476318980257,AUTO,-35.3632613,149.1652397,7520.666666666667,-6.0,-59.333333333333336,-149.0,-6.666666666666667,11.666666666666666,-1003.0,66.66666666666667,13.0,0.6666666666666666
07:10:26,88759.0,0.02196513783807556,-0.023076351111133892,-0.06296225885550182,-0.10429714371760686,0.005793151135245959,-0.0030727131913105645,AUTO,-35.3632631,149.1652346666667,10624.0,0.3333333333333333,28.333333333333332,-146.66666666666666,3.3333333333333335,-3.0,-998.6666666666666,-103.0,6.0,-3.0
07:10:27,151850.0,-0.021939204384883244,0.0024922614878353975,-0.11692031969626744,0.01772596500813961,0.013918911727766195,-0.04310489818453789,AUTO,-35.363262,149.16523693333332,12547.333333333334,11.666666666666666,0.6666666666666666,-150.33333333333334,-2.0,-2.3333333333333335,-1001.6666666666666,18.0,14.0,-43.0
07:10:28,151850.0,-0.0030016683352490268,0.009437812492251396,-0.14301271239916483,0.026252399509151775,0.0061980086999634905,-0.023177606984972954,AUTO,-35.363261333333334,149.16523646666667,13718.0,5.333333333333333,-9.666666666666666,-151.0,-2.6666666666666665,0.6666666666666666,-1000.0,26.333333333333332,6.333333333333333,-23.0
07:10:30,151850.0,0.008499244383225838,0.005418801369766395,-0.1630680908759435,-0.0071375736345847445,-0.003347798561056455,-0.011484906387825808,AUTO,-35.363261333333334,149.16523526666668,16829.666666666668,-6.0,5.0,-151.0,0.6666666666666666,0.0,-999.6666666666666,-5.666666666666667,-2.3333333333333335,-11.0
07:10:31,237883.0,0.0023548533596719303,0.001710946128393213,-0.18184039990107217,-0.0016044010408222675,-0.0010133383329957724,-0.018441338712970417,AUTO,-35.36326173333333,149.16523576666665,18775.666666666668,-4.333333333333333,6.333333333333333,-151.0,1.0,0.0,-1000.0,-0.6666666666666666,-0.3333333333333333,-18.333333333333332
07:10:32,237883.0,0.0015421702604119976,0.0015834702644497156,-0.19752597312132517,0.0008570105031443139,0.0014261485387881596,-0.02189800515770912,AUTO,-35.36326186666667,149.16523600000002,19949.666666666668,-2.6666666666666665,4.666666666666667,-151.0,0.0,0.0,-1000.3333333333334,1.3333333333333333,1.3333333333333333,-21.666666666666668
07:10:34,237883.0,0.0031742872670292854,0.002558352891355753,-0.24039669334888458,0.0004710140250002344,0.00037102393495539826,-0.0205901637673378,AUTO,-35.3632619,149.16523636666668,23059.666666666668,-1.0,3.0,-151.66666666666666,0.0,0.0,-1000.0,1.3333333333333333,0.6666666666666666,-20.333333333333332
07:10:35,165462.0,-0.004153699381276965,0.003504926571622491,-0.26328712701797485,-0.03509468674504509,0.00419123472723489,-0.008911489276215434,AUTO,-35.36326196666666,149.1652366,25006.0,-1.3333333333333333,2.0,-151.33333333333334,0.0,-0.6666666666666666,-995.3333333333334,-34.333333333333336,4.333333333333333,-9.0
07:10:36,165462.0,0.0028205535685022673,0.004983109266807635,-0.2583152751127879,0.029014073312282562,-8.990371134132147e-05,0.019031244640549023,AUTO,-35.36326206666667,149.16523646666667,26169.666666666668,-4.333333333333333,-1.3333333333333333,-151.66666666666666,0.0,0.3333333333333333,-1000.6666666666666,29.333333333333332,0.6666666666666666,18.0
07:10:38,165462.0,0.0029575760709121823,0.0018937813971812527,-0.21126708885033926,-0.00590818685789903,-0.00014406683233877024,0.022108355537056923,AUTO,-35.36326233333333,149.16523709999998,29282.333333333332,-0.6666666666666666,8.666666666666666,-151.0,0.6666666666666666,-1.0,-1000.3333333333334,-4.333333333333333,0.3333333333333333,21.666666666666668
07:10:39,278819.0,-0.0009935050426671903,0.0016547578464572628,-0.18772160013516745,-6.296047164748113e-05,-0.000248789438046515,0.01751868613064289,AUTO,-35.3632623,149.1652378,31225.666666666668,0.0,4.0,-151.66666666666666,0.0,0.0,-1000.3333333333334,0.3333333333333333,0.3333333333333333,16.666666666666668
07:10:40,278819.0,-0.0003045618213946,0.0014495383171985547,-0.17555367946624756,0.0031782061172028384,0.00030290079303085804,0.015593560102085272,AUTO,-35.3632623,149.1652379,32390.333333333332,0.0,1.6666666666666667,-152.0,0.0,0.0,-1000.0,3.6666666666666665,1.0,15.0
07:10:42,278819.0,0.0018881507761155565,0.0008033349683197836,-0.14902677635351816,0.0013268426603948076,0.001004304620437324,0.011622407473623753,AUTO,-35.36326226666667,149.16523783333332,35497.333333333336,0.0,0.0,-152.0,0.0,0.0,-1000.0,2.0,1.3333333333333333,11.333333333333334
07:10:43,116437.0,0.0028176528867334127,0.0009593423067902526,-0.13588460286458334,6.907270289957523e-05,-8.824653923511505e-05,0.01086898489544789,AUTO,-35.3632622,149.16523756666666,37439.0,0.0,0.0,-152.0,0.0,0.0,-1000.0,1.0,0.6666666666666666,10.0
07:10:44,116437.0,0.00256027071736753,0.0013286254834383726,-0.1291500429312388,0.0013633177538091938,0.0022824207165588937,0.009935191522041956,AUTO,-35.3632622,149.16523746666667,38607.666666666664,0.0,0.0,-152.0,0.0,0.0,-999.6666666666666,2.0,2.6666666666666665,9.666666666666666
07:10:47,116437.0,0.04022013768553734,-0.042756284276644387,0.2372516244649887,0.009737064751485983,0.03307487443089485,-0.033429582913716636,AUTO,-35.363264799999996,149.1652325,42579.0,7.0,2.6666666666666665,-59.666666666666664,-1.0,0.3333333333333333,-972.6666666666666,10.666666666666666,33.666666666666664,-32.333333333333336
07:10:48,140369.0,0.027390534058213234,-0.0124041847884655,0.2130588243405024,0.07281280557314555,0.03650205830732981,-0.027357335512836773,AUTO,-35.3632638,149.16523353333332,42966.333333333336,19.666666666666668,25.666666666666668,-41.666666666666664,-2.3333333333333335,-4.666666666666667,-976.0,73.66666666666667,37.0,-26.333333333333332
07:10:50,140369.0,-0.03583266834417979,0.026509841283162434,0.1688817540804545,-0.43561432262261707,0.014151912182569504,-0.03891575212279955,AUTO,-35.363261,149.16523853333334,43310.666666666664,0.3333333333333333,7.666666666666667,11.333333333333334,1.3333333333333333,-2.6666666666666665,-978.3333333333334,-433.3333333333333,15.333333333333334,-38.333333333333336
07:10:51,300000.0,0.006393708851343642,-0.0490881601969401,0.14855740467707315,0.06595211972792943,-0.04333962748448054,-0.011221426849563917,AUTO,-35.36326066666667,149.16523823333333,43133.333333333336,20.333333333333332,-5.666666666666667,9.0,-4.666666666666667,-18.0,-1004.0,66.0,-41.666666666666664,-10.333333333333334
07:10:52,300000.0,-0.00340487416057537,-0.09107827146848042,0.20329519112904867,-0.06765641768773396,-0.0710429052511851,0.20354912243783474,AUTO,-35.3632582,149.16523823333333,43038.666666666664,62.666666666666664,2.3333333333333335,13.0,-11.0,3.6666666666666665,-992.0,-65.33333333333333,-69.66666666666667,203.33333333333334
07:10:54,300000.0,0.01873052989443143,-0.0487075870235761,0.2794549862543742,0.5707777241865793,0.03291276469826698,-0.036358573784430824,AUTO,-35.36323456666667,149.16524296666668,42455.666666666664,182.66666666666666,16.0,35.666666666666664,-37.333333333333336,-1.0,-1008.0,571.3333333333334,33.333333333333336,-35.666666666666664
07:10:55,5267.0,0.01503361202776432,0.001970417952785889,0.2625791331132253,-0.09917897234360377,0.027045317615071934,-0.016718208168943722,AUTO,-35.363215133333334,149.1652465,41969.666666666664,162.33333333333334,14.0,34.0,-34.333333333333336,-3.0,-1010.0,-97.33333333333333,27.333333333333332,-16.0
07:10:56,5267.0,0.029040871808926266,0.021646202852328617,0.253802627325058,0.39028215905030567,0.02165170448521773,-0.001210918902264287,AUTO,-35.363205566666664,149.16524833333332,41716.333333333336,128.66666666666666,11.333333333333334,28.0,-26.0,-13.666666666666666,-1013.3333333333334,390.3333333333333,22.0,-1.3333333333333333
07:10:58,5267.0,0.011201030414667912,0.03813931276090443,0.24430791661143303,-0.08832750283181667,-0.05048632016405463,-0.006805858516599983,AUTO,-35.36319304999999,149.16525060000004,41394.0,24.75,1.0,2.75,-5.75,-9.25,-1013.5,-87.75,-49.25,-6.25
07:10:59,108337.0,0.0021825208871935806,-0.12095440179109573,0.23767601946989694,-0.2779100686311722,-0.09203718416392803,-0.001459614218523105,AUTO,-35.363190466666666,149.16525016666668,41366.333333333336,58.333333333333336,9.333333333333334,6.666666666666667,-13.0,-21.333333333333332,-986.3333333333334,-277.3333333333333,-90.66666666666667,-0.3333333333333333
07:11:01,108337.0,0.04606873542070389,0.06053064949810505,0.22276262193918228,0.11894061416387558,0.13761531561613083,0.020070115104317665,AUTO,-35.36316915,149.16525165000002,40959.5,130.0,31.5,26.5,-28.0,13.0,-1002.0,121.0,138.0,20.5
07:11:02,256808.0,0.042980745900422335,0.11140454560518265,0.22334181889891624,0.1373443342745304,-0.017814031918533146,0.005244136584224179,AUTO,-35.3631635,149.1652528,40800.75,40.25,27.5,14.75,-7.25,-10.75,-1024.5,137.75,-16.75,5.75
07:11:05,256808.0,0.028442508541047573,0.03132729069329798,0.2049325779080391,-0.18890978395938873,0.19312673807144165,0.013030575588345528,AUTO,-35.363148300000006,149.16525719999999,40419.0,145.0,22.5,24.5,-30.5,-10.0,-1014.5,-186.5,193.0,13.5
07:11:06,200.0,0.03800950665026903,0.12491425126791,0.20552976429462433,0.2817085385322571,0.034880153834819794,0.002351772738620639,AUTO,-35.363141399999996,149.165258325,40263.0,59.25,16.75,15.75,-11.0,-4.75,-1023.75,282.5,35.25,2.75
07:11:09,200.0,0.013633508933708072,0.04225919581949711,0.19416415691375732,-0.28103866847231984,0.20422419905662537,0.0022748534101992846,AUTO,-35.36312725,149.1652633,39894.0,140.5,3.0,22.5,-30.0,-14.5,-1014.5,-279.0,204.5,2.5
07:11:10,220874.0,0.024902172153815627,0.12991604581475258,0.1926833763718605,0.09417878463864326,0.006529383361339569,-0.0024311490706168115,AUTO,-35.36312095,149.165263825,39754.75,48.75,-1.25,13.0,-10.25,-6.0,-1031.5,95.25,7.25,-1.5
07:11:11,220874.0,-0.005248551334564884,-0.08166937033335368,0.18771779040495554,0.27429141600926715,-0.1790189246336619,0.011623315357913574,AUTO,-35.363121633333336,149.16526423333332,39688.666666666664,-6.0,-2.6666666666666665,1.0,3.0,0.0,-995.0,275.0,-177.66666666666666,12.333333333333334
07:11:13,220874.0,0.022359412163496017,0.07675728015601635,0.18347309529781342,-0.7380429208278656,0.1835448145866394,0.001018594834022224,AUTO,-35.3631068,149.1652657,39406.5,120.0,7.5,19.0,-25.5,-45.5,-1014.0,-736.5,183.5,2.0
07:11:14,200.0,0.025220747804269195,0.12444452568888664,0.18284134194254875,0.19562706036958843,-0.08948829583823681,0.011033832561224699,AUTO,-35.363102275,149.165266175,39295.5,18.5,3.75,9.0,-3.25,3.5,-1023.5,196.75,-89.0,11.75
07:11:15,200.0,-0.0025715725496411324,-0.10460374131798744,0.180179625749588,0.4445673003792763,-0.18098104745149612,0.012940164655447006,AUTO,-35.3631038,149.16526664999998,39263.0,0.0,4.5,1.5,0.5,9.5,-988.0,445.0,-180.0,13.5
07:11:17,200.0,0.026315943337976933,0.11171118170022964,0.17540063709020615,-0.047045812010765076,0.14272752404212952,0.008802688214927912,AUTO,-35.3630864,149.1652688,38922.0,93.5,13.0,18.0,-21.5,8.5,-1024.5,-44.5,143.0,9.5
07:11:18,137079.0,0.019121012184768915,0.09883543197065592,0.17481786757707596,-0.03908424451947212,-0.14367294684052467,0.01282945228740573,AUTO,-35.363083825,149.1652691,38831.0,-6.25,7.0,5.5,1.25,-4.5,-1027.0,-37.75,-143.0,14.0
07:11:19,137079.0,0.001873368106316775,-0.12408707290887833,0.17301233857870102,0.05250038206577301,-0.16585907340049744,0.009116672445088625,AUTO,-35.36308555,149.1652695,38810.5,14.0,10.0,2.5,-2.5,-13.5,-985.0,53.0,-165.0,10.5
07:11:21,137079.0,0.021553383208811283,0.13821770250797272,0.17023228853940964,-0.21469780802726746,0.12478356808423996,0.010274725966155529,AUTO,-35.363067650000005,149.16527175,38467.5,66.0,17.0,14.5,-13.0,0.0,-1023.5,-212.0,125.0,11.0
07:11:22,26818.0,0.007761949556879699,0.07231062138453126,0.16807623952627182,0.09280180931091309,-0.18080876022577286,0.007478260347852483,AUTO,-35.36306675,149.16527265000002,38399.75,-22.0,8.75,2.75,6.5,0.25,-1022.25,94.0,-180.0,8.5
07:11:23,26818.0,-0.011346027720719576,-0.13977256044745445,0.1674448400735855,-0.21898865699768066,-0.16069678962230682,0.013518762774765491,AUTO,-35.36306865,149.1652739,38394.5,26.5,3.5,4.0,-4.0,-24.5,-981.5,-218.5,-160.0,14.0
07:11:25,26818.0,0.01836869679391384,0.14697784185409546,0.16574983298778534,-0.5551898926496506,0.09642482176423073,-0.009224551729857922,AUTO,-35.3630506,149.1652756,38043.0,51.5,6.5,12.0,-11.0,-24.0,-1025.5,-552.5,96.5,-8.0
07:11:26,230301.0,0.0013316487893462181,0.05058219959028065,0.1635037362575531,0.01687966287136078,-0.2097465731203556,-0.004134589224122465,AUTO,-35.36305045,149.165276275,37996.75,-26.0,2.5,1.25,6.5,0.0,-1016.0,18.5,-208.75,-2.75
07:11:27,230301.0,-0.009192542172968388,-0.16730835288763046,0.16311107575893402,0.0815872997045517,-0.07620823150500655,0.005287709180265665,AUTO,-35.3630512,149.16527775,37973.0,58.0,2.5,11.0,-9.0,-22.0,-980.5,82.0,-75.0,7.0
07:11:29,230301.0,0.011913929600268602,0.15267833322286606,0.16134317964315414,-0.16474834084510803,-0.0022364892065525055,-0.006657618563622236,AUTO,-35.363032399999994,149.16528004999998,37602.5,25.0,-3.0,10.0,-6.5,4.5,-1031.0,-163.0,-1.5,-5.5
07:11:30,300000.0,0.003606935846619308,0.01219338271766901,0.1603895239531994,0.013218790292739868,-0.21430205181241035,0.004821646609343588,AUTO,-35.36303315,149.165279875,37565.75,-29.75,-4.5,1.25,5.75,0.0,-1005.5,14.25,-213.25,6.0
07:11:31,300000.0,0.007444269140250981,-0.1731455996632576,0.15870359539985657,-0.13742953538894653,0.00683801993727684,-0.01067626429721713,AUTO,-35.363032399999994,149.16528,37524.0,82.0,8.0,14.5,-17.5,-31.0,-978.5,-137.0,7.5,-9.0
07:11:33,300000.0,0.009948061313480139,0.1430893838405609,0.15850826352834702,-0.3989008478820324,-0.13140503130853176,-0.02564251283183694,AUTO,-35.363013949999996,149.1652823,37142.5,3.5,5.5,8.0,1.0,-8.0,-1029.0,-396.5,-130.5,-23.5
07:11:34,242393.0,-0.00702210096642375,-0.009016347932629287,0.15769372135400772,-0.033433184027671814,-0.1866275742650032,-0.0014092946657910943,AUTO,-35.363015425,149.1652829,37122.25,-30.0,3.0,-0.5,7.5,-0.5,-1005.25,-32.0,-185.75,0.0
07:11:35,242393.0,-0.0012097831058781594,-0.16919949650764465,0.15612200647592545,-0.15462109446525574,0.05906860716640949,-0.008237917441874743,AUTO,-35.3630141,149.16528405,37068.5,93.5,7.0,16.0,-18.0,-36.0,-983.0,-154.0,60.0,-6.5
07:11:37,242393.0,0.008420933736488223,0.11183192580938339,0.15647267550230026,-0.07915781438350677,-0.23658261448144913,-0.017592952586710453,AUTO,-35.36299755,149.1652857,36726.5,-15.5,0.0,4.5,3.5,9.0,-1031.0,-77.5,-235.5,-15.5
07:11:38,200.0,-0.007961932860780507,-0.038854348473250866,0.15643247961997986,-0.1855049915611744,-0.16088987700641155,0.004610682372003794,AUTO,-35.36299927500001,149.16528605,36718.75,-23.25,1.25,-0.75,8.0,-11.25,-993.75,-184.5,-159.75,5.75
07:11:39,200.0,0.0036267718533053994,-0.1359064169228077,0.1546935960650444,0.09431056678295135,0.21807729825377464,-0.02320612221956253,AUTO,-35.3629958,149.1652876,36631.0,114.0,7.0,19.0,-25.0,-28.5,-989.0,94.5,218.0,-21.0
07:11:41,200.0,-0.0038064932450652122,0.0514416778460145,0.15400341153144836,-0.22067099064588547,-0.23889372497797012,-0.008279566653072834,AUTO,-35.3629823,149.1652892,36337.5,-30.5,-3.5,1.5,5.5,6.0,-1009.0,-219.5,-237.5,-6.0
07:11:42,223880.0,-0.004572217643726617,-0.08624682109802961,0.15433071181178093,-0.020625188946723938,-0.1716393455862999,0.00867347963503562,AUTO,-35.362983725,149.165289325,36335.0,-4.5,-1.0,1.0,0.75,-6.25,-999.75,-20.0,-170.5,10.0
07:11:43,223880.0,0.025178064592182636,-0.05602558050304651,0.15147823840379715,-0.09045132994651794,0.30556681752204895,-0.022856074385344982,AUTO,-35.362976399999994,149.1652899,36182.0,134.0,10.5,20.5,-31.5,-35.5,-998.5,-90.5,306.0,-20.5
07:11:45,223880.0,0.004577911924570799,-0.001332361251115799,0.15480826050043106,-1.4841556549072266e-05,-0.16679059714078903,-0.014573856722563505,AUTO,-35.36296645,149.16529035000002,35936.5,-34.5,11.0,-0.5,6.5,18.5,-1009.5,2.5,-165.5,-12.5
07:11:46,200.0,-0.0013655463117174804,-0.12200617976486683,0.15423152968287468,-0.12065534293651581,-0.12049259268678725,0.002509974467102438,AUTO,-35.362967024999996,149.1652909,35928.25,21.0,15.5,4.5,-3.0,-9.75,-986.75,-119.0,-119.25,4.25
07:11:47,200.0,0.0054566513281315565,0.03443669271655381,0.15264859795570374,-0.5478866845369339,0.22496812045574188,0.00302387576084584,AUTO,-35.362956,149.1652937,35714.5,127.0,18.0,19.0,-24.5,-36.0,-1006.0,-546.0,225.0,4.5
07:11:49,200.0,-0.013596267439424992,-0.04171819984912872,0.15176420658826828,0.4373117983341217,-0.1584886759519577,0.008064070949330926,AUTO,-35.3629509,149.16529645,35530.0,-24.5,-6.5,-1.5,5.0,18.0,-1006.0,438.0,-157.0,10.0
07:11:50,235516.0,-0.009560692589730024,-0.1385757364332676,0.15260031446814537,-0.0876503282925114,-0.04142785910516977,0.0014410732546821237,AUTO,-35.3629503,149.1652967,35508.0,51.0,-3.5,8.25,-11.0,-5.75,-987.0,-86.5,-40.5,3.25
07:11:51,235516.0,0.018160373903810978,0.043722376227378845,0.15129386633634567,-0.44113096222281456,0.1868949830532074,0.01010920014232397,AUTO,-35.362938650000004,149.16529724999998,35293.5,121.5,4.5,19.0,-28.0,-16.0,-1003.0,-439.0,187.0,11.5
07:11:53,235516.0,0.009893662994727492,-0.06270369701087475,0.1532405987381935,0.14821770787239075,-0.168852336704731,0.010683329310268164,AUTO,-35.36293395,149.1652971,35127.5,-17.5,7.0,-0.5,4.5,-3.0,-995.5,148.5,-168.0,12.0
07:11:54,83864.0,0.007142643549741479,-0.13201207667589188,0.1514776535332203,0.06835720606613904,-0.003172634169459343,-0.009767388750333339,AUTO,-35.362932425,149.16529745,35093.25,60.25,15.75,10.5,-12.5,-6.75,-985.5,69.75,-2.25,-7.75
07:11:55,83864.0,0.023349547758698463,0.04598589241504669,0.15114666521549225,0.36665157601237297,0.16496628522872925,0.002799440175294876,AUTO,-35.36292015,149.16529945,34856.5,119.5,20.0,20.5,-24.0,12.5,-1016.0,369.0,165.0,4.5
07:11:57,83864.0,-0.019915391691029072,-0.031017493456602097,0.15106525272130966,-0.2628084868192673,-0.15687354654073715,0.011609613429754972,AUTO,-35.362915,149.16530285,34659.5,-24.5,-3.0,-1.5,7.5,-22.0,-1001.0,-262.0,-155.5,13.0
07:11:58,39751.0,-0.020462849410250783,-0.11197683215141296,0.15161115303635597,0.19528568163514137,-0.04494529403746128,-0.011190647259354591,AUTO,-35.362914725,149.1653039,34645.5,39.0,-4.5,6.25,-6.0,8.5,-989.5,196.25,-44.0,-9.0
07:11:59,39751.0,-0.0057492979685775936,-0.003023263067007065,0.15315128862857819,-0.006814286112785339,0.18873605132102966,0.009172887948807329,AUTO,-35.36290475,149.16530615,34459.0,123.5,-5.5,20.0,-24.5,1.0,-1005.0,-5.5,189.5,10.5
07:12:01,39751.0,-0.01557773957028985,0.010289475787431002,0.14875587821006775,0.10537628829479218,-0.1734389141201973,0.021685853600502014,AUTO,-35.36289625,149.16530825,34214.0,-19.5,-25.5,1.0,4.0,-3.0,-1008.0,105.0,-172.0,23.0
07:12:02,215298.0,-0.013352379319258034,-0.08327741269022226,0.14995064586400986,0.0005219802260398865,-0.08577385265380144,0.0001710413198452443,AUTO,-35.362896750000004,149.1653077,34204.75,16.0,-21.25,2.25,-4.75,10.0,-996.25,1.0,-84.5,2.25
07:12:03,215298.0,0.015976000111550093,-0.051490144804120064,0.14936161786317825,0.002128690481185913,0.09545723348855972,0.00877866247901693,AUTO,-35.3628898,149.16530695,34077.0,104.5,-4.0,17.0,-23.0,6.5,-999.0,3.0,96.0,10.0
07:12:05,215298.0,0.021557151805609465,0.027376071317121387,0.15059415996074677,-0.20911039412021637,-0.16474945098161697,0.02319295145571232,AUTO,-35.3628779,149.1653065,33800.0,-1.5,9.5,6.0,-0.5,-22.5,-1001.5,-210.0,-163.5,24.5
07:12:06,152830.0,0.011818275146652013,-0.05363442050293088,0.15053968131542206,0.0020311325788497925,-0.0626522651873529,-0.004656946141039953,AUTO,-35.36287735,149.165306675,33759.25,17.0,15.75,5.5,-3.25,0.5,-996.25,2.5,-61.5,-2.5
07:12:07,152830.0,0.012507220264524221,-0.025654162280261517,0.14985930919647217,0.024954646825790405,0.05746635049581528,0.003014726913534105,AUTO,-35.362871600000005,149.16530795,33641.5,74.5,21.5,14.0,-15.0,7.5,-991.5,26.0,57.5,4.5
07:12:09,152830.0,0.01174138393253088,0.0014136738609522581,0.14966323971748352,0.4523741751909256,-0.05053607281297445,0.0031451614340767264,AUTO,-35.36286135,149.16531085,33390.0,24.0,11.0,8.0,-4.0,1.0,-1006.0,452.0,-49.0,4.5
07:12:10,187975.0,-0.004152924637310207,-0.0004323559405747801,0.14983124285936356,-0.11315931752324104,0.02065689058508724,0.0007190402247942984,AUTO,-35.36285955,149.16531185000002,33331.75,26.0,7.75,6.5,-4.0,-1.75,-1002.25,-112.25,21.25,2.5
07:12:11,187975.0,-0.010591460624709725,0.023196542635560036,0.14878743886947632,-0.18836016952991486,0.0031883373158052564,0.0005600235308520496,AUTO,-35.3628572,149.16531315,33275.0,9.0,-2.0,1.5,-1.5,1.5,-1000.0,-187.5,4.0,2.5
07:12:13,187975.0,0.001165448920801282,-0.009146520867943764,0.14991969615221024,-0.4251830503344536,0.01451860973611474,-0.0016196253709495068,AUTO,-35.362857250000005,149.16531275,33288.0,2.0,-5.0,0.0,-1.0,-26.0,-991.0,-425.0,15.0,0.0
07:12:14,35600.0,0.007080004375893623,0.0008821379778964911,0.1493639424443245,0.0029468685388565063,0.011990131111815572,4.757614806294441e-05,RTL,-35.362856975,149.16531255,33300.25,4.0,-0.5,-2.25,-1.25,0.0,-1008.0,3.25,12.25,2.0
07:12:15,35600.0,0.008311419282108545,0.004135400988161564,0.14976533502340317,-0.02476195991039276,2.4528708308935165e-05,-0.00010947749251499772,RTL,-35.3628565,149.16531225,33484.5,0.0,1.0,-36.0,-1.0,-6.5,-1049.5,-25.0,1.0,1.5
07:12:17,35600.0,0.010897568892687559,0.0023574245860800147,0.15037407726049423,0.008850300684571266,0.00030930188950151205,0.002204962307587266,RTL,-35.3628563,149.1653113,35010.0,-3.0,6.5,-92.5,-0.5,1.5,-1001.5,9.5,1.0,4.0
07:12:18,200.0,0.010971076786518097,0.0033388196607120335,0.15011557564139366,-0.00034471205435693264,0.00220756049384363,-0.00031319516710937023,RTL,-35.3628563,149.165311125,35720.0,-3.25,8.5,-88.0,0.0,-0.5,-987.25,0.75,2.75,1.5
07:12:19,200.0,0.008629013318568468,0.00609000725671649,0.15016796439886093,-0.02221940748859197,0.0034773153020069003,0.0016474643489345908,RTL,-35.3628562,149.1653111,36720.5,-4.5,10.0,-60.0,0.0,-1.5,-968.0,-21.0,4.0,3.5
07:12:21,200.0,0.002911135437898338,0.007645369274541736,0.14876738935709,0.01199883222579956,0.0020038788206875324,-0.001241828955244273,RTL,-35.3628559,149.1653113,37322.0,-7.5,9.0,2.5,-0.5,13.0,-990.0,14.0,2.5,0.5
07:12:22,10782.0,0.011278982099611312,0.006261060363613069,0.14912307262420654,-0.09542199037969112,-0.0004427934327395633,0.0014470680616796017,RTL,-35.362855825000004,149.16531120000002,37287.0,-8.0,8.0,6.0,-0.25,-8.5,-999.75,-94.75,0.5,3.0
07:12:23,10782.0,0.013478652806952596,0.005599277326837182,0.15003880113363266,-0.18252196535468102,0.006799729773774743,-0.0018441539141349494,RTL,-35.3628559,149.1653108,37286.0,-8.0,11.0,-14.0,0.0,-15.0,-1038.5,-182.0,7.5,0.0
07:12:25,10782.0,0.002224306663265452,0.004750322783365846,0.15016502141952515,0.0366692990064621,-0.00036849116440862417,0.0007631643675267696,RTL,-35.3628561,149.16531145,38152.5,-7.0,9.0,-44.5,1.0,7.0,-970.0,38.5,0.5,2.5
07:12:26,153633.0,0.0013351974339457229,0.0034182685776613653,0.14974352717399597,-0.08544756472110748,0.00020684179617092013,-0.00011270918184891343,RTL,-35.36285625,149.1653116,38379.5,-5.5,6.75,-15.25,-0.25,-2.0,-961.25,-83.5,1.5,1.75
07:12:27,153633.0,-0.0011815059115178883,0.002602307708002627,0.14946932345628738,-0.3205164116807282,0.00026732689002528787,-0.0003869124921038747,RTL,-35.362856449999995,149.1653116,38416.5,-3.5,6.0,3.5,0.0,-2.5,-994.0,-318.0,1.0,1.5
07:12:29,153633.0,-0.0006198760092956945,0.0019191247993148863,0.1497322991490364,-0.20741992443799973,0.0006930178496986628,-0.00015424005687236786,RTL,-35.3628566,149.165312,38728.5,-1.0,3.0,-48.0,0.5,-8.0,-1027.5,-205.0,1.5,2.0
07:12:30,221308.0,0.0021397946984507143,0.002440328011289239,0.15011701732873917,0.16431668307632208,0.0005964328302070498,0.0008793374290689826,RTL,-35.3628567,149.1653122,39136.75,0.0,2.0,-52.5,0.25,5.5,-990.25,166.0,1.75,2.75
07:12:31,221308.0,-0.003296781040262431,0.0030579945305362344,0.14932088553905487,0.32840303145349026,0.00043730478500947356,0.0005125444149598479,RTL,-35.3628567,149.16531264999998,39608.0,0.0,-0.5,-11.0,0.5,28.0,-954.0,330.5,1.5,2.5
07:12:33,221308.0,-0.010543090058490634,0.003238240838982165,0.14913876354694366,-0.4406777024269104,-0.0015119435265660286,0.00023768894607201219,RTL,-35.3628567,149.16531325,39610.0,0.0,-6.5,-5.0,0.0,-21.0,-1028.5,-439.0,0.0,2.0
07:12:34,300000.0,-0.006823409523349255,0.0019302635628264397,0.149305559694767,0.06455701356753707,0.001012462133076042,0.0017281126347370446,RTL,-35.362856775000004,149.165313525,39767.75,0.0,-7.75,-33.25,-0.25,4.25,-1037.75,66.0,2.25,3.5
07:12:35,300000.0,-0.0040229760234069545,0.001972990925423801,0.1501447781920433,0.15932275471277535,-0.0008644238114356995,8.384574903175235e-05,RTL,-35.3628568,149.1653135,40387.0,0.0,-9.5,-53.5,-0.5,8.5,-986.5,160.5,0.5,2.0
07:12:37,300000.0,-0.00240505114197731,0.003273499314673245,0.14931896328926086,0.33149605337530375,-0.0002748099504970014,0.0020046213176101446,RTL,-35.362856750000006,149.1653132,40846.5,0.0,-7.0,1.5,0.0,25.0,-1000.5,333.0,1.0,4.0
07:12:38,163768.0,-0.0014412370510399342,0.002709066553507,0.14906524494290352,-0.09572397544980049,-0.0024700563808437437,0.0018271597800776362,RTL,-35.3628567,149.165313075,40823.75,0.0,-7.25,1.0,0.0,-7.25,-1013.0,-94.75,-1.0,3.75
07:12:39,163768.0,-0.005435604602098465,0.002513079787604511,0.14931557327508926,-0.22075755894184113,0.0017117951065301895,0.0010702387662604451,RTL,-35.3628567,149.1653129,41004.0,0.0,-5.0,-37.5,0.0,-3.5,-1039.0,-219.0,2.5,3.0
07:12:41,163768.0,0.009048324078321457,0.00103528902400285,0.14931517839431763,0.34460173547267914,-0.0009655653848312795,-0.00011263927444815636,RTL,-35.3628567,149.16531225,42008.0,0.0,-1.5,-30.0,0.0,17.5,-958.0,345.5,0.5,2.0
07:12:42,155343.0,0.0037641399685526267,0.00139219468110241,0.14902746304869652,-0.23935337364673615,0.0021560955501627177,0.0018759004306048155,RTL,-35.362856625,149.1653118,42120.75,-0.75,0.5,-4.25,-1.0,-2.25,-975.25,-237.75,3.25,4.0
07:12:43,155343.0,0.00685340678319335,0.00030908295593690127,0.1489955261349678,-0.46423492580652237,-0.00020934658823534846,0.0028039092430844903,RTL,-35.3628566,149.165311,42101.5,-1.5,6.0,2.0,-1.5,-12.0,-1007.0,-462.0,1.5,5.0
07:12:45,155343.0,0.011807548813521862,0.0030128125799819827,0.15032550692558289,-0.10131728649139404,0.0014105556765571237,-0.0002508788602426648,RTL,-35.3628563,149.16531005000002,42657.0,-3.0,17.0,-55.0,-0.5,-1.0,-1006.0,-100.0,3.0,2.0
07:12:46,107647.0,0.014423862099647522,0.0030727534904144704,0.14983919635415077,0.07444378733634949,-0.0005758639890700579,0.0007230411865748465,RTL,-35.3628563,149.16531015,43057.75,-3.0,17.0,-44.5,0.25,3.0,-970.75,76.25,0.5,2.75
07:12:47,107647.0,0.0036835314822383225,0.0038470830768346786,0.14957904070615768,-0.006972849369049072,4.747469210997224e-05,0.0007783720502629876,RTL,-35.3628563,149.1653106,43362.0,-3.0,16.5,-1.5,0.0,14.5,-983.0,-4.0,1.5,3.0
07:12:49,107647.0,0.013175892177969217,0.002603986533358693,0.14978130906820297,-0.21468211710453033,0.002426438848488033,-0.001014110166579485,RTL,-35.3628563,149.16531064999998,43384.0,-3.0,12.5,-19.0,0.0,-17.0,-1038.5,-213.0,4.0,1.0
07:12:50,200.0,0.006925369139935356,0.003831660549622029,0.15017840266227722,-0.0372445285320282,0.0016090237768366933,-0.0004719395947176963,RTL,-35.3628563,149.1653109,43648.75,-3.0,13.0,-44.75,0.5,0.25,-1028.25,-34.75,3.0,1.5
07:12:51,200.0,-0.0017252754187211394,0.005267180735245347,0.14992010593414307,0.09845153987407684,-0.0009141219779849052,0.0006660084472969174,RTL,-35.3628564,149.16531185,44306.5,-3.0,8.5,-43.0,1.0,8.0,-966.0,101.0,0.5,3.0
07:12:53,200.0,-0.004426902974955738,0.0015793500933796167,0.14890310168266296,-0.23518414795398712,-0.003448503208346665,0.003746405942365527,RTL,-35.3628566,149.16531255,44545.5,-2.0,-0.5,4.0,-0.5,4.5,-1008.0,-232.5,-1.0,6.0
07:12:54,82451.0,0.008727916749194264,1.1607577107497491e-05,0.14926671236753464,0.02929137647151947,-0.001488205773057416,0.0012512897956185043,RTL,-35.3628566,149.16531212499999,44539.5,-1.25,0.25,-5.25,-1.25,1.25,-1027.75,31.5,0.0,3.5
07:12:55,82451.0,0.011007770895957947,0.0013599233934655786,0.149394229054451,-0.27068859338760376,0.0038096917560324073,0.002244437695480883,RTL,-35.3628566,149.16531125,44875.0,-1.0,5.0,-48.5,-1.0,-10.5,-1027.0,-268.5,5.0,4.5
07:12:57,82451.0,0.0006409687339328229,0.005102736176922917,0.14936518669128418,-0.4895123243331909,0.003270451561547816,-0.0004608327290043235,RTL,-35.3628563,149.16531095,45713.5,-2.5,10.5,-8.5,0.0,-12.0,-964.0,-486.0,4.5,2.0
07:12:58,5928.0,0.002938680350780487,0.005336418631486595,0.1493472419679165,0.03158541023731232,0.001067384670022875,2.8501293854787946e-05,RTL,-35.3628563,149.1653115,45728.5,-3.0,9.0,2.25,0.75,-1.25,-991.5,33.75,2.75,2.25
07:12:59,5928.0,0.0005635225097648799,0.004369524074718356,0.14937199652194977,0.22254950553178787,-0.00038969656452536583,-0.00017056241631507874,RTL,-35.362856449999995,149.1653126,45709.0,-2.5,2.0,-7.0,0.5,-5.0,-1028.5,224.5,1.5,2.0
07:13:01,5928.0,0.002822161593940109,0.0006396321987267584,0.15013387799263,-0.17550600692629814,-0.001292275614105165,-0.0010871883714571595,RTL,-35.3628566,149.1653126,46521.5,-1.0,-3.5,-51.5,0.0,-6.5,-979.5,-173.0,0.5,1.0
07:13:02,86883.0,0.005154742480954155,0.0011907317966688424,0.14965757355093956,-0.11200254410505295,0.00046355905942618847,0.0003724619746208191,RTL,-35.3628566,149.16531220000002,46824.75,-0.75,-1.0,-25.5,-1.0,-3.0,-957.25,-109.5,2.25,2.75
07:13:03,86883.0,0.008478182251565158,0.0015992423286661506,0.14955564588308334,-0.3639418324455619,0.001463287160731852,-0.002429887419566512,RTL,-35.3628566,149.1653116,46932.0,-1.0,2.5,3.5,-0.5,-25.5,-988.5,-361.5,3.0,0.0
07:13:05,86883.0,0.008760111406445503,0.0023590594064444304,0.14961598068475723,0.054215073585510254,8.117617107927799e-05,0.001992386532947421,RTL,-35.3628565,149.1653114,47102.0,-2.0,6.0,-38.5,-1.0,0.0,-1038.0,56.0,2.5,4.5
07:13:06,300000.0,0.006061743828468025,0.00195461482508108,0.1501060649752617,-0.04800637438893318,-0.0002064448781311512,0.0009155021980404854,RTL,-35.3628565,149.16531137500002,47474.5,-2.0,6.5,-52.5,0.0,-0.25,-1003.5,-44.75,1.25,3.25
07:13:07,300000.0,0.008870763733284548,0.0022265169536694884,0.14955928921699524,-0.3119283430278301,0.0029311683028936386,-4.032882861793041e-05,RTL,-35.3628565,149.1653113,48022.5,-1.0,7.5,-21.0,0.0,-21.0,-954.0,-309.0,4.0,2.5
07:13:09,300000.0,0.00883013685233891,0.00191879941849038,0.14968478679656982,0.3843117207288742,0.0008588214404881,0.002119451994076371,RTL,-35.3628565,149.1653112,48062.5,-1.5,8.0,0.0,0.0,29.5,-1018.5,388.0,2.0,4.5
07:13:10,200.0,0.008322885310917627,0.002330566319869831,0.14994042366743088,0.043780917301774025,0.00045749222044833004,-0.000916287477593869,RTL,-35.3628565,149.16531135,48165.25,-1.0,8.5,-26.0,0.75,-3.25,-1038.5,47.0,2.0,2.0
07:13:11,200.0,-0.000998393612462678,0.0043569509871304035,0.1500171273946762,0.16096367686986923,-0.001055027125403285,0.0010777167044579983,RTL,-35.3628565,149.1653121,48739.5,-1.0,5.0,-56.5,0.5,5.5,-1000.0,163.5,1.0,3.5
07:13:13,200.0,0.004695574985817075,0.0032229083590209484,0.14916753768920898,0.523923471570015,0.0005234470590949059,-0.0019074000883847475,RTL,-35.3628566,149.16531285000002,49339.5,-0.5,-2.5,1.0,0.0,15.5,-988.0,526.5,2.5,1.0
07:13:14,300000.0,-0.003626193676609546,0.0029663314926438034,0.14936426281929016,-0.06164941191673279,0.001730813761241734,-0.00012397259706631303,RTL,-35.3628566,149.1653129,49318.75,-0.5,-3.25,2.75,-0.25,0.0,-1001.75,-58.25,3.5,2.25
07:13:15,300000.0,-0.0038488522404804826,0.003388268523849547,0.1498076245188713,0.19209590181708336,-0.000980217126198113,0.004047022317536175,RTL,-35.3628566,149.1653131,49410.0,0.0,-4.0,-27.0,0.5,14.0,-1038.5,195.5,1.5,6.5
07:13:17,300000.0,-0.0019175964407622814,0.0029518338851630688,0.15012628585100174,0.01609160006046295,-0.0008187835919670761,0.0007958632195368409,RTL,-35.3628566,149.1653133,50403.0,0.0,-8.5,-39.5,-0.5,-8.5,-958.0,18.5,1.0,3.5
07:13:18,121981.0,0.0010382612599642016,0.002875663572922349,0.14964430406689644,0.09226649347692728,0.0014419758226722479,0.0014256105641834438,RTL,-35.3628566,149.1653132,50584.5,0.0,-8.25,-10.75,-0.5,3.5,-967.75,94.75,3.25,4.0
07:13:19,121981.0,0.0020871127489954233,0.0022903602803125978,0.14911993592977524,0.49728529155254364,-0.0031289326725527644,-0.002332032541744411,RTL,-35.3628566,149.16531295,50589.0,-0.5,-6.0,4.0,-0.5,31.5,-1004.0,500.0,-1.0,0.5
07:13:21,121981.0,0.006815767963416874,0.001550701737869531,0.14972438663244247,0.10584083944559097,-0.0036044945009052753,0.0015545982168987393,RTL,-35.3628566,149.16531214999998,51016.0,-1.0,-1.5,-53.5,-0.5,9.0,-1021.0,109.0,-1.0,4.0
07:13:22,200.0,0.009665073244832456,0.0014816009788773954,0.1498839110136032,-0.02659730799496174,0.0010904177324846387,-0.00045739690540358424,RTL,-35.3628566,149.165311725,51438.75,-1.0,0.75,-51.75,-1.0,-0.75,-981.25,-23.75,3.0,2.0
07:13:23,200.0,0.02012272458523512,0.002077623503282666,0.148866705596447,0.2991345003247261,-0.0004817302105948329,0.0007905482198111713,RTL,-35.3628565,149.16531095,51856.0,-2.0,6.5,-7.5,-0.5,3.5,-972.0,301.5,1.5,3.0
07:13:25,200.0,0.011746304342523217,0.0036786141572520137,0.14972535520792007,0.417330801486969,-0.00322475447319448,0.0022815436823293567,RTL,-35.3628563,149.16531085,51856.0,-3.0,12.5,-8.5,0.5,22.0,-1039.0,420.5,-0.5,5.0
07:13:26,142238.0,0.004469382686238532,0.004252387676388025,0.14995398744940758,-0.10884062247350812,0.004570030723698437,-0.00012153445277363062,RTL,-35.3628563,149.16531120000002,52050.75,-3.0,10.25,-37.25,0.5,-6.0,-1036.25,-105.75,6.5,2.75
07:13:27,142238.0,9.932240936905146e-05,0.003545676707290113,0.15017615258693695,0.21335677057504654,-0.0010282445000484586,-0.00017700379248708487,RTL,-35.362856449999995,149.165312,52698.0,-2.5,5.0,-51.0,1.0,6.5,-981.5,216.0,1.0,2.5
07:13:29,142238.0,0.002292994176968932,0.0025902821216732264,0.14964615553617477,0.48435480892658234,0.0001406411174684763,0.0013272722717374563,RTL,-35.3628566,149.16531255,53091.0,-1.0,0.0,4.0,0.0,29.0,-993.0,488.0,2.0,3.5
07:13:30,153935.0,-0.004088236950337887,0.002633779600728303,0.14939827099442482,-0.13003811985254288,8.37608240544796e-07,-0.000412167573813349,RTL,-35.362856675,149.16531275,53066.75,0.0,-1.75,1.25,0.0,-6.0,-1006.0,-126.75,1.75,2.0
07:13:31,153935.0,-0.0023573091602884233,0.001943588547874242,0.1497236043214798,-0.04041151702404022,-0.0012873623636551201,0.002975530573166907,RTL,-35.3628567,149.16531275,53271.5,0.0,-3.0,-38.5,0.0,5.5,-1037.0,-37.0,0.5,5.5
07:13:33,153935.0,0.01479725493118167,0.002080671431031078,0.14969024062156677,0.3387463763356209,0.00032539822859689593,-0.001648284844122827,RTL,-35.3628566,149.16531170000002,54198.0,-1.0,1.5,-20.5,0.0,7.5,-957.5,341.0,2.0,1.0
07:13:34,200.0,0.008379786275327206,0.0028816877747885883,0.149422999471426,0.06983057409524918,0.0013206111616455019,0.0005990025820210576,RTL,-35.362856525,149.16531150000003,54263.25,-1.75,4.0,-0.25,0.5,7.75,-989.75,73.5,3.25,3.25
07:13:35,200.0,-0.002049294715106953,0.004157715942710638,0.1494724452495575,0.06263114511966705,-0.0016432933043688536,0.003145966911688447,RTL,-35.3628565,149.16531179999998,54232.0,-2.0,6.0,-1.0,2.5,15.0,-1018.0,66.5,0.5,6.0
07:13:37,200.0,-0.0033915044914465398,0.0023411180591210723,0.1500735655426979,0.0857553780078888,-0.0021370708709582686,0.0027975382981821895,RTL,-35.3628566,149.16531275,54903.5,-1.0,-2.5,-56.0,0.0,8.5,-999.5,89.5,0.0,5.5
07:13:38,288111.0,0.0007932705120765604,0.0018217262695543468,0.1501311995089054,0.06970350071787834,-0.0002622329047881067,-0.0005227909423410892,RTL,-35.3628566,149.16531272499998,55279.25,-0.75,-3.25,-38.0,0.0,2.0,-964.75,73.0,2.0,2.5
07:13:39,288111.0,0.0037057867157272995,0.002579427440650761,0.1492496207356453,0.44845426082611084,-4.572956822812557e-05,0.0003270716406404972,RTL,-35.3628566,149.1653126,55501.0,0.0,-2.0,1.0,0.0,30.0,-995.5,452.0,2.0,3.0
07:13:41,288111.0,-0.005668544676154852,0.003006048616953194,0.1495891883969307,-0.2860025651752949,0.0007592512993142009,0.002947569126263261,RTL,-35.3628566,149.1653126,55567.0,0.0,-1.5,-27.5,0.0,-8.0,-1036.5,-282.0,3.5,5.5
07:13:42,139456.0,-0.00259131274651736,0.003362637886311859,0.1500115990638733,0.038560450077056885,0.0017581891152076423,0.0013604696141555905,RTL,-35.3628566,149.16531275,55883.0,0.0,-2.75,-49.25,0.0,2.0,-1021.5,41.75,3.75,4.0
07:13:43,139456.0,-0.0029543782584369183,0.0021318732178770006,0.1501128375530243,0.20633266866207123,-0.0045928810723125935,0.0003653581952676177,RTL,-35.3628566,149.1653129,56509.0,-0.5,-4.5,-33.5,0.0,15.5,-963.5,210.0,-1.5,3.0
07:13:45,139456.0,-0.0023592167999595404,0.001637115201447159,0.14920249581336975,-0.057839468121528625,-0.00038629770278930664,0.0008882412221282721,RTL,-35.3628566,149.1653124,56641.0,0.0,-1.5,3.5,-1.0,13.5,-1005.0,-54.0,2.0,3.5
07:13:46,115695.0,0.0048213338595815,0.0018708484421949834,0.14955449476838112,-0.0823633000254631,0.0006184137600939721,0.00041040166979655623,RTL,-35.3628566,149.16531222499998,56666.75,0.0,-1.0,-12.5,0.0,-8.5,-1033.0,-79.5,2.75,3.75
07:13:47,115695.0,-0.001819217053707689,0.0034936629235744476,0.15012894570827484,-0.1391800306737423,-0.00012780976248905063,0.00029420771170407534,RTL,-35.3628566,149.1653122,57100.0,-0.5,0.0,-54.0,0.0,-2.5,-1015.5,-136.0,2.0,3.5
07:13:49,115695.0,-0.0006239870563149452,0.00315422669518739,0.1493505910038948,0.2947366237640381,-0.001310311839915812,0.002844408852979541,RTL,-35.3628566,149.16531255,57882.0,-1.0,-1.0,-4.5,0.0,23.0,-977.0,298.5,0.5,6.0
07:13:50,300000.0,-0.002792307175695896,0.002563917019870132,0.149576798081398,-0.17174167931079865,-0.000658760080114007,-0.00016761600272729993,RTL,-35.3628566,149.1653126,57878.0,-1.0,-2.25,3.5,0.0,-5.75,-993.0,-168.75,2.0,3.0
07:13:51,300000.0,-0.0027400708640925586,0.001313191489316523,0.14968618005514145,-0.42192038893699646,-0.0007326646009460092,0.0007257185643538833,RTL,-35.3628566,149.1653124,57883.0,-1.0,-1.5,-14.5,-0.5,-15.5,-1035.0,-418.5,1.5,3.5
07:13:53,300000.0,0.004585740971378982,0.0023176842369139194,0.15023935586214066,0.21865510195493698,-0.0016071238787844777,0.0004996361676603556,RTL,-35.3628566,149.1653124,58769.5,-1.0,-1.5,-46.5,-1.0,7.0,-972.5,221.5,1.0,3.5
07:13:54,129829.0,0.003681166097521782,0.002378513163421303,0.1499483734369278,0.036136227659881115,0.0025077284954022616,0.00027079632855020463,RTL,-35.3628566,149.1653123,59017.5,-1.0,-0.75,-17.75,-1.0,7.0,-960.75,38.75,4.75,3.25
07:13:55,129829.0,-0.003765603520150762,0.0037900899769738317,0.14978087693452835,-0.2776053883135319,0.0031804218888282776,-0.0007439436158165336,RTL,-35.3628566,149.1653122,59064.5,-1.0,0.5,4.0,0.0,2.0,-1010.5,-274.0,5.5,2.0
07:13:57,129829.0,0.00012845953460782766,0.0034451248357072473,0.14997627586126328,-0.2333865649998188,0.003100601490586996,0.0007334703113883734,RTL,-35.3628565,149.1653123,59365.0,-2.0,0.0,-47.0,0.0,-12.0,-1028.5,-230.0,5.0,4.0
07:13:58,19519.0,0.002892712625907734,0.0030192686826922,0.15006808936595917,0.06726298667490482,-0.0007229922339320183,0.0006603517686016858,RTL,-35.3628565,149.16531227500002,59771.75,-2.0,0.0,-53.0,0.0,5.25,-992.5,70.25,1.75,4.0
07:14:01,19519.0,0.0011703220661729574,0.002775892266072333,0.1497282311320305,-0.414011150598526,0.001091495854780078,0.0010171749163419008,RTL,-35.3628565,149.16531175,60259.5,-2.0,4.0,-4.5,0.5,-29.0,-1029.0,-411.5,4.0,4.0
07:14:03,200.0,0.004282292909920216,0.0015436752000823617,0.15003570914268494,-0.1453431025147438,-0.0004046488320454955,0.0008459776872768998,RTL,-35.362856550000004,149.16531170000002,61039.0,-1.0,3.5,-53.5,0.0,-0.5,-988.0,-142.0,2.0,4.0
07:14:05,200.0,-0.0037334709195420146,0.003089236794039607,0.1492895409464836,-0.5879890769720078,0.0003275810740888119,-0.000259505701251328,RTL,-35.3628566,149.16531155,61507.0,-1.0,5.5,2.0,0.0,-25.0,-1002.0,-584.5,2.5,3.0
07:14:06,272992.0,0.005480515654198825,0.0031030880636535585,0.1495521292090416,0.1497003585100174,-0.00012679537758231163,7.013877620920539e-05,RTL,-35.3628566,149.16531175,61484.5,-1.0,4.75,0.25,0.0,3.25,-1015.0,152.75,2.25,3.25
07:14:07,272992.0,0.0027782036340795457,0.0026206132024526596,0.15001224726438522,-0.0004472583532333374,0.0004995032213628292,0.0006332023767754436,RTL,-35.3628566,149.16531205,61678.5,-1.0,2.5,-38.5,0.0,-4.5,-1038.0,2.5,2.5,3.5
07:14:11,272992.0,0.005467162176501006,0.0023971745977178216,0.14968152344226837,-0.24273870140314102,0.00042934634257107973,-0.0007904991507530212,RTL,-35.3628566,149.1653118,62752.5,-1.0,3.0,1.5,0.0,-24.0,-1016.0,-240.0,3.0,2.5
07:14:12,200.0,0.001189856673590839,0.002946224994957447,0.14977091178297997,0.005742732435464859,0.0012091764365322888,0.0009409929043613374,RTL,-35.3628566,149.165311925,62829.25,-1.0,3.25,-21.5,0.25,-1.0,-1036.25,9.25,3.75,4.25
07:14:19,200.0,-0.001779712620191276,0.0021351498435251415,0.15025796741247177,0.025508910417556763,-0.0015194271691143513,-0.0006747533334419131,RTL,-35.3628567,149.16531285000002,65045.5,0.0,-5.5,-43.0,-0.5,6.0,-964.0,29.5,1.0,3.0
07:14:20,300000.0,0.0012131159310229123,0.001809567038435489,0.14957090467214584,0.00161777064204216,-0.0007193903438746929,0.0002562052686698735,RTL,-35.3628567,149.1653127,65253.25,0.0,-4.5,-13.25,0.0,2.0,-964.25,4.75,1.75,3.5
07:14:21,300000.0,-0.0028611544985324144,0.0012839026749134064,0.14951031655073166,-0.3663886822760105,0.001144316280260682,0.0010458830511197448,RTL,-35.3628567,149.1653124,65273.5,0.0,-2.0,4.0,0.0,-8.0,-1002.5,-362.5,3.5,4.5
07:14:23,300000.0,0.0044173263013362885,0.00039302383083850145,0.14966006577014923,-0.22879882901906967,-0.0008124869782477617,0.0026245980989187956,RTL,-35.3628567,149.16531185000002,65636.0,0.0,1.0,-50.0,-0.5,-6.5,-1025.0,-225.0,2.0,6.0
07:14:24,25827.0,0.01130092958919704,0.00037450410673045553,0.15004920959472656,0.061797759495675564,-0.0014240633172448725,0.0011189806391485035,RTL,-35.3628567,149.1653114,66047.75,-0.25,4.0,-51.5,-0.5,4.25,-985.25,65.0,1.25,4.75
07:14:25,25827.0,0.006741800345480442,0.0010905034141615033,0.14936868101358414,-0.35527918115258217,0.00412765599321574,0.00041694543324410915,RTL,-35.3628566,149.1653108,66489.0,-1.0,10.0,-9.0,-1.0,-5.5,-961.0,-351.0,6.5,4.0
07:14:27,25827.0,0.00958965951576829,0.002621535095386207,0.1495242789387703,0.07842734456062317,0.0005286054802127182,-0.0029835007153451443,RTL,-35.3628565,149.16531105,66485.5,-1.0,11.5,-7.5,0.0,-9.5,-1028.0,81.5,3.0,0.0
07:14:28,250232.0,0.004275540355592966,0.0026194921229034662,0.14998148009181023,-0.0177500918507576,0.0015724738186690956,0.0021409436012618244,RTL,-35.3628565,149.16531135,66666.75,-1.0,9.25,-36.0,0.5,-4.25,-1036.25,-14.0,4.25,5.5
07:14:29,250232.0,-0.00410201697377488,0.0030707723926752806,0.150397390127182,-0.2230612263083458,-0.0006736512295901775,-0.0017117527313530445,RTL,-35.3628566,149.165312,67306.0,-1.0,4.5,-53.0,1.0,-12.5,-982.5,-219.0,1.5,2.0
07:14:31,250232.0,-0.009660591604188085,0.0021929064532741904,0.1496533304452896,-0.4368762820959091,-0.00034899194724857807,-0.0009426478063687682,RTL,-35.3628568,149.16531305,67740.5,0.0,-3.5,3.5,0.5,-27.5,-994.0,-433.5,2.0,2.5
07:14:32,287235.0,-0.007088249822118087,0.0018283029203303158,0.149687010794878,0.15738636255264282,0.00031788210617378354,-0.0003948968951590359,RTL,-35.3628569,149.1653134,67718.5,0.5,-5.75,1.5,0.5,5.0,-1005.0,161.0,3.25,3.25
07:14:33,287235.0,-0.005769406794570386,0.002190491068176925,0.15028386563062668,0.1885509192943573,0.0038413290167227387,-0.0006115335272625089,RTL,-35.362857,149.1653138,67904.0,1.5,-10.5,-37.0,0.0,2.0,-1039.0,191.5,6.5,3.0
07:14:35,287235.0,-0.011231495998799801,-4.690100968218758e-05,0.1496138945221901,-0.416997492313385,0.0013651163317263126,-0.0005251085385680199,RTL,-35.362857,149.16531385000002,68856.5,2.0,-14.5,-23.5,-1.0,-12.5,-954.0,-413.5,4.0,3.5
07:14:36,164592.0,-0.000261061808487284,-0.0005095042142784223,0.14939072355628014,0.008002199232578278,-0.0016606689314357936,-0.00036267214454710484,RTL,-35.362857,149.165313425,68938.0,2.0,-12.0,-1.5,-0.75,1.0,-986.0,11.5,1.0,3.0
07:14:37,164592.0,0.0043828904163092375,-0.00018832308569471934,0.14957521855831146,-0.13286124169826508,0.001585105899721384,-0.002193322987295687,RTL,-35.362857,149.16531275,68908.0,2.0,-7.0,2.0,-0.5,-16.5,-1015.5,-130.5,4.0,1.5
07:14:39,164592.0,0.002772627725789789,0.001570188149344176,0.1504867523908615,0.11201838031411171,0.0017306850058957934,0.0010698947589844465,RTL,-35.3628569,149.16531214999998,69507.5,1.0,0.0,-55.0,0.0,-2.0,-1004.0,115.0,4.0,4.0
07:14:40,300000.0,-0.004093646042747423,0.0019208148878533393,0.1505235619843006,-0.1418752484023571,0.00021787628065794706,-0.0010271577630192041,RTL,-35.3628569,149.1653124,69892.0,1.0,-0.5,-41.0,0.25,-4.75,-966.5,-138.5,2.75,2.5
07:14:41,300000.0,0.00013496540486812592,0.001450414361897856,0.1492559164762497,-0.04332666099071503,-0.001212853821925819,-0.00011439225636422634,RTL,-35.3628569,149.1653126,70147.0,1.0,-3.5,-0.5,0.0,-14.5,-985.5,-41.0,1.0,3.5
07:14:43,300000.0,0.005085121694719419,-0.0002883339475374669,0.14952388405799866,0.17895040288567543,-0.002750581013970077,0.0012140956241637468,RTL,-35.3628569,149.16531214999998,70187.0,1.0,-0.5,-24.5,0.0,14.5,-1042.0,182.5,0.0,4.5
07:14:44,262987.0,0.005072217863926198,-1.5317806173698045e-05,0.1501949094235897,0.016525056213140488,0.0006023102323524654,0.0006311937468126416,RTL,-35.3628569,149.165312,70485.0,1.0,0.5,-49.25,0.0,-3.0,-1023.75,19.25,2.75,4.25
07:14:45,262987.0,0.0032160635164473206,0.0004185657890047878,0.15025951713323593,0.05617856979370117,-0.0009195472812280059,-0.0015088237123563886,RTL,-35.3628569,149.1653121,71149.5,1.0,0.5,-42.0,0.0,-6.0,-960.5,59.0,1.5,2.5
07:14:47,262987.0,0.002744459590758197,0.0019783105817623436,0.14971207082271576,0.5449168235063553,0.0005287763196974993,-0.0009485724149271846,RTL,-35.3628569,149.16531235000002,71362.0,1.0,0.5,3.5,1.0,28.0,-1000.0,548.0,3.0,2.5
07:14:48,69940.0,-0.005282674101181328,0.002015447709709406,0.14988259226083755,-0.1312778778374195,-0.0005269504617899656,-0.0006658971542492509,RTL,-35.3628569,149.165312675,71368.0,1.0,-1.25,-8.75,0.5,-8.5,-1031.5,-128.25,2.0,3.0
07:14:49,69940.0,-0.005773880984634161,0.0013556820922531188,0.15058021992444992,0.020159050822257996,-0.0011485738214105368,0.00036226806696504354,RTL,-35.3628569,149.1653131,71748.0,1.0,-5.0,-52.0,0.5,6.5,-1026.0,23.0,1.5,3.5
07:14:51,69940.0,0.0029364533838815987,-7.261537029989995e-05,0.14997216314077377,0.5693470537662506,0.0008665669010952115,-0.0010007863165810704,RTL,-35.362857,149.16531305,72602.5,2.0,-6.0,-8.0,0.5,24.0,-969.5,571.5,3.0,2.5
07:14:52,200738.0,-0.00277369288232876,0.00014242600991565268,0.14960763230919838,-0.17562950029969215,-0.0012753832270391285,-0.00026390317361801863,RTL,-35.362857,149.1653129,72615.25,2.0,-6.25,2.5,0.25,-8.5,-992.75,-172.25,1.5,3.25
07:14:53,200738.0,-0.0054257073206827044,0.0006169104890432209,0.14924927800893784,-0.3819139674305916,-0.000955136027187109,0.0004626715090125799,RTL,-35.362857,149.1653127,72599.5,2.0,-4.0,-8.5,-1.0,-8.0,-1039.0,-378.5,1.5,4.0
07:14:55,200738.0,0.015119967982172966,-0.0012623907532542944,0.15018758177757263,0.3548511266708374,-0.004851660691201687,-0.0015324712730944157,RTL,-35.3628569,149.1653114,73406.0,0.0,3.0,-53.0,0.0,15.0,-985.0,357.0,-2.0,2.0
07:14:56,200.0,0.014207833912223577,-0.0002482095987943467,0.15020281076431274,0.03846598230302334,0.0008718206081539392,-0.0011456329957582057,RTL,-35.3628568,149.165311075,73678.0,0.0,5.25,-31.75,-0.5,-1.25,-959.0,41.5,3.25,2.5
07:14:57,200.0,0.010268406166384617,0.0010338178447758157,0.14972740908463797,0.08606494466463725,0.0026974662517507872,0.00019807104642192522,RTL,-35.36285673333334,149.1653109,73826.66666666667,0.0,9.666666666666666,0.0,-0.6666666666666666,9.666666666666666,-995.3333333333334,89.33333333333333,5.0,3.6666666666666665
07:14:59,200.0,0.0056898146867752075,9.817889076657593e-05,0.15014782547950745,-0.018723726272583008,-0.0040819039568305016,0.0019072811119258404,RTL,-35.3628567,149.1653111,74009.0,0.0,10.0,-40.0,0.0,9.0,-1040.0,-14.0,-1.0,5.0
07:15:00,238813.0,0.0076464436133392155,0.0006898156279930845,0.15046211704611778,0.06731452979147434,-0.0007598334923386574,0.0006499776500277221,RTL,-35.3628567,149.16531115,74327.25,0.0,9.25,-53.75,0.5,2.75,-1013.0,70.75,1.75,4.25
07:15:01,238813.0,0.011029033921658993,-7.567535794805735e-05,0.15066085010766983,0.32098118402063847,0.000598234822973609,0.0002460081595927477,RTL,-35.3628568,149.16531125,74834.5,0.0,8.0,-38.0,0.0,8.5,-967.0,323.5,3.0,4.0
07:15:03,238813.0,0.005058613605797291,0.0008362023218069226,0.1500466763973236,0.12558642029762268,-0.0025467450032010674,0.0016553127206861973,RTL,-35.3628568,149.1653115,75053.5,0.0,7.0,2.0,0.5,9.5,-1012.5,130.0,0.0,5.0
07:15:04,238731.0,0.0027156806900165975,0.0012591579579748213,0.1499907523393631,0.0407482385635376,-0.00047358631854876876,-0.000856993137858808,RTL,-35.3628568,149.16531175,75094.5,0.75,5.75,-16.75,0.0,0.25,-1037.25,44.25,2.0,2.5
07:15:05,238731.0,-0.004284519818611443,0.0015902426093816757,0.15055882930755615,0.0023023560643196106,-0.0018275970360264182,0.0009003673912957311,RTL,-35.3628568,149.16531220000002,75458.0,1.0,3.0,-48.5,0.0,7.5,-1016.5,6.5,1.0,4.0
07:15:07,238731.0,-0.003484639779344434,0.0021405600709840655,0.1497305929660797,0.2512115463614464,0.0015092152170836926,-0.0017446756828576326,RTL,-35.3628569,149.16531325,76292.5,2.0,-5.0,-12.5,0.0,4.5,-968.5,254.0,3.5,1.5
07:15:08,131663.0,-0.006922407686943188,0.001357551256660372,0.14984464272856712,-0.1684610601514578,-0.0012105341593269259,0.0002852836041711271,RTL,-35.3628569,149.16531344999999,76320.75,1.25,-8.0,3.5,0.25,-9.0,-996.0,-165.5,1.25,3.5
07:15:09,131663.0,-0.0035425355308689177,-9.431803482584655e-05,0.14963453263044357,0.22348761558532715,-0.002740838681347668,0.0011236272985115647,RTL,-35.362856949999994,149.16531335000002,76334.5,1.5,-8.0,-12.0,0.0,15.5,-1037.0,227.0,0.0,5.0
07:15:11,131663.0,0.002308299532160163,-6.256179040065035e-05,0.15039604902267456,0.38828344643116,-0.003426492912694812,-0.00039102707523852587,RTL,-35.362857,149.165313,77128.0,2.0,-7.0,-48.5,0.0,13.0,-980.5,391.0,-1.0,3.0
07:15:12,118179.0,-0.0006937163416296244,3.2075539138531894e-05,0.15001681074500084,0.0077509027905762196,0.0008315335435327142,-0.00017267605289816856,RTL,-35.362857,149.165312775,77489.5,2.0,-5.5,-15.25,0.0,4.25,-964.5,11.0,3.0,3.5
07:15:13,118179.0,-0.0005716697778552771,0.0007204996072687209,0.14985905587673187,0.15752877295017242,-0.0021111771930009127,0.00044226099271327257,RTL,-35.362857,149.1653127,77531.0,2.0,-3.5,2.0,0.0,8.5,-992.5,160.5,0.0,4.0
07:15:15,118179.0,-0.00012528736260719597,0.00014165503671392798,0.15017076581716537,-0.029769323766231537,-0.0009442931041121483,-0.0008808826096355915,RTL,-35.362856949999994,149.1653124,77763.0,1.0,-2.0,-40.5,0.0,8.5,-1032.5,-26.5,1.0,2.5
07:15:16,238889.0,0.004411627109220717,-0.00036541454755933955,0.1503695286810398,0.07566894218325615,-0.0008780714997556061,-0.0002778232446871698,RTL,-35.3628569,149.165312175,78274.25,1.0,-0.5,-54.0,-0.25,6.0,-989.25,78.75,1.5,3.25
07:15:17,238889.0,0.009228814160451293,0.00019360138685442507,0.15018358081579208,0.2911267727613449,0.00422201887704432,-0.001760078128427267,RTL,-35.3628569,149.1653119,78688.5,1.0,1.0,-23.5,0.0,9.5,-957.5,294.0,6.0,1.5
07:15:19,238889.0,0.005460267573653255,0.0007137235370464623,0.14953355491161346,0.051394104957580566,0.0008663174230605364,-0.0015342308906838298,RTL,-35.36285685,149.16531155,78771.5,0.0,4.0,-2.5,0.0,8.0,-1015.5,54.5,3.0,1.5
07:15:20,200.0,0.005293115682434291,0.0012134904827689752,0.15018341317772865,0.0255064417142421,-0.0007693233201280236,0.001400817185640335,RTL,-35.3628568,149.1653115,78928.5,0.0,5.0,-33.75,0.0,2.25,-1036.5,28.5,1.5,5.0
07:15:21,200.0,0.00586325884796679,0.0005824245308758691,0.15045521408319473,0.15856920927762985,-0.003007834660820663,-0.00045988475903868675,RTL,-35.3628568,149.16531145,79401.5,0.0,6.0,-51.0,0.0,16.5,-998.0,161.5,0.0,3.0
07:15:23,200.0,0.005950606340775266,-5.471017902891617e-05,0.1497764140367508,0.01698237657546997,0.0006888624047860503,0.00018911610823124647,RTL,-35.3628568,149.16531135000002,79958.0,0.0,7.0,0.0,-0.5,8.0,-988.0,20.5,2.5,3.5
07:15:24,88069.0,0.009616149531211704,-0.0002758155096671544,0.14969247952103615,0.13299567811191082,-0.0004583618720062077,-0.0003040797892026603,RTL,-35.3628568,149.16531125,79939.25,0.0,7.5,0.0,-0.75,3.75,-1016.75,135.75,1.75,3.0
07:15:25,88069.0,0.003781247418373823,0.0003949824458686635,0.1500650867819786,-0.28689271211624146,0.0010976415360346437,-0.0009887272026389837,RTL,-35.3628568,149.1653112,80079.0,0.0,8.0,-29.5,0.0,-9.0,-1037.5,-283.0,2.5,2.5
07:15:27,88069.0,0.002863695495761931,0.001438335602870211,0.1504957526922226,0.16893699392676353,0.00015730957966297865,0.0013993758475407958,RTL,-35.3628568,149.16531165,81012.5,1.0,6.5,-35.0,0.5,14.0,-966.5,173.0,2.0,4.5
07:15:28,173531.0,-0.0011689220555126667,0.002269400138175115,0.1498364880681038,-0.13893352076411247,0.000434296322055161,-0.0021584239439107478,RTL,-35.3628568,149.1653121,81207.25,1.0,3.0,-2.25,0.0,-8.5,-977.5,-135.5,2.5,1.5
07:15:29,173531.0,-0.007208770839497447,0.002308783237822354,0.1500193253159523,-0.11911627650260925,-0.0007367798825725913,-0.00017834105528891087,RTL,-35.36285685,149.16531270000002,81190.5,1.0,-0.5,1.0,0.0,-7.0,-1006.5,-115.5,1.0,3.0
07:15:31,173531.0,-0.012862287927418947,0.0007665733282919973,0.1503552719950676,-0.2166476547718048,-0.0027102931635454297,0.0009350043255835772,RTL,-35.36285705,149.16531375,81671.5,2.0,-9.5,-50.5,0.0,-4.5,-1016.5,-212.5,-0.5,4.0
07:15:32,163090.0,-0.004845240415306762,-0.00037298581355571514,0.15050720050930977,0.011366336373612285,-0.0024369007151108235,-0.0009898302087094635,RTL,-35.3628571,149.165313625,82192.5,2.0,-11.5,-41.25,-0.25,3.0,-966.0,14.5,0.0,2.5
07:15:33,163090.0,0.00048688892275094986,-0.0008993548108264804,0.14986415952444077,-0.012338727712631226,-0.000855498481541872,-7.336877752095461e-05,RTL,-35.3628571,149.1653131,82423.0,2.0,-9.0,-7.0,-0.5,1.5,-981.5,-9.0,1.5,3.0
07:15:35,163090.0,-0.004201824543997645,0.0011784325470216572,0.15022026747465134,-0.327846085652709,0.006435726303607225,-0.003676443360745907,RTL,-35.362857,149.16531255,82468.5,2.0,-3.5,-16.5,0.0,-19.5,-1032.5,-325.0,8.0,0.5
07:15:36,200.0,-0.008738967357203364,0.0025756814575288445,0.15073100477457047,-0.11108865216374397,-0.00020312954438850284,-0.00117868569213897,RTL,-35.362857,149.16531307500003,82801.25,2.0,-4.0,-49.5,0.75,-7.75,-1022.25,-108.0,1.75,2.0
07:15:37,200.0,-0.015901907347142696,0.0029597425600513816,0.15040039271116257,-0.1854150234721601,-0.000772210129071027,-0.0007761935703456402,RTL,-35.362857,149.1653137,83327.0,2.0,-8.5,-45.5,0.0,0.0,-972.0,-182.0,0.5,2.5
07:15:39,200.0,-0.0033642277121543884,-0.00022267640815698542,0.14994096755981445,-0.18678613752126694,-0.0009504792978987098,0.0009075971320271492,RTL,-35.362857,149.16531335000002,83654.5,1.5,-11.0,2.5,0.0,-6.5,-997.0,-184.0,1.0,4.0
07:15:40,1633.0,-0.003271860576205654,-0.0005284404978738166,0.14997834712266922,-0.05356988310813904,-0.0018974547274410725,-0.0013053600559942424,RTL,-35.362857,149.16531304999998,83665.0,2.0,-7.75,-11.25,0.0,1.75,-1034.0,-50.75,0.0,2.0
07:15:41,1633.0,-0.004691503709182143,-0.00012843414151575416,0.15056968480348587,-0.32456448674201965,0.0023767679231241345,-0.0002718562027439475,RTL,-35.362857,149.16531295,83972.5,2.0,-6.5,-45.5,0.0,-19.0,-1022.5,-322.0,4.0,2.5
07:15:43,1633.0,-0.004101370723219588,4.4963962864130735e-07,0.15032652020454407,-0.4003157317638397,0.0012948751682415605,9.07025532796979e-05,RTL,-35.362857,149.16531270000002,84851.5,2.0,-4.5,-17.5,0.0,-15.0,-956.0,-397.5,3.0,3.0
07:15:44,200.0,-0.0002868282899726182,0.00045984624193806667,0.1498718410730362,0.05465184897184372,0.0008794674067758024,-0.0030462348950095475,RTL,-35.362857,149.1653126,84913.0,2.0,-3.25,2.0,-0.25,3.25,-994.0,56.75,3.25,0.0
07:15:45,200.0,-0.003509759670123458,0.0012314777704887092,0.1501127853989601,-0.1690375804901123,2.5402987375855446e-06,-0.0015758033841848373,RTL,-35.362857,149.16531279999998,84907.5,2.5,-4.0,-7.0,0.0,-14.0,-1025.0,-167.5,1.5,1.5
07:15:47,200.0,-0.010299500543624163,0.00018477522280591074,0.15055907517671585,-0.34309493005275726,-0.0013793298276141286,0.0007855236763134599,RTL,-35.36285705,149.1653133,85651.5,2.5,-8.0,-55.0,0.0,-12.5,-991.5,-341.0,1.0,4.0
07:15:48,116882.0,-0.0060664246120722964,0.00018402699197395123,0.1504669301211834,-0.07499327510595322,0.00017750606639310718,-0.0012600125628523529,RTL,-35.3628571,149.165313375,86113.0,3.0,-9.0,-27.25,-0.25,-4.5,-956.0,-73.0,2.0,1.75
07:15:49,116882.0,-0.004251023929100484,4.5834414777345955e-05,0.14985645562410355,-0.16384143568575382,-0.0003680322552099824,-0.0006066843634471297,RTL,-35.3628571,149.1653132,86223.0,3.0,-8.5,0.5,-0.5,-4.0,-981.5,-161.5,1.5,2.5
07:15:51,116882.0,0.005321038421243429,-0.0005509616385097615,0.14993613213300705,0.04512292891740799,-0.0013926139799878001,-0.00018580339383333921,RTL,-35.36285705,149.16531255,86350.5,2.0,-4.5,-31.0,-0.5,-5.0,-1041.0,46.5,0.5,2.5
