time_stamp,MODE,lat,lon,relative_alt,roll,pitch,yaw,rollspeed,pitchspeed,yawspeed,xacc,yacc,zacc,xgyro,ygyro,zgyro,vx,vy,vz,RTL_ALT
14:32:34.817,STABILIZE,-35.3632621,149.1652374,51,0.0009569335379637778,0.001408353797160089,0.02848954126238823,0.0002443873672746122,0.00025326586910523474,0.0024566715583205223,0,1,-1000,0,0,0,0,1,-1,1500.0
14:32:35.017,STABILIZE,-35.3632621,149.1652374,51,0.0009569335379637778,0.001408353797160089,0.02848954126238823,0.0002443873672746122,0.00025326586910523474,0.0024566715583205223,0,1,-1000,0,0,0,0,1,-1,1500.0
14:32:35.218,STABILIZE,-35.3632621,149.1652374,51,0.0009569335379637778,0.001408353797160089,0.02848954126238823,0.0002443873672746122,0.00025326586910523474,0.0024566715583205223,0,1,-1000,0,0,0,0,1,-1,1500.0
14:32:35.419,STABILIZE,-35.3632621,149.1652374,51,0.0009569335379637778,0.001408353797160089,0.02848954126238823,0.0002443873672746122,0.00025326586910523474,0.0024566715583205223,0,1,-1000,0,0,0,0,1,-1,1500.0
14:32:35.620,STABILIZE,-35.3632621,149.1652374,51,0.0009569335379637778,0.001408353797160089,0.02848954126238823,0.0002443873672746122,0.00025326586910523474,0.0024566715583205223,0,1,-1000,0,0,0,0,1,-1,1500.0
14:32:35.821,STABILIZE,-35.3632621,149.1652374,51,0.0009569335379637778,0.001408353797160089,0.02848954126238823,0.0002443873672746122,0.00025326586910523474,0.0024566715583205223,0,1,-1000,0,0,0,0,1,-1,1500.0
14:32:36.023,STABILIZE,-35.3632621,149.1652374,51,0.0009569335379637778,0.001408353797160089,0.02848954126238823,0.0002443873672746122,0.00025326586910523474,0.0024566715583205223,0,1,-1000,0,0,0,0,1,-1,1500.0
14:32:36.224,STABILIZE,-35.3632621,149.1652374,51,0.0009569335379637778,0.001408353797160089,0.02848954126238823,0.0002443873672746122,0.00025326586910523474,0.0024566715583205223,0,1,-1000,0,0,0,0,1,-1,1500.0
14:32:36.424,STABILIZE,-35.3632621,149.1652374,51,0.0009569335379637778,0.001408353797160089,0.02848954126238823,0.0002443873672746122,0.00025326586910523474,0.0024566715583205223,0,1,-1000,0,0,1,0,1,-1,1500.0
14:32:36.625,STABILIZE,-35.3632621,149.1652374,51,0.0009569335379637778,0.001408353797160089,0.02848954126238823,0.0002443873672746122,0.00025326586910523474,0.0024566715583205223,0,1,-1000,0,0,1,0,1,-1,1500.0
14:32:36.826,STABILIZE,-35.3632621,149.1652374,51,0.0009569335379637778,0.001408353797160089,0.02848954126238823,0.0002443873672746122,0.00025326586910523474,0.0024566715583205223,0,1,-1000,0,0,1,0,1,-1,1500.0
14:32:37.026,STABILIZE,-35.3632622,149.1652376,3,0.0005565109313465655,0.0014399614883586764,0.02622637338936329,0.0003515523858368397,0.0004233141662552953,0.002252717036753893,0,1,-1000,0,0,1,-2,2,0,1500.0
14:32:37.228,STABILIZE,-35.3632622,149.1652376,3,0.0005565109313465655,0.0014399614883586764,0.02622637338936329,0.0003515523858368397,0.0004233141662552953,0.002252717036753893,0,1,-1000,0,0,1,-2,2,0,1500.0
14:32:37.429,STABILIZE,-35.3632622,149.1652376,0,0.0004258694825693965,0.0013950845459476113,0.026060840114951134,0.0002216232242062688,0.0003610415442381054,0.0021586217917501926,0,1,-1000,0,0,0,-2,2,0,1500.0
14:32:37.644,STABILIZE,-35.3632622,149.1652376,0,0.0004258694825693965,0.0013950845459476113,0.026060840114951134,0.0002216232242062688,0.0003610415442381054,0.0021586217917501926,0,1,-1000,0,0,0,-2,2,0,1500.0
14:32:37.845,STABILIZE,-35.3632622,149.1652376,0,0.0004258694825693965,0.0013950845459476113,0.026060840114951134,0.0002216232242062688,0.0003610415442381054,0.0021586217917501926,0,1,-1000,0,0,0,-2,2,0,1500.0
14:32:38.046,STABILIZE,-35.3632622,149.1652376,0,0.0004258694825693965,0.0013950845459476113,0.026060840114951134,0.0002216232242062688,0.0003610415442381054,0.0021586217917501926,0,1,-1000,0,0,0,-2,2,0,1500.0
14:32:38.247,STABILIZE,-35.3632622,149.1652376,0,0.0004258694825693965,0.0013950845459476113,0.026060840114951134,0.0002216232242062688,0.0003610415442381054,0.0021586217917501926,0,1,-1000,0,0,0,-2,2,0,1500.0
14:32:38.449,STABILIZE,-35.3632622,149.1652376,0,-7.926471153041348e-05,0.0011922400444746017,0.0254460871219635,0.00020253498223610222,0.00020303876954130828,0.0021638423204421997,0,1,-1000,0,0,0,-1,2,0,1500.0
14:32:38.650,STABILIZE,-35.3632622,149.1652376,0,-7.926471153041348e-05,0.0011922400444746017,0.0254460871219635,0.00020253498223610222,0.00020303876954130828,0.0021638423204421997,0,1,-1000,0,0,0,-1,2,0,1500.0
14:32:38.851,STABILIZE,-35.3632622,149.1652376,0,-7.926471153041348e-05,0.0011922400444746017,0.0254460871219635,0.00020253498223610222,0.00020303876954130828,0.0021638423204421997,0,1,-1000,0,0,0,-1,2,0,1500.0
14:32:39.052,STABILIZE,-35.3632622,149.1652375,0,-0.00038722026511095464,0.0010772895766422153,0.025074325501918793,0.00012400944251567125,0.00030279147904366255,0.0021186722442507744,0,1,-1000,0,0,0,-1,1,0,1500.0
14:32:39.254,STABILIZE,-35.3632622,149.1652375,0,-0.00038722026511095464,0.0010772895766422153,0.025074325501918793,0.00012400944251567125,0.00030279147904366255,0.0021186722442507744,0,1,-1000,0,0,0,-1,1,0,1500.0
14:32:39.456,STABILIZE,-35.3632622,149.1652375,0,-0.0004620180116035044,0.0010514211608096957,0.024962138384580612,0.00032169773476198316,0.00027566845528781414,0.0017435720656067133,0,1,-1000,0,0,0,-1,1,0,1500.0
14:32:39.657,STABILIZE,-35.3632622,149.1652375,0,-0.0004620180116035044,0.0010514211608096957,0.024962138384580612,0.00032169773476198316,0.00027566845528781414,0.0017435720656067133,0,1,-1000,0,0,0,-1,1,0,1500.0
14:32:39.858,STABILIZE,-35.3632622,149.1652375,0,-0.0004620180116035044,0.0010514211608096957,0.024962138384580612,0.00032169773476198316,0.00027566845528781414,0.0017435720656067133,0,1,-1000,0,0,0,-1,1,0,1500.0
14:32:40.060,STABILIZE,-35.3632622,149.1652375,0,-0.0004620180116035044,0.0010514211608096957,0.024962138384580612,0.00032169773476198316,0.00027566845528781414,0.0017435720656067133,0,1,-1000,0,0,0,-1,1,0,1500.0
14:32:40.261,STABILIZE,-35.3632622,149.1652375,0,-0.0004620180116035044,0.0010514211608096957,0.024962138384580612,0.00032169773476198316,0.00027566845528781414,0.0017435720656067133,0,1,-1000,0,0,0,-1,1,0,1500.0
14:32:40.462,STABILIZE,-35.3632622,149.1652375,0,-0.0004620180116035044,0.0010514211608096957,0.024962138384580612,0.00032169773476198316,0.00027566845528781414,0.0017435720656067133,0,1,-1000,0,0,0,-1,1,0,1500.0
14:32:40.663,STABILIZE,-35.3632621,149.1652376,0,-0.0006172261782921851,0.0009797136299312115,0.024448556825518608,0.00027799472445622087,0.0002069282636512071,0.0019207859877496958,0,1,-1000,0,0,0,-1,2,3,1500.0
14:32:40.864,STABILIZE,-35.3632621,149.1652376,0,-0.0006172261782921851,0.0009797136299312115,0.024448556825518608,0.00027799472445622087,0.0002069282636512071,0.0019207859877496958,0,1,-1000,0,0,0,-1,2,3,1500.0
14:32:41.065,STABILIZE,-35.3632621,149.1652376,0,-0.0006172261782921851,0.0009797136299312115,0.024448556825518608,0.00027799472445622087,0.0002069282636512071,0.0019207859877496958,0,1,-1000,0,0,0,-1,2,3,1500.0
14:32:41.267,STABILIZE,-35.3632621,149.1652376,0,-0.0006172261782921851,0.0009797136299312115,0.024448556825518608,0.00027799472445622087,0.0002069282636512071,0.0019207859877496958,0,1,-1000,0,0,0,-1,2,3,1500.0
14:32:41.468,STABILIZE,-35.3632621,149.1652375,0,-0.0008991689537651837,0.0009543369524180889,0.024197611957788467,0.00017712736735120416,0.0003572918358258903,0.0019121411023661494,0,1,-1000,0,0,0,-1,2,3,1500.0
14:32:41.669,STABILIZE,-35.3632621,149.1652375,0,-0.0008991689537651837,0.0009543369524180889,0.024197611957788467,0.00017712736735120416,0.0003572918358258903,0.0019121411023661494,0,1,-1000,0,0,0,-1,2,3,1500.0
14:32:41.871,STABILIZE,-35.3632621,149.1652375,0,-0.0008991689537651837,0.0009543369524180889,0.024197611957788467,0.00017712736735120416,0.0003572918358258903,0.0019121411023661494,0,1,-1000,0,0,0,-1,2,3,1500.0
14:32:42.072,STABILIZE,-35.3632621,149.1652375,0,-0.0008991689537651837,0.0009543369524180889,0.024197611957788467,0.00017712736735120416,0.0003572918358258903,0.0019121411023661494,0,1,-1000,0,0,0,-1,2,3,1500.0
14:32:42.273,STABILIZE,-35.3632621,149.1652375,0,-0.001153799588792026,0.0009357111994177103,0.02392001263797283,0.00018595409346744418,0.00020275526912882924,0.0018210883717983961,0,2,-1000,0,0,0,-1,1,2,1500.0
14:32:42.474,STABILIZE,-35.3632621,149.1652375,0,-0.001153799588792026,0.0009357111994177103,0.02392001263797283,0.00018595409346744418,0.00020275526912882924,0.0018210883717983961,0,2,-1000,0,0,0,-1,1,2,1500.0
14:32:42.675,STABILIZE,-35.3632621,149.1652375,0,-0.001196423196233809,0.0009387038298882544,0.02385835535824299,0.00019949988927692175,0.00023589341435581446,0.0018055734690278769,0,1,-1000,1,0,0,-1,1,2,1500.0
14:32:42.877,STABILIZE,-35.3632621,149.1652375,0,-0.001196423196233809,0.0009387038298882544,0.02385835535824299,0.00019949988927692175,0.00023589341435581446,0.0018055734690278769,0,1,-1000,0,0,0,-1,1,2,1500.0
14:32:43.078,STABILIZE,-35.3632621,149.1652375,0,-0.0012601071503013372,0.0009310122695751488,0.023742973804473877,8.501432603225112e-05,0.00020053557818755507,0.0019288079347461462,0,1,-1000,0,0,0,-1,0,1,1500.0
14:32:43.279,STABILIZE,-35.3632621,149.1652375,0,-0.0012601071503013372,0.0009310122695751488,0.023742973804473877,8.501432603225112e-05,0.00020053557818755507,0.0019288079347461462,0,-109,-1168,4,0,0,-1,0,1,1500.0
14:32:43.480,STABILIZE,-35.3632621,149.1652375,0,-0.0012601071503013372,0.0009310122695751488,0.023742973804473877,8.501432603225112e-05,0.00020053557818755507,0.0019288079347461462,0,-109,-1168,4,0,0,-1,0,1,1500.0
14:32:43.682,STABILIZE,-35.3632621,149.1652375,0,-0.0012601071503013372,0.0009310122695751488,0.023742973804473877,8.501432603225112e-05,0.00020053557818755507,0.0019288079347461462,0,-109,-1168,4,0,0,-1,0,1,1500.0
14:32:43.883,STABILIZE,-35.3632621,149.1652375,0,-0.0012601071503013372,0.0009310122695751488,0.023742973804473877,8.501432603225112e-05,0.00020053557818755507,0.0019288079347461462,0,-109,-1168,4,0,0,-1,0,1,1500.0
14:32:44.084,STABILIZE,-35.3632621,149.1652375,0,-0.0012601071503013372,0.0009310122695751488,0.023742973804473877,8.501432603225112e-05,0.00020053557818755507,0.0019288079347461462,0,-109,-1168,4,0,0,-1,0,1,1500.0
14:32:44.286,STABILIZE,-35.3632621,149.1652375,0,-0.000786295160651207,0.0009371149935759604,0.023473065346479416,0.00017283059423789382,0.00020609126659110188,0.0016762109007686377,0,-109,-1168,4,0,0,-1,0,1,1500.0
14:32:44.487,STABILIZE,-35.3632621,149.1652375,0,-0.000786295160651207,0.0009371149935759604,0.023473065346479416,0.00017283059423789382,0.00020609126659110188,0.0016762109007686377,0,-109,-1168,4,0,0,-1,0,1,1500.0
14:32:44.688,STABILIZE,-35.3632621,149.1652374,0,-0.0006794842192903161,0.0009417205001227558,0.02340550906956196,0.0002514891093596816,0.0003117260057479143,0.0016472453717142344,0,1,-1000,0,1,0,-1,-1,-3,1500.0
14:32:44.889,STABILIZE,-35.3632621,149.1652374,0,-0.0005875545321032405,0.0009379112743772566,0.02333972230553627,0.00035721372114494443,0.00034272094490006566,0.0017223234754055738,0,1,-1000,0,0,0,-1,-1,-3,1500.0
14:32:45.090,STABILIZE,-35.3632621,149.1652374,0,-0.0005875545321032405,0.0009379112743772566,0.02333972230553627,0.00035721372114494443,0.00034272094490006566,0.0017223234754055738,0,1,-1000,0,0,0,-1,-1,-3,1500.0
14:32:45.291,STABILIZE,-35.3632621,149.1652374,0,-0.00045820127706974745,0.0009472310775890946,0.02319185994565487,0.00024866050807759166,0.00025629077572375536,0.001623558346182108,0,2,-1000,0,0,0,-1,0,-2,1500.0
14:32:45.493,STABILIZE,-35.3632621,149.1652374,0,-0.00045820127706974745,0.0009472310775890946,0.02319185994565487,0.00024866050807759166,0.00025629077572375536,0.001623558346182108,0,2,-1000,0,0,0,-1,0,-2,1500.0
14:32:45.694,STABILIZE,-35.3632621,149.1652374,0,-0.00045820127706974745,0.0009472310775890946,0.02319185994565487,0.00024866050807759166,0.00025629077572375536,0.001623558346182108,0,2,-1000,0,0,0,-1,0,-2,1500.0
14:32:45.895,STABILIZE,-35.3632621,149.1652374,0,-0.00045820127706974745,0.0009472310775890946,0.02319185994565487,0.00024866050807759166,0.00025629077572375536,0.001623558346182108,0,2,-1000,0,0,0,-1,0,-2,1500.0
14:32:46.096,STABILIZE,-35.3632621,149.1652374,0,-0.00045820127706974745,0.0009472310775890946,0.02319185994565487,0.00024866050807759166,0.00025629077572375536,0.001623558346182108,0,2,-1000,0,0,0,-1,0,-2,1500.0
14:32:46.298,STABILIZE,-35.3632621,149.1652374,0,-0.00045820127706974745,0.0009472310775890946,0.02319185994565487,0.00024866050807759166,0.00025629077572375536,0.001623558346182108,0,2,-1000,0,0,0,-1,0,-2,1500.0
14:32:46.499,STABILIZE,-35.3632621,149.1652374,0,-0.00045820127706974745,0.0009472310775890946,0.02319185994565487,0.00024866050807759166,0.00025629077572375536,0.001623558346182108,0,2,-1000,0,0,0,-1,0,-2,1500.0
14:32:46.700,STABILIZE,-35.3632621,149.1652374,0,-0.00045820127706974745,0.0009472310775890946,0.02319185994565487,0.00024866050807759166,0.00025629077572375536,0.001623558346182108,0,2,-1000,0,0,0,-1,0,-2,1500.0
14:32:46.901,STABILIZE,-35.3632622,149.1652374,1,-0.00034981154021807015,0.0009546742076054215,0.022667674347758293,0.00027092359960079193,0.00016966357361525297,0.0015244923997670412,0,1,-1000,0,0,0,-1,1,-1,1500.0
14:32:47.103,STABILIZE,-35.3632622,149.1652374,1,-0.00036592231481336057,0.0009585524094291031,0.022580569609999657,0.00023118831450119615,0.0002923638094216585,0.0016756239347159863,0,1,-1000,0,0,0,-1,1,-1,1500.0
14:32:47.304,STABILIZE,-35.3632622,149.1652375,0,-0.0003779407124966383,0.0009595807641744614,0.02248941920697689,0.00037622771924361587,0.00025561224902048707,0.0017285828944295645,0,1,-1000,1,0,0,-1,2,-1,1500.0
14:32:47.505,STABILIZE,-35.3632622,149.1652375,0,-0.0003779407124966383,0.0009595807641744614,0.02248941920697689,0.00037622771924361587,0.00025561224902048707,0.0017285828944295645,0,1,-1000,1,0,0,-1,2,-1,1500.0
14:32:47.706,STABILIZE,-35.3632622,149.1652375,0,-0.0003779407124966383,0.0009595807641744614,0.02248941920697689,0.00037622771924361587,0.00025561224902048707,0.0017285828944295645,0,1,-1000,1,0,0,-1,2,-1,1500.0
14:32:47.908,STABILIZE,-35.3632622,149.1652375,0,-0.0003779407124966383,0.0009595807641744614,0.02248941920697689,0.00037622771924361587,0.00025561224902048707,0.0017285828944295645,0,1,-1000,1,0,0,-1,2,-1,1500.0
14:32:48.109,STABILIZE,-35.3632622,149.1652375,0,-0.00043857391574420035,0.0009548208909109235,0.02225612662732601,0.000302731990814209,0.00014172453666105866,0.0016091563738882542,0,1,-1000,1,0,0,-1,2,0,1500.0
14:32:48.310,STABILIZE,-35.3632622,149.1652375,0,-0.00043857391574420035,0.0009548208909109235,0.02225612662732601,0.000302731990814209,0.00014172453666105866,0.0016091563738882542,0,2,-1000,0,0,0,-1,2,0,1500.0
14:32:48.511,STABILIZE,-35.3632622,149.1652375,0,-0.00043857391574420035,0.0009548208909109235,0.02225612662732601,0.000302731990814209,0.00014172453666105866,0.0016091563738882542,0,2,-1000,0,0,0,-1,2,0,1500.0
14:32:48.713,STABILIZE,-35.3632622,149.1652375,0,-0.000508731696754694,0.0009559625759720802,0.022111648693680763,0.00028114207088947296,0.000174384331330657,0.0016472050920128822,0,1,-1000,0,0,0,-1,2,0,1500.0
14:32:48.914,STABILIZE,-35.3632622,149.1652375,0,-0.000508731696754694,0.0009559625759720802,0.022111648693680763,0.00028114207088947296,0.000174384331330657,0.0016472050920128822,0,1,-1000,0,0,0,-1,2,0,1500.0
14:32:49.115,STABILIZE,-35.3632622,149.1652375,0,-0.000565291556995362,0.0009596091695129871,0.021952996030449867,0.0002964204759337008,0.0002954952069558203,0.001600596820935607,0,1,-1000,1,0,0,-1,2,0,1500.0
14:32:49.318,STABILIZE,-35.3632622,149.1652375,0,-0.000565291556995362,0.0009596091695129871,0.021952996030449867,0.0002964204759337008,0.0002954952069558203,0.001600596820935607,0,2,-1000,0,1,1,-1,2,0,1500.0
14:32:49.520,STABILIZE,-35.3632622,149.1652375,0,-0.000565291556995362,0.0009596091695129871,0.021952996030449867,0.0002964204759337008,0.0002954952069558203,0.001600596820935607,0,2,-1000,0,1,1,-1,2,0,1500.0
14:32:49.721,STABILIZE,-35.3632622,149.1652375,0,-0.000565291556995362,0.0009596091695129871,0.021952996030449867,0.0002964204759337008,0.0002954952069558203,0.001600596820935607,0,2,-1000,0,1,1,-1,2,0,1500.0
14:32:49.941,STABILIZE,-35.3632622,149.1652375,0,-0.000565291556995362,0.0009596091695129871,0.021952996030449867,0.0002964204759337008,0.0002954952069558203,0.001600596820935607,0,2,-1000,0,1,1,-1,2,0,1500.0
14:32:50.143,STABILIZE,-35.3632622,149.1652375,0,-0.0006955362041480839,0.000973309448454529,0.021678607910871506,0.00028545979876071215,0.00033159495797008276,0.0015975781716406345,0,1,-1000,0,0,0,-1,2,0,1500.0
14:32:50.345,STABILIZE,-35.3632622,149.1652375,0,-0.0006955362041480839,0.000973309448454529,0.021678607910871506,0.00028545979876071215,0.00033159495797008276,0.0015975781716406345,0,-1,-1005,1,0,0,-1,2,0,1500.0
14:32:50.546,STABILIZE,-35.3632622,149.1652376,0,-0.00031079171458259225,0.0009848354384303093,0.021555239334702492,0.00019422482000663877,0.00023654778487980366,0.0015388407045975327,0,1,-1000,0,1,0,-1,4,4,1500.0
14:32:50.747,STABILIZE,-35.3632622,149.1652376,0,-0.00031079171458259225,0.0009848354384303093,0.021555239334702492,0.00019422482000663877,0.00023654778487980366,0.0015388407045975327,0,1,-1000,0,1,0,-1,4,4,1500.0
14:32:50.948,STABILIZE,-35.3632622,149.1652376,0,-0.00031079171458259225,0.0009848354384303093,0.021555239334702492,0.00019422482000663877,0.00023654778487980366,0.0015388407045975327,0,1,-1000,0,1,0,-1,4,4,1500.0
14:32:51.149,STABILIZE,-35.3632622,149.1652376,0,-0.00031079171458259225,0.0009848354384303093,0.021555239334702492,0.00019422482000663877,0.00023654778487980366,0.0015388407045975327,0,2,-1000,1,1,0,-1,3,3,1500.0
14:32:51.350,STABILIZE,-35.3632622,149.1652376,0,-0.00031079171458259225,0.0009848354384303093,0.021555239334702492,0.00019422482000663877,0.00023654778487980366,0.0015388407045975327,0,2,-1000,1,1,0,-1,3,3,1500.0
14:32:51.552,AUTO,-35.3632622,149.1652376,0,-0.00031079171458259225,0.0009848354384303093,0.021555239334702492,0.00019422482000663877,0.00023654778487980366,0.0015388407045975327,0,2,-1000,1,1,0,-1,3,3,1500.0
14:32:51.754,AUTO,-35.3632622,149.1652376,0,-0.00031079171458259225,0.0009848354384303093,0.021555239334702492,0.00019422482000663877,0.00023654778487980366,0.0015388407045975327,0,2,-1000,1,1,0,-1,3,3,284196.0
14:32:51.955,AUTO,-35.3632622,149.1652376,0,-0.00031079171458259225,0.0009848354384303093,0.021555239334702492,0.00019422482000663877,0.00023654778487980366,0.0015388407045975327,0,2,-1000,1,1,0,-1,3,3,284196.0
14:32:52.156,AUTO,-35.3632622,149.1652376,0,-0.0009215897880494595,0.0009995921282097697,0.021196410059928894,0.0002141495351679623,0.00022479391191154718,0.001548019703477621,0,1,-1000,0,0,0,-1,2,3,284196.0
14:32:52.357,AUTO,-35.3632622,149.1652376,0,-0.0009899920551106334,0.001005337224341929,0.021144749596714973,0.00030565098859369755,0.00019780342699959874,0.0014899733942002058,0,2,-1000,1,1,1,-1,1,2,284196.0
14:32:52.558,AUTO,-35.3632621,149.1652376,0,-0.0010215957881882787,0.0010296087712049484,0.021103473380208015,0.00030218734173104167,0.0002881336258724332,0.0015279343351721764,0,1,-1000,0,1,0,-1,1,2,284196.0
14:32:52.760,AUTO,-35.3632621,149.1652376,0,-0.0010215957881882787,0.0010296087712049484,0.021103473380208015,0.00030218734173104167,0.0002881336258724332,0.0015279343351721764,0,1,-1000,0,1,0,-1,1,2,284196.0
14:32:52.961,AUTO,-35.3632621,149.1652376,0,-0.0010295230895280838,0.0010608197189867496,0.02105831727385521,0.00029526581056416035,0.0001999785890802741,0.0014828515704721212,0,2,-1000,0,0,1,0,0,2,284196.0
14:32:53.164,AUTO,-35.3632621,149.1652376,0,-0.0010115096811205149,0.0011134151136502624,0.021002674475312233,0.0002908924943767488,0.0003485935740172863,0.00149123789742589,0,2,-1000,0,1,0,0,0,2,284196.0
14:32:53.365,AUTO,-35.3632621,149.1652375,0,-0.0009844255400821567,0.0011696569854393601,0.02095775492489338,0.0001768124639056623,0.00017023022519424558,0.001398637192323804,0,1,-1000,0,1,1,0,0,2,284196.0
14:32:53.567,AUTO,-35.3632621,149.1652375,0,-0.0009844255400821567,0.0011696569854393601,0.02095775492489338,0.0001768124639056623,0.00017023022519424558,0.001398637192323804,0,1,-1000,0,1,1,0,0,2,284196.0
14:32:53.769,AUTO,-35.3632621,149.1652375,0,-0.0009844255400821567,0.0011696569854393601,0.02095775492489338,0.0001768124639056623,0.00017023022519424558,0.001398637192323804,0,1,-1000,0,1,1,0,0,2,284196.0
14:32:53.970,AUTO,-35.3632621,149.1652375,0,-0.0009844255400821567,0.0011696569854393601,0.02095775492489338,0.0001768124639056623,0.00017023022519424558,0.001398637192323804,0,1,-1000,0,1,1,0,0,2,284196.0
14:32:54.171,AUTO,-35.3632621,149.1652375,0,-0.0007109289290383458,0.001353190978989005,0.02083819918334484,0.00027039949782192707,0.00020926212891936302,0.0014194274554029107,0,2,-1000,0,0,0,0,-1,1,284196.0
14:32:54.372,AUTO,-35.3632621,149.1652374,0,-0.0006625046953558922,0.0014245579950511456,0.02080652117729187,0.0002288969699293375,0.00024118769215419888,0.0014831365551799536,0,1,-1000,0,0,0,0,-1,1,284196.0
14:32:54.574,AUTO,-35.3632621,149.1652374,0,-0.0006150500848889351,0.0014953695936128497,0.02074544131755829,0.00025477376766502857,0.000275595230050385,0.0014425170375034213,0,2,-1000,0,0,1,0,0,1,284196.0
14:32:54.776,AUTO,-35.3632621,149.1652374,0,-0.0006150500848889351,0.0014953695936128497,0.02074544131755829,0.00025477376766502857,0.000275595230050385,0.0014425170375034213,0,2,-1000,0,0,1,0,0,1,158126.0
14:32:54.977,AUTO,-35.3632621,149.1652374,0,-0.0005658448208123446,0.0015702934470027685,0.02068561688065529,0.00033955747494474053,0.0002635861746966839,0.001351912273094058,0,1,-1000,1,1,1,0,0,1,158126.0
14:32:55.178,AUTO,-35.3632621,149.1652374,0,-0.000515295541845262,0.0016444528009742498,0.020642606541514397,0.000328950525727123,0.0003158064209856093,0.001372783211991191,0,1,-1000,0,0,0,0,0,1,158126.0
14:32:55.380,AUTO,-35.3632621,149.1652374,0,-0.0004541976086329669,0.001723458874039352,0.02058122493326664,0.0003803612198680639,0.0003495059791021049,0.001457643462345004,0,1,-1000,0,1,0,0,0,1,158126.0
14:32:55.581,AUTO,-35.3632621,149.1652374,0,-0.0004541976086329669,0.001723458874039352,0.02058122493326664,0.0003803612198680639,0.0003495059791021049,0.001457643462345004,0,1,-1000,0,1,0,0,0,1,158126.0
14:32:55.783,AUTO,-35.3632621,149.1652374,0,-0.0004541976086329669,0.001723458874039352,0.02058122493326664,0.0003803612198680639,0.0003495059791021049,0.001457643462345004,0,1,-1000,0,1,0,0,0,1,158126.0
14:32:55.984,AUTO,-35.3632621,149.1652374,0,-0.0004541976086329669,0.001723458874039352,0.02058122493326664,0.0003803612198680639,0.0003495059791021049,0.001457643462345004,0,1,-1000,0,1,0,0,0,1,158126.0
14:32:56.186,AUTO,-35.3632621,149.1652375,175,0.003362175775691867,0.0001597093214513734,0.020666489377617836,0.0021287142299115658,0.0031945467926561832,0.0014557521790266037,0,0,-1130,3,3,0,0,0,-68,158126.0
14:32:56.387,AUTO,-35.3632621,149.1652375,383,0.001992752542719245,0.001046987483277917,0.020613886415958405,-0.0017981573473662138,0.0024074006360024214,0.0012580452021211386,0,0,-1109,-1,3,0,0,0,-97,158126.0
14:32:56.589,AUTO,-35.3632621,149.1652375,660,0.0010198050877079368,0.0017776788445189595,0.0203346386551857,-0.004611641634255648,0.00200192560441792,-0.0006488552899099886,0,0,-1089,-4,2,-1,0,0,-121,158126.0
14:32:56.790,AUTO,-35.3632621,149.1652375,996,0.008931855671107769,0.001102002919651568,0.01992170326411724,0.046535663306713104,-0.005997577682137489,0.0006777431699447334,0,0,-1044,47,-5,0,0,1,-137,158126.0
14:32:56.992,AUTO,-35.3632621,149.1652375,996,0.008931855671107769,0.001102002919651568,0.01992170326411724,0.046535663306713104,-0.005997577682137489,0.0006777431699447334,0,0,-1044,47,-5,0,0,1,-137,158126.0
14:32:57.193,AUTO,-35.363262,149.1652375,1361,0.020740317180752754,-0.0006283330731093884,0.019791515544056892,0.046581920236349106,-0.007380589842796326,0.001759068574756384,0,0,-1019,47,-6,1,0,4,-143,158126.0
14:32:57.395,AUTO,-35.363262,149.1652377,1744,0.03227608650922775,-0.0025775209069252014,0.01985168270766735,0.04504600167274475,-0.007714003324508667,0.002483090851455927,0,-1,-1007,45,-7,2,1,10,-146,158126.0
14:32:57.596,AUTO,-35.363262,149.1652377,1744,0.03227608650922775,-0.0025775209069252014,0.01985168270766735,0.04504600167274475,-0.007714003324508667,0.002483090851455927,0,-1,-1007,45,-7,2,1,10,-146,112466.0
14:32:57.798,AUTO,-35.363262,149.1652377,1744,0.03227608650922775,-0.0025775209069252014,0.01985168270766735,0.04504600167274475,-0.007714003324508667,0.002483090851455927,0,-1,-1007,45,-7,2,1,10,-146,112466.0
14:32:58.000,AUTO,-35.363262,149.1652377,1744,0.03227608650922775,-0.0025775209069252014,0.01985168270766735,0.04504600167274475,-0.007714003324508667,0.002483090851455927,0,-1,-1007,45,-7,2,1,10,-146,112466.0
14:32:58.203,AUTO,-35.3632616,149.1652397,2898,0.061644960194826126,-0.009649703279137611,-0.006953625474125147,0.013570813462138176,0.002753766253590584,-0.027778856456279755,0,-8,-995,14,3,-28,8,41,-147,112466.0
14:32:58.404,AUTO,-35.3632614,149.1652409,3280,0.04427260905504227,0.01022456493228674,-0.027850504964590073,-0.12577641010284424,0.10420063883066177,-0.10394691675901413,2,-9,-990,-125,104,-104,9,52,-145,112466.0
14:32:58.606,AUTO,-35.3632612,149.1652424,3656,0.0005685972864739597,0.023264633491635323,-0.04843719303607941,-0.18681439757347107,0.006937478203326464,-0.07501810789108276,4,-12,-997,-186,7,-75,7,54,-144,112466.0
14:32:58.808,AUTO,-35.363261,149.1652438,4033,-0.025911560282111168,0.020149094983935356,-0.06274259835481644,-0.05767425522208214,-0.017618944868445396,-0.05686362832784653,5,-11,-1011,-57,-16,-57,3,47,-146,112466.0
14:32:59.010,AUTO,-35.363261,149.1652438,4033,-0.025911560282111168,0.020149094983935356,-0.06274259835481644,-0.05767425522208214,-0.017618944868445396,-0.05686362832784653,5,-11,-1011,-57,-16,-57,3,47,-146,112466.0
14:32:59.212,AUTO,-35.3632609,149.1652449,4417,-0.03478663042187691,0.015007119625806808,-0.07362286001443863,-0.020262461155653,-0.014674732461571693,-0.047092974185943604,3,-7,-1007,-19,-14,-47,0,36,-148,112466.0
14:32:59.413,AUTO,-35.3632609,149.1652458,4803,-0.04345056787133217,0.009906496852636337,-0.0823504626750946,-0.052977245301008224,-0.02143285423517227,-0.029491817578673363,4,-6,-1000,-52,-21,-29,-1,25,-149,112466.0
14:32:59.616,AUTO,-35.3632609,149.1652458,4803,-0.04345056787133217,0.009906496852636337,-0.0823504626750946,-0.052977245301008224,-0.02143285423517227,-0.029491817578673363,4,-6,-1000,-52,-21,-29,-1,25,-149,112466.0
14:32:59.820,AUTO,-35.3632609,149.1652458,4803,-0.04345056787133217,0.009906496852636337,-0.0823504626750946,-0.052977245301008224,-0.02143285423517227,-0.029491817578673363,4,-6,-1000,-52,-21,-29,-1,25,-149,112466.0
14:33:00.022,AUTO,-35.3632609,149.1652458,4803,-0.04345056787133217,0.009906496852636337,-0.0823504626750946,-0.052977245301008224,-0.02143285423517227,-0.029491817578673363,4,-6,-1000,-52,-21,-29,-1,25,-149,112466.0
14:33:00.223,AUTO,-35.3632609,149.1652459,5956,-0.07126346230506897,-0.006828171666711569,-0.09203007072210312,0.04781394824385643,-0.004132312256842852,-0.008652233518660069,0,3,-1003,48,-3,-8,-2,-25,-149,112466.0
14:33:00.425,AUTO,-35.363261,149.1652451,6344,-0.057774223387241364,-0.007312329951673746,-0.0946681872010231,0.05678045377135277,0.0007880126941017807,-0.005095926113426685,-3,6,-1001,57,1,-5,-2,-40,-149,112466.0
14:33:00.627,AUTO,-35.3632611,149.1652439,6729,-0.04297485202550888,-0.006348185241222382,-0.09660710394382477,0.061290595680475235,0.00665266253054142,-0.0026975853834301233,-5,10,-1001,61,7,-3,-2,-51,-149,71367.0
14:33:00.829,AUTO,-35.3632612,149.1652424,7114,-0.027422253042459488,-0.004148980602622032,-0.09762395173311234,0.0640799030661583,0.010486545041203499,-0.000419843039708212,-5,9,-1002,64,11,0,-3,-58,-149,71367.0
14:33:01.031,AUTO,-35.3632612,149.1652407,7499,-0.011242033913731575,-0.0010964187094941735,-0.09801872074604034,0.0652514398097992,0.01280201319605112,0.0009179001208394766,-7,12,-1003,65,13,0,-4,-60,-150,71367.0
14:33:01.233,AUTO,-35.3632612,149.1652407,7499,-0.011242033913731575,-0.0010964187094941735,-0.09801872074604034,0.0652514398097992,0.01280201319605112,0.0009179001208394766,-7,12,-1003,65,13,0,-4,-60,-150,71367.0
14:33:01.435,AUTO,-35.3632614,149.165239,7887,0.005317310802638531,0.0022488583344966173,-0.09781155735254288,0.06706920266151428,0.013951989822089672,0.002042688662186265,-7,13,-1004,67,14,1,-5,-58,-151,71367.0
14:33:01.641,AUTO,-35.3632614,149.165239,7887,0.005317310802638531,0.0022488583344966173,-0.09781155735254288,0.06706920266151428,0.013951989822089672,0.002042688662186265,-7,13,-1004,67,14,1,-5,-58,-151,71367.0
14:33:01.843,AUTO,-35.3632614,149.165239,7887,0.005317310802638531,0.0022488583344966173,-0.09781155735254288,0.06706920266151428,0.013951989822089672,0.002042688662186265,-7,13,-1004,67,14,1,-5,-58,-151,71367.0
14:33:02.045,AUTO,-35.3632619,149.165235,9058,0.05362241715192795,0.009697303175926208,-0.09516754001379013,0.061939600855112076,0.004554193001240492,0.004373597912490368,-3,9,-1002,62,5,4,-10,-29,-153,71367.0
14:33:02.246,AUTO,-35.3632619,149.165235,9058,0.05362241715192795,0.009697303175926208,-0.09516754001379013,0.061939600855112076,0.004554193001240492,0.004373597912490368,-3,9,-1002,62,5,4,-10,-29,-153,71367.0
14:33:02.448,AUTO,-35.3632622,149.1652344,9453,0.06816145777702332,0.009749418124556541,-0.09346318244934082,0.046820975840091705,-0.007560783065855503,0.01923157274723053,-1,6,-999,47,-6,18,-11,-13,-153,71367.0
14:33:02.650,AUTO,-35.3632624,149.1652341,9845,0.06649478524923325,-0.003624164965003729,-0.0819883868098259,-0.052738577127456665,-0.06809398531913757,0.05459462106227875,0,3,-992,-52,-67,54,-10,3,-151,71367.0
14:33:02.852,AUTO,-35.3632626,149.1652343,10230,0.044144246727228165,-0.013786000199615955,-0.07413171976804733,-0.10740097612142563,-0.012457381002604961,0.015648456290364265,2,0,-993,-106,-11,15,-6,16,-149,71367.0
14:33:03.054,AUTO,-35.3632627,149.1652347,10613,0.019019732251763344,-0.013041678816080093,-0.07391150295734406,-0.0876709595322609,0.011937474831938744,-0.010636113584041595,3,-2,-1000,-86,12,-11,-1,21,-148,71367.0
14:33:03.256,AUTO,-35.3632627,149.1652347,10613,0.019019732251763344,-0.013041678816080093,-0.07391150295734406,-0.0876709595322609,0.011937474831938744,-0.010636113584041595,3,-2,-1000,-86,12,-11,-1,21,-148,71367.0
14:33:03.458,AUTO,-35.3632627,149.1652353,11000,0.0005179941654205322,-0.009388379752635956,-0.07898575812578201,-0.05915916711091995,0.013712538406252861,-0.02645125985145569,2,-4,-1002,-58,14,-26,2,22,-149,71367.0
14:33:03.660,AUTO,-35.3632627,149.1652353,11000,0.0005179941654205322,-0.009388379752635956,-0.07898575812578201,-0.05915916711091995,0.013712538406252861,-0.02645125985145569,2,-4,-1002,-58,14,-26,2,22,-149,276115.0
14:33:03.861,AUTO,-35.3632627,149.1652353,11000,0.0005179941654205322,-0.009388379752635956,-0.07898575812578201,-0.05915916711091995,0.013712538406252861,-0.02645125985145569,2,-4,-1002,-58,14,-26,2,22,-149,276115.0
14:33:04.064,AUTO,-35.3632624,149.1652365,12154,-0.018021872267127037,-0.001626992248930037,-0.10491342097520828,0.001687067560851574,0.009596114978194237,-0.03603237867355347,0,-2,-1002,2,10,-36,7,7,-151,276115.0
14:33:04.266,AUTO,-35.3632624,149.1652365,12154,-0.018021872267127037,-0.001626992248930037,-0.10491342097520828,0.001687067560851574,0.009596114978194237,-0.03603237867355347,0,-2,-1002,2,10,-36,7,7,-151,276115.0
14:33:04.467,AUTO,-35.3632622,149.1652366,12543,-0.01625318080186844,0.00024760785163380206,-0.11391660571098328,0.011159536428749561,0.007955911569297314,-0.03110853210091591,-1,-2,-1001,11,8,-31,7,2,-152,276115.0
14:33:04.668,AUTO,-35.363262,149.1652366,12933,-0.012373572215437889,0.00208442029543221,-0.12225374579429626,0.01887272484600544,0.00807629432529211,-0.02820400707423687,-1,0,-1001,19,8,-28,6,-2,-152,276115.0
14:33:04.870,AUTO,-35.3632619,149.1652365,13323,-0.006983330473303795,0.00377364712767303,-0.12955915927886963,0.02432795614004135,0.006783987861126661,-0.025601882487535477,-2,0,-1001,24,7,-26,5,-5,-152,276115.0
14:33:05.072,AUTO,-35.3632617,149.1652363,13712,-0.0018907178891822696,0.00533406063914299,-0.13592740893363953,0.019356418401002884,0.006015718914568424,-0.022991688922047615,-2,0,-1000,20,6,-23,4,-6,-152,276115.0
14:33:05.274,AUTO,-35.3632616,149.1652361,14103,0.0026225592009723186,0.006900699809193611,-0.14160607755184174,0.017737826332449913,0.007496064994484186,-0.01978028379380703,-2,0,-1000,18,8,-20,3,-7,-152,276115.0
14:33:05.476,AUTO,-35.3632616,149.1652361,14103,0.0026225592009723186,0.006900699809193611,-0.14160607755184174,0.017737826332449913,0.007496064994484186,-0.01978028379380703,-2,0,-1000,18,8,-20,3,-7,-152,276115.0
14:33:05.678,AUTO,-35.3632616,149.1652361,14103,0.0026225592009723186,0.006900699809193611,-0.14160607755184174,0.017737826332449913,0.007496064994484186,-0.01978028379380703,-2,0,-1000,18,8,-20,3,-7,-152,276115.0
14:33:05.879,AUTO,-35.3632616,149.1652361,14103,0.0026225592009723186,0.006900699809193611,-0.14160607755184174,0.017737826332449913,0.007496064994484186,-0.01978028379380703,-2,0,-1000,18,8,-20,3,-7,-152,276115.0
14:33:06.081,AUTO,-35.3632615,149.1652355,15274,0.009636440314352512,0.00766657292842865,-0.1524558961391449,0.0037045825738459826,-0.0007640108815394342,-0.010239041410386562,-1,0,-1000,4,0,-10,-1,-2,-152,276115.0
14:33:06.283,AUTO,-35.3632615,149.1652354,15664,0.0099887540563941,0.007273446768522263,-0.15513400733470917,0.001993681536987424,-0.00028718990506604314,-0.01110572274774313,0,0,-999,2,0,-11,-2,0,-152,276115.0
14:33:06.484,AUTO,-35.3632615,149.1652354,15664,0.0099887540563941,0.007273446768522263,-0.15513400733470917,0.001993681536987424,-0.00028718990506604314,-0.01110572274774313,0,0,-999,2,0,-11,-2,0,-152,276115.0
14:33:06.686,AUTO,-35.3632615,149.1652354,16055,0.009684097953140736,0.006766172591596842,-0.15764133632183075,-0.001126613700762391,-0.002225663047283888,-0.008220309391617775,0,0,-1000,0,-1,-8,-3,1,-152,34145.0
14:33:06.887,AUTO,-35.3632615,149.1652354,16444,0.009039033204317093,0.005862389225512743,-0.16006062924861908,-0.005849712062627077,-0.0026933294720947742,-0.009555441327393055,0,0,-999,-5,-1,-10,-3,3,-152,34145.0
14:33:07.089,AUTO,-35.3632615,149.1652354,16833,0.007884388789534569,0.005425823386758566,-0.1630980223417282,-0.002596896607428789,-0.0009274832555092871,-0.012954769656062126,0,0,-1000,-1,0,-13,-3,4,-152,34145.0
14:33:07.291,AUTO,-35.3632615,149.1652354,17222,0.006610100157558918,0.0050073242746293545,-0.16646088659763336,-0.004298402462154627,-0.0011645775521174073,-0.014208192937076092,0,0,-1000,-3,0,-14,-4,5,-152,34145.0
14:33:07.492,AUTO,-35.3632615,149.1652354,17222,0.006610100157558918,0.0050073242746293545,-0.16646088659763336,-0.004298402462154627,-0.0011645775521174073,-0.014208192937076092,0,0,-1000,-3,0,-14,-4,5,-152,34145.0
14:33:07.694,AUTO,-35.3632615,149.1652354,17222,0.006610100157558918,0.0050073242746293545,-0.16646088659763336,-0.004298402462154627,-0.0011645775521174073,-0.014208192937076092,0,0,-1000,-3,0,-14,-4,5,-152,34145.0
14:33:07.896,AUTO,-35.3632615,149.1652354,17222,0.006610100157558918,0.0050073242746293545,-0.16646088659763336,-0.004298402462154627,-0.0011645775521174073,-0.014208192937076092,0,0,-1000,-3,0,-14,-4,5,-152,34145.0
14:33:08.097,AUTO,-35.3632616,149.1652357,18390,0.0032708097714930773,0.0037526513915508986,-0.17859108746051788,-0.002871443284675479,0.0002737363101914525,-0.018161335960030556,0,0,-1000,-2,1,-18,-3,6,-152,34145.0
14:33:08.299,AUTO,-35.3632617,149.1652358,18780,0.0022586153354495764,0.003628607839345932,-0.18336980044841766,-0.003804839216172695,8.611357770860195e-05,-0.019416067749261856,0,0,-1000,-2,0,-19,-3,6,-152,34145.0
14:33:08.500,AUTO,-35.3632617,149.1652358,18780,0.0022586153354495764,0.003628607839345932,-0.18336980044841766,-0.003804839216172695,8.611357770860195e-05,-0.019416067749261856,0,0,-1000,-2,0,-19,-3,6,-152,34145.0
14:33:08.702,AUTO,-35.3632617,149.1652359,19170,0.0017660429002717137,0.003368378384038806,-0.1882084757089615,0.001072689425200224,0.00035737280268222094,-0.020457614213228226,0,0,-1000,1,1,-20,-3,6,-153,34145.0
14:33:08.903,AUTO,-35.3632617,149.165236,19559,0.0015591231640428305,0.0031259022653102875,-0.19309674203395844,-0.0007714144885540009,-7.855473086237907e-06,-0.019819045439362526,0,0,-1000,0,0,-20,-3,5,-153,34145.0
14:33:09.105,AUTO,-35.3632617,149.1652361,19952,-0.005148124881088734,0.003183493623510003,-0.19841627776622772,-0.061506908386945724,0.0014464552514255047,-0.02139783836901188,0,0,-995,-60,2,-21,-3,4,-152,34145.0
14:33:09.307,AUTO,-35.3632617,149.1652361,20338,-0.027689939364790916,0.0030513431411236525,-0.20393919944763184,-0.1064339354634285,0.0004153166082687676,-0.023151328787207603,0,0,-995,-105,1,-23,-4,0,-151,34145.0
14:33:09.508,AUTO,-35.3632617,149.1652361,20338,-0.027689939364790916,0.0030513431411236525,-0.20393919944763184,-0.1064339354634285,0.0004153166082687676,-0.023151328787207603,0,0,-995,-105,1,-23,-4,0,-151,34145.0
14:33:09.710,AUTO,-35.3632617,149.1652361,20338,-0.027689939364790916,0.0030513431411236525,-0.20393919944763184,-0.1064339354634285,0.0004153166082687676,-0.023151328787207603,0,0,-995,-105,1,-23,-4,0,-151,289289.0
14:33:09.911,AUTO,-35.3632617,149.1652361,20338,-0.027689939364790916,0.0030513431411236525,-0.20393919944763184,-0.1064339354634285,0.0004153166082687676,-0.023151328787207603,0,0,-995,-105,1,-23,-4,0,-151,289289.0
14:33:10.114,AUTO,-35.3632624,149.1652348,21445,-0.04427294805645943,0.054987598210573196,0.0039741178043186665,0.05507739260792732,-0.07329143583774567,0.40173786878585815,1,7,-956,56,-72,401,-26,-30,-135,289289.0
14:33:10.316,AUTO,-35.363263,149.1652339,21775,-0.014242011122405529,0.01801995001733303,0.07366261631250381,0.130306676030159,-0.18604645133018494,0.16412563621997833,1,10,-954,131,-185,163,-34,-35,-123,289289.0
14:33:10.518,AUTO,-35.363263,149.1652339,21775,-0.014242011122405529,0.01801995001733303,0.07366261631250381,0.130306676030159,-0.18604645133018494,0.16412563621997833,1,10,-954,131,-185,163,-34,-35,-123,289289.0
14:33:10.720,AUTO,-35.3632638,149.1652329,22082,0.01843421906232834,-0.02156505361199379,0.09276950359344482,0.11531872302293777,-0.11692705005407333,0.009751077741384506,3,11,-957,116,-116,9,-32,-32,-112,289289.0
14:33:10.922,AUTO,-35.3632644,149.1652321,22356,0.04157751426100731,-0.04021996259689331,0.08636577427387238,0.0689525380730629,-0.04549790173768997,-0.044042330235242844,2,8,-960,69,-44,-44,-24,-22,-102,289289.0
14:33:11.124,AUTO,-35.3632648,149.1652316,22604,0.054076455533504486,-0.04466462507843971,0.07442572712898254,0.02768883667886257,-0.0019972180016338825,-0.04705938324332237,1,5,-964,28,-1,-47,-14,-9,-92,289289.0
14:33:11.326,AUTO,-35.363265,149.1652314,22827,0.0567571222782135,-0.04146653413772583,0.06542333960533142,-0.000614600838162005,0.019863463938236237,-0.02879270724952221,1,1,-967,0,20,-29,-4,4,-83,289289.0
14:33:11.527,AUTO,-35.363265,149.1652314,22827,0.0567571222782135,-0.04146653413772583,0.06542333960533142,-0.000614600838162005,0.019863463938236237,-0.02879270724952221,1,1,-967,0,20,-29,-4,4,-83,289289.0
14:33:11.729,AUTO,-35.363265,149.1652314,22827,0.0567571222782135,-0.04146653413772583,0.06542333960533142,-0.000614600838162005,0.019863463938236237,-0.02879270724952221,1,1,-967,0,20,-29,-4,4,-83,289289.0
14:33:11.939,AUTO,-35.363265,149.1652314,22827,0.0567571222782135,-0.04146653413772583,0.06542333960533142,-0.000614600838162005,0.019863463938236237,-0.02879270724952221,1,1,-967,0,20,-29,-4,4,-83,289289.0
14:33:12.143,AUTO,-35.3632645,149.1652329,23371,0.03203139826655388,-0.015336786396801472,0.05839880183339119,-0.03988226503133774,0.03845033794641495,0.0014388165436685085,0,-7,-977,-38,39,1,16,33,-62,289289.0
14:33:12.345,AUTO,-35.3632641,149.1652338,23521,0.02195602096617222,-0.00632508983835578,0.05796695500612259,-0.03864564374089241,0.03424939885735512,0.0006977390730753541,0,-9,-976,-37,34,0,19,37,-56,289289.0
14:33:12.546,AUTO,-35.3632636,149.1652347,23655,0.012702440842986107,0.0013430888066068292,0.057360973209142685,-0.03747960925102234,0.029187636449933052,0.0013261050917208195,0,-10,-977,-36,30,1,20,38,-50,289289.0
14:33:12.748,AUTO,-35.3632636,149.1652347,23655,0.012702440842986107,0.0013430888066068292,0.057360973209142685,-0.03747960925102234,0.029187636449933052,0.0013261050917208195,0,-10,-977,-36,30,1,20,38,-50,217404.0
14:33:12.951,AUTO,-35.3632631,149.1652357,23774,0.004578474443405867,0.00742134265601635,0.05671164393424988,-0.024443767964839935,0.021092943847179413,0.000782834249548614,-1,-9,-977,-23,21,0,19,36,-45,217404.0
14:33:13.153,AUTO,-35.3632627,149.1652366,23880,-0.00216722977347672,0.01130139920860529,0.05587783828377724,-0.024691399186849594,0.011793223209679127,-0.00012123461056035012,0,-9,-977,-24,12,0,17,34,-39,217404.0
14:33:13.355,AUTO,-35.3632623,149.1652375,23970,-0.006645191460847855,0.014217457734048367,0.05475849285721779,-0.019205326214432716,0.008644107729196548,-0.0017360065830871463,0,-8,-976,-18,9,-1,15,30,-33,217404.0
14:33:13.558,AUTO,-35.3632623,149.1652375,23970,-0.006645191460847855,0.014217457734048367,0.05475849285721779,-0.019205326214432716,0.008644107729196548,-0.0017360065830871463,0,-8,-976,-18,9,-1,15,30,-33,217404.0
14:33:13.759,AUTO,-35.3632623,149.1652375,23970,-0.006645191460847855,0.014217457734048367,0.05475849285721779,-0.019205326214432716,0.008644107729196548,-0.0017360065830871463,0,-8,-976,-18,9,-1,15,30,-33,217404.0
14:33:13.961,AUTO,-35.3632623,149.1652375,23970,-0.006645191460847855,0.014217457734048367,0.05475849285721779,-0.019205326214432716,0.008644107729196548,-0.0017360065830871463,0,-8,-976,-18,9,-1,15,30,-33,217404.0
14:33:14.163,AUTO,-35.3632614,149.1652393,24145,-0.012138030491769314,0.014611491933465004,0.051831334829330444,-0.014204472303390503,-0.004398271907120943,-0.002586617600172758,0,-5,-971,-13,-3,-2,6,16,-14,217404.0
14:33:14.364,AUTO,-35.3632612,149.1652397,24168,-0.011632554233074188,0.013233699835836887,0.050888076424598694,0.007402445189654827,-0.004922760184854269,-0.005635394249111414,0,-2,-966,8,-4,-5,4,12,-6,217404.0
14:33:14.566,AUTO,-35.3632611,149.1652399,24166,-0.040362514555454254,0.026701003313064575,0.04920566454529762,-0.11779499053955078,0.0839732363820076,-0.004245564341545105,0,5,-923,-116,85,-4,0,6,7,217404.0
14:33:14.768,AUTO,-35.3632611,149.1652399,24166,-0.040362514555454254,0.026701003313064575,0.04920566454529762,-0.11779499053955078,0.0839732363820076,-0.004245564341545105,0,5,-923,-116,85,-4,0,6,7,217404.0
14:33:14.970,AUTO,-35.3632611,149.1652399,24127,-0.03808683529496193,0.028795503079891205,0.04817937687039375,0.4094512164592743,-0.02190822921693325,-0.004982019774615765,0,8,-983,410,-20,-5,-4,-5,16,217404.0
14:33:15.172,AUTO,-35.3632612,149.1652397,24073,-0.03519512712955475,0.025352617725729942,0.04750458151102066,-0.37775570154190063,-0.003418566193431616,-0.010428928770124912,0,-27,-1000,-378,-2,-10,-10,-15,21,217404.0
14:33:15.374,AUTO,-35.3632614,149.1652392,24017,-0.03883764520287514,0.025757305324077606,0.04676086828112602,-0.7854151129722595,0.0036669967230409384,-0.007871383801102638,0,-28,-1015,-785,4,-8,-15,-22,18,217404.0
14:33:15.575,AUTO,-35.3632614,149.1652392,24017,-0.03883764520287514,0.025757305324077606,0.04676086828112602,-0.7854151129722595,0.0036669967230409384,-0.007871383801102638,0,-28,-1015,-785,4,-8,-15,-22,18,217404.0
14:33:15.777,AUTO,-35.3632614,149.1652392,24017,-0.03883764520287514,0.025757305324077606,0.04676086828112602,-0.7854151129722595,0.0036669967230409384,-0.007871383801102638,0,-28,-1015,-785,4,-8,-15,-22,18,264619.0
14:33:15.979,AUTO,-35.3632614,149.1652392,24017,-0.03883764520287514,0.025757305324077606,0.04676086828112602,-0.7854151129722595,0.0036669967230409384,-0.007871383801102638,0,-28,-1015,-785,4,-8,-15,-22,18,264619.0
14:33:16.180,AUTO,-35.363263,149.1652366,23916,-0.03483704850077629,0.03043261356651783,0.043390627950429916,0.4924335777759552,0.01060164999216795,-0.0020068041048943996,1,51,-1017,494,11,-2,-33,-39,4,264619.0
14:33:16.382,AUTO,-35.3632638,149.1652354,23901,-0.030533798038959503,0.03402889519929886,0.042530860751867294,0.5478895306587219,0.01768486201763153,-0.00384701881557703,3,40,-1020,548,18,-4,-40,-45,1,264619.0
14:33:16.584,AUTO,-35.3632648,149.1652341,23894,-0.04854261875152588,0.03686678782105446,0.013412333093583584,-0.3291856050491333,0.028911596164107323,-0.30598658323287964,3,-9,-1005,-329,30,-306,-48,-53,0,264619.0
14:33:16.785,AUTO,-35.363266,149.1652325,23892,-0.06801702827215195,0.031553640961647034,-0.14391209185123444,-0.5356236696243286,0.03446953371167183,-0.906229555606842,-1,3,-1004,-534,35,-906,-57,-62,-2,264619.0
14:33:16.987,AUTO,-35.363266,149.1652325,23892,-0.06801702827215195,0.031553640961647034,-0.14391209185123444,-0.5356236696243286,0.03446953371167183,-0.906229555606842,-1,3,-1004,-534,35,-906,-57,-62,-2,264619.0
14:33:17.189,AUTO,-35.3632674,149.1652307,23891,-0.08238988369703293,0.009824295528233051,-0.4593260586261749,-0.011016319505870342,-0.010992614552378654,-1.5139659643173218,-2,47,-997,-9,-10,-1513,-65,-70,-1,264619.0
14:33:17.391,AUTO,-35.363269,149.1652287,23889,-0.08057092875242233,-0.027333498001098633,-0.8728803396224976,0.5010499358177185,-0.06016038358211517,-1.7194955348968506,-12,39,-999,501,-59,-1719,-76,-82,-1,264619.0
14:33:17.593,AUTO,-35.363269,149.1652287,23889,-0.08057092875242233,-0.027333498001098633,-0.8728803396224976,0.5010499358177185,-0.06016038358211517,-1.7194955348968506,-12,39,-999,501,-59,-1719,-76,-82,-1,264619.0
14:33:17.795,AUTO,-35.363269,149.1652287,23889,-0.08057092875242233,-0.027333498001098633,-0.8728803396224976,0.5010499358177185,-0.06016038358211517,-1.7194955348968506,-12,39,-999,501,-59,-1719,-76,-82,-1,264619.0
14:33:17.997,AUTO,-35.363269,149.1652287,23889,-0.08057092875242233,-0.027333498001098633,-0.8728803396224976,0.5010499358177185,-0.06016038358211517,-1.7194955348968506,-12,39,-999,501,-59,-1719,-76,-82,-1,264619.0
14:33:18.198,AUTO,-35.3632755,149.1652208,23873,-0.01297887321561575,-0.1321575790643692,-2.059002637863159,-0.19461499154567719,-0.04548422992229462,-1.3066847324371338,-41,-9,-1010,-193,-44,-1306,-116,-126,1,264619.0
14:33:18.400,AUTO,-35.3632782,149.1652173,23863,0.032269008457660675,-0.14693298935890198,-2.3005340099334717,0.49512046575546265,-0.06507807224988937,-0.6834024786949158,-38,4,-997,496,-64,-683,-132,-144,2,264619.0
14:33:18.602,AUTO,-35.3632814,149.1652133,23851,0.050330616533756256,-0.1622946858406067,-2.383483648300171,0.15676210820674896,-0.07545953243970871,-0.06988677382469177,-39,-34,-1001,156,-74,-69,-150,-163,3,264619.0
14:33:18.804,AUTO,-35.3632849,149.1652088,23835,0.04787231609225273,-0.1790224313735962,-2.366334915161133,-0.3406360149383545,-0.04836639389395714,0.17111608386039734,-44,-48,-998,-339,-47,171,-170,-185,4,127271.0
14:33:19.005,AUTO,-35.3632849,149.1652088,23835,0.04787231609225273,-0.1790224313735962,-2.366334915161133,-0.3406360149383545,-0.04836639389395714,0.17111608386039734,-44,-48,-998,-339,-47,171,-170,-185,4,127271.0
14:33:19.207,AUTO,-35.3632889,149.1652036,23817,0.04954179376363754,-0.18518969416618347,-2.322786569595337,0.06970466673374176,0.007743427995592356,0.15861725807189941,-53,-25,-1004,71,8,158,-189,-209,6,127271.0
14:33:19.409,AUTO,-35.3632933,149.1651978,23799,0.05224135145545006,-0.18513332307338715,-2.2878527641296387,0.31251955032348633,-0.00496256398037076,0.11165749281644821,-60,-31,-1009,313,-3,111,-207,-232,5,127271.0
14:33:19.611,AUTO,-35.3632933,149.1651978,23799,0.05224135145545006,-0.18513332307338715,-2.2878527641296387,0.31251955032348633,-0.00496256398037076,0.11165749281644821,-60,-31,-1009,313,-3,111,-207,-232,5,127271.0
14:33:19.813,AUTO,-35.3632933,149.1651978,23799,0.05224135145545006,-0.18513332307338715,-2.2878527641296387,0.31251955032348633,-0.00496256398037076,0.11165749281644821,-60,-31,-1009,313,-3,111,-207,-232,5,127271.0
14:33:20.015,AUTO,-35.3632933,149.1651978,23799,0.05224135145545006,-0.18513332307338715,-2.2878527641296387,0.31251955032348633,-0.00496256398037076,0.11165749281644821,-60,-31,-1009,313,-3,111,-207,-232,5,127271.0
14:33:20.217,AUTO,-35.3633085,149.1651763,23746,0.04186047241091728,-0.1956513524055481,-2.2670974731445312,0.19571653008460999,0.009591023437678814,-0.0196283720433712,-85,-34,-1007,196,10,-19,-259,-296,6,127271.0
14:33:20.418,AUTO,-35.3633143,149.165168,23727,0.042769331485033035,-0.19791148602962494,-2.2700977325439453,0.05135662481188774,-0.008659565821290016,-0.013215549290180206,-76,-61,-997,51,-7,-13,-279,-315,6,127271.0
14:33:20.620,AUTO,-35.3633206,149.1651591,23705,0.044737573713064194,-0.2039584070444107,-2.2734105587005615,-0.1377849131822586,-0.04388364404439926,-0.009478562511503696,-98,-44,-996,-136,-42,-9,-296,-333,7,127271.0
14:33:20.822,AUTO,-35.3633273,149.1651497,23681,0.044539228081703186,-0.2138587385416031,-2.275617837905884,0.02529126964509487,-0.038216732442379,-0.006401177495718002,-97,-48,-994,26,-37,-6,-314,-353,8,127271.0
14:33:21.024,AUTO,-35.3633273,149.1651497,23681,0.044539228081703186,-0.2138587385416031,-2.275617837905884,0.02529126964509487,-0.038216732442379,-0.006401177495718002,-97,-48,-994,26,-37,-6,-314,-353,8,127271.0
14:33:21.226,AUTO,-35.3633345,149.1651397,23652,0.047182079404592514,-0.21861857175827026,-2.276960849761963,0.07020073384046555,0.006773802451789379,-0.007115199696272612,-94,-65,-999,70,7,-7,-334,-372,10,127271.0
14:33:21.428,AUTO,-35.3633422,149.1651291,23623,0.053697697818279266,-0.20985686779022217,-2.2786495685577393,0.01348082348704338,0.052567459642887115,-0.013987184502184391,-94,-64,-1003,14,53,-14,-354,-392,8,127271.0
14:33:21.630,AUTO,-35.3633422,149.1651291,23623,0.053697697818279266,-0.20985686779022217,-2.2786495685577393,0.01348082348704338,0.052567459642887115,-0.013987184502184391,-94,-64,-1003,14,53,-14,-354,-392,8,127271.0
14:33:21.831,AUTO,-35.3633422,149.1651291,23623,0.053697697818279266,-0.20985686779022217,-2.2786495685577393,0.01348082348704338,0.052567459642887115,-0.013987184502184391,-94,-64,-1003,14,53,-14,-354,-392,8,92128.0
14:33:22.033,AUTO,-35.3633422,149.1651291,23623,0.053697697818279266,-0.20985686779022217,-2.2786495685577393,0.01348082348704338,0.052567459642887115,-0.013987184502184391,-94,-64,-1003,14,53,-14,-354,-392,8,92128.0
14:33:22.235,AUTO,-35.3633674,149.1650946,23567,0.06493408977985382,-0.18814556300640106,-2.2794058322906494,-0.0012651330325752497,0.03187919780611992,0.0008624995825812221,-114,-72,-996,0,33,0,-395,-437,3,92128.0
14:33:22.437,AUTO,-35.3633764,149.1650824,23553,0.06877834349870682,-0.18233929574489594,-2.2800018787384033,0.0043353792279958725,0.01692928373813629,-0.006425406783819199,-133,-45,-996,5,18,-6,-403,-448,3,92128.0
14:33:22.638,AUTO,-35.3633856,149.1650698,23541,0.06928098201751709,-0.18112699687480927,-2.280247688293457,-0.04028261452913284,-0.012796587310731411,0.01438909862190485,-124,-73,-989,-39,-11,14,-413,-458,3,92128.0
14:33:22.840,AUTO,-35.3633949,149.1650572,23526,0.07434500008821487,-0.1841774731874466,-2.281571388244629,0.04175519198179245,0.001432834891602397,-0.007350632920861244,-125,-63,-982,42,2,-7,-421,-468,5,92128.0
14:33:23.042,AUTO,-35.3634044,149.1650442,23506,0.07800323516130447,-0.17943395674228668,-2.282238721847534,0.03312285989522934,0.02682400867342949,-0.0023089786991477013,-117,-70,-991,33,27,-2,-429,-478,6,92128.0
14:33:23.244,AUTO,-35.3634044,149.1650442,23506,0.07800323516130447,-0.17943395674228668,-2.282238721847534,0.03312285989522934,0.02682400867342949,-0.0023089786991477013,-117,-70,-991,33,27,-2,-429,-478,6,92128.0
14:33:23.446,AUTO,-35.3634142,149.1650309,23485,0.07743515074253082,-0.17038442194461823,-2.281951427459717,-0.014573905616998672,0.05711749196052551,-0.00378191820345819,-135,-75,-998,-13,58,-4,-436,-487,5,92128.0
14:33:23.648,AUTO,-35.3634142,149.1650309,23485,0.07743515074253082,-0.17038442194461823,-2.281951427459717,-0.014573905616998672,0.05711749196052551,-0.00378191820345819,-135,-75,-998,-13,58,-4,-436,-487,5,92128.0
14:33:23.850,AUTO,-35.3634142,149.1650309,23485,0.07743515074253082,-0.17038442194461823,-2.281951427459717,-0.014573905616998672,0.05711749196052551,-0.00378191820345819,-135,-75,-998,-13,58,-4,-436,-487,5,92128.0
14:33:24.054,AUTO,-35.3634439,149.1649901,23433,0.07849330455064774,-0.15584692358970642,-2.282294988632202,0.00033220165641978383,0.02313089743256569,0.0012653721496462822,-130,-63,-981,1,24,1,-446,-504,6,92128.0
14:33:24.256,AUTO,-35.3634439,149.1649901,23433,0.07849330455064774,-0.15584692358970642,-2.282294988632202,0.00033220165641978383,0.02313089743256569,0.0012653721496462822,-130,-63,-981,1,24,1,-446,-504,6,92128.0
14:33:24.458,AUTO,-35.363454,149.1649761,23415,0.08153261989355087,-0.14506219327449799,-2.2823140621185303,0.03691490739583969,0.051697514951229095,-0.011147156357765198,-115,-76,-981,37,52,-11,-451,-506,5,92128.0
14:33:24.660,AUTO,-35.3634641,149.1649621,23398,0.08290689438581467,-0.13017255067825317,-2.282835006713867,0.00924023985862732,0.045418575406074524,-0.003267754102125764,-134,-79,-1000,9,46,-3,-451,-508,4,92128.0
14:33:24.862,AUTO,-35.3634742,149.1649481,23386,0.08182208985090256,-0.12671811878681183,-2.282959222793579,-0.013947670347988605,-0.017834864556789398,0.00016597291687503457,-127,-77,-979,-13,-16,0,-450,-506,5,170558.0
14:33:25.066,AUTO,-35.3634843,149.1649342,23370,0.08399248868227005,-0.13043354451656342,-2.2835514545440674,-0.003820477519184351,-0.01985335722565651,-7.056713366182521e-05,-137,-78,-977,-2,-18,0,-449,-504,7,170558.0
14:33:25.268,AUTO,-35.3634843,149.1649342,23370,0.08399248868227005,-0.13043354451656342,-2.2835514545440674,-0.003820477519184351,-0.01985335722565651,-7.056713366182521e-05,-137,-78,-977,-2,-18,0,-449,-504,7,170558.0
14:33:25.469,AUTO,-35.3634943,149.1649203,23345,0.08044750988483429,-0.13653121888637543,-2.2839083671569824,0.013829685747623444,-0.02596510387957096,0.003975262865424156,-133,-77,-977,14,-25,3,-447,-504,11,170558.0
14:33:25.671,AUTO,-35.3634943,149.1649203,23345,0.08044750988483429,-0.13653121888637543,-2.2839083671569824,0.013829685747623444,-0.02596510387957096,0.003975262865424156,-133,-77,-977,14,-25,3,-447,-504,11,170558.0
14:33:25.873,AUTO,-35.3634943,149.1649203,23345,0.08044750988483429,-0.13653121888637543,-2.2839083671569824,0.013829685747623444,-0.02596510387957096,0.003975262865424156,-133,-77,-977,14,-25,3,-447,-504,11,170558.0
14:33:26.075,AUTO,-35.3635244,149.1648785,23238,0.0784391462802887,-0.15060122311115265,-2.285470485687256,-0.008007894270122051,0.01115091796964407,-0.001632592873647809,-129,-77,-988,-7,12,-1,-451,-506,15,170558.0
14:33:26.277,AUTO,-35.3635244,149.1648785,23238,0.0784391462802887,-0.15060122311115265,-2.285470485687256,-0.008007894270122051,0.01115091796964407,-0.001632592873647809,-129,-77,-988,-7,12,-1,-451,-506,15,170558.0
14:33:26.479,AUTO,-35.3635346,149.1648644,23201,0.07808061689138412,-0.14568792283535004,-2.286301374435425,-0.011992464773356915,0.005838679615408182,-0.002802854171022773,-141,-81,-993,-11,6,-2,-452,-507,12,170558.0
14:33:26.680,AUTO,-35.3635448,149.1648502,23167,0.07797151803970337,-0.14430886507034302,-2.285498857498169,-0.03344392403960228,0.021251017227768898,-0.004673343151807785,-135,-75,-989,-32,22,-4,-454,-508,12,170558.0
14:33:26.882,AUTO,-35.363555,149.1648362,23135,0.08103238791227341,-0.14292927086353302,-2.2856249809265137,0.0471174493432045,-0.0037288409657776356,0.0008271066471934319,-137,-68,-989,47,-2,0,-455,-509,10,170558.0
14:33:27.085,AUTO,-35.3635653,149.1648221,23104,0.08068902790546417,-0.14348377287387848,-2.286107063293457,-0.028538325801491737,0.010447862558066845,-0.0009208462433889508,-132,-75,-982,-27,11,0,-456,-510,11,170558.0
14:33:27.287,AUTO,-35.3635756,149.164808,23073,0.08187972009181976,-0.14142200350761414,-2.2870941162109375,-0.0020450525917112827,0.01774354837834835,-0.0038784563075751066,-164,-70,-997,-1,19,-3,-456,-510,10,170558.0
14:33:27.489,AUTO,-35.3635756,149.164808,23073,0.08187972009181976,-0.14142200350761414,-2.2870941162109375,-0.0020450525917112827,0.01774354837834835,-0.0038784563075751066,-164,-70,-997,-1,19,-3,-456,-510,10,170558.0
14:33:27.691,AUTO,-35.3635756,149.164808,23073,0.08187972009181976,-0.14142200350761414,-2.2870941162109375,-0.0020450525917112827,0.01774354837834835,-0.0038784563075751066,-164,-70,-997,-1,19,-3,-456,-510,10,170558.0
14:33:27.893,AUTO,-35.3635756,149.164808,23073,0.08187972009181976,-0.14142200350761414,-2.2870941162109375,-0.0020450525917112827,0.01774354837834835,-0.0038784563075751066,-164,-70,-997,-1,19,-3,-456,-510,10,12549.0
14:33:28.095,AUTO,-35.3635756,149.164808,23073,0.08187972009181976,-0.14142200350761414,-2.2870941162109375,-0.0020450525917112827,0.01774354837834835,-0.0038784563075751066,-164,-70,-997,-1,19,-3,-456,-510,10,12549.0
14:33:28.297,AUTO,-35.3636108,149.1647598,22976,0.08683335036039352,-0.13495784997940063,-2.2872583866119385,0.022724391892552376,0.004424024373292923,-0.0024425541050732136,-151,-65,-993,23,5,-2,-456,-511,9,12549.0
14:33:28.498,AUTO,-35.3636212,149.1647457,22949,0.08714483678340912,-0.13300152122974396,-2.288196325302124,0.009191639721393585,-0.007341835647821426,0.0012137796729803085,-139,-73,-990,10,-6,1,-456,-510,8,12549.0
14:33:28.700,AUTO,-35.3636315,149.1647316,22922,0.0853903666138649,-0.1353100836277008,-2.2888667583465576,0.01877599209547043,0.011287366040050983,-0.008472098037600517,-134,-75,-982,19,12,-8,-454,-510,9,12549.0
14:33:28.902,AUTO,-35.3636418,149.1647175,22893,0.0857403427362442,-0.13313758373260498,-2.2889187335968018,0.0028418586589396,0.0260669756680727,0.002465898171067238,-130,-93,-986,3,27,2,-454,-510,9,12549.0
14:33:29.104,AUTO,-35.3636418,149.1647175,22893,0.0857403427362442,-0.13313758373260498,-2.2889187335968018,0.0028418586589396,0.0260669756680727,0.002465898171067238,-130,-93,-986,3,27,2,-454,-510,9,12549.0
14:33:29.306,AUTO,-35.363652,149.1647036,22867,0.0900227278470993,-0.12484245002269745,-2.289184093475342,0.03953802213072777,0.034732285887002945,-0.00881155114620924,-133,-81,-991,40,36,-8,-452,-507,7,12549.0
14:33:29.508,AUTO,-35.3636623,149.1646896,22844,0.09038754552602768,-0.10870890319347382,-2.2886345386505127,-0.01033809781074524,0.094338059425354,-0.0008466473664157093,-132,-88,-1001,-9,95,0,-449,-505,5,12549.0
14:33:29.709,AUTO,-35.3636623,149.1646896,22844,0.09038754552602768,-0.10870890319347382,-2.2886345386505127,-0.01033809781074524,0.094338059425354,-0.0008466473664157093,-132,-88,-1001,-9,95,0,-449,-505,5,12549.0
14:33:29.911,AUTO,-35.3636623,149.1646896,22844,0.09038754552602768,-0.10870890319347382,-2.2886345386505127,-0.01033809781074524,0.094338059425354,-0.0008466473664157093,-132,-88,-1001,-9,95,0,-449,-505,5,12549.0
14:33:30.113,AUTO,-35.3636623,149.1646896,22844,0.09038754552602768,-0.10870890319347382,-2.2886345386505127,-0.01033809781074524,0.094338059425354,-0.0008466473664157093,-132,-88,-1001,-9,95,0,-449,-505,5,12549.0
14:33:30.315,AUTO,-35.363692,149.1646487,22809,0.08845503628253937,-0.06577876210212708,-2.2878074645996094,0.052436407655477524,0.04416415095329285,0.0010172765469178557,-119,-83,-992,53,45,0,-424,-481,1,12549.0
14:33:30.517,AUTO,-35.3637015,149.1646357,22797,0.08367089927196503,-0.05442745238542557,-2.287334680557251,-0.04292675107717514,0.022244000807404518,0.002388338092714548,-104,-68,-973,-42,23,2,-412,-470,2,12549.0
14:33:30.718,AUTO,-35.3637107,149.164623,22783,0.08128166943788528,-0.04360070452094078,-2.28688645362854,-0.03133978694677353,0.02779458835721016,-0.0031030788086354733,-119,-78,-984,-30,29,-3,-400,-455,3,115732.0
14:33:30.920,AUTO,-35.3637196,149.1646107,22766,0.08594800531864166,-0.03344256430864334,-2.286848306655884,0.18973149359226227,0.04492728039622307,-0.008493654429912567,-116,-64,-993,190,46,-8,-387,-441,5,115732.0
14:33:31.122,AUTO,-35.3637196,149.1646107,22766,0.08594800531864166,-0.03344256430864334,-2.286848306655884,0.18973149359226227,0.04492728039622307,-0.008493654429912567,-116,-64,-993,190,46,-8,-387,-441,5,115732.0
14:33:31.324,AUTO,-35.3637282,149.1645988,22746,0.08302471041679382,-0.024257291108369827,-2.286712646484375,-0.16676229238510132,0.03333007171750069,0.014345485717058182,-112,-83,-986,-166,34,14,-372,-424,6,115732.0
