time_stamp,RTL_ALT,MODE,roll,pitch,yaw,rollspeed,pitchspeed,yawspeed,lat,lon,relative_alt,vx,vy,vz,xacc,yacc,zacc,xgyro,ygyro,zgyro
06:17:46,225774.0,STABILIZE,-0.0007520276703871787,0.0009317557560279965,0.02479902096092701,0.011150716803967953,0.00023518333910033107,0.0018931040540337563,-35.3632621,149.1652375,0.0,-1.0,2.0,1.0,0.0,31.0,-956.0,11.0,0.0,1.0
06:17:48,225774.0,STABILIZE,-0.0010379095328971744,0.0009740515379235148,0.024140870198607445,0.00013748102355748415,0.00031945965019986033,0.0017711264081299305,-35.3632621,149.1652375,0.0,-1.0,1.0,0.0,0.0,1.0,-1000.0,0.0,0.0,0.0
06:17:54,225774.0,AUTO,-0.0008313222206197679,0.0009648508275859058,0.02235746942460537,0.00024606037186458707,0.0003647510311566293,0.0014773081056773663,-35.3632622,149.1652375,8.0,-1.0,0.0,-2.0,0.0,2.0,-1000.0,1.0,0.0,1.0
06:17:55,238791.0,AUTO,-0.000742560121580027,0.0010197496303590015,0.02219108259305358,0.0002691602712729946,0.00018732882745098323,0.0014968763571232557,-35.3632621,149.1652375,9.5,-0.25,0.0,-2.0,0.0,1.25,-1000.0,0.75,0.5,0.25
06:17:56,238791.0,AUTO,-0.00047410551633220166,0.0012290710001252592,0.02190383058041334,0.00031165071413852274,0.00025063916109502316,0.0013885468943044543,-35.3632621,149.1652375,13.5,0.0,0.0,-2.0,0.0,1.0,-1000.0,1.0,0.0,0.0
06:17:58,238791.0,AUTO,0.0010687700241760467,0.0009388295511598699,0.02132811862975359,-0.0016753978270571679,0.0024520361330360174,0.0016519873752258718,-35.3632621,149.1652375,119.5,0.0,0.0,-38.0,0.0,0.5,-1065.0,-1.5,2.5,0.5
06:17:59,47931.0,AUTO,0.010249146725982428,0.0004236460881656967,0.021081638522446156,0.027292978134937584,-0.00263993394037243,0.0012129393944633193,-35.363262075,149.1652375,917.5,0.25,2.0,-129.25,0.0,0.0,-1061.5,27.5,-2.0,0.75
06:18:00,47931.0,AUTO,0.036042433232069016,-0.0031774535309523344,0.021166585385799408,0.04523513466119766,-0.008103686384856701,0.0029769849497824907,-35.363262,149.1652377,1810.0,1.0,12.0,-148.0,0.0,-1.0,-1006.0,45.0,-7.0,2.0
06:18:02,47931.0,AUTO,-0.06265164166688919,0.006088830530643463,-0.08734261617064476,-0.023576481267809868,0.016425271052867174,-0.04762848932296038,-35.36326055,149.16524585000002,5429.5,1.0,-3.5,-149.0,0.0,-2.5,-1000.5,-23.0,17.0,-47.5
06:18:03,200.0,AUTO,-0.035236994503065944,0.011640781536698341,-0.11799090914428234,0.06523582804948092,0.006966396176721901,-0.01208015310112387,-35.363260950000004,149.16524234999997,6956.5,-14.5,-57.75,-148.75,-4.25,12.0,-1001.5,65.5,6.75,-11.75
06:18:04,200.0,AUTO,0.033512350637465715,0.016603165306150913,-0.11995581164956093,0.06720596924424171,-0.0012794295325875282,0.0051100171986036,-35.36326305,149.16523595,8504.5,-29.5,-43.5,-152.0,-2.0,13.0,-1003.0,67.5,-0.5,5.0
06:18:06,200.0,AUTO,0.012268824502825737,-0.047370039857923985,-0.038495670072734356,-0.032010920345783234,0.049049271270632744,-0.03423284739255905,-35.3632643,149.16523605,11597.5,44.0,34.0,-148.0,-5.0,-11.0,-1005.0,-31.5,49.5,-34.0
06:18:07,200.0,AUTO,-0.046212020330131054,0.030380190117284656,-0.1451042704284191,0.005676633445546031,0.046095412224531174,-0.09597617015242577,-35.363259625,149.1652385,13120.75,43.75,-0.25,-151.75,-7.25,-8.5,-1007.5,6.25,46.25,-95.5
06:18:08,200.0,AUTO,-0.010269355494529009,0.04897751659154892,-0.2017354890704155,0.052204862236976624,0.007810987648554146,-0.029999524354934692,-35.3632578,149.16523655,14685.0,-6.5,-24.5,-152.5,-4.5,3.0,-1000.5,52.5,8.0,-29.5
06:18:10,200.0,AUTO,0.030482644215226173,-0.027854042127728462,-0.1588280200958252,-0.04851625859737396,-0.14864999055862427,0.14082276821136475,-35.3632625,149.1652352,17221.0,-42.0,27.0,-150.0,11.0,2.0,-1003.0,-47.0,-147.0,140.0
06:18:11,6011.0,AUTO,-0.02730136401951313,-0.02121627298183739,-0.16374216675758363,-0.009823939390480518,0.058933870494365694,-0.0802395686507225,-35.36326266,149.16523774,19146.2,19.6,3.0,-151.2,-2.2,-3.8,-1002.2,-8.8,59.2,-80.0
06:18:12,6011.0,AUTO,-0.0021067471243441105,0.016410958487540483,-0.23977923393249512,0.03835439682006836,0.022890734486281872,-0.04608156904578209,-35.36326065,149.16523610000002,20905.0,10.5,-19.5,-153.5,-5.5,1.0,-1001.5,39.0,23.0,-45.5
06:18:14,6011.0,AUTO,0.0074701448902487755,0.007261884864419699,-0.27650459110736847,-0.035089485347270966,-0.032911128364503384,0.00726824498269707,-35.363261550000004,149.16523575000002,24023.5,-18.0,23.0,-151.5,5.5,-0.5,-1000.0,-33.5,-31.5,7.0
06:18:15,228417.0,AUTO,-0.021537585416808724,-0.011465889867395163,-0.28126057982444763,0.0109888999722898,-0.00227574777090922,-0.015516991959884763,-35.36326265,149.16523755000003,25571.25,-9.25,7.5,-152.5,2.5,0.0,-1002.75,12.25,-1.0,-15.25
06:18:16,228417.0,AUTO,-0.004092624876648188,-0.007960549555718899,-0.2910290062427521,0.050218816846609116,0.023832008242607117,-0.008341554552316666,-35.363263,149.1652375,26546.0,-4.0,-6.0,-153.0,0.0,1.0,-1000.0,51.0,24.0,-8.0
06:18:18,228417.0,AUTO,0.005339976865798235,0.0024564876221120358,-0.26092231273651123,-0.005875458940863609,0.0007641045958735049,0.02342214621603489,-35.3632629,149.1652372,29658.0,1.0,7.0,-152.0,0.0,-1.0,-1000.0,-4.0,1.0,23.0
06:18:19,247722.0,AUTO,9.794433253773605e-06,0.0022383159957826138,-0.23629217594861984,-0.0013010723778279498,0.00047719139547552913,0.01886665355414152,-35.3632626,149.16523775,31555.0,1.0,4.5,-152.0,0.0,-0.75,-1000.0,-0.25,1.0,18.25
06:18:20,247722.0,AUTO,-0.000539354863576591,0.0023813045118004084,-0.2231549471616745,0.0004344733606558293,-0.0005197947612032294,0.015467904042452574,-35.36326245,149.16523795,32723.5,0.0,2.5,-152.0,0.0,0.0,-1000.5,1.0,0.5,15.0
06:18:22,247722.0,AUTO,0.0014447643188759685,0.0010192771442234516,-0.19456353783607483,0.0006133411079645157,0.00014662137255072594,0.012580642476677895,-35.3632623,149.1652379,35864.0,0.0,0.0,-152.0,0.0,0.0,-1000.0,1.0,1.0,12.0
06:18:23,260431.0,AUTO,0.0010178256779909134,0.0024346482241526246,-0.17852552235126495,-0.01814205845585093,0.01754167297622189,0.04657362145371735,-35.3632622,149.16523772500003,37770.5,0.0,0.0,-151.5,-0.25,0.0,-991.25,-17.0,18.25,46.25
06:18:24,260431.0,AUTO,-0.04948248714208603,0.059217870235443115,-0.01281895861029625,-0.12312216684222221,0.07682272442616522,0.5000888556241989,-35.3632623,149.16523740000002,38891.0,-13.0,-10.0,-133.0,1.0,1.5,-943.0,-121.5,78.0,499.5
06:18:26,260431.0,AUTO,0.04614029824733734,-0.03436439763754606,0.16299742460250854,0.2488522119820118,0.03786259703338146,-0.03453193046152592,-35.363264900000004,149.16523295000002,40391.0,14.0,11.5,-29.5,-1.0,-2.0,-972.5,249.5,38.5,-34.0
06:18:27,141120.0,AUTO,0.005352312466129661,0.015252234879881144,0.131337596103549,0.19265884906053543,0.03633741894736886,-0.012104919296689332,-35.363262500000005,149.165235925,40567.5,19.25,26.75,-1.0,-1.0,2.5,-970.25,194.0,37.0,-11.75
06:18:28,141120.0,AUTO,-0.009373117936775088,0.02973117306828499,0.11711201444268227,-0.6774069666862488,-0.05756702832877636,-0.007083282107487321,-35.363261550000004,149.16523745,40493.5,1.0,14.5,15.5,0.0,-27.0,-1011.0,-676.0,-56.0,-6.0
06:18:30,141120.0,AUTO,0.12148384377360344,-0.030041128396987915,0.3585149049758911,0.44502224028110504,0.014841560274362564,0.8027627766132355,-35.3632627,149.16524364999998,40437.0,-9.0,97.0,-12.5,4.0,-1.5,-1017.5,446.0,15.5,803.0
06:18:31,200.0,AUTO,0.08192927576601505,-0.1575106754899025,1.315243899822235,0.10012358985841274,-0.032685267738997936,0.7126262187957764,-35.363264025,149.1652634,40684.75,-18.25,232.75,-28.0,-31.75,-31.0,-1022.25,101.75,-31.0,712.75
06:18:32,200.0,AUTO,0.011749885859899223,-0.199873186647892,1.807323694229126,0.058200690895318985,0.000488287303596735,0.43940694630146027,-35.3632655,149.16528445,40941.0,-28.0,324.5,-40.5,-67.5,-29.5,-1026.0,60.0,1.5,439.5
06:18:34,200.0,AUTO,0.04954771138727665,0.004576407023705542,1.7843138575553894,0.009232735261321068,-0.013522022403776646,0.00224670534953475,-35.363272800000004,149.16536969999999,42245.5,-36.5,373.5,-73.5,-76.5,-40.5,-964.5,11.0,-12.0,3.0
06:18:35,79083.0,AUTO,0.03249704046174884,0.0209603535477072,1.7769408524036407,-0.03180858865380287,0.021533785155043006,-0.002557641069870442,-35.363277475000004,149.165414625,42939.25,-29.5,275.25,-39.75,-61.0,-34.0,-982.0,-30.0,22.25,-2.0
06:18:36,79083.0,AUTO,0.020713863894343376,0.03775952383875847,1.7721883058547974,-0.43486933410167694,0.025086366571485996,0.0027705971151590347,-35.363279750000004,149.16543585,43207.0,-22.0,217.0,-28.5,-44.0,-41.0,-982.5,-432.5,25.5,3.0
06:18:38,79083.0,AUTO,0.017753225285559893,0.0912693440914154,1.7610631585121155,0.34465938340872526,-0.018727630376815796,0.015688147730543278,-35.36328305,149.16546585,43537.0,-1.5,39.0,-1.5,-9.0,-1.5,-995.0,345.5,-17.5,16.0
06:18:39,200.0,AUTO,-0.013247107854112983,-0.1205840865150094,1.7566237151622772,0.18178894463926554,-0.18274780362844467,-0.0076655002776533365,-35.36328355,149.16546962500001,43532.5,-0.25,48.25,-0.5,-11.5,4.0,-1012.0,183.75,-181.0,-7.0
06:18:40,200.0,AUTO,-0.006949313683435321,-0.17151740193367004,1.7520227432250977,-0.14355797320604324,0.11447636410593987,-0.008872214704751968,-35.3632839,149.16547775,43581.0,-5.0,156.0,-13.0,-32.5,-15.0,-1035.0,-141.5,115.0,-8.0
06:18:42,200.0,AUTO,0.04298342578113079,-0.006314584985375404,1.7401210069656372,0.03957924246788025,0.24302541464567184,-0.010767120285890996,-35.363286900000006,149.16553299999998,44285.0,-27.0,284.5,-54.0,-65.0,-33.0,-1019.0,41.5,244.0,-9.5
06:18:43,228783.0,AUTO,0.030252372846007347,0.12448882684111595,1.7380217611789703,-0.170254934579134,-0.04404570534825325,0.006142209400422871,-35.363289800000004,149.1655634,44869.25,-20.0,122.0,-26.25,-27.0,-27.5,-971.75,-168.25,-42.25,7.0
06:18:44,228783.0,AUTO,0.017310628201812506,0.07145693525671959,1.7338975071907043,0.4428989291191101,-0.022822451312094927,-0.005055496119894087,-35.3632911,149.16557115,45003.5,-14.5,43.5,-6.0,-10.5,2.5,-989.0,444.0,-21.0,-4.5
06:18:46,228783.0,AUTO,-0.020222526043653488,-0.14860669523477554,1.7280802130699158,-0.38028482533991337,-0.15169011056423187,-0.02247109590098262,-35.363292349999995,149.1655751,44997.0,-2.0,55.5,-0.5,-13.0,-15.5,-1020.0,-378.0,-149.5,-21.5
06:18:47,166229.0,AUTO,0.013654504058649763,-0.10970047116279602,1.7208685874938965,-0.03799126856029034,0.05215597152709961,-0.005823842831887305,-35.363293575,149.16559575000002,45160.5,-11.5,209.0,-26.0,-45.0,-27.0,-1023.75,-36.25,53.75,-4.5
06:18:48,166229.0,AUTO,0.023788963444530964,-0.05139688588678837,1.7194914817810059,0.10724926739931107,0.21525541692972183,-0.005795524572022259,-35.3632949,149.165615,45401.0,-16.5,243.0,-39.0,-55.0,-21.5,-1021.0,109.0,217.0,-5.5
06:18:50,166229.0,AUTO,-0.01913510262966156,0.08003200590610504,1.713434100151062,-0.5632869750261307,-0.07191548123955727,-0.0003227879060432315,-35.3632992,149.16564775,46009.0,1.0,15.5,-5.5,-2.5,-21.0,-984.0,-561.0,-69.5,0.5
06:18:51,192657.0,AUTO,-0.024810931645333767,-0.05642228864599019,1.7119742631912231,-0.13052942603826523,-0.16677309200167656,-0.0028341658180579543,-35.3632998,149.16564697500002,46003.5,12.5,-7.75,2.0,0.5,-1.5,-1006.5,-129.0,-164.25,-1.5
06:18:52,192657.0,AUTO,-0.006039684172719717,-0.16957217454910278,1.7107994556427002,0.1429203525185585,-0.1269810013473034,0.005552684189751744,-35.363299549999994,149.16564875,45996.5,9.5,69.0,-2.5,-15.5,-10.0,-1025.5,143.5,-124.5,6.5
06:18:54,192657.0,AUTO,0.028921829536557198,0.03055370249785483,1.7053453922271729,-0.34965068101882935,0.21691340953111649,-0.005232165945926681,-35.3633005,149.1656872,46414.0,-14.5,199.0,-35.5,-42.0,-38.0,-1004.0,-348.0,219.0,-4.0
06:18:55,113848.0,AUTO,0.009614243521355093,0.11544954031705856,1.7038790583610535,-0.17978544905781746,-0.0678584836423397,-0.005224405264016241,-35.3633023,149.165705,46749.75,-10.75,41.25,-12.0,-8.75,-10.5,-983.25,-178.25,-65.25,-4.0
06:18:56,113848.0,AUTO,0.0012904165778309107,0.05181843228638172,1.701991319656372,0.24440666660666466,-0.032581234350800514,-0.0006508270744234324,-35.363303,149.16570645000002,46798.5,-5.0,-17.5,0.5,4.0,-3.5,-992.0,245.0,-29.5,0.5
06:18:58,113848.0,AUTO,-0.0010165246203541756,-0.1406978778541088,1.6985564827919006,0.0747966468334198,0.10818015411496162,-0.0008042426488827914,-35.363303650000006,149.1657101,46799.5,-5.0,111.5,-7.5,-24.5,0.5,-1025.0,76.5,109.5,0.5
06:18:59,105085.0,AUTO,0.02271384187042713,-0.002299911342561245,1.696109563112259,-0.08135060966014862,0.1503212358802557,-0.004885715316049755,-35.363304575,149.165731325,47039.25,-12.5,160.5,-25.0,-34.75,-25.25,-1007.5,-79.75,152.25,-3.75
06:19:00,105085.0,AUTO,0.018461547791957855,0.10428712889552116,1.6964543461799622,0.27335208654403687,0.08092701062560081,-0.003156259481329471,-35.36330565,149.1657435,47234.0,-12.0,102.5,-21.0,-21.5,4.5,-993.0,275.5,83.0,-2.0
06:19:02,105085.0,AUTO,-0.03050315845757723,-0.030249102506786585,1.6934374570846558,-0.5538215637207031,-0.1513095125555992,0.0016263010911643505,-35.363307750000004,149.16574735,47352.0,4.5,-22.5,3.0,4.5,-19.0,-1008.0,-552.0,-148.5,2.5
06:19:03,235770.0,AUTO,-0.005582801532000303,-0.10556680709123611,1.692137897014618,0.07366286311298609,0.04492594674229622,-0.0014391134027391672,-35.363308,149.1657512,47366.25,4.75,82.75,-6.5,-17.25,-9.0,-1016.5,74.25,47.25,-0.25
06:19:04,235770.0,AUTO,0.01420777989551425,-0.05118236690759659,1.6903252005577087,-0.19231082499027252,0.04658336192369461,0.002210258739069104,-35.3633081,149.16576005000002,47449.5,1.0,124.5,-15.5,-28.5,-28.5,-1014.0,-192.0,48.5,2.5
06:19:06,235770.0,AUTO,0.01989795407280326,0.07561083137989044,1.6898496747016907,0.10328240692615509,-0.03553782682865858,0.008172521833330393,-35.36330875,149.16578355000001,47800.5,-8.0,34.5,-8.5,-7.5,-11.5,-990.0,104.0,-33.0,9.5
06:19:07,200.0,AUTO,0.003574005502741784,-0.031550523824989796,1.6896682977676392,0.0788494641892612,-0.08622123952955008,-0.0021258071064949036,-35.363309050000005,149.16578520000002,47848.5,-9.25,5.25,-1.0,-0.5,-3.0,-995.5,79.75,-83.0,-0.75
06:19:08,200.0,AUTO,-0.002313495730049908,-0.07326608523726463,1.6879024505615234,0.11638875305652618,-0.027459911070764065,-0.00870320899412036,-35.36330925,149.165787,47863.5,-12.5,41.0,-4.0,-8.0,13.0,-1007.5,118.5,-24.5,-7.0
06:19:10,200.0,AUTO,0.008767772000283003,0.0095338961109519,1.6856729388237,-0.381942979991436,0.01976795867085457,0.0018210441339761019,-35.3633102,149.16580315,48044.5,-15.0,65.5,-10.5,-14.5,-16.0,-993.5,-379.5,22.0,2.5
06:19:11,72114.0,AUTO,0.003747679220396094,0.02734170202165842,1.6855381429195404,-0.03016817755997181,0.005468032322824001,0.0006738956872140989,-35.363311175,149.16581035,48156.5,-13.25,29.25,-6.75,-5.25,-6.75,-993.75,-28.75,7.75,1.25
06:19:12,72114.0,AUTO,-0.0054677415755577385,0.022362137213349342,1.6851791739463806,-0.32056053075939417,-0.0028025005012750626,-0.0010627384763211012,-35.3633118,149.1658122,48195.0,-9.0,7.0,-2.5,-1.0,-28.0,-997.0,-319.5,0.5,0.0
06:19:14,72114.0,RTL,-0.010233151726424694,-0.015313304495066404,1.6841818690299988,0.3920132517814636,-0.002284485846757889,0.0011781157227233052,-35.363312449999995,149.1658117,48178.0,0.0,-1.5,0.5,0.5,28.0,-998.5,394.0,0.5,2.5
06:19:15,300000.0,RTL,-0.013365473598241806,0.003000257187522948,1.6835289597511292,-0.01139480248093605,0.0009341766126453876,-0.0005916490335948765,-35.363313000000005,149.16581215,48197.25,4.0,2.5,-10.0,0.0,0.75,-1027.0,-10.0,3.75,1.0
06:19:16,300000.0,RTL,-0.016006575897336006,0.003670141682960093,1.6833215951919556,-0.22952022403478622,0.0006074770353734493,0.0010450019617564976,-35.36331335,149.1658124,48349.5,7.0,0.5,-38.5,0.0,-13.5,-1051.5,-228.0,3.5,2.0
06:19:18,300000.0,RTL,-0.015528608579188585,-0.00023335478545050137,1.683086633682251,0.019216855289414525,-0.001886307611130178,0.0007451915298588574,-35.363314,149.1658124,49929.5,14.5,-2.0,-98.5,0.0,1.0,-1003.0,20.0,1.0,1.5
06:19:19,207727.0,RTL,-0.010358675033785403,-0.003408389165997505,1.6824485659599304,0.004183716780971736,-0.002723453042563051,0.0002962964354082942,-35.36331365,149.16581215000002,51138.25,14.0,-1.25,-85.25,0.0,1.5,-977.5,5.0,0.0,1.25
06:19:20,207727.0,RTL,-0.005712157115340233,-0.005471459589898586,1.6822685599327087,0.002045359928160906,-0.003066800767555833,0.0005225964123383164,-35.363313250000004,149.165812,51732.5,11.0,-0.5,-65.0,0.0,1.5,-967.0,3.0,0.0,1.5
06:19:22,207727.0,RTL,0.0010518161579966545,-0.006462430814281106,1.6811585426330566,-0.3759338930249214,-0.0021200095070526004,-0.00114514643792063,-35.36331215,149.1658117,52392.0,0.5,1.0,2.0,0.0,-27.5,-976.5,-376.0,0.5,0.0
06:19:23,43181.0,RTL,0.004226666176691651,-0.00517349480651319,1.6806520521640778,0.06875636428594589,0.004584724782034755,-0.0005950851191300899,-35.3633118,149.1658117,52326.5,-3.5,2.25,2.25,-0.5,-3.75,-1012.0,69.5,7.0,0.5
06:19:24,43181.0,RTL,-0.002125761762727052,-0.0030185948126018047,1.6804442405700684,0.2609092388302088,0.00011445581912994385,-0.0011004898115061224,-35.363311949999996,149.1658117,52354.5,-6.0,3.0,-16.0,-0.5,18.0,-1045.5,261.5,2.5,0.5
06:19:26,43181.0,RTL,-0.005300980061292648,-0.0008525211305823177,1.6804287433624268,0.04516099393367767,-0.0027546765631996095,-0.00019527407130226493,-35.3633127,149.165812,53244.0,1.0,0.5,-45.5,0.0,-5.0,-968.5,45.5,0.0,1.0
06:19:27,137414.0,RTL,-0.000699432275723666,-0.002143810212146491,1.679340124130249,-0.14127749297767878,-0.00011012848699465394,-0.000817793159512803,-35.363312425000004,149.165812125,53520.5,0.75,-0.5,-2.0,-0.75,-11.25,-977.25,-140.5,2.25,1.0
06:19:28,137414.0,RTL,0.008295146748423576,-0.002998261130414903,1.6790988445281982,0.4623250812292099,0.0015450232895091176,0.0029930754099041224,-35.3633119,149.1658122,53511.0,-1.5,-1.0,4.0,-1.5,37.0,-1001.5,464.0,4.0,4.0
06:19:30,137414.0,RTL,0.00632198597304523,-0.00014182111408445053,1.6792702078819275,0.13802335038781166,0.0009780499385669827,0.0024715535109862685,-35.363311,149.1658125,53816.5,-14.0,-2.5,-47.0,-0.5,12.0,-1028.5,140.0,3.0,3.5
06:19:31,300000.0,RTL,5.28528616996482e-05,0.0012238433118909597,1.6793406903743744,-0.07065204717218876,0.001967974123544991,0.0009164073271676898,-35.3633113,149.1658126,54466.75,-13.25,-3.5,-40.75,0.75,-5.75,-969.25,-69.25,4.5,2.25
06:19:32,300000.0,RTL,0.0005811050068587065,0.0013476154417730868,1.6786505579948425,0.4156411439180374,0.0012737270444631577,0.001988101110327989,-35.36331165,149.1658126,54696.5,-11.5,-4.0,-12.0,2.0,22.5,-962.5,417.0,3.5,3.0
06:19:34,300000.0,RTL,-0.005021705786930397,2.4834444047883153e-05,1.678587555885315,-0.29776231944561005,0.0021752049797214568,-0.0016880877956282347,-35.3633123,149.1658125,54697.5,-2.5,-4.0,-5.0,0.5,-22.0,-1027.5,-296.5,4.5,0.0
06:19:35,300000.0,RTL,0.0002548785414546728,-0.0008948806644184515,1.6788451373577118,0.049467481672763824,0.00020206923363730311,0.0006953527627047151,-35.363312275,149.16581244999998,55064.75,-2.25,-3.75,-47.25,-0.5,1.25,-1024.0,50.75,2.5,1.75
06:19:36,300000.0,RTL,-0.003291416447609663,-0.001436779391951859,1.6787598729133606,-0.21850881725549698,0.003851312561891973,0.00033604970667511225,-35.3633122,149.1658124,55465.0,-2.5,-3.0,-51.0,-0.5,-8.5,-982.0,-216.5,6.5,2.0
06:19:38,300000.0,RTL,-0.011720615206286311,-0.0007025712402537465,1.6777620911598206,-0.6028694808483124,-0.0010034139268100262,0.0021309260046109557,-35.3633121,149.1658124,55886.0,-4.0,-3.0,3.0,0.0,-21.0,-991.0,-600.5,2.0,3.0
06:19:39,131173.0,RTL,0.0003963688504882157,-0.0005125542083987966,1.6783243417739868,0.007407104596495628,-0.0011026285355910659,0.00024581755860708654,-35.363312075,149.1658124,55889.0,-3.75,-3.0,-12.25,-0.5,-2.75,-1033.25,9.0,1.75,2.0
06:19:40,131173.0,RTL,0.0006501788739115,-0.0012988316011615098,1.6781944632530212,-0.17457840405404568,-0.00038234866224229336,-0.00033263699151575565,-35.363312,149.1658124,56073.0,-4.5,-3.0,-39.5,-0.5,-11.0,-1034.5,-173.0,2.5,1.5
06:19:42,131173.0,RTL,0.004269240307621658,-0.001434373203665018,1.6778019666671753,0.4281749129295349,-0.0004411364207044244,0.002305296016857028,-35.3633118,149.1658124,57033.5,-7.0,-3.0,-23.0,-1.0,22.0,-957.0,430.0,2.5,4.0
06:19:43,200.0,RTL,0.0030753263527003583,-0.0006226021432667039,1.6774522364139557,0.14774005115032196,0.00010998372454196215,0.0011908374726772308,-35.3633117,149.1658124,57104.5,-8.25,-3.0,2.5,-0.25,8.5,-997.75,149.5,3.0,2.5
06:19:44,200.0,RTL,-0.0029182693688198924,-0.0007380093156825751,1.6770105361938477,-0.3969488888978958,-0.001137087121605873,-0.002252139733172953,-35.3633117,149.1658124,57082.5,-8.0,-3.0,0.5,0.5,-21.0,-1012.0,-395.0,2.0,-0.5
06:19:46,200.0,RTL,-0.003058164846152067,-0.0002677826487342827,1.6781152486801147,-0.19088701903820038,0.002127712592482567,-9.438453707844019e-05,-35.3633117,149.1658124,57740.0,-9.0,-3.0,-55.5,0.0,-7.5,-999.0,-188.0,4.5,1.5
06:19:47,217152.0,RTL,-0.003710017801495269,-0.0004324288274801802,1.67756786942482,0.07223529368638992,0.0008695634023752064,0.001518473873147741,-35.36331215,149.16581234999998,58263.0,-5.75,-2.5,-18.25,0.5,0.75,-961.0,74.75,3.75,2.75
06:19:48,217152.0,RTL,-0.014430587645620108,-0.0008664723136462271,1.6774924397468567,-0.4386243671178818,-0.0006836337270215154,-0.002757757087238133,-35.3633123,149.1658123,58333.5,-3.0,-2.0,1.0,0.0,-5.5,-987.0,-435.5,2.0,0.0
06:19:50,217152.0,RTL,-0.006918648956343532,-0.0004476224712561816,1.6778503060340881,-0.16955013945698738,0.0015768969897180796,0.001317074231337756,-35.3633126,149.1658122,58399.0,0.0,-1.0,-27.5,0.0,-16.5,-1039.5,-167.5,4.5,3.5
06:19:51,131037.0,RTL,-0.008958818856626749,-0.00013919476600676717,1.6778624057769775,-0.06721842475235462,0.0009782517445273697,0.0009064990445040166,-35.363312875,149.1658122,58986.25,1.75,-1.75,-53.5,0.0,-4.75,-994.5,-64.75,3.75,2.25
06:19:52,131037.0,RTL,-0.00953957554884255,-0.0004953467287123203,1.6777006387710571,0.14923977851867676,-0.002319356077350676,0.0016869872342795134,-35.363313,149.1658122,59357.5,3.0,-2.0,-35.5,0.0,15.0,-958.0,152.0,1.0,3.0
06:19:54,131037.0,RTL,-0.014398159924894571,-0.0004049685667268932,1.6769862174987793,-0.5706006288528442,-0.001071494771167636,0.0010570380836725235,-35.3633131,149.1658122,59503.5,5.0,-1.0,3.0,0.0,-27.5,-1004.0,-568.0,2.0,2.5
06:19:55,200.0,RTL,-0.010393884615041316,-0.00015289674956875388,1.6773577332496643,0.012999232858419418,0.0009492316166870296,0.0007287408225238323,-35.3633133,149.1658122,59654.5,6.75,-1.0,-32.25,0.25,-0.5,-1041.75,15.0,4.0,2.5
06:19:56,200.0,RTL,-0.016313919331878424,0.0004575175989884883,1.6776134371757507,-0.21027884632349014,0.0002563337329775095,-0.00034928706008940935,-35.36331355,149.1658122,59988.5,7.5,-1.0,-54.5,1.0,-11.0,-1012.5,-207.5,3.5,1.5
06:19:58,200.0,RTL,-0.022248711436986923,-0.0015773589839227498,1.6771992444992065,-0.10685752332210541,-0.002169307670556009,0.0018862871220335364,-35.363314,149.1658121,60760.5,14.0,-1.0,-4.0,0.0,9.5,-973.5,-104.0,1.0,3.5
06:19:59,137686.0,RTL,-0.010789321269840002,-0.0027055382961407304,1.6772774457931519,0.01927093416452408,-0.0005347870755940676,0.0005002253747079521,-35.363313774999995,149.165812,60738.0,13.75,0.0,2.0,-0.75,3.25,-1010.5,21.0,2.5,2.0
06:20:00,137686.0,RTL,-0.012722145300358534,-0.0024307065177708864,1.6771878004074097,-0.3128262013196945,0.0018047349294647574,-0.0033725728280842304,-35.36331355,149.165812,60766.5,12.5,0.0,-14.5,-1.0,-17.0,-1035.5,-311.5,4.5,-1.0
06:20:02,137686.0,RTL,0.002168776118196547,-0.0023934361524879932,1.6777193546295166,0.20634542405605316,-0.005094396881759167,0.0019736032700166106,-35.3633124,149.1658122,61650.0,3.0,-1.0,-45.0,-1.0,17.5,-965.5,208.0,-1.0,3.5
06:20:03,127670.0,RTL,0.009301768979639746,-0.002916032390203327,1.6768824756145477,0.10729371570050716,0.001589495106600225,0.003024055331479758,-35.363311525,149.1658123,61939.75,-4.0,-2.0,-3.25,-1.25,4.75,-978.5,108.5,4.75,5.0
06:20:04,127670.0,RTL,0.0053816495928913355,-0.0025549880228936672,1.6769048571586609,-0.6116897165775299,-7.971085142344236e-05,0.0005233092233538628,-35.36331095,149.1658124,61934.5,-8.5,-2.5,4.0,-1.0,-21.0,-995.5,-609.5,3.0,2.5
06:20:06,127670.0,RTL,0.002315381891094148,0.00013644068167195655,1.6774387955665588,-0.19753502774983644,0.0029469458386301994,0.0005673209088854492,-35.36331105,149.1658125,62235.0,-15.0,-3.0,-47.0,-0.5,-10.5,-1026.0,-195.5,6.0,2.5
06:20:07,10144.0,RTL,0.0024313797330250964,-0.0003960626054322347,1.6774279475212097,-0.12221961840987206,0.000959706783760339,-0.0002212680410593748,-35.36331129999999,149.1658125,62888.0,-12.5,-3.0,-41.75,0.0,-8.25,-966.5,-120.25,4.5,1.5
06:20:08,10144.0,RTL,0.00039331894367933273,-0.0004835493746213615,1.6769620776176453,0.15693967044353485,-0.002370946924202144,-0.0007228439790196717,-35.3633114,149.1658125,63120.5,-13.0,-3.0,-12.5,0.0,16.5,-965.0,160.0,0.5,1.0
06:20:10,10144.0,RTL,-0.0007884814986027777,-0.0029099031817167997,1.6770166754722595,-0.4381992965936661,-0.0021810688776895404,0.0024667507968842983,-35.3633114,149.1658123,63124.5,-10.5,-2.5,-4.5,1.0,-18.5,-1025.5,-435.5,2.0,4.5
06:20:11,300000.0,RTL,0.0032249242685793433,-0.0018491596856620163,1.6773709058761597,-0.059843746945261955,0.0020669956575147808,0.0010461286874487996,-35.3633114,149.1658123,63489.5,-11.25,-1.75,-47.5,0.0,-4.25,-1024.25,-57.25,5.0,3.0
06:20:12,300000.0,RTL,0.0003137585590593517,-0.0013229765463620424,1.6775986552238464,0.004600495100021362,-0.0015952554531395435,0.0009784662397578359,-35.3633115,149.1658123,63894.5,-11.0,-2.0,-52.5,0.0,7.0,-984.5,8.0,1.5,2.5
06:20:14,300000.0,RTL,-0.009405587799847126,9.718304863781668e-05,1.676609218120575,-0.2565049044787884,0.0009797097882255912,0.0006634877063333988,-35.363311949999996,149.1658123,64347.5,-8.5,-2.0,3.5,-0.5,2.0,-987.0,-253.0,4.5,2.5
06:20:15,63402.0,RTL,-0.006468063045758754,-0.000298377083709056,1.67699134349823,-0.04432436963543296,-0.0013496815809048712,0.0013741343282163143,-35.363312475,149.1658123,64334.75,-2.75,-2.0,-9.0,0.25,-4.5,-1030.5,-41.25,2.25,3.0
06:20:16,63402.0,RTL,-0.009024804458022118,0.0004783887998200953,1.6772303581237793,-0.2156812958419323,0.00019828462973237038,0.0016927722608670592,-35.3633128,149.1658123,64494.5,0.0,-2.0,-36.5,0.5,-14.5,-1036.0,-213.0,3.5,3.5
06:20:18,63402.0,RTL,-0.008755960268899798,-0.0013998616486787796,1.6776601076126099,0.11109194159507751,-0.0003856128314509988,0.0021969209192320704,-35.363313,149.16581225,65431.0,3.0,-2.0,-24.0,-0.5,13.0,-958.5,114.5,3.0,4.0
06:20:19,30898.0,RTL,-0.005696933149010874,-0.0020340302435215563,1.6766944527626038,0.11130009964108467,-0.0008377428166568279,0.0029316975851543248,-35.3633129,149.1658122,65506.5,3.0,-1.75,2.75,-0.25,9.25,-997.75,114.0,2.5,5.0
06:20:20,30898.0,RTL,-0.009173199534416199,-0.0023168837651610374,1.6769781112670898,-0.5003102719783783,0.0010001056361943483,-0.001116699306294322,-35.363312750000006,149.1658122,65482.0,2.5,-1.5,0.5,-0.5,-17.5,-1014.0,-497.5,4.5,1.5
06:20:22,30898.0,RTL,0.0101520586758852,-0.003617398557253182,1.6772464513778687,-0.11830214597284794,-0.0015410607447847724,0.0016008145175874233,-35.363311249999995,149.1658122,66120.0,-7.0,-2.0,-56.5,-0.5,-3.5,-1001.5,-115.0,2.0,3.5
06:20:23,187204.0,RTL,0.010692605981603265,-0.0008274595161310572,1.6771115362644196,0.06283780932426453,0.002127391751855612,0.000961890647886321,-35.363310825,149.165812375,66671.25,-13.75,-2.25,-21.5,0.0,0.0,-960.5,65.75,5.5,3.25
06:20:24,187204.0,RTL,-0.00010762229794636369,3.492312680464238e-05,1.6771397590637207,-0.4149012565612793,0.0031807448249310255,0.00012892269296571612,-35.3633109,149.1658125,66758.5,-15.5,-3.0,0.0,0.0,-9.0,-984.0,-411.0,6.5,2.0
06:20:26,187204.0,RTL,0.001046862918883562,0.000458557260571979,1.6776173114776611,0.08880794048309326,-0.0022600158117711544,0.002372188027948141,-35.363311550000006,149.1658125,66804.5,-12.0,-3.0,-25.0,1.0,-3.5,-1040.5,92.0,1.0,4.0
06:20:27,167388.0,RTL,-0.0024403116112807766,-0.0013287858746480197,1.6773331761360168,0.02960813045501709,-0.00195865094428882,0.000563041539862752,-35.36331195,149.16581234999998,67378.25,-7.0,-2.75,-55.0,0.5,-1.25,-998.75,32.75,1.75,2.5
06:20:28,167388.0,RTL,-0.006667654030025005,-0.0019581717206165195,1.6774428486824036,-0.16248546913266182,0.0010496124159544706,0.001137465937063098,-35.3633121,149.1658122,67772.0,-6.0,-2.0,-41.0,0.0,-1.0,-961.5,-158.5,4.0,3.5
06:20:30,167388.0,RTL,-0.008525649085640907,-0.0017148896004073322,1.676708996295929,-0.5741286873817444,-0.003665452473796904,0.000545428367331624,-35.3633123,149.1658122,67968.5,-2.0,-1.0,3.5,-0.5,-27.0,-999.5,-570.5,0.0,2.5
06:20:31,72998.0,RTL,-0.0037950337427901104,-0.0010605365241644904,1.676826685667038,0.026976812165230513,-0.0007860666955821216,0.0016876071458682418,-35.3633124,149.1658122,68075.75,-1.25,-1.0,-27.75,0.5,-1.25,-1037.0,30.5,2.5,3.75
06:20:32,72998.0,RTL,-0.003457857819739729,-0.0010976456687785685,1.6774635314941406,0.033052340149879456,0.00010364782065153122,0.0008057415252551436,-35.3633125,149.1658122,68383.5,0.0,-1.0,-52.5,0.0,-5.0,-1020.5,36.0,3.5,3.0
06:20:34,72998.0,RTL,-0.008884122362360358,-0.0012295782216824591,1.6774601340293884,-0.5543117821216583,0.0014614027459174395,-0.0006958717713132501,-35.3633124,149.1658122,69209.5,0.0,-1.0,-6.5,0.0,-26.5,-967.0,-550.5,5.0,1.5
06:20:35,256491.0,RTL,-0.00839591707335785,0.00018289476429345086,1.676863193511963,-0.23793908208608627,0.0009958315640687943,-0.0005306669627316296,-35.363312549999996,149.1658122,69195.75,-0.25,-1.0,3.0,0.5,-16.5,-1004.5,-234.25,4.75,2.0
06:20:36,256491.0,RTL,-0.006552522303536534,0.0007000253099249676,1.6768776774406433,0.47569771111011505,-0.00011480017565190792,0.0010242955759167671,-35.36331295,149.1658122,69204.0,0.5,-1.0,-9.5,1.5,18.0,-1041.0,479.0,3.5,3.0
06:20:38,256491.0,RTL,-0.012572042178362608,-0.00046481458412017673,1.6772685050964355,-0.030162498354911804,-0.00018324749544262886,-0.001112789148464799,-35.3633137,149.1658122,70034.5,11.0,-1.0,-47.0,0.5,-7.5,-971.0,-27.5,3.0,1.0
06:20:39,189315.0,RTL,-0.008395283191930503,-0.0027745081461034715,1.6769985854625702,-0.07664485275745392,0.0003300491953268647,-0.0005410692538134754,-35.363313425,149.16581212500003,70353.25,10.25,-1.0,-4.0,-1.25,-1.5,-973.25,-73.25,4.0,1.75
06:20:40,189315.0,RTL,0.0023515076318290085,-0.004001555033028126,1.6767644882202148,0.20535284280776978,-0.003071157494559884,0.0009223178494721651,-35.363313,149.1658121,70353.0,8.0,-1.0,3.5,-0.5,-1.5,-1001.5,208.0,0.5,3.0
06:20:42,189315.0,RTL,-0.00338863383512944,-0.0011525946611072868,1.677486002445221,0.2656140923500061,0.00034505664370954037,0.0011528217000886798,-35.3633126,149.165812,70597.5,0.5,0.0,-43.5,0.0,11.5,-1035.5,268.0,4.0,3.5
06:20:43,230926.0,RTL,-0.006625636538956314,9.147796117758844e-05,1.6773567199707031,0.11001153290271759,-0.0019499793997965753,0.0008216993883252144,-35.3633127,149.1658122,71255.25,1.75,-0.75,-45.75,-0.25,6.25,-974.0,113.25,1.75,3.0
06:20:44,230926.0,RTL,-0.005936360044870526,-0.001294149667955935,1.6769810914993286,-0.26777321100234985,0.001812647795304656,-0.000992174434941262,-35.3633127,149.16581225,71522.5,3.0,-2.0,-17.0,-0.5,-17.0,-956.0,-265.5,5.5,1.0
06:20:46,230926.0,RTL,0.008815329754725099,-0.0013433080166578293,1.6771678924560547,0.5741108059883118,0.0018527836073189974,0.0019265062874183059,-35.3633119,149.16581235,71540.5,-3.5,-2.0,-2.0,-0.5,27.5,-1027.5,577.5,5.5,4.0
06:20:47,300000.0,RTL,0.0021532526625378523,-0.0005750392374466173,1.6771308183670044,-0.018226806889288127,0.0015171394916251302,0.0006938712322153151,-35.363311675,149.165812475,71853.25,-6.25,-3.0,-45.25,0.0,1.75,-1027.5,-14.75,5.25,3.0
06:20:48,300000.0,RTL,0.004715557210147381,-0.0007083193922881037,1.6773560047149658,0.2210574969649315,-0.0011599675053730607,0.000524253468029201,-35.3633116,149.1658125,72248.0,-8.0,-3.0,-54.0,0.0,10.5,-992.0,224.0,2.5,3.0
06:20:50,300000.0,RTL,0.0140501637943089,-0.0020640898146666586,1.6765105724334717,0.6167623400688171,-0.0016459410544484854,0.0005306827370077372,-35.3633112,149.1658125,72759.5,-12.5,-3.5,2.5,-0.5,32.5,-995.5,620.5,2.0,3.0
06:20:51,143404.0,RTL,0.011798600608017296,-0.003743497305549681,1.6771883368492126,0.02582069206982851,-0.0009020869620144367,0.0023543809074908495,-35.363310675,149.1658124,72745.25,-16.0,-3.0,-6.75,-2.25,6.5,-1027.75,30.0,2.75,4.75
06:20:52,143404.0,RTL,0.01796494424343109,-0.004131459048949182,1.6772079467773438,-0.21204641461372375,0.003011750290170312,-9.813369251787663e-05,-35.3633101,149.1658125,72886.5,-19.5,-3.0,-34.5,-2.0,-4.0,-1038.5,-207.0,6.5,2.5
06:20:54,143404.0,RTL,0.01658947765827179,0.0007350549421971664,1.6771893501281738,0.382108598947525,0.0023577783722430468,0.0012708930298686028,-35.36330955,149.16581265000002,73833.5,-31.0,-4.0,-26.0,1.0,19.0,-958.5,386.5,6.0,3.5
06:20:55,170958.0,RTL,-0.00213114483631216,0.0032203721930272877,1.6770189702510834,0.08826396614313126,-0.00022187246941030025,0.0026065283454954624,-35.36331085,149.1658127,73929.5,-24.25,-4.0,2.75,2.25,-0.75,-992.25,93.25,3.75,5.0
06:20:56,170958.0,RTL,-0.017825329676270485,0.002144625352229923,1.6771551370620728,-0.5682770311832428,-0.00017041387036442757,-0.0015920597361400723,-35.36331175,149.1658126,73904.0,-16.0,-4.0,2.5,1.0,-22.0,-1008.0,-563.0,3.5,1.0
06:20:58,170958.0,RTL,-0.016429651528596878,-0.00042998722346965224,1.6776251792907715,-0.1858641728758812,-0.00011473335325717926,0.00025842722970992327,-35.363313399999996,149.16581215000002,74490.0,2.5,-2.0,-58.0,1.0,-11.5,-1005.0,-181.0,4.0,2.5
06:20:59,30536.0,RTL,-0.017114499118179083,-0.0011972170759690925,1.6772685050964355,0.0342949079349637,-0.0011384495883248746,-0.0007076486363075674,-35.3633139,149.16581202499998,75099.75,9.25,-0.5,-28.0,0.0,-1.0,-958.5,39.0,2.75,2.5
06:21:00,30536.0,RTL,-0.02028328739106655,-0.00214702554512769,1.6770617365837097,-0.5917253792285919,0.001790991984307766,-0.0014756177552044392,-35.3633139,149.16581194999998,75223.0,12.5,0.0,-2.5,0.0,-20.5,-977.5,-586.5,5.5,1.0
06:21:02,30536.0,RTL,-0.0020523410457826685,-0.002269539632834494,1.677172601222992,0.4562121480703354,0.0022423595655709505,0.0009882658487185836,-35.3633135,149.1658119,75245.0,10.0,0.0,-20.0,0.0,19.0,-1048.5,460.0,6.5,4.0
06:21:03,96851.0,RTL,-0.008799819624982774,-0.0019346285553183407,1.6778236031532288,0.041294459253549576,-0.0018838136456906796,0.00045456388033926487,-35.363313325,149.165812,75779.25,8.75,0.0,-54.75,-0.75,5.25,-1005.5,45.25,1.75,3.0
06:21:04,96851.0,RTL,-0.007777056656777859,-0.002396122203208506,1.6775436401367188,-0.10766065120697021,0.0024935577530413866,0.00029770401306450367,-35.363313149999996,149.165812,76187.0,8.0,0.0,-45.0,-1.5,-11.0,-965.0,-104.0,7.0,3.0
06:21:06,96851.0,RTL,0.001317723683314398,-0.0010043312213383615,1.6773187518119812,0.5297413617372513,0.0001984178088605404,0.002197313471697271,-35.36331285,149.1658121,76446.0,3.0,0.0,4.0,0.0,15.5,-1004.5,533.0,4.5,5.0
06:21:07,9783.0,RTL,-0.017457086127251387,0.0005274792238196824,1.6773252189159393,-0.041188787668943405,0.0011666114442050457,0.0016855017165653408,-35.363313425,149.1658121,76519.5,6.0,0.0,-23.25,1.0,-0.5,-1035.75,-37.0,5.0,4.0
06:21:08,9783.0,RTL,-0.017592200078070164,0.0006005777977406979,1.6776739954948425,0.20475735515356064,0.0010031077545136213,0.00206251151394099,-35.36331385,149.1658121,76791.0,10.0,0.0,-50.0,1.0,7.0,-1031.5,208.0,5.5,5.0
06:21:10,9783.0,RTL,-0.020587368868291378,-0.0022205496206879616,1.6773703694343567,-0.3779152110219002,0.00041625346057116985,2.5547691620886326e-05,-35.3633144,149.165812,77700.0,18.5,0.0,-12.5,-1.0,-25.5,-955.0,-374.0,4.5,3.0
06:21:11,200.0,RTL,-0.010786934522911906,-0.003496406599879265,1.677125096321106,-0.10479211434721947,0.00012936710845679045,0.0004923761007376015,-35.3633139,149.16581194999998,77712.75,17.0,0.0,3.25,-1.0,-8.0,-1002.0,-101.75,4.25,3.25
06:21:12,200.0,RTL,-0.005660472786985338,-0.00366411916911602,1.6768560409545898,0.25863955542445183,-0.0017289824318140745,-0.0013147200806997716,-35.363313399999996,149.165812,77701.0,13.0,0.0,-5.0,-1.0,21.5,-1037.0,262.5,3.0,1.5
06:21:14,200.0,RTL,-0.004132550675421953,0.00027508934726938605,1.6776389479637146,0.21733367443084717,7.817056030035019e-05,0.0010024417424574494,-35.363312949999994,149.16581225,78477.0,6.0,-0.5,-53.0,0.0,10.5,-982.5,220.5,4.0,4.0
06:21:15,300000.0,RTL,-0.009811654221266508,0.00012137314570281887,1.6777198016643524,-0.112880764529109,0.0003384993760846555,0.0009316606447100639,-35.363312924999995,149.1658123,78904.0,4.75,-1.5,-10.5,0.0,-7.0,-965.25,-109.75,4.5,4.0
06:21:16,300000.0,RTL,-0.0063917170045897365,-0.00017802313959691674,1.6771594882011414,0.55660580098629,-0.001957793952897191,0.0007953875465318561,-35.363313,149.1658123,78933.5,5.0,-2.0,3.0,0.0,28.0,-1002.5,560.0,2.5,4.0
06:21:18,300000.0,RTL,-0.014370169024914503,-0.0017295613652095199,1.6774130463600159,-0.19846614450216293,-0.0021239568013697863,0.00021455937530845404,-35.36331335,149.1658122,79075.0,8.0,-1.0,-35.5,-0.5,-1.0,-1038.0,-195.0,2.0,3.0
06:21:19,300000.0,RTL,-0.004978946235496551,-0.0032464792020618916,1.6778430342674255,-0.0629574116319418,0.0006939251907169819,0.001762082101777196,-35.363312925,149.1658121,79693.25,6.25,-1.0,-47.75,-1.25,0.75,-981.0,-59.75,5.0,4.5
06:21:20,300000.0,RTL,0.0034966866951435804,-0.003404525457881391,1.6774243712425232,0.3650224506855011,0.0018870839849114418,-0.00148140883538872,-35.36331255,149.1658121,79992.5,3.5,-1.0,-22.5,-1.0,15.0,-962.5,368.0,6.0,1.5
06:21:22,300000.0,RTL,0.002178784537439545,-0.0028000916354358196,1.677167812983195,-0.05633066097895304,0.0001376571599394083,0.002166387935479482,-35.36331153333334,149.1658122,80046.33333333333,-6.666666666666667,-1.0,0.0,-0.3333333333333333,9.0,-1017.3333333333334,-52.333333333333336,4.333333333333333,5.333333333333333
06:21:23,41055.0,RTL,0.002976842845479647,-0.0016421354375779629,1.6774361928304036,0.030924235781033833,0.000668493565171957,0.0003349777931968371,-35.3633114,149.16581226666665,80290.0,-10.0,-1.3333333333333333,-41.0,-0.6666666666666666,4.666666666666667,-1030.6666666666667,34.0,5.0,3.0
06:21:24,41055.0,RTL,0.003306457210176935,-0.0012781744201978047,1.6775739987691243,0.0018849968910217285,-0.0014820566090444724,-0.0007993268469969431,-35.3633114,149.16581233333332,80671.0,-10.0,-2.0,-53.333333333333336,0.0,-1.3333333333333333,-999.0,5.0,3.0,2.3333333333333335
06:21:26,41055.0,RTL,0.004484890135548388,-0.00031273335950269637,1.677034815152486,0.44692233701546985,0.002343460296591123,-0.0015758494846522808,-35.36331163333333,149.1658124,81244.66666666667,-10.0,-3.0,1.3333333333333333,0.0,17.333333333333332,-987.6666666666666,450.3333333333333,6.666666666666667,2.0
06:21:27,120557.0,RTL,-0.0003165180484453837,-0.0003463127456294994,1.6773302555084229,0.26883994539578754,-0.0014116169574360053,0.0012362489166359107,-35.363312,149.1658124,81215.66666666667,-7.0,-2.6666666666666665,-2.3333333333333335,0.3333333333333333,13.333333333333334,-1024.0,272.0,3.3333333333333335,4.333333333333333
06:21:28,120557.0,RTL,-0.006775949208531529,-0.0011038519442081451,1.6773634751637776,-0.05096898476282755,-0.0014748995502789815,0.0016016018732140462,-35.363312199999996,149.16581233333332,81329.0,-4.666666666666667,-2.0,-28.0,0.6666666666666666,-3.0,-1035.6666666666667,-47.333333333333336,3.0,4.333333333333333
06:21:30,120557.0,RTL,-0.00652645140265425,-0.00040447760936028015,1.6773905356725056,-0.0500948429107666,-0.0007367446087300777,4.2638819043835006e-05,-35.36331263333333,149.1658123,82282.0,-0.3333333333333333,-2.0,-34.666666666666664,0.0,-4.333333333333333,-958.3333333333334,-46.666666666666664,3.6666666666666665,3.0
06:21:31,200.0,RTL,0.0007449129479937255,-0.0007973957496384779,1.6769140561421711,0.36664589246114093,-0.001058332622051239,0.0004880120201657216,-35.3633127,149.1658123,82449.0,1.0,-2.0,1.6666666666666667,0.0,8.333333333333334,-991.3333333333334,369.6666666666667,3.3333333333333335,3.3333333333333335
06:21:32,200.0,RTL,-0.006192115795177718,-0.001812541508115828,1.6769869327545166,0.005599841475486755,-0.005125787807628512,-0.0005484470554317037,-35.3633126,149.1658123,82426.66666666667,0.3333333333333333,-2.0,2.6666666666666665,-0.6666666666666666,13.0,-1005.6666666666666,9.666666666666666,0.3333333333333333,2.3333333333333335
06:21:34,200.0,RTL,0.007219083219145735,-0.0027145976976801953,1.677625338236491,-0.03247828781604767,0.0002752540943523248,0.0007907853772242864,-35.36331156666667,149.1658123,82903.33333333333,-5.666666666666667,-2.0,-52.666666666666664,-1.0,0.3333333333333333,-1012.6666666666666,-28.333333333333332,4.666666666666667,3.6666666666666665
06:21:35,158915.0,RTL,0.011908854978779951,-0.0014300793797398608,1.6775635480880737,0.11097330848375957,0.0005502601464589437,8.971352751056354e-05,-35.36331103333333,149.1658124,83513.33333333333,-11.666666666666666,-2.6666666666666665,-29.333333333333332,-0.6666666666666666,1.6666666666666667,-959.3333333333334,114.33333333333333,5.0,3.3333333333333335
06:21:36,158915.0,RTL,0.005633211005867149,-0.0010278341554415722,1.6771161556243896,0.1214653452237447,-0.001645762783785661,-0.00039009260945022106,-35.363311,149.1658124,83640.0,-14.666666666666666,-3.0,-4.0,-0.3333333333333333,17.333333333333332,-971.6666666666666,125.66666666666667,3.0,3.0
06:21:38,158915.0,RTL,0.006358452624529794,-0.0014800504238034289,1.6772619485855103,-0.19306514163812002,0.00022433651611208916,0.0004228068670878808,-35.363311,149.1658125,83656.33333333333,-15.0,-3.0,-17.0,0.0,-11.0,-1037.3333333333333,-189.0,5.0,3.3333333333333335
06:21:39,160016.0,RTL,0.005304904732232292,-0.0010826177507018049,1.6779426733652751,-0.04789378742376963,0.0005644007275501887,0.0010341964662075043,-35.363311,149.1658125,84152.0,-15.0,-3.0,-56.0,0.0,-3.0,-1012.3333333333334,-43.0,5.333333333333333,4.333333333333333
06:21:40,160016.0,RTL,0.001539442998667558,-0.0003164348602240352,1.677690823872884,-0.006095409393310547,0.0023134558772047362,-0.0008998597816874584,-35.3633113,149.16581243333331,84570.0,-14.666666666666666,-3.0,-49.0,0.6666666666666666,-1.0,-971.6666666666666,-1.3333333333333333,7.0,2.0
06:21:42,160016.0,RTL,-0.007446440838975832,-0.0012446379599471886,1.6771151622136433,-0.33116257687409717,0.0007415241561830044,-0.0006968911426762739,-35.36331223333334,149.1658122,84889.33333333333,-4.333333333333333,-2.0,3.0,0.0,-22.666666666666668,-1002.0,-326.6666666666667,5.333333333333333,2.3333333333333335
06:21:43,300000.0,RTL,-0.0014030328796555598,-0.0012801541209531326,1.677557349205017,-0.14262955884138742,0.0014564368563393753,0.000834867125377059,-35.3633123,149.1658122,84936.66666666667,-3.0,-1.0,-22.0,0.3333333333333333,-9.0,-1036.6666666666667,-137.66666666666666,5.666666666666667,4.0
06:21:44,300000.0,RTL,-0.0032683564738060036,-0.0008061981449524561,1.6777060429255168,0.018648372031748295,-0.0006716926582157612,0.0011413077202936013,-35.3633123,149.1658122,85204.66666666667,-3.3333333333333335,-1.0,-48.666666666666664,0.3333333333333333,-1.6666666666666667,-1031.0,23.0,3.6666666666666665,4.333333333333333
06:21:46,300000.0,RTL,-0.01172564442579945,-8.991782669909298e-05,1.6775760253270466,0.12637111047903696,-0.003232281655073166,-2.9464795564611752e-05,-35.36331296666666,149.1658122,86161.66666666667,2.0,-1.0,-18.333333333333332,0.3333333333333333,9.333333333333334,-962.0,131.33333333333334,1.3333333333333333,3.3333333333333335
06:21:47,172899.0,RTL,-0.009667587971004346,-0.0021980841799328723,1.6771759589513142,-0.002925138920545578,-0.0020107933475325503,0.000406538446744283,-35.36331306666667,149.16581213333336,86206.33333333333,4.333333333333333,-1.0,2.6666666666666665,-0.3333333333333333,9.0,-997.6666666666666,1.6666666666666667,2.3333333333333335,3.6666666666666665
06:21:48,172899.0,RTL,-0.005705876469922562,-0.0027507744574298463,1.67743984858195,-0.2900426785151164,4.4501697023709613e-07,0.002024623022104303,-35.36331286666667,149.1658121,86192.66666666667,4.666666666666667,-1.0,-3.3333333333333335,-0.6666666666666666,-15.666666666666666,-1023.0,-285.6666666666667,4.333333333333333,5.666666666666667
06:21:50,172899.0,RTL,-0.00036223477218300104,-0.0026983206626027822,1.6776201327641804,-0.039850989977518715,0.00021626660600304604,0.00025411322712898254,-35.3633123,149.1658121,86928.33333333333,-0.3333333333333333,-1.0,-58.0,-0.3333333333333333,0.3333333333333333,-996.3333333333334,-35.0,4.666666666666667,4.0
06:21:51,200.0,RTL,0.004764990784072627,-0.0022745073462526,1.6775160630544026,0.13159187386433283,0.00033254579951365787,-0.0011918717840065558,-35.363311833333334,149.16581216666668,87482.33333333333,-4.333333333333333,-1.0,-19.666666666666668,-0.3333333333333333,3.0,-956.0,136.0,5.0,2.3333333333333335
06:21:52,200.0,RTL,6.314355414360762e-05,-0.002053699533765515,1.677229364713033,-0.15836971004803976,0.0010979161597788334,-0.0010178620771815379,-35.3633117,149.1658122,87547.66666666667,-7.0,-1.6666666666666667,0.0,-0.3333333333333333,3.6666666666666665,-983.0,-153.0,5.333333333333333,2.3333333333333335
06:21:54,200.0,RTL,0.004013979031393926,-0.0018538427927220862,1.6778215964635212,0.021239892890055973,0.001202941406518221,0.001644628665720423,-35.3633115,149.16581223333333,87624.33333333333,-10.0,-2.0,-28.333333333333332,0.0,-0.6666666666666666,-1037.6666666666667,26.333333333333332,6.0,4.666666666666667
06:21:55,172324.0,RTL,0.006321101915091276,-0.0012509573328619201,1.6778067350387573,-0.010769738505283991,0.0004062467875579993,0.001155159513776501,-35.36331123333333,149.16581236666667,88218.66666666667,-11.333333333333334,-2.3333333333333335,-55.0,-0.3333333333333333,0.0,-994.3333333333334,-5.0,5.0,4.333333333333333
06:21:56,172324.0,RTL,0.0037276611741011343,-0.0010381489216039579,1.6777238845825195,-0.085042009751002,0.001459408551454544,0.0006393039754281441,-35.3633111,149.1658124,88592.33333333333,-13.0,-3.0,-36.666666666666664,0.0,0.0,-957.6666666666666,-79.33333333333333,6.333333333333333,4.0
06:21:58,172324.0,RTL,0.001487778965383768,-0.0005766365502495319,1.6771586736043294,0.028586653371651966,0.0009282127333184084,0.001300981966778636,-35.3633117,149.1658124,88757.0,-10.0,-3.0,3.0,0.6666666666666666,-11.0,-999.3333333333334,33.333333333333336,5.666666666666667,4.666666666666667
06:21:59,120685.0,RTL,-0.0024530162724355855,-0.0013263806467875838,1.6773186922073364,-0.05015803873538971,0.001321042887866497,0.0002031212206929922,-35.36331206666667,149.1658123,88883.0,-6.0,-2.0,-30.333333333333332,0.0,-10.666666666666666,-1038.6666666666667,-45.0,6.0,3.6666666666666665
06:22:00,120685.0,RTL,-0.005088558925005297,-0.0005267163020713875,1.6777639389038086,0.10628697648644447,0.0009404012622932593,-5.768542177975178e-05,-35.3633123,149.1658123,89212.33333333333,-4.333333333333333,-1.3333333333333333,-52.666666666666664,0.6666666666666666,2.6666666666666665,-1018.3333333333334,111.66666666666667,5.666666666666667,3.3333333333333335
06:22:02,120685.0,RTL,-0.012883868689338366,-0.0002501467994685906,1.677471439043681,0.04477346440156301,-0.0033021739218384027,-0.0006602893117815256,-35.3633133,149.16581216666668,89992.66666666667,4.333333333333333,-1.0,-5.333333333333333,0.3333333333333333,-4.0,-972.0,49.666666666666664,1.6666666666666667,3.0
06:22:03,284849.0,RTL,-0.007959997979924083,-0.0024258675208936134,1.6773597399393718,0.032541332145531975,-0.002540812206765016,-0.00012226131123801073,-35.36331346666666,149.1658120333333,89978.0,7.666666666666667,-0.3333333333333333,2.3333333333333335,0.3333333333333333,-2.6666666666666665,-1007.0,37.333333333333336,2.0,3.3333333333333335
06:22:04,284849.0,RTL,-0.008922607870772481,-0.0033643588734169803,1.6773271560668945,0.13105017940203348,-0.0014210611892243226,-0.00017131205337742964,-35.363313299999994,149.165812,90003.66666666667,8.0,0.0,-12.666666666666666,-0.3333333333333333,14.666666666666666,-1035.6666666666667,136.66666666666666,3.3333333333333335,3.3333333333333335
06:22:06,284849.0,RTL,0.00012999043489495912,-0.0037582591952135167,1.677788217862447,-0.013231687092532715,0.0025468585081398487,0.0012045414187014103,-35.36331239999999,149.165812,90871.66666666667,1.0,0.0,-47.333333333333336,-0.3333333333333333,0.0,-975.6666666666666,-8.0,7.333333333333333,4.666666666666667
06:22:07,200.0,RTL,-0.006606770174888273,-0.0023950676744182906,1.677416443824768,-0.3826740508278211,0.0008134349870185057,-0.0006860925350338221,-35.3633122,149.165812,91201.66666666667,-1.0,0.0,-3.0,0.3333333333333333,-20.0,-972.3333333333334,-377.6666666666667,5.333333333333333,3.0
06:22:08,200.0,RTL,-0.0025006678188219666,-0.0019648135639727116,1.6769059896469116,0.3621346329649289,-0.0013793765877683957,-0.001090380595996976,-35.3633123,149.165812,91196.66666666667,-1.6666666666666667,0.0,3.6666666666666665,1.3333333333333333,21.333333333333332,-998.6666666666666,367.3333333333333,3.6666666666666665,2.6666666666666665
06:22:10,200.0,RTL,-0.01148968314131101,-0.001811218059932192,1.6777314742406209,-0.09773482879002889,-0.00037474782826999825,0.0007373620755970478,-35.3633131,149.165812,91461.66666666667,4.0,0.0,-43.333333333333336,0.0,-4.666666666666667,-1030.6666666666667,-92.33333333333333,4.333333333333333,4.666666666666667
06:22:11,87047.0,RTL,-0.014472624597450098,-0.0017723866815989215,1.6777091026306152,0.038592323660850525,0.0006147869862616062,-0.00033412066598733264,-35.3633134,149.16581196666667,92097.33333333333,6.666666666666667,0.0,-41.666666666666664,0.0,1.6666666666666667,-968.6666666666666,43.666666666666664,5.666666666666667,3.0
06:22:12,87047.0,RTL,-0.01561529841274023,-0.002481130805487434,1.677683671315511,0.12987086673577627,-0.0002030394971370697,0.0008994481371094784,-35.3633137,149.1658119,92316.66666666667,9.333333333333334,0.3333333333333333,-12.333333333333334,0.3333333333333333,8.666666666666666,-960.6666666666666,134.66666666666666,4.666666666666667,4.333333333333333
06:22:14,87047.0,RTL,-0.02125812383989493,-0.0031827453058212996,1.6771201690038045,-0.40201236059268314,-0.0024780203433086476,-5.7306295881668724e-05,-35.3633142,149.1658117,92329.33333333333,16.0,2.0,-6.333333333333333,0.0,-15.333333333333334,-1032.3333333333333,-397.0,2.3333333333333335,3.3333333333333335
06:22:15,98891.0,RTL,-0.018910233862698078,-0.002429249230772257,1.6779560248057048,-0.06553635746240616,-0.000874934329961737,0.0003266644974549611,-35.363314333333335,149.1658117,92692.66666666667,18.0,2.0,-49.333333333333336,0.0,-1.6666666666666667,-1026.6666666666667,-61.0,4.0,4.0
06:22:16,98891.0,RTL,-0.019532714039087296,-0.0025140809205671153,1.6779014666875203,-0.014606227477391561,-0.0008783042430877686,0.000161856800938646,-35.3633144,149.1658117,93106.33333333333,18.333333333333332,2.0,-53.333333333333336,0.0,0.3333333333333333,-986.0,-10.0,3.6666666666666665,3.6666666666666665
06:22:18,98891.0,RTL,-0.014757973297188679,-0.003989743922526638,1.6773041486740112,0.11971027652422588,0.0012089569742480915,-0.00015106160814563432,-35.36331396666667,149.1658117,93572.33333333333,17.333333333333332,2.0,2.6666666666666665,0.0,14.666666666666666,-992.6666666666666,124.33333333333333,6.0,3.6666666666666665
06:22:19,300000.0,RTL,-0.010154621054728826,-0.004855124124636252,1.677493413289388,-0.0016707181930541992,-0.0034144959257294736,0.0028474368155002594,-35.3633134,149.1658117,93560.66666666667,12.333333333333334,2.0,-9.333333333333334,-0.3333333333333333,10.333333333333334,-1037.0,2.3333333333333335,1.3333333333333333,6.333333333333333
06:22:20,300000.0,RTL,-0.006935537521106501,-0.00421483488753438,1.6776628891626995,-0.10970026006301244,0.0028555290773510933,0.001554659257332484,-35.3633132,149.1658117,93740.33333333333,9.666666666666666,2.0,-37.333333333333336,-1.0,-6.0,-1038.3333333333333,-105.33333333333333,7.333333333333333,5.333333333333333
06:22:22,300000.0,RTL,-0.007195946456628614,-0.0030674353862802186,1.677649736404419,0.16396607955296835,-0.0023631793446838856,0.0006341656359533469,-35.36331296666666,149.16581183333332,94701.66666666667,6.0,1.0,-26.0,-0.6666666666666666,9.666666666666666,-956.3333333333334,167.66666666666666,2.6666666666666665,4.0
06:22:23,226350.0,RTL,0.0015598516911268234,-0.00334098469465971,1.677571694056193,0.39919539789358777,0.0008109973277896643,0.000311040785163641,-35.36331263333333,149.1658119,94798.66666666667,3.0,0.0,3.3333333333333335,-0.3333333333333333,17.333333333333332,-995.6666666666666,402.6666666666667,5.333333333333333,4.0
06:22:24,226350.0,RTL,-0.009217056445777416,-0.0030652476319422326,1.6771527131398518,-0.4737961143255234,-0.0011344656813889742,0.0019787874383231006,-35.3633125,149.1658119,94773.0,1.0,0.0,0.3333333333333333,0.0,-17.0,-1011.0,-469.6666666666667,3.6666666666666665,5.666666666666667
06:22:26,226350.0,RTL,-0.00473692473800232,-0.0031533533862481513,1.6779660781224568,-0.017272457480430603,-0.0006914953701198101,0.0013558974800010521,-35.3633125,149.1658119,95390.0,0.6666666666666666,0.0,-55.666666666666664,0.3333333333333333,1.0,-1001.0,-13.666666666666666,4.333333333333333,5.0
06:22:27,300000.0,RTL,-0.0015016232306758563,-0.004069431374470393,1.677690029144287,0.15785963833332062,-0.001413164349893729,-0.0003656780657668908,-35.36331233333333,149.1658119,95947.33333333333,-0.6666666666666666,0.0,-21.333333333333332,0.0,12.333333333333334,-954.6666666666666,162.0,3.3333333333333335,3.6666666666666665
06:22:28,300000.0,RTL,-0.005688138732997079,-0.003766559840490421,1.677432934443156,-0.3899068397780259,-9.142855803171794e-05,-0.0007197361749907335,-35.3633122,149.1658119,96023.0,-1.0,0.0,0.3333333333333333,0.3333333333333333,-15.333333333333334,-983.3333333333334,-386.6666666666667,4.666666666666667,3.0
06:22:30,300000.0,RTL,0.0052652313994864626,-0.004603066947311163,1.6775120099385579,0.11966407174865405,0.0005417007487267256,0.0003156331367790699,-35.36331166666667,149.1658119,96085.66666666667,-5.333333333333333,0.0,-26.333333333333332,-0.6666666666666666,8.0,-1044.3333333333333,124.0,5.333333333333333,4.0
06:22:31,279028.0,RTL,0.006135311132917802,-0.0037700235843658447,1.6782342195510864,-0.01889284544934829,0.000727571469421188,0.00020130894457300505,-35.3633113,149.165812,96663.0,-10.0,0.0,-54.666666666666664,-0.3333333333333333,0.3333333333333333,-997.0,-15.0,5.333333333333333,4.0
06:22:32,279028.0,RTL,0.0025763798815508685,-0.003120656358078122,1.6780409812927246,-0.09104746331771214,0.00248893645281593,-0.0007088723747680584,-35.36331123333333,149.165812,97039.0,-11.333333333333334,0.0,-37.333333333333336,0.3333333333333333,-4.666666666666667,-957.6666666666666,-86.66666666666667,7.333333333333333,3.0
06:22:34,279028.0,RTL,-0.0018121854906591277,-0.0030891005881130695,1.677216609319051,0.2332173486550649,-0.00478620237360398,-0.0012168862546483676,-35.363312,149.16581196666667,97206.33333333333,-7.0,0.3333333333333333,3.0,1.3333333333333333,-1.6666666666666667,-1008.3333333333334,237.0,0.0,2.3333333333333335
06:22:35,300000.0,RTL,-0.007192202378064394,-0.0038458116662998996,1.677728573481242,0.07444604237874348,-0.0011253807848940294,-1.0710830489794413e-05,-35.36331246666666,149.1658118,97332.66666666667,-2.3333333333333335,1.0,-31.333333333333332,0.0,-0.3333333333333333,-1039.6666666666667,78.33333333333333,3.3333333333333335,3.6666666666666665
06:22:36,300000.0,RTL,-0.005380828011160095,-0.004335170301298301,1.6780508756637573,0.0647789513071378,0.0007559293104956547,-8.156321321924527e-05,-35.3633126,149.1658117,97663.33333333333,-0.3333333333333333,2.0,-53.0,0.0,2.0,-1015.6666666666666,69.0,5.333333333333333,3.3333333333333335
06:22:38,300000.0,RTL,-0.0030932036655334136,-0.003899496281519532,1.6776080926259358,0.054405272006988525,-0.0014947564341127872,-0.0010767033478866022,-35.3633126,149.1658117,98445.0,0.6666666666666666,2.0,-6.0,0.3333333333333333,-6.0,-971.3333333333334,58.0,3.3333333333333335,2.6666666666666665
06:22:39,33796.0,RTL,-0.008016543152431646,-0.001723078079521656,1.677194635073344,0.3806909571091334,0.0006578674074262381,-0.0004850518113623063,-35.3633131,149.1658117,98427.0,3.0,2.6666666666666665,1.3333333333333333,1.3333333333333333,9.666666666666666,-1013.6666666666666,384.6666666666667,5.0,3.3333333333333335
06:22:40,33796.0,RTL,-0.021659785881638527,-0.0012988765568782885,1.677578330039978,-0.10425437986850739,-0.0007986516381303469,0.0006055050374319156,-35.363313766666664,149.1658117,98475.0,7.333333333333333,2.6666666666666665,-18.0,1.0,-2.3333333333333335,-1036.0,-100.0,3.6666666666666665,4.333333333333333
06:22:42,33796.0,RTL,-0.01897294105341037,-0.0032334262505173683,1.6780688762664795,0.06704176962375641,-0.0028033647686243057,-0.0003915055034061273,-35.363314566666666,149.1658116,99390.33333333333,19.0,2.0,-46.666666666666664,0.0,1.0,-969.6666666666666,70.66666666666667,1.6666666666666667,3.3333333333333335
06:22:43,218195.0,RTL,-0.007709986375023921,-0.005172848080595334,1.6773302952448528,0.11279028157393138,-0.001401045670111974,-0.0011386267530421417,-35.363314,149.1658116,99700.66666666667,17.666666666666668,2.0,-3.0,0.0,-3.3333333333333335,-980.0,115.66666666666667,3.0,2.6666666666666665
06:22:44,218195.0,RTL,-0.0112044393705825,-0.004743768523136775,1.6773158311843872,-0.0009567532688379288,-0.0012693715592225392,-0.0006526391953229904,-35.36331363333333,149.1658116,99690.33333333333,13.666666666666666,2.0,3.6666666666666665,-0.6666666666666666,13.333333333333334,-997.6666666666666,2.6666666666666665,3.3333333333333335,2.6666666666666665
06:22:46,218195.0,RTL,-0.010088452758888403,-0.0034774679224938154,1.6783483425776164,-0.11470411469539006,0.0004243282601237297,0.0010751999604205291,-35.3633133,149.1658117,99998.66666666667,9.333333333333334,2.3333333333333335,-47.666666666666664,0.0,-5.666666666666667,-1028.3333333333333,-111.33333333333333,5.0,4.666666666666667
06:22:47,57854.0,RTL,-0.010951523513843616,-0.0033290719147771597,1.6781113942464192,-0.01994110147158305,-0.0007524795364588499,-0.0007753439713269472,-35.3633133,149.1658117,100674.33333333333,8.333333333333334,2.0,-45.0,-0.3333333333333333,-2.3333333333333335,-968.0,-16.666666666666668,3.6666666666666665,2.6666666666666665
06:22:48,57854.0,RTL,-0.009974363133854544,-0.003602457077552875,1.6779614686965942,0.13388501107692719,0.0009447882572809855,-0.0006409876514226198,-35.3633133,149.1658117,100910.66666666667,8.0,2.0,-15.0,0.0,12.0,-964.3333333333334,137.33333333333334,5.333333333333333,3.0
06:22:50,57854.0,RTL,-0.011530459858477116,-0.0037495448098828397,1.6773782968521118,-0.3030545115470886,-0.0010276899362603824,0.0009745423837254444,-35.3633132,149.1658118,100928.66666666667,8.0,1.0,-5.666666666666667,0.0,-15.666666666666666,-1027.0,-299.6666666666667,3.3333333333333335,4.666666666666667
06:22:51,150597.0,RTL,-0.005099379651558896,-0.004111732666691144,1.677941123644511,0.04185892144838969,-0.000587603465343515,-0.000754135117555658,-35.36331286666667,149.1658118,101282.0,5.0,1.0,-49.666666666666664,-0.3333333333333333,3.3333333333333335,-1028.6666666666667,44.333333333333336,3.6666666666666665,2.6666666666666665
06:22:52,150597.0,RTL,-0.004016956081613898,-0.003994231500352423,1.678043007850647,0.024768412113189697,-0.00019955487611393133,-0.0005690560986598333,-35.363312666666666,149.1658118,101701.33333333333,3.3333333333333335,1.0,-55.666666666666664,-0.3333333333333333,1.3333333333333333,-989.3333333333334,27.666666666666668,4.333333333333333,3.0
06:22:54,150597.0,RTL,-0.009015779787053665,-0.004058649064972997,1.6773938337961833,0.0807479868332545,-0.0015521661844104528,-0.0021001603454351425,-35.3633126,149.1658118,102221.33333333333,0.3333333333333333,1.0,2.3333333333333335,-0.3333333333333333,16.0,-990.3333333333334,84.0,3.0,2.0
06:22:55,200.0,RTL,-0.0009666252105186383,-0.005781158339232206,1.6772985458374023,-0.10727580388387044,0.0005677524022758007,-0.0013477840305616458,-35.3633122,149.1658118,102202.33333333333,0.0,1.6666666666666667,-7.0,-0.6666666666666666,0.0,-1034.0,-103.66666666666667,5.0,2.3333333333333335
06:22:56,200.0,RTL,0.0006609862127030889,-0.0050434220271805925,1.6778229872385662,-0.1721010704835256,0.0007322632397214571,-0.001579853395620982,-35.36331193333333,149.1658118,102357.33333333333,-3.0,2.0,-34.0,-0.3333333333333333,-9.0,-1038.6666666666667,-169.33333333333334,4.666666666666667,2.0
06:22:58,200.0,RTL,0.0037791007277216218,-0.0038570352674772343,1.6780250072479248,0.03988213092088699,-0.0007130959226439396,-0.0017052389836559694,-35.363311566666674,149.1658119,103325.0,-7.0,0.3333333333333333,-29.333333333333332,-0.3333333333333333,7.0,-952.0,43.666666666666664,3.6666666666666665,2.3333333333333335
