time_stamp,MODE,lat,lon,relative_alt,roll,pitch,yaw,rollspeed,pitchspeed,yawspeed,xacc,yacc,zacc,xgyro,ygyro,zgyro,vx,vy,vz,RTL_ALT
11:02:01.551,STABILIZE,-35.3632622,149.1652375,37,-0.00032845279201865196,0.0013025469379499555,0.027431881055235863,0.00014335603918880224,0.00028888185624964535,0.0021144645288586617,0,1,-1000,0,0,0,-2,2,0,1500.0
11:02:01.752,STABILIZE,-35.3632622,149.1652375,37,-0.00032845279201865196,0.0013025469379499555,0.027431881055235863,0.00014335603918880224,0.00028888185624964535,0.0021144645288586617,0,1,-1000,0,0,0,-2,2,0,1500.0
11:02:01.953,STABILIZE,-35.3632622,149.1652375,26,-0.00032845279201865196,0.0013025469379499555,0.027431881055235863,0.00014335603918880224,0.00028888185624964535,0.0021144645288586617,0,1,-1000,0,0,0,-1,1,0,1500.0
11:02:02.155,STABILIZE,-35.3632622,149.1652375,26,-0.00032845279201865196,0.0013025469379499555,0.027431881055235863,0.00014335603918880224,0.00028888185624964535,0.0021144645288586617,0,1,-1000,0,0,0,-1,1,0,1500.0
11:02:02.357,STABILIZE,-35.3632622,149.1652375,25,-0.0006048530922271311,0.0011583635350689292,0.027027813717722893,0.00030069862259551883,0.0002803643001243472,0.002158846938982606,0,1,-1000,0,0,0,-1,1,0,1500.0
11:02:02.559,STABILIZE,-35.3632622,149.1652375,25,-0.0006048530922271311,0.0011583635350689292,0.027027813717722893,0.00030069862259551883,0.0002803643001243472,0.002158846938982606,0,1,-1000,0,0,0,-1,1,0,1500.0
11:02:02.760,STABILIZE,-35.3632622,149.1652375,22,-0.0007364978664554656,0.0010852435370907187,0.026784095913171768,0.00020162103464826941,0.0003033965767826885,0.0021624243818223476,0,1,-1000,0,0,0,-1,1,0,1500.0
11:02:02.962,STABILIZE,-35.3632622,149.1652375,21,-0.0008041965193115175,0.0010562075767666101,0.026674088090658188,5.257281009107828e-05,0.000276867242064327,0.0021296010818332434,0,1,-1000,0,0,0,-1,1,0,1500.0
11:02:03.165,STABILIZE,-35.3632622,149.1652375,21,-0.0008041965193115175,0.0010562075767666101,0.026674088090658188,5.257281009107828e-05,0.000276867242064327,0.0021296010818332434,0,1,-1000,0,0,0,-1,1,0,1500.0
11:02:03.366,STABILIZE,-35.3632622,149.1652375,21,-0.0008601134759373963,0.0010310410289093852,0.026541387662291527,0.0002072176430374384,0.000228249526116997,0.0021078891586512327,0,1,-1000,0,0,0,-1,1,0,1500.0
11:02:03.568,STABILIZE,-35.3632622,149.1652375,21,-0.0008601134759373963,0.0010310410289093852,0.026541387662291527,0.0002072176430374384,0.000228249526116997,0.0021078891586512327,0,1,-1000,0,0,0,-1,1,0,1500.0
11:02:03.770,STABILIZE,-35.3632622,149.1652375,21,-0.0008601134759373963,0.0010310410289093852,0.026541387662291527,0.0002072176430374384,0.000228249526116997,0.0021078891586512327,0,1,-1000,0,0,0,-1,1,0,1500.0
11:02:03.971,STABILIZE,-35.3632621,149.1652375,14,-0.0008076302474364638,0.0009867423214018345,0.02624065987765789,0.00010004808427765965,0.00017299209139309824,0.0021576215513050556,0,1,-1000,0,0,0,-1,2,2,1500.0
11:02:04.173,STABILIZE,-35.3632621,149.1652375,11,-0.0008677806472405791,0.0009732405887916684,0.026135766878724098,0.00021393026690930128,0.0002573041128925979,0.00199835654348135,0,1,-1000,0,0,0,-1,1,2,1500.0
11:02:04.374,STABILIZE,-35.3632621,149.1652375,11,-0.0008677806472405791,0.0009732405887916684,0.026135766878724098,0.00021393026690930128,0.0002573041128925979,0.00199835654348135,0,1,-1000,0,0,0,-1,1,2,1500.0
11:02:04.576,STABILIZE,-35.3632621,149.1652375,11,-0.0008677806472405791,0.0009732405887916684,0.026135766878724098,0.00021393026690930128,0.0002573041128925979,0.00199835654348135,0,1,-1000,0,0,0,-1,1,2,1500.0
11:02:04.778,STABILIZE,-35.3632621,149.1652375,7,-0.0008677806472405791,0.0009732405887916684,0.026135766878724098,0.00021393026690930128,0.0002573041128925979,0.00199835654348135,0,1,-1000,0,0,0,-1,1,2,1500.0
11:02:04.979,STABILIZE,-35.3632621,149.1652375,6,-0.0010189235908910632,0.0009637688053771853,0.025853144004940987,0.00020541076082736254,0.000255656341323629,0.002039078390225768,0,1,-1000,0,0,0,-1,1,2,1500.0
11:02:05.181,STABILIZE,-35.3632621,149.1652375,6,-0.0010189235908910632,0.0009637688053771853,0.025853144004940987,0.00020541076082736254,0.000255656341323629,0.002039078390225768,0,1,-1000,0,0,0,-1,1,2,1500.0
11:02:05.383,STABILIZE,-35.3632621,149.1652375,6,-0.0010189235908910632,0.0009637688053771853,0.025853144004940987,0.00020541076082736254,0.000255656341323629,0.002039078390225768,0,1,-1000,0,0,0,-1,1,2,1500.0
11:02:05.584,STABILIZE,-35.3632621,149.1652375,6,-0.0010189235908910632,0.0009637688053771853,0.025853144004940987,0.00020541076082736254,0.000255656341323629,0.002039078390225768,0,1,-1000,0,0,0,-1,1,2,1500.0
11:02:05.786,STABILIZE,-35.3632621,149.1652375,6,-0.0010189235908910632,0.0009637688053771853,0.025853144004940987,0.00020541076082736254,0.000255656341323629,0.002039078390225768,0,1,-1000,0,0,0,-1,1,2,1500.0
11:02:05.988,STABILIZE,-35.3632621,149.1652375,6,-0.0010189235908910632,0.0009637688053771853,0.025853144004940987,0.00020541076082736254,0.000255656341323629,0.002039078390225768,0,1,-1000,0,0,0,-1,1,2,1500.0
11:02:06.190,STABILIZE,-35.3632621,149.1652375,2,-0.0011716163717210293,0.000938353652600199,0.02544352412223816,0.00015906471526250243,0.00017061689868569374,0.0018349230522289872,0,1,-1000,0,0,0,-1,0,1,1500.0
11:02:06.391,STABILIZE,-35.3632621,149.1652375,2,-0.0011716163717210293,0.000938353652600199,0.02544352412223816,0.00015906471526250243,0.00017061689868569374,0.0018349230522289872,0,1,-1000,0,0,0,-1,0,1,1500.0
11:02:06.592,STABILIZE,-35.3632621,149.1652375,2,-0.0011716163717210293,0.000938353652600199,0.02544352412223816,0.00015906471526250243,0.00017061689868569374,0.0018349230522289872,0,1,-1000,0,0,0,-1,0,1,1500.0
11:02:06.794,STABILIZE,-35.3632621,149.1652375,1,-0.0011958798859268427,0.0009399832342751324,0.02527177706360817,0.0003018517163582146,0.00021520780865103006,0.0019351192750036716,0,2,-1000,0,0,0,-1,0,1,1500.0
11:02:06.995,STABILIZE,-35.3632621,149.1652375,1,-0.0011977211106568575,0.0009435309330001473,0.025220518931746483,0.00014981767162680626,0.0003214196767657995,0.0019825368653982878,0,1,-1000,1,0,0,-1,0,1,1500.0
11:02:07.197,STABILIZE,-35.3632621,149.1652375,1,-0.001039185794070363,0.0009373978246003389,0.025124194100499153,0.009203451685607433,0.00034258735831826925,0.0018183382926508784,0,-1,-1005,9,0,0,-1,0,0,1500.0
11:02:07.399,STABILIZE,-35.3632621,149.1652375,1,-0.001039185794070363,0.0009373978246003389,0.025124194100499153,0.009203451685607433,0.00034258735831826925,0.0018183382926508784,0,-1,-1005,9,0,0,-1,0,0,1500.0
11:02:07.601,STABILIZE,-35.3632621,149.1652375,1,-0.001039185794070363,0.0009373978246003389,0.025124194100499153,0.009203451685607433,0.00034258735831826925,0.0018183382926508784,0,-1,-1005,9,0,0,-1,0,0,1500.0
11:02:07.803,STABILIZE,-35.3632621,149.1652375,1,-0.001039185794070363,0.0009373978246003389,0.025124194100499153,0.009203451685607433,0.00034258735831826925,0.0018183382926508784,0,-1,-1005,9,0,0,-1,0,0,1500.0
11:02:08.004,STABILIZE,-35.3632621,149.1652375,1,-0.001039185794070363,0.0009373978246003389,0.025124194100499153,0.009203451685607433,0.00034258735831826925,0.0018183382926508784,0,-1,-1005,9,0,0,-1,0,0,1500.0
11:02:08.206,STABILIZE,-35.3632621,149.1652375,1,-0.0009445976465940475,0.0009492492536082864,0.024799685925245285,0.00023025489645078778,0.0002995691611431539,0.0018383371643722057,0,-1,-1005,9,0,0,-1,0,0,1500.0
11:02:08.408,STABILIZE,-35.3632621,149.1652375,1,-0.0009445976465940475,0.0009492492536082864,0.024799685925245285,0.00023025489645078778,0.0002995691611431539,0.0018383371643722057,0,-1,-1005,9,0,0,-1,0,0,1500.0
11:02:08.609,STABILIZE,-35.3632621,149.1652375,10,-0.0009209797135554254,0.000953610404394567,0.024732833728194237,0.0003076843568123877,0.000234667444601655,0.0018139545572921634,0,1,-1000,0,0,0,-1,0,0,1500.0
11:02:08.811,STABILIZE,-35.3632621,149.1652375,11,-0.0008901278488337994,0.000957739888690412,0.024659069254994392,0.0003782562562264502,0.00024448579642921686,0.0018447869224473834,0,1,-1000,0,0,0,-1,0,0,1500.0
11:02:09.012,STABILIZE,-35.3632621,149.1652375,11,-0.0008901278488337994,0.000957739888690412,0.024659069254994392,0.0003782562562264502,0.00024448579642921686,0.0018447869224473834,0,1,-1000,0,0,0,-1,0,0,1500.0
11:02:09.214,STABILIZE,-35.3632621,149.1652375,12,-0.0008691110997460783,0.0009645175305195153,0.02447384223341942,0.00018606154480949044,0.00026148761389777064,0.0017241262830793858,0,1,-1000,0,0,0,-1,0,0,1500.0
11:02:09.415,STABILIZE,-35.3632621,149.1652375,12,-0.0008691110997460783,0.0009645175305195153,0.02447384223341942,0.00018606154480949044,0.00026148761389777064,0.0017241262830793858,0,1,-1000,0,0,0,-1,0,0,1500.0
11:02:09.630,STABILIZE,-35.3632621,149.1652375,12,-0.0008691110997460783,0.0009645175305195153,0.02447384223341942,0.00018606154480949044,0.00026148761389777064,0.0017241262830793858,0,1,-1000,0,0,0,-1,0,0,1500.0
11:02:09.832,STABILIZE,-35.3632621,149.1652375,12,-0.0008691110997460783,0.0009645175305195153,0.02447384223341942,0.00018606154480949044,0.00026148761389777064,0.0017241262830793858,0,1,-1000,0,0,0,-1,0,0,1500.0
11:02:10.034,STABILIZE,-35.3632621,149.1652375,12,-0.0008691110997460783,0.0009645175305195153,0.02447384223341942,0.00018606154480949044,0.00026148761389777064,0.0017241262830793858,0,1,-1000,0,0,0,-1,0,0,1500.0
11:02:10.235,STABILIZE,-35.3632621,149.1652375,12,-0.0008508475730195642,0.000967184198088944,0.024155912920832634,0.0001925617689266801,0.00023774593137204647,0.0017795275198295712,0,1,-1000,0,0,0,-1,0,0,1500.0
11:02:10.437,STABILIZE,-35.3632622,149.1652375,15,-0.0008566484902985394,0.0009694495820440352,0.024065479636192322,0.0003083880292251706,0.0001725875772535801,0.0016843732446432114,0,2,-1000,0,0,0,-1,1,0,1500.0
11:02:10.639,STABILIZE,-35.3632622,149.1652375,15,-0.0008566484902985394,0.0009694495820440352,0.024065479636192322,0.0003083880292251706,0.0001725875772535801,0.0016843732446432114,0,2,-1000,0,0,0,-1,1,0,1500.0
11:02:10.840,STABILIZE,-35.3632622,149.1652375,15,-0.0008566484902985394,0.0009694495820440352,0.024065479636192322,0.0003083880292251706,0.0001725875772535801,0.0016843732446432114,0,2,-1000,0,0,0,-1,1,0,1500.0
11:02:11.041,STABILIZE,-35.3632622,149.1652375,12,-0.0005586590268649161,0.000978627591393888,0.023891329765319824,0.0003710762830451131,0.00025558011839166284,0.0016588300932198763,0,2,-1000,0,0,0,-1,2,1,1500.0
11:02:11.243,STABILIZE,-35.3632622,149.1652375,12,-0.0005586590268649161,0.000978627591393888,0.023891329765319824,0.0003710762830451131,0.00025558011839166284,0.0016588300932198763,0,2,-1000,0,0,0,-1,2,1,1500.0
11:02:11.444,STABILIZE,-35.3632622,149.1652375,12,-0.0005586590268649161,0.000978627591393888,0.023891329765319824,0.0003710762830451131,0.00025558011839166284,0.0016588300932198763,0,2,-1000,0,0,0,-1,2,1,1500.0
11:02:11.646,STABILIZE,-35.3632622,149.1652375,12,-0.0005586590268649161,0.000978627591393888,0.023891329765319824,0.0003710762830451131,0.00025558011839166284,0.0016588300932198763,0,2,-1000,0,0,0,-1,2,1,1500.0
11:02:11.847,STABILIZE,-35.3632622,149.1652375,12,-0.0005586590268649161,0.000978627591393888,0.023891329765319824,0.0003710762830451131,0.00025558011839166284,0.0016588300932198763,0,2,-1000,0,0,0,-1,2,1,1500.0
11:02:12.049,STABILIZE,-35.3632622,149.1652375,12,-0.0005586590268649161,0.000978627591393888,0.023891329765319824,0.0003710762830451131,0.00025558011839166284,0.0016588300932198763,0,2,-1000,0,0,0,-1,2,1,1500.0
11:02:12.250,STABILIZE,-35.3632622,149.1652375,12,-0.0007521566585637629,0.0009699430665932596,0.02345861680805683,0.0002563141752034426,0.0002495228545740247,0.0017010935116559267,0,2,-1000,0,0,0,-1,2,1,1500.0
11:02:12.452,STABILIZE,-35.3632622,149.1652375,12,-0.0007521566585637629,0.0009699430665932596,0.02345861680805683,0.0002563141752034426,0.0002495228545740247,0.0017010935116559267,0,2,-1000,0,0,0,-1,2,1,1500.0
11:02:12.653,STABILIZE,-35.3632622,149.1652375,12,-0.0007521566585637629,0.0009699430665932596,0.02345861680805683,0.0002563141752034426,0.0002495228545740247,0.0017010935116559267,0,2,-1000,0,0,0,-1,2,1,1500.0
11:02:12.855,STABILIZE,-35.3632622,149.1652375,8,-0.0008230664534494281,0.0009735492640174925,0.02330748364329338,0.00021588255185633898,0.0002525649615563452,0.0016871914267539978,0,2,-1000,0,1,0,-1,1,0,1500.0
11:02:13.057,STABILIZE,-35.3632622,149.1652375,8,-0.0008230664534494281,0.0009735492640174925,0.02330748364329338,0.00021588255185633898,0.0002525649615563452,0.0016871914267539978,0,2,-1000,0,1,0,-1,1,0,1500.0
11:02:13.259,STABILIZE,-35.3632622,149.1652375,8,-0.0008230664534494281,0.0009735492640174925,0.02330748364329338,0.00021588255185633898,0.0002525649615563452,0.0016871914267539978,0,1,-1000,0,1,0,-1,1,0,1500.0
11:02:13.460,STABILIZE,-35.3632622,149.1652375,8,-0.0008230664534494281,0.0009735492640174925,0.02330748364329338,0.00021588255185633898,0.0002525649615563452,0.0016871914267539978,0,1,-1000,0,1,0,-1,1,0,1500.0
11:02:13.662,STABILIZE,-35.3632622,149.1652375,8,-0.0008230664534494281,0.0009735492640174925,0.02330748364329338,0.00021588255185633898,0.0002525649615563452,0.0016871914267539978,0,1,-1000,0,1,0,-1,1,0,1500.0
11:02:13.865,STABILIZE,-35.3632622,149.1652375,8,-0.0008230664534494281,0.0009735492640174925,0.02330748364329338,0.00021588255185633898,0.0002525649615563452,0.0016871914267539978,0,1,-1000,0,1,0,-1,1,0,1500.0
11:02:14.067,STABILIZE,-35.3632622,149.1652375,8,-0.000976360053755343,0.0009876707335934043,0.02294463850557804,0.0001456413883715868,0.00015148892998695374,0.0016811653040349483,0,2,-1000,0,1,0,-1,1,0,1500.0
11:02:14.268,STABILIZE,-35.3632622,149.1652375,8,-0.000976360053755343,0.0009876707335934043,0.02294463850557804,0.0001456413883715868,0.00015148892998695374,0.0016811653040349483,0,2,-1000,0,1,0,-1,1,0,1500.0
11:02:14.470,STABILIZE,-35.3632622,149.1652375,4,-0.000976360053755343,0.0009876707335934043,0.02294463850557804,0.0001456413883715868,0.00015148892998695374,0.0016811653040349483,0,2,-1000,0,0,0,-1,2,1,1500.0
11:02:14.671,STABILIZE,-35.3632622,149.1652375,4,-0.000976360053755343,0.0009876707335934043,0.02294463850557804,0.0001456413883715868,0.00015148892998695374,0.0016811653040349483,0,2,-1000,0,0,0,-1,2,1,1500.0
11:02:14.875,STABILIZE,-35.3632622,149.1652375,3,-0.0009356671362183988,0.0009856026154011488,0.02275441586971283,0.0002962950966320932,0.00023798889014869928,0.0015358550008386374,0,1,-1000,0,0,1,-1,2,1,1500.0
11:02:15.076,STABILIZE,-35.3632622,149.1652375,3,-0.0009356671362183988,0.0009856026154011488,0.02275441586971283,0.0002962950966320932,0.00023798889014869928,0.0015358550008386374,0,1,-1000,0,0,1,-1,2,1,1500.0
11:02:15.278,STABILIZE,-35.3632622,149.1652375,3,-0.0010269286576658487,0.0009901158045977354,0.022631118074059486,0.0001928743440657854,0.00030850147595629096,0.0014680202584713697,0,1,-1000,0,0,1,-1,2,1,1500.0
11:02:15.480,STABILIZE,-35.3632622,149.1652375,3,-0.0010269286576658487,0.0009901158045977354,0.022631118074059486,0.0001928743440657854,0.00030850147595629096,0.0014680202584713697,0,1,-1000,0,0,1,-1,2,1,1500.0
11:02:15.681,STABILIZE,-35.3632622,149.1652375,3,-0.0010269286576658487,0.0009901158045977354,0.022631118074059486,0.0001928743440657854,0.00030850147595629096,0.0014680202584713697,0,1,-1000,0,0,1,-1,2,1,1500.0
11:02:15.883,STABILIZE,-35.3632622,149.1652375,3,-0.0010269286576658487,0.0009901158045977354,0.022631118074059486,0.0001928743440657854,0.00030850147595629096,0.0014680202584713697,0,1,-1000,0,0,1,-1,2,1,1500.0
11:02:16.084,STABILIZE,-35.3632622,149.1652375,1,-0.0011310346890240908,0.0009998161112889647,0.02247927337884903,0.00022704602451995015,0.0002300216001458466,0.0015251627191901207,0,1,-1000,1,1,0,-1,1,1,1500.0
11:02:16.286,STABILIZE,-35.3632622,149.1652375,1,-0.0011310346890240908,0.0009998161112889647,0.02247927337884903,0.00022704602451995015,0.0002300216001458466,0.0015251627191901207,0,1,-1000,1,0,0,-1,1,1,1500.0
11:02:16.488,AUTO,-35.3632622,149.1652375,1,-0.0011836783960461617,0.001000471180304885,0.022359365597367287,0.0002765377867035568,0.00018905557226389647,0.0014628563076257706,0,1,-1000,0,1,1,-1,1,0,1500.0
11:02:16.695,AUTO,-35.3632622,149.1652375,1,-0.0012045701732859015,0.0010038584005087614,0.022323407232761383,0.00023502670228481293,0.0003134431899525225,0.0015467351768165827,0,1,-1000,1,0,0,-1,1,0,113529.0
11:02:16.897,AUTO,-35.3632622,149.1652375,1,-0.0012045701732859015,0.0010038584005087614,0.022323407232761383,0.00023502670228481293,0.0003134431899525225,0.0015467351768165827,0,1,-1000,1,0,0,-1,1,0,113529.0
11:02:17.098,AUTO,-35.3632622,149.1652375,1,-0.0012156687444075942,0.0010112557793036103,0.022281697019934654,0.00022115290630608797,0.00021355238277465105,0.0014609836507588625,0,1,-1000,0,1,0,-1,1,0,113529.0
11:02:17.300,AUTO,-35.3632622,149.1652375,0,-0.0012307349825277925,0.0010184954153373837,0.022228021174669266,0.00033313914900645614,0.00023743283236399293,0.001368959085084498,0,2,-1000,0,1,0,-1,0,0,113529.0
11:02:17.502,AUTO,-35.3632622,149.1652375,0,-0.0012307349825277925,0.0010184954153373837,0.022228021174669266,0.00033313914900645614,0.00023743283236399293,0.001368959085084498,0,2,-1000,0,1,0,-1,0,0,113529.0
11:02:17.704,AUTO,-35.3632622,149.1652375,0,-0.0012307349825277925,0.0010184954153373837,0.022228021174669266,0.00033313914900645614,0.00023743283236399293,0.001368959085084498,0,2,-1000,0,1,0,-1,0,0,113529.0
11:02:17.905,AUTO,-35.3632622,149.1652375,0,-0.0012307349825277925,0.0010184954153373837,0.022228021174669266,0.00033313914900645614,0.00023743283236399293,0.001368959085084498,0,2,-1000,0,1,0,-1,0,0,113529.0
11:02:18.106,AUTO,-35.3632621,149.1652375,0,-0.001010371372103691,0.0011103142751380801,0.02209422178566456,0.00023288303054869175,0.0002793463063426316,0.001430134172551334,0,1,-1000,1,0,0,0,0,0,113529.0
11:02:18.307,AUTO,-35.3632621,149.1652375,1,-0.0009689540020190179,0.001168541144579649,0.022043608129024506,0.00026581226848065853,0.0003118374152109027,0.0015614929143339396,0,2,-1000,0,1,0,0,0,0,113529.0
11:02:18.509,AUTO,-35.3632621,149.1652375,1,-0.0009352932684123516,0.0012304519768804312,0.022001732140779495,0.0001578782103024423,0.00024706311523914337,0.001350231235846877,0,2,-1000,0,1,1,0,0,0,113529.0
11:02:18.710,AUTO,-35.3632621,149.1652375,1,-0.0008911981130950153,0.0012987806694582105,0.02195131778717041,0.00021790090249851346,0.0002461551921442151,0.001442548120394349,0,1,-1000,1,1,1,0,0,0,113529.0
11:02:18.912,AUTO,-35.3632621,149.1652375,1,-0.0008911981130950153,0.0012987806694582105,0.02195131778717041,0.00021790090249851346,0.0002461551921442151,0.001442548120394349,0,1,-1000,1,1,1,0,0,0,113529.0
11:02:19.114,AUTO,-35.3632621,149.1652375,2,-0.0008410189184360206,0.001367167686112225,0.021895447745919228,0.0002369901048950851,0.000401066557969898,0.001445578527636826,0,1,-1000,0,0,1,0,0,0,113529.0
11:02:19.316,AUTO,-35.3632621,149.1652375,2,-0.0007895848248153925,0.001434384728781879,0.021847816184163094,0.0002890230971388519,0.0002044376451522112,0.001411250326782465,0,2,-1000,1,1,0,0,0,0,113529.0
11:02:19.517,AUTO,-35.3632621,149.1652375,2,-0.0007895848248153925,0.001434384728781879,0.021847816184163094,0.0002890230971388519,0.0002044376451522112,0.001411250326782465,0,2,-1000,1,1,0,0,0,0,152510.0
11:02:19.719,AUTO,-35.3632621,149.1652375,2,-0.0007895848248153925,0.001434384728781879,0.021847816184163094,0.0002890230971388519,0.0002044376451522112,0.001411250326782465,0,2,-1000,1,1,0,0,0,0,152510.0
11:02:19.921,AUTO,-35.3632621,149.1652375,2,-0.0007895848248153925,0.001434384728781879,0.021847816184163094,0.0002890230971388519,0.0002044376451522112,0.001411250326782465,0,2,-1000,1,1,0,0,0,0,152510.0
11:02:20.123,AUTO,-35.3632621,149.1652375,3,-0.0006042714812792838,0.0016514190938323736,0.021678917109966278,0.0003276191418990493,0.00022618199000135064,0.0014498846139758825,0,2,-1000,0,1,0,0,0,0,152510.0
11:02:20.325,AUTO,-35.3632621,149.1652375,4,-0.0005339505732990801,0.0017273969715461135,0.021610209718346596,0.00037916318979114294,0.0003567999810911715,0.0013065605890005827,0,1,-1000,0,1,1,0,0,0,152510.0
11:02:20.526,AUTO,-35.3632621,149.1652375,6,0.000609035836532712,0.0011183118913322687,0.021613547578454018,0.00904420018196106,-0.009578072465956211,0.0023022794630378485,0,0,-1088,9,-9,1,0,0,-5,152510.0
11:02:20.728,AUTO,-35.3632621,149.1652375,63,0.0033748906571418047,-0.0005780381034128368,0.02161414362490177,0.008989374153316021,-0.0005132596706971526,0.0006021008011884987,0,0,-1141,9,0,0,0,0,-39,152510.0
11:02:20.930,AUTO,-35.3632621,149.1652375,204,0.002638088306412101,0.00021903328888583928,0.021591313183307648,-0.006534273736178875,0.004411375615745783,0.0023988529574126005,0,0,-1129,-6,4,1,0,0,-72,152510.0
11:02:21.132,AUTO,-35.3632621,149.1652375,204,0.002638088306412101,0.00021903328888583928,0.021591313183307648,-0.006534273736178875,0.004411375615745783,0.0023988529574126005,0,0,-1129,-6,4,1,0,0,-72,152510.0
11:02:21.334,AUTO,-35.3632621,149.1652375,421,0.0014884107513353229,0.0011291117407381535,0.021507134661078453,-0.005630187690258026,0.0028697738889604807,0.0020634285174310207,0,0,-1108,-4,3,1,0,1,-101,152510.0
11:02:21.536,AUTO,-35.3632621,149.1652375,421,0.0014884107513353229,0.0011291117407381535,0.021507134661078453,-0.005630187690258026,0.0028697738889604807,0.0020634285174310207,0,0,-1108,-4,3,1,0,1,-101,152510.0
11:02:21.737,AUTO,-35.3632621,149.1652375,421,0.0014884107513353229,0.0011291117407381535,0.021507134661078453,-0.005630187690258026,0.0028697738889604807,0.0020634285174310207,0,0,-1108,-4,3,1,0,1,-101,152510.0
11:02:21.939,AUTO,-35.363262,149.1652375,1405,0.02248440869152546,-0.000719686271622777,0.021147312596440315,0.0465732216835022,-0.006926192902028561,0.0021384158171713352,0,0,-1017,47,-6,1,0,5,-145,152510.0
11:02:22.141,AUTO,-35.363262,149.1652375,1405,0.02248440869152546,-0.000719686271622777,0.021147312596440315,0.0465732216835022,-0.006926192902028561,0.0021384158171713352,0,0,-1017,47,-6,1,0,5,-145,152510.0
11:02:22.342,AUTO,-35.363262,149.1652377,1785,0.0339198112487793,-0.002675193827599287,0.02126862294971943,0.04496810957789421,-0.008077528327703476,0.002737505827099085,0,-1,-1007,45,-7,2,1,11,-148,152510.0
11:02:22.544,AUTO,-35.3632619,149.1652381,2169,0.04474794864654541,-0.004920810926705599,0.021474318578839302,0.04229872673749924,-0.009851435199379921,0.0031630811281502247,0,-3,-1002,42,-8,2,3,20,-148,103767.0
11:02:22.745,AUTO,-35.3632618,149.1652388,2555,0.05491858720779419,-0.007592139765620232,0.021757110953330994,0.039043545722961426,-0.010837920941412449,0.003848742926493287,1,-4,-1000,39,-9,3,5,31,-149,103767.0
11:02:22.947,AUTO,-35.3632616,149.1652398,2940,0.0619218610227108,-0.009068168699741364,-0.007661972660571337,-0.01461795624345541,0.022168252617120743,-0.04537152126431465,1,-9,-991,-13,22,-45,8,43,-148,103767.0
11:02:23.149,AUTO,-35.3632616,149.1652398,2940,0.0619218610227108,-0.009068168699741364,-0.007661972660571337,-0.01461795624345541,0.022168252617120743,-0.04537152126431465,1,-9,-991,-13,22,-45,8,43,-148,103767.0
11:02:23.350,AUTO,-35.3632614,149.1652411,3319,0.04070831462740898,0.012930027209222317,-0.029812920838594437,-0.14539088308811188,0.09594179689884186,-0.1007041484117508,3,-11,-990,-144,96,-101,9,53,-145,103767.0
11:02:23.552,AUTO,-35.3632614,149.1652411,3319,0.04070831462740898,0.012930027209222317,-0.029812920838594437,-0.14539088308811188,0.09594179689884186,-0.1007041484117508,3,-11,-990,-144,96,-101,9,53,-145,103767.0
11:02:23.754,AUTO,-35.3632614,149.1652411,3319,0.04070831462740898,0.012930027209222317,-0.029812920838594437,-0.14539088308811188,0.09594179689884186,-0.1007041484117508,3,-11,-990,-144,96,-101,9,53,-145,103767.0
11:02:23.956,AUTO,-35.363261,149.165245,4457,-0.03564700111746788,0.02374836429953575,-0.0850864127278328,-0.02686379849910736,-0.008375787176191807,-0.058198168873786926,6,-7,-1005,-26,-7,-58,-2,36,-149,103767.0
11:02:24.158,AUTO,-35.363261,149.165245,4457,-0.03564700111746788,0.02374836429953575,-0.0850864127278328,-0.02686379849910736,-0.008375787176191807,-0.058198168873786926,6,-7,-1005,-26,-7,-58,-2,36,-149,103767.0
11:02:24.360,AUTO,-35.363261,149.1652458,4847,-0.04673048108816147,0.015350020490586758,-0.09248904883861542,-0.05659060925245285,-0.05456307530403137,-0.008136800490319729,4,-7,-1000,-56,-53,-8,-6,24,-149,103767.0
11:02:24.562,AUTO,-35.3632611,149.1652463,5231,-0.06420734524726868,-0.0014435723423957825,-0.08842168748378754,-0.07513278722763062,-0.07247362285852432,0.02737097442150116,3,-2,-999,-74,-71,27,-7,9,-149,103767.0
11:02:24.764,AUTO,-35.3632612,149.1652463,5615,-0.07565707713365555,-0.014666135422885418,-0.08263351768255234,0.0012508775107562542,-0.021612001582980156,0.005240878090262413,1,0,-1004,2,-21,4,-5,-8,-149,103767.0
11:02:24.966,AUTO,-35.3632613,149.1652458,6000,-0.06808345764875412,-0.015462564304471016,-0.08289223164319992,0.04497623071074486,0.001270938548259437,0.0008994430536404252,0,2,-1002,45,2,0,-2,-26,-149,103767.0
11:02:25.169,AUTO,-35.3632613,149.1652458,6000,-0.06808345764875412,-0.015462564304471016,-0.08289223164319992,0.04497623071074486,0.001270938548259437,0.0008994430536404252,0,2,-1002,45,2,0,-2,-26,-149,103767.0
11:02:25.371,AUTO,-35.3632614,149.165245,6384,-0.05507507920265198,-0.014993714168667793,-0.08360065519809723,0.0561487041413784,0.0022099448833614588,0.0025563223753124475,-4,8,-1001,56,2,2,0,-41,-149,103767.0
11:02:25.572,AUTO,-35.3632614,149.165245,6384,-0.05507507920265198,-0.014993714168667793,-0.08360065519809723,0.0561487041413784,0.0022099448833614588,0.0025563223753124475,-4,8,-1001,56,2,2,0,-41,-149,228477.0
11:02:25.774,AUTO,-35.3632614,149.165245,6384,-0.05507507920265198,-0.014993714168667793,-0.08360065519809723,0.0561487041413784,0.0022099448833614588,0.0025563223753124475,-4,8,-1001,56,2,2,0,-41,-149,228477.0
11:02:25.976,AUTO,-35.3632614,149.1652406,7535,-0.009183193556964397,-0.007503993809223175,-0.08414264023303986,0.06529991328716278,0.015292605385184288,0.004049533046782017,-7,6,-1002,66,15,3,2,-60,-150,228477.0
11:02:26.178,AUTO,-35.3632614,149.1652389,7922,0.0070247771218419075,-0.0034083363134413958,-0.08350952714681625,0.06415446102619171,0.016646884381771088,0.004550513811409473,-8,13,-1004,64,17,4,2,-57,-151,228477.0
11:02:26.380,AUTO,-35.3632614,149.1652389,7922,0.0070247771218419075,-0.0034083363134413958,-0.08350952714681625,0.06415446102619171,0.016646884381771088,0.004550513811409473,-8,13,-1004,64,17,4,2,-57,-151,228477.0
11:02:26.582,AUTO,-35.3632614,149.1652374,8313,0.023055387660861015,0.0006546198856085539,-0.08260093629360199,0.06317184120416641,0.015904897823929787,0.004734626039862633,-7,10,-1004,63,16,4,1,-51,-152,228477.0
11:02:26.783,AUTO,-35.3632614,149.165236,8705,0.038887567818164825,0.004247004631906748,-0.08155634999275208,0.06274262815713882,0.013178545981645584,0.004678785800933838,-6,9,-1003,63,13,4,0,-42,-153,228477.0
11:02:26.985,AUTO,-35.3632614,149.165235,9099,0.053890880197286606,0.0071448334492743015,-0.08084455132484436,0.052169352769851685,0.013769849203526974,-0.004588030278682709,-5,5,-1001,52,14,-5,-1,-29,-153,228477.0
11:02:27.187,AUTO,-35.3632614,149.1652343,9496,0.06132983788847923,0.015466807410120964,-0.08646771311759949,0.012586243450641632,0.047067806124687195,-0.038825247436761856,-3,6,-998,13,47,-38,-3,-14,-153,228477.0
11:02:27.389,AUTO,-35.3632614,149.1652343,9496,0.06132983788847923,0.015466807410120964,-0.08646771311759949,0.012586243450641632,0.047067806124687195,-0.038825247436761856,-3,6,-998,13,47,-38,-3,-14,-153,228477.0
11:02:27.591,AUTO,-35.3632614,149.1652343,9496,0.06132983788847923,0.015466807410120964,-0.08646771311759949,0.012586243450641632,0.047067806124687195,-0.038825247436761856,-3,6,-998,13,47,-38,-3,-14,-153,228477.0
11:02:27.793,AUTO,-35.3632614,149.1652343,9496,0.06132983788847923,0.015466807410120964,-0.08646771311759949,0.012586243450641632,0.047067806124687195,-0.038825247436761856,-3,6,-998,13,47,-38,-3,-14,-153,228477.0
11:02:27.995,AUTO,-35.3632619,149.1652346,10652,0.022848956286907196,0.009372671134769917,-0.09369716048240662,-0.07607709616422653,-0.03693322092294693,0.012070722877979279,3,0,-999,-75,-36,12,-11,19,-149,228477.0
11:02:28.197,AUTO,-35.3632621,149.165235,11034,0.005926413927227259,0.00151188881136477,-0.09213147312402725,-0.06083862483501434,-0.025886839255690575,0.00620206817984581,5,-2,-1001,-60,-25,6,-11,22,-149,228477.0
11:02:28.398,AUTO,-35.3632621,149.165235,11034,0.005926413927227259,0.00151188881136477,-0.09213147312402725,-0.06083862483501434,-0.025886839255690575,0.00620206817984581,5,-2,-1001,-60,-25,6,-11,22,-149,228477.0
11:02:28.600,AUTO,-35.3632623,149.1652356,11418,-0.006017307285219431,-0.0035925053525716066,-0.09214075654745102,-0.03421980142593384,-0.01620193012058735,-0.0024436768144369125,4,-3,-1003,-33,-15,-2,-9,20,-150,7057.0
11:02:28.802,AUTO,-35.3632625,149.1652361,11803,-0.012336133979260921,-0.0065717692486941814,-0.0940098688006401,-0.018211741000413895,-0.0088788578286767,-0.00980380829423666,3,-2,-1003,-17,-8,-10,-6,16,-151,7057.0
11:02:29.003,AUTO,-35.3632626,149.1652364,12191,-0.015474429354071617,-0.007871114648878574,-0.0977332592010498,-0.004331888630986214,-0.002330243121832609,-0.014266586862504482,2,-2,-1002,-3,-1,-14,-3,11,-151,7057.0
11:02:29.206,AUTO,-35.3632626,149.1652367,12579,-0.01518779993057251,-0.008185744285583496,-0.10261506587266922,0.005436670035123825,0.0006586273084394634,-0.018272578716278076,1,-1,-1001,6,1,-18,-1,6,-152,7057.0
11:02:29.407,AUTO,-35.3632626,149.1652367,12579,-0.01518779993057251,-0.008185744285583496,-0.10261506587266922,0.005436670035123825,0.0006586273084394634,-0.018272578716278076,1,-1,-1001,6,1,-18,-1,6,-152,7057.0
11:02:29.609,AUTO,-35.3632626,149.1652367,12579,-0.01518779993057251,-0.008185744285583496,-0.10261506587266922,0.005436670035123825,0.0006586273084394634,-0.018272578716278076,1,-1,-1001,6,1,-18,-1,6,-152,7057.0
11:02:29.811,AUTO,-35.3632626,149.1652367,12579,-0.01518779993057251,-0.008185744285583496,-0.10261506587266922,0.005436670035123825,0.0006586273084394634,-0.018272578716278076,1,-1,-1001,6,1,-18,-1,6,-152,7057.0
11:02:30.013,AUTO,-35.3632626,149.1652366,13748,-0.005786393769085407,-0.004404039122164249,-0.12134318053722382,0.01572605036199093,0.008780394680798054,-0.023798512294888496,-1,0,-1000,16,9,-24,3,-4,-152,7057.0
11:02:30.214,AUTO,-35.3632625,149.1652366,14142,-0.0018447861075401306,-0.002388988621532917,-0.12773387134075165,0.017239375039935112,0.007176719140261412,-0.024261152371764183,-2,0,-1000,17,8,-24,4,-5,-152,7057.0
11:02:30.415,AUTO,-35.3632625,149.1652366,14142,-0.0018447861075401306,-0.002388988621532917,-0.12773387134075165,0.017239375039935112,0.007176719140261412,-0.024261152371764183,-2,0,-1000,17,8,-24,4,-5,-152,7057.0
11:02:30.617,AUTO,-35.3632624,149.1652364,14531,0.0016780123114585876,-0.00019771064398810267,-0.1338985562324524,0.010726762935519218,0.008213954977691174,-0.02186698280274868,-2,0,-1000,11,9,-22,4,-6,-152,7057.0
11:02:30.818,AUTO,-35.3632622,149.1652361,14921,0.004705704282969236,0.001672339509241283,-0.13955870270729065,0.010889705270528793,0.007913132198154926,-0.021561771631240845,-2,0,-1000,11,8,-21,4,-6,-152,7057.0
11:02:31.020,AUTO,-35.3632621,149.1652359,15311,0.007252248469740152,0.0033997767604887486,-0.1447736769914627,0.011600649915635586,0.00715988501906395,-0.01983456313610077,-2,0,-1000,12,7,-20,4,-5,-152,7057.0
11:02:31.222,AUTO,-35.363262,149.1652358,15700,0.00856985803693533,0.005096029490232468,-0.14987805485725403,0.003362631890922785,0.007660658098757267,-0.01936684548854828,-2,0,-999,4,8,-19,3,-3,-152,7057.0
11:02:31.423,AUTO,-35.363262,149.1652358,15700,0.00856985803693533,0.005096029490232468,-0.14987805485725403,0.003362631890922785,0.007660658098757267,-0.01936684548854828,-2,0,-999,4,8,-19,3,-3,-152,7057.0
11:02:31.625,AUTO,-35.363262,149.1652358,15700,0.00856985803693533,0.005096029490232468,-0.14987805485725403,0.003362631890922785,0.007660658098757267,-0.01936684548854828,-2,0,-999,4,8,-19,3,-3,-152,198202.0
11:02:31.837,AUTO,-35.363262,149.1652358,15700,0.00856985803693533,0.005096029490232468,-0.14987805485725403,0.003362631890922785,0.007660658098757267,-0.01936684548854828,-2,0,-999,4,8,-19,3,-3,-152,198202.0
11:02:32.039,AUTO,-35.3632617,149.1652355,16866,0.009065340273082256,0.00697082094848156,-0.16216322779655457,-0.0010149088921025395,0.0004497657064348459,-0.012846036814153194,-1,0,-1000,0,1,-12,0,1,-152,198202.0
11:02:32.240,AUTO,-35.3632617,149.1652354,17255,0.00827777199447155,0.0070248814299702644,-0.1657804548740387,-0.00392546784132719,0.0006440276047214866,-0.013942751102149487,0,0,-1000,-3,1,-14,0,3,-152,198202.0
11:02:32.443,AUTO,-35.3632616,149.1652354,17645,0.007222345098853111,0.006834115367382765,-0.1692250818014145,-0.0030986578203737736,-0.0008092655916698277,-0.012101011350750923,0,0,-1000,-2,0,-12,0,4,-152,198202.0
11:02:32.644,AUTO,-35.3632616,149.1652354,17645,0.007222345098853111,0.006834115367382765,-0.1692250818014145,-0.0030986578203737736,-0.0008092655916698277,-0.012101011350750923,0,0,-1000,-2,0,-12,0,4,-152,198202.0
11:02:32.846,AUTO,-35.3632616,149.1652355,18034,0.006204298697412014,0.006333902943879366,-0.17257902026176453,-0.0037985644303262234,-0.0016275087837129831,-0.013722806237637997,0,0,-1000,-3,0,-13,-1,5,-152,198202.0
11:02:33.047,AUTO,-35.3632616,149.1652356,18427,0.005372305866330862,0.005796679761260748,-0.1760544627904892,-0.00066222227178514,-0.0012473840033635497,-0.014332056045532227,0,0,-1000,0,0,-14,-2,5,-153,198202.0
11:02:33.249,AUTO,-35.3632616,149.1652357,18816,0.0047300271689891815,0.005343194119632244,-0.1796693056821823,-0.0004910897696390748,0.0010871344711631536,-0.015678388997912407,0,0,-1000,0,1,-15,-2,6,-153,198202.0
11:02:33.451,AUTO,-35.3632616,149.1652357,18816,0.0047300271689891815,0.005343194119632244,-0.1796693056821823,-0.0004910897696390748,0.0010871344711631536,-0.015678388997912407,0,0,-1000,0,1,-15,-2,6,-153,198202.0
11:02:33.653,AUTO,-35.3632616,149.1652357,18816,0.0047300271689891815,0.005343194119632244,-0.1796693056821823,-0.0004910897696390748,0.0010871344711631536,-0.015678388997912407,0,0,-1000,0,1,-15,-2,6,-153,198202.0
11:02:33.855,AUTO,-35.3632616,149.1652357,18816,0.0047300271689891815,0.005343194119632244,-0.1796693056821823,-0.0004910897696390748,0.0010871344711631536,-0.015678388997912407,0,0,-1000,0,1,-15,-2,6,-153,198202.0
11:02:34.057,AUTO,-35.3632616,149.1652359,19979,-0.027338845655322075,0.00401910999789834,-0.19194461405277252,-0.09762571007013321,0.0007126159034669399,-0.01989602856338024,0,0,-996,-97,1,-19,-4,1,-151,198202.0
11:02:34.258,AUTO,-35.3632617,149.1652358,20362,-0.04636729881167412,0.010937965475022793,-0.1820928454399109,-0.038101352751255035,0.07132239639759064,0.1305321604013443,0,0,-983,-37,72,130,-6,-8,-148,198202.0
11:02:34.460,AUTO,-35.3632618,149.1652354,20740,-0.04889313876628876,0.03816930949687958,-0.11486190557479858,-0.011598290875554085,0.09794612973928452,0.3889440894126892,-1,2,-981,-10,98,388,-13,-19,-143,198202.0
11:02:34.662,AUTO,-35.3632618,149.1652354,20740,-0.04889313876628876,0.03816930949687958,-0.11486190557479858,-0.011598290875554085,0.09794612973928452,0.3889440894126892,-1,2,-981,-10,98,388,-13,-19,-143,18887.0
11:02:34.863,AUTO,-35.3632622,149.1652347,21099,-0.043659474700689316,0.054502565413713455,-0.0015241061337292194,0.057379793375730515,-0.05071956291794777,0.40284112095832825,1,7,-958,58,-49,402,-25,-29,-136,18887.0
11:02:35.065,AUTO,-35.3632628,149.1652337,21433,-0.013838059268891811,0.021109720692038536,0.06955140084028244,0.1325359046459198,-0.1768880933523178,0.17125169932842255,2,10,-954,133,-176,170,-33,-35,-125,18887.0
11:02:35.270,AUTO,-35.3632635,149.1652327,21739,0.018493225798010826,-0.01722599007189274,0.09073581546545029,0.11887845396995544,-0.11953352391719818,0.017633507028222084,1,10,-956,119,-118,17,-32,-32,-114,18887.0
11:02:35.474,AUTO,-35.3632635,149.1652327,21739,0.018493225798010826,-0.01722599007189274,0.09073581546545029,0.11887845396995544,-0.11953352391719818,0.017633507028222084,1,10,-956,119,-118,17,-32,-32,-114,18887.0
11:02:35.676,AUTO,-35.3632635,149.1652327,21739,0.018493225798010826,-0.01722599007189274,0.09073581546545029,0.11887845396995544,-0.11953352391719818,0.017633507028222084,1,10,-956,119,-118,17,-32,-32,-114,18887.0
11:02:35.877,AUTO,-35.3632635,149.1652327,21739,0.018493225798010826,-0.01722599007189274,0.09073581546545029,0.11887845396995544,-0.11953352391719818,0.017633507028222084,1,10,-956,119,-118,17,-32,-32,-114,18887.0
11:02:36.079,AUTO,-35.3632647,149.1652313,22493,0.05753159150481224,-0.03963739797472954,0.06516663730144501,-0.000845667440444231,0.015556113794445992,-0.030408237129449844,1,1,-967,0,16,-30,-6,4,-85,18887.0
11:02:36.281,AUTO,-35.3632648,149.1652314,22700,0.052938129752874374,-0.033647291362285614,0.060107067227363586,-0.02677251398563385,0.027386117726564407,-0.012497315183281898,0,-2,-970,-26,28,-12,2,17,-77,18887.0
11:02:36.483,AUTO,-35.3632647,149.165232,22887,0.04376981407403946,-0.025192249566316605,0.05803047493100166,-0.045859161764383316,0.03871852904558182,-0.004374238196760416,0,-5,-973,-45,39,-4,9,27,-70,18887.0
11:02:36.685,AUTO,-35.3632644,149.1652327,23056,0.03250584751367569,-0.01547100767493248,0.05751027911901474,-0.042228035628795624,0.03902244567871094,0.002266842173412442,0,-7,-974,-41,39,1,14,34,-63,18887.0
11:02:36.887,AUTO,-35.3632644,149.1652327,23056,0.03250584751367569,-0.01547100767493248,0.05751027911901474,-0.042228035628795624,0.03902244567871094,0.002266842173412442,0,-7,-974,-41,39,1,14,34,-63,18887.0
11:02:37.089,AUTO,-35.363264,149.1652337,23209,0.0217700507491827,-0.006849061232060194,0.05733392760157585,-0.03740297257900238,0.03113367035984993,0.0025667452719062567,0,-9,-976,-36,31,2,17,38,-57,18887.0
11:02:37.290,AUTO,-35.3632636,149.1652346,23347,0.012559543363749981,0.00017615544493310153,0.05665381997823715,-0.04180705174803734,0.025680920109152794,0.00145964534021914,0,-10,-977,-41,26,1,18,39,-52,18887.0
11:02:37.492,AUTO,-35.3632636,149.1652346,23347,0.012559543363749981,0.00017615544493310153,0.05665381997823715,-0.04180705174803734,0.025680920109152794,0.00145964534021914,0,-10,-977,-41,26,1,18,39,-52,18887.0
11:02:37.694,AUTO,-35.3632636,149.1652346,23347,0.012559543363749981,0.00017615544493310153,0.05665381997823715,-0.04180705174803734,0.025680920109152794,0.00145964534021914,0,-10,-977,-41,26,1,18,39,-52,204472.0
11:02:37.897,AUTO,-35.3632636,149.1652346,23347,0.012559543363749981,0.00017615544493310153,0.05665381997823715,-0.04180705174803734,0.025680920109152794,0.00145964534021914,0,-10,-977,-41,26,1,18,39,-52,204472.0
11:02:38.100,AUTO,-35.3632623,149.1652375,23672,-0.006875442340970039,0.013605915009975433,0.05383187532424927,-0.02816951647400856,0.010067163035273552,-0.0006835907697677612,0,-9,-976,-27,11,0,15,31,-35,204472.0
11:02:38.301,AUTO,-35.3632619,149.1652382,23751,-0.009700662456452847,0.014976676553487778,0.05309645086526871,0.001437247614376247,0.0023491305764764547,-0.0018521436722949147,0,-7,-975,2,3,-2,12,26,-29,204472.0
11:02:38.503,AUTO,-35.3632616,149.1652388,23813,-0.011009590700268745,0.014925605617463589,0.05238264799118042,0.01468256302177906,-0.0012541201431304216,-0.002584979636594653,0,-6,-974,15,0,-2,9,21,-22,204472.0
11:02:38.705,AUTO,-35.3632614,149.1652393,23858,-0.012422803789377213,0.014615366235375404,0.05148899555206299,-0.053942710161209106,-0.002205153228715062,-0.0022018293384462595,0,-6,-972,-52,-1,-2,6,17,-15,204472.0
11:02:38.907,AUTO,-35.3632614,149.1652393,23858,-0.012422803789377213,0.014615366235375404,0.05148899555206299,-0.053942710161209106,-0.002205153228715062,-0.0022018293384462595,0,-6,-972,-52,-1,-2,6,17,-15,204472.0
11:02:39.108,AUTO,-35.3632613,149.1652397,23885,-0.012740226462483406,0.013126363046467304,0.05056804418563843,0.014876519329845905,-0.007039827760308981,-0.004364494234323502,0,0,-968,16,-6,-4,4,12,-8,204472.0
11:02:39.310,AUTO,-35.3632612,149.16524,23890,-0.026431461796164513,0.021628858521580696,0.04849962145090103,0.21361248195171356,0.0633876696228981,-0.00858165044337511,2,8,-921,214,64,-8,1,7,3,204472.0
11:02:39.512,AUTO,-35.3632612,149.16524,23890,-0.026431461796164513,0.021628858521580696,0.04849962145090103,0.21361248195171356,0.0633876696228981,-0.00858165044337511,2,8,-921,214,64,-8,1,7,3,204472.0
11:02:39.714,AUTO,-35.3632612,149.16524,23890,-0.026431461796164513,0.021628858521580696,0.04849962145090103,0.21361248195171356,0.0633876696228981,-0.00858165044337511,2,8,-921,214,64,-8,1,7,3,204472.0
11:02:39.916,AUTO,-35.3632612,149.16524,23890,-0.026431461796164513,0.021628858521580696,0.04849962145090103,0.21361248195171356,0.0633876696228981,-0.00858165044337511,2,8,-921,214,64,-8,1,7,3,204472.0
11:02:40.118,AUTO,-35.3632612,149.1652396,23744,0.004103426821529865,-0.02037275768816471,0.04697250574827194,0.1485671103000641,-0.065013587474823,-0.00829604733735323,-2,28,-1014,150,-64,-8,-2,-8,17,204472.0
11:02:40.319,AUTO,-35.3632612,149.1652394,23701,0.034444767981767654,-0.035456374287605286,0.04520605877041817,0.777030348777771,-0.05067479982972145,-0.009076944552361965,-1,31,-1030,778,-49,-9,4,-4,12,204472.0
11:02:40.521,AUTO,-35.363261,149.1652394,23668,0.05416535213589668,-0.04711510241031647,0.04309050366282463,0.28194114565849304,-0.04308166354894638,-0.00936405174434185,-2,-11,-1021,282,-42,-9,14,3,8,204472.0
11:02:40.723,AUTO,-35.3632605,149.1652395,23645,0.052204761654138565,-0.05547897517681122,0.04097877815365791,-0.4981044828891754,-0.03445357084274292,-0.0008555131498724222,-3,-40,-1011,-498,-33,-1,26,15,5,48356.0
11:02:40.925,AUTO,-35.3632605,149.1652395,23645,0.052204761654138565,-0.05547897517681122,0.04097877815365791,-0.4981044828891754,-0.03445357084274292,-0.0008555131498724222,-3,-40,-1011,-498,-33,-1,26,15,5,48356.0
11:02:41.127,AUTO,-35.3632598,149.1652401,23629,0.05609923601150513,-0.06396447867155075,0.0468280203640461,-0.5246765613555908,-0.041148293763399124,0.10796240717172623,-5,-22,-1000,-523,-40,107,39,29,3,48356.0
11:02:41.329,AUTO,-35.3632587,149.165241,23616,0.06868936866521835,-0.07435763627290726,0.08901424705982208,0.3137807250022888,-0.026225153356790543,0.20358453691005707,-7,13,-1016,315,-25,203,54,44,1,48356.0
11:02:41.536,AUTO,-35.3632587,149.165241,23616,0.06868936866521835,-0.07435763627290726,0.08901424705982208,0.3137807250022888,-0.026225153356790543,0.20358453691005707,-7,13,-1016,315,-25,203,54,44,1,48356.0
11:02:41.738,AUTO,-35.3632587,149.165241,23616,0.06868936866521835,-0.07435763627290726,0.08901424705982208,0.3137807250022888,-0.026225153356790543,0.20358453691005707,-7,13,-1016,315,-25,203,54,44,1,48356.0
11:02:41.948,AUTO,-35.3632534,149.1652459,23592,0.08363347500562668,-0.10818345099687576,0.2386235147714615,-0.39125287532806396,-0.03359449282288551,0.19479212164878845,-15,-39,-1005,-389,-32,194,105,91,2,48356.0
11:02:42.150,AUTO,-35.3632534,149.1652459,23592,0.08363347500562668,-0.10818345099687576,0.2386235147714615,-0.39125287532806396,-0.03359449282288551,0.19479212164878845,-15,-39,-1005,-389,-32,194,105,91,2,48356.0
11:02:42.352,AUTO,-35.3632509,149.1652485,23580,0.09204177558422089,-0.11978024989366531,0.2830064296722412,0.09100314229726791,-0.03120892122387886,0.17538732290267944,-18,-16,-1010,92,-30,175,124,111,3,48356.0
11:02:42.554,AUTO,-35.3632479,149.1652516,23565,0.10208585113286972,-0.13243502378463745,0.32612138986587524,0.5658823251724243,-0.03358280286192894,0.18360300362110138,-27,-17,-996,567,-32,183,144,131,4,48356.0
11:02:42.756,AUTO,-35.3632445,149.1652553,23547,0.10016359388828278,-0.1475890427827835,0.36982500553131104,0.00651902798563242,-0.03960077837109566,0.18859413266181946,-35,-58,-999,6,-38,188,165,151,5,48356.0
11:02:42.957,AUTO,-35.3632406,149.1652597,23527,0.08702743053436279,-0.1615695357322693,0.41440439224243164,-0.37193241715431213,-0.039778802543878555,0.17765238881111145,-37,-57,-1003,-370,-38,177,187,173,6,48356.0
11:02:43.160,AUTO,-35.3632406,149.1652597,23527,0.08702743053436279,-0.1615695357322693,0.41440439224243164,-0.37193241715431213,-0.039778802543878555,0.17765238881111145,-37,-57,-1003,-370,-38,177,187,173,6,48356.0
11:02:43.362,AUTO,-35.3632361,149.1652647,23505,0.087149977684021,-0.1713813692331314,0.45878392457962036,0.24132442474365234,-0.010287219658493996,0.1686217337846756,-38,-33,-1008,242,-9,168,211,196,7,48356.0
11:02:43.564,AUTO,-35.3632361,149.1652647,23505,0.087149977684021,-0.1713813692331314,0.45878392457962036,0.24132442474365234,-0.010287219658493996,0.1686217337846756,-38,-33,-1008,242,-9,168,211,196,7,48356.0
11:02:43.766,AUTO,-35.3632361,149.1652647,23505,0.087149977684021,-0.1713813692331314,0.45878392457962036,0.24132442474365234,-0.010287219658493996,0.1686217337846756,-38,-33,-1008,242,-9,168,211,196,7,188920.0
11:02:43.968,AUTO,-35.3632199,149.1652832,23433,0.06272611767053604,-0.17837975919246674,0.6235690116882324,0.0879693478345871,0.0031932685524225235,0.33952975273132324,-66,-35,-1000,89,4,339,277,254,8,188920.0
11:02:44.170,AUTO,-35.3632199,149.1652832,23433,0.06272611767053604,-0.17837975919246674,0.6235690116882324,0.0879693478345871,0.0031932685524225235,0.33952975273132324,-66,-35,-1000,89,4,339,277,254,8,188920.0
11:02:44.372,AUTO,-35.3632136,149.1652904,23408,0.049831051379442215,-0.18655534088611603,0.7186537384986877,0.1431778371334076,-0.0313323438167572,0.37357425689697266,-79,-52,-996,144,-30,373,297,271,8,188920.0
11:02:44.574,AUTO,-35.3632068,149.1652981,23380,0.035882193595170975,-0.19701319932937622,0.792621374130249,-0.13158434629440308,-0.023486316204071045,0.19102832674980164,-85,-55,-994,-130,-22,190,317,288,10,188920.0
11:02:44.775,AUTO,-35.3631996,149.1653064,23348,0.03580004349350929,-0.20173361897468567,0.8156344294548035,0.025350220501422882,-0.022607741877436638,0.012387676164507866,-94,-47,-997,26,-21,12,337,306,11,188920.0
11:02:44.977,AUTO,-35.3631919,149.1653151,23313,0.038348712027072906,-0.2076255828142166,0.8093318343162537,0.04195963591337204,-0.021810470148921013,-0.05965219810605049,-89,-59,-991,43,-20,-59,358,323,13,188920.0
11:02:45.180,AUTO,-35.3631919,149.1653151,23313,0.038348712027072906,-0.2076255828142166,0.8093318343162537,0.04195963591337204,-0.021810470148921013,-0.05965219810605049,-89,-59,-991,43,-20,-59,358,323,13,188920.0
11:02:45.382,AUTO,-35.3631837,149.1653244,23276,0.04445367306470871,-0.21272943913936615,0.7948271036148071,-0.020171381533145905,-0.02915620058774948,-0.056905701756477356,-109,-52,-997,-18,-28,-56,378,341,14,188920.0
11:02:45.583,AUTO,-35.3631837,149.1653244,23276,0.04445367306470871,-0.21272943913936615,0.7948271036148071,-0.020171381533145905,-0.02915620058774948,-0.056905701756477356,-109,-52,-997,-18,-28,-56,378,341,14,188920.0
11:02:45.785,AUTO,-35.3631837,149.1653244,23276,0.04445367306470871,-0.21272943913936615,0.7948271036148071,-0.020171381533145905,-0.02915620058774948,-0.056905701756477356,-109,-52,-997,-18,-28,-56,378,341,14,188920.0
11:02:45.987,AUTO,-35.3631566,149.1653551,23163,0.05446236953139305,-0.2014373242855072,0.7769445776939392,0.00888590794056654,0.03101719357073307,-0.012788322754204273,-121,-63,-1001,9,31,-13,434,389,12,188920.0
11:02:46.189,AUTO,-35.3631468,149.1653662,23131,0.05596642196178436,-0.1886487454175949,0.7767733931541443,-0.03718896955251694,0.039686769247055054,-0.00045132546802051365,-121,-52,-1000,-36,40,0,449,403,10,188920.0
11:02:46.391,AUTO,-35.3631468,149.1653662,23131,0.05596642196178436,-0.1886487454175949,0.7767733931541443,-0.03718896955251694,0.039686769247055054,-0.00045132546802051365,-121,-52,-1000,-36,40,0,449,403,10,188920.0
11:02:46.596,AUTO,-35.3631365,149.1653778,23104,0.058059386909008026,-0.1815541684627533,0.776672899723053,0.04230113327503204,0.023273829370737076,-0.003292304463684559,-122,-78,-995,43,23,-3,462,413,8,188920.0
11:02:46.798,AUTO,-35.3631261,149.1653895,23078,0.06526918709278107,-0.17548465728759766,0.7755132913589478,0.07060245424509048,0.021577099338173866,-0.012296678498387337,-117,-72,-984,71,22,-12,473,422,8,124400.0
11:02:47.000,AUTO,-35.3631155,149.1654015,23053,0.06599631905555725,-0.16992299258708954,0.774316668510437,-0.055771853774785995,0.012224490754306316,0.0009154177387244999,-133,-63,-989,-55,13,0,481,431,9,124400.0
11:02:47.202,AUTO,-35.3631047,149.1654137,23026,0.06656094640493393,-0.16677235066890717,0.7735302448272705,0.020174555480480194,0.03195834904909134,-0.006518497597426176,-129,-70,-988,21,32,-6,489,438,10,124400.0
11:02:47.404,AUTO,-35.3631047,149.1654137,23026,0.06656094640493393,-0.16677235066890717,0.7735302448272705,0.020174555480480194,0.03195834904909134,-0.006518497597426176,-129,-70,-988,21,32,-6,489,438,10,124400.0
11:02:47.605,AUTO,-35.3631047,149.1654137,23026,0.06656094640493393,-0.16677235066890717,0.7735302448272705,0.020174555480480194,0.03195834904909134,-0.006518497597426176,-129,-70,-988,21,32,-6,489,438,10,124400.0
11:02:47.807,AUTO,-35.3631047,149.1654137,23026,0.06656094640493393,-0.16677235066890717,0.7735302448272705,0.020174555480480194,0.03195834904909134,-0.006518497597426176,-129,-70,-988,21,32,-6,489,438,10,124400.0
11:02:48.009,AUTO,-35.3630714,149.1654512,22941,0.07324875891208649,-0.14846332371234894,0.7709866762161255,0.021698173135519028,0.030515853315591812,0.002350433962419629,-134,-69,-986,22,31,2,504,453,12,124400.0
11:02:48.211,AUTO,-35.3630601,149.165464,22910,0.07382965832948685,-0.14054910838603973,0.7706508040428162,-0.02653726562857628,0.05084463208913803,0.0015961159951984882,-123,-71,-980,-25,51,1,507,455,12,124400.0
11:02:48.413,AUTO,-35.3630601,149.165464,22910,0.07382965832948685,-0.14054910838603973,0.7706508040428162,-0.02653726562857628,0.05084463208913803,0.0015961159951984882,-123,-71,-980,-25,51,1,507,455,12,124400.0
11:02:48.615,AUTO,-35.3630488,149.1654768,22879,0.07542995363473892,-0.1338193267583847,0.7698802947998047,0.03446740284562111,0.042644280940294266,-0.0022109232377260923,-136,-75,-986,35,43,-2,509,457,13,124400.0
11:02:48.816,AUTO,-35.3630375,149.1654896,22847,0.07676839083433151,-0.12728393077850342,0.7688400149345398,-0.002914263866841793,0.01428895816206932,0.002550279488787055,-134,-74,-982,-1,14,2,508,457,13,124400.0
11:02:49.018,AUTO,-35.3630262,149.1655024,22814,0.07626193761825562,-0.1237979307770729,0.7685654759407043,-0.004362547304481268,0.0007520689978264272,0.002670027781277895,-134,-72,-979,-3,1,2,506,455,14,124400.0
11:02:49.220,AUTO,-35.363015,149.1655151,22778,0.0770617350935936,-0.1287752091884613,0.7677252888679504,-0.045831795781850815,-0.015794552862644196,0.016353122889995575,-134,-79,-972,-45,-15,16,504,454,17,124400.0
11:02:49.422,AUTO,-35.363015,149.1655151,22778,0.0770617350935936,-0.1287752091884613,0.7677252888679504,-0.045831795781850815,-0.015794552862644196,0.016353122889995575,-134,-79,-972,-45,-15,16,504,454,17,124400.0
11:02:49.624,AUTO,-35.363015,149.1655151,22778,0.0770617350935936,-0.1287752091884613,0.7677252888679504,-0.045831795781850815,-0.015794552862644196,0.016353122889995575,-134,-79,-972,-45,-15,16,504,454,17,179079.0
11:02:49.826,AUTO,-35.363015,149.1655151,22778,0.0770617350935936,-0.1287752091884613,0.7677252888679504,-0.045831795781850815,-0.015794552862644196,0.016353122889995575,-134,-79,-972,-45,-15,16,504,454,17,179079.0
11:02:50.030,AUTO,-35.3629811,149.1655535,22636,0.07215500622987747,-0.13667425513267517,0.7673184871673584,0.003040814073756337,0.006732964888215065,-0.0016568488208577037,-146,-69,-988,3,7,-1,504,456,21,179079.0
11:02:50.231,AUTO,-35.3629698,149.1655663,22584,0.07061853259801865,-0.14173640310764313,0.7668042182922363,0.0051673948764801025,-0.0010218943934887648,-0.004414094612002373,-152,-77,-989,5,0,-4,504,456,21,179079.0
11:02:50.433,AUTO,-35.3629698,149.1655663,22584,0.07061853259801865,-0.14173640310764313,0.7668042182922363,0.0051673948764801025,-0.0010218943934887648,-0.004414094612002373,-152,-77,-989,5,0,-4,504,456,21,179079.0
11:02:50.636,AUTO,-35.3629583,149.1655791,22531,0.0772160142660141,-0.13876602053642273,0.766182541847229,0.029124002903699875,0.02531222067773342,-0.00510459765791893,-137,-70,-992,29,26,-4,507,457,20,179079.0
11:02:50.838,AUTO,-35.3629468,149.165592,22482,0.08085811883211136,-0.13384167850017548,0.7658607959747314,-0.001019999384880066,0.028556423261761665,-0.0005238570738583803,-126,-59,-985,0,29,0,508,459,19,179079.0
11:02:51.040,AUTO,-35.3629353,149.1656048,22434,0.07799851894378662,-0.12976209819316864,0.766462504863739,0.09198642522096634,0.021214207634329796,-0.00791722722351551,-133,-77,-991,92,22,-7,508,461,18,179079.0
11:02:51.242,AUTO,-35.3629238,149.1656176,22389,0.08090104907751083,-0.12911410629749298,0.7663179039955139,-0.01342804729938507,0.00816258229315281,-0.003230419009923935,-134,-85,-989,-12,9,-3,508,461,17,179079.0
11:02:51.449,AUTO,-35.3629238,149.1656176,22389,0.08090104907751083,-0.12911410629749298,0.7663179039955139,-0.01342804729938507,0.00816258229315281,-0.003230419009923935,-134,-85,-989,-12,9,-3,508,461,17,179079.0
11:02:51.650,AUTO,-35.3629238,149.1656176,22389,0.08090104907751083,-0.12911410629749298,0.7663179039955139,-0.01342804729938507,0.00816258229315281,-0.003230419009923935,-134,-85,-989,-12,9,-3,508,461,17,179079.0
11:02:51.853,AUTO,-35.3629238,149.1656176,22389,0.08090104907751083,-0.12911410629749298,0.7663179039955139,-0.01342804729938507,0.00816258229315281,-0.003230419009923935,-134,-85,-989,-12,9,-3,508,461,17,179079.0
11:02:52.055,AUTO,-35.3628891,149.1656561,22264,0.08636297285556793,-0.12684379518032074,0.7644087672233582,0.005121777765452862,-0.0035094977356493473,-0.004916756879538298,-143,-81,-990,6,-2,-4,505,462,16,179079.0
11:02:52.257,AUTO,-35.3628777,149.1656688,22223,0.08305958658456802,-0.1278361976146698,0.7647154927253723,-0.05954713374376297,-0.008253601379692554,0.0009061924065463245,-139,-83,-991,-58,-7,1,503,463,17,179079.0
11:02:52.458,AUTO,-35.3628661,149.1656818,22181,0.08386246114969254,-0.12646807730197906,0.7643918395042419,0.0030879033729434013,0.002660841913893819,-0.007880858145654202,-148,-64,-992,3,3,-7,502,464,17,179079.0
11:02:52.660,AUTO,-35.3628661,149.1656818,22181,0.08386246114969254,-0.12646807730197906,0.7643918395042419,0.0030879033729434013,0.002660841913893819,-0.007880858145654202,-148,-64,-992,3,3,-7,502,464,17,193129.0
11:02:52.862,AUTO,-35.3628546,149.1656947,22140,0.08435679227113724,-0.12439383566379547,0.7631993293762207,0.01915290392935276,0.015197468921542168,-0.013777072541415691,-139,-71,-987,19,16,-13,501,464,17,193129.0
11:02:53.065,AUTO,-35.3628432,149.1657075,22099,0.0833299458026886,-0.12396066635847092,0.7625076770782471,0.0002653065603226423,0.016607962548732758,-0.00831612478941679,-117,-64,-979,1,17,-8,500,465,18,193129.0
11:02:53.267,AUTO,-35.3628318,149.1657202,22058,0.08426811546087265,-0.11816523969173431,0.7625651955604553,0.033233486115932465,0.021286746487021446,-0.0071755871176719666,-141,-81,-991,34,22,-7,498,463,16,193129.0
11:02:53.469,AUTO,-35.3628318,149.1657202,22058,0.08426811546087265,-0.11816523969173431,0.7625651955604553,0.033233486115932465,0.021286746487021446,-0.0071755871176719666,-141,-81,-991,34,22,-7,498,463,16,193129.0
11:02:53.671,AUTO,-35.3628318,149.1657202,22058,0.08426811546087265,-0.11816523969173431,0.7625651955604553,0.033233486115932465,0.021286746487021446,-0.0071755871176719666,-141,-81,-991,34,22,-7,498,463,16,193129.0
11:02:53.873,AUTO,-35.3628318,149.1657202,22058,0.08426811546087265,-0.11816523969173431,0.7625651955604553,0.033233486115932465,0.021286746487021446,-0.0071755871176719666,-141,-81,-991,34,22,-7,498,463,16,193129.0
11:02:54.075,AUTO,-35.3627983,149.1657578,21970,0.08554045110940933,-0.07390379160642624,0.7633751034736633,0.008898125030100346,0.050245244055986404,-0.010773394256830215,-136,-85,-995,9,51,-10,480,448,10,193129.0
11:02:54.277,AUTO,-35.3627875,149.16577,21949,0.08663545548915863,-0.06304612010717392,0.7627680897712708,-0.004533218219876289,0.06134477257728577,-0.008296770974993706,-133,-75,-990,-4,62,-8,470,439,10,193129.0
11:02:54.478,AUTO,-35.3627769,149.165782,21927,0.08543305844068527,-0.052387531846761703,0.762753963470459,-0.014226644299924374,0.04176894947886467,-0.0019556470215320587,-123,-76,-985,-13,42,-2,458,429,11,193129.0
11:02:54.680,AUTO,-35.3627769,149.165782,21927,0.08543305844068527,-0.052387531846761703,0.762753963470459,-0.014226644299924374,0.04176894947886467,-0.0019556470215320587,-123,-76,-985,-13,42,-2,458,429,11,193129.0
11:02:54.884,AUTO,-35.3627665,149.1657938,21903,0.08552523702383041,-0.03603504225611687,0.762994647026062,0.047810520976781845,0.05864228308200836,-0.01257807295769453,-129,-76,-993,48,59,-12,445,417,11,193129.0
11:02:55.086,AUTO,-35.3627566,149.1658051,21877,0.08304838091135025,-0.027840008959174156,0.7627742886543274,-0.07469620555639267,0.032257288694381714,0.004156456794589758,-117,-92,-986,-73,33,4,430,403,13,193129.0
11:02:55.288,AUTO,-35.362747,149.165816,21846,0.07998263090848923,-0.018031012266874313,0.762686014175415,-0.10803215950727463,0.03441992029547691,0.0032122903503477573,-114,-84,-990,-107,35,3,414,388,14,193129.0
11:02:55.490,AUTO,-35.362747,149.165816,21846,0.07998263090848923,-0.018031012266874313,0.762686014175415,-0.10803215950727463,0.03441992029547691,0.0032122903503477573,-114,-84,-990,-107,35,3,414,388,14,193129.0
11:02:55.691,AUTO,-35.362747,149.165816,21846,0.07998263090848923,-0.018031012266874313,0.762686014175415,-0.10803215950727463,0.03441992029547691,0.0032122903503477573,-114,-84,-990,-107,35,3,414,388,14,229159.0
11:02:55.893,AUTO,-35.362747,149.165816,21846,0.07998263090848923,-0.018031012266874313,0.762686014175415,-0.10803215950727463,0.03441992029547691,0.0032122903503477573,-114,-84,-990,-107,35,3,414,388,14,229159.0
11:02:56.095,AUTO,-35.3627205,149.1658467,21731,0.058089565485715866,0.02272365801036358,0.7628709673881531,-0.8475596308708191,0.053515687584877014,0.027317695319652557,-109,-113,-1001,-847,54,27,360,339,20,229159.0
11:02:56.297,AUTO,-35.3627127,149.1658559,21685,0.05223674699664116,0.03031625598669052,0.762435793876648,-0.2861665189266205,0.04190504550933838,-0.021746398881077766,-91,-56,-995,-284,42,-21,338,320,19,229159.0
11:02:56.499,AUTO,-35.3627053,149.1658646,21642,0.06147930398583412,0.041663844138383865,0.7614145874977112,0.6347675323486328,0.04161839932203293,-0.04777058959007263,-84,-24,-1012,636,42,-47,317,300,17,229159.0
11:02:56.700,AUTO,-35.3626984,149.1658727,21601,0.06299806386232376,0.05348082631826401,0.7612253427505493,0.7379508018493652,0.036813538521528244,-0.010038231499493122,-78,-27,-1013,738,38,-9,296,278,18,229159.0
11:02:56.902,AUTO,-35.3626984,149.1658727,21601,0.06299806386232376,0.05348082631826401,0.7612253427505493,0.7379508018493652,0.036813538521528244,-0.010038231499493122,-78,-27,-1013,738,38,-9,296,278,18,229159.0
11:02:57.105,AUTO,-35.3626919,149.1658804,21563,0.046006347984075546,0.05512109398841858,0.7618203163146973,-0.5321944355964661,-0.010523359291255474,0.047046080231666565,-74,-92,-998,-532,-9,47,273,255,15,229159.0
11:02:57.307,AUTO,-35.3626861,149.1658874,21527,0.030969418585300446,0.05150740221142769,0.7607083320617676,-0.8141887187957764,-0.008211887441575527,0.012430693954229355,-72,-82,-1006,-813,-7,12,252,235,16,229159.0
11:02:57.508,AUTO,-35.3626861,149.1658874,21527,0.030969418585300446,0.05150740221142769,0.7607083320617676,-0.8141887187957764,-0.008211887441575527,0.012430693954229355,-72,-82,-1006,-813,-7,12,252,235,16,229159.0
11:02:57.710,AUTO,-35.3626861,149.1658874,21527,0.030969418585300446,0.05150740221142769,0.7607083320617676,-0.8141887187957764,-0.008211887441575527,0.012430693954229355,-72,-82,-1006,-813,-7,12,252,235,16,229159.0
11:02:57.912,AUTO,-35.3626861,149.1658874,21527,0.030969418585300446,0.05150740221142769,0.7607083320617676,-0.8141887187957764,-0.008211887441575527,0.012430693954229355,-72,-82,-1006,-813,-7,12,252,235,16,229159.0
11:02:58.114,AUTO,-35.3626714,149.1659049,21437,0.03750630468130112,0.05880376324057579,0.7601069808006287,0.6552282571792603,0.03580714017152786,-0.0026386594399809837,-52,-11,-1017,655,37,-2,195,179,10,229159.0
11:02:58.316,AUTO,-35.3626674,149.1659097,21415,0.028937138617038727,0.06567870825529099,0.7605134844779968,-0.2443143129348755,0.02556988038122654,0.0169143695384264,-46,-59,-1010,-244,26,16,177,159,9,229159.0
