time_stamp,MODE,lat,lon,relative_alt,roll,pitch,yaw,rollspeed,pitchspeed,yawspeed,xacc,yacc,zacc,xgyro,ygyro,zgyro,vx,vy,vz,RTL_ALT
04:18:13.012,STABILIZE,-35.3632622,149.1652374,0,-7.622844350407831e-06,0.0013945878017693758,0.02670826017856598,0.00039597065187990665,0.00024790092720650136,0.0023703398182988167,0,1,-1000,0,0,0,-2,1,0,1500.0
04:18:13.213,STABILIZE,-35.3632622,149.1652374,0,-7.622844350407831e-06,0.0013945878017693758,0.02670826017856598,0.00039597065187990665,0.00024790092720650136,0.0023703398182988167,0,1,-1000,0,0,0,-2,1,0,1500.0
04:18:13.413,STABILIZE,-35.3632622,149.1652374,0,-7.622844350407831e-06,0.0013945878017693758,0.02670826017856598,0.00039597065187990665,0.00024790092720650136,0.0023703398182988167,0,1,-1000,0,0,0,-2,1,0,1500.0
04:18:13.614,STABILIZE,-35.3632622,149.1652374,0,-7.622844350407831e-06,0.0013945878017693758,0.02670826017856598,0.00039597065187990665,0.00024790092720650136,0.0023703398182988167,0,1,-1000,0,0,0,-2,1,0,1500.0
04:18:13.815,STABILIZE,-35.3632622,149.1652374,0,-7.622844350407831e-06,0.0013945878017693758,0.02670826017856598,0.00039597065187990665,0.00024790092720650136,0.0023703398182988167,0,1,-1000,0,0,0,-2,1,0,1500.0
04:18:14.015,STABILIZE,-35.3632622,149.1652374,0,-7.622844350407831e-06,0.0013945878017693758,0.02670826017856598,0.00039597065187990665,0.00024790092720650136,0.0023703398182988167,0,1,-1000,0,0,0,-2,1,0,1500.0
04:18:14.216,STABILIZE,-35.3632622,149.1652375,0,-0.00017924846906680614,0.0011738536413758993,0.02612166665494442,0.0002485176082700491,0.000321494007948786,0.002168513834476471,0,1,-1000,0,0,0,-1,1,0,1500.0
04:18:14.418,STABILIZE,-35.3632622,149.1652375,0,-0.0002348269335925579,0.0011279855389147997,0.025981558486819267,0.00011110046762041748,0.0002872847253456712,0.0021038069389760494,0,1,-1000,1,1,1,-1,1,0,1500.0
04:18:14.620,STABILIZE,-35.3632622,149.1652375,0,-0.0002787990670185536,0.0010887021198868752,0.025857558473944664,0.00017449329607188702,0.0002623590116854757,0.002117843134328723,0,1,-1000,0,0,0,-1,1,0,1500.0
04:18:14.822,STABILIZE,-35.3632622,149.1652375,0,-0.0002787990670185536,0.0010887021198868752,0.025857558473944664,0.00017449329607188702,0.0002623590116854757,0.002117843134328723,0,1,-1000,0,0,0,-1,1,0,1500.0
04:18:15.023,STABILIZE,-35.3632622,149.1652375,0,-0.0002787990670185536,0.0010887021198868752,0.025857558473944664,0.00017449329607188702,0.0002623590116854757,0.002117843134328723,0,1,-1000,0,0,0,-1,1,0,1500.0
04:18:15.225,STABILIZE,-35.3632622,149.1652375,0,-0.000381645979359746,0.001037424779497087,0.025612659752368927,0.00030944854370318353,0.00012885726755484939,0.002112827729433775,0,1,-1000,0,0,0,-1,1,0,1500.0
04:18:15.427,STABILIZE,-35.3632622,149.1652375,0,-0.000381645979359746,0.001037424779497087,0.025612659752368927,0.00030944854370318353,0.00012885726755484939,0.002112827729433775,0,1,-1000,0,0,0,-1,1,0,1500.0
04:18:15.629,STABILIZE,-35.3632622,149.1652375,0,-0.000381645979359746,0.001037424779497087,0.025612659752368927,0.00030944854370318353,0.00012885726755484939,0.002112827729433775,0,1,-1000,0,0,0,-1,1,0,1500.0
04:18:15.831,STABILIZE,-35.3632622,149.1652375,0,-0.000381645979359746,0.001037424779497087,0.025612659752368927,0.00030944854370318353,0.00012885726755484939,0.002112827729433775,0,1,-1000,0,0,0,-1,1,0,1500.0
04:18:16.032,STABILIZE,-35.3632622,149.1652375,0,-0.0004395571013446897,0.000978964613750577,0.025219131261110306,0.00026829889975488186,0.00022009998792782426,0.002041829517111182,0,1,-1000,0,0,0,-1,1,0,1500.0
04:18:16.233,STABILIZE,-35.3632622,149.1652375,0,-0.0004395571013446897,0.000978964613750577,0.025219131261110306,0.00026829889975488186,0.00022009998792782426,0.002041829517111182,0,1,-1000,0,0,0,-1,1,0,1500.0
04:18:16.435,STABILIZE,-35.3632621,149.1652374,0,-0.00041065743425861,0.000978657859377563,0.025130875408649445,0.0001588069717399776,0.00025877534062601626,0.0019511538557708263,0,1,-1000,0,0,0,-1,0,-2,1500.0
04:18:16.636,STABILIZE,-35.3632621,149.1652374,0,-0.00041065743425861,0.000978657859377563,0.025130875408649445,0.0001588069717399776,0.00025877534062601626,0.0019511538557708263,0,2,-1000,0,0,0,-1,0,-2,1500.0
04:18:16.837,STABILIZE,-35.3632621,149.1652374,0,-0.00035481841769069433,0.000964717473834753,0.024924999102950096,0.0003260711091570556,0.0002503196010366082,0.0020243399776518345,0,1,-1000,0,0,0,-1,0,-2,1500.0
04:18:17.038,STABILIZE,-35.3632621,149.1652374,0,-0.00035481841769069433,0.000964717473834753,0.024924999102950096,0.0003260711091570556,0.0002503196010366082,0.0020243399776518345,0,1,-1000,0,0,0,-1,0,-2,1500.0
04:18:17.246,STABILIZE,-35.3632621,149.1652374,0,-0.00035481841769069433,0.000964717473834753,0.024924999102950096,0.0003260711091570556,0.0002503196010366082,0.0020243399776518345,0,1,-1000,0,0,0,-1,0,-2,1500.0
04:18:17.454,STABILIZE,-35.3632621,149.1652374,0,-0.00035481841769069433,0.000964717473834753,0.024924999102950096,0.0003260711091570556,0.0002503196010366082,0.0020243399776518345,0,1,-1000,0,0,0,-1,0,-2,1500.0
04:18:17.656,STABILIZE,-35.3632621,149.1652374,0,-0.00035481841769069433,0.000964717473834753,0.024924999102950096,0.0003260711091570556,0.0002503196010366082,0.0020243399776518345,0,1,-1000,0,0,0,-1,0,-2,1500.0
04:18:17.857,STABILIZE,-35.3632621,149.1652374,0,-0.00035481841769069433,0.000964717473834753,0.024924999102950096,0.0003260711091570556,0.0002503196010366082,0.0020243399776518345,0,1,-1000,0,0,0,-1,0,-2,1500.0
04:18:18.059,STABILIZE,-35.3632621,149.1652374,0,-0.00033361889654770494,0.0009384709410369396,0.024422241374850273,0.00028774153906852007,0.00021890719654038548,0.0017803360242396593,0,1,-1000,0,0,0,-1,1,-1,1500.0
04:18:18.260,STABILIZE,-35.3632621,149.1652374,0,-0.00033361889654770494,0.0009384709410369396,0.024422241374850273,0.00028774153906852007,0.00021890719654038548,0.0017803360242396593,0,1,-1000,0,1,1,-1,1,-1,1500.0
04:18:18.461,STABILIZE,-35.3632621,149.1652374,0,-0.00033361889654770494,0.0009384709410369396,0.024422241374850273,0.00028774153906852007,0.00021890719654038548,0.0017803360242396593,0,1,-1000,0,1,1,-1,1,-1,1500.0
04:18:18.663,STABILIZE,-35.3632621,149.1652374,0,-0.00033361889654770494,0.0009384709410369396,0.024422241374850273,0.00028774153906852007,0.00021890719654038548,0.0017803360242396593,0,1,-1000,0,1,1,-1,1,-1,1500.0
04:18:18.863,STABILIZE,-35.3632621,149.1652375,0,-0.00036897382233291864,0.0009251716546714306,0.02410460263490677,0.0003182973014190793,0.00016170297749340534,0.0016915261512622237,0,2,-1000,0,0,0,-1,1,0,1500.0
04:18:19.065,STABILIZE,-35.3632621,149.1652375,0,-0.00036897382233291864,0.0009251716546714306,0.02410460263490677,0.0003182973014190793,0.00016170297749340534,0.0016915261512622237,0,2,-1000,0,0,0,-1,2,0,1500.0
04:18:19.266,STABILIZE,-35.3632621,149.1652375,0,-0.00036897382233291864,0.0009251716546714306,0.02410460263490677,0.0003182973014190793,0.00016170297749340534,0.0016915261512622237,0,2,-1000,0,0,0,-1,2,0,1500.0
04:18:19.468,STABILIZE,-35.3632621,149.1652375,0,-0.00036897382233291864,0.0009251716546714306,0.02410460263490677,0.0003182973014190793,0.00016170297749340534,0.0016915261512622237,0,2,-1000,0,0,0,-1,2,0,1500.0
04:18:19.669,STABILIZE,-35.3632621,149.1652375,0,-0.00036897382233291864,0.0009251716546714306,0.02410460263490677,0.0003182973014190793,0.00016170297749340534,0.0016915261512622237,0,2,-1000,0,0,0,-1,2,0,1500.0
04:18:19.870,STABILIZE,-35.3632621,149.1652376,0,-0.00020435205078683794,0.0009351042099297047,0.02362692542374134,0.0002391688758507371,0.00021831778576597571,0.001831941306591034,0,2,-1000,0,0,0,-1,2,1,1500.0
04:18:20.071,STABILIZE,-35.3632621,149.1652376,0,-0.00020435205078683794,0.0009351042099297047,0.02362692542374134,0.0002391688758507371,0.00021831778576597571,0.001831941306591034,0,2,-1000,0,0,0,-1,2,1,1500.0
04:18:20.273,STABILIZE,-35.3632621,149.1652376,0,-0.00020435205078683794,0.0009351042099297047,0.02362692542374134,0.0002391688758507371,0.00021831778576597571,0.001831941306591034,0,1,-1000,0,0,0,-1,2,1,1500.0
04:18:20.474,STABILIZE,-35.3632621,149.1652376,0,-0.00020435205078683794,0.0009351042099297047,0.02362692542374134,0.0002391688758507371,0.00021831778576597571,0.001831941306591034,0,1,-1000,0,0,0,-1,2,1,1500.0
04:18:20.676,STABILIZE,-35.3632622,149.1652376,0,-0.00039313483284786344,0.0009460483561269939,0.023345569148659706,0.0002989039057865739,0.0002480698167346418,0.0017955767689272761,0,1,-1000,0,0,0,-1,2,1,1500.0
04:18:20.877,STABILIZE,-35.3632622,149.1652376,0,-0.0004588426381815225,0.0009528349037282169,0.023236297070980072,0.00020094390492886305,0.00021688052220270038,0.0017187492921948433,0,2,-1000,0,1,0,-1,2,1,1500.0
04:18:21.078,STABILIZE,-35.3632622,149.1652376,0,-0.0004588426381815225,0.0009528349037282169,0.023236297070980072,0.00020094390492886305,0.00021688052220270038,0.0017187492921948433,0,2,-1000,0,1,0,-1,2,1,1500.0
04:18:21.280,STABILIZE,-35.3632622,149.1652376,0,-0.0004588426381815225,0.0009528349037282169,0.023236297070980072,0.00020094390492886305,0.00021688052220270038,0.0017187492921948433,0,1,-1000,0,1,0,-1,2,1,1500.0
04:18:21.481,STABILIZE,-35.3632622,149.1652376,0,-0.0004588426381815225,0.0009528349037282169,0.023236297070980072,0.00020094390492886305,0.00021688052220270038,0.0017187492921948433,0,1,-1000,0,1,0,-1,2,1,1500.0
04:18:21.682,STABILIZE,-35.3632622,149.1652376,0,-0.0004588426381815225,0.0009528349037282169,0.023236297070980072,0.00020094390492886305,0.00021688052220270038,0.0017187492921948433,0,1,-1000,0,1,0,-1,2,1,1500.0
04:18:21.883,STABILIZE,-35.3632622,149.1652375,0,-0.0006800007540732622,0.0009625137317925692,0.022898532450199127,0.00018984172493219376,0.00029437209013849497,0.0015893715899437666,0,1,-1000,0,1,0,-1,2,1,1500.0
04:18:22.085,STABILIZE,-35.3632622,149.1652375,0,-0.0006800007540732622,0.0009625137317925692,0.022898532450199127,0.00018984172493219376,0.00029437209013849497,0.0015893715899437666,0,1,-1000,0,1,0,-1,2,1,1500.0
04:18:22.286,STABILIZE,-35.3632622,149.1652375,0,-0.0006800007540732622,0.0009625137317925692,0.022898532450199127,0.00018984172493219376,0.00029437209013849497,0.0015893715899437666,0,1,-1000,0,1,0,-1,2,1,1500.0
04:18:22.488,STABILIZE,-35.3632622,149.1652375,0,-0.0007832240080460906,0.0009654610767029226,0.022764703258872032,0.0002771918079815805,0.00023310421966016293,0.0016739312559366226,0,1,-1000,1,1,1,-1,1,1,1500.0
04:18:22.689,STABILIZE,-35.3632622,149.1652375,0,-0.0008169265347532928,0.0009631259017623961,0.022681795060634613,0.0003094333806075156,0.00013569713337346911,0.001642713788896799,0,1,-1000,1,1,1,-1,0,-1,1500.0
04:18:22.891,STABILIZE,-35.3632622,149.1652375,0,-0.0008169265347532928,0.0009631259017623961,0.022681795060634613,0.0003094333806075156,0.00013569713337346911,0.001642713788896799,0,1,-1000,0,0,0,-1,0,-1,1500.0
04:18:23.094,STABILIZE,-35.3632622,149.1652375,0,-0.0007844495121389627,0.0009653734159655869,0.022579234093427658,0.0003251542802900076,0.00027814245549961925,0.00170405104290694,0,2,-1000,0,0,0,-1,0,-1,1500.0
04:18:23.296,STABILIZE,-35.3632622,149.1652375,0,-0.0007844495121389627,0.0009653734159655869,0.022579234093427658,0.0003251542802900076,0.00027814245549961925,0.00170405104290694,0,2,-1000,0,0,0,-1,0,-1,1500.0
04:18:23.497,STABILIZE,-35.3632622,149.1652375,0,-0.0007844495121389627,0.0009653734159655869,0.022579234093427658,0.0003251542802900076,0.00027814245549961925,0.00170405104290694,0,2,-1000,0,0,0,-1,0,-1,1500.0
04:18:23.698,STABILIZE,-35.3632622,149.1652375,0,-0.0007844495121389627,0.0009653734159655869,0.022579234093427658,0.0003251542802900076,0.00027814245549961925,0.00170405104290694,0,2,-1000,0,0,0,-1,0,-1,1500.0
04:18:23.900,STABILIZE,-35.3632622,149.1652375,0,-0.0006846916512586176,0.0009753212216310203,0.02239718846976757,0.0002614507102407515,0.0002361740916967392,0.0016549917636439204,0,1,-1000,0,0,0,-1,0,-1,1500.0
04:18:24.101,STABILIZE,-35.3632622,149.1652375,0,-0.0006846916512586176,0.0009753212216310203,0.02239718846976757,0.0002614507102407515,0.0002361740916967392,0.0016549917636439204,0,1,-1000,0,0,0,-1,0,-1,1500.0
04:18:24.303,STABILIZE,-35.3632622,149.1652375,0,-0.0006846916512586176,0.0009753212216310203,0.02239718846976757,0.0002614507102407515,0.0002361740916967392,0.0016549917636439204,0,1,-1000,0,0,0,-1,0,-1,1500.0
04:18:24.504,STABILIZE,-35.3632622,149.1652375,0,-0.0006846916512586176,0.0009753212216310203,0.02239718846976757,0.0002614507102407515,0.0002361740916967392,0.0016549917636439204,0,1,-1000,0,0,0,-1,0,-1,1500.0
04:18:24.705,STABILIZE,-35.3632622,149.1652375,0,-0.0006352624041028321,0.0009780059335753322,0.02220650017261505,0.00021651946008205414,0.00026627484476193786,0.0017348222900182009,0,1,-1000,0,0,0,-1,1,0,1500.0
04:18:24.906,STABILIZE,-35.3632622,149.1652375,0,-0.0006296848878264427,0.0009752445039339364,0.022152038291096687,0.00023331359261646867,0.00016519188648089767,0.0014738901518285275,0,2,-1000,0,0,0,-1,1,0,1500.0
04:18:25.107,STABILIZE,-35.3632622,149.1652375,0,-0.0006296848878264427,0.0009752445039339364,0.022152038291096687,0.00023331359261646867,0.00016519188648089767,0.0014738901518285275,0,1,-1000,1,1,1,-1,1,0,1500.0
04:18:25.309,STABILIZE,-35.3632622,149.1652375,0,-0.0006296848878264427,0.0009752445039339364,0.022152038291096687,0.00023331359261646867,0.00016519188648089767,0.0014738901518285275,0,1,-1000,1,1,1,-1,1,0,1500.0
04:18:25.510,STABILIZE,-35.3632622,149.1652375,0,-0.0006296848878264427,0.0009752445039339364,0.022152038291096687,0.00023331359261646867,0.00016519188648089767,0.0014738901518285275,0,1,-1000,1,1,1,-1,1,0,1500.0
04:18:25.711,STABILIZE,-35.3632622,149.1652375,0,-0.0006296848878264427,0.0009752445039339364,0.022152038291096687,0.00023331359261646867,0.00016519188648089767,0.0014738901518285275,0,1,-1000,1,1,1,-1,1,0,1500.0
04:18:25.913,STABILIZE,-35.3632622,149.1652375,0,-0.000627404369879514,0.0009902497986331582,0.021890562027692795,0.00023254286497831345,0.00018023187294602394,0.0015779004897922277,0,2,-1000,0,1,1,-1,1,0,1500.0
04:18:26.114,STABILIZE,-35.3632622,149.1652375,0,-0.00048468002933077514,0.0009845704771578312,0.021829696372151375,0.00024536234559491277,0.0002680605975911021,0.0015684613026678562,0,1,-1000,0,0,0,-1,0,-1,1500.0
04:18:26.315,STABILIZE,-35.3632622,149.1652375,0,-0.00048468002933077514,0.0009845704771578312,0.021829696372151375,0.00024536234559491277,0.0002680605975911021,0.0015684613026678562,0,1,-1000,0,0,0,-1,0,-1,1500.0
04:18:26.516,STABILIZE,-35.3632622,149.1652375,0,-0.00048059524851851165,0.0009889203356578946,0.021782493218779564,0.0001921685179695487,0.0002353702438995242,0.0015102926408872008,0,1,-1000,1,0,0,-1,0,-1,1500.0
04:18:26.718,STABILIZE,-35.3632622,149.1652375,0,-0.00048059524851851165,0.0009889203356578946,0.021782493218779564,0.0001921685179695487,0.0002353702438995242,0.0015102926408872008,0,1,-1000,1,0,1,-1,0,-1,1500.0
04:18:26.920,STABILIZE,-35.3632622,149.1652375,0,-0.00048059524851851165,0.0009889203356578946,0.021782493218779564,0.0001921685179695487,0.0002353702438995242,0.0015102926408872008,0,1,-1000,1,0,1,-1,0,-1,1500.0
04:18:27.121,STABILIZE,-35.3632622,149.1652375,0,-0.00048059524851851165,0.0009889203356578946,0.021782493218779564,0.0001921685179695487,0.0002353702438995242,0.0015102926408872008,0,1,-1000,0,1,0,-1,0,-1,1500.0
04:18:27.322,STABILIZE,-35.3632622,149.1652375,0,-0.00048059524851851165,0.0009889203356578946,0.021782493218779564,0.0001921685179695487,0.0002353702438995242,0.0015102926408872008,0,1,-1000,0,1,0,-1,0,-1,1500.0
04:18:27.524,AUTO,-35.3632622,149.1652375,0,-0.00048059524851851165,0.0009889203356578946,0.021782493218779564,0.0001921685179695487,0.0002353702438995242,0.0015102926408872008,0,1,-1000,0,1,0,-1,0,-1,1500.0
04:18:27.726,AUTO,-35.3632622,149.1652375,0,-0.00048059524851851165,0.0009889203356578946,0.021782493218779564,0.0001921685179695487,0.0002353702438995242,0.0015102926408872008,0,1,-1000,0,1,0,-1,0,-1,1500.0
04:18:27.928,AUTO,-35.3632622,149.1652375,9,-0.00042700557969510555,0.0009997145971283317,0.021418338641524315,0.0002614445984363556,0.00011686078505590558,0.0015436664689332247,0,2,-1000,0,1,1,-1,1,0,1500.0
04:18:28.129,AUTO,-35.3632622,149.1652375,9,-0.0004339145089033991,0.0010023637441918254,0.021354293450713158,0.0002916198573075235,0.00018380081746727228,0.0015102531760931015,0,1,-1000,0,1,0,-1,1,0,300000.0
04:18:28.331,AUTO,-35.3632622,149.1652375,9,-0.0004339145089033991,0.0010023637441918254,0.021354293450713158,0.0002916198573075235,0.00018380081746727228,0.0015102531760931015,0,1,-1000,0,1,0,-1,1,0,300000.0
04:18:28.533,AUTO,-35.3632621,149.1652375,8,-0.00042173208203166723,0.0010215395595878363,0.02128233015537262,0.0002906365552917123,0.0003558495664037764,0.001546117477118969,0,2,-1000,0,1,0,0,1,0,300000.0
04:18:28.734,AUTO,-35.3632621,149.1652375,8,-0.00039206186193041503,0.0010563685791566968,0.021215610206127167,0.00034282944398000836,0.0003405055031180382,0.0015187943354249,0,1,-1000,0,0,1,0,0,0,300000.0
04:18:28.936,AUTO,-35.3632621,149.1652375,8,-0.00035374113940633833,0.001106354407966137,0.021148746833205223,0.00035872013540938497,0.00028835656121373177,0.0014305553631857038,0,1,-1000,0,1,0,0,0,0,300000.0
04:18:29.137,AUTO,-35.3632621,149.1652375,7,-0.00031473589478991926,0.0011603650636970997,0.021080465987324715,0.00035045668482780457,0.0002764103119261563,0.0014360446948558092,0,2,-1000,1,0,0,0,0,0,300000.0
04:18:29.339,AUTO,-35.3632621,149.1652375,7,-0.00031473589478991926,0.0011603650636970997,0.021080465987324715,0.00035045668482780457,0.0002764103119261563,0.0014360446948558092,0,2,-1000,1,0,0,0,0,0,300000.0
04:18:29.552,AUTO,-35.3632621,149.1652375,7,-0.00031473589478991926,0.0011603650636970997,0.021080465987324715,0.00035045668482780457,0.0002764103119261563,0.0014360446948558092,0,2,-1000,1,0,0,0,0,0,300000.0
04:18:29.754,AUTO,-35.3632621,149.1652375,7,-0.00031473589478991926,0.0011603650636970997,0.021080465987324715,0.00035045668482780457,0.0002764103119261563,0.0014360446948558092,0,2,-1000,1,0,0,0,0,0,300000.0
04:18:29.955,AUTO,-35.3632621,149.1652375,6,-0.00014248472871258855,0.0013455606531351805,0.0208883173763752,0.0002897478989325464,0.00024700252106413245,0.001537152100354433,0,1,-1000,0,0,0,0,0,0,300000.0
04:18:30.157,AUTO,-35.3632621,149.1652375,5,-7.807413203408942e-05,0.0014226064085960388,0.020811855792999268,0.0003284616977907717,0.00035850488347932696,0.0014567134203389287,0,1,-1000,0,1,0,0,0,0,300000.0
04:18:30.358,AUTO,-35.3632621,149.1652375,5,-1.5395014997920953e-05,0.0014930509496480227,0.020737767219543457,0.00027998629957437515,0.0003262109821662307,0.0013671688502654433,0,1,-1000,0,0,0,0,0,0,300000.0
04:18:30.560,AUTO,-35.3632621,149.1652375,5,-1.5395014997920953e-05,0.0014930509496480227,0.020737767219543457,0.00027998629957437515,0.0003262109821662307,0.0013671688502654433,0,1,-1000,0,0,0,0,0,0,300000.0
04:18:30.762,AUTO,-35.3632621,149.1652375,4,5.112305370857939e-05,0.0015691355802118778,0.020668787881731987,0.00032114353962242603,0.0001889917184598744,0.00143071124330163,0,2,-1000,1,0,1,0,0,0,300000.0
04:18:30.963,AUTO,-35.3632621,149.1652375,4,0.00012134192365920171,0.0016450376715511084,0.02059616707265377,0.000364704173989594,0.00032438128255307674,0.0014626074116677046,0,1,-1000,0,0,1,0,0,0,300000.0
04:18:31.166,AUTO,-35.3632621,149.1652375,3,0.00020253371621947736,0.0017253168625757098,0.020517131313681602,0.0003739314852282405,0.0004155344213359058,0.001406604889780283,0,2,-1000,1,0,0,0,0,0,300000.0
04:18:31.368,AUTO,-35.3632621,149.1652375,3,0.00020253371621947736,0.0017253168625757098,0.020517131313681602,0.0003739314852282405,0.0004155344213359058,0.001406604889780283,0,2,-1000,1,0,0,0,0,0,300000.0
04:18:31.570,AUTO,-35.3632621,149.1652375,3,0.00020253371621947736,0.0017253168625757098,0.020517131313681602,0.0003739314852282405,0.0004155344213359058,0.001406604889780283,0,2,-1000,1,0,0,0,0,0,300000.0
04:18:31.772,AUTO,-35.3632621,149.1652375,3,0.00020253371621947736,0.0017253168625757098,0.020517131313681602,0.0003739314852282405,0.0004155344213359058,0.001406604889780283,0,2,-1000,1,0,0,0,0,0,300000.0
04:18:31.973,AUTO,-35.3632621,149.1652375,197,0.0031843569595366716,0.0002518496476113796,0.020448191091418266,-0.0017342233331874013,0.005350317340344191,0.0018397821113467216,0,0,-1130,-1,5,1,0,0,-71,300000.0
04:18:32.175,AUTO,-35.3632621,149.1652375,410,0.0022773982491344213,0.0012148827081546187,0.020452922210097313,-0.006630288902670145,0.0026687581557780504,0.0012021780712530017,0,0,-1109,-5,3,0,0,0,-99,135697.0
04:18:32.376,AUTO,-35.3632621,149.1652375,693,0.0019160788506269455,0.0016444813227280974,0.020260794088244438,0.0023116678930819035,4.761980380862951e-05,-0.0004920396022498608,0,0,-1088,3,0,-1,0,0,-123,135697.0
04:18:32.578,AUTO,-35.3632621,149.1652375,693,0.0019160788506269455,0.0016444813227280974,0.020260794088244438,0.0023116678930819035,4.761980380862951e-05,-0.0004920396022498608,0,0,-1088,3,0,-1,0,0,-123,135697.0
04:18:32.780,AUTO,-35.3632621,149.1652375,1031,0.011038311757147312,0.0006827749311923981,0.01987350918352604,0.047737833112478256,-0.006036290433257818,0.000902515952475369,0,0,-1041,47,-5,0,0,1,-137,135697.0
04:18:32.981,AUTO,-35.3632621,149.1652375,1395,0.02288818545639515,-0.0010360879823565483,0.019775904715061188,0.04722253605723381,-0.007515770383179188,0.0018207605462521315,0,0,-1017,47,-6,1,0,5,-144,135697.0
04:18:33.183,AUTO,-35.363262,149.1652377,1770,0.03434383124113083,-0.002918174024671316,0.019854586571455002,0.04493927210569382,-0.007826861925423145,0.0026658258866518736,0,-1,-1007,45,-7,2,1,11,-146,135697.0
04:18:33.385,AUTO,-35.363262,149.1652377,1770,0.03434383124113083,-0.002918174024671316,0.019854586571455002,0.04493927210569382,-0.007826861925423145,0.0026658258866518736,0,-1,-1007,45,-7,2,1,11,-146,135697.0
04:18:33.587,AUTO,-35.363262,149.1652377,1770,0.03434383124113083,-0.002918174024671316,0.019854586571455002,0.04493927210569382,-0.007826861925423145,0.0026658258866518736,0,-1,-1007,45,-7,2,1,11,-146,135697.0
04:18:33.790,AUTO,-35.363262,149.1652377,1770,0.03434383124113083,-0.002918174024671316,0.019854586571455002,0.04493927210569382,-0.007826861925423145,0.0026658258866518736,0,-1,-1007,45,-7,2,1,11,-146,135697.0
04:18:33.991,AUTO,-35.3632616,149.1652397,2918,0.06271471828222275,-0.00937182828783989,-0.008762902580201626,-0.008049438707530499,0.018288325518369675,-0.04007790982723236,2,-8,-992,-7,19,-40,8,43,-146,135697.0
04:18:34.193,AUTO,-35.3632614,149.165241,3297,0.042708832770586014,0.0122841726988554,-0.030899101868271828,-0.13635128736495972,0.10045288503170013,-0.10312985628843307,2,-9,-991,-135,101,-103,10,53,-144,135697.0
04:18:34.395,AUTO,-35.3632611,149.1652424,3675,-0.001609233790077269,0.02390057034790516,-0.052417151629924774,-0.17083312571048737,0.012062184512615204,-0.10415324568748474,5,-13,-1001,-170,13,-104,7,54,-143,135697.0
04:18:34.597,AUTO,-35.363261,149.1652438,4050,-0.0289288517087698,0.037805747240781784,-0.08516058325767517,-0.06255070865154266,0.07573258876800537,-0.1434837132692337,4,-11,-1011,-61,76,-143,1,46,-146,135697.0
04:18:34.799,AUTO,-35.363261,149.1652438,4050,-0.0289288517087698,0.037805747240781784,-0.08516058325767517,-0.06255070865154266,0.07573258876800537,-0.1434837132692337,4,-11,-1011,-61,76,-143,1,46,-146,135697.0
04:18:35.001,AUTO,-35.363261,149.1652449,4431,-0.037690419703722,0.04941173642873764,-0.11804170161485672,-0.020212339237332344,0.04096968472003937,-0.12843509018421173,5,-7,-1006,-19,41,-128,-8,36,-147,135697.0
04:18:35.203,AUTO,-35.3632612,149.1652457,4815,-0.04699835926294327,0.039416782557964325,-0.13032594323158264,-0.05486994609236717,-0.1024755984544754,-0.004015461541712284,7,-5,-1000,-54,-101,-4,-19,25,-147,135697.0
04:18:35.404,AUTO,-35.3632612,149.1652457,4815,-0.04699835926294327,0.039416782557964325,-0.13032594323158264,-0.05486994609236717,-0.1024755984544754,-0.004015461541712284,7,-5,-1000,-54,-101,-4,-19,25,-147,135697.0
04:18:35.606,AUTO,-35.3632612,149.1652457,4815,-0.04699835926294327,0.039416782557964325,-0.13032594323158264,-0.05486994609236717,-0.1024755984544754,-0.004015461541712284,7,-5,-1000,-54,-101,-4,-19,25,-147,135697.0
04:18:35.808,AUTO,-35.3632612,149.1652457,4815,-0.04699835926294327,0.039416782557964325,-0.13032594323158264,-0.05486994609236717,-0.1024755984544754,-0.004015461541712284,7,-5,-1000,-54,-101,-4,-19,25,-147,135697.0
04:18:36.010,AUTO,-35.3632626,149.165246,5962,-0.06112851947546005,-0.03299451991915703,-0.08545532077550888,0.049653708934783936,-0.032389603555202484,0.04693875461816788,1,5,-1004,50,-31,46,-15,-21,-148,135697.0
04:18:36.212,AUTO,-35.3632629,149.1652453,6347,-0.04763380438089371,-0.03680352121591568,-0.07637966424226761,0.058389585465192795,-0.009793422184884548,0.03638661652803421,0,7,-1001,58,-9,35,-7,-34,-148,67243.0
04:18:36.414,AUTO,-35.363263,149.1652442,6732,-0.03319310024380684,-0.037360817193984985,-0.07006005942821503,0.05925919860601425,0.000247674819547683,0.027966611087322235,-4,6,-1001,59,1,27,0,-43,-148,67243.0
04:18:36.616,AUTO,-35.3632629,149.165243,7117,-0.018243106082081795,-0.03588208183646202,-0.06540171056985855,0.06003294140100479,0.008787362836301327,0.02182973548769951,-6,11,-1001,60,9,21,7,-48,-149,67243.0
04:18:36.819,AUTO,-35.3632629,149.165243,7117,-0.018243106082081795,-0.03588208183646202,-0.06540171056985855,0.06003294140100479,0.008787362836301327,0.02182973548769951,-6,11,-1001,60,9,21,7,-48,-149,67243.0
04:18:37.021,AUTO,-35.3632627,149.1652416,7503,-0.0046371035277843475,-0.03158007934689522,-0.06318888068199158,0.049184925854206085,0.02536417916417122,0.004568704403936863,-9,6,-1000,49,26,4,13,-50,-149,67243.0
04:18:37.223,AUTO,-35.3632625,149.1652401,7889,0.004693306516855955,-0.021363798528909683,-0.06652046740055084,0.03129694238305092,0.05094937980175018,-0.017690733075141907,-9,7,-1001,32,51,-18,18,-49,-149,67243.0
04:18:37.425,AUTO,-35.3632625,149.1652401,7889,0.004693306516855955,-0.021363798528909683,-0.06652046740055084,0.03129694238305092,0.05094937980175018,-0.017690733075141907,-9,7,-1001,32,51,-18,18,-49,-149,67243.0
04:18:37.628,AUTO,-35.3632625,149.1652401,7889,0.004693306516855955,-0.021363798528909683,-0.06652046740055084,0.03129694238305092,0.05094937980175018,-0.017690733075141907,-9,7,-1001,32,51,-18,18,-49,-149,67243.0
04:18:37.830,AUTO,-35.3632625,149.1652401,7889,0.004693306516855955,-0.021363798528909683,-0.06652046740055084,0.03129694238305092,0.05094937980175018,-0.017690733075141907,-9,7,-1001,32,51,-18,18,-49,-149,67243.0
04:18:38.033,AUTO,-35.3632613,149.1652364,9056,0.030681518837809563,0.015849644318223,-0.09270232915878296,0.03133262321352959,0.04718949645757675,-0.04289118945598602,-7,5,-1002,31,47,-43,15,-33,-151,67243.0
04:18:38.234,AUTO,-35.363261,149.1652355,9447,0.038853343576192856,0.02676936611533165,-0.10358093678951263,0.03200076147913933,0.036181751638650894,-0.037598323076963425,-7,4,-1001,32,36,-38,9,-24,-151,67243.0
04:18:38.436,AUTO,-35.3632608,149.1652349,9838,0.03987496346235275,0.029932798817753792,-0.10921797901391983,-0.01501970924437046,-0.007988624274730682,-0.006369521841406822,-4,2,-997,-14,-7,-6,2,-14,-150,67243.0
04:18:38.638,AUTO,-35.3632608,149.1652346,10226,0.03381810337305069,0.02436896413564682,-0.10859447717666626,-0.029911741614341736,-0.027685821056365967,0.012399230152368546,-1,2,-998,-29,-26,11,-2,-4,-150,67243.0
04:18:38.840,AUTO,-35.3632608,149.1652346,10226,0.03381810337305069,0.02436896413564682,-0.10859447717666626,-0.029911741614341736,-0.027685821056365967,0.012399230152368546,-1,2,-998,-29,-26,11,-2,-4,-150,67243.0
04:18:39.042,AUTO,-35.3632609,149.1652345,10621,0.02532377280294895,0.016951806843280792,-0.10496962815523148,-0.03262951225042343,-0.02673509530723095,0.01811312697827816,0,0,-999,-32,-25,17,-6,2,-149,67243.0
04:18:39.244,AUTO,-35.3632609,149.1652345,11006,0.017585378140211105,0.01095095556229353,-0.10114751756191254,-0.028508497402071953,-0.020656315609812737,0.01597333513200283,1,0,-1000,-28,-20,15,-8,7,-149,67243.0
04:18:39.446,AUTO,-35.3632609,149.1652345,11006,0.017585378140211105,0.01095095556229353,-0.10114751756191254,-0.028508497402071953,-0.020656315609812737,0.01597333513200283,1,0,-1000,-28,-20,15,-8,7,-149,67243.0
04:18:39.648,AUTO,-35.3632609,149.1652345,11006,0.017585378140211105,0.01095095556229353,-0.10114751756191254,-0.028508497402071953,-0.020656315609812737,0.01597333513200283,1,0,-1000,-28,-20,15,-8,7,-149,67243.0
04:18:39.858,AUTO,-35.3632609,149.1652345,11006,0.017585378140211105,0.01095095556229353,-0.10114751756191254,-0.028508497402071953,-0.020656315609812737,0.01597333513200283,1,0,-1000,-28,-20,15,-8,7,-149,67243.0
04:18:40.060,AUTO,-35.3632615,149.1652351,12156,0.0024361980613321066,0.0007233538199216127,-0.09716968238353729,-0.012034323066473007,-0.00815350841730833,-0.0033706966787576675,3,0,-1000,-11,-7,-3,-8,10,-150,67243.0
04:18:40.262,AUTO,-35.3632617,149.1652353,12544,0.00010385129280621186,-0.0011289543472230434,-0.09862454980611801,-0.006190753076225519,-0.0063326070085167885,-0.007552857976406813,2,0,-1001,-5,-5,-8,-7,9,-150,300000.0
04:18:40.464,AUTO,-35.3632618,149.1652355,12932,-0.0013998361537232995,-0.00251568341627717,-0.10123108327388763,-0.006296985317021608,-0.004252726212143898,-0.01266884058713913,2,0,-1000,-5,-3,-12,-5,8,-150,300000.0
04:18:40.665,AUTO,-35.3632619,149.1652357,13320,-0.002141412580385804,-0.003065211931243539,-0.1050182580947876,-0.0007223050342872739,-0.000986854312941432,-0.014737077988684177,1,0,-1000,0,0,-15,-4,6,-150,300000.0
04:18:40.866,AUTO,-35.363262,149.1652358,13709,-0.0019400707678869367,-0.0033285655081272125,-0.10952074080705643,0.0038003779482096434,0.001372839673422277,-0.01953328773379326,1,0,-1001,4,2,-19,-2,4,-151,300000.0
04:18:41.068,AUTO,-35.363262,149.1652358,13709,-0.0019400707678869367,-0.0033285655081272125,-0.10952074080705643,0.0038003779482096434,0.001372839673422277,-0.01953328773379326,1,0,-1001,4,2,-19,-2,4,-151,300000.0
04:18:41.270,AUTO,-35.363262,149.1652358,14098,-0.0010102670639753342,-0.002790504600852728,-0.11475340276956558,0.003117907792329788,0.0013782399473711848,-0.019057510420680046,0,0,-1000,3,2,-19,-1,3,-151,300000.0
04:18:41.472,AUTO,-35.363262,149.1652358,14098,-0.0010102670639753342,-0.002790504600852728,-0.11475340276956558,0.003117907792329788,0.0013782399473711848,-0.019057510420680046,0,0,-1000,3,2,-19,-1,3,-151,300000.0
04:18:41.673,AUTO,-35.363262,149.1652358,14098,-0.0010102670639753342,-0.002790504600852728,-0.11475340276956558,0.003117907792329788,0.0013782399473711848,-0.019057510420680046,0,0,-1000,3,2,-19,-1,3,-151,300000.0
04:18:41.875,AUTO,-35.363262,149.1652358,15266,0.002415586030110717,6.681425293209031e-05,-0.1324329823255539,0.0048950533382594585,0.0056028058752417564,-0.022266549989581108,0,0,-1000,5,6,-22,0,0,-151,300000.0
04:18:42.077,AUTO,-35.363262,149.1652358,15266,0.002415586030110717,6.681425293209031e-05,-0.1324329823255539,0.0048950533382594585,0.0056028058752417564,-0.022266549989581108,0,0,-1000,5,6,-22,0,0,-151,300000.0
04:18:42.278,AUTO,-35.363262,149.1652358,15656,0.003389654913917184,0.0013623539125546813,-0.13847699761390686,0.0031377871055155993,0.00503358943387866,-0.02224617823958397,0,0,-1000,4,5,-22,1,0,-151,300000.0
04:18:42.480,AUTO,-35.3632619,149.1652358,16044,0.004186517093330622,0.0023742488119751215,-0.14420603215694427,0.004147539846599102,0.003601249074563384,-0.022342732176184654,0,0,-1000,4,4,-22,1,0,-151,300000.0
04:18:42.681,AUTO,-35.3632619,149.1652358,16434,0.005366658791899681,0.003324801567941904,-0.1498202383518219,0.005155785009264946,0.0053616780787706375,-0.02191067300736904,0,0,-1000,5,6,-22,1,0,-151,300000.0
04:18:42.883,AUTO,-35.3632618,149.1652358,16824,0.006029205862432718,0.004391802474856377,-0.15537209808826447,0.0028006364591419697,0.004329586401581764,-0.02099578082561493,0,0,-1000,3,5,-21,0,1,-151,300000.0
04:18:43.085,AUTO,-35.3632618,149.1652358,16824,0.006029205862432718,0.004391802474856377,-0.15537209808826447,0.0028006364591419697,0.004329586401581764,-0.02099578082561493,0,0,-1000,3,5,-21,0,1,-151,300000.0
04:18:43.288,AUTO,-35.3632618,149.1652357,17214,0.006461252924054861,0.005215303506702185,-0.1606944501399994,0.0023101407568901777,0.003189531620591879,-0.02041633613407612,-1,0,-1000,2,3,-20,0,1,-151,300000.0
04:18:43.491,AUTO,-35.3632618,149.1652357,17214,0.006461252924054861,0.005215303506702185,-0.1606944501399994,0.0023101407568901777,0.003189531620591879,-0.02041633613407612,-1,0,-1000,2,3,-20,0,1,-151,300000.0
04:18:43.693,AUTO,-35.3632618,149.1652357,17214,0.006461252924054861,0.005215303506702185,-0.1606944501399994,0.0023101407568901777,0.003189531620591879,-0.02041633613407612,-1,0,-1000,2,3,-20,0,1,-151,300000.0
04:18:43.895,AUTO,-35.3632617,149.1652357,18383,0.0063523487187922,0.005398131441324949,-0.17436078190803528,0.001265412662178278,-0.0003476757847238332,-0.017364464700222015,0,0,-1000,2,0,-17,-1,4,-151,300000.0
04:18:44.096,AUTO,-35.3632617,149.1652357,18383,0.0063523487187922,0.005398131441324949,-0.17436078190803528,0.001265412662178278,-0.0003476757847238332,-0.017364464700222015,0,0,-1000,2,0,-17,-1,4,-151,300000.0
04:18:44.298,AUTO,-35.3632617,149.1652358,18772,0.00603339122608304,0.005135268438607454,-0.17833282053470612,-0.0011634378461167216,-0.0013253088109195232,-0.015752743929624557,0,0,-1000,0,0,-16,-1,4,-151,103947.0
04:18:44.499,AUTO,-35.3632617,149.1652359,19162,0.005233284551650286,0.005014344118535519,-0.18256868422031403,-0.0017292398260906339,-0.00020303507335484028,-0.017347559332847595,0,0,-1000,0,0,-17,-2,5,-151,103947.0
04:18:44.701,AUTO,-35.3632617,149.1652359,19551,0.0048898267559707165,0.005009101703763008,-0.18701815605163574,-0.0008017983636818826,0.00148335425183177,-0.019736681133508682,0,0,-1000,0,2,-19,-2,5,-152,103947.0
04:18:44.903,AUTO,-35.3632617,149.165236,19948,0.004574545659124851,0.004747733473777771,-0.19138552248477936,0.000324379769153893,0.0001501173828728497,-0.018394306302070618,0,0,-1000,0,0,-18,-2,5,-152,103947.0
04:18:45.105,AUTO,-35.3632617,149.1652361,20338,0.0043525309301912785,0.004839721601456404,-0.19599652290344238,-9.205075912177563e-05,-0.0003198811027687043,-0.017159637063741684,0,0,-1000,0,0,-17,-2,5,-152,103947.0
04:18:45.307,AUTO,-35.3632617,149.1652361,20338,0.0043525309301912785,0.004839721601456404,-0.19599652290344238,-9.205075912177563e-05,-0.0003198811027687043,-0.017159637063741684,0,0,-1000,0,0,-17,-2,5,-152,103947.0
04:18:45.508,AUTO,-35.3632617,149.1652361,20338,0.0043525309301912785,0.004839721601456404,-0.19599652290344238,-9.205075912177563e-05,-0.0003198811027687043,-0.017159637063741684,0,0,-1000,0,0,-17,-2,5,-152,103947.0
04:18:45.710,AUTO,-35.3632617,149.1652361,20338,0.0043525309301912785,0.004839721601456404,-0.19599652290344238,-9.205075912177563e-05,-0.0003198811027687043,-0.017159637063741684,0,0,-1000,0,0,-17,-2,5,-152,103947.0
04:18:45.912,AUTO,-35.3632617,149.1652363,21506,0.0026964640710502863,0.0038330068346112967,-0.2095969319343567,-0.00011826003901660442,0.0007196213118731976,-0.022200612351298332,0,0,-1000,0,1,-22,-3,5,-152,103947.0
04:18:46.113,AUTO,-35.3632617,149.1652364,21896,0.002573054051026702,0.003929808735847473,-0.21444754302501678,0.00019908382091671228,-0.0002977421972900629,-0.01730566844344139,0,0,-1000,0,0,-17,-3,5,-152,103947.0
04:18:46.315,AUTO,-35.3632617,149.1652364,21896,0.002573054051026702,0.003929808735847473,-0.21444754302501678,0.00019908382091671228,-0.0002977421972900629,-0.01730566844344139,0,0,-1000,0,0,-17,-3,5,-152,103947.0
04:18:46.516,AUTO,-35.3632617,149.1652365,22285,0.0024643174838274717,0.0036296776961535215,-0.21919457614421844,0.0012510152300819755,-0.0015799335669726133,-0.019113317131996155,0,0,-1000,2,0,-19,-3,4,-152,103947.0
04:18:46.717,AUTO,-35.3632617,149.1652365,22674,0.0021886981558054686,0.0030792371835559607,-0.22377564013004303,-0.0007785013876855373,-0.0005993010709062219,-0.019755175337195396,0,0,-1000,0,0,-20,-3,4,-152,103947.0
04:18:46.921,AUTO,-35.3632618,149.1652366,23064,0.0020314131397753954,0.0028373966924846172,-0.2284555584192276,0.0003963737399317324,0.00035777827724814415,-0.019460462033748627,0,0,-1000,1,1,-19,-3,4,-152,103947.0
04:18:47.124,AUTO,-35.3632618,149.1652367,23454,0.0017628688365221024,0.0027549087535589933,-0.23327985405921936,0.0001494440366514027,0.0005756766768172383,-0.0214284248650074,0,0,-1000,1,1,-21,-3,4,-152,103947.0
04:18:47.325,AUTO,-35.3632618,149.1652367,23454,0.0017628688365221024,0.0027549087535589933,-0.23327985405921936,0.0001494440366514027,0.0005756766768172383,-0.0214284248650074,0,0,-1000,1,1,-21,-3,4,-152,103947.0
04:18:47.527,AUTO,-35.3632618,149.1652367,23454,0.0017628688365221024,0.0027549087535589933,-0.23327985405921936,0.0001494440366514027,0.0005756766768172383,-0.0214284248650074,0,0,-1000,1,1,-21,-3,4,-152,103947.0
04:18:47.729,AUTO,-35.3632618,149.1652367,23454,0.0017628688365221024,0.0027549087535589933,-0.23327985405921936,0.0001494440366514027,0.0005756766768172383,-0.0214284248650074,0,0,-1000,1,1,-21,-3,4,-152,103947.0
04:18:47.930,AUTO,-35.3632618,149.1652368,24623,0.0023222751915454865,0.0028845141641795635,-0.24819974601268768,0.0014955590013414621,0.001108689233660698,-0.020651154220104218,0,0,-1000,2,1,-20,-2,3,-152,103947.0
04:18:48.132,AUTO,-35.3632618,149.1652368,25012,-0.0013865663204342127,0.003448944306001067,-0.2525191605091095,-0.09786361455917358,0.011408615857362747,-0.0014230291126295924,0,-2,-981,-97,12,-1,-2,2,-151,103947.0
04:18:48.333,AUTO,-35.3632618,149.1652368,25012,-0.0013865663204342127,0.003448944306001067,-0.2525191605091095,-0.09786361455917358,0.011408615857362747,-0.0014230291126295924,0,-2,-981,-97,12,-1,-2,2,-151,138210.0
04:18:48.534,AUTO,-35.3632619,149.1652368,25398,-0.010405441746115685,0.006090922746807337,-0.25062426924705505,0.0021288376301527023,0.005950848571956158,0.012692201882600784,0,0,-1002,3,6,12,-3,0,-151,138210.0
04:18:48.736,AUTO,-35.3632619,149.1652367,25786,-0.003939488437026739,0.0059525142423808575,-0.24670183658599854,0.03547048568725586,-0.004144514445215464,0.018720826134085655,0,0,-1003,36,-3,18,-5,-1,-152,138210.0
04:18:48.938,AUTO,-35.363262,149.1652367,26176,0.003741858061403036,0.0045007443986833096,-0.24083971977233887,0.02586192637681961,-0.004874430131167173,0.023536555469036102,0,1,-1000,27,-4,23,-6,-1,-152,138210.0
04:18:49.139,AUTO,-35.3632621,149.1652367,26564,0.008704552426934242,0.003135871607810259,-0.23400112986564636,0.01579030603170395,-0.004324743989855051,0.026676341891288757,0,1,-1000,16,-3,26,-6,0,-152,138210.0
04:18:49.341,AUTO,-35.3632621,149.1652367,26564,0.008704552426934242,0.003135871607810259,-0.23400112986564636,0.01579030603170395,-0.004324743989855051,0.026676341891288757,0,1,-1000,16,-3,26,-6,0,-152,138210.0
04:18:49.543,AUTO,-35.3632621,149.1652367,26564,0.008704552426934242,0.003135871607810259,-0.23400112986564636,0.01579030603170395,-0.004324743989855051,0.026676341891288757,0,1,-1000,16,-3,26,-6,0,-152,138210.0
04:18:49.745,AUTO,-35.3632621,149.1652367,26564,0.008704552426934242,0.003135871607810259,-0.23400112986564636,0.01579030603170395,-0.004324743989855051,0.026676341891288757,0,1,-1000,16,-3,26,-6,0,-152,138210.0
04:18:49.946,AUTO,-35.3632624,149.1652367,27732,0.010347427800297737,0.0006064446060918272,-0.21464839577674866,-0.002307736314833164,0.00042216258589178324,0.024924462661147118,0,0,-999,-1,1,24,-3,5,-152,138210.0
04:18:50.148,AUTO,-35.3632624,149.1652368,28120,0.008877892047166824,0.000616307370364666,-0.20889602601528168,-0.00501650758087635,0.0008385651744902134,0.022373400628566742,0,0,-1000,-4,1,22,-2,7,-152,138210.0
04:18:50.349,AUTO,-35.3632624,149.1652368,28120,0.008877892047166824,0.000616307370364666,-0.20889602601528168,-0.00501650758087635,0.0008385651744902134,0.022373400628566742,0,0,-1000,-4,1,22,-2,7,-152,138210.0
04:18:50.551,AUTO,-35.3632624,149.165237,28508,0.006866850424557924,0.0008332409197464585,-0.20357747375965118,-0.006818212568759918,0.0010298561537638307,0.021433666348457336,0,-1,-1000,-5,1,21,-1,8,-152,138210.0
04:18:50.752,AUTO,-35.3632624,149.1652371,28896,0.004816611297428608,0.001127333496697247,-0.198418527841568,-0.008500823751091957,0.002309560775756836,0.02088368497788906,0,-1,-999,-7,3,20,-1,8,-152,138210.0
04:18:50.954,AUTO,-35.3632624,149.1652373,29287,0.0030576528515666723,0.0013066373066976666,-0.19342966377735138,-0.004072933457791805,0.001790825161151588,0.020688531920313835,1,-1,-1000,-3,2,20,0,8,-152,138210.0
04:18:51.156,AUTO,-35.3632624,149.1652375,29675,0.0016199996462091804,0.0015167354140430689,-0.1885208785533905,-0.006478138733655214,0.001548755681142211,0.02016814425587654,0,-1,-1000,-5,2,19,0,7,-152,138210.0
04:18:51.358,AUTO,-35.3632624,149.1652375,29675,0.0016199996462091804,0.0015167354140430689,-0.1885208785533905,-0.006478138733655214,0.001548755681142211,0.02016814425587654,0,-1,-1000,-5,2,19,0,7,-152,138210.0
04:18:51.563,AUTO,-35.3632624,149.1652375,29675,0.0016199996462091804,0.0015167354140430689,-0.1885208785533905,-0.006478138733655214,0.001548755681142211,0.02016814425587654,0,-1,-1000,-5,2,19,0,7,-152,138210.0
04:18:51.766,AUTO,-35.3632624,149.1652375,29675,0.0016199996462091804,0.0015167354140430689,-0.1885208785533905,-0.006478138733655214,0.001548755681142211,0.02016814425587654,0,-1,-1000,-5,2,19,0,7,-152,138210.0
04:18:51.968,AUTO,-35.3632624,149.1652378,30835,-0.00024185692018363625,0.0016336956759914756,-0.17525750398635864,-0.002823498332872987,0.0012441196013242006,0.01798928715288639,0,-1,-1000,-2,2,17,0,5,-152,138210.0
04:18:52.170,AUTO,-35.3632624,149.1652379,31223,-0.00022109231213107705,0.001503250328823924,-0.17108404636383057,0.0023074450436979532,-0.0005668231169693172,0.016764679923653603,0,0,-1000,3,0,16,0,4,-152,138210.0
04:18:52.371,AUTO,-35.3632624,149.165238,31610,-0.00016014876018743962,0.0013602414401248097,-0.166993647813797,0.0028151904698461294,-0.00018505554180592299,0.01780453883111477,0,0,-1000,3,0,17,0,3,-152,200.0
04:18:52.573,AUTO,-35.3632624,149.165238,31610,-0.00016014876018743962,0.0013602414401248097,-0.166993647813797,0.0028151904698461294,-0.00018505554180592299,0.01780453883111477,0,0,-1000,3,0,17,0,3,-152,200.0
04:18:52.774,AUTO,-35.3632623,149.165238,31999,-0.00010559348447714001,0.0013117516646161675,-0.16314265131950378,-0.002215378452092409,-0.00016580137889832258,0.015386806800961494,0,0,-1000,-1,0,15,0,2,-152,200.0
04:18:52.976,AUTO,-35.3632623,149.165238,32388,0.00028283693245612085,0.0012386910384520888,-0.15937456488609314,0.004034064710140228,0.0012062896275892854,0.015211813151836395,0,0,-1000,4,2,15,0,2,-152,200.0
04:18:53.178,AUTO,-35.3632623,149.165238,32777,0.0006671142182312906,0.001077159307897091,-0.15580213069915771,0.00028516119346022606,-0.0016052706632763147,0.012920714914798737,0,0,-1000,1,0,12,0,1,-152,200.0
04:18:53.379,AUTO,-35.3632623,149.165238,32777,0.0006671142182312906,0.001077159307897091,-0.15580213069915771,0.00028516119346022606,-0.0016052706632763147,0.012920714914798737,0,0,-1000,1,0,12,0,1,-152,200.0
04:18:53.581,AUTO,-35.3632623,149.165238,32777,0.0006671142182312906,0.001077159307897091,-0.15580213069915771,0.00028516119346022606,-0.0016052706632763147,0.012920714914798737,0,0,-1000,1,0,12,0,1,-152,200.0
04:18:53.783,AUTO,-35.3632623,149.165238,32777,0.0006671142182312906,0.001077159307897091,-0.15580213069915771,0.00028516119346022606,-0.0016052706632763147,0.012920714914798737,0,0,-1000,1,0,12,0,1,-152,200.0
04:18:53.986,AUTO,-35.3632623,149.165238,33943,0.0018909196369349957,0.0009593202266842127,-0.14571870863437653,-0.0010834146523848176,-0.0005643365439027548,0.012917700223624706,0,0,-1000,0,0,12,0,0,-152,200.0
04:18:54.188,AUTO,-35.3632623,149.165238,34331,0.0020264252088963985,0.000994557747617364,-0.1424863636493683,0.001900018542073667,0.001403868431225419,0.013722621835768223,0,0,-1000,2,2,13,0,0,-152,200.0
04:18:54.390,AUTO,-35.3632623,149.165238,34720,0.0019319168059155345,0.0011430804152041674,-0.13943053781986237,-0.0005559614510275424,-0.0003222188097424805,0.011450735852122307,0,0,-1000,0,0,11,0,0,-152,200.0
04:18:54.592,AUTO,-35.3632623,149.165238,34720,0.0019319168059155345,0.0011430804152041674,-0.13943053781986237,-0.0005559614510275424,-0.0003222188097424805,0.011450735852122307,0,0,-1000,0,0,11,0,0,-152,200.0
04:18:54.793,AUTO,-35.3632623,149.1652379,35108,0.0018380270339548588,0.001270366134122014,-0.13646970689296722,-0.0028661424294114113,0.0005428515141829848,0.011697305366396904,0,0,-1000,-1,1,11,0,0,-152,200.0
04:18:54.995,AUTO,-35.3632622,149.1652379,35497,0.001893765409477055,0.0014151384821161628,-0.13368836045265198,0.0017989444313570857,-0.00033683842048048973,0.010410699993371964,0,0,-1000,2,0,10,0,0,-152,200.0
04:18:55.197,AUTO,-35.3632622,149.1652379,35883,-0.00536626111716032,0.008219737559556961,-0.1161511167883873,-0.07100760191679001,0.07059621810913086,0.1604587882757187,-1,0,-975,-70,71,160,0,0,-149,200.0
04:18:55.398,AUTO,-35.3632622,149.1652379,35883,-0.00536626111716032,0.008219737559556961,-0.1161511167883873,-0.07100760191679001,0.07059621810913086,0.1604587882757187,-1,0,-975,-70,71,160,0,0,-149,200.0
04:18:55.600,AUTO,-35.3632622,149.1652379,35883,-0.00536626111716032,0.008219737559556961,-0.1161511167883873,-0.07100760191679001,0.07059621810913086,0.1604587882757187,-1,0,-975,-70,71,160,0,0,-149,200.0
04:18:55.802,AUTO,-35.3632622,149.1652379,35883,-0.00536626111716032,0.008219737559556961,-0.1161511167883873,-0.07100760191679001,0.07059621810913086,0.1604587882757187,-1,0,-975,-70,71,160,0,0,-149,200.0
04:18:56.004,AUTO,-35.3632629,149.1652368,36939,-0.050704676657915115,0.0484299398958683,0.18013297021389008,0.0726977065205574,-0.1888207197189331,0.2696978747844696,3,7,-944,74,-187,269,-29,-30,-121,200.0
04:18:56.205,AUTO,-35.3632636,149.1652358,37234,-0.022679705172777176,0.0003135036095045507,0.22495928406715393,0.12156984955072403,-0.17905202507972717,0.10647403448820114,3,10,-948,122,-177,106,-32,-37,-108,200.0
04:18:56.407,AUTO,-35.3632642,149.1652348,37497,0.004598160739988089,-0.03337997570633888,0.239009827375412,0.10503369569778442,-0.09776327759027481,0.022512247785925865,3,9,-954,105,-96,22,-26,-36,-96,300000.0
04:18:56.609,AUTO,-35.3632647,149.1652338,37730,0.025096099823713303,-0.049161240458488464,0.23792396485805511,0.05760866031050682,-0.03713143989443779,-0.01714983955025673,1,7,-960,58,-36,-17,-17,-28,-86,300000.0
04:18:56.811,AUTO,-35.3632647,149.1652338,37730,0.025096099823713303,-0.049161240458488464,0.23792396485805511,0.05760866031050682,-0.03713143989443779,-0.01714983955025673,1,7,-960,58,-36,-17,-17,-28,-86,300000.0
04:18:57.013,AUTO,-35.3632649,149.1652332,37941,0.03800755739212036,-0.052697744220495224,0.23036375641822815,0.0455172099173069,0.0022209854796528816,-0.03342822939157486,0,6,-965,46,3,-33,-6,-16,-76,300000.0
04:18:57.215,AUTO,-35.363265,149.1652328,38126,0.043326038867235184,-0.04830951243638992,0.22137552499771118,0.01920967735350132,0.025369105860590935,-0.035115957260131836,0,1,-970,20,26,-35,2,-4,-68,300000.0
04:18:57.417,AUTO,-35.363265,149.1652328,38126,0.043326038867235184,-0.04830951243638992,0.22137552499771118,0.01920967735350132,0.025369105860590935,-0.035115957260131836,0,1,-970,20,26,-35,2,-4,-68,300000.0
04:18:57.621,AUTO,-35.363265,149.1652328,38126,0.043326038867235184,-0.04830951243638992,0.22137552499771118,0.01920967735350132,0.025369105860590935,-0.035115957260131836,0,1,-970,20,26,-35,2,-4,-68,300000.0
04:18:57.823,AUTO,-35.363265,149.1652328,38126,0.043326038867235184,-0.04830951243638992,0.22137552499771118,0.01920967735350132,0.025369105860590935,-0.035115957260131836,0,1,-970,20,26,-35,2,-4,-68,300000.0
04:18:58.025,AUTO,-35.3632642,149.1652333,38569,0.033647503703832626,-0.019156889989972115,0.19818666577339172,-0.012903641909360886,0.03850824758410454,-0.023556532338261604,-2,-12,-977,-12,39,-23,20,23,-49,300000.0
04:18:58.227,AUTO,-35.3632637,149.165234,38686,0.01901968941092491,-0.00935826450586319,0.19232355058193207,-0.34351491928100586,0.03856988251209259,-0.020485062152147293,-3,-13,-976,-342,39,-20,21,28,-43,300000.0
04:18:58.429,AUTO,-35.3632632,149.1652347,38785,0.015140180476009846,-0.0010254899971187115,0.1865764707326889,0.22483322024345398,0.02865135669708252,-0.016357311978936195,-4,18,-957,226,29,-16,21,31,-35,300000.0
04:18:58.631,AUTO,-35.3632627,149.1652355,38868,0.019189640879631042,0.006133305374532938,0.18140874803066254,0.5446798801422119,0.027704427018761635,-0.017628982663154602,-1,14,-987,545,28,-17,21,30,-31,300000.0
04:18:58.833,AUTO,-35.3632627,149.1652355,38868,0.019189640879631042,0.006133305374532938,0.18140874803066254,0.5446798801422119,0.027704427018761635,-0.017628982663154602,-1,14,-987,545,28,-17,21,30,-31,300000.0
04:18:59.036,AUTO,-35.3632622,149.1652362,38940,0.008811702951788902,0.011656307615339756,0.17691271007061005,-0.07878290116786957,0.017840692773461342,-0.017491767182946205,-3,-27,-975,-78,18,-17,18,28,-26,300000.0
04:18:59.241,AUTO,-35.3632618,149.165237,38998,-0.009123419411480427,0.014456577599048615,0.17301663756370544,-0.7956793904304504,0.012322729453444481,-0.016546305269002914,-2,-36,-967,-795,13,-16,15,26,-20,300000.0
04:18:59.444,AUTO,-35.3632618,149.165237,38998,-0.009123419411480427,0.014456577599048615,0.17301663756370544,-0.7956793904304504,0.012322729453444481,-0.016546305269002914,-2,-36,-967,-795,13,-16,15,26,-20,300000.0
04:18:59.647,AUTO,-35.3632618,149.165237,38998,-0.009123419411480427,0.014456577599048615,0.17301663756370544,-0.7956793904304504,0.012322729453444481,-0.016546305269002914,-2,-36,-967,-795,13,-16,15,26,-20,300000.0
04:18:59.848,AUTO,-35.3632618,149.165237,38998,-0.009123419411480427,0.014456577599048615,0.17301663756370544,-0.7956793904304504,0.012322729453444481,-0.016546305269002914,-2,-36,-967,-795,13,-16,15,26,-20,300000.0
04:19:00.050,AUTO,-35.363261,149.1652386,39069,-0.006003873888403177,0.026320286095142365,0.1629650592803955,0.6524322032928467,0.2238142341375351,0.048674508929252625,-1,28,-958,654,224,49,5,15,2,300000.0
04:19:00.252,AUTO,-35.3632609,149.1652388,39040,-0.017736773937940598,0.039109278470277786,0.1605100780725479,0.6277905106544495,-0.04858021065592766,-0.01004720013588667,2,5,-976,628,-47,-9,-1,6,15,149895.0
04:19:00.453,AUTO,-35.3632609,149.1652388,38995,-0.004279025364667177,0.014323009178042412,0.15698182582855225,0.059512149542570114,-0.1199449971318245,-0.008117139339447021,3,-27,-999,59,-118,-8,-6,-1,16,149895.0
04:19:00.655,AUTO,-35.3632611,149.1652388,38956,0.006286149844527245,-0.010127045214176178,0.15253867208957672,-0.5247203707695007,-0.084615558385849,-0.01284613274037838,3,-34,-1029,-524,-83,-12,-5,-1,10,149895.0
04:19:00.857,AUTO,-35.3632612,149.1652389,38930,0.019142651930451393,-0.026664389297366142,0.147978737950325,-0.504038393497467,-0.05617579445242882,-0.011549747548997402,3,-11,-1027,-502,-55,-11,-1,5,6,149895.0
04:19:01.059,AUTO,-35.3632612,149.1652389,38930,0.019142651930451393,-0.026664389297366142,0.147978737950325,-0.504038393497467,-0.05617579445242882,-0.011549747548997402,3,-11,-1027,-502,-55,-11,-1,5,6,149895.0
04:19:01.262,AUTO,-35.3632611,149.1652393,38915,0.04130064323544502,-0.03907350078225136,0.14342021942138672,0.546997606754303,-0.04576866701245308,-0.014669615775346756,3,28,-1019,549,-44,-14,5,15,2,149895.0
04:19:01.467,AUTO,-35.3632611,149.1652393,38915,0.04130064323544502,-0.03907350078225136,0.14342021942138672,0.546997606754303,-0.04576866701245308,-0.014669615775346756,3,28,-1019,549,-44,-14,5,15,2,149895.0
04:19:01.670,AUTO,-35.3632611,149.1652393,38915,0.04130064323544502,-0.03907350078225136,0.14342021942138672,0.546997606754303,-0.04576866701245308,-0.014669615775346756,3,28,-1019,549,-44,-14,5,15,2,149895.0
04:19:01.872,AUTO,-35.3632601,149.1652426,38928,0.06338860094547272,-0.06758038699626923,0.22959335148334503,-0.17410047352313995,-0.04234103485941887,0.6083486080169678,3,-38,-1018,-174,-41,608,38,55,-9,149895.0
04:19:02.074,AUTO,-35.3632601,149.1652426,38928,0.06338860094547272,-0.06758038699626923,0.22959335148334503,-0.17410047352313995,-0.04234103485941887,0.6083486080169678,3,-38,-1018,-174,-41,608,38,55,-9,149895.0
04:19:02.276,AUTO,-35.3632592,149.1652446,38953,0.043617527931928635,-0.08426910638809204,0.42604851722717285,-0.42727935314178467,-0.04318629577755928,0.8431109189987183,-4,-38,-1022,-426,-42,843,52,71,-13,149895.0
04:19:02.478,AUTO,-35.363258,149.1652472,38986,0.03816232457756996,-0.09909976273775101,0.6412248015403748,0.24458453059196472,-0.023942159488797188,0.8172318935394287,-13,1,-1004,246,-23,817,65,89,-16,149895.0
04:19:02.680,AUTO,-35.3632565,149.1652502,39027,0.02921009436249733,-0.11440951377153397,0.8448483943939209,0.44782477617263794,-0.028540004044771194,0.7709904313087463,-24,-8,-1024,448,-27,770,79,106,-20,149895.0
04:19:02.883,AUTO,-35.3632547,149.1652537,39078,0.005476912017911673,-0.12817636132240295,1.0367637872695923,-0.13725346326828003,-0.04650169238448143,0.7309561371803284,-33,-40,-1010,-137,-45,731,94,126,-23,149895.0
04:19:03.085,AUTO,-35.3632547,149.1652537,39078,0.005476912017911673,-0.12817636132240295,1.0367637872695923,-0.13725346326828003,-0.04650169238448143,0.7309561371803284,-33,-40,-1010,-137,-45,731,94,126,-23,149895.0
04:19:03.287,AUTO,-35.3632525,149.1652579,39138,-0.017609676346182823,-0.1357150673866272,1.1766153573989868,-0.3341442942619324,-0.02035292237997055,0.34396469593048096,-37,-29,-1021,-333,-19,343,109,147,-27,149895.0
04:19:03.489,AUTO,-35.3632525,149.1652579,39138,-0.017609676346182823,-0.1357150673866272,1.1766153573989868,-0.3341442942619324,-0.02035292237997055,0.34396469593048096,-37,-29,-1021,-333,-19,343,109,147,-27,149895.0
04:19:03.692,AUTO,-35.3632525,149.1652579,39138,-0.017609676346182823,-0.1357150673866272,1.1766153573989868,-0.3341442942619324,-0.02035292237997055,0.34396469593048096,-37,-29,-1021,-333,-19,343,109,147,-27,149895.0
04:19:03.894,AUTO,-35.3632441,149.1652742,39381,-0.0070890700444579124,-0.1401984691619873,1.1771628856658936,-0.23739643394947052,0.042694106698036194,-0.13830386102199554,-62,-36,-1023,-236,43,-138,155,212,-40,149895.0
04:19:04.096,AUTO,-35.3632441,149.1652742,39381,-0.0070890700444579124,-0.1401984691619873,1.1771628856658936,-0.23739643394947052,0.042694106698036194,-0.13830386102199554,-62,-36,-1023,-236,43,-138,155,212,-40,149895.0
04:19:04.298,AUTO,-35.3632405,149.1652809,39489,0.00295571843162179,-0.12675388157367706,1.145847201347351,0.1473962813615799,0.06581577658653259,-0.12174829840660095,-65,-11,-1024,148,67,-121,167,230,-46,300000.0
04:19:04.501,AUTO,-35.3632368,149.165288,39608,0.015416717156767845,-0.11053363978862762,1.1239757537841797,0.10885244607925415,0.05321594700217247,-0.07418663054704666,-63,-39,-1018,109,54,-73,178,244,-51,300000.0
04:19:04.702,AUTO,-35.3632328,149.1652953,39739,0.018016567453742027,-0.10098376125097275,1.1114826202392578,-0.18541255593299866,0.027085117995738983,-0.03839273005723953,-68,-41,-1013,-184,28,-38,185,254,-55,300000.0
04:19:04.904,AUTO,-35.3632287,149.1653028,39878,0.024629060178995132,-0.09922979772090912,1.105833888053894,0.14699818193912506,-0.0032263246830552816,-0.022950241342186928,-73,-22,-1007,148,-2,-23,190,263,-57,300000.0
04:19:05.107,AUTO,-35.3632287,149.1653028,39878,0.024629060178995132,-0.09922979772090912,1.105833888053894,0.14699818193912506,-0.0032263246830552816,-0.022950241342186928,-73,-22,-1007,148,-2,-23,190,263,-57,300000.0
04:19:05.309,AUTO,-35.3632246,149.1653105,40023,0.025741126388311386,-0.09926993399858475,1.1049096584320068,0.0032582152634859085,0.0097083430737257,0.005970744416117668,-71,-46,-1005,3,10,6,195,271,-59,300000.0
04:19:05.511,AUTO,-35.3632246,149.1653105,40023,0.025741126388311386,-0.09926993399858475,1.1049096584320068,0.0032582152634859085,0.0097083430737257,0.005970744416117668,-71,-46,-1005,3,10,6,195,271,-59,300000.0
04:19:05.713,AUTO,-35.3632246,149.1653105,40023,0.025741126388311386,-0.09926993399858475,1.1049096584320068,0.0032582152634859085,0.0097083430737257,0.005970744416117668,-71,-46,-1005,3,10,6,195,271,-59,300000.0
04:19:05.915,AUTO,-35.3632115,149.1653347,40478,0.039415836334228516,-0.0836900919675827,1.1005032062530518,0.019355108961462975,0.019194576889276505,0.007452491205185652,-77,-36,-999,19,20,7,203,291,-62,300000.0
04:19:06.117,AUTO,-35.3632069,149.1653431,40636,0.03784346953034401,-0.07984096556901932,1.0988291501998901,-0.1502671092748642,0.00626627029851079,-0.0022412168327718973,-78,-42,-999,-149,7,-2,204,295,-63,300000.0
04:19:06.318,AUTO,-35.3632069,149.1653431,40636,0.03784346953034401,-0.07984096556901932,1.0988291501998901,-0.1502671092748642,0.00626627029851079,-0.0022412168327718973,-78,-42,-999,-149,7,-2,204,295,-63,300000.0
04:19:06.520,AUTO,-35.3632023,149.1653516,40795,0.04561043903231621,-0.07365616410970688,1.0963863134384155,0.20828990638256073,0.018379108980298042,-0.01074848510324955,-83,-43,-1002,209,19,-10,205,297,-63,300000.0
04:19:06.723,AUTO,-35.3631977,149.1653601,40956,0.048117317259311676,-0.06735490262508392,1.094362497329712,-0.09107748419046402,0.030975062400102615,-0.0028425490017980337,-75,-49,-995,-90,31,-3,204,299,-63,300000.0
04:19:06.926,AUTO,-35.3631932,149.1653687,41117,0.04615669324994087,-0.0607716366648674,1.0926532745361328,-0.0720411017537117,0.03878965228796005,0.0010963294189423323,-74,-29,-992,-71,39,0,202,300,-62,300000.0
04:19:07.128,AUTO,-35.3631886,149.1653773,41279,0.049470171332359314,-0.05747288465499878,1.091096043586731,0.1523316353559494,-0.017472341656684875,0.0003736510407179594,-75,-37,-990,152,-16,0,200,299,-61,300000.0
04:19:07.331,AUTO,-35.3631886,149.1653773,41279,0.049470171332359314,-0.05747288465499878,1.091096043586731,0.1523316353559494,-0.017472341656684875,0.0003736510407179594,-75,-37,-990,152,-16,0,200,299,-61,300000.0
04:19:07.534,AUTO,-35.3631886,149.1653773,41279,0.049470171332359314,-0.05747288465499878,1.091096043586731,0.1523316353559494,-0.017472341656684875,0.0003736510407179594,-75,-37,-990,152,-16,0,200,299,-61,300000.0
04:19:07.736,AUTO,-35.3631886,149.1653773,41279,0.049470171332359314,-0.05747288465499878,1.091096043586731,0.1523316353559494,-0.017472341656684875,0.0003736510407179594,-75,-37,-990,152,-16,0,200,299,-61,300000.0
04:19:07.938,AUTO,-35.3631753,149.1654027,41733,0.04868669807910919,-0.051501382142305374,1.0870170593261719,0.18008750677108765,0.04600870609283447,-0.0027338790241628885,-77,-30,-993,180,46,-3,193,298,-57,300000.0
04:19:08.140,AUTO,-35.363171,149.1654111,41880,0.04327906295657158,-0.037156131118535995,1.086756706237793,-0.27794623374938965,0.06380943208932877,0.003716432023793459,-83,-48,-997,-277,64,3,191,294,-56,300000.0
04:19:08.341,AUTO,-35.363171,149.1654111,41880,0.04327906295657158,-0.037156131118535995,1.086756706237793,-0.27794623374938965,0.06380943208932877,0.003716432023793459,-83,-48,-997,-277,64,3,191,294,-56,242926.0
04:19:08.544,AUTO,-35.3631668,149.1654193,42025,0.04521412402391434,-0.02486049383878708,1.0852410793304443,0.08217255026102066,0.04080924019217491,-0.009858867153525352,-73,-30,-992,83,41,-9,186,288,-55,242926.0
04:19:08.746,AUTO,-35.3631627,149.1654273,42167,0.05057653784751892,-0.01110095251351595,1.0840083360671997,0.25456878542900085,0.05098713934421539,-0.006201458163559437,-73,-37,-993,254,52,-6,180,279,-54,242926.0
04:19:08.948,AUTO,-35.3631587,149.1654351,42305,0.04513950273394585,0.0023274829145520926,1.0834826231002808,-0.3768793046474457,0.05621696636080742,0.012414677068591118,-65,-59,-985,-376,57,12,174,268,-52,242926.0
04:19:09.150,AUTO,-35.3631548,149.1654425,42436,0.04742623493075371,0.013537383638322353,1.081684947013855,0.05191546678543091,0.04757102206349373,-0.01437879353761673,-62,-24,-984,53,48,-14,164,256,-48,242926.0
04:19:09.352,AUTO,-35.3631548,149.1654425,42436,0.04742623493075371,0.013537383638322353,1.081684947013855,0.05191546678543091,0.04757102206349373,-0.01437879353761673,-62,-24,-984,53,48,-14,164,256,-48,242926.0
04:19:09.554,AUTO,-35.3631548,149.1654425,42436,0.04742623493075371,0.013537383638322353,1.081684947013855,0.05191546678543091,0.04757102206349373,-0.01437879353761673,-62,-24,-984,53,48,-14,164,256,-48,242926.0
