time_stamp,RTL_ALT,roll,pitch,yaw,rollspeed,pitchspeed,yawspeed,lat,lon,relative_alt,vx,vy,vz,xacc,yacc,zacc,xgyro,ygyro,zgyro,MODE
05:00:49,1500.0,-0.00034592111478559673,0.0009509055525995791,0.02338239550590515,0.0003283522673882544,0.0002678163000382483,0.0016699540428817272,-35.3632622,149.1652375,12.0,-1.0,1.0,0.0,0.0,2.0,-1000.0,0.0,1.0,1.0,AUTO
05:00:51,12356.5,-9.168673568638042e-05,0.001111560792196542,0.022653848864138126,0.00030391733162105083,0.00027535748085938394,0.001509827096015215,-35.3632621,149.1652375,0.0,0.0,0.5,2.0,0.0,1.0,-1000.0,0.5,1.0,0.5,AUTO
05:00:53,23213.0,0.0004007364623248577,0.0016756317345425487,0.021929082460701466,0.00033850959152914584,0.00031609367579221725,0.0015135646099224687,-35.3632621,149.1652374,0.0,0.0,0.0,1.0,0.0,1.0,-1000.0,0.5,0.5,0.5,AUTO
05:00:55,23213.0,0.02727771457284689,-0.0016572949243709445,0.02155215572565794,0.046215783804655075,-0.0073100237641483545,0.0027262484654784203,-35.36326205,149.1652376,1529.0,0.5,7.0,-143.5,0.0,0.0,-1013.5,46.0,-6.5,2.0,AUTO
05:00:56,25727.0,0.022719355882145464,0.011006844462826848,-0.0373235959559679,-0.0877556805498898,0.025010928453411907,-0.06679344084113836,-35.3632613,149.1652416,3433.25,7.0,48.75,-144.5,2.5,-10.0,-998.25,-86.75,25.75,-66.5,AUTO
05:00:57,25727.0,-0.03590920567512512,0.015055365860462189,-0.0814221128821373,-0.026481887325644493,-0.014468150679022074,-0.04473576508462429,-35.3632609,149.16524525,4571.5,-1.0,32.0,-147.5,4.5,-7.5,-1004.0,-25.5,-13.5,-45.0,AUTO
05:00:59,25727.0,-0.005152211291715503,-0.0027591481630224735,-0.09386128187179565,0.06558689847588539,0.013927118852734566,0.0027946769259870052,-35.3632613,149.16524035,7646.0,-1.5,-58.5,-149.0,-7.5,13.5,-1003.5,65.5,14.0,2.0,AUTO
05:01:01,25727.0,0.009559453697875142,-0.003497034893371165,-0.08400426805019379,-0.062406931072473526,-0.004923061351291835,-0.009545290959067643,-35.3632624,149.16523505,10910.0,-3.0,21.0,-148.0,3.0,-3.0,-1001.5,-61.5,-4.0,-9.5,AUTO
05:01:02,33746.0,-0.010582944843918085,-0.0020557263160299044,-0.11391459032893181,0.011602774262428284,0.00499791675247252,-0.02525291219353676,-35.363262325,149.16523657499997,12842.75,3.25,2.0,-150.75,-0.25,-0.75,-1000.75,11.75,5.25,-25.0,AUTO
05:01:03,33746.0,0.0009645631071180105,0.0022104596137069166,-0.13273486495018005,0.01523341378197074,0.005774111254140735,-0.019653495401144028,-35.36326205,149.1652363,14014.0,3.5,-5.0,-151.0,-2.0,0.0,-1000.0,15.0,6.0,-19.5,AUTO
05:01:05,33746.0,0.008436056785285473,0.005807762034237385,-0.16398563235998154,-0.003933473373763263,-0.0019817249849438667,-0.010816766414791346,-35.3632616,149.16523554999998,17130.5,-2.0,3.5,-151.0,0.0,0.0,-1000.0,-3.0,-0.5,-11.0,AUTO
05:01:07,33746.0,-0.03911324869841337,0.009323295671492815,-0.18600933253765106,-0.06723230890929699,0.041555148258339614,0.07796684931963682,-35.36326175,149.1652359,20240.0,-5.5,-5.0,-148.0,0.0,0.5,-989.5,-66.0,42.0,77.5,AUTO
05:01:08,35368.0,0.030847737565636635,-0.022751132724806666,0.0778069831430912,0.08371738158166409,-0.08109052557847463,0.01374633179511875,-35.363263875,149.16523235,21903.75,-25.25,-23.0,-106.25,1.5,7.5,-958.75,84.0,-80.0,13.25,AUTO
05:01:09,35368.0,0.05536549724638462,-0.03540336899459362,0.05876556225121021,-0.02281269244849682,0.026353896595537663,-0.018817452248185873,-35.3632648,149.16523145,22627.0,0.0,13.0,-78.0,0.5,-1.5,-969.5,-21.5,26.5,-19.0,AUTO
05:01:11,35368.0,-0.008146357256919146,0.013983836397528648,0.05057365261018276,-0.020467017544433475,0.003250288631534204,-0.002298651379533112,-35.36326205,149.16523805,23707.0,13.0,27.5,-29.0,0.0,-8.0,-975.5,-19.0,3.5,-2.0,AUTO
05:01:13,44705.0,-0.013617528602480888,0.03693944029510021,0.04315793141722679,-0.5460026413202286,0.01641053520143032,-0.005152279860340059,-35.36326175,149.16523915,23686.0,-22.5,-17.5,12.0,1.5,-24.5,-1015.0,-545.5,16.5,-5.0,AUTO
05:01:15,54042.0,-0.07271281629800797,0.06523409485816956,-0.6875067055225372,0.3449277877807617,0.010875178268179297,-0.8015906810760498,-35.3632736,149.16523525,23577.0,-124.5,-7.5,0.5,7.5,48.0,-1004.0,345.5,11.0,-801.0,AUTO
05:01:17,54042.0,-0.0909682996571064,-0.13917461782693863,-2.1306443214416504,0.23043309152126312,-0.011921756668016315,-0.7256188690662384,-35.36331375,149.16523135,23437.0,-327.0,-32.0,6.0,-77.5,39.0,-1002.5,231.0,-10.5,-725.5,AUTO
05:01:18,12842.0,0.04924321570433676,-0.18077648803591728,-2.957580864429474,0.026974991895258427,0.004541321279248223,-0.3893045084550977,-35.363358225,149.16522505,23302.75,-448.75,-53.25,10.0,-93.5,-51.5,-1000.25,27.5,5.25,-389.25,AUTO
05:01:19,12842.0,0.07222848385572433,-0.16548803448677063,-3.034544348716736,0.009996181353926659,0.01192661584354937,0.10181107372045517,-35.36339085,149.16521995,23218.0,-512.5,-62.0,8.0,-106.0,-64.0,-997.0,11.0,12.5,101.5,AUTO
05:01:21,12842.0,0.06810245662927628,-0.13010866940021515,-3.0047610998153687,-0.00510069727897644,0.015392823610454798,-0.004446456558071077,-35.36349315,149.16520305,23011.0,-600.0,-72.5,9.5,-126.5,-67.0,-991.0,-4.0,15.5,-4.0,AUTO
05:01:23,12842.0,0.07599788904190063,-0.08601431921124458,-3.006420612335205,-0.013603026047348976,0.05241616815328598,0.00107613269938156,-35.3636024,149.16518625,22771.5,-595.5,-71.0,11.5,-120.0,-77.5,-996.0,-12.5,53.0,0.5,AUTO
05:01:24,140549.0,0.07028942555189133,-0.021687506217858754,-3.004784047603607,0.08105074241757393,0.049448330886662006,-0.005512117459147703,-35.363666300000006,149.165176275,22652.5,-528.0,-64.0,10.5,-106.25,-64.5,-992.25,82.0,50.0,-5.5,AUTO
05:01:25,140549.0,0.057988204061985016,0.016942255664616823,-3.0044665336608887,-0.5740852802991867,0.04506724886596203,0.02145793242380023,-35.36370035,149.16517095,22571.0,-462.5,-57.0,15.0,-88.5,-85.5,-982.5,-573.0,45.5,21.0,AUTO
05:01:27,140549.0,0.039259085431694984,0.07299304753541946,-3.005874991416931,0.6228871941566467,0.023560581728816032,-0.014683790039271116,-35.36376355,149.16516044999997,22335.5,-228.5,-31.0,10.5,-47.5,-1.0,-1012.5,623.5,24.0,-14.0,AUTO
05:01:29,140549.0,0.0024547383654862642,0.05823661759495735,-3.0068596601486206,-0.5733575820922852,-0.015708518214523792,0.0005475681973621249,-35.3637879,149.16515635000002,22243.0,-46.0,-7.0,4.0,-11.0,-29.5,-995.0,-572.0,-14.0,0.5,AUTO
05:01:30,48596.0,0.001950050238519907,0.03173707099631429,-3.007571518421173,0.0018325075507164001,-0.025255048414692283,0.0011972197535214946,-35.363790725,149.16515627500002,22246.0,3.25,0.25,1.25,-2.0,2.25,-997.75,2.75,-23.0,1.0,AUTO
05:01:31,48596.0,0.007165366434492171,0.010905282339081168,-3.008450150489807,-0.03127896785736084,-0.029237128794193268,0.0036115574184805155,-35.36379075,149.1651567,22251.0,13.0,1.5,0.5,0.0,-12.5,-1002.5,-31.5,-27.0,3.5,RTL
05:01:33,48596.0,0.007997936336323619,0.01019993843510747,-3.0099449157714844,0.07504315674304962,0.002302160137332976,0.003969648387283087,-35.3637905,149.1651576,22440.0,9.0,-3.0,-33.5,0.0,-1.0,-1047.0,76.0,3.5,3.5,RTL
05:01:35,26151.0,-0.000692101544700563,0.008466566912829876,-3.01024067401886,-0.0027791198226623237,-0.0017161383875645697,0.00012183407670818269,-35.363790249999994,149.16515715,24133.5,8.0,-0.5,-128.5,0.0,0.0,-1045.5,-1.5,0.0,0.0,RTL
05:01:37,3706.0,0.028744534589350224,0.01735039334744215,-3.043109178543091,-0.13912124559283257,0.07119163498282433,-0.10328709706664085,-35.36379,149.1651534,27127.5,1.0,-52.0,-145.5,3.5,-10.5,-994.5,-137.5,73.0,-102.5,RTL
05:01:39,3706.0,-0.02564534079283476,-0.01144360937178135,-3.0891188383102417,0.04909255914390087,0.012425112072378397,-0.0037058237503515556,-35.3637893,149.16515195,30207.0,-2.5,38.0,-150.0,-3.5,8.0,-1000.5,50.0,14.0,-3.5,RTL
05:01:40,41776.0,0.02075800020247698,0.0021521904855035245,-3.095840334892273,0.012522201926913112,0.000924528983887285,0.0027870343474205583,-35.36378955,149.165157475,32143.75,-2.75,28.0,-151.0,-4.0,6.75,-999.5,13.5,2.0,3.0,RTL
05:01:41,41776.0,0.020628394559025764,0.0013418924063444138,-3.093681812286377,-0.007368401857092977,-0.0013998221256770194,0.0015448556805495173,-35.3637895,149.16515950000002,33312.5,-0.5,10.5,-151.0,-1.5,2.5,-999.5,-6.0,0.5,2.0,RTL
05:01:43,41776.0,0.004388324683532119,0.0026617625262588263,-3.1157513856887817,-0.0022380115697160363,0.0010885525261983275,-0.019115911796689034,-35.3637896,149.16516005,36422.0,-2.0,-5.0,-151.5,0.0,0.0,-1000.0,-0.5,2.5,-18.0,RTL
05:01:45,78744.5,0.003703989554196596,0.005210141418501735,3.12556254863739,0.00040588859701529145,-7.418019231408834e-05,-0.020352616906166077,-35.36378985,149.16515935,39549.5,-0.5,-5.0,-152.0,0.0,-0.5,-1000.0,1.5,1.5,-19.5,RTL
05:01:47,115713.0,0.0018408771720714867,0.00439292867667973,3.082285761833191,-0.0011078021489083767,-0.0006797507521696389,-0.020179676823318005,-35.3637898,149.16515855,42670.0,0.0,-5.0,-152.0,0.0,0.0,-1000.0,0.0,1.0,-19.0,RTL
05:01:49,115713.0,0.0016521080979146063,0.0030759250512346625,3.0398128032684326,0.0012489415239542723,-0.00020808720728382468,-0.01988950278609991,-35.36378953333334,149.16515803333334,45594.333333333336,0.0,-3.0,-153.0,0.0,0.0,-1000.0,1.6666666666666667,1.3333333333333333,-19.333333333333332,RTL
05:01:50,201198.0,0.0022463358764071018,0.004026548704132438,3.0132043957710266,0.0008459473901893944,0.0007813113043084741,-0.019960319623351097,-35.3637895,149.1651578,47737.5,0.0,-2.0,-153.0,0.0,0.0,-999.75,1.75,2.0,-18.75,RTL
05:01:51,201198.0,0.0035142755368724465,0.005209799623116851,3.000027060508728,0.004411210073158145,0.004138797987252474,-0.00560740171931684,-35.3637895,149.1651578,48910.5,0.0,-2.0,-152.5,0.0,0.0,-999.0,5.5,5.5,-5.0,RTL
05:01:53,201198.0,0.0011529681214597076,0.0047309608198702335,3.041581153869629,-0.0018454554374329746,-0.002264323877170682,0.027602295391261578,-35.363789249999996,149.16515705,52008.5,2.0,-5.0,-152.0,0.0,0.0,-1000.0,0.0,0.0,28.0,RTL
05:01:55,201198.0,0.00140835385536775,0.002702642814256251,3.085735559463501,0.0009300579549744725,0.0011202883324585855,0.017680506221950054,-35.363789049999994,149.1651568,55112.5,0.0,-1.0,-152.0,0.0,0.0,-1000.0,2.0,2.5,18.5,RTL
05:01:56,91884.0,0.0025639308732934296,0.003045385587029159,3.1064149141311646,0.0015806283336132765,-0.0002807926939567551,0.016731442417949438,-35.3637891,149.16515685000002,57054.5,-0.75,0.0,-152.0,0.0,0.0,-1000.25,2.75,1.0,17.25,RTL
05:01:57,91884.0,0.00298296962864697,0.0032103192061185837,3.117529273033142,0.000693468376994133,0.00029872386949136853,0.015492020640522242,-35.3637891,149.165157,58222.5,-1.0,0.0,-152.0,0.0,0.0,-1000.0,2.0,1.5,16.0,RTL
05:01:59,91884.0,0.003471515141427517,0.004589298972859979,-0.0002257823944091797,-0.00020524585852399468,0.0008414009353145957,0.011010515037924051,-35.3637893,149.1651573,61325.0,0.0,-1.5,-152.0,0.0,0.0,-1000.0,1.0,2.0,11.5,RTL
05:02:01,53648.5,0.0025285755594571433,0.003976785112172365,-3.124814748764038,0.0007479431418081125,-0.0002882991684600711,0.008350132188449303,-35.3637894,149.1651573,64247.666666666664,0.0,-1.6666666666666667,-152.0,0.0,0.0,-1000.0,2.0,1.0,9.0,RTL
05:02:03,15413.0,0.0029628236079588532,0.00464134500361979,-3.11001193523407,0.00024180510081350803,4.883593646809459e-06,0.006674805423244834,-35.3637894,149.1651574,67539.0,0.0,-2.0,-152.0,0.0,0.0,-1000.0,1.5,1.0,7.5,RTL
05:02:05,15413.0,0.002692177581290404,0.00525661138817668,-3.098369280497233,-0.0004967654434343179,-0.0010932082077488303,0.0061759985983371735,-35.3637895,149.1651574,70606.0,0.6666666666666666,-2.0,-152.0,0.0,0.0,-1000.0,0.3333333333333333,0.6666666666666666,7.0,RTL
05:02:06,14292.0,0.002681813823680083,0.004455222748219967,-3.0913428465525308,0.0012046189125006397,0.0002192125345269839,0.0060127535834908485,-35.3637895,149.1651574,72548.33333333333,1.0,-2.0,-152.0,0.0,0.0,-1000.3333333333334,2.6666666666666665,1.6666666666666667,6.333333333333333,RTL
05:02:07,14292.0,0.0025361917602519193,0.004584542475640774,-3.0877768993377686,0.00012803194113075733,-0.00026145216543227434,0.004775843738267819,-35.3637895,149.1651574,73714.0,1.0,-1.3333333333333333,-152.0,0.0,0.0,-1000.3333333333334,1.6666666666666667,1.3333333333333333,5.333333333333333,RTL
05:02:09,14292.0,0.002558282964552442,0.0038844686932861805,-3.0780972639719644,-0.0007607581792399287,-0.0013599194353446364,0.0047727070438365144,-35.3637895,149.1651574,76819.66666666667,0.0,-1.0,-152.0,0.0,0.0,-1000.0,1.0,0.0,5.666666666666667,RTL
05:02:11,14292.0,0.002771203483765324,0.004532320735355218,-3.070029099782308,0.00022942918197562298,0.0008574832851688067,0.005053719117616613,-35.3637895,149.1651574,79933.66666666667,0.0,-1.0,-152.0,0.0,0.0,-999.6666666666666,2.0,2.0,6.0,RTL
05:02:12,78013.0,0.002810789660240213,0.005385259476800759,-3.065650701522827,0.00037085455066214007,0.0005937853129580617,0.004496570987006028,-35.36378953333334,149.1651574,81866.33333333333,1.0,-1.0,-152.0,0.0,0.0,-1000.0,1.6666666666666667,2.3333333333333335,5.333333333333333,RTL
05:02:13,78013.0,0.0025851059084137282,0.004953358167161544,-3.063261032104492,-0.00021325703710317612,-0.0005514163446302215,0.004899586861332257,-35.3637896,149.1651574,83036.33333333333,1.0,-1.0,-152.0,0.0,0.0,-999.6666666666666,1.6666666666666667,1.0,5.666666666666667,RTL
05:02:15,78013.0,0.0026903278970470033,0.004828805259118478,-3.057390054066976,-0.00047287143145998317,0.00058934953995049,0.003994270771120985,-35.3637896,149.1651574,86144.0,1.0,-1.0,-152.0,0.0,0.0,-1000.0,1.3333333333333333,2.0,5.0,RTL
05:02:17,75078.0,0.0026975910489757857,0.004746854926149051,-3.052087386449178,0.0011298260651528835,7.866870146244764e-05,0.0024971641056860485,-35.3637896,149.1651574,89249.66666666667,1.0,-1.0,-152.0,0.0,0.0,-1000.3333333333334,2.6666666666666665,1.6666666666666667,3.3333333333333335,RTL
05:02:19,72143.0,0.0024059380715092025,0.004880035451302926,-3.047640562057495,-0.001360900467261672,0.0012645259654770296,0.002573828251721958,-35.3637896,149.1651574,92358.0,1.0,-1.0,-152.0,0.0,0.0,-999.6666666666666,0.3333333333333333,2.6666666666666665,3.6666666666666665,RTL
05:02:21,72143.0,0.0025206119753420353,0.0048868559921781225,-3.0437070528666177,-0.0006599617578710119,-0.0007285232034822305,0.0027745262098809085,-35.3637896,149.1651574,95462.0,1.0,-1.0,-152.0,0.0,0.0,-1000.0,0.6666666666666666,1.3333333333333333,4.0,RTL
05:02:22,33902.0,0.002561398549005389,0.004618671877930562,-3.0414928595225015,-4.614109639078379e-05,-0.0004583207968001564,0.0037039700352276364,-35.3637896,149.1651574,97402.0,1.0,-1.0,-152.0,0.0,0.0,-1000.3333333333334,1.3333333333333333,1.3333333333333333,5.0,RTL
05:02:23,33902.0,0.0024679553074141345,0.004533544182777405,-3.0402754147847495,-0.0006267276670162877,-0.0011171603109687567,0.0022213004995137453,-35.3637896,149.1651574,98566.66666666667,1.0,-1.0,-152.0,0.0,0.0,-1000.0,0.6666666666666666,0.6666666666666666,3.3333333333333335,RTL
05:02:25,33902.0,0.0027671090016762414,0.00438529501358668,-3.0363146464029946,-0.0005882342035571734,-0.0008203949934492508,0.0024187205902611217,-35.3637896,149.1651574,101671.66666666667,0.0,-1.0,-152.0,0.0,0.0,-1000.0,0.6666666666666666,0.6666666666666666,3.3333333333333335,RTL
05:02:27,19583.5,0.0026787247819205127,0.005621348197261493,-3.0335729916890464,-0.0001625492392728726,0.0008396725170314312,0.0028378692998861275,-35.3637896,149.1651574,104782.0,1.0,-1.0,-152.0,0.0,0.0,-999.6666666666666,1.6666666666666667,2.3333333333333335,4.0,RTL
05:02:29,5265.0,0.0022143227979540825,0.004928042801717917,-3.0314080715179443,0.0001865143422037363,0.00080534218189617,0.0020074688169794777,-35.3637896,149.1651574,107887.66666666667,1.3333333333333333,-1.0,-152.0,0.0,0.0,-1000.0,2.0,2.3333333333333335,3.0,RTL
05:02:31,5265.0,0.002440908613304297,0.004478147408614556,-3.0297831694285073,3.590896570434173e-05,-6.53444246078531e-05,0.001544493289353947,-35.3637896,149.1651574,111001.66666666667,1.0,-1.0,-152.0,0.0,0.0,-1000.0,1.3333333333333333,1.6666666666666667,2.6666666666666665,RTL
05:02:32,78754.0,0.0024298750795423985,0.004861837873856227,-3.0285988648732505,0.0004814795684069395,0.00047700867677728337,0.0021384665354465446,-35.3637896,149.1651574,112935.66666666667,1.0,-1.0,-152.0,0.0,0.0,-999.6666666666666,2.6666666666666665,2.0,3.3333333333333335,RTL
05:02:33,78754.0,0.002500847059612473,0.004879522913446029,-3.028029680252075,0.0007181514520198107,0.0002115058790271481,0.0025552799149105945,-35.3637896,149.1651574,114103.33333333333,1.0,-1.0,-152.0,0.0,0.0,-999.6666666666666,2.3333333333333335,2.0,4.0,RTL
05:02:35,78754.0,0.0024714947988589606,0.003942135178173582,-3.0265982945760093,0.0008313970174640417,0.00012513048325975737,0.0012110170209780335,-35.36378953333334,149.1651574,117215.66666666667,1.0,-1.0,-152.0,0.0,0.0,-1000.3333333333334,2.6666666666666665,2.0,2.3333333333333335,RTL
05:02:37,78754.0,0.002853456729402145,0.0054244908193747205,-3.025298992792765,0.00028340825034926337,-0.0004509295104071498,0.0011523972498252988,-35.36378953333334,149.1651574,120322.0,1.0,-1.0,-152.0,0.0,0.0,-1000.0,2.0,1.0,2.6666666666666665,RTL
05:02:38,791.0,0.0029430220990131297,0.005410930762688319,-3.0245847702026367,-0.0009109730211397012,-0.0004547007071475188,0.0033817415048057833,-35.3637896,149.1651574,122263.66666666667,1.6666666666666667,-1.0,-152.0,0.0,0.0,-1000.0,1.0,1.3333333333333333,4.666666666666667,RTL
05:02:39,791.0,0.002641327679157257,0.005085628014057875,-3.02413010597229,0.0016516821924597025,0.0010008788667619228,0.0015021444220716755,-35.3637896,149.1651574,123432.0,2.0,-1.0,-152.0,0.0,0.0,-1000.0,3.6666666666666665,2.6666666666666665,3.0,RTL
05:02:41,791.0,0.002257713582366705,0.004910066723823547,-3.0226364930470786,0.0014444323411832254,-0.0005500461362923185,0.0015807246090844274,-35.3637896,149.1651574,126534.66666666667,2.0,-1.0,-152.0,0.0,0.0,-1000.0,3.3333333333333335,1.3333333333333333,3.0,RTL
05:02:43,15315.0,0.00241012847982347,0.004117161811639865,-3.0217100779215493,-0.000561702724856635,-0.0002736354557176431,0.00158420546601216,-35.3637896,149.1651574,129641.0,1.0,-1.0,-152.0,0.0,0.0,-999.6666666666666,1.3333333333333333,1.6666666666666667,3.0,RTL
05:02:45,29839.0,0.002785038979103168,0.004854563934107621,-3.021019617716471,0.0007174873414138953,0.0015998576612522204,0.002257854212075472,-35.3637896,149.1651574,132752.0,0.3333333333333333,-1.0,-152.0,0.0,0.0,-1000.0,2.6666666666666665,3.3333333333333335,3.3333333333333335,RTL
05:02:47,29839.0,0.0026349294930696487,0.005321430352826913,-3.020225207010905,0.000989111450811227,-0.0006905958289280534,0.002594007489581903,-35.3637896,149.1651574,135857.0,2.0,-1.0,-152.0,0.0,0.0,-1000.0,3.0,1.0,4.0,RTL
05:02:48,47648.0,0.0025606451090425253,0.005022996881355842,-3.019967714945475,-0.0003672055123994748,-0.00012024678289890289,-0.0005308622882391015,-35.3637896,149.1651574,137805.0,2.0,-1.0,-152.0,0.0,0.0,-1000.0,1.6666666666666667,2.0,1.0,RTL
05:02:49,47648.0,0.0024708659232904515,0.005052736960351467,-3.0200184981028237,-0.0009250497290243705,0.0004112021221468846,-0.000122556424078842,-35.3637896,149.1651574,138972.33333333334,2.0,-1.0,-152.0,0.0,0.0,-1000.0,1.0,2.0,1.3333333333333333,RTL
05:02:51,47648.0,0.0027148529576758542,0.0044856928288936615,-3.01949151357015,-0.00011481717228889465,0.000259562861174345,0.00043178407941013575,-35.3637896,149.1651574,142076.0,1.3333333333333333,-1.0,-152.0,0.0,0.0,-1000.0,1.6666666666666667,2.3333333333333335,2.0,RTL
05:02:53,79153.0,0.0027390229515731335,0.004985197680070996,-3.0191493034362793,0.0005009151354897767,0.0005838133511133492,0.0018002845463342965,-35.3637896,149.1651574,145370.5,1.0,-1.0,-152.0,0.0,0.0,-999.75,2.75,2.5,3.25,RTL
05:02:55,110658.0,0.0022122107911854982,0.004190219411005576,-3.018630584081014,-0.0015922676539048553,-0.0007330307271331549,-6.23678012440602e-05,-35.3637896,149.1651574,148447.66666666666,1.0,-1.0,-152.0,0.0,0.0,-1000.0,0.6666666666666666,1.0,1.3333333333333333,RTL
05:02:57,110658.0,0.002646688216676315,0.005415221676230431,-3.017644008000692,0.000801773858256638,0.0012886008092512686,0.002101325818027059,-35.3637896,149.1651574,151549.0,1.0,-1.0,-152.0,0.0,0.0,-1000.0,3.0,3.3333333333333335,3.6666666666666665,RTL
05:02:58,42143.0,0.002721355607112249,0.005359609300891559,-3.017503579457601,-0.00014545555071284375,0.0015828471320370834,0.0006973335985094309,-35.3637896,149.1651574,153491.0,1.0,-1.0,-152.0,0.0,0.0,-999.3333333333334,2.3333333333333335,3.3333333333333335,2.3333333333333335,RTL
05:02:59,42143.0,0.002630304079502821,0.005394247826188803,-3.0176377296447754,-0.0001781330987190207,-1.9687383125225704e-05,0.0009398940019309521,-35.3637896,149.1651574,154655.66666666666,2.0,-1.0,-152.0,0.0,0.0,-1000.0,1.6666666666666667,2.0,2.3333333333333335,RTL
05:03:01,42143.0,0.0024869582460572324,0.004898210987448692,-3.0174368222554526,0.0009802826680243015,0.00025975525689621765,0.0001582546392455697,-35.3637896,149.1651574,157770.0,2.0,-1.0,-152.0,0.0,0.0,-1000.3333333333334,2.6666666666666665,2.6666666666666665,2.0,RTL
05:03:03,42143.0,0.0028839847849061093,0.004735241023202737,-3.01727827390035,9.485698925952117e-05,0.00041863275691866875,0.00038325460627675056,-35.3637896,149.1651574,160879.0,1.0,-1.0,-152.0,0.0,0.0,-1000.0,2.3333333333333335,2.3333333333333335,2.0,RTL
05:03:04,158634.0,0.0028267009183764458,0.004931343874583642,-3.01749316851298,0.0010037633668010433,0.0010023316523681085,0.0006898452993482351,-35.3637896,149.1651574,162819.0,1.0,-1.0,-152.0,0.0,0.0,-1000.0,3.3333333333333335,3.0,2.3333333333333335,RTL
05:03:05,158634.0,0.002711435236657659,0.004863416620840629,-3.017202615737915,0.0002098245701442162,-0.0008480860463654002,0.0031193213847776255,-35.3637896,149.1651574,163984.0,1.0,-1.0,-152.0,0.0,0.0,-1000.0,2.0,1.3333333333333333,4.666666666666667,RTL
05:03:07,158634.0,0.0027035105352600417,0.004420061130076647,-3.0169517993927,-0.00039147950398425263,0.0008946678911646208,0.0008112900735189518,-35.3637895,149.1651574,167090.33333333334,1.0,-1.0,-152.0,0.0,0.0,-1000.0,1.6666666666666667,2.6666666666666665,2.3333333333333335,RTL
05:03:09,158634.0,0.0025120524999996028,0.005504354989777009,-3.0171360969543457,-0.00025960884522646666,-0.00038637019072969753,0.0002650521540393432,-35.36378956666667,149.1651574,170201.0,1.0,-1.0,-152.0,0.0,0.0,-1000.0,2.0,1.6666666666666667,2.3333333333333335,RTL
05:03:10,118281.0,0.0026798590552061796,0.010052093459914127,-3.0168844858805337,-0.0009699742076918483,0.024556132615543902,0.0014442313307275374,-35.3637896,149.1651574,172138.33333333334,2.6666666666666665,-1.0,-151.66666666666666,0.0,0.0,-998.0,1.3333333333333333,26.666666666666668,3.3333333333333335,RTL
05:03:11,118281.0,0.0020842920833577714,0.042920065422852836,-3.016715129216512,-0.0012442632966364424,0.04547051340341568,2.9039840834836166e-05,-35.363789266666664,149.1651574,173296.0,16.666666666666668,0.3333333333333333,-150.66666666666666,1.3333333333333333,0.3333333333333333,-999.0,1.3333333333333333,47.333333333333336,1.6666666666666667,RTL
05:03:13,118281.0,-0.014920989672342936,0.12206048021713893,-3.0023821194966636,-0.05122563832749923,0.0903050924340884,0.10003892534102003,-35.363777166666665,149.16515886666664,176272.33333333334,136.0,13.0,-134.66666666666666,25.0,11.0,-975.0,-48.0,92.33333333333333,102.0,RTL
05:03:15,118281.0,0.08966203033924103,0.1245669995745023,-2.469654401143392,0.022633331827819347,0.03560476012838384,0.06709968050320943,-35.36373376666667,149.16517,177798.33333333334,337.0,49.0,-10.666666666666666,77.0,4.333333333333333,-943.0,25.0,37.666666666666664,68.66666666666667,RTL
05:03:16,138872.0,0.07883381719390552,0.1907498985528946,-2.4473541577657065,-0.1252011110385259,0.02172895272572835,-0.035517631797119975,-35.363689566666665,149.1651745,177604.33333333334,457.6666666666667,20.0,26.333333333333332,103.66666666666667,-16.666666666666668,-1004.3333333333334,-122.33333333333333,23.666666666666668,-33.0,RTL
05:03:17,138872.0,0.038228267803788185,0.1999946137269338,-2.4767351150512695,-0.010870236903429031,0.0027878128457814455,-0.03676590657172104,-35.36365656666667,149.16517666666667,177428.66666666666,524.3333333333334,29.666666666666668,13.666666666666666,121.33333333333333,-2.0,-1016.6666666666666,-8.0,5.333333333333333,-34.0,RTL
05:03:19,138872.0,-0.01675797998905182,0.162737046678861,-2.564751148223877,-0.01695232279598713,-0.022304052719846368,-0.0448338637749354,-35.3635523,149.1651891,177365.0,615.0,77.33333333333333,-6.333333333333333,143.0,9.666666666666666,-993.6666666666666,-14.0,-19.666666666666668,-42.0,RTL
05:03:21,16616.0,-0.04433244032164415,0.10853442053000133,-2.6354336738586426,-0.17177175482114157,-0.06446347013115883,-0.03797181602567434,-35.36344166666667,149.16520719999997,177426.0,598.6666666666666,84.33333333333333,-5.666666666666667,138.66666666666666,21.333333333333332,-994.3333333333334,-169.33333333333334,-61.333333333333336,-34.666666666666664,RTL
05:03:23,16616.0,-0.06197610745827357,0.012507984378316905,-2.686717669169108,0.6527130405108134,-0.05227888251344363,-0.0010238985220591228,-35.36334443333333,149.1652232,177444.33333333334,454.3333333333333,69.66666666666667,-0.6666666666666666,108.66666666666667,51.666666666666664,-1001.3333333333334,655.0,-49.0,0.6666666666666666,RTL
05:03:25,16616.0,-0.05670979246497154,-0.04569292813539505,-2.7248967488606772,0.21188119053840637,-0.023992663870255154,-0.02903319677958886,-35.36328316666667,149.16523326666666,177390.66666666666,224.33333333333334,45.0,0.3333333333333333,51.0,11.333333333333334,-1012.3333333333334,213.66666666666666,-20.666666666666668,-26.333333333333332,RTL
05:03:26,99423.0,-0.0396793590237697,-0.04616587981581688,-2.745044469833374,0.47294798990090686,0.025683098783095677,-0.010256307510038217,-35.363265166666665,149.16523603333334,177373.33333333334,97.66666666666667,33.333333333333336,-1.0,23.0,27.666666666666668,-1006.0,474.6666666666667,28.0,-8.0,RTL
05:03:27,99423.0,-0.03802614783247312,-0.033332678799827896,-2.7564306259155273,-0.3723258525133133,0.017155463807284832,-0.017000048731764156,-35.36326023333333,149.1652367,177372.66666666666,48.333333333333336,28.0,-1.3333333333333333,11.333333333333334,-10.333333333333334,-1006.6666666666666,-370.0,20.0,-14.0,RTL
05:03:29,99423.0,-0.009786021915109208,0.006186771516998609,-2.7803779443105063,0.3092599113782247,0.026589128499229748,-0.0035561492356161275,-35.363257733333334,149.1652366,177395.33333333334,-5.666666666666667,21.333333333333332,-1.0,-1.3333333333333333,18.0,-1002.6666666666666,311.0,29.666666666666668,-1.3333333333333333,RTL
05:03:31,99423.0,0.019093217017749946,-0.005174285887430112,-2.794416586558024,0.16945796211560568,0.006025909446179867,-0.008073194262882074,-35.363259,149.16523860000004,177406.0,-5.666666666666667,8.0,-0.6666666666666666,-5.666666666666667,1.0,-1006.6666666666666,170.0,8.666666666666666,-5.0,RTL
05:03:32,10071.0,0.033180262272556625,0.0013079736118015717,-2.8019147713979087,0.3503090739250183,0.007376939989626408,-0.010981857776641846,-35.3632607,149.16524026666667,177408.33333333334,-3.0,-8.0,0.0,-5.666666666666667,11.666666666666666,-1010.6666666666666,352.0,10.333333333333334,-8.333333333333334,RTL
05:03:33,10071.0,0.021377228821317356,0.004963841134061416,-2.806472142537435,-0.339353804787,0.005068509296203653,-0.010627558765312036,-35.363261666666666,149.1652409333333,177411.0,1.3333333333333333,-17.0,0.6666666666666666,-4.0,-0.6666666666666666,-999.6666666666666,-336.6666666666667,8.0,-7.666666666666667,RTL
05:03:35,10071.0,0.031376663595438004,0.010506199983259043,-2.818481206893921,0.9038213690121969,0.005506829513857762,-0.004653131899734338,-35.363263100000005,149.16524130000002,177315.66666666666,11.666666666666666,-31.0,35.666666666666664,1.0,42.0,-937.0,906.6666666666666,8.666666666666666,-2.0,RTL
05:03:37,10071.0,0.020852856958905857,0.008905940999587377,-2.8290026982625327,1.3013726472854614,0.0005110287262747685,-0.008198734217633804,-35.36326313333333,149.16523963333336,175526.0,13.0,-23.666666666666668,110.0,0.3333333333333333,73.33333333333333,-1033.6666666666667,1305.0,3.6666666666666665,-5.333333333333333,RTL
05:03:38,18518.0,0.03519362459580103,0.0055137200591464835,-2.8331004778544107,1.4332653681437175,-0.004519427117581169,-0.005733418356006344,-35.363263,149.1652395,174179.0,10.666666666666666,-16.666666666666668,103.0,0.0,54.333333333333336,-1027.0,1436.0,-0.6666666666666666,-3.3333333333333335,RTL
05:03:39,18518.0,0.03304186649620533,0.006150766431043546,-2.8373477458953857,1.3295475244522095,0.003910319258769353,0.0039212882208327455,-35.363263,149.1652394,173400.0,10.333333333333334,-18.0,100.0,0.6666666666666666,42.0,-1010.0,1332.0,7.0,5.666666666666667,RTL
05:03:41,18518.0,0.007853068954621753,0.010484493958453337,-2.8443307081858316,1.4110831022262573,-0.00035932792040208977,0.004606517885501186,-35.363262733333336,149.16523759999998,171369.66666666666,7.333333333333333,-10.333333333333334,99.0,2.0,60.333333333333336,-998.3333333333334,1414.6666666666667,3.3333333333333335,6.666666666666667,RTL
05:03:43,26875.0,-0.013457205767432848,0.0016689773280328761,-2.849977731704712,-0.017865183452765148,-0.0038162785737464824,-0.008324512202913562,-35.36326233333333,149.16523686666665,169340.66666666666,5.0,2.3333333333333335,102.33333333333333,-3.75,45.75,-997.5,8.75,-0.75,-2.75,RTL
05:03:45,26875.0,0.042625367641448975,-0.0015261581478019555,-2.8564626375834146,0.21186847984790802,0.007502893917262554,-0.004189075048392017,-35.363263266666664,149.1652422,167298.0,9.0,-24.333333333333332,103.33333333333333,-5.666666666666667,53.0,-1004.0,217.66666666666666,10.666666666666666,-1.3333333333333333,RTL
05:03:48,35655.5,0.015436036046594381,0.014874458312988281,-2.8625298738479614,1.2656978964805603,-0.000947579275816679,0.001373365754261613,-35.363264,149.16524065,163992.0,18.5,-40.5,101.0,4.5,57.5,-1054.5,1271.0,3.0,4.0,RTL
05:03:50,44436.0,0.006121259881183505,0.004781654570251703,-2.8667715787887573,1.3835648894309998,-0.003842464997433126,0.002260917448438704,-35.363262750000004,149.1652377,161957.0,10.5,-11.5,101.0,0.0,68.5,-1022.0,1389.5,0.5,4.5,RTL
05:03:52,44436.0,0.031472633592784405,0.0010019363835453987,-2.8713080883026123,1.4191856980323792,-0.005462945206090808,0.0015864446759223938,-35.3632625,149.1652387,159923.0,6.0,-9.5,98.5,-3.5,56.5,-999.5,1424.5,-1.0,4.0,RTL
05:03:53,36493.0,0.035951195284724236,0.0027245915844105184,-2.8720020055770874,1.4917065501213074,0.002501954266335815,0.005363840144127607,-35.3632626,149.16523932500002,159157.5,5.0,-13.0,102.5,-1.25,65.5,-1012.5,1497.25,6.25,7.5,RTL
05:03:54,36493.0,0.02960936911404133,0.005412143189460039,-2.87255859375,1.428554892539978,0.0017427186248824,0.002320586354471743,-35.3632628,149.16523975,157880.0,6.0,-18.0,100.5,0.0,66.5,-1002.5,1435.0,5.5,4.5,RTL
05:03:56,36493.0,0.02275234367698431,0.006162963341921568,-2.87579345703125,1.4166138172149658,-0.00424027384724468,-0.0010343580506742,-35.3632628,149.1652388,155842.0,7.0,-14.5,100.5,0.5,50.5,-1018.0,1422.5,0.0,1.5,RTL
05:03:58,47416.5,0.005250550893833861,0.005165414186194539,-2.878000855445862,0.928947776556015,0.0031090201810002327,0.013106807600706816,-35.3632627,149.1652385,153778.0,5.5,-13.5,96.5,1.0,69.5,-1018.0,936.5,7.0,15.5,RTL
05:04:00,58340.0,-0.002258334425278008,0.0029745358042418957,-2.8797272443771362,0.04281697794795036,0.0012181955389678478,0.004935576929710805,-35.3632626,149.1652381,151728.5,4.0,-3.0,100.5,-1.0,45.0,-963.5,51.5,5.5,7.5,RTL
05:04:02,58340.0,0.00653555803000927,0.007616925053298473,-2.881314992904663,0.9684159755706787,0.0021540906745940447,-0.0077254027128219604,-35.3632626,149.1652378,149684.5,4.0,-6.5,98.0,0.5,67.0,-991.0,976.5,6.5,-4.5,RTL
05:04:03,38190.0,0.004988928425518679,0.007782981148920953,-2.8820968866348267,1.2446050196886063,0.0023039602674543858,0.001774570089764893,-35.3632626,149.16523734999998,148914.75,4.0,-3.0,98.75,1.0,73.75,-997.0,1252.25,6.75,4.75,RTL
05:04:04,38190.0,0.0039953169180080295,0.004015214624814689,-2.88273823261261,1.382114291191101,-0.005278219934552908,0.0004987127613276243,-35.3632624,149.16523705,147643.0,3.0,2.0,98.5,-1.5,74.5,-1006.0,1389.5,-1.0,3.5,RTL
05:04:06,38190.0,0.0009098483715206385,0.007008934859186411,-2.88528048992157,1.3493826985359192,0.003780760569497943,0.005698679247871041,-35.363262250000005,149.16523690000002,145608.5,0.5,-0.5,96.0,2.5,69.0,-985.0,1357.0,8.0,9.0,RTL
05:04:08,38190.0,-0.020337890833616257,0.007565961219370365,-2.8856335878372192,1.1552358269691467,-0.0122164785861969,0.014608334167860448,-35.36326175,149.16523375,143580.0,-2.0,20.5,99.5,2.5,82.0,-996.0,1162.5,-7.5,17.5,RTL
05:04:09,80877.0,-0.040476773865520954,0.0030562961183022708,-2.884762227535248,-0.018203265964984894,-0.007457809115294367,-0.004161849617958069,-35.3632616,149.165233525,142812.5,-2.0,26.5,99.25,-2.5,42.75,-1025.25,-10.5,-2.5,-1.0,RTL
05:04:10,80877.0,0.013144886586815119,-0.007678583730012178,-2.884623169898987,0.466515451669693,-0.0016832143301144242,-0.007026078877970576,-35.3632619,149.16523684999999,141552.0,-1.0,21.5,99.5,-6.5,62.5,-990.0,474.0,2.5,-3.5,RTL
05:04:12,80877.0,0.059137120842933655,0.0014854009787086397,-2.8867474794387817,1.2007107734680176,0.007296007825061679,-0.003630636492744088,-35.3632633,149.1652429,139506.5,6.0,-30.0,99.0,-3.5,84.0,-1007.0,1208.0,11.5,-0.5,RTL
05:04:14,80877.0,0.054601699113845825,0.006030975142493844,-2.886869788169861,1.1788842678070068,0.0003459826111793518,0.0025271966587752104,-35.3632639,149.1652433,137381.0,14.0,-47.0,100.0,0.0,37.0,-1080.0,1185.5,5.0,6.0,RTL
05:04:15,33701.0,0.05595999490469694,0.006332474062219262,-2.8872188925743103,0.7854152619838715,-0.0004268548800610006,9.963277261704206e-05,-35.363263875,149.165243175,136621.75,15.0,-46.75,103.25,1.0,-2.75,-1007.5,791.5,3.75,3.5,RTL
05:04:16,33701.0,0.030311277136206627,0.007844517007470131,-2.887574315071106,-0.09403232019394636,0.0001773665426298976,-0.005224320571869612,-35.3632636,149.16524195,135341.5,13.5,-42.0,103.0,4.5,-55.5,-992.5,-87.5,4.5,-1.5,RTL
05:04:18,33701.0,-0.014444952830672264,0.01228713197633624,-2.888948678970337,-0.5647828280925751,-0.0017510182224214077,-0.012771539390087128,-35.3632626,149.165237,133273.5,5.5,-13.5,99.0,7.5,-66.0,-1003.0,-558.5,3.0,-9.0,RTL
05:04:20,30494.0,-0.02635714504867792,0.006715986179187894,-2.88882052898407,1.277410626411438,-0.006810637190937996,0.00097315275343135,-35.3632614,149.16523285,131233.0,-2.5,24.5,99.0,2.5,60.5,-1091.0,1285.5,-1.5,4.0,RTL
05:04:22,27287.0,-0.011093209031969309,-0.002001403132453561,-2.8880540132522583,1.2815085649490356,-0.002078549354337156,-0.003987668547779322,-35.36326085,149.1652327,129206.5,-9.0,41.5,99.0,-3.0,65.0,-1047.5,1289.0,2.5,0.0,RTL
05:04:24,27287.0,0.0216653635725379,0.0009558293095324188,-2.8880609273910522,1.266278088092804,0.000888812355697155,1.3220822438597679e-05,-35.3632616,149.16523585,127181.5,-6.5,22.0,105.5,-2.5,48.0,-1040.5,1272.5,5.0,3.5,RTL
05:04:25,734.0,0.02607065625488758,0.0012217650219099596,-2.889011561870575,1.261035218834877,-0.002019170206040144,-0.0031114212470129132,-35.363261975,149.16523675,126409.25,-3.75,14.25,104.0,-3.25,44.0,-986.0,1267.0,2.5,0.25,RTL
05:04:26,734.0,0.04021408222615719,0.0011731487466022372,-2.8886555433273315,1.415958821773529,0.0028824997134506702,0.0032988019520416856,-35.3632626,149.16523895,125149.0,0.5,-1.5,103.0,-0.5,70.5,-995.0,1422.5,7.5,6.5,RTL
05:04:28,734.0,0.019069736823439598,0.007883921731263399,-2.8893290758132935,1.313452661037445,-0.00330280140042305,0.0036964575992897153,-35.3632629,149.16523885,123117.0,5.0,-14.5,103.0,1.5,60.0,-1056.5,1320.0,1.5,6.5,RTL
05:04:30,734.0,0.02515407931059599,0.0021146657527424395,-2.8890905380249023,1.4253677725791931,-0.0029921813402324915,-0.0023896711645647883,-35.3632625,149.16523795,121075.5,3.5,-3.0,106.5,0.0,53.5,-1015.5,1432.0,1.5,1.0,RTL
05:04:31,91994.0,0.027050584089010954,0.0008984661544673145,-2.889396071434021,1.263198345899582,-0.0033570409286767244,-0.0017081212135963142,-35.3632625,149.1652383,120307.5,3.0,-5.0,104.5,-0.75,45.75,-1011.75,1269.75,1.0,1.5,RTL
05:04:32,91994.0,0.04093221575021744,0.0013221264234744012,-2.8900543451309204,1.0087871849536896,0.007712671300396323,0.006867669988423586,-35.36326255,149.16523934999998,119023.0,3.0,-10.0,105.0,-0.5,19.5,-1041.5,1014.0,12.5,10.5,RTL
05:04:34,91994.0,0.02136214356869459,0.006057012593373656,-2.8900320529937744,1.207214593887329,-0.003194637014530599,-0.002591997035779059,-35.3632626,149.1652386,116953.5,3.0,-11.0,99.0,1.0,18.0,-1021.5,1213.0,1.5,1.0,RTL
05:04:36,91994.0,-0.003678034234326333,0.007865737425163388,-2.889755368232727,1.067087173461914,-0.010515241883695126,-0.001978457672521472,-35.363262250000005,149.16523575,114896.5,2.0,3.0,97.0,1.0,23.0,-1032.5,1073.5,-4.5,1.5,RTL
05:04:37,41741.0,0.008588791184592992,0.002087897722958587,-2.888927638530731,1.1999533027410507,-0.0030131691601127386,-0.0009395682718604803,-35.3632621,149.16523575000002,114135.0,1.0,11.25,101.75,-2.75,36.25,-992.75,1205.75,2.0,2.75,RTL
05:04:38,41741.0,0.044721776619553566,-0.005153880920261145,-2.8892576694488525,1.0760695934295654,-0.0035576617810875177,-0.0038923401152715087,-35.36326215,149.1652383,112862.5,1.0,4.5,100.5,-3.0,23.0,-996.5,1082.0,1.0,-0.5,RTL
05:04:40,41741.0,0.039973484352231026,0.005605864571407437,-2.8898333311080933,0.5889562368392944,-0.004475275636650622,-0.00923265889286995,-35.3632629,149.16524065,110814.5,4.0,-20.5,100.0,0.5,-13.5,-1028.5,594.5,0.5,-4.5,RTL
05:04:42,45763.5,-0.005165272857993841,0.013666471466422081,-2.890512228012085,0.6743723750114441,-0.002606096677482128,0.0009677401976659894,-35.363262500000005,149.16523654999997,108769.0,2.5,-7.5,101.5,9.0,-19.0,-975.0,680.0,2.0,4.5,RTL
05:04:44,49786.0,-0.031781261786818504,0.004633875098079443,-2.8885586261749268,1.1956910490989685,-0.010959253180772066,-0.003471258794888854,-35.36326115,149.1652311,106729.5,-5.5,40.5,97.0,1.0,31.0,-1046.0,1201.5,-5.5,0.5,RTL
05:04:46,49786.0,0.010194843169301748,-0.0020705516799353063,-2.888525605201721,0.7250126004219055,0.005216215969994664,0.0054000819800421596,-35.36326115,149.1652338,104699.5,-9.0,40.5,100.0,-3.0,1.5,-999.5,729.5,10.0,9.0,RTL
05:04:47,133002.0,0.013784980168566108,0.000422047553001903,-2.8892228603363037,0.33350128307938576,0.001757324323989451,0.0014446873683482409,-35.363261475,149.165234975,103933.25,-7.5,31.5,100.0,-2.75,-18.75,-966.25,337.25,6.75,5.5,RTL
05:04:48,133002.0,0.0061159394681453705,0.004198784590698779,-2.888811945915222,-0.5105785578489304,0.002775170374661684,-0.005232570227235556,-35.36326205,149.16523619999998,102656.5,-4.0,19.0,99.0,-1.5,-63.5,-970.5,-506.0,8.0,-1.5,RTL
05:04:50,133002.0,0.011187606723979115,0.006956829922273755,-2.8897796869277954,-0.3245692700147629,-0.003853910369798541,-0.005979942623525858,-35.3632625,149.165237,100591.0,0.0,7.5,102.0,1.0,-57.5,-983.0,-320.0,1.5,-2.0,RTL
05:04:52,133002.0,0.0037719113170169294,0.005090006161481142,-2.888150930404663,1.0658199191093445,-0.001920631737448275,0.007172368001192808,-35.3632622,149.16523554999998,98548.0,0.0,13.5,99.0,0.5,16.5,-993.0,1070.0,2.5,11.0,RTL
05:04:53,33161.0,0.00936964853099198,0.0025967387773562223,-2.888014495372772,0.9602056443691254,-0.005282434052787721,-0.006470574182458222,-35.3632621,149.16523555,97770.75,0.0,16.5,97.25,-0.25,13.0,-1030.5,964.25,0.0,-2.75,RTL
05:04:54,33161.0,-0.005281813908368349,-0.00128849723841995,-2.888326406478882,-1.3582459688186646,-0.006536670960485935,0.0003530173562467098,-35.3632621,149.1652369,96527.0,0.0,12.0,98.0,-3.0,-70.0,-947.0,-1354.0,-1.0,4.0,RTL
05:04:56,33161.0,0.016436060890555382,-0.0006350688054226339,-2.8900139331817627,-1.3912994265556335,-0.0005049691535532475,0.0012720795348286629,-35.36326255,149.16523984999998,94865.5,2.0,-7.0,96.0,-3.5,-67.0,-1007.0,-1386.0,4.5,5.5,RTL
05:04:58,33161.0,0.02843171264976263,0.007448217831552029,-2.8898736238479614,-0.5281593203544617,-0.003913185792043805,-0.010034956503659487,-35.3632632,149.16524090000001,92834.0,6.5,-26.0,93.0,3.0,-56.5,-1006.5,-523.5,1.5,-6.0,RTL
05:04:59,8944.0,-0.0026773224089993164,0.009841695660725236,-2.8895846605300903,-1.0673093050718307,-0.0008972923387773335,-0.006494230648968369,-35.363263125,149.165239575,91826.0,7.0,-22.75,99.25,3.5,-78.0,-976.75,-1062.25,4.0,-2.25,RTL
05:05:00,8944.0,-0.014959149993956089,0.008686687797307968,-2.8895397186279297,-0.9689781963825226,-0.0015957877039909363,-0.006556706270202994,-35.3632626,149.16523765,90805.0,4.5,-11.0,98.5,4.5,-76.5,-954.5,-964.0,3.5,-2.0,RTL
05:05:02,8944.0,-0.014164234045892954,0.003591451095417142,-2.8890804052352905,-0.23733167350292206,-0.007395240478217602,-0.005744175985455513,-35.363261550000004,149.16523454999998,88763.0,-3.0,17.5,104.5,1.5,-55.5,-977.5,-233.0,-1.5,-1.5,RTL
05:05:04,18647.0,-0.0027327274437993765,-0.0006689894362352788,-2.88749623298645,1.3305819034576416,-0.009087070589885116,0.0022391537204384804,-35.36326115,149.16523365,86719.0,-7.5,28.0,94.0,0.5,49.5,-1005.5,1335.0,-3.5,6.5,RTL
05:05:06,28350.0,0.03519285470247269,-0.004901768057607114,-2.8885611295700073,0.4940679743885994,0.0027266936376690865,0.002565021626651287,-35.363261699999995,149.16523775,84681.5,-6.0,13.0,95.0,-4.0,-9.0,-1062.5,497.5,8.0,6.5,RTL
05:05:08,28350.0,0.012967640068382025,0.004619484534487128,-2.888432502746582,-0.8303179144859314,0.0003708817530423403,0.016636328771710396,-35.3632626,149.16523945,82636.5,1.0,-10.5,96.0,0.0,-74.0,-948.0,-826.5,5.0,20.5,RTL
05:05:09,32100.0,0.013779334491118789,0.0053640499245375395,-2.8877917528152466,-0.5650151297450066,0.0020190771319903433,-0.0031966259703040123,-35.363262775,149.16523924999998,81617.25,2.75,-12.25,98.0,0.5,-62.75,-973.75,-560.75,6.75,0.75,RTL
05:05:10,32100.0,0.007682845112867653,0.003828980727121234,-2.8884652853012085,-0.7433469742536545,-0.005087802652269602,-0.010557808098383248,-35.363262750000004,149.16523905000003,80595.0,3.5,-11.5,96.0,0.0,-54.5,-1056.5,-739.0,0.5,-6.5,RTL
05:05:12,32100.0,-0.016766796819865704,0.0030529029900208116,-2.8880115747451782,-0.6461639702320099,0.001451878808438778,0.0008604556787759066,-35.363262399999996,149.16523840000002,78559.0,2.0,-11.0,99.5,2.0,4.5,-1020.0,-638.0,6.0,4.0,RTL
05:05:14,77420.5,-0.018446072936058044,0.0035905479453504086,-2.8888803720474243,0.34329722821712494,-0.00129945226944983,0.011215990874916315,-35.363261949999995,149.16523669999998,76525.5,-0.5,0.0,101.5,0.0,60.0,-980.5,351.0,3.5,15.0,RTL
05:05:16,122741.0,-0.013121017254889011,0.0015855480451136827,-2.888325572013855,0.6245481967926025,-0.00018798303790390491,0.006327932933345437,-35.3632617,149.16523585,74485.0,-3.5,11.5,101.5,-0.5,62.5,-986.0,631.5,4.5,9.5,RTL
05:05:18,122741.0,-0.0176289277151227,0.001579810312250629,-2.888591170310974,0.29072126746177673,0.0011408738791942596,-0.0017764049116522074,-35.3632617,149.16523604999998,72454.5,-3.5,10.5,101.0,-0.5,47.0,-994.5,298.5,5.5,1.5,RTL
05:05:19,70594.0,-0.012649671291001141,-0.0024612112320028245,-2.887166738510132,-0.4781006742268801,-0.0021404714789241552,-0.008799294359050691,-35.3632618,149.16523695,71436.5,-2.25,8.5,100.0,-4.25,27.75,-1013.75,-470.5,3.0,-4.25,RTL
05:05:20,70594.0,0.013135874876752496,-0.005554502597078681,-2.888288736343384,-0.8015354573726654,-0.0017412896268069744,-0.0009998081950470805,-35.36326215,149.16523934999998,70428.5,-1.0,-1.0,102.5,-6.0,-5.5,-995.0,-794.5,3.5,2.5,RTL
05:05:22,70594.0,0.016742995474487543,0.004335682257078588,-2.8873766660690308,0.3579162061214447,0.005046958802267909,0.004613012773916125,-35.3632629,149.16524135,68410.0,4.0,-30.5,102.5,0.0,56.0,-981.0,365.5,10.0,8.0,RTL
05:05:24,70594.0,0.0011880173115059733,0.005732035962864757,-2.8881003856658936,0.43328501284122467,-0.0024598289746791124,0.005667889025062323,-35.3632629,149.16523985,66360.5,6.0,-26.5,100.0,0.5,54.5,-1004.0,441.0,2.5,9.5,RTL
05:05:25,113913.0,-0.0026704517658799887,0.0043475545244291425,-2.8876131176948547,0.46107801888138056,-0.00160112208686769,0.0018017952097579837,-35.363262675,149.16523905,65339.5,5.25,-19.0,102.25,0.5,57.25,-1000.75,469.0,3.75,5.25,RTL
05:05:26,113913.0,0.008330031734658405,0.0018546163919381797,-2.8883925676345825,0.7635408788919449,-0.008280042209662497,0.005072923842817545,-35.36326245,149.1652389,64309.5,3.5,-14.5,103.0,0.5,68.5,-1029.5,771.5,-3.0,8.5,RTL
05:05:28,113913.0,0.02708918508142233,0.0018022546428255737,-2.8876372575759888,1.428135871887207,-0.005648537538945675,-0.0002823006361722946,-35.3632623,149.16523875000001,62259.0,1.0,-12.5,101.5,0.0,59.5,-988.5,1435.0,-0.5,3.5,RTL
05:05:30,113913.0,0.013281857827678323,0.0038548476295545697,-2.8886516094207764,0.7442213594913483,0.004507584497332573,0.0007019510958343744,-35.36326235,149.16523875000001,60205.0,1.5,-13.0,92.0,0.0,58.0,-1114.0,752.5,9.0,4.5,RTL
05:05:31,150760.0,-0.0030652235727757215,0.0031327919277828187,-2.8875402212142944,0.30624744668602943,-0.0014206619234755635,0.0009133935091085732,-35.3632624,149.16523865,59191.5,2.0,-11.5,99.75,-0.25,51.75,-1014.25,315.25,3.5,4.5,RTL
05:05:32,150760.0,0.011046404484659433,0.0019819560111500323,-2.88811457157135,0.5402305126190186,0.005858582677319646,0.0051235631108284,-35.36326245,149.1652391,58167.5,2.5,-12.5,99.5,-1.0,61.0,-1005.5,549.0,10.5,9.0,RTL
05:05:34,150760.0,0.034888929687440395,0.002304951660335064,-2.8884408473968506,1.3810808062553406,-0.00035882415249943733,-0.0008207275532186031,-35.363262649999996,149.16523975,56124.5,4.0,-16.5,97.0,-1.0,59.0,-1006.0,1389.0,4.5,3.0,RTL
05:05:36,77539.5,0.03273705020546913,0.0064414869993925095,-2.887769103050232,1.3462438583374023,0.0008355067111551762,0.0007277904078364372,-35.363262750000004,149.16523934999998,54089.0,5.0,-20.5,101.5,2.0,35.5,-1006.5,1353.5,5.5,4.5,RTL
05:05:38,4319.0,0.017993939109146595,0.0017041344981407747,-2.8875173330307007,1.162881314754486,-0.00702259608078748,0.005757370963692665,-35.3632623,149.1652378,52071.5,2.0,-6.0,103.0,2.0,27.5,-995.0,1170.0,-2.0,9.0,RTL
05:05:40,4319.0,0.01640159054659307,0.004046394722536206,-2.8886746168136597,0.902030348777771,-0.0026685150805860758,0.000412451452575624,-35.363262,149.1652375,50036.5,-2.0,-2.0,104.0,3.0,-1.0,-1000.5,908.5,2.0,4.0,RTL
05:05:41,119778.0,-0.012009353173198178,0.009050696971826255,-2.8883708715438843,1.0145883709192276,0.0032368141692131758,0.004010946140624583,-35.363261625,149.165235275,49013.75,-4.25,4.5,103.75,5.5,8.25,-980.0,1021.0,7.75,7.5,RTL
05:05:42,119778.0,-0.02381625585258007,0.0077969892881810665,-2.8875386714935303,0.9546325206756592,-0.009039411786943674,-0.004945990280248225,-35.3632612,149.16523285,48002.5,-7.5,25.0,104.0,3.5,9.5,-1058.0,960.5,-3.5,-0.5,RTL
05:05:44,119778.0,-0.014468536246567965,-0.0005281546837068163,-2.8871889114379883,0.09928958397358656,-0.0036216285079717636,-0.002302699489519,-35.3632607,149.16523210000003,45959.5,-12.5,46.5,103.5,0.0,-40.0,-960.5,104.5,1.0,1.5,RTL
05:05:46,119778.0,-0.002885857131332159,0.0019430881920925458,-2.888137459754944,0.37577841663733125,-0.0008297916501760483,-0.00994401890784502,-35.363261050000006,149.16523354999998,43898.0,-12.5,38.0,100.5,0.5,-9.0,-1030.0,380.0,3.5,-5.5,RTL
05:05:47,189106.0,-0.019294562516734004,0.005675378022715449,-2.8876834511756897,-0.03977064695209265,0.0028607200365513563,-0.0046888114884495735,-35.363261125,149.16523305,42868.75,-11.75,36.25,102.5,0.75,-45.0,-984.0,-35.75,7.25,-0.25,RTL
05:05:48,189106.0,-0.034025100991129875,0.004116825177334249,-2.88708233833313,-0.6445509493350983,-0.002072507981210947,-0.006565640447661281,-35.363261050000006,149.16523225,41854.5,-11.5,42.0,102.5,0.0,-59.0,-986.5,-640.5,2.5,-1.5,RTL
05:05:50,189106.0,-0.040017105638980865,-0.0001390013021591585,-2.8869744539260864,-1.288375973701477,0.0008119797566905618,0.0021314218174666166,-35.36326095,149.16523265,39807.5,-12.5,46.5,97.0,-2.5,-64.0,-1030.5,-1284.0,5.5,5.5,RTL
05:05:52,122156.0,-0.044994600117206573,0.0033630908001214266,-2.8877772092819214,-1.3270586729049683,0.016419802326709032,-0.018754567252472043,-35.3632611,149.16523315,37764.5,-12.5,39.0,97.0,-2.0,-46.5,-958.0,-1323.0,21.0,-14.0,RTL
05:05:54,55206.0,-0.048068320378661156,0.0033885387238115072,-2.8875871896743774,-0.7146824896335602,0.004826831980608404,-0.0038214554078876972,-35.3632611,149.16523245000002,35713.5,-11.0,42.0,98.0,0.0,5.0,-1024.5,-709.5,9.0,0.0,RTL
05:05:56,55206.0,-0.02192673645913601,-0.0030639562755823135,-2.885679006576538,-0.2905462831258774,-0.003313149558380246,-0.003039625007659197,-35.3632613,149.16523425,33667.5,-9.0,37.0,103.5,-3.5,32.0,-941.0,-286.5,1.5,1.0,RTL
05:05:57,32555.0,-0.016806143685244024,-0.0026270326925441623,-2.886858820915222,-0.6802762448787689,0.007518259575590491,0.0034367184271104634,-35.3632616,149.16523607500002,32646.5,-7.25,24.25,96.25,-5.0,7.25,-993.25,-676.5,12.0,7.25,RTL
05:05:58,32555.0,-0.01685320446267724,0.0030214646831154823,-2.8865444660186768,-0.5713554918766022,0.010845399461686611,-0.0022324203746393323,-35.363261949999995,149.16523705,31633.5,-5.0,10.5,103.5,-1.0,7.5,-987.0,-567.0,15.5,1.5,RTL
05:06:00,32555.0,-0.01879666792228818,0.0024689174606464803,-2.887820601463318,0.08944353088736534,-0.0004978002980351448,0.009541512001305819,-35.363262,149.16523619999998,29587.5,-2.5,11.5,97.0,-1.5,40.0,-1036.5,93.0,4.0,13.0,RTL
05:06:02,32555.0,0.020420780405402184,-0.002165703335776925,-2.8868439197540283,0.8714430034160614,-0.00298884860239923,-0.003324872115626931,-35.363262,149.16523755,27486.0,-1.5,5.0,98.5,-2.0,33.0,-963.0,872.5,1.5,0.5,RTL
05:06:03,54185.0,0.03052159072831273,-0.0030345923150889575,-2.886664032936096,0.09798219427466393,-0.003279323107562959,-0.00443421327508986,-35.363262150000004,149.165239025,26409.5,-0.5,-3.25,98.25,-2.75,-33.25,-995.5,98.0,1.25,-0.75,RTL
05:06:04,54185.0,0.04509340412914753,-0.004564830916933715,-2.885990619659424,-0.12589963525533676,-0.008710268884897232,-0.006908411160111427,-35.36326255,149.16524095,25388.0,1.5,-15.0,98.5,-5.5,-41.5,-985.0,-125.5,-3.5,-3.0,RTL
05:06:06,54185.0,0.062033092603087425,-0.0018174810247728601,-2.8857948780059814,-1.0794709026813507,-0.00013989023864269257,0.009459412191063166,-35.363263599999996,149.1652457,23365.0,10.0,-53.5,98.5,-2.5,-67.0,-1013.0,-1077.5,4.5,12.5,RTL
05:06:08,54185.0,0.05534482188522816,0.007329328451305628,-2.8873718976974487,-0.41687368508428335,0.0023840265348553658,-0.003506958717480302,-35.363264150000006,149.1652458,21337.5,15.5,-72.5,99.0,5.5,-66.5,-947.0,-414.5,6.5,0.0,RTL
05:06:09,39100.0,0.027728993212804198,0.01120538148097694,-2.885764479637146,-0.2612874209880829,0.0015539086307398975,-0.00901784870075062,-35.363263825000004,149.16524349999997,20320.25,14.5,-63.75,100.75,6.75,-61.5,-958.5,-257.75,5.75,-5.0,RTL
05:06:10,39100.0,0.0011908810556633398,0.008477440336719155,-2.88615882396698,-0.6561208665370941,-0.007653024280443788,-0.005647926009260118,-35.36326315,149.1652406,19288.0,11.5,-43.5,100.0,5.5,-74.5,-1007.5,-652.0,-2.5,-2.0,RTL
05:06:12,39100.0,-0.028091811574995518,0.004203092306852341,-2.886739134788513,-1.4160912036895752,-0.0015767175937071443,-0.004138241638429463,-35.363261949999995,149.16523684999999,17236.5,1.0,-6.0,97.5,2.5,-58.0,-1000.5,-1411.0,2.5,-0.5,RTL
05:06:14,36834.0,-0.0333885932341218,0.004556472529657185,-2.8870939016342163,-1.2727792263031006,-0.001308988663367927,0.0036650884430855513,-35.3632614,149.16523519999998,15194.0,-5.5,11.5,97.0,3.5,-60.5,-1023.0,-1267.0,3.0,7.5,RTL
05:06:16,34568.0,-0.07010151445865631,0.006717175943776965,-2.8855912685394287,-1.2868069410324097,-0.0012415965320542455,-0.0007272789953276515,-35.363260749999995,149.1652312,13170.5,-11.5,41.0,99.0,3.0,-46.5,-974.0,-1282.0,3.0,3.0,RTL
05:06:18,34568.0,-0.0527266263961792,0.0021346157882362604,-2.886409044265747,-0.17150047421455383,0.0031419014558196068,0.0019177282229065895,-35.3632605,149.1652304,11603.0,-14.0,57.0,75.0,-1.0,29.0,-1059.0,-166.0,7.0,5.0,RTL
05:06:19,37509.0,-0.03377920612692833,-0.0008145464278641156,-2.885696268081665,-0.36558048129081727,-0.0022298320662230255,-0.00036022732965648176,-35.36326056,149.1652312,11101.8,-15.2,57.0,27.4,-1.6,-21.0,-995.8,-362.8,2.0,3.0,RTL
05:06:20,37509.0,-0.017989658401347697,-0.001559897093102336,-2.8851304054260254,0.38885000348091125,-0.0014988015173003078,-0.0033728843554854393,-35.363260749999995,149.16523245000002,10815.0,-14.5,49.5,32.0,-2.0,25.0,-966.5,391.0,2.5,0.5,RTL
05:06:22,37509.0,0.0069517651572823524,-0.002239016816020012,-2.884973645210266,0.30095943063497543,-0.004010263131931424,-0.0028830223018303514,-35.3632615,149.16523575,10151.0,-9.0,27.5,36.0,-4.0,10.0,-998.0,302.5,0.0,0.5,RTL
05:06:24,37509.0,0.025967148132622242,-0.001353530038613826,-2.885294198989868,0.1509735882282257,-0.0025887894444167614,-0.005024070560466498,-35.363262399999996,149.16523949999998,9450.5,-1.0,-3.5,34.0,-1.5,5.5,-1004.0,153.0,2.0,-1.5,RTL
05:06:25,32378.0,0.013212755788117647,0.0021560756722465158,-2.8856334686279297,-0.4061165750026703,0.00483720563352108,0.0019375387928448617,-35.3632627,149.165240375,9103.25,1.25,-16.25,34.0,0.0,-3.5,-1005.0,-403.25,9.0,5.25,RTL
05:06:26,32378.0,0.014405827270820737,0.004279527463950217,-2.8855409622192383,0.26646052300930023,3.7671998143196106e-07,-0.0020876573398709297,-35.363262750000004,149.16523995,8798.5,2.5,-19.5,16.5,1.5,3.5,-1033.0,268.5,4.0,1.5,RTL
05:06:28,32378.0,-0.002688905529794283,0.004575005266815424,-2.885237455368042,0.0533657968044281,0.0007470829878002405,0.002857317216694355,-35.363262399999996,149.1652381,8798.0,1.5,-10.0,-5.0,2.0,-1.5,-999.0,55.5,5.0,6.0,RTL
05:06:30,32378.0,-0.017670278903096914,0.0027171134715899825,-2.885642647743225,0.015152901411056519,-0.0022702652495354414,0.0005421052919700742,-35.36326165,149.1652358,8832.5,-3.5,7.0,0.0,2.5,-6.0,-1006.0,17.5,1.5,3.5,RTL
05:06:31,13439.0,-0.020236256532371044,0.002831809688359499,-2.8852503895759583,0.12011212110519409,-0.0014382521621882915,0.0008840911905281246,-35.363261425,149.1652349,8831.25,-6.0,15.75,4.25,0.75,4.5,-971.25,122.0,2.25,4.25,RTL
05:06:32,13439.0,-0.01833585649728775,0.0014911284524714574,-2.885351538658142,-0.04161316156387329,-0.00432041916064918,-0.0026730148820206523,-35.363261249999994,149.16523454999998,8722.5,-8.0,22.5,12.5,-0.5,-5.0,-998.0,-40.0,0.0,1.0,RTL
05:06:34,13439.0,0.0007526353001594543,-0.002196660090703517,-2.8850923776626587,0.17603370547294617,-0.0032401473727077246,-0.0012291180901229382,-35.363261449999996,149.16523604999998,8703.0,-7.0,17.5,-0.5,-1.5,11.0,-1005.0,177.0,1.5,2.0,RTL
05:06:36,15345.5,0.00832516816444695,0.0005545352646549873,-2.885037660598755,-0.1402142085134983,0.0025018530432134867,-0.0009881400037556887,-35.3632619,149.165238,8712.5,-4.0,1.0,0.5,-1.0,-3.5,-998.5,-138.0,6.5,2.0,RTL
05:06:38,17252.0,0.0109434905461967,0.0006074302364140749,-2.8847628831863403,-0.2597455456852913,-0.0006656935438513756,4.60244482383132e-05,-35.3632623,149.16523899999999,8714.5,0.0,-7.5,0.5,-1.5,-10.0,-983.0,-257.5,3.5,2.5,RTL
05:06:40,17252.0,0.016915461979806423,0.0021929667564108968,-2.8852343559265137,0.1441265046596527,0.0019136650953441858,0.0013943806989118457,-35.3632625,149.16523955000002,8218.5,2.0,-15.5,40.5,-0.5,-6.5,-1008.5,146.0,5.5,4.0,RTL
05:06:41,80307.0,0.0025192214525304735,0.002955150790512562,-2.8853331208229065,-0.2671415079385042,0.0017901207320392132,-0.002277282124850899,-35.3632625,149.1652395,7833.0,2.5,-17.0,36.0,0.0,1.75,-1004.5,-264.25,5.25,1.0,RTL
05:06:42,80307.0,0.012906681280583143,0.003124472568742931,-2.885596513748169,0.1082448661327362,0.0026129831094294786,-0.0013785749906674027,-35.3632625,149.16523934999998,7481.0,2.0,-15.5,34.5,0.0,-5.0,-1008.5,110.5,6.0,1.5,RTL
05:06:44,80307.0,-0.0008604624890722334,0.005865270737558603,-2.8851852416992188,0.3564719259738922,-0.0018991697579622269,6.714696064591408e-05,-35.3632623,149.1652379,6925.0,1.0,-11.0,31.0,2.0,-5.0,-1027.0,358.0,2.0,3.0,RTL
05:06:46,80307.0,-0.007455146522261202,0.0014958664833102375,-2.8847239017486572,-0.1392247974872589,-0.007191844517365098,-0.0030447227181866765,-35.36326185,149.1652363,6250.0,-1.5,6.5,32.0,-0.5,-26.0,-994.0,-138.5,-2.5,0.0,RTL
05:06:47,24652.0,0.010835723136551678,-0.0018564899801276624,-2.8850661516189575,0.3567619612440467,0.00018273189198225737,-0.0023998935357667506,-35.363261824999995,149.16523745,5828.25,-2.0,3.75,34.5,-1.5,22.25,-983.5,358.75,4.0,1.0,RTL
05:06:48,24652.0,0.003769049100810662,-0.0012028362252749503,-2.8853728771209717,-0.850292831659317,0.0018483784515410662,-0.0028613106696866453,-35.363261949999995,149.1652382,5572.0,-2.0,-0.5,34.0,-2.0,-39.5,-998.5,-848.0,5.5,0.5,RTL
05:06:50,24652.0,0.0041583573911339045,0.00286178314127028,-2.885093927383423,-0.7445538640022278,0.002379769808612764,-0.0032048613065853715,-35.3632623,149.1652391,4889.0,0.0,-9.5,32.5,-0.5,-32.5,-999.0,-741.5,6.0,0.0,RTL
05:06:52,21710.5,0.0014270105166360736,0.0014087783638387918,-2.8850514888763428,-0.5172463655471802,-0.0009026245679706335,0.002158158225938678,-35.3632625,149.16523915,4206.5,2.0,-12.0,34.5,-1.0,-9.0,-997.5,-513.0,2.5,5.0,RTL
05:06:54,18769.0,-0.009799001971259713,0.004477736772969365,-2.884976863861084,-0.665347620844841,0.0018231661524623632,-0.0005882177501916885,-35.36326245,149.16523865,3527.0,1.5,-13.0,33.0,0.0,-12.5,-994.5,-661.5,5.5,2.5,RTL
05:06:56,18769.0,-0.0049543005879968405,0.002447736798785627,-2.884914755821228,0.07427021861076355,8.210539817810059e-06,-0.0007682852447032928,-35.3632622,149.1652379,2852.0,0.0,-4.5,34.5,0.0,18.0,-976.5,78.5,3.5,2.0,RTL
05:06:57,43940.0,0.01095448833075352,0.0024832377093844116,-2.8848575949668884,0.5042121708393097,-0.0036959389690309763,0.00023906957358121872,-35.3632622,149.1652376,2414.25,0.0,-2.75,33.75,-0.75,3.25,-1001.25,506.5,0.5,2.75,RTL
05:06:58,43940.0,-0.0019276904204161838,-0.00019706458260770887,-2.8844645023345947,-0.7345933616161346,-0.0024027808103710413,-0.002732282388024032,-35.3632622,149.165238,2161.5,0.0,-1.0,31.0,-2.5,-20.0,-993.0,-731.0,1.0,0.0,RTL
05:07:00,43940.0,0.022188174538314342,-0.0006067028662073426,-2.8853150606155396,-0.2768319360911846,0.005945681361481547,0.001663634437136352,-35.3632627,149.1652411,1479.5,3.0,-22.0,33.5,-2.0,14.5,-985.0,-271.0,9.5,4.5,RTL
05:07:02,43940.0,-0.0029171847854740918,0.006487902719527483,-2.884945511817932,-1.0199002623558044,-0.002734037349000573,0.0008060229010879993,-35.3632629,149.16524005,793.5,5.0,-26.5,33.0,2.5,-42.0,-994.0,-1015.5,1.0,3.5,RTL
05:07:03,984.0,0.006035119877196848,0.0047512861201539636,-2.8853061199188232,0.5780210290104151,-0.0022131181904114783,0.00141520967008546,-35.363262549999995,149.165238725,376.0,4.0,-17.0,31.5,1.5,25.75,-1010.5,582.75,1.5,4.0,RTL
05:07:04,984.0,-0.0026384536176919937,0.002733660163357854,-2.8849819898605347,-0.47884954139590263,-0.0027919993735849857,-0.00142766279168427,-35.36326235,149.1652381,125.5,2.0,-10.5,31.0,2.0,-34.5,-1002.5,-474.5,1.0,1.5,RTL
05:07:06,984.0,-0.0003626371799327899,0.0007339823059737682,-2.886630892753601,-0.0020014826441183686,-0.0014176546828821301,-0.0005785385146737099,-35.3632625,149.1652381,0.0,-5.0,0.0,11.0,0.0,0.0,-1000.0,2.0,2.0,2.0,RTL
05:07:08,43110.5,-0.00362108345143497,-0.0003822100115939975,-2.8876065015792847,-0.001984681817702949,-0.0013325840700417757,-0.0006264601834118366,-35.3632625,149.1652386,0.0,-5.5,5.5,7.0,0.0,0.0,-1000.0,2.0,2.0,2.0,RTL
05:07:10,85237.0,-0.004794862121343613,-0.0012283152318559587,-2.889043688774109,-0.0018811693880707026,-0.0012124525383114815,-0.0006436638068407774,-35.3632626,149.1652389,0.0,-7.0,8.0,4.0,0.0,-1.0,-1000.0,2.0,2.0,1.5,RTL
05:07:12,85237.0,-0.004773168126121163,-0.0015774010098539293,-2.890770196914673,-0.001704359077848494,-0.0011985208839178085,-0.0007173349149525166,-35.3632627,149.165239,0.0,-8.0,8.0,2.0,0.0,-0.5,-1000.0,2.0,2.0,2.0,RTL
