time_stamp,MODE,lat,lon,relative_alt,roll,pitch,yaw,rollspeed,pitchspeed,yawspeed,xacc,yacc,zacc,xgyro,ygyro,zgyro,vx,vy,vz,alt,VFR_HUD_alt,EK2_ALT_SOURCE,RTL_ALT
11:59:46.371,AUTO,-35.3632621,149.1652375,4,-0.0005999503773637116,0.0014475814532488585,0.02094455249607563,0.00020750326802954078,0.0003248228458687663,0.001502925413660705,0,1,-1000,0,0,0,0,0,1,583940,583.9400024414062,0.0,1500.0
11:59:46.578,AUTO,-35.3632621,149.1652375,4,-0.0005999503773637116,0.0014475814532488585,0.02094455249607563,0.00020750326802954078,0.0003248228458687663,0.001502925413660705,0,1,-1000,0,0,0,0,0,1,583940,583.9400024414062,0.0,1500.0
11:59:46.786,AUTO,-35.3632621,149.1652375,4,-0.0005999503773637116,0.0014475814532488585,0.02094455249607563,0.00020750326802954078,0.0003248228458687663,0.001502925413660705,0,1,-1000,0,0,0,0,0,1,583940,583.9400024414062,0.0,1500.0
11:59:50.568,AUTO,-35.3632621,149.1652375,4,-0.0005999503773637116,0.0014475814532488585,0.02094455249607563,0.00020750326802954078,0.0003248228458687663,0.001502925413660705,0,1,-1000,0,0,0,0,0,1,583940,583.9400024414062,0.0,1500.0
11:59:50.772,AUTO,-35.3632621,149.1652375,4,-0.0005999503773637116,0.0014475814532488585,0.02094455249607563,0.00020750326802954078,0.0003248228458687663,0.001502925413660705,0,1,-1000,0,0,0,0,0,1,583940,583.9400024414062,0.0,1500.0
11:59:50.975,AUTO,-35.3632621,149.1652375,4,-0.0005999503773637116,0.0014475814532488585,0.02094455249607563,0.00020750326802954078,0.0003248228458687663,0.001502925413660705,0,1,-1000,0,0,0,0,0,1,583940,583.9400024414062,0.0,1500.0
11:59:51.178,AUTO,-35.3632621,149.1652375,4,-0.0005999503773637116,0.0014475814532488585,0.02094455249607563,0.00020750326802954078,0.0003248228458687663,0.001502925413660705,0,1,-1000,0,0,0,0,0,1,583940,583.9400024414062,0.0,1500.0
11:59:51.385,AUTO,-35.3632621,149.1652375,6,-0.0003609495179262012,0.0017526829615235329,0.02072078175842762,0.000358211575075984,0.0003454975667409599,0.0013921249192208052,0,1,-1000,1,1,0,0,0,0,583940,583.9400024414062,0.0,1500.0
11:59:51.601,AUTO,-35.3632621,149.1652375,6,-0.0003609495179262012,0.0017526829615235329,0.02072078175842762,0.000358211575075984,0.0003454975667409599,0.0013921249192208052,0,1,-1000,1,1,0,0,0,0,583940,583.9400024414062,0.0,1500.0
11:59:51.808,AUTO,-35.3632621,149.1652375,6,-0.0003609495179262012,0.0017526829615235329,0.02072078175842762,0.000358211575075984,0.0003454975667409599,0.0013921249192208052,0,1,-1000,1,1,0,0,0,0,583940,583.9400024414062,0.0,1500.0
11:59:52.017,AUTO,-35.3632621,149.1652375,6,-0.0003609495179262012,0.0017526829615235329,0.02072078175842762,0.000358211575075984,0.0003454975667409599,0.0013921249192208052,0,1,-1000,1,1,0,0,0,0,583940,583.9400024414062,0.0,1500.0
11:59:52.221,AUTO,-35.3632621,149.1652375,6,-0.0003609495179262012,0.0017526829615235329,0.02072078175842762,0.000358211575075984,0.0003454975667409599,0.0013921249192208052,0,1,-1000,1,1,0,0,0,0,583940,583.9400024414062,0.0,1500.0
11:59:52.426,AUTO,-35.3632621,149.1652375,6,-0.0003609495179262012,0.0017526829615235329,0.02072078175842762,0.000358211575075984,0.0003454975667409599,0.0013921249192208052,0,1,-1000,1,1,0,0,0,0,583940,583.9400024414062,0.0,1500.0
11:59:52.631,AUTO,-35.3632621,149.1652375,6,-0.0003609495179262012,0.0017526829615235329,0.02072078175842762,0.000358211575075984,0.0003454975667409599,0.0013921249192208052,0,1,-1000,1,1,0,0,0,0,583940,583.9400024414062,0.0,1500.0
11:59:52.835,AUTO,-35.3632621,149.1652375,51,0.004328685812652111,-0.0005812242743559182,0.020659899339079857,0.004922245163470507,-0.0032043226528912783,0.0018667534459382296,0,0,-1139,5,-2,1,0,0,-33,583990,583.989990234375,0.0,1500.0
11:59:53.043,AUTO,-35.3632621,149.1652375,51,0.004328685812652111,-0.0005812242743559182,0.020659899339079857,0.004922245163470507,-0.0032043226528912783,0.0018667534459382296,0,0,-1139,5,-2,1,0,0,-33,583990,583.989990234375,0.0,1500.0
11:59:53.250,AUTO,-35.3632621,149.1652375,51,0.004328685812652111,-0.0005812242743559182,0.020659899339079857,0.004922245163470507,-0.0032043226528912783,0.0018667534459382296,0,0,-1139,5,-2,1,0,0,-33,583990,583.989990234375,0.0,1500.0
11:59:53.454,AUTO,-35.3632621,149.1652375,51,0.004328685812652111,-0.0005812242743559182,0.020659899339079857,0.004922245163470507,-0.0032043226528912783,0.0018667534459382296,0,0,-1139,5,-2,1,0,0,-33,583990,583.989990234375,0.0,1500.0
11:59:53.662,AUTO,-35.3632621,149.1652375,51,0.004328685812652111,-0.0005812242743559182,0.020659899339079857,0.004922245163470507,-0.0032043226528912783,0.0018667534459382296,0,0,-1139,5,-2,1,0,0,-33,583990,583.989990234375,0.0,1500.0
11:59:53.868,AUTO,-35.3632621,149.1652375,51,0.004328685812652111,-0.0005812242743559182,0.020659899339079857,0.004922245163470507,-0.0032043226528912783,0.0018667534459382296,0,0,-1139,5,-2,1,0,0,-33,583990,583.989990234375,0.0,1500.0
11:59:54.075,AUTO,-35.3632621,149.1652375,51,0.004328685812652111,-0.0005812242743559182,0.020659899339079857,0.004922245163470507,-0.0032043226528912783,0.0018667534459382296,0,0,-1139,5,-2,1,0,0,-33,583990,583.989990234375,0.0,1500.0
11:59:54.279,AUTO,-35.3632621,149.1652375,51,0.004328685812652111,-0.0005812242743559182,0.020659899339079857,0.004922245163470507,-0.0032043226528912783,0.0018667534459382296,0,0,-1139,5,-2,1,0,0,-33,583990,583.989990234375,0.0,1500.0
11:59:54.491,AUTO,-35.3632621,149.1652375,51,0.004328685812652111,-0.0005812242743559182,0.020659899339079857,0.004922245163470507,-0.0032043226528912783,0.0018667534459382296,0,0,-1139,5,-2,1,0,0,-33,583990,583.989990234375,0.0,1500.0
11:59:54.701,AUTO,-35.363262,149.1652375,1351,0.03147583827376366,-0.002444767626002431,0.020143643021583557,0.045241035521030426,-0.007960583083331585,0.0026285210624337196,0,0,-1020,47,-6,1,0,4,-144,585290,585.2899780273438,0.0,1500.0
11:59:54.904,AUTO,-35.3632616,149.1652396,2893,0.061674702912569046,-0.009952833876013756,-0.005751508753746748,0.02162094973027706,-0.004689614754170179,-0.02277238853275776,1,-7,-996,22,-4,-23,8,40,-149,586830,586.8300170898438,0.0,1500.0
11:59:55.109,AUTO,-35.3632616,149.1652396,2893,0.061674702912569046,-0.009952833876013756,-0.005751508753746748,0.02162094973027706,-0.004689614754170179,-0.02277238853275776,1,-7,-996,22,-4,-23,8,40,-149,586830,586.8300170898438,0.0,1500.0
11:59:55.311,AUTO,-35.3632616,149.1652396,2893,0.061674702912569046,-0.009952833876013756,-0.005751508753746748,0.02162094973027706,-0.004689614754170179,-0.02277238853275776,1,-7,-996,22,-4,-23,8,40,-149,586830,586.8300170898438,0.0,1500.0
11:59:55.516,AUTO,-35.3632616,149.1652396,2893,0.061674702912569046,-0.009952833876013756,-0.005751508753746748,0.02162094973027706,-0.004689614754170179,-0.02277238853275776,1,-7,-996,22,-4,-23,8,40,-149,586830,586.8300170898438,0.0,1500.0
11:59:55.719,AUTO,-35.3632616,149.1652396,2893,0.061674702912569046,-0.009952833876013756,-0.005751508753746748,0.02162094973027706,-0.004689614754170179,-0.02277238853275776,1,-7,-996,22,-4,-23,8,40,-149,586830,586.8300170898438,0.0,1500.0
11:59:55.921,AUTO,-35.3632616,149.1652396,2893,0.061674702912569046,-0.009952833876013756,-0.005751508753746748,0.02162094973027706,-0.004689614754170179,-0.02277238853275776,1,-7,-996,22,-4,-23,8,40,-149,586830,586.8300170898438,0.0,1500.0
11:59:56.134,AUTO,-35.3632616,149.1652396,2893,0.061674702912569046,-0.009952833876013756,-0.005751508753746748,0.02162094973027706,-0.004689614754170179,-0.02277238853275776,1,-7,-996,22,-4,-23,8,40,-149,586830,586.8300170898438,0.0,1500.0
11:59:56.348,AUTO,-35.3632616,149.1652396,2893,0.061674702912569046,-0.009952833876013756,-0.005751508753746748,0.02162094973027706,-0.004689614754170179,-0.02277238853275776,1,-7,-996,22,-4,-23,8,40,-149,586830,586.8300170898438,0.0,1500.0
11:59:56.551,AUTO,-35.3632616,149.1652396,2893,0.061674702912569046,-0.009952833876013756,-0.005751508753746748,0.02162094973027706,-0.004689614754170179,-0.02277238853275776,1,-7,-996,22,-4,-23,8,40,-149,586830,586.8300170898438,0.0,1500.0
11:59:56.757,AUTO,-35.3632616,149.1652396,2893,0.061674702912569046,-0.009952833876013756,-0.005751508753746748,0.02162094973027706,-0.004689614754170179,-0.02277238853275776,1,-7,-996,22,-4,-23,8,40,-149,586830,586.8300170898438,0.0,1500.0
11:59:56.960,AUTO,-35.3632616,149.1652396,2893,0.061674702912569046,-0.009952833876013756,-0.005751508753746748,0.02162094973027706,-0.004689614754170179,-0.02277238853275776,1,-7,-996,22,-4,-23,8,40,-149,586830,586.8300170898438,0.0,1500.0
11:59:57.163,AUTO,-35.3632608,149.1652455,4647,-0.035998035222291946,0.003031911561265588,-0.06690095365047455,-0.030969101935625076,-0.013100155629217625,-0.0318089984357357,3,-8,-1002,-30,-12,-32,2,31,-150,588580,588.5800170898438,0.0,1500.0
11:59:57.365,AUTO,-35.3632607,149.1652462,5036,-0.04928378760814667,0.00230105291120708,-0.07621706277132034,-0.07272731512784958,0.006167455576360226,-0.04113839194178581,3,-7,-998,-71,6,-41,3,19,-150,588970,588.969970703125,0.0,1500.0
11:59:57.567,AUTO,-35.3632607,149.1652462,5036,-0.04928378760814667,0.00230105291120708,-0.07621706277132034,-0.07272731512784958,0.006167455576360226,-0.04113839194178581,3,-7,-998,-71,6,-41,3,19,-150,588970,588.969970703125,0.0,1500.0
11:59:57.770,AUTO,-35.3632607,149.1652462,5036,-0.04928378760814667,0.00230105291120708,-0.07621706277132034,-0.07272731512784958,0.006167455576360226,-0.04113839194178581,3,-7,-998,-71,6,-41,3,19,-150,588970,588.969970703125,0.0,1500.0
11:59:58.001,AUTO,-35.3632607,149.1652462,5036,-0.04928378760814667,0.00230105291120708,-0.07621706277132034,-0.07272731512784958,0.006167455576360226,-0.04113839194178581,3,-7,-998,-71,6,-41,3,19,-150,588970,588.969970703125,0.0,1500.0
11:59:58.205,AUTO,-35.3632607,149.1652462,5036,-0.04928378760814667,0.00230105291120708,-0.07621706277132034,-0.07272731512784958,0.006167455576360226,-0.04113839194178581,3,-7,-998,-71,6,-41,3,19,-150,588970,588.969970703125,0.0,1500.0
11:59:58.407,AUTO,-35.3632607,149.1652462,5036,-0.04928378760814667,0.00230105291120708,-0.07621706277132034,-0.07272731512784958,0.006167455576360226,-0.04113839194178581,3,-7,-998,-71,6,-41,3,19,-150,588970,588.969970703125,0.0,1500.0
11:59:58.611,AUTO,-35.3632607,149.1652462,5036,-0.04928378760814667,0.00230105291120708,-0.07621706277132034,-0.07272731512784958,0.006167455576360226,-0.04113839194178581,3,-7,-998,-71,6,-41,3,19,-150,588970,588.969970703125,0.0,1500.0
11:59:58.821,AUTO,-35.3632612,149.1652406,7589,-0.01236692164093256,0.008636695332825184,-0.11517638713121414,0.06783372163772583,0.01015059370547533,-0.002785158809274435,-6,13,-1003,68,10,-2,-14,-61,-151,591520,591.5199584960938,0.0,1500.0
11:59:59.026,AUTO,-35.3632616,149.1652389,7978,0.004752736538648605,0.011163624003529549,-0.1153373122215271,0.06999609619379044,0.010260243900120258,-0.0007262065773829818,-5,13,-1004,70,11,-1,-17,-59,-152,591910,591.9099731445312,0.0,1500.0
11:59:59.232,AUTO,-35.3632616,149.1652389,7978,0.004752736538648605,0.011163624003529549,-0.1153373122215271,0.06999609619379044,0.010260243900120258,-0.0007262065773829818,-5,13,-1004,70,11,-1,-17,-59,-152,591910,591.9099731445312,0.0,1500.0
11:59:59.443,AUTO,-35.3632616,149.1652389,7978,0.004752736538648605,0.011163624003529549,-0.1153373122215271,0.06999609619379044,0.010260243900120258,-0.0007262065773829818,-5,13,-1004,70,11,-1,-17,-59,-152,591910,591.9099731445312,0.0,1500.0
11:59:59.648,AUTO,-35.3632616,149.1652389,7978,0.004752736538648605,0.011163624003529549,-0.1153373122215271,0.06999609619379044,0.010260243900120258,-0.0007262065773829818,-5,13,-1004,70,11,-1,-17,-59,-152,591910,591.9099731445312,0.0,1500.0
11:59:59.852,AUTO,-35.3632616,149.1652389,7978,0.004752736538648605,0.011163624003529549,-0.1153373122215271,0.06999609619379044,0.010260243900120258,-0.0007262065773829818,-5,13,-1004,70,11,-1,-17,-59,-152,591910,591.9099731445312,0.0,1500.0
12:00:00.059,AUTO,-35.3632616,149.1652389,7978,0.004752736538648605,0.011163624003529549,-0.1153373122215271,0.06999609619379044,0.010260243900120258,-0.0007262065773829818,-5,13,-1004,70,11,-1,-17,-59,-152,591910,591.9099731445312,0.0,1500.0
12:00:00.264,AUTO,-35.3632616,149.1652389,7978,0.004752736538648605,0.011163624003529549,-0.1153373122215271,0.06999609619379044,0.010260243900120258,-0.0007262065773829818,-5,13,-1004,70,11,-1,-17,-59,-152,591910,591.9099731445312,0.0,1500.0
12:00:00.466,AUTO,-35.3632616,149.1652389,7978,0.004752736538648605,0.011163624003529549,-0.1153373122215271,0.06999609619379044,0.010260243900120258,-0.0007262065773829818,-5,13,-1004,70,11,-1,-17,-59,-152,591910,591.9099731445312,0.0,1500.0
12:00:00.672,AUTO,-35.3632616,149.1652389,7978,0.004752736538648605,0.011163624003529549,-0.1153373122215271,0.06999609619379044,0.010260243900120258,-0.0007262065773829818,-5,13,-1004,70,11,-1,-17,-59,-152,591910,591.9099731445312,0.0,1500.0
12:00:00.875,AUTO,-35.3632647,149.1652347,10646,0.0474574975669384,-0.06257077306509018,-0.042139820754528046,-0.04477866739034653,-0.11044918745756149,0.13177959620952606,5,2,-1000,-31,-114,113,-2,27,-151,594580,594.5800170898438,0.0,1500.0
12:00:01.081,AUTO,-35.3632625,149.1652375,12183,-0.03382834047079086,-0.00234381016343832,-0.09237373620271683,-0.018810518085956573,0.06626766920089722,-0.10253898799419403,-3,-9,-1007,-55,94,-102,39,12,-152,596120,595.72998046875,0.0,1500.0
12:00:01.289,AUTO,-35.3632625,149.1652375,12183,-0.03382834047079086,-0.00234381016343832,-0.09237373620271683,-0.018810518085956573,0.06626766920089722,-0.10253898799419403,-5,-9,-1007,-18,67,-102,39,12,-152,596120,596.1199951171875,0.0,1500.0
12:00:01.496,AUTO,-35.3632625,149.1652375,12183,-0.03382834047079086,-0.00234381016343832,-0.09237373620271683,-0.018810518085956573,0.06626766920089722,-0.10253898799419403,-5,-9,-1007,-18,67,-102,39,12,-152,596120,596.1199951171875,0.0,1500.0
12:00:01.714,AUTO,-35.3632625,149.1652375,12183,-0.03382834047079086,-0.00234381016343832,-0.09237373620271683,-0.018810518085956573,0.06626766920089722,-0.10253898799419403,-5,-9,-1007,-18,67,-102,39,12,-152,596120,596.1199951171875,0.0,1500.0
12:00:01.926,AUTO,-35.3632625,149.1652375,12183,-0.03382834047079086,-0.00234381016343832,-0.09237373620271683,-0.018810518085956573,0.06626766920089722,-0.10253898799419403,-5,-9,-1007,-18,67,-102,39,12,-152,596120,596.1199951171875,0.0,1500.0
12:00:02.128,AUTO,-35.3632625,149.1652375,12183,-0.03382834047079086,-0.00234381016343832,-0.09237373620271683,-0.018810518085956573,0.06626766920089722,-0.10253898799419403,-5,-9,-1007,-18,67,-102,39,12,-152,596120,596.1199951171875,0.0,1500.0
12:00:02.336,AUTO,-35.3632625,149.1652375,12183,-0.03382834047079086,-0.00234381016343832,-0.09237373620271683,-0.018810518085956573,0.06626766920089722,-0.10253898799419403,-5,-9,-1007,-18,67,-102,39,12,-152,596120,596.1199951171875,0.0,1500.0
12:00:02.545,AUTO,-35.3632604,149.1652375,13280,-0.024357784539461136,0.022487066686153412,-0.1505674421787262,0.037281379103660583,0.019893299788236618,-0.05586967617273331,-5,-9,-1007,-18,67,-102,24,-12,-154,597220,597.219970703125,0.0,1500.0
12:00:02.746,AUTO,-35.3632599,149.165237,13673,-0.014453461393713951,0.026467885822057724,-0.16314120590686798,0.04439546540379524,0.014849958941340446,-0.042072493582963943,-6,0,-1001,45,15,-42,16,-17,-155,597610,597.6099853515625,0.0,1500.0
12:00:02.949,AUTO,-35.3632599,149.165237,13673,-0.014453461393713951,0.026467885822057724,-0.16314120590686798,0.04439546540379524,0.014849958941340446,-0.042072493582963943,-6,0,-1001,45,15,-42,16,-17,-155,597610,597.6099853515625,0.0,1500.0
12:00:03.159,AUTO,-35.3632599,149.165237,13673,-0.014453461393713951,0.026467885822057724,-0.16314120590686798,0.04439546540379524,0.014849958941340446,-0.042072493582963943,-6,0,-1001,45,15,-42,16,-17,-155,597610,597.6099853515625,0.0,1500.0
12:00:03.370,AUTO,-35.3632599,149.165237,13673,-0.014453461393713951,0.026467885822057724,-0.16314120590686798,0.04439546540379524,0.014849958941340446,-0.042072493582963943,-6,0,-1001,45,15,-42,16,-17,-155,597610,597.6099853515625,0.0,1500.0
12:00:03.579,AUTO,-35.3632599,149.165237,13673,-0.014453461393713951,0.026467885822057724,-0.16314120590686798,0.04439546540379524,0.014849958941340446,-0.042072493582963943,-6,0,-1001,45,15,-42,16,-17,-155,597610,597.6099853515625,0.0,1500.0
12:00:03.791,AUTO,-35.3632599,149.165237,13673,-0.014453461393713951,0.026467885822057724,-0.16314120590686798,0.04439546540379524,0.014849958941340446,-0.042072493582963943,-6,0,-1001,45,15,-42,16,-17,-155,597610,597.6099853515625,0.0,1500.0
12:00:04.002,AUTO,-35.3632599,149.165237,13673,-0.014453461393713951,0.026467885822057724,-0.16314120590686798,0.04439546540379524,0.014849958941340446,-0.042072493582963943,-6,0,-1001,45,15,-42,16,-17,-155,597610,597.6099853515625,0.0,1500.0
12:00:04.216,AUTO,-35.3632599,149.165237,13673,0.016590286046266556,0.02667965553700924,-0.17794007062911987,0.017392830923199654,-0.015213821083307266,0.005182463675737381,-6,0,-1001,45,15,-42,16,-17,-155,597610,597.6099853515625,0.0,1500.0
12:00:04.424,AUTO,-35.3632608,149.1652353,16972,0.008524893783032894,0.004810461774468422,-0.1660390943288803,-0.012586826458573341,-0.013807976618409157,-0.0009686578996479511,3,1,-1000,-11,-12,-1,-16,9,-153,600910,600.9099731445312,0.0,1500.0
12:00:04.628,AUTO,-35.3632608,149.1652353,16972,0.008524893783032894,0.004810461774468422,-0.1660390943288803,-0.012586826458573341,-0.013807976618409157,-0.0009686578996479511,3,1,-1000,-11,-12,-1,-16,9,-153,600910,600.9099731445312,0.0,1500.0
12:00:04.836,AUTO,-35.3632608,149.1652353,16972,0.008524893783032894,0.004810461774468422,-0.1660390943288803,-0.012586826458573341,-0.013807976618409157,-0.0009686578996479511,3,1,-1000,-11,-12,-1,-16,9,-153,600910,600.9099731445312,0.0,1500.0
12:00:05.046,AUTO,-35.3632608,149.1652353,16972,0.008524893783032894,0.004810461774468422,-0.1660390943288803,-0.012586826458573341,-0.013807976618409157,-0.0009686578996479511,3,1,-1000,-11,-12,-1,-16,9,-153,600910,600.9099731445312,0.0,1500.0
12:00:05.249,AUTO,-35.3632608,149.1652353,16972,0.008524893783032894,0.004810461774468422,-0.1660390943288803,-0.012586826458573341,-0.013807976618409157,-0.0009686578996479511,3,1,-1000,-11,-12,-1,-16,9,-153,600910,600.9099731445312,0.0,1500.0
12:00:05.453,AUTO,-35.3632608,149.1652353,16972,0.008524893783032894,0.004810461774468422,-0.1660390943288803,-0.012586826458573341,-0.013807976618409157,-0.0009686578996479511,3,1,-1000,-11,-12,-1,-16,9,-153,600910,600.9099731445312,0.0,1500.0
12:00:05.655,AUTO,-35.3632608,149.1652353,16972,0.008524893783032894,0.004810461774468422,-0.1660390943288803,-0.012586826458573341,-0.013807976618409157,-0.0009686578996479511,3,1,-1000,-11,-12,-1,-16,9,-153,600910,600.9099731445312,0.0,1500.0
12:00:05.858,AUTO,-35.3632608,149.1652353,16972,0.008524893783032894,0.004810461774468422,-0.1660390943288803,-0.012586826458573341,-0.013807976618409157,-0.0009686578996479511,3,1,-1000,-11,-12,-1,-16,9,-153,600910,600.9099731445312,0.0,1500.0
12:00:06.061,AUTO,-35.3632619,149.1652362,18697,-0.0015154536813497543,-0.0039274138398468494,-0.17796939611434937,-0.0022992780432105064,-0.003145757596939802,-0.020035667344927788,2,0,-1000,-1,-2,-20,-9,8,-154,602630,602.6300048828125,0.0,1500.0
12:00:06.266,AUTO,-35.3632623,149.1652365,20268,0.0007809613016434014,-0.0009712615283206105,-0.21121065318584442,0.0024941321462392807,0.005536287557333708,-0.029571963474154472,0,0,-1000,4,3,-27,-2,2,-154,604200,604.2000122070312,0.0,1500.0
12:00:06.471,AUTO,-35.3632623,149.1652365,20661,0.0007809613016434014,-0.0009712615283206105,-0.21121065318584442,0.0024941321462392807,0.005536287557333708,-0.029571963474154472,0,0,-1000,3,6,-29,-1,1,-154,604600,604.5999755859375,0.0,1500.0
12:00:06.681,AUTO,-35.3632623,149.1652365,20661,0.0007809613016434014,-0.0009712615283206105,-0.21121065318584442,0.0024941321462392807,0.005536287557333708,-0.029571963474154472,0,0,-1000,3,6,-29,-1,1,-154,604600,604.5999755859375,0.0,1500.0
12:00:06.886,AUTO,-35.3632623,149.1652365,20661,0.0007809613016434014,-0.0009712615283206105,-0.21121065318584442,0.0024941321462392807,0.005536287557333708,-0.029571963474154472,0,0,-1000,3,6,-29,-1,1,-154,604600,604.5999755859375,0.0,1500.0
12:00:07.096,AUTO,-35.3632623,149.1652365,20661,0.0007809613016434014,-0.0009712615283206105,-0.21121065318584442,0.0024941321462392807,0.005536287557333708,-0.029571963474154472,0,0,-1000,3,6,-29,-1,1,-154,604600,604.5999755859375,0.0,1500.0
12:00:07.303,AUTO,-35.3632623,149.1652365,20661,0.0007809613016434014,-0.0009712615283206105,-0.21121065318584442,0.0024941321462392807,0.005536287557333708,-0.029571963474154472,0,0,-1000,3,6,-29,-1,1,-154,604600,604.5999755859375,0.0,1500.0
12:00:07.511,AUTO,-35.3632623,149.1652365,20661,0.0007809613016434014,-0.0009712615283206105,-0.21121065318584442,0.0024941321462392807,0.005536287557333708,-0.029571963474154472,0,0,-1000,3,6,-29,-1,1,-154,604600,604.5999755859375,0.0,1500.0
12:00:07.716,AUTO,-35.3632623,149.1652365,20661,0.0007809613016434014,-0.0009712615283206105,-0.21121065318584442,0.0024941321462392807,0.005536287557333708,-0.029571963474154472,0,0,-1000,3,6,-29,-1,1,-154,604600,604.5999755859375,0.0,1500.0
12:00:07.925,AUTO,-35.3632623,149.1652365,20661,0.0007809613016434014,-0.0009712615283206105,-0.21121065318584442,0.0024941321462392807,0.005536287557333708,-0.029571963474154472,0,0,-1000,3,6,-29,-1,1,-154,604600,604.5999755859375,0.0,1500.0
12:00:08.129,AUTO,-35.3632623,149.1652365,20661,0.0007809613016434014,-0.0009712615283206105,-0.21121065318584442,0.0024941321462392807,0.005536287557333708,-0.029571963474154472,0,0,-1000,3,6,-29,-1,1,-154,604600,604.5999755859375,0.0,1500.0
12:00:08.335,AUTO,-35.3632622,149.1652365,23479,0.004045326262712479,0.0038888726849108934,-0.25431564450263977,0.0004515736363828182,0.00011232716497033834,-0.020616983994841576,0,0,-1000,1,0,-20,0,2,-154,607410,607.4099731445312,0.0,1500.0
12:00:08.540,AUTO,-35.3632622,149.1652365,23479,0.004045326262712479,0.0038888726849108934,-0.25431564450263977,0.0004515736363828182,0.00011232716497033834,-0.020616983994841576,0,0,-1000,1,0,-20,0,2,-154,607410,607.4099731445312,0.0,1500.0
12:00:08.749,AUTO,-35.3632622,149.1652365,23479,0.004045326262712479,0.0038888726849108934,-0.25431564450263977,0.0004515736363828182,0.00011232716497033834,-0.020616983994841576,0,0,-1000,1,0,-20,0,2,-154,607410,607.4099731445312,0.0,1500.0
12:00:08.952,AUTO,-35.3632622,149.1652365,23479,0.004045326262712479,0.0038888726849108934,-0.25431564450263977,0.0004515736363828182,0.00011232716497033834,-0.020616983994841576,0,0,-1000,1,0,-20,0,2,-154,607410,607.4099731445312,0.0,1500.0
12:00:09.161,AUTO,-35.3632622,149.1652365,23479,0.004045326262712479,0.0038888726849108934,-0.25431564450263977,0.0004515736363828182,0.00011232716497033834,-0.020616983994841576,0,0,-1000,1,0,-20,0,2,-154,607410,607.4099731445312,0.0,1500.0
12:00:09.377,AUTO,-35.3632622,149.1652365,23479,0.004045326262712479,0.0038888726849108934,-0.25431564450263977,0.0004515736363828182,0.00011232716497033834,-0.020616983994841576,0,0,-1000,1,0,-20,0,2,-154,607410,607.4099731445312,0.0,1500.0
12:00:09.590,AUTO,-35.3632622,149.1652365,23479,0.004045326262712479,0.0038888726849108934,-0.25431564450263977,0.0004515736363828182,0.00011232716497033834,-0.020616983994841576,0,0,-1000,1,0,-20,0,2,-154,607410,607.4099731445312,0.0,1500.0
12:00:09.806,AUTO,-35.3632621,149.1652366,25674,-0.011410970240831375,0.00639692135155201,-0.2729615569114685,0.018502838909626007,0.005441954825073481,0.012053314596414566,0,0,-993,-75,10,-1,-3,0,-153,609610,609.6099853515625,0.0,1500.0
12:00:10.014,AUTO,-35.3632622,149.1652366,26457,0.004815304651856422,0.00514630414545536,-0.26304367184638977,0.02804616093635559,-0.004615022800862789,0.02707715891301632,0,0,-1000,28,-3,26,-5,-1,-154,610390,610.3900146484375,0.0,1500.0
12:00:10.218,AUTO,-35.3632622,149.1652366,26457,0.004815304651856422,0.00514630414545536,-0.26304367184638977,0.02804616093635559,-0.004615022800862789,0.02707715891301632,0,0,-1000,28,-3,26,-5,-1,-154,610390,610.3900146484375,0.0,1500.0
12:00:10.420,AUTO,-35.3632622,149.1652366,26457,0.004815304651856422,0.00514630414545536,-0.26304367184638977,0.02804616093635559,-0.004615022800862789,0.02707715891301632,0,0,-1000,28,-3,26,-5,-1,-154,610390,610.3900146484375,0.0,1500.0
12:00:10.627,AUTO,-35.3632622,149.1652366,26457,0.004815304651856422,0.00514630414545536,-0.26304367184638977,0.02804616093635559,-0.004615022800862789,0.02707715891301632,0,0,-1000,28,-3,26,-5,-1,-154,610390,610.3900146484375,0.0,1500.0
12:00:10.843,AUTO,-35.3632622,149.1652366,26457,0.004815304651856422,0.00514630414545536,-0.26304367184638977,0.02804616093635559,-0.004615022800862789,0.02707715891301632,0,0,-1000,28,-3,26,-5,-1,-154,610390,610.3900146484375,0.0,1500.0
12:00:11.056,AUTO,-35.3632622,149.1652366,26457,0.004815304651856422,0.00514630414545536,-0.26304367184638977,0.02804616093635559,-0.004615022800862789,0.02707715891301632,0,0,-1000,28,-3,26,-5,-1,-154,610390,610.3900146484375,0.0,1500.0
12:00:11.268,AUTO,-35.3632622,149.1652366,26457,0.004815304651856422,0.00514630414545536,-0.26304367184638977,0.02804616093635559,-0.004615022800862789,0.02707715891301632,0,0,-1000,28,-3,26,-5,-1,-154,610390,610.3900146484375,0.0,1500.0
12:00:11.476,AUTO,-35.3632622,149.1652366,26457,0.004815304651856422,0.00514630414545536,-0.26304367184638977,0.02804616093635559,-0.004615022800862789,0.02707715891301632,0,0,-1000,28,-3,26,-5,-1,-154,610390,610.3900146484375,0.0,1500.0
12:00:11.678,AUTO,-35.3632624,149.1652367,28254,0.008537734858691692,0.0019391770474612713,-0.23361143469810486,-0.007126423995941877,0.000996400834992528,0.023873506113886833,1,0,-1000,-6,1,23,-2,7,-154,612190,612.1900024414062,0.0,1500.0
12:00:11.884,AUTO,-35.3632624,149.1652374,29812,0.001247819047421217,0.001673287246376276,-0.21283546090126038,-0.0031757992692291737,0.000831276411190629,0.021455921232700348,0,-1,-1000,-1,1,21,0,8,-154,613750,613.75,0.0,1500.0
12:00:12.094,AUTO,-35.3632624,149.1652374,29812,0.001247819047421217,0.001673287246376276,-0.21283546090126038,-0.0031757992692291737,0.000831276411190629,0.021455921232700348,0,-1,-1000,-1,1,21,0,8,-154,613750,613.75,0.0,1500.0
12:00:12.299,AUTO,-35.3632624,149.1652374,29812,0.001247819047421217,0.001673287246376276,-0.21283546090126038,-0.0031757992692291737,0.000831276411190629,0.021455921232700348,0,-1,-1000,-1,1,21,0,8,-154,613750,613.75,0.0,1500.0
12:00:12.507,AUTO,-35.3632624,149.1652374,29812,0.001247819047421217,0.001673287246376276,-0.21283546090126038,-0.0031757992692291737,0.000831276411190629,0.021455921232700348,0,-1,-1000,-1,1,21,0,8,-154,613750,613.75,0.0,1500.0
12:00:12.713,AUTO,-35.3632624,149.1652374,29812,0.001247819047421217,0.001673287246376276,-0.21283546090126038,-0.0031757992692291737,0.000831276411190629,0.021455921232700348,0,-1,-1000,-1,1,21,0,8,-154,613750,613.75,0.0,1500.0
12:00:12.917,AUTO,-35.3632624,149.1652374,29812,0.001247819047421217,0.001673287246376276,-0.21283546090126038,-0.0031757992692291737,0.000831276411190629,0.021455921232700348,0,-1,-1000,-1,1,21,0,8,-154,613750,613.75,0.0,1500.0
12:00:13.126,AUTO,-35.3632624,149.1652374,29812,0.001247819047421217,0.001673287246376276,-0.21283546090126038,-0.0031757992692291737,0.000831276411190629,0.021455921232700348,0,-1,-1000,-1,1,21,0,8,-154,613750,613.75,0.0,1500.0
12:00:13.330,AUTO,-35.3632624,149.1652374,29812,0.001247819047421217,0.001673287246376276,-0.21283546090126038,-0.0031757992692291737,0.000831276411190629,0.021455921232700348,0,-1,-1000,-1,1,21,0,8,-154,613750,613.75,0.0,1500.0
12:00:13.536,AUTO,-35.3632624,149.165238,31212,-0.0013248410541564226,0.0012693434255197644,-0.1968543529510498,-0.0011113876244053245,-0.0019663809798657894,0.018038403242826462,0,-1,-1000,0,-1,17,0,5,-154,615150,615.1499633789062,0.0,1500.0
12:00:13.742,AUTO,-35.3632624,149.1652381,32774,-0.0002960320271085948,0.0012593979481607676,-0.1810729205608368,-0.0015910598449409008,-0.0021273032762110233,0.013215415179729462,0,0,-1000,0,-1,13,0,1,-154,616710,616.7099609375,0.0,1500.0
12:00:13.948,AUTO,-35.3632624,149.1652381,32774,-0.0002960320271085948,0.0012593979481607676,-0.1810729205608368,-0.0015910598449409008,-0.0021273032762110233,0.013215415179729462,0,0,-1000,0,-1,13,0,1,-154,616710,616.7099609375,0.0,1500.0
12:00:14.160,AUTO,-35.3632624,149.1652381,32774,-0.0002960320271085948,0.0012593979481607676,-0.1810729205608368,-0.0015910598449409008,-0.0021273032762110233,0.013215415179729462,0,0,-1000,0,-1,13,0,1,-154,616710,616.7099609375,0.0,1500.0
12:00:14.362,AUTO,-35.3632624,149.1652381,32774,-0.0002960320271085948,0.0012593979481607676,-0.1810729205608368,-0.0015910598449409008,-0.0021273032762110233,0.013215415179729462,0,0,-1000,0,-1,13,0,1,-154,616710,616.7099609375,0.0,1500.0
12:00:14.569,AUTO,-35.3632624,149.1652381,32774,-0.0002960320271085948,0.0012593979481607676,-0.1810729205608368,-0.0015910598449409008,-0.0021273032762110233,0.013215415179729462,0,0,-1000,0,-1,13,0,1,-154,616710,616.7099609375,0.0,1500.0
12:00:14.775,AUTO,-35.3632624,149.1652381,32774,-0.0002960320271085948,0.0012593979481607676,-0.1810729205608368,-0.0015910598449409008,-0.0021273032762110233,0.013215415179729462,0,0,-1000,0,-1,13,0,1,-154,616710,616.7099609375,0.0,1500.0
12:00:14.986,AUTO,-35.3632624,149.1652381,32774,-0.0002960320271085948,0.0012593979481607676,-0.1810729205608368,-0.0015910598449409008,-0.0021273032762110233,0.013215415179729462,0,0,-1000,0,-1,13,0,1,-154,616710,616.7099609375,0.0,1500.0
12:00:15.199,AUTO,-35.3632624,149.1652381,32774,-0.0002960320271085948,0.0012593979481607676,-0.1810729205608368,-0.0015910598449409008,-0.0021273032762110233,0.013215415179729462,0,0,-1000,0,-1,13,0,1,-154,616710,616.7099609375,0.0,1500.0
12:00:15.402,AUTO,-35.3632623,149.165238,35355,0.0013661128468811512,0.0013207040028646588,-0.15943452715873718,0.00021458754781633615,-0.00044659338891506195,0.011737845838069916,0,0,-1000,1,1,14,0,0,-154,619290,619.2899780273438,0.0,1500.0
12:00:15.618,AUTO,-35.3632622,149.165238,36137,0.0017349362606182694,0.0013410078827291727,-0.15377573668956757,0.0022794660180807114,0.0006194089073687792,0.012516775168478489,0,0,-1000,3,1,12,0,0,-154,620070,620.0700073242188,0.0,1500.0
12:00:15.821,AUTO,-35.3632622,149.165238,36137,0.0017349362606182694,0.0013410078827291727,-0.15377573668956757,0.0022794660180807114,0.0006194089073687792,0.012516775168478489,0,0,-1000,3,1,12,0,0,-154,620070,620.0700073242188,0.0,1500.0
12:00:16.029,AUTO,-35.3632622,149.165238,36137,0.0017349362606182694,0.0013410078827291727,-0.15377573668956757,0.0022794660180807114,0.0006194089073687792,0.012516775168478489,0,0,-1000,3,1,12,0,0,-154,620070,620.0700073242188,0.0,1500.0
12:00:16.233,AUTO,-35.3632622,149.165238,36137,0.0017349362606182694,0.0013410078827291727,-0.15377573668956757,0.0022794660180807114,0.0006194089073687792,0.012516775168478489,0,0,-1000,3,1,12,0,0,-154,620070,620.0700073242188,0.0,1500.0
12:00:16.445,AUTO,-35.3632622,149.165238,36137,0.0017349362606182694,0.0013410078827291727,-0.15377573668956757,0.0022794660180807114,0.0006194089073687792,0.012516775168478489,0,0,-1000,3,1,12,0,0,-154,620070,620.0700073242188,0.0,1500.0
12:00:16.657,AUTO,-35.3632622,149.165238,36137,0.0017349362606182694,0.0013410078827291727,-0.15377573668956757,0.0022794660180807114,0.0006194089073687792,0.012516775168478489,0,0,-1000,3,1,12,0,0,-154,620070,620.0700073242188,0.0,1500.0
12:00:16.861,AUTO,-35.3632622,149.165238,36137,0.0017349362606182694,0.0013410078827291727,-0.15377573668956757,0.0022794660180807114,0.0006194089073687792,0.012516775168478489,0,0,-1000,3,1,12,0,0,-154,620070,620.0700073242188,0.0,1500.0
12:00:17.066,AUTO,-35.3632622,149.165238,36137,0.0017349362606182694,0.0013410078827291727,-0.15377573668956757,0.0022794660180807114,0.0006194089073687792,0.012516775168478489,0,0,-1000,3,1,12,0,0,-154,620070,620.0700073242188,0.0,1500.0
12:00:17.281,AUTO,-35.3632621,149.1652376,39182,0.0025897694285959005,0.0016056211898103356,-0.13591277599334717,-0.0004834738792851567,-0.0007681780843995512,0.008636784739792347,0,0,-1000,0,0,8,0,0,-154,623120,623.1199951171875,0.0,1500.0
12:00:17.486,AUTO,-35.3632621,149.1652376,39182,0.0025897694285959005,0.0016056211898103356,-0.13591277599334717,-0.0004834738792851567,-0.0007681780843995512,0.008636784739792347,0,0,-1000,0,0,8,0,0,-154,623120,623.1199951171875,0.0,1500.0
12:00:17.693,AUTO,-35.3632621,149.1652376,39182,0.0025897694285959005,0.0016056211898103356,-0.13591277599334717,-0.0004834738792851567,-0.0007681780843995512,0.008636784739792347,0,0,-1000,0,0,8,0,0,-154,623120,623.1199951171875,0.0,1500.0
12:00:17.895,AUTO,-35.3632621,149.1652376,39182,0.0025897694285959005,0.0016056211898103356,-0.13591277599334717,-0.0004834738792851567,-0.0007681780843995512,0.008636784739792347,0,0,-1000,0,0,8,0,0,-154,623120,623.1199951171875,0.0,1500.0
12:00:18.102,AUTO,-35.3632621,149.1652376,39182,0.0025897694285959005,0.0016056211898103356,-0.13591277599334717,-0.0004834738792851567,-0.0007681780843995512,0.008636784739792347,0,0,-1000,0,0,8,0,0,-154,623120,623.1199951171875,0.0,1500.0
12:00:18.307,AUTO,-35.3632621,149.1652376,39182,0.0025897694285959005,0.0016056211898103356,-0.13591277599334717,-0.0004834738792851567,-0.0007681780843995512,0.008636784739792347,0,0,-1000,0,0,8,0,0,-154,623120,623.1199951171875,0.0,1500.0
12:00:18.519,AUTO,-35.3632621,149.1652376,39182,0.0025897694285959005,0.0016056211898103356,-0.13591277599334717,-0.0004834738792851567,-0.0007681780843995512,0.008636784739792347,0,0,-1000,0,0,8,0,0,-154,623120,623.1199951171875,0.0,1500.0
12:00:18.733,AUTO,-35.3632621,149.1652376,39182,0.0025897694285959005,0.0016056211898103356,-0.13591277599334717,-0.0004834738792851567,-0.0007681780843995512,0.008636784739792347,0,0,-1000,0,0,8,0,0,-154,623120,623.1199951171875,0.0,1500.0
12:00:18.938,AUTO,-35.3632621,149.1652376,39182,0.0025897694285959005,0.0016056211898103356,-0.13591277599334717,-0.0004834738792851567,-0.0007681780843995512,0.008636784739792347,0,0,-1000,0,0,8,0,0,-154,623120,623.1199951171875,0.0,1500.0
12:00:19.144,AUTO,-35.3632621,149.1652375,42076,0.0018881922587752342,0.0015915149124339223,-0.1220502033829689,-0.0005377469351515174,0.0005182999884709716,0.008571416139602661,0,0,-1000,-2,1,8,-1,1,-154,626010,626.010009765625,0.0,1500.0
12:00:19.346,AUTO,-35.3632621,149.1652375,42466,0.0019658056553453207,0.001634889398701489,-0.12062820047140121,0.0021506829652935266,-0.0004245478194206953,0.005547539796680212,0,0,-1001,3,0,5,-1,1,-154,626400,626.3999633789062,0.0,1500.0
12:00:19.558,AUTO,-35.3632621,149.1652375,42466,0.0019658056553453207,0.001634889398701489,-0.12062820047140121,0.0021506829652935266,-0.0004245478194206953,0.005547539796680212,0,0,-1001,3,0,5,-1,1,-154,626400,626.3999633789062,0.0,1500.0
12:00:19.765,AUTO,-35.3632621,149.1652375,42466,0.0019658056553453207,0.001634889398701489,-0.12062820047140121,0.0021506829652935266,-0.0004245478194206953,0.005547539796680212,0,0,-1001,3,0,5,-1,1,-154,626400,626.3999633789062,0.0,1500.0
12:00:19.973,AUTO,-35.3632621,149.1652375,42466,0.0019658056553453207,0.001634889398701489,-0.12062820047140121,0.0021506829652935266,-0.0004245478194206953,0.005547539796680212,0,0,-1001,3,0,5,-1,1,-154,626400,626.3999633789062,0.0,1500.0
12:00:20.180,AUTO,-35.3632621,149.1652375,42466,0.0019658056553453207,0.001634889398701489,-0.12062820047140121,0.0021506829652935266,-0.0004245478194206953,0.005547539796680212,0,0,-1001,3,0,5,-1,1,-154,626400,626.3999633789062,0.0,1500.0
12:00:20.381,AUTO,-35.3632621,149.1652375,42466,0.0019658056553453207,0.001634889398701489,-0.12062820047140121,0.0021506829652935266,-0.0004245478194206953,0.005547539796680212,0,0,-1001,3,0,5,-1,1,-154,626400,626.3999633789062,0.0,1500.0
12:00:20.584,AUTO,-35.3632621,149.1652375,42466,0.0019658056553453207,0.001634889398701489,-0.12062820047140121,0.0021506829652935266,-0.0004245478194206953,0.005547539796680212,0,0,-1001,3,0,5,-1,1,-154,626400,626.3999633789062,0.0,1500.0
12:00:20.791,AUTO,-35.363262,149.1652374,44183,0.0018183180363848805,0.0014189749490469694,-0.11369015276432037,0.00035574997309595346,0.0010226061567664146,0.0076018390245735645,0,0,-999,1,2,7,-1,1,-154,628120,628.1199951171875,0.0,1500.0
12:00:20.993,AUTO,-35.363262,149.1652374,45745,0.001834381022490561,0.0013822877081111073,-0.10792478919029236,0.006513192318379879,0.0012588131939992309,0.00759090157225728,0,0,-1001,7,2,7,-1,1,-154,629680,629.6799926757812,0.0,1500.0
12:00:21.198,AUTO,-35.363262,149.1652374,45745,0.001834381022490561,0.0013822877081111073,-0.10792478919029236,0.006513192318379879,0.0012588131939992309,0.00759090157225728,0,0,-1001,7,2,7,-1,1,-154,629680,629.6799926757812,0.0,1500.0
12:00:21.427,AUTO,-35.363262,149.1652374,45745,0.001834381022490561,0.0013822877081111073,-0.10792478919029236,0.006513192318379879,0.0012588131939992309,0.00759090157225728,0,0,-1001,7,2,7,-1,1,-154,629680,629.6799926757812,0.0,1500.0
12:00:21.635,AUTO,-35.363262,149.1652374,45745,0.001834381022490561,0.0013822877081111073,-0.10792478919029236,0.006513192318379879,0.0012588131939992309,0.00759090157225728,0,0,-1001,7,2,7,-1,1,-154,629680,629.6799926757812,0.0,1500.0
12:00:21.847,AUTO,-35.363262,149.1652374,45745,0.001834381022490561,0.0013822877081111073,-0.10792478919029236,0.006513192318379879,0.0012588131939992309,0.00759090157225728,0,0,-1001,7,2,7,-1,1,-154,629680,629.6799926757812,0.0,1500.0
12:00:22.051,AUTO,-35.363262,149.1652374,45745,0.001834381022490561,0.0013822877081111073,-0.10792478919029236,0.006513192318379879,0.0012588131939992309,0.00759090157225728,0,0,-1001,7,2,7,-1,1,-154,629680,629.6799926757812,0.0,1500.0
12:00:22.262,AUTO,-35.363262,149.1652374,45745,0.001834381022490561,0.0013822877081111073,-0.10792478919029236,0.006513192318379879,0.0012588131939992309,0.00759090157225728,0,0,-1001,7,2,7,-1,1,-154,629680,629.6799926757812,0.0,1500.0
12:00:22.467,AUTO,-35.363262,149.1652374,45745,0.001834381022490561,0.0013822877081111073,-0.10792478919029236,0.006513192318379879,0.0012588131939992309,0.00759090157225728,0,0,-1001,7,2,7,-1,1,-154,629680,629.6799926757812,0.0,1500.0
12:00:22.677,AUTO,-35.3632621,149.1652372,47658,-0.04998026043176651,0.05848057195544243,0.052107714116573334,-0.16144132614135742,0.1302451193332672,0.5739521384239197,0,0,-974,-160,131,574,-12,-9,-139,631590,631.5899658203125,0.0,1500.0
12:00:26.471,AUTO,-35.3632625,149.1652367,47997,-0.059415094554424286,0.06475534290075302,0.17535406351089478,0.018420971930027008,-0.13827712833881378,0.37413811683654785,3,5,-940,19,-137,374,-26,-24,-126,631930,631.9299926757812,0.0,1500.0
12:00:26.677,AUTO,-35.3632625,149.1652367,47997,-0.059415094554424286,0.06475534290075302,0.17535406351089478,0.018420971930027008,-0.13827712833881378,0.37413811683654785,3,5,-940,19,-137,374,-26,-24,-126,631930,631.9299926757812,0.0,1500.0
12:00:26.891,AUTO,-35.3632625,149.1652367,47997,-0.059415094554424286,0.06475534290075302,0.17535406351089478,0.018420971930027008,-0.13827712833881378,0.37413811683654785,3,5,-940,19,-137,374,-26,-24,-126,631930,631.9299926757812,0.0,1500.0
12:00:27.100,AUTO,-35.3632625,149.1652367,47997,-0.059415094554424286,0.06475534290075302,0.17535406351089478,0.018420971930027008,-0.13827712833881378,0.37413811683654785,3,5,-940,19,-137,374,-26,-24,-126,631930,631.9299926757812,0.0,1500.0
12:00:27.306,AUTO,-35.3632625,149.1652367,47997,-0.059415094554424286,0.06475534290075302,0.17535406351089478,0.018420971930027008,-0.13827712833881378,0.37413811683654785,3,5,-940,19,-137,374,-26,-24,-126,631930,631.9299926757812,0.0,1500.0
12:00:27.509,AUTO,-35.3632625,149.1652367,47997,-0.059415094554424286,0.06475534290075302,0.17535406351089478,0.018420971930027008,-0.13827712833881378,0.37413811683654785,3,5,-940,19,-137,374,-26,-24,-126,631930,631.9299926757812,0.0,1500.0
12:00:27.711,AUTO,-35.3632625,149.1652367,47997,-0.059415094554424286,0.06475534290075302,0.17535406351089478,0.018420971930027008,-0.13827712833881378,0.37413811683654785,3,5,-940,19,-137,374,-26,-24,-126,631930,631.9299926757812,0.0,1500.0
12:00:27.914,AUTO,-35.3632625,149.1652367,47997,-0.059415094554424286,0.06475534290075302,0.17535406351089478,0.018420971930027008,-0.13827712833881378,0.37413811683654785,3,5,-940,19,-137,374,-26,-24,-126,631930,631.9299926757812,0.0,1500.0
12:00:28.118,AUTO,-35.3632645,149.1652335,48893,0.021149074658751488,-0.05207701772451401,0.28900790214538574,0.025356171652674675,-0.03661723807454109,0.007514485158026218,2,7,-960,26,-35,7,-16,-27,-83,632830,632.8299560546875,0.0,1500.0
12:00:28.324,AUTO,-35.363264,149.1652332,49690,0.03348081558942795,-0.019033193588256836,0.2510872483253479,0.4772639274597168,0.03867027908563614,-0.03233378380537033,-3,23,-976,485,39,-31,19,24,-45,633630,633.6300048828125,0.0,1500.0
12:00:28.533,AUTO,-35.363264,149.1652332,49690,0.03348081558942795,-0.019033193588256836,0.2510872483253479,0.4772639274597168,0.03867027908563614,-0.03233378380537033,-3,23,-976,485,39,-31,19,24,-45,633630,633.6300048828125,0.0,1500.0
12:00:28.738,AUTO,-35.363264,149.1652332,49690,0.03348081558942795,-0.019033193588256836,0.2510872483253479,0.4772639274597168,0.03867027908563614,-0.03233378380537033,-3,23,-976,485,39,-31,19,24,-45,633630,633.6300048828125,0.0,1500.0
12:00:28.953,AUTO,-35.363264,149.1652332,49690,0.03348081558942795,-0.019033193588256836,0.2510872483253479,0.4772639274597168,0.03867027908563614,-0.03233378380537033,-3,23,-976,485,39,-31,19,24,-45,633630,633.6300048828125,0.0,1500.0
12:00:29.161,AUTO,-35.363264,149.1652332,49690,0.03348081558942795,-0.019033193588256836,0.2510872483253479,0.4772639274597168,0.03867027908563614,-0.03233378380537033,-3,23,-976,485,39,-31,19,24,-45,633630,633.6300048828125,0.0,1500.0
12:00:29.365,AUTO,-35.363264,149.1652332,49690,0.03348081558942795,-0.019033193588256836,0.2510872483253479,0.4772639274597168,0.03867027908563614,-0.03233378380537033,-3,23,-976,485,39,-31,19,24,-45,633630,633.6300048828125,0.0,1500.0
12:00:29.573,AUTO,-35.363264,149.1652332,49690,0.03348081558942795,-0.019033193588256836,0.2510872483253479,0.4772639274597168,0.03867027908563614,-0.03233378380537033,-3,23,-976,485,39,-31,19,24,-45,633630,633.6300048828125,0.0,1500.0
12:00:29.783,AUTO,-35.363264,149.1652332,49690,0.03348081558942795,-0.019033193588256836,0.2510872483253479,0.4772639274597168,0.03867027908563614,-0.03233378380537033,-3,23,-976,485,39,-31,19,24,-45,633630,633.6300048828125,0.0,1500.0
12:00:29.989,AUTO,-35.363264,149.1652332,49690,0.03348081558942795,-0.019033193588256836,0.2510872483253479,0.4772639274597168,0.03867027908563614,-0.03233378380537033,-3,23,-976,485,39,-31,19,24,-45,633630,633.6300048828125,0.0,1500.0
12:00:30.193,AUTO,-35.3632613,149.1652375,50154,-0.009571733884513378,0.015385366976261139,0.20301401615142822,-0.0274045430123806,-0.002546250820159912,-0.011505408212542534,-1,20,-964,-13,-1,-11,8,24,-12,634090,634.0899658203125,0.0,1500.0
12:00:30.399,AUTO,-35.3632609,149.1652382,50160,-0.0194359440356493,0.037144605070352554,0.19496428966522217,0.6941615343093872,0.05724106356501579,-0.049021150916814804,1,49,-934,708,58,-48,0,14,7,634100,634.0999755859375,0.0,1500.0
12:00:30.606,AUTO,-35.3632609,149.1652382,50160,-0.0194359440356493,0.037144605070352554,0.19496428966522217,0.6941615343093872,0.05724106356501579,-0.049021150916814804,1,49,-934,708,58,-48,0,14,7,634100,634.0999755859375,0.0,1500.0
12:00:30.811,AUTO,-35.3632609,149.1652382,50160,-0.0194359440356493,0.037144605070352554,0.19496428966522217,0.6941615343093872,0.05724106356501579,-0.049021150916814804,1,49,-934,708,58,-48,0,14,7,634100,634.0999755859375,0.0,1500.0
12:00:31.018,AUTO,-35.3632609,149.1652382,50160,-0.0194359440356493,0.037144605070352554,0.19496428966522217,0.6941615343093872,0.05724106356501579,-0.049021150916814804,1,49,-934,708,58,-48,0,14,7,634100,634.0999755859375,0.0,1500.0
12:00:31.233,AUTO,-35.3632609,149.1652382,50160,-0.0194359440356493,0.037144605070352554,0.19496428966522217,0.6941615343093872,0.05724106356501579,-0.049021150916814804,1,49,-934,708,58,-48,0,14,7,634100,634.0999755859375,0.0,1500.0
12:00:31.435,AUTO,-35.3632609,149.1652382,50160,-0.0194359440356493,0.037144605070352554,0.19496428966522217,0.6941615343093872,0.05724106356501579,-0.049021150916814804,1,49,-934,708,58,-48,0,14,7,634100,634.0999755859375,0.0,1500.0
12:00:31.644,AUTO,-35.3632609,149.1652382,50160,-0.0194359440356493,0.037144605070352554,0.19496428966522217,0.6941615343093872,0.05724106356501579,-0.049021150916814804,1,49,-934,708,58,-48,0,14,7,634100,634.0999755859375,0.0,1500.0
12:00:31.848,AUTO,-35.3632609,149.1652382,50160,-0.0194359440356493,0.037144605070352554,0.19496428966522217,0.6941615343093872,0.05724106356501579,-0.049021150916814804,1,49,-934,708,58,-48,0,14,7,634100,634.0999755859375,0.0,1500.0
12:00:32.052,AUTO,-35.3632609,149.1652382,50160,-0.0194359440356493,0.037144605070352554,0.19496428966522217,0.6941615343093872,0.05724106356501579,-0.049021150916814804,1,49,-934,708,58,-48,0,14,7,634100,634.0999755859375,0.0,1500.0
12:00:32.254,AUTO,-35.3632609,149.1652376,50010,0.05144404619932175,-0.06484679877758026,0.16755227744579315,0.24382415413856506,-0.05548941344022751,-0.02043839544057846,-1,0,-1009,523,-67,-15,6,10,6,633950,633.9500122070312,0.0,1500.0
12:00:32.460,AUTO,-35.3632561,149.16524,49943,0.02992919646203518,-0.11987809091806412,0.5380011796951294,-0.6451950669288635,-0.05282295495271683,0.8669447898864746,-16,-52,-995,-651,-52,867,84,66,-1,633880,633.8800048828125,0.0,1500.0
12:00:32.664,AUTO,-35.3632561,149.16524,49943,0.02992919646203518,-0.11987809091806412,0.5380011796951294,-0.6451950669288635,-0.05282295495271683,0.8669447898864746,-16,-52,-995,-651,-52,867,84,66,-1,633880,633.8800048828125,0.0,1500.0
12:00:32.867,AUTO,-35.3632561,149.16524,49943,0.02992919646203518,-0.11987809091806412,0.5380011796951294,-0.6451950669288635,-0.05282295495271683,0.8669447898864746,-16,-52,-995,-651,-52,867,84,66,-1,633880,633.8800048828125,0.0,1500.0
12:00:33.072,AUTO,-35.3632561,149.16524,49943,0.02992919646203518,-0.11987809091806412,0.5380011796951294,-0.6451950669288635,-0.05282295495271683,0.8669447898864746,-16,-52,-995,-651,-52,867,84,66,-1,633880,633.8800048828125,0.0,1500.0
12:00:33.276,AUTO,-35.3632561,149.16524,49943,0.02992919646203518,-0.11987809091806412,0.5380011796951294,-0.6451950669288635,-0.05282295495271683,0.8669447898864746,-16,-52,-995,-651,-52,867,84,66,-1,633880,633.8800048828125,0.0,1500.0
12:00:33.482,AUTO,-35.3632561,149.16524,49943,0.02992919646203518,-0.11987809091806412,0.5380011796951294,-0.6451950669288635,-0.05282295495271683,0.8669447898864746,-16,-52,-995,-651,-52,867,84,66,-1,633880,633.8800048828125,0.0,1500.0
12:00:33.696,AUTO,-35.3632561,149.16524,49943,0.02992919646203518,-0.11987809091806412,0.5380011796951294,-0.6451950669288635,-0.05282295495271683,0.8669447898864746,-16,-52,-995,-651,-52,867,84,66,-1,633880,633.8800048828125,0.0,1500.0
12:00:33.905,AUTO,-35.3632561,149.16524,49943,0.02992919646203518,-0.11987809091806412,0.5380011796951294,-0.6451950669288635,-0.05282295495271683,0.8669447898864746,-16,-52,-995,-651,-52,867,84,66,-1,633880,633.8800048828125,0.0,1500.0
12:00:34.111,AUTO,-35.3632479,149.1652464,49936,-0.003773905336856842,-0.15523585677146912,0.8351448774337769,-0.4647257328033447,-0.04407816007733345,-0.005620965734124184,-16,-52,-995,-651,-52,867,146,114,-1,633870,633.8699951171875,0.0,1500.0
12:00:34.329,AUTO,-35.3632306,149.1652616,49918,0.014624860137701035,-0.1913115382194519,0.7522101998329163,0.4096769392490387,0.009518149308860302,-0.049997903406620026,-68,-24,-1008,411,10,-48,245,179,-1,633850,633.8499755859375,0.0,1500.0
12:00:34.539,AUTO,-35.3632306,149.1652616,49918,0.014624860137701035,-0.1913115382194519,0.7522101998329163,0.4096769392490387,0.009518149308860302,-0.049997903406620026,-68,-24,-1008,411,10,-48,245,179,-1,633850,633.8499755859375,0.0,1500.0
12:00:34.742,AUTO,-35.3632306,149.1652616,49918,0.014624860137701035,-0.1913115382194519,0.7522101998329163,0.4096769392490387,0.009518149308860302,-0.049997903406620026,-68,-24,-1008,411,10,-48,245,179,-1,633850,633.8499755859375,0.0,1500.0
12:00:34.949,AUTO,-35.3632306,149.1652616,49918,0.014624860137701035,-0.1913115382194519,0.7522101998329163,0.4096769392490387,0.009518149308860302,-0.049997903406620026,-68,-24,-1008,411,10,-48,245,179,-1,633850,633.8499755859375,0.0,1500.0
12:00:35.153,AUTO,-35.3632306,149.1652616,49918,0.014624860137701035,-0.1913115382194519,0.7522101998329163,0.4096769392490387,0.009518149308860302,-0.049997903406620026,-68,-24,-1008,411,10,-48,245,179,-1,633850,633.8499755859375,0.0,1500.0
12:00:35.360,AUTO,-35.3632306,149.1652616,49918,0.014624860137701035,-0.1913115382194519,0.7522101998329163,0.4096769392490387,0.009518149308860302,-0.049997903406620026,-68,-24,-1008,411,10,-48,245,179,-1,633850,633.8499755859375,0.0,1500.0
12:00:35.575,AUTO,-35.3632306,149.1652616,49918,0.014624860137701035,-0.1913115382194519,0.7522101998329163,0.4096769392490387,0.009518149308860302,-0.049997903406620026,-68,-24,-1008,411,10,-48,245,179,-1,633850,633.8499755859375,0.0,1500.0
12:00:35.787,AUTO,-35.3631925,149.1652954,49917,0.023510020226240158,-0.1655149906873703,0.7312833070755005,0.31787240505218506,0.03781021386384964,-0.045781414955854416,-92,-40,-1006,-63,18,-35,367,248,-4,633850,633.8499755859375,0.0,1500.0
12:00:35.991,AUTO,-35.3631757,149.16531,49934,0.026760723441839218,-0.15195803344249725,0.72403484582901,-0.08227486163377762,0.02049712836742401,0.006506726611405611,-97,-61,-995,-86,21,7,394,262,-5,633870,633.8699951171875,0.0,1500.0
12:00:36.193,AUTO,-35.3631757,149.16531,49934,0.026760723441839218,-0.15195803344249725,0.72403484582901,-0.08227486163377762,0.02049712836742401,0.006506726611405611,-97,-61,-995,-86,21,7,394,262,-5,633870,633.8699951171875,0.0,1500.0
12:00:36.402,AUTO,-35.3631757,149.16531,49934,0.026760723441839218,-0.15195803344249725,0.72403484582901,-0.08227486163377762,0.02049712836742401,0.006506726611405611,-97,-61,-995,-86,21,7,394,262,-5,633870,633.8699951171875,0.0,1500.0
12:00:36.606,AUTO,-35.3631757,149.16531,49934,0.026760723441839218,-0.15195803344249725,0.72403484582901,-0.08227486163377762,0.02049712836742401,0.006506726611405611,-97,-61,-995,-86,21,7,394,262,-5,633870,633.8699951171875,0.0,1500.0
12:00:36.809,AUTO,-35.3631757,149.16531,49934,0.026760723441839218,-0.15195803344249725,0.72403484582901,-0.08227486163377762,0.02049712836742401,0.006506726611405611,-97,-61,-995,-86,21,7,394,262,-5,633870,633.8699951171875,0.0,1500.0
12:00:37.016,AUTO,-35.3631757,149.16531,49934,0.026760723441839218,-0.15195803344249725,0.72403484582901,-0.08227486163377762,0.02049712836742401,0.006506726611405611,-97,-61,-995,-86,21,7,394,262,-5,633870,633.8699951171875,0.0,1500.0
12:00:37.226,AUTO,-35.3631757,149.16531,49934,0.026760723441839218,-0.15195803344249725,0.72403484582901,-0.08227486163377762,0.02049712836742401,0.006506726611405611,-97,-61,-995,-86,21,7,394,262,-5,633870,633.8699951171875,0.0,1500.0
12:00:37.430,AUTO,-35.3631757,149.16531,49934,0.026760723441839218,-0.15195803344249725,0.72403484582901,-0.08227486163377762,0.02049712836742401,0.006506726611405611,-97,-61,-995,-86,21,7,394,262,-5,633870,633.8699951171875,0.0,1500.0
12:00:37.637,AUTO,-35.3631276,149.1653508,49971,0.0510035939514637,-0.13388791680335999,0.7061943411827087,0.25199711322784424,0.017649473622441292,0.003087288001552224,-120,-21,-990,294,0,-34,436,289,-5,633910,633.9099731445312,0.0,1500.0
12:00:37.841,AUTO,-35.363108,149.1653672,49981,0.05206833407282829,-0.12777477502822876,0.7040464878082275,-0.19883300364017487,0.056584618985652924,0.0242165494710207,-102,-66,-992,-203,57,25,446,293,-3,633920,633.9199829101562,0.0,1500.0
12:00:38.043,AUTO,-35.363108,149.1653672,49981,0.05206833407282829,-0.12777477502822876,0.7040464878082275,-0.19883300364017487,0.056584618985652924,0.0242165494710207,-102,-66,-992,-203,57,25,446,293,-3,633920,633.9199829101562,0.0,1500.0
12:00:38.245,AUTO,-35.363108,149.1653672,49981,0.05206833407282829,-0.12777477502822876,0.7040464878082275,-0.19883300364017487,0.056584618985652924,0.0242165494710207,-102,-66,-992,-203,57,25,446,293,-3,633920,633.9199829101562,0.0,1500.0
12:00:38.454,AUTO,-35.363108,149.1653672,49981,0.05206833407282829,-0.12777477502822876,0.7040464878082275,-0.19883300364017487,0.056584618985652924,0.0242165494710207,-102,-66,-992,-203,57,25,446,293,-3,633920,633.9199829101562,0.0,1500.0
12:00:38.661,AUTO,-35.363108,149.1653672,49981,0.05206833407282829,-0.12777477502822876,0.7040464878082275,-0.19883300364017487,0.056584618985652924,0.0242165494710207,-102,-66,-992,-203,57,25,446,293,-3,633920,633.9199829101562,0.0,1500.0
12:00:38.887,AUTO,-35.363108,149.1653672,49981,0.05206833407282829,-0.12777477502822876,0.7040464878082275,-0.19883300364017487,0.056584618985652924,0.0242165494710207,-102,-66,-992,-203,57,25,446,293,-3,633920,633.9199829101562,0.0,1500.0
12:00:39.094,AUTO,-35.363108,149.1653672,49981,0.05206833407282829,-0.12777477502822876,0.7040464878082275,-0.19883300364017487,0.056584618985652924,0.0242165494710207,-102,-66,-992,-203,57,25,446,293,-3,633920,633.9199829101562,0.0,1500.0
12:00:39.305,AUTO,-35.363108,149.1653672,49981,0.05206833407282829,-0.12777477502822876,0.7040464878082275,-0.19883300364017487,0.056584618985652924,0.0242165494710207,-102,-66,-992,-203,57,25,446,293,-3,633920,633.9199829101562,0.0,1500.0
12:00:39.512,AUTO,-35.3630368,149.1654278,50009,0.049777306616306305,-0.08404535055160522,0.6925501823425293,-0.13187286257743835,0.04491107165813446,0.029600119218230247,-112,-43,-1000,353,64,8,435,291,-2,633940,633.9400024414062,0.0,1500.0
12:00:39.724,AUTO,-35.3630272,149.165436,50014,0.044652897864580154,-0.07299875468015671,0.6891558170318604,-0.42761102318763733,0.05244354158639908,0.03165777400135994,-104,-79,-992,-431,53,32,430,287,-3,633950,633.9500122070312,0.0,1500.0
12:00:39.930,AUTO,-35.3630272,149.165436,50014,0.044652897864580154,-0.07299875468015671,0.6891558170318604,-0.42761102318763733,0.05244354158639908,0.03165777400135994,-104,-79,-992,-431,53,32,430,287,-3,633950,633.9500122070312,0.0,1500.0
12:00:40.132,AUTO,-35.3630272,149.165436,50014,0.044652897864580154,-0.07299875468015671,0.6891558170318604,-0.42761102318763733,0.05244354158639908,0.03165777400135994,-104,-79,-992,-431,53,32,430,287,-3,633950,633.9500122070312,0.0,1500.0
12:00:40.333,AUTO,-35.3630272,149.165436,50014,0.044652897864580154,-0.07299875468015671,0.6891558170318604,-0.42761102318763733,0.05244354158639908,0.03165777400135994,-104,-79,-992,-431,53,32,430,287,-3,633950,633.9500122070312,0.0,1500.0
12:00:40.536,AUTO,-35.3630272,149.165436,50014,0.044652897864580154,-0.07299875468015671,0.6891558170318604,-0.42761102318763733,0.05244354158639908,0.03165777400135994,-104,-79,-992,-431,53,32,430,287,-3,633950,633.9500122070312,0.0,1500.0
12:00:40.741,AUTO,-35.3630272,149.165436,50014,0.044652897864580154,-0.07299875468015671,0.6891558170318604,-0.42761102318763733,0.05244354158639908,0.03165777400135994,-104,-79,-992,-431,53,32,430,287,-3,633950,633.9500122070312,0.0,1500.0
12:00:40.950,AUTO,-35.3630272,149.165436,50014,0.044652897864580154,-0.07299875468015671,0.6891558170318604,-0.42761102318763733,0.05244354158639908,0.03165777400135994,-104,-79,-992,-431,53,32,430,287,-3,633950,633.9500122070312,0.0,1500.0
12:00:41.158,AUTO,-35.3630272,149.165436,50014,0.044652897864580154,-0.07299875468015671,0.6891558170318604,-0.42761102318763733,0.05244354158639908,0.03165777400135994,-104,-79,-992,-431,53,32,430,287,-3,633950,633.9500122070312,0.0,1500.0
12:00:41.367,AUTO,-35.3629714,149.1654838,50049,0.03826267272233963,0.01159857027232647,0.6835708022117615,-0.721862256526947,0.04273093119263649,0.05825464427471161,-78,-89,-990,-730,43,59,342,225,0,633980,633.97998046875,0.0,1500.0
12:00:41.571,AUTO,-35.3629573,149.165496,50039,0.03328875079751015,0.03328874334692955,0.6808009743690491,-0.8657253980636597,0.07121717184782028,0.027836227789521217,-68,-67,-1015,-870,72,28,299,198,2,633970,633.969970703125,0.0,1500.0
12:00:41.776,AUTO,-35.3629573,149.165496,50039,0.03328875079751015,0.03328874334692955,0.6808009743690491,-0.8657253980636597,0.07121717184782028,0.027836227789521217,-68,-67,-1015,-870,72,28,299,198,2,633970,633.969970703125,0.0,1500.0
12:00:41.986,AUTO,-35.3629573,149.165496,50039,0.03328875079751015,0.03328874334692955,0.6808009743690491,-0.8657253980636597,0.07121717184782028,0.027836227789521217,-68,-67,-1015,-870,72,28,299,198,2,633970,633.969970703125,0.0,1500.0
12:00:42.189,AUTO,-35.3629573,149.165496,50039,0.03328875079751015,0.03328874334692955,0.6808009743690491,-0.8657253980636597,0.07121717184782028,0.027836227789521217,-68,-67,-1015,-870,72,28,299,198,2,633970,633.969970703125,0.0,1500.0
12:00:42.396,AUTO,-35.3629573,149.165496,50039,0.03328875079751015,0.03328874334692955,0.6808009743690491,-0.8657253980636597,0.07121717184782028,0.027836227789521217,-68,-67,-1015,-870,72,28,299,198,2,633970,633.969970703125,0.0,1500.0
12:00:42.599,AUTO,-35.3629573,149.165496,50039,0.03328875079751015,0.03328874334692955,0.6808009743690491,-0.8657253980636597,0.07121717184782028,0.027836227789521217,-68,-67,-1015,-870,72,28,299,198,2,633970,633.969970703125,0.0,1500.0
12:00:42.812,AUTO,-35.3629573,149.165496,50039,0.03328875079751015,0.03328874334692955,0.6808009743690491,-0.8657253980636597,0.07121717184782028,0.027836227789521217,-68,-67,-1015,-870,72,28,299,198,2,633970,633.969970703125,0.0,1500.0
12:00:43.018,AUTO,-35.3629573,149.165496,50039,0.03328875079751015,0.03328874334692955,0.6808009743690491,-0.8657253980636597,0.07121717184782028,0.027836227789521217,-68,-67,-1015,-870,72,28,299,198,2,633970,633.969970703125,0.0,1500.0
12:00:43.224,AUTO,-35.3629232,149.1655245,50002,0.03919735550880432,0.07193049788475037,0.6750872135162354,0.04429898411035538,-0.0310322605073452,0.016252052038908005,-31,-31,-997,31,-30,17,117,77,1,633940,633.9400024414062,0.0,1500.0
12:00:43.430,AUTO,-35.3629187,149.1655279,49996,0.01823589764535427,0.05460372194647789,0.6735527515411377,-0.7738837003707886,-0.02480008453130722,0.002285289578139782,-21,-47,-996,-777,-23,3,80,54,1,633930,633.9299926757812,0.0,1500.0
12:00:43.633,AUTO,-35.3629187,149.1655279,49996,0.01823589764535427,0.05460372194647789,0.6735527515411377,-0.7738837003707886,-0.02480008453130722,0.002285289578139782,-21,-47,-996,-777,-23,3,80,54,1,633930,633.9299926757812,0.0,1500.0
12:00:43.837,AUTO,-35.3629187,149.1655279,49996,0.01823589764535427,0.05460372194647789,0.6735527515411377,-0.7738837003707886,-0.02480008453130722,0.002285289578139782,-21,-47,-996,-777,-23,3,80,54,1,633930,633.9299926757812,0.0,1500.0
12:00:44.046,AUTO,-35.3629187,149.1655279,49996,0.01823589764535427,0.05460372194647789,0.6735527515411377,-0.7738837003707886,-0.02480008453130722,0.002285289578139782,-21,-47,-996,-777,-23,3,80,54,1,633930,633.9299926757812,0.0,1500.0
12:00:44.258,AUTO,-35.3629187,149.1655279,49996,0.01823589764535427,0.05460372194647789,0.6735527515411377,-0.7738837003707886,-0.02480008453130722,0.002285289578139782,-21,-47,-996,-777,-23,3,80,54,1,633930,633.9299926757812,0.0,1500.0
12:00:44.464,AUTO,-35.3629187,149.1655279,49996,0.01823589764535427,0.05460372194647789,0.6735527515411377,-0.7738837003707886,-0.02480008453130722,0.002285289578139782,-21,-47,-996,-777,-23,3,80,54,1,633930,633.9299926757812,0.0,1500.0
12:00:44.668,AUTO,-35.3629187,149.1655279,49996,0.01823589764535427,0.05460372194647789,0.6735527515411377,-0.7738837003707886,-0.02480008453130722,0.002285289578139782,-21,-47,-996,-777,-23,3,80,54,1,633930,633.9299926757812,0.0,1500.0
12:00:44.877,AUTO,-35.3629187,149.1655279,49996,0.01823589764535427,0.05460372194647789,0.6735527515411377,-0.7738837003707886,-0.02480008453130722,0.002285289578139782,-21,-47,-996,-777,-23,3,80,54,1,633930,633.9299926757812,0.0,1500.0
12:00:45.080,AUTO,-35.3629136,149.1655314,49987,0.028957655653357506,0.03873725235462189,0.6682789921760559,0.5150884985923767,-0.01734708622097969,-0.004391584079712629,-10,6,-1000,509,-16,-3,30,26,0,633920,633.9199829101562,0.0,1500.0
