time_stamp,MODE,lat,lon,relative_alt,roll,pitch,yaw,rollspeed,pitchspeed,yawspeed,xacc,yacc,zacc,xgyro,ygyro,zgyro,vx,vy,vz,RTL_ALT
08:55:37.976,STABILIZE,-35.3632621,149.1652374,0,0.0004136963398195803,0.0015326571883633733,0.027525806799530983,0.0003220894723199308,0.0002627913490869105,0.002309225033968687,0,1,-1000,0,0,0,-1,1,0,1500.0
08:55:38.177,STABILIZE,-35.3632621,149.1652374,0,0.0004136963398195803,0.0015326571883633733,0.027525806799530983,0.0003220894723199308,0.0002627913490869105,0.002309225033968687,0,1,-1000,0,0,0,-1,1,0,1500.0
08:55:38.377,STABILIZE,-35.3632621,149.1652374,0,0.0004136963398195803,0.0015326571883633733,0.027525806799530983,0.0003220894723199308,0.0002627913490869105,0.002309225033968687,0,1,-1000,0,0,0,-1,1,0,1500.0
08:55:38.578,STABILIZE,-35.3632621,149.1652374,0,0.00042169299558736384,0.001586794969625771,0.027147971093654633,0.0001382557675242424,0.0001505657855886966,0.002313235541805625,0,1,-1000,0,0,0,-1,1,0,1500.0
08:55:38.779,STABILIZE,-35.3632621,149.1652374,0,0.00042169299558736384,0.001586794969625771,0.027147971093654633,0.0001382557675242424,0.0001505657855886966,0.002313235541805625,0,1,-1000,0,0,0,-1,1,0,1500.0
08:55:38.980,STABILIZE,-35.3632621,149.1652374,0,0.00042169299558736384,0.001586794969625771,0.027147971093654633,0.0001382557675242424,0.0001505657855886966,0.002313235541805625,0,1,-1000,0,0,0,-1,1,0,1500.0
08:55:39.181,STABILIZE,-35.3632621,149.1652375,0,0.00042169299558736384,0.001586794969625771,0.027147971093654633,0.0001382557675242424,0.0001505657855886966,0.002313235541805625,0,-22,-1037,0,0,1,-1,0,-2,1500.0
08:55:39.382,STABILIZE,-35.3632621,149.1652375,0,0.00042169299558736384,0.001586794969625771,0.027147971093654633,0.0001382557675242424,0.0001505657855886966,0.002313235541805625,0,-22,-1037,0,0,1,-1,0,-2,1500.0
08:55:39.583,STABILIZE,-35.3632621,149.1652375,0,0.00042169299558736384,0.001586794969625771,0.027147971093654633,0.0001382557675242424,0.0001505657855886966,0.002313235541805625,0,-22,-1037,0,0,1,-1,0,-2,1500.0
08:55:39.785,STABILIZE,-35.3632621,149.1652375,0,0.00042169299558736384,0.001586794969625771,0.027147971093654633,0.0001382557675242424,0.0001505657855886966,0.002313235541805625,0,-22,-1037,0,0,1,-1,0,-2,1500.0
08:55:39.986,STABILIZE,-35.3632622,149.1652374,0,0.0002713060239329934,0.0014881069073453546,0.02615130878984928,0.0003750111791305244,0.0003116505977232009,0.0021225465461611748,0,1,-1000,0,0,0,-2,0,-2,1500.0
08:55:40.187,STABILIZE,-35.3632622,149.1652374,0,0.0002713060239329934,0.0014881069073453546,0.02615130878984928,0.0003750111791305244,0.0003116505977232009,0.0021225465461611748,0,1,-1000,0,0,0,-2,0,-2,1500.0
08:55:40.389,STABILIZE,-35.3632622,149.1652374,0,0.00025413004914298654,0.0014028347795829177,0.025861522182822227,0.00013934585149399936,0.00027954732649959624,0.002166402991861105,0,1,-1000,0,0,0,-2,1,-1,1500.0
08:55:40.590,STABILIZE,-35.3632622,149.1652374,0,0.00025413004914298654,0.0014028347795829177,0.025861522182822227,0.00013934585149399936,0.00027954732649959624,0.002166402991861105,0,1,-1000,0,0,0,-2,1,-1,1500.0
08:55:40.791,STABILIZE,-35.3632622,149.1652374,0,0.00025413004914298654,0.0014028347795829177,0.025861522182822227,0.00013934585149399936,0.00027954732649959624,0.002166402991861105,0,1,-1000,0,0,0,-2,1,-1,1500.0
08:55:40.993,STABILIZE,-35.3632622,149.1652374,0,0.00025413004914298654,0.0014028347795829177,0.025861522182822227,0.00013934585149399936,0.00027954732649959624,0.002166402991861105,0,1,-1000,0,0,0,-2,1,-1,1500.0
08:55:41.194,STABILIZE,-35.3632622,149.1652375,0,0.00013854137796442956,0.0012417261023074389,0.025415506213903427,0.0002976854157168418,0.00037760913255624473,0.002180457580834627,0,1,-1000,0,0,0,-1,1,0,1500.0
08:55:41.395,STABILIZE,-35.3632622,149.1652375,0,8.286690717795864e-05,0.001199479796923697,0.025262514129281044,0.00021395544172264636,0.0002958329569082707,0.0019977116025984287,0,1,-1000,0,0,0,-1,1,0,1500.0
08:55:41.597,STABILIZE,-35.3632622,149.1652375,0,8.286690717795864e-05,0.001199479796923697,0.025262514129281044,0.00021395544172264636,0.0002958329569082707,0.0019977116025984287,0,1,-1000,0,0,0,-1,1,0,1500.0
08:55:41.800,STABILIZE,-35.3632622,149.1652375,0,8.286690717795864e-05,0.001199479796923697,0.025262514129281044,0.00021395544172264636,0.0002958329569082707,0.0019977116025984287,0,1,-1000,0,0,0,-1,1,0,1500.0
08:55:42.001,STABILIZE,-35.3632622,149.1652375,0,-4.3069638195447624e-05,0.0011109892511740327,0.025003664195537567,0.00025264782016165555,0.000256784085649997,0.002112235641106963,0,1,-1000,0,0,0,-1,2,0,1500.0
08:55:42.202,STABILIZE,-35.3632622,149.1652375,0,-4.3069638195447624e-05,0.0011109892511740327,0.025003664195537567,0.00025264782016165555,0.000256784085649997,0.002112235641106963,0,1,-1000,1,0,0,-1,2,0,1500.0
08:55:42.404,STABILIZE,-35.3632622,149.1652375,0,-4.3069638195447624e-05,0.0011109892511740327,0.025003664195537567,0.00025264782016165555,0.000256784085649997,0.002112235641106963,0,1,-1000,0,0,0,-1,2,0,1500.0
08:55:42.605,STABILIZE,-35.3632622,149.1652375,0,-4.3069638195447624e-05,0.0011109892511740327,0.025003664195537567,0.00025264782016165555,0.000256784085649997,0.002112235641106963,0,1,-1000,0,0,0,-1,2,0,1500.0
08:55:42.807,STABILIZE,-35.3632622,149.1652375,0,-4.3069638195447624e-05,0.0011109892511740327,0.025003664195537567,0.00025264782016165555,0.000256784085649997,0.002112235641106963,0,1,-1000,0,0,0,-1,2,0,1500.0
08:55:43.008,STABILIZE,-35.3632622,149.1652375,0,-4.3069638195447624e-05,0.0011109892511740327,0.025003664195537567,0.00025264782016165555,0.000256784085649997,0.002112235641106963,0,1,-1000,0,0,0,-1,2,0,1500.0
08:55:43.209,STABILIZE,-35.3632621,149.1652374,0,-0.00024984811898320913,0.000992676941677928,0.024411717429757118,0.0001552170724608004,0.0003128263633698225,0.002023028675466776,0,1,-1000,0,0,0,-1,0,-2,1500.0
08:55:43.411,STABILIZE,-35.3632621,149.1652374,0,-0.00024984811898320913,0.000992676941677928,0.024411717429757118,0.0001552170724608004,0.0003128263633698225,0.002023028675466776,0,1,-1000,0,0,0,-1,0,-2,1500.0
08:55:43.613,STABILIZE,-35.3632621,149.1652374,0,-0.00024984811898320913,0.000992676941677928,0.024411717429757118,0.0001552170724608004,0.0003128263633698225,0.002023028675466776,0,1,-1000,0,0,0,-1,0,-2,1500.0
08:55:43.814,STABILIZE,-35.3632621,149.1652374,0,-0.00024984811898320913,0.000992676941677928,0.024411717429757118,0.0001552170724608004,0.0003128263633698225,0.002023028675466776,0,1,-1000,0,0,0,-1,0,-2,1500.0
08:55:44.015,STABILIZE,-35.3632621,149.1652374,0,-0.00024984811898320913,0.000992676941677928,0.024411717429757118,0.0001552170724608004,0.0003128263633698225,0.002023028675466776,0,1,-1000,0,0,0,-1,0,-2,1500.0
08:55:44.217,STABILIZE,-35.3632621,149.1652374,0,-0.00018429639749228954,0.0009497308055870235,0.02399170584976673,0.000281270535197109,0.00026364834047853947,0.0019759112037718296,0,1,-1000,0,0,0,-1,1,-1,1500.0
08:55:44.418,STABILIZE,-35.3632621,149.1652374,0,-0.00018429639749228954,0.0009497308055870235,0.02399170584976673,0.000281270535197109,0.00026364834047853947,0.0019759112037718296,0,1,-1000,0,0,0,-1,1,-1,1500.0
08:55:44.619,STABILIZE,-35.3632621,149.1652374,0,-0.00018429639749228954,0.0009497308055870235,0.02399170584976673,0.000281270535197109,0.00026364834047853947,0.0019759112037718296,0,1,-1000,0,0,0,-1,1,-1,1500.0
08:55:44.821,STABILIZE,-35.3632621,149.1652374,0,-0.00018429639749228954,0.0009497308055870235,0.02399170584976673,0.000281270535197109,0.00026364834047853947,0.0019759112037718296,0,1,-1000,0,0,0,-1,1,-1,1500.0
08:55:45.022,STABILIZE,-35.3632621,149.1652374,0,-0.00018429639749228954,0.0009497308055870235,0.02399170584976673,0.000281270535197109,0.00026364834047853947,0.0019759112037718296,0,1,-1000,0,0,0,-1,1,-1,1500.0
08:55:45.223,STABILIZE,-35.3632621,149.1652374,0,-0.00018429639749228954,0.0009497308055870235,0.02399170584976673,0.000281270535197109,0.00026364834047853947,0.0019759112037718296,0,1,-1000,0,0,0,-1,1,-1,1500.0
08:55:45.425,STABILIZE,-35.3632621,149.1652374,0,-0.00018429639749228954,0.0009497308055870235,0.02399170584976673,0.000281270535197109,0.00026364834047853947,0.0019759112037718296,0,1,-1000,0,0,0,-1,1,-1,1500.0
08:55:45.626,STABILIZE,-35.3632621,149.1652374,0,-0.00018429639749228954,0.0009497308055870235,0.02399170584976673,0.000281270535197109,0.00026364834047853947,0.0019759112037718296,0,1,-1000,0,0,0,-1,1,-1,1500.0
08:55:45.827,STABILIZE,-35.3632621,149.1652374,0,-0.00018429639749228954,0.0009497308055870235,0.02399170584976673,0.000281270535197109,0.00026364834047853947,0.0019759112037718296,0,1,-1000,0,0,0,-1,1,-1,1500.0
08:55:46.029,STABILIZE,-35.3632621,149.1652374,0,-0.00018429639749228954,0.0009497308055870235,0.02399170584976673,0.000281270535197109,0.00026364834047853947,0.0019759112037718296,0,1,-1000,0,0,0,-1,1,-1,1500.0
08:55:46.230,STABILIZE,-35.3632621,149.1652375,0,0.0004685239400714636,0.0009276889031752944,0.023174408823251724,-0.0008638993022032082,0.00023970811162143946,0.0017432007007300854,0,1,-1000,0,0,0,-1,6,7,1500.0
08:55:46.432,STABILIZE,-35.3632622,149.1652377,0,0.0004469880077522248,0.0009341898839920759,0.02306123450398445,0.00032537110382691026,0.00022567325504496694,0.001791768940165639,0,1,-1000,0,0,0,-1,7,7,1500.0
08:55:46.633,STABILIZE,-35.3632622,149.1652377,0,0.0004469880077522248,0.0009341898839920759,0.02306123450398445,0.00032537110382691026,0.00022567325504496694,0.001791768940165639,0,1,-1000,0,0,0,-1,7,7,1500.0
08:55:46.834,STABILIZE,-35.3632622,149.1652377,0,0.0004469880077522248,0.0009341898839920759,0.02306123450398445,0.00032537110382691026,0.00022567325504496694,0.001791768940165639,0,1,-1000,0,0,0,-1,7,7,1500.0
08:55:47.036,STABILIZE,-35.3632622,149.1652377,0,0.0004469880077522248,0.0009341898839920759,0.02306123450398445,0.00032537110382691026,0.00022567325504496694,0.001791768940165639,0,1,-1000,0,0,0,-1,7,7,1500.0
08:55:47.237,STABILIZE,-35.3632622,149.1652377,0,0.0004469880077522248,0.0009341898839920759,0.02306123450398445,0.00032537110382691026,0.00022567325504496694,0.001791768940165639,0,1,-1000,0,0,0,-1,7,7,1500.0
08:55:47.439,STABILIZE,-35.3632622,149.1652377,0,0.0004469880077522248,0.0009341898839920759,0.02306123450398445,0.00032537110382691026,0.00022567325504496694,0.001791768940165639,0,1,-1000,0,0,0,-1,7,7,1500.0
08:55:47.641,STABILIZE,-35.3632622,149.1652378,0,-0.00047064461978152394,0.0009366866433992982,0.02245987020432949,0.00027074513491243124,0.0002509756595827639,0.0016230980399996042,0,1,-1000,1,0,0,-1,4,6,1500.0
08:55:47.843,STABILIZE,-35.3632622,149.1652378,0,-0.00047064461978152394,0.0009366866433992982,0.02245987020432949,0.00027074513491243124,0.0002509756595827639,0.0016230980399996042,0,1,-1000,1,0,0,-1,4,6,1500.0
08:55:48.044,STABILIZE,-35.3632622,149.1652378,0,-0.0006346713053062558,0.0009353336645290256,0.022377487272024155,0.00023949769092723727,0.00023498450173065066,0.0017128345789387822,0,2,-1000,0,0,0,-1,4,6,1500.0
08:55:48.245,STABILIZE,-35.3632622,149.1652378,0,-0.0006346713053062558,0.0009353336645290256,0.022377487272024155,0.00023949769092723727,0.00023498450173065066,0.0017128345789387822,0,2,-1000,0,0,0,-1,4,6,1500.0
08:55:48.447,STABILIZE,-35.3632622,149.1652377,0,-0.0009078475995920599,0.0009563716012053192,0.022208312526345253,0.00022930966224521399,0.00025018880842253566,0.001714387210085988,0,2,-1000,0,0,0,-1,3,5,1500.0
08:55:48.648,STABILIZE,-35.3632622,149.1652377,0,-0.0009078475995920599,0.0009563716012053192,0.022208312526345253,0.00022930966224521399,0.00025018880842253566,0.001714387210085988,0,2,-1000,0,0,0,-1,3,5,1500.0
08:55:48.851,STABILIZE,-35.3632622,149.1652377,0,-0.0009078475995920599,0.0009563716012053192,0.022208312526345253,0.00022930966224521399,0.00025018880842253566,0.001714387210085988,0,2,-1000,0,0,0,-1,3,5,1500.0
08:55:49.060,STABILIZE,-35.3632622,149.1652377,0,-0.0009078475995920599,0.0009563716012053192,0.022208312526345253,0.00022930966224521399,0.00025018880842253566,0.001714387210085988,0,2,-1000,0,0,0,-1,3,5,1500.0
08:55:49.261,STABILIZE,-35.3632622,149.1652376,0,-0.0012353927595540881,0.0009640962234698236,0.022045105695724487,7.157673826441169e-05,0.00032712792744860053,0.0017278314335271716,0,1,-1000,0,0,0,-1,2,4,1500.0
08:55:49.462,STABILIZE,-35.3632622,149.1652376,0,-0.001312538399361074,0.000970684050116688,0.022004401311278343,0.00016573222819715738,0.00019231776241213083,0.0016116902697831392,0,2,-1000,0,0,0,-1,1,4,1500.0
08:55:49.664,STABILIZE,-35.3632622,149.1652376,0,-0.001312538399361074,0.000970684050116688,0.022004401311278343,0.00016573222819715738,0.00019231776241213083,0.0016116902697831392,0,2,-1000,0,0,0,-1,1,4,1500.0
08:55:49.866,STABILIZE,-35.3632622,149.1652376,0,-0.001312538399361074,0.000970684050116688,0.022004401311278343,0.00016573222819715738,0.00019231776241213083,0.0016116902697831392,0,2,-1000,0,0,0,-1,1,4,1500.0
08:55:50.067,STABILIZE,-35.3632622,149.1652376,0,-0.001312538399361074,0.000970684050116688,0.022004401311278343,0.00016573222819715738,0.00019231776241213083,0.0016116902697831392,0,2,-1000,0,0,0,-1,1,4,1500.0
08:55:50.270,STABILIZE,-35.3632622,149.1652376,0,-0.0011912626214325428,0.000971160305198282,0.021869635209441185,0.0002465483848936856,0.00023294304264709353,0.0015810881741344929,0,2,-1000,0,0,0,-1,2,4,1500.0
08:55:50.471,STABILIZE,-35.3632622,149.1652376,0,-0.0012602743227034807,0.0009755872888490558,0.021829599514603615,0.00016905047232285142,0.0003411401412449777,0.001541105448268354,0,2,-1000,1,0,1,-1,1,4,1500.0
08:55:50.673,STABILIZE,-35.3632622,149.1652376,0,-0.0012602743227034807,0.0009755872888490558,0.021829599514603615,0.00016905047232285142,0.0003411401412449777,0.001541105448268354,0,2,-1000,1,0,1,-1,1,4,1500.0
08:55:50.874,STABILIZE,-35.3632622,149.1652376,0,-0.0012602743227034807,0.0009755872888490558,0.021829599514603615,0.00016905047232285142,0.0003411401412449777,0.001541105448268354,0,2,-1000,1,0,1,-1,1,4,1500.0
08:55:51.075,STABILIZE,-35.3632622,149.1652376,0,-0.0012602743227034807,0.0009755872888490558,0.021829599514603615,0.00016905047232285142,0.0003411401412449777,0.001541105448268354,0,2,-1000,1,0,1,-1,1,4,1500.0
08:55:51.276,STABILIZE,-35.3632622,149.1652376,0,-0.0012602743227034807,0.0009755872888490558,0.021829599514603615,0.00016905047232285142,0.0003411401412449777,0.001541105448268354,0,2,-1000,1,0,1,-1,1,4,1500.0
08:55:51.478,STABILIZE,-35.3632622,149.1652376,0,-0.0012602743227034807,0.0009755872888490558,0.021829599514603615,0.00016905047232285142,0.0003411401412449777,0.001541105448268354,0,2,-1000,1,0,1,-1,1,4,1500.0
08:55:51.679,STABILIZE,-35.3632622,149.1652376,0,-0.0014640623703598976,0.0009752536425366998,0.021673763170838356,0.0002240366884507239,0.00030148803489282727,0.0015555244171991944,0,2,-1000,1,0,1,-1,1,4,1500.0
08:55:51.880,STABILIZE,-35.3632622,149.1652376,0,-0.0014640623703598976,0.0009752536425366998,0.021673763170838356,0.0002240366884507239,0.00030148803489282727,0.0015555244171991944,0,2,-1000,1,0,1,-1,1,4,1500.0
08:55:52.082,STABILIZE,-35.3632622,149.1652376,0,-0.001485633198171854,0.0009761967230588198,0.021654758602380753,0.00019989284919574857,0.00021454918896779418,0.0014898600056767464,0,1,-1000,1,0,0,-1,0,2,1500.0
08:55:52.283,STABILIZE,-35.3632622,149.1652376,0,-0.001504799583926797,0.0009737159125506878,0.021634677425026894,0.00027439137920737267,0.0003375790547579527,0.0015329024754464626,0,1,-1000,0,1,0,-1,0,2,1500.0
08:55:52.485,STABILIZE,-35.3632622,149.1652375,0,-0.001505737192928791,0.0009799848776310682,0.02160610817372799,0.00012891617370769382,0.0003181649371981621,0.0014548206236213446,0,1,-1000,0,0,0,-1,0,2,1500.0
08:55:52.686,AUTO,-35.3632622,149.1652375,0,-0.001505737192928791,0.0009799848776310682,0.02160610817372799,0.00012891617370769382,0.0003181649371981621,0.0014548206236213446,0,1,-1000,0,0,0,-1,0,2,1500.0
08:55:52.888,AUTO,-35.3632622,149.1652375,0,-0.001505737192928791,0.0009799848776310682,0.02160610817372799,0.00012891617370769382,0.0003181649371981621,0.0014548206236213446,0,1,-1000,0,0,0,-1,0,2,1500.0
08:55:53.090,AUTO,-35.3632622,149.1652375,0,-0.001505737192928791,0.0009799848776310682,0.02160610817372799,0.00012891617370769382,0.0003181649371981621,0.0014548206236213446,0,1,-1000,0,0,0,-1,0,2,1500.0
08:55:53.291,AUTO,-35.3632622,149.1652375,6,-0.0015074644470587373,0.000997580005787313,0.021528340876102448,0.0001425484661012888,0.00034618732752278447,0.001471624244004488,0,1,-1000,0,0,0,-1,0,1,144335.0
08:55:53.492,AUTO,-35.3632622,149.1652375,5,-0.0015001256251707673,0.0010117373894900084,0.02150803804397583,0.0001471347059123218,0.00025284691946581006,0.001517030643299222,0,1,-1000,0,1,0,-1,0,1,144335.0
08:55:53.694,AUTO,-35.3632621,149.1652375,5,-0.0014903658302500844,0.001030685962177813,0.02148827351629734,0.0002563372254371643,0.0002386813866905868,0.0016304783057421446,0,2,-1000,1,1,0,0,0,1,144335.0
08:55:53.896,AUTO,-35.3632621,149.1652375,5,-0.0014609452337026596,0.0010640532709658146,0.021457700058817863,0.0003551676054485142,0.0002576787956058979,0.0014635887928307056,0,1,-1000,0,1,1,0,0,1,144335.0
08:55:54.098,AUTO,-35.3632621,149.1652375,5,-0.0014609452337026596,0.0010640532709658146,0.021457700058817863,0.0003551676054485142,0.0002576787956058979,0.0014635887928307056,0,1,-1000,0,1,1,0,0,1,144335.0
08:55:54.300,AUTO,-35.3632621,149.1652375,5,-0.0014338823966681957,0.0011057112133130431,0.021432718262076378,0.0002539367997087538,0.00016869144747033715,0.0014507565647363663,0,1,-1000,0,0,0,0,0,0,144335.0
08:55:54.501,AUTO,-35.3632621,149.1652375,6,-0.0013956765178591013,0.0011655925773084164,0.021423105150461197,0.000294885307084769,0.0003387606702744961,0.0015194052830338478,0,2,-1000,1,0,0,0,0,0,144335.0
08:55:54.704,AUTO,-35.3632621,149.1652375,6,-0.0013956765178591013,0.0011655925773084164,0.021423105150461197,0.000294885307084769,0.0003387606702744961,0.0015194052830338478,0,2,-1000,1,0,0,0,0,0,144335.0
08:55:54.905,AUTO,-35.3632621,149.1652375,6,-0.0013956765178591013,0.0011655925773084164,0.021423105150461197,0.000294885307084769,0.0003387606702744961,0.0015194052830338478,0,2,-1000,1,0,0,0,0,0,144335.0
08:55:55.107,AUTO,-35.3632621,149.1652375,6,-0.0013956765178591013,0.0011655925773084164,0.021423105150461197,0.000294885307084769,0.0003387606702744961,0.0015194052830338478,0,2,-1000,1,0,0,0,0,0,144335.0
08:55:55.310,AUTO,-35.3632621,149.1652375,8,-0.0012700308579951525,0.0013715614331886172,0.0213191919028759,0.000214364321436733,0.0003704354749061167,0.0014058486558496952,0,2,-1000,1,1,1,0,0,0,144335.0
08:55:55.512,AUTO,-35.3632621,149.1652375,9,-0.001219108933582902,0.0014432896859943867,0.021283628419041634,0.00018692429875954986,0.0003288942389190197,0.001467007678002119,0,2,-1000,1,1,0,0,0,0,144335.0
08:55:55.714,AUTO,-35.3632621,149.1652375,10,-0.001167353126220405,0.0015182201750576496,0.021238699555397034,0.00033032812643796206,0.00027933274395763874,0.0014799764612689614,0,1,-1000,0,0,0,0,0,0,144335.0
08:55:55.915,AUTO,-35.3632621,149.1652375,11,-0.0011154793901368976,0.0015890507493168116,0.021189488470554352,0.00031971262069419026,0.0002936020027846098,0.0014727555681020021,0,2,-1000,0,0,0,0,0,0,144335.0
08:55:56.117,AUTO,-35.3632621,149.1652375,11,-0.0011154793901368976,0.0015890507493168116,0.021189488470554352,0.00031971262069419026,0.0002936020027846098,0.0014727555681020021,0,2,-1000,0,0,0,0,0,0,144335.0
08:55:56.319,AUTO,-35.3632621,149.1652375,12,-0.001060513430275023,0.001658833003602922,0.021144332364201546,0.0003349167527630925,0.0002646097564138472,0.0014716996811330318,0,1,-1000,0,1,0,0,0,0,144335.0
08:55:56.521,AUTO,-35.3632621,149.1652375,13,-0.0010061264038085938,0.0017318440368399024,0.021097321063280106,0.00034165423130616546,0.0003137317835353315,0.0014666166389361024,0,2,-1000,0,1,0,0,0,0,144335.0
08:55:56.723,AUTO,-35.3632621,149.1652375,13,-0.0010061264038085938,0.0017318440368399024,0.021097321063280106,0.00034165423130616546,0.0003137317835353315,0.0014666166389361024,0,2,-1000,0,1,0,0,0,0,144335.0
08:55:56.925,AUTO,-35.3632621,149.1652375,13,-0.0010061264038085938,0.0017318440368399024,0.021097321063280106,0.00034165423130616546,0.0003137317835353315,0.0014666166389361024,0,2,-1000,0,1,0,0,0,0,144335.0
08:55:57.126,AUTO,-35.3632621,149.1652375,13,-0.0010061264038085938,0.0017318440368399024,0.021097321063280106,0.00034165423130616546,0.0003137317835353315,0.0014666166389361024,0,2,-1000,0,1,0,0,0,0,144335.0
08:55:57.329,AUTO,-35.3632621,149.1652375,202,0.0026411795988678932,0.00012603400682564825,0.021064167842268944,0.004820455797016621,0.004033571109175682,0.001398154883645475,0,0,-1130,5,4,0,0,0,-70,300000.0
08:55:57.531,AUTO,-35.3632621,149.1652375,418,0.001200186787173152,0.0011614402756094933,0.02092057466506958,-0.011806498281657696,0.0044688209891319275,0.004197206348180771,0,0,-1109,-11,5,3,0,1,-99,300000.0
08:55:57.732,AUTO,-35.3632621,149.1652375,699,0.0005587548366747797,0.0017287435475736856,0.020888539031147957,-0.002268581185489893,0.0023032641038298607,0.0007747261552140117,0,0,-1088,-1,2,0,0,1,-123,300000.0
08:55:57.934,AUTO,-35.3632621,149.1652375,1036,0.008394346572458744,0.001101177535019815,0.020649664103984833,0.04651550203561783,-0.005526648834347725,0.0013152780011296272,0,0,-1044,47,-4,0,0,1,-138,300000.0
08:55:58.138,AUTO,-35.363262,149.1652375,1403,0.02022339217364788,-0.0005674669519066811,0.020638344809412956,0.04666619747877121,-0.006829963997006416,0.002064022934064269,0,0,-1019,47,-6,1,0,4,-145,300000.0
08:55:58.339,AUTO,-35.363262,149.1652375,1403,0.02022339217364788,-0.0005674669519066811,0.020638344809412956,0.04666619747877121,-0.006829963997006416,0.002064022934064269,0,0,-1019,47,-6,1,0,4,-145,300000.0
08:55:58.542,AUTO,-35.363262,149.1652377,1785,0.031717441976070404,-0.0025086975656449795,0.020780032500624657,0.04549041762948036,-0.008076881989836693,0.0028570564463734627,0,-1,-1008,46,-7,2,1,10,-148,300000.0
08:55:58.752,AUTO,-35.363262,149.1652377,1785,0.031717441976070404,-0.0025086975656449795,0.020780032500624657,0.04549041762948036,-0.008076881989836693,0.0028570564463734627,0,-1,-1008,46,-7,2,1,10,-148,300000.0
08:55:58.957,AUTO,-35.363262,149.1652377,1785,0.031717441976070404,-0.0025086975656449795,0.020780032500624657,0.04549041762948036,-0.008076881989836693,0.0028570564463734627,0,-1,-1008,46,-7,2,1,10,-148,300000.0
08:55:59.158,AUTO,-35.3632616,149.1652396,2947,0.06156843155622482,-0.009833903051912785,-0.005142691545188427,0.014912726357579231,9.618955664336681e-05,-0.02864616923034191,1,-8,-995,15,0,-29,8,41,-149,300000.0
08:55:59.360,AUTO,-35.3632616,149.1652396,2947,0.06156843155622482,-0.009833903051912785,-0.005142691545188427,0.014912726357579231,9.618955664336681e-05,-0.02864616923034191,1,-8,-995,15,0,-29,8,41,-149,300000.0
08:55:59.561,AUTO,-35.3632614,149.1652409,3329,0.04473621025681496,0.009647556580603123,-0.02590850181877613,-0.12176209688186646,0.1073102205991745,-0.10698258131742477,3,-11,-990,-121,108,-107,9,52,-146,300000.0
08:55:59.764,AUTO,-35.3632612,149.1652424,3706,0.0016712292563170195,0.023938052356243134,-0.047100722789764404,-0.18570564687252045,0.010634810663759708,-0.08262195438146591,8,-16,-997,-185,11,-83,7,54,-145,300000.0
08:55:59.966,AUTO,-35.363261,149.1652437,4084,-0.027526387944817543,0.03330685570836067,-0.07490254938602448,-0.06174098327755928,0.05432539060711861,-0.12560173869132996,4,-10,-1012,-60,54,-126,2,47,-147,300000.0
08:56:00.168,AUTO,-35.363261,149.1652449,4476,-0.03694740682840347,0.04281259700655937,-0.10416841506958008,-0.014104954898357391,0.019417447969317436,-0.10118022561073303,5,-9,-1007,-13,20,-101,-6,37,-150,300000.0
08:56:00.370,AUTO,-35.363261,149.1652449,4476,-0.03694740682840347,0.04281259700655937,-0.10416841506958008,-0.014104954898357391,0.019417447969317436,-0.10118022561073303,5,-9,-1007,-13,20,-101,-6,37,-150,300000.0
08:56:00.572,AUTO,-35.3632611,149.1652458,4861,-0.041609954088926315,0.03685745596885681,-0.11972273141145706,-0.029150208458304405,-0.06726755201816559,-0.02063579671084881,5,-6,-1000,-28,-66,-21,-15,26,-150,300000.0
08:56:00.774,AUTO,-35.3632611,149.1652458,4861,-0.041609954088926315,0.03685745596885681,-0.11972273141145706,-0.029150208458304405,-0.06726755201816559,-0.02063579671084881,5,-6,-1000,-28,-66,-21,-15,26,-150,300000.0
08:56:00.977,AUTO,-35.3632611,149.1652458,4861,-0.041609954088926315,0.03685745596885681,-0.11972273141145706,-0.029150208458304405,-0.06726755201816559,-0.02063579671084881,5,-6,-1000,-28,-66,-21,-15,26,-150,300000.0
08:56:01.179,AUTO,-35.3632623,149.1652463,6010,-0.06485603749752045,-0.038560789078474045,-0.07194995135068893,0.027350684627890587,-0.035872943699359894,0.04720405489206314,1,4,-1003,27,-35,46,-11,-17,-150,300000.0
08:56:01.381,AUTO,-35.3632623,149.1652463,6010,-0.06485603749752045,-0.038560789078474045,-0.07194995135068893,0.027350684627890587,-0.035872943699359894,0.04720405489206314,1,4,-1003,27,-35,46,-11,-17,-150,300000.0
08:56:01.583,AUTO,-35.3632624,149.1652457,6396,-0.05744430422782898,-0.0383678562939167,-0.06525269895792007,0.03413251414895058,0.014130924828350544,0.018651140853762627,-1,5,-1000,34,14,18,-2,-32,-150,300000.0
08:56:01.785,AUTO,-35.3632624,149.1652446,6781,-0.047576434910297394,-0.03362974524497986,-0.06326822936534882,0.04723622277379036,0.01822478696703911,0.010443477891385555,-4,8,-1000,47,18,10,5,-44,-150,300000.0
08:56:01.987,AUTO,-35.3632623,149.1652432,7165,-0.03500217944383621,-0.028660492971539497,-0.0632416158914566,0.05582120642066002,0.01915719360113144,0.005029032472521067,-7,7,-1001,56,19,4,10,-53,-150,300000.0
08:56:02.189,AUTO,-35.3632621,149.1652417,7550,-0.021261516958475113,-0.022875603288412094,-0.0642770454287529,0.05287032574415207,0.027168160304427147,-0.0019291723147034645,-9,10,-1002,53,27,-2,15,-58,-150,300000.0
08:56:02.391,AUTO,-35.3632618,149.1652401,7936,-0.006878672167658806,-0.01615561544895172,-0.06577720493078232,0.05887550488114357,0.026035793125629425,-0.0026911497116088867,-11,8,-1003,59,26,-2,17,-59,-151,300000.0
08:56:02.594,AUTO,-35.3632618,149.1652401,7936,-0.006878672167658806,-0.01615561544895172,-0.06577720493078232,0.05887550488114357,0.026035793125629425,-0.0026911497116088867,-11,8,-1003,59,26,-2,17,-59,-151,300000.0
08:56:02.796,AUTO,-35.3632618,149.1652401,7936,-0.006878672167658806,-0.01615561544895172,-0.06577720493078232,0.05887550488114357,0.026035793125629425,-0.0026911497116088867,-11,8,-1003,59,26,-2,17,-59,-151,300000.0
08:56:02.998,AUTO,-35.3632618,149.1652401,7936,-0.006878672167658806,-0.01615561544895172,-0.06577720493078232,0.05887550488114357,0.026035793125629425,-0.0026911497116088867,-11,8,-1003,59,26,-2,17,-59,-151,300000.0
08:56:03.200,AUTO,-35.3632607,149.1652354,9112,0.03310643509030342,0.009324856102466583,-0.07453732192516327,0.04650409147143364,0.03806854784488678,-0.019503474235534668,-10,9,-1003,47,38,-20,14,-44,-153,300000.0
08:56:03.402,AUTO,-35.3632604,149.1652343,9506,0.04250110313296318,0.020031986758112907,-0.08143638074398041,0.035887084901332855,0.042958490550518036,-0.028779689222574234,-8,5,-1002,36,43,-29,10,-33,-154,300000.0
08:56:03.606,AUTO,-35.3632604,149.1652343,9506,0.04250110313296318,0.020031986758112907,-0.08143638074398041,0.035887084901332855,0.042958490550518036,-0.028779689222574234,-8,5,-1002,36,43,-29,10,-33,-154,300000.0
08:56:03.808,AUTO,-35.3632602,149.1652335,9899,0.050197601318359375,0.030920419842004776,-0.0905245989561081,0.029646746814250946,0.040786806493997574,-0.04040561243891716,-5,3,-1000,30,41,-40,3,-20,-154,300000.0
08:56:04.010,AUTO,-35.3632602,149.1652331,10291,0.05716806650161743,0.040355682373046875,-0.10111051797866821,0.026574628427624702,0.033102717250585556,-0.04810377582907677,-2,3,-1000,27,33,-48,-4,-6,-153,300000.0
08:56:04.213,AUTO,-35.3632602,149.1652329,10683,0.06126711890101433,0.04920976236462593,-0.11409789323806763,0.009397231042385101,0.02648698166012764,-0.04549739882349968,0,0,-997,10,27,-46,-12,9,-152,300000.0
08:56:04.415,AUTO,-35.3632606,149.1652333,11070,0.05211660638451576,0.043405063450336456,-0.11723164469003677,-0.06614822894334793,-0.06122758239507675,0.013967711478471756,5,0,-993,-65,-60,13,-21,23,-150,300000.0
08:56:04.618,AUTO,-35.3632606,149.1652333,11070,0.05211660638451576,0.043405063450336456,-0.11723164469003677,-0.06614822894334793,-0.06122758239507675,0.013967711478471756,5,0,-993,-65,-60,13,-21,23,-150,300000.0
08:56:04.820,AUTO,-35.3632606,149.1652333,11070,0.05211660638451576,0.043405063450336456,-0.11723164469003677,-0.06614822894334793,-0.06122758239507675,0.013967711478471756,5,0,-993,-65,-60,13,-21,23,-150,300000.0
08:56:05.022,AUTO,-35.3632606,149.1652333,11070,0.05211660638451576,0.043405063450336456,-0.11723164469003677,-0.06614822894334793,-0.06122758239507675,0.013967711478471756,5,0,-993,-65,-60,13,-21,23,-150,300000.0
08:56:05.224,AUTO,-35.3632623,149.1652359,12215,-0.008972210809588432,-0.006399810314178467,-0.09523232281208038,-0.05467656999826431,-0.03742470592260361,0.01892576366662979,8,-4,-1005,-53,-36,18,-23,34,-150,300000.0
08:56:05.426,AUTO,-35.3632627,149.1652367,12600,-0.019533444195985794,-0.013573553413152695,-0.09243173897266388,-0.0318194143474102,-0.021478304639458656,0.002778671681880951,8,-3,-1005,-31,-20,2,-18,29,-151,89959.0
08:56:05.627,AUTO,-35.3632627,149.1652367,12600,-0.019533444195985794,-0.013573553413152695,-0.09243173897266388,-0.0318194143474102,-0.021478304639458656,0.002778671681880951,8,-3,-1005,-31,-20,2,-18,29,-151,89959.0
08:56:05.829,AUTO,-35.3632631,149.1652374,12986,-0.02513914741575718,-0.017558112740516663,-0.0930783674120903,-0.01431285310536623,-0.011662651784718037,-0.008311913348734379,6,-2,-1003,-13,-11,-8,-13,21,-152,89959.0
08:56:06.031,AUTO,-35.3632633,149.1652378,13380,-0.02631578966975212,-0.019033726304769516,-0.09700684249401093,0.002435087226331234,-0.001791351824067533,-0.01932586543262005,4,-2,-1002,3,-1,-19,-7,13,-153,89959.0
08:56:06.233,AUTO,-35.3632634,149.1652381,13770,-0.024416694417595863,-0.0186759140342474,-0.10309462994337082,0.013940376229584217,0.006531284190714359,-0.026968136429786682,1,-1,-1001,14,7,-27,-2,5,-153,89959.0
08:56:06.435,AUTO,-35.3632634,149.1652381,14160,-0.020346298813819885,-0.016741875559091568,-0.11058859527111053,0.0171967726200819,0.009581047110259533,-0.029656121507287025,0,0,-1000,18,10,-29,1,0,-153,89959.0
08:56:06.637,AUTO,-35.3632634,149.1652381,14160,-0.020346298813819885,-0.016741875559091568,-0.11058859527111053,0.0171967726200819,0.009581047110259533,-0.029656121507287025,0,0,-1000,18,10,-29,1,0,-153,89959.0
08:56:06.838,AUTO,-35.3632634,149.1652381,14160,-0.020346298813819885,-0.016741875559091568,-0.11058859527111053,0.0171967726200819,0.009581047110259533,-0.029656121507287025,0,0,-1000,18,10,-29,1,0,-153,89959.0
08:56:07.048,AUTO,-35.3632634,149.1652381,14160,-0.020346298813819885,-0.016741875559091568,-0.11058859527111053,0.0171967726200819,0.009581047110259533,-0.029656121507287025,0,0,-1000,18,10,-29,1,0,-153,89959.0
08:56:07.250,AUTO,-35.363263,149.1652375,15328,-0.003621807787567377,-0.006141813471913338,-0.13580484688282013,0.01915075071156025,0.014999150298535824,-0.029828988015651703,-3,1,-1000,20,15,-30,9,-11,-153,89959.0
08:56:07.453,AUTO,-35.3632628,149.1652371,15718,-0.004624968394637108,-0.0024625221267342567,-0.14344201982021332,-0.03431575745344162,0.015519536100327969,-0.02790151722729206,-3,0,-996,-33,16,-28,9,-12,-152,89959.0
08:56:07.655,AUTO,-35.3632626,149.1652367,16106,-0.015960967168211937,0.0013730841455981135,-0.15092048048973083,-0.05318037420511246,0.01563853584229946,-0.027788640931248665,-4,0,-997,-52,16,-27,9,-15,-152,89959.0
08:56:07.856,AUTO,-35.3632626,149.1652367,16106,-0.015960967168211937,0.0013730841455981135,-0.15092048048973083,-0.05318037420511246,0.01563853584229946,-0.027788640931248665,-4,0,-997,-52,16,-27,9,-15,-152,89959.0
08:56:08.058,AUTO,-35.3632623,149.1652361,16490,-0.03001176193356514,0.0043538715690374374,-0.1574021726846695,-0.05923169478774071,0.009110859595239162,-0.02217082493007183,-4,1,-998,-58,9,-22,7,-21,-151,89959.0
08:56:08.260,AUTO,-35.3632622,149.1652354,16874,-0.043128713965415955,0.01045929454267025,-0.1559283584356308,-0.020321404561400414,0.060843564569950104,0.08378215879201889,-6,4,-985,-19,61,83,3,-29,-149,89959.0
08:56:08.462,AUTO,-35.3632621,149.1652344,17249,-0.03996625542640686,0.03641742095351219,-0.10135424882173538,0.017211345955729485,0.10625940561294556,0.3432859182357788,-6,5,-981,17,107,342,-3,-38,-145,89959.0
08:56:08.664,AUTO,-35.3632621,149.1652344,17249,-0.03996625542640686,0.03641742095351219,-0.10135424882173538,0.017211345955729485,0.10625940561294556,0.3432859182357788,-6,5,-981,17,107,342,-3,-38,-145,89959.0
08:56:08.866,AUTO,-35.3632621,149.1652344,17249,-0.03996625542640686,0.03641742095351219,-0.10135424882173538,0.017211345955729485,0.10625940561294556,0.3432859182357788,-6,5,-981,17,107,342,-3,-38,-145,89959.0
08:56:09.068,AUTO,-35.3632621,149.1652344,17249,-0.03996625542640686,0.03641742095351219,-0.10135424882173538,0.017211345955729485,0.10625940561294556,0.3432859182357788,-6,5,-981,17,107,342,-3,-38,-145,89959.0
08:56:09.270,AUTO,-35.363263,149.1652307,18248,0.044957417994737625,-0.014288372360169888,0.06187465786933899,0.10809151083230972,-0.09436067938804626,0.00938085000962019,0,11,-957,109,-93,9,-23,-34,-114,89959.0
08:56:09.473,AUTO,-35.3632635,149.1652299,18528,0.06413685530424118,-0.028714291751384735,0.056667447090148926,0.05322340503334999,-0.032316237688064575,-0.03655117377638817,0,7,-960,53,-31,-37,-18,-19,-104,293858.0
08:56:09.676,AUTO,-35.3632637,149.1652295,18780,0.07089479267597198,-0.03146838769316673,0.04712529107928276,0.00473686633631587,-0.0010639625834301114,-0.03676825016736984,0,4,-963,5,0,-37,-11,-2,-94,293858.0
08:56:09.878,AUTO,-35.3632637,149.1652295,18780,0.07089479267597198,-0.03146838769316673,0.04712529107928276,0.00473686633631587,-0.0010639625834301114,-0.03676825016736984,0,4,-963,5,0,-37,-11,-2,-94,293858.0
08:56:10.080,AUTO,-35.3632639,149.1652296,19008,0.06759419292211533,-0.028540587052702904,0.03981342911720276,-0.027372676879167557,0.017578743398189545,-0.02370559424161911,1,0,-967,-26,18,-23,-3,13,-85,293858.0
08:56:10.282,AUTO,-35.3632638,149.1652301,19214,0.05768395960330963,-0.022484060376882553,0.03598855063319206,-0.048781584948301315,0.0286487378180027,-0.009480518288910389,1,-4,-971,-47,29,-10,2,27,-77,293858.0
08:56:10.485,AUTO,-35.3632638,149.1652308,19400,0.04429047927260399,-0.014881408773362637,0.03445923328399658,-0.054309871047735214,0.03158075362443924,-0.0012681009247899055,2,-6,-974,-53,32,-1,8,37,-70,293858.0
08:56:10.687,AUTO,-35.3632638,149.1652308,19400,0.04429047927260399,-0.014881408773362637,0.03445923328399658,-0.054309871047735214,0.03158075362443924,-0.0012681009247899055,2,-6,-974,-53,32,-1,8,37,-70,293858.0
08:56:10.889,AUTO,-35.3632638,149.1652308,19400,0.04429047927260399,-0.014881408773362637,0.03445923328399658,-0.054309871047735214,0.03158075362443924,-0.0012681009247899055,2,-6,-974,-53,32,-1,8,37,-70,293858.0
08:56:11.092,AUTO,-35.3632638,149.1652308,19400,0.04429047927260399,-0.014881408773362637,0.03445923328399658,-0.054309871047735214,0.03158075362443924,-0.0012681009247899055,2,-6,-974,-53,32,-1,8,37,-70,293858.0
08:56:11.299,AUTO,-35.3632628,149.1652342,19859,0.007370850071310997,0.005644770804792643,0.03383984789252281,-0.038083143532276154,0.022578325122594833,0.0013132346794009209,3,-12,-977,-36,23,0,14,46,-52,293858.0
08:56:11.500,AUTO,-35.3632625,149.1652354,19983,-0.0012444838648661971,0.01031738892197609,0.03343586623668671,-0.027089498937129974,0.014958568848669529,0.0022088547702878714,1,-10,-977,-26,15,2,13,43,-46,293858.0
08:56:11.702,AUTO,-35.3632621,149.1652365,20092,-0.007991106249392033,0.012586700730025768,0.03303197771310806,-0.027796152979135513,0.0066840979270637035,-9.2926318757236e-05,1,-9,-976,-27,7,0,11,39,-40,293858.0
08:56:11.904,AUTO,-35.3632618,149.1652375,20186,-0.011884027160704136,0.014063556678593159,0.032403942197561264,-0.006153561640530825,0.005705965217202902,0.0005231722025200725,1,-8,-976,-5,6,0,9,33,-35,293858.0
08:56:12.105,AUTO,-35.3632618,149.1652375,20186,-0.011884027160704136,0.014063556678593159,0.032403942197561264,-0.006153561640530825,0.005705965217202902,0.0005231722025200725,1,-8,-976,-5,6,0,9,33,-35,293858.0
08:56:12.307,AUTO,-35.3632616,149.1652383,20264,-0.014281757175922394,0.01440626010298729,0.03198627009987831,-0.000917671131901443,0.0013022464700043201,-6.166446837596595e-05,1,-7,-975,0,2,0,7,28,-28,293858.0
08:56:12.509,AUTO,-35.3632614,149.165239,20325,-0.01575508713722229,0.013988660648465157,0.03152575343847275,-0.023267436772584915,-0.003375649219378829,-0.0024378516245633364,1,-6,-974,-22,-2,-2,5,22,-22,293858.0
08:56:12.711,AUTO,-35.3632614,149.165239,20325,-0.01575508713722229,0.013988660648465157,0.03152575343847275,-0.023267436772584915,-0.003375649219378829,-0.0024378516245633364,1,-6,-974,-22,-2,-2,5,22,-22,293858.0
08:56:12.913,AUTO,-35.3632614,149.165239,20325,-0.01575508713722229,0.013988660648465157,0.03152575343847275,-0.023267436772584915,-0.003375649219378829,-0.0024378516245633364,1,-6,-974,-22,-2,-2,5,22,-22,293858.0
08:56:13.115,AUTO,-35.3632614,149.165239,20325,-0.01575508713722229,0.013988660648465157,0.03152575343847275,-0.023267436772584915,-0.003375649219378829,-0.0024378516245633364,1,-6,-974,-22,-2,-2,5,22,-22,293858.0
08:56:13.317,AUTO,-35.3632612,149.1652401,20398,-0.03521691635251045,0.01862070895731449,0.02925249934196472,-0.23272715508937836,0.05049953982234001,-0.004175777547061443,2,-7,-919,-232,51,-4,0,6,4,293858.0
08:56:13.519,AUTO,-35.3632612,149.1652401,20364,-0.05916093662381172,0.023716434836387634,0.028481798246502876,-0.6870024800300598,-0.0021224338561296463,-0.005920506082475185,0,-21,-963,-686,-1,-6,-5,-3,17,300000.0
08:56:13.721,AUTO,-35.3632612,149.16524,20309,-0.042145635932683945,0.023278985172510147,0.027658656239509583,-0.007882175967097282,0.00218501640483737,-0.001572418143041432,0,22,-1007,-5,3,-1,-10,-12,20,300000.0
08:56:13.923,AUTO,-35.3632614,149.1652395,20256,-0.016869686543941498,0.023438777774572372,0.027377203106880188,0.763007640838623,-0.0055503542535007,-0.0026240104343742132,0,40,-1024,764,-4,-2,-15,-19,16,300000.0
08:56:14.125,AUTO,-35.3632614,149.1652395,20256,-0.016869686543941498,0.023438777774572372,0.027377203106880188,0.763007640838623,-0.0055503542535007,-0.0026240104343742132,0,40,-1024,764,-4,-2,-15,-19,16,300000.0
08:56:14.327,AUTO,-35.3632618,149.1652389,20211,-0.005999641492962837,0.021787438541650772,0.027101049199700356,0.5451538562774658,-0.009690566919744015,-0.0035112162586301565,1,14,-1028,545,-8,-3,-20,-24,13,300000.0
08:56:14.529,AUTO,-35.3632623,149.1652381,20178,-0.013662440702319145,0.020515670999884605,0.02713472582399845,-0.37357378005981445,-0.00027127243811264634,-0.007059735711663961,0,-22,-1011,-373,0,-7,-24,-26,8,300000.0
08:56:14.731,AUTO,-35.3632623,149.1652381,20178,-0.013662440702319145,0.020515670999884605,0.02713472582399845,-0.37357378005981445,-0.00027127243811264634,-0.007059735711663961,0,-22,-1011,-373,0,-7,-24,-26,8,300000.0
08:56:14.932,AUTO,-35.3632623,149.1652381,20178,-0.013662440702319145,0.020515670999884605,0.02713472582399845,-0.37357378005981445,-0.00027127243811264634,-0.007059735711663961,0,-22,-1011,-373,0,-7,-24,-26,8,300000.0
08:56:15.134,AUTO,-35.3632623,149.1652381,20178,-0.013662440702319145,0.020515670999884605,0.02713472582399845,-0.37357378005981445,-0.00027127243811264634,-0.007059735711663961,0,-22,-1011,-373,0,-7,-24,-26,8,300000.0
08:56:15.336,AUTO,-35.3632643,149.1652357,20143,-0.010495569556951523,0.03623056411743164,0.02446082979440689,0.3776019513607025,0.045980095863342285,-0.012299010530114174,3,22,-1009,377,47,-12,-40,-30,-2,300000.0
08:56:15.538,AUTO,-35.3632653,149.1652348,20142,-0.03016718477010727,0.04981505125761032,0.017571095377206802,-0.3712691366672516,0.0640978217124939,-0.11512002348899841,3,-15,-995,-371,65,-115,-49,-34,-1,300000.0
08:56:15.740,AUTO,-35.3632665,149.1652338,20141,-0.050844158977270126,0.053592804819345474,-0.07890170067548752,-0.5665301084518433,0.04281100258231163,-0.6436559557914734,4,-1,-1006,-565,43,-643,-60,-39,-2,300000.0
08:56:15.942,AUTO,-35.363268,149.1652326,20144,-0.058232326060533524,0.044090185314416885,-0.2770635485649109,0.22015199065208435,-0.010208130814135075,-0.8630696535110474,1,45,-1002,222,-9,-863,-73,-44,-4,300000.0
08:56:16.144,AUTO,-35.363268,149.1652326,20144,-0.058232326060533524,0.044090185314416885,-0.2770635485649109,0.22015199065208435,-0.010208130814135075,-0.8630696535110474,1,45,-1002,222,-9,-863,-73,-44,-4,300000.0
08:56:16.346,AUTO,-35.3632698,149.1652312,20148,-0.06767930090427399,0.03116673417389393,-0.49392765760421753,0.4868170917034149,0.000795103725977242,-0.8608096837997437,-2,40,-1007,487,1,-860,-85,-51,-4,300000.0
08:56:16.549,AUTO,-35.3632719,149.1652297,20153,-0.09868907183408737,0.017418930307030678,-0.6996285319328308,-0.33192142844200134,0.020489957183599472,-0.7973626852035522,-7,5,-1001,-332,21,-797,-100,-60,-4,300000.0
08:56:16.752,AUTO,-35.3632719,149.1652297,20153,-0.09868907183408737,0.017418930307030678,-0.6996285319328308,-0.33192142844200134,0.020489957183599472,-0.7973626852035522,-7,5,-1001,-332,21,-797,-100,-60,-4,300000.0
08:56:16.961,AUTO,-35.3632719,149.1652297,20153,-0.09868907183408737,0.017418930307030678,-0.6996285319328308,-0.33192142844200134,0.020489957183599472,-0.7973626852035522,-7,5,-1001,-332,21,-797,-100,-60,-4,300000.0
08:56:17.163,AUTO,-35.3632806,149.1652232,20166,-0.12328007072210312,-0.056045081466436386,-1.2456493377685547,0.4026455879211426,-0.03725029528141022,-0.7159542441368103,-32,46,-1001,403,-36,-716,-158,-96,-3,300000.0
08:56:17.364,AUTO,-35.3632806,149.1652232,20166,-0.12328007072210312,-0.056045081466436386,-1.2456493377685547,0.4026455879211426,-0.03725029528141022,-0.7159542441368103,-32,46,-1001,403,-36,-716,-158,-96,-3,300000.0
08:56:17.567,AUTO,-35.3632844,149.1652203,20168,-0.11213639378547668,-0.08180264383554459,-1.4213088750839233,-0.04730026796460152,0.006805450189858675,-0.703566312789917,-40,12,-1011,-47,7,-703,-180,-109,-3,148902.0
08:56:17.768,AUTO,-35.3632888,149.1652171,20174,-0.07527311891317368,-0.08571328222751617,-1.6005585193634033,-0.2818143367767334,0.09003617614507675,-0.7034341096878052,-56,10,-1017,-280,91,-703,-197,-120,-6,148902.0
08:56:17.970,AUTO,-35.3632935,149.1652135,20188,-0.03120713122189045,-0.08125293254852295,-1.7830405235290527,0.34181827306747437,-0.013284681364893913,-0.7363733649253845,-62,36,-1010,343,-12,-736,-206,-127,-9,148902.0
08:56:18.173,AUTO,-35.3632983,149.1652099,20204,-0.014012536965310574,-0.10054297000169754,-1.962559461593628,0.29200777411460876,-0.0998411700129509,-0.7102341651916504,-61,16,-1003,292,-98,-710,-214,-133,-8,148902.0
08:56:18.375,AUTO,-35.3632983,149.1652099,20204,-0.014012536965310574,-0.10054297000169754,-1.962559461593628,0.29200777411460876,-0.0998411700129509,-0.7102341651916504,-61,16,-1003,292,-98,-710,-214,-133,-8,148902.0
08:56:18.578,AUTO,-35.3633035,149.1652059,20217,-0.013428823091089725,-0.13182994723320007,-2.1424410343170166,-0.36067911982536316,-0.10274301469326019,-0.7050517201423645,-71,-25,-988,-360,-101,-705,-226,-143,-6,148902.0
08:56:18.780,AUTO,-35.3633035,149.1652059,20217,-0.013428823091089725,-0.13182994723320007,-2.1424410343170166,-0.36067911982536316,-0.10274301469326019,-0.7050517201423645,-71,-25,-988,-360,-101,-705,-226,-143,-6,148902.0
08:56:18.982,AUTO,-35.3633035,149.1652059,20217,-0.013428823091089725,-0.13182994723320007,-2.1424410343170166,-0.36067911982536316,-0.10274301469326019,-0.7050517201423645,-71,-25,-988,-360,-101,-705,-226,-143,-6,148902.0
08:56:19.184,AUTO,-35.3633212,149.165192,20240,0.05254658684134483,-0.11562484502792358,-2.6014859676361084,-0.05742576718330383,0.050608765333890915,-0.2046898603439331,-65,-56,-1008,-56,51,-204,-277,-180,-8,148902.0
08:56:19.386,AUTO,-35.3633212,149.165192,20240,0.05254658684134483,-0.11562484502792358,-2.6014859676361084,-0.05742576718330383,0.050608765333890915,-0.2046898603439331,-65,-56,-1008,-56,51,-204,-277,-180,-8,148902.0
08:56:19.588,AUTO,-35.3633279,149.1651867,20257,0.05020419880747795,-0.09865611046552658,-2.6161043643951416,-0.220056414604187,0.07183971256017685,0.039073750376701355,-70,-56,-1012,-218,72,39,-289,-188,-10,148902.0
08:56:19.791,AUTO,-35.3633348,149.1651812,20280,0.05829881504178047,-0.08741331100463867,-2.5939745903015137,0.22189728915691376,0.032393354922533035,0.1032450944185257,-77,-41,-1005,223,33,102,-296,-194,-12,148902.0
08:56:19.993,AUTO,-35.3633418,149.1651756,20307,0.061070799827575684,-0.0818786472082138,-2.569314956665039,0.0541376955807209,0.02759948931634426,0.08818534016609192,-73,-55,-998,54,28,88,-302,-199,-12,148902.0
08:56:20.195,AUTO,-35.3633488,149.16517,20334,0.05359285697340965,-0.0760616883635521,-2.5545291900634766,-0.27961447834968567,0.022561820223927498,0.05012286454439163,-77,-70,-998,-278,23,49,-305,-203,-12,148902.0
08:56:20.397,AUTO,-35.3633488,149.16517,20334,0.05359285697340965,-0.0760616883635521,-2.5545291900634766,-0.27961447834968567,0.022561820223927498,0.05012286454439163,-77,-70,-998,-278,23,49,-305,-203,-12,148902.0
08:56:20.599,AUTO,-35.3633558,149.1651642,20361,0.053626105189323425,-0.0763375535607338,-2.549260139465332,0.10305637121200562,-0.007852595299482346,0.007151934318244457,-71,-35,-993,104,-7,6,-306,-207,-11,148902.0
08:56:20.801,AUTO,-35.3633558,149.1651642,20361,0.053626105189323425,-0.0763375535607338,-2.549260139465332,0.10305637121200562,-0.007852595299482346,0.007151934318244457,-71,-35,-993,104,-7,6,-306,-207,-11,148902.0
08:56:21.003,AUTO,-35.3633558,149.1651642,20361,0.053626105189323425,-0.0763375535607338,-2.549260139465332,0.10305637121200562,-0.007852595299482346,0.007151934318244457,-71,-35,-993,104,-7,6,-306,-207,-11,148902.0
08:56:21.205,AUTO,-35.363377,149.1651467,20434,0.046710629016160965,-0.06489554792642593,-2.5520548820495605,-0.1554402858018875,0.015312159433960915,-0.006951937451958656,-75,-44,-994,-153,15,-7,-310,-211,-9,148902.0
08:56:21.407,AUTO,-35.363384,149.1651408,20456,0.05288295820355415,-0.06258918344974518,-2.5534000396728516,0.3608073592185974,0.005231462884694338,-0.01215813122689724,-78,-29,-993,361,5,-12,-309,-210,-8,148902.0
08:56:21.609,AUTO,-35.363384,149.1651408,20456,0.05288295820355415,-0.06258918344974518,-2.5534000396728516,0.3608073592185974,0.005231462884694338,-0.01215813122689724,-78,-29,-993,361,5,-12,-309,-210,-8,200.0
08:56:21.811,AUTO,-35.3633911,149.1651349,20475,0.04829961806535721,-0.06425385177135468,-2.5535507202148438,-0.16227371990680695,-0.012741108424961567,0.018228210508823395,-84,-68,-988,-161,-12,18,-310,-209,-7,200.0
08:56:22.013,AUTO,-35.3633982,149.165129,20491,0.042276885360479355,-0.06945036351680756,-2.5541908740997314,-0.2748764455318451,-0.0019885380752384663,0.006086084060370922,-79,-47,-993,-272,-1,5,-310,-209,-6,200.0
08:56:22.215,AUTO,-35.3634053,149.1651231,20506,0.049797866493463516,-0.0629286915063858,-2.5541934967041016,0.4067268967628479,0.04280401021242142,-0.015167281962931156,-74,-30,-998,408,43,-15,-310,-209,-6,200.0
08:56:22.418,AUTO,-35.3634125,149.1651172,20523,0.045598819851875305,-0.0480472557246685,-2.5538575649261475,-0.2844005823135376,0.05905605107545853,0.011973106302320957,-72,-70,-1001,-283,59,11,-309,-206,-7,200.0
08:56:22.620,AUTO,-35.3634125,149.1651172,20523,0.045598819851875305,-0.0480472557246685,-2.5538575649261475,-0.2844005823135376,0.05905605107545853,0.011973106302320957,-72,-70,-1001,-283,59,11,-309,-206,-7,200.0
08:56:22.822,AUTO,-35.3634125,149.1651172,20523,0.045598819851875305,-0.0480472557246685,-2.5538575649261475,-0.2844005823135376,0.05905605107545853,0.011973106302320957,-72,-70,-1001,-283,59,11,-309,-206,-7,200.0
08:56:23.024,AUTO,-35.3634125,149.1651172,20523,0.045598819851875305,-0.0480472557246685,-2.5538575649261475,-0.2844005823135376,0.05905605107545853,0.011973106302320957,-72,-70,-1001,-283,59,11,-309,-206,-7,200.0
08:56:23.226,AUTO,-35.3634329,149.1651005,20588,0.05622459203004837,0.02110043354332447,-2.5536139011383057,0.4588453769683838,0.1925734430551529,-0.027019955217838287,-70,-42,-998,459,193,-27,-286,-190,-9,200.0
08:56:23.428,AUTO,-35.3634392,149.1650954,20617,0.0486459955573082,0.07233591377735138,-2.5514707565307617,-0.44114258885383606,0.19263966381549835,0.0037974007427692413,-69,-74,-1000,-441,193,3,-265,-175,-11,200.0
08:56:23.630,AUTO,-35.3634392,149.1650954,20617,0.0486459955573082,0.07233591377735138,-2.5514707565307617,-0.44114258885383606,0.19263966381549835,0.0037974007427692413,-69,-74,-1000,-441,193,3,-265,-175,-11,200.0
08:56:23.832,AUTO,-35.3634449,149.1650907,20647,0.03360540047287941,0.11125393956899643,-2.5497817993164062,-0.6190565824508667,0.11103908717632294,-0.009107180871069431,-56,-56,-1003,-617,111,-9,-235,-157,-10,200.0
08:56:24.034,AUTO,-35.36345,149.1650866,20669,0.04026126489043236,0.1119614839553833,-2.550579309463501,0.17995527386665344,-0.05791875347495079,-0.022146426141262054,-53,-2,-1000,182,-57,-22,-202,-138,-6,200.0
08:56:24.236,AUTO,-35.3634544,149.165083,20681,0.046075742691755295,0.09219404309988022,-2.5509681701660156,0.707563579082489,-0.0727698877453804,-0.00961359217762947,-46,0,-994,709,-72,-9,-174,-121,-1,200.0
08:56:24.438,AUTO,-35.3634582,149.1650799,20680,0.041948236525058746,0.07514072954654694,-2.550644874572754,0.34908536076545715,-0.054470494389534,0.014454093761742115,-36,-25,-988,349,-53,14,-151,-106,3,200.0
08:56:24.640,AUTO,-35.3634582,149.1650799,20680,0.041948236525058746,0.07514072954654694,-2.550644874572754,0.34908536076545715,-0.054470494389534,0.014454093761742115,-36,-25,-988,349,-53,14,-151,-106,3,200.0
08:56:24.842,AUTO,-35.3634582,149.1650799,20680,0.041948236525058746,0.07514072954654694,-2.550644874572754,0.34908536076545715,-0.054470494389534,0.014454093761742115,-36,-25,-988,349,-53,14,-151,-106,3,200.0
08:56:25.044,AUTO,-35.3634582,149.1650799,20680,0.041948236525058746,0.07514072954654694,-2.550644874572754,0.34908536076545715,-0.054470494389534,0.014454093761742115,-36,-25,-988,349,-53,14,-151,-106,3,200.0
08:56:25.246,AUTO,-35.363467,149.1650723,20652,0.009577302262187004,0.016522366553544998,-2.551156997680664,-0.7091286778450012,-0.1391451060771942,0.002858737949281931,-27,-43,-1004,-708,-138,2,-105,-78,4,200.0
08:56:25.448,AUTO,-35.3634694,149.1650701,20643,0.011198514141142368,-0.010744012892246246,-2.5520355701446533,0.028730619698762894,-0.07704505324363708,-0.009131130762398243,-29,5,-1001,31,-76,-9,-101,-76,4,200.0
08:56:25.652,AUTO,-35.3634718,149.165068,20638,0.01662682741880417,-0.023372381925582886,-2.552112340927124,0.5271571278572083,-0.03243105486035347,-0.005947611760348082,-25,5,-1008,528,-31,-6,-102,-75,1,200.0
08:56:25.853,AUTO,-35.3634718,149.165068,20638,0.01662682741880417,-0.023372381925582886,-2.552112340927124,0.5271571278572083,-0.03243105486035347,-0.005947611760348082,-25,5,-1008,528,-31,-6,-102,-75,1,200.0
08:56:26.056,AUTO,-35.3634741,149.1650659,20639,0.012960745953023434,-0.02600369043648243,-2.553015947341919,-0.10842695832252502,0.002482655690982938,0.0022160601802170277,-27,-22,-1002,-108,3,1,-105,-74,0,200.0
08:56:26.258,AUTO,-35.3634766,149.1650638,20642,-0.0014206907944753766,-0.021105876192450523,-2.5535812377929688,-0.5691164135932922,0.03980017453432083,2.0150240743532777e-05,-27,-39,-999,-567,40,0,-108,-73,0,200.0
08:56:26.460,AUTO,-35.3634791,149.1650617,20646,0.005611850414425135,-0.0038963223341852427,-2.5538275241851807,-0.08938451111316681,0.1137932613492012,0.005261492915451527,-28,-2,-998,-87,114,4,-108,-72,-1,200.0
08:56:26.662,AUTO,-35.3634791,149.1650617,20646,0.005611850414425135,-0.0038963223341852427,-2.5538275241851807,-0.08938451111316681,0.1137932613492012,0.005261492915451527,-28,-2,-998,-87,114,4,-108,-72,-1,200.0
08:56:26.865,AUTO,-35.3634791,149.1650617,20646,0.005611850414425135,-0.0038963223341852427,-2.5538275241851807,-0.08938451111316681,0.1137932613492012,0.005261492915451527,-28,-2,-998,-87,114,4,-108,-72,-1,200.0
08:56:27.072,AUTO,-35.3634791,149.1650617,20646,0.005611850414425135,-0.0038963223341852427,-2.5538275241851807,-0.08938451111316681,0.1137932613492012,0.005261492915451527,-28,-2,-998,-87,114,4,-108,-72,-1,200.0
08:56:27.274,AUTO,-35.3634861,149.1650567,20673,0.014564943499863148,0.06452780216932297,-2.5535881519317627,-0.5181253552436829,0.07742608338594437,-0.001657490385696292,-23,-47,-997,-517,78,-2,-79,-48,-2,200.0
08:56:27.476,AUTO,-35.3634878,149.1650556,20679,0.013979936949908733,0.08043830096721649,-2.5532336235046387,-0.4331466555595398,0.05187201872467995,-0.0017234992701560259,-15,-15,-991,-431,52,-2,-61,-39,0,200.0
08:56:27.678,AUTO,-35.3634892,149.1650547,20683,0.017807262018322945,0.08447353541851044,-2.5535898208618164,0.19819392263889313,-0.006156335584819317,-0.009014726616442204,-13,22,-1007,200,-5,-9,-41,-30,0,200.0
08:56:27.880,AUTO,-35.3634892,149.1650547,20683,0.017807262018322945,0.08447353541851044,-2.5535898208618164,0.19819392263889313,-0.006156335584819317,-0.009014726616442204,-13,22,-1007,200,-5,-9,-41,-30,0,200.0
08:56:28.084,AUTO,-35.3634902,149.1650541,20686,0.02541188895702362,0.07769870012998581,-2.5537054538726807,0.6616750955581665,-0.034963540732860565,0.0001795772259356454,-8,21,-1002,662,-34,0,-25,-20,0,200.0
08:56:28.286,AUTO,-35.3634907,149.1650538,20686,0.02115085907280445,0.06617061048746109,-2.5534448623657227,0.08574289083480835,-0.05046664923429489,0.006073583848774433,-5,-15,-998,85,-49,5,-10,-12,1,200.0
08:56:28.489,AUTO,-35.363491,149.1650536,20686,0.006731368135660887,0.05334266647696495,-2.5534889698028564,-0.6159473657608032,-0.044855572283267975,0.002648996189236641,-2,-32,-997,-615,-43,2,0,-6,1,200.0
08:56:28.691,AUTO,-35.363491,149.1650536,20686,0.006731368135660887,0.05334266647696495,-2.5534889698028564,-0.6159473657608032,-0.044855572283267975,0.002648996189236641,-2,-32,-997,-615,-43,2,0,-6,1,200.0
08:56:28.893,AUTO,-35.363491,149.1650536,20686,0.006731368135660887,0.05334266647696495,-2.5534889698028564,-0.6159473657608032,-0.044855572283267975,0.002648996189236641,-2,-32,-997,-615,-43,2,0,-6,1,200.0
08:56:29.095,AUTO,-35.363491,149.1650536,20686,0.006731368135660887,0.05334266647696495,-2.5534889698028564,-0.6159473657608032,-0.044855572283267975,0.002648996189236641,-2,-32,-997,-615,-43,2,0,-6,1,200.0
08:56:29.297,AUTO,-35.363491,149.1650538,20681,0.016241706907749176,0.02142384834587574,-2.553915023803711,0.5030942559242249,-0.03686011955142021,0.00041952653555199504,2,11,-1005,503,-35,0,17,0,2,200.0
08:56:29.499,AUTO,-35.3634909,149.1650539,20679,0.004867386072874069,0.012416202574968338,-2.554032802581787,-0.31057989597320557,-0.03163258358836174,0.0037045194767415524,2,-25,-999,-310,-30,3,18,1,1,37319.0
08:56:29.701,AUTO,-35.3634907,149.1650541,20678,-0.003727857954800129,0.0034535403829067945,-2.554344892501831,-0.5517780184745789,-0.029176034033298492,-0.002184746554121375,0,-17,-1007,-550,-27,-2,17,1,0,37319.0
08:56:29.903,AUTO,-35.3634905,149.1650543,20679,-0.0005096803070046008,-0.0050188335590064526,-2.5549895763397217,0.21425282955169678,-0.031054439023137093,-0.0036208750680088997,0,26,-996,216,-30,-3,15,0,0,37319.0
08:56:30.104,AUTO,-35.3634905,149.1650543,20679,-0.0005096803070046008,-0.0050188335590064526,-2.5549895763397217,0.21425282955169678,-0.031054439023137093,-0.0036208750680088997,0,26,-996,216,-30,-3,15,0,0,37319.0
08:56:30.307,AUTO,-35.3634905,149.1650545,20678,0.014723159372806549,-0.007562840357422829,-2.5558087825775146,0.63114994764328,0.012892468832433224,0.0024510121438652277,-1,28,-1010,632,14,1,10,-2,0,37319.0
08:56:30.509,AUTO,-35.3634906,149.1650548,20677,0.018951917067170143,-0.005149450618773699,-2.556201696395874,0.09020420908927917,0.0010434763971716166,0.005395067855715752,0,-16,-1001,90,2,5,7,-3,0,37319.0
08:56:30.711,RTL,-35.3634906,149.1650548,20677,0.018951917067170143,-0.005149450618773699,-2.556201696395874,0.09020420908927917,0.0010434763971716166,0.005395067855715752,0,-16,-1001,90,2,5,7,-3,0,37319.0
08:56:30.914,RTL,-35.3634906,149.1650548,20677,0.018951917067170143,-0.005149450618773699,-2.556201696395874,0.09020420908927917,0.0010434763971716166,0.005395067855715752,0,-16,-1001,90,2,5,7,-3,0,37319.0
08:56:31.116,RTL,-35.3634906,149.1650548,20677,0.018951917067170143,-0.005149450618773699,-2.556201696395874,0.09020420908927917,0.0010434763971716166,0.005395067855715752,0,-16,-1001,90,2,5,7,-3,0,37319.0
08:56:31.317,RTL,-35.363491,149.1650548,20677,0.020989997312426567,0.009241946041584015,-2.5573651790618896,0.5311324000358582,0.03652574121952057,0.009139034897089005,-2,30,-1014,533,37,8,2,-13,0,37319.0
08:56:31.519,RTL,-35.3634913,149.1650549,20683,0.027517151087522507,0.013109494931995869,-2.5578460693359375,0.25587397813796997,0.00785498134791851,0.006573789287358522,-3,-2,-1016,256,9,6,4,-13,-3,37319.0
08:56:31.721,RTL,-35.3634914,149.1650549,20700,0.014532607048749924,0.014096792787313461,-2.557692527770996,-0.47757676243782043,0.007960478775203228,0.008532962761819363,-2,-27,-1025,-476,8,8,6,-13,-9,37319.0
08:56:31.923,RTL,-35.3634916,149.1650548,20734,0.010811815969645977,0.015062987804412842,-2.5576555728912354,-0.17543718218803406,0.0014695990830659866,0.008569515310227871,-1,4,-1034,-172,2,8,8,-14,-16,37319.0
08:56:32.125,RTL,-35.3634916,149.1650548,20734,0.010811815969645977,0.015062987804412842,-2.5576555728912354,-0.17543718218803406,0.0014695990830659866,0.008569515310227871,-1,4,-1034,-172,2,8,8,-14,-16,37319.0
08:56:32.327,RTL,-35.3634917,149.1650548,20789,0.020609477534890175,0.01567012630403042,-2.557959794998169,0.4184989035129547,0.0037707628216594458,0.008634381927549839,-1,20,-1046,421,4,8,10,-13,-26,37319.0
08:56:32.530,RTL,-35.3634919,149.1650548,20873,0.019322559237480164,0.01579226925969124,-2.5579185485839844,0.08965963125228882,0.0026497547514736652,0.008464342914521694,0,-8,-1048,91,4,8,11,-13,-38,37319.0
08:56:32.732,RTL,-35.3634919,149.1650548,20873,0.019322559237480164,0.01579226925969124,-2.5579185485839844,0.08965963125228882,0.0026497547514736652,0.008464342914521694,0,-8,-1048,91,4,8,11,-13,-38,37319.0
08:56:32.934,RTL,-35.3634919,149.1650548,20873,0.019322559237480164,0.01579226925969124,-2.5579185485839844,0.08965963125228882,0.0026497547514736652,0.008464342914521694,0,-8,-1048,91,4,8,11,-13,-38,37319.0
08:56:33.136,RTL,-35.3634919,149.1650548,20873,0.019322559237480164,0.01579226925969124,-2.5579185485839844,0.08965963125228882,0.0026497547514736652,0.008464342914521694,0,-8,-1048,91,4,8,11,-13,-38,37319.0
08:56:33.338,RTL,-35.3634919,149.1650546,21306,0.011151010170578957,0.013603666797280312,-2.5565855503082275,0.13754059374332428,-0.003599607152864337,0.006066532339900732,0,3,-1042,139,-2,6,14,-11,-74,37319.0
08:56:33.539,RTL,-35.3634918,149.1650546,21508,0.010618218220770359,0.012698078528046608,-2.5565707683563232,-0.022628089413046837,0.000426633283495903,0.004828339442610741,1,-3,-1036,-20,1,4,15,-10,-83,300000.0
08:56:33.741,RTL,-35.3634918,149.1650545,21733,0.009115087799727917,0.012137778103351593,-2.556462287902832,-0.0355687253177166,-0.0008098167018033564,0.0042908224277198315,1,-1,-1032,-33,0,4,15,-10,-92,300000.0
08:56:33.943,RTL,-35.3634917,149.1650545,21978,0.008996650576591492,0.011330976150929928,-2.5565497875213623,0.013491407036781311,-0.004946326836943626,0.003742573317140341,0,0,-1029,15,-3,3,15,-9,-99,300000.0
08:56:34.145,RTL,-35.3634917,149.1650545,21978,0.008996650576591492,0.011330976150929928,-2.5565497875213623,0.013491407036781311,-0.004946326836943626,0.003742573317140341,0,0,-1029,15,-3,3,15,-9,-99,300000.0
08:56:34.349,RTL,-35.3634916,149.1650545,22241,0.007624125573784113,0.010398787446320057,-2.5563876628875732,-0.008987676352262497,-0.005941998213529587,0.0038275751285254955,1,0,-1025,-6,-4,3,15,-9,-106,300000.0
08:56:34.551,RTL,-35.3634916,149.1650545,22523,0.007864871993660927,0.010204200632870197,-2.556393623352051,0.007725103758275509,0.0032853996381163597,0.003798058023676276,1,0,-1022,10,4,3,14,-8,-112,300000.0
08:56:34.753,RTL,-35.3634916,149.1650545,22523,0.007864871993660927,0.010204200632870197,-2.556393623352051,0.007725103758275509,0.0032853996381163597,0.003798058023676276,1,0,-1022,10,4,3,14,-8,-112,300000.0
