time_stamp,MODE,roll,pitch,yaw,rollspeed,pitchspeed,yawspeed,lat,lon,relative_alt,vx,vy,vz,xacc,yacc,zacc,xgyro,ygyro,zgyro,RTL_ALT
02:26:10,STABILIZE,-0.000690844317432493,0.0012249433202669024,0.026962006464600563,0.00017468834994360805,0.00018694213940761983,0.002241576788946986,-35.3632622,149.1652374,0.0,-1.0,1.0,0.0,0.0,1.0,-1000.0,0.5,0.0,0.0,26189.0
02:26:22,STABILIZE,-0.0010508374543860555,0.0009832531213760376,0.02299533598124981,0.00043859973084181547,0.00029721902683377266,0.0015679901698604226,-35.3632622,149.1652375,0.0,-1.0,1.0,0.0,0.0,2.5,-998.5,0.5,1.0,0.0,26189.0
02:26:24,AUTO,-0.0006366114442547163,0.0010819575206066172,0.022522383679946262,0.00030952047867079574,0.00028927874518558383,0.0014771128383775551,-35.3632621,149.1652375,17.666666666666668,-0.3333333333333333,0.0,-1.6666666666666667,0.0,1.6666666666666667,-1000.0,0.3333333333333333,0.6666666666666666,0.0,26189.0
02:26:25,AUTO,-0.0004231595594319515,0.0013108748535159975,0.022226236294955015,0.00029271644598338753,0.0003236776537960395,0.0014447039866354316,-35.3632621,149.1652375,19.75,0.0,0.0,-1.0,0.0,1.25,-1000.0,0.5,0.5,0.5,63008.0
02:26:26,AUTO,-0.00010575660053291358,0.0016680763801559806,0.021819894202053547,0.00037264221464283764,0.0003088423691224307,0.0014146987814456224,-35.3632621,149.1652373,42.0,0.0,-2.5,-6.5,0.0,1.5,-1000.0,0.0,0.0,0.0,63008.0
02:26:28,AUTO,0.026091518811881542,-0.0018922903982456774,0.021120356395840645,0.045480793341994286,-0.008026520488783717,0.002325587789528072,-35.363262,149.1652379,1506.0,1.5,10.0,-148.5,0.0,-0.5,-1014.5,45.5,-6.5,1.5,63008.0
02:26:30,AUTO,-0.060825156047940254,0.007730874000117183,-0.07072781026363373,-0.07779377698898315,-0.01179674151353538,-0.03732842765748501,-35.36326085,149.16524545,4541.0,0.5,24.5,-149.0,3.5,-6.0,-1004.5,-76.5,-10.0,-37.5,33871.5
02:26:32,AUTO,0.014688969356939197,0.007384738652035594,-0.09759147837758064,0.06597299501299858,0.006935346173122525,0.00029031843587290496,-35.36326185,149.1652386,7610.0,-13.5,-49.0,-151.5,-4.5,12.0,-1003.0,66.0,7.5,0.0,4735.0
02:26:34,AUTO,-0.004117730830330402,-0.008011132245883346,-0.06819121539592743,-0.021025567781180143,0.03752805944532156,-0.05085845664143562,-35.363262899999995,149.16523535,10701.0,16.0,5.5,-149.0,-1.5,-2.5,-1002.0,-20.0,38.0,-51.0,4735.0
02:26:35,AUTO,-0.0055002358567435294,0.008249466540291905,-0.10432491265237331,0.00870267185382545,0.01359624310862273,-0.03685471182689071,-35.363261775,149.165235375,11858.5,13.0,-1.75,-150.25,-3.0,-1.5,-1001.25,9.25,13.75,-37.0,40346.0
02:26:36,AUTO,0.008621692890301347,0.012796495109796524,-0.1343846693634987,0.007462409092113376,-0.004400774370878935,-0.008697747020050883,-35.3632609,149.16523485,13798.5,-1.0,-1.0,-151.0,-0.5,0.0,-999.5,7.5,-3.0,-8.5,40346.0
02:26:38,AUTO,0.0021423804573714733,0.002220570924691856,-0.1561172902584076,-0.00485277408733964,-0.0033051581121981144,-0.016750365495681763,-35.363261550000004,149.1652355,16901.0,-5.5,8.0,-150.0,1.5,0.0,-1000.0,-4.0,-2.0,-16.5,40346.0
02:26:40,AUTO,0.00174504000460729,0.002002120658289641,-0.2000630870461464,0.0024478905834257603,0.0009188853146042675,-0.021700273267924786,-35.3632619,149.1652363,20014.5,-2.0,3.5,-151.0,0.0,0.0,-1000.0,2.5,1.0,-21.5,53357.0
02:26:42,AUTO,0.00202371459454298,0.003201330662705004,-0.2420056387782097,0.0007479472260456532,0.0017742195632308722,-0.021128423511981964,-35.363262,149.16523665,23125.5,-1.0,3.0,-151.0,0.0,0.0,-1000.0,1.0,2.0,-21.5,66368.0
02:26:44,AUTO,0.003518224199069664,0.0048270144034177065,-0.25010865181684494,0.023502396419644356,-0.005787962814792991,0.027608230710029602,-35.36326215,149.1652368,26234.0,-5.0,-0.5,-151.0,0.0,0.5,-1000.5,24.0,-4.0,26.5,66368.0
02:26:45,AUTO,0.009628789965063334,0.0018098572036251426,-0.22969014197587967,0.0001504621614003554,-0.0017987578612519428,0.025441129691898823,-35.363262325,149.16523675000002,27399.75,-3.5,4.0,-151.0,0.25,0.25,-999.5,1.0,-0.75,24.5,227318.0
02:26:46,AUTO,0.0023140368284657598,0.0008358784834854305,-0.20165595412254333,-0.007489203009754419,-6.574130384251475e-05,0.02047248650342226,-35.3632625,149.16523734999998,29339.0,0.0,8.0,-151.0,0.0,-1.0,-1000.0,-6.0,0.0,19.5,227318.0
02:26:48,AUTO,-0.0006104852800490335,0.0021229535341262817,-0.1667647436261177,-0.00012234621681272984,-9.100572788156569e-05,0.015821356792002916,-35.36326235,149.16523805,32451.0,0.0,2.0,-151.0,0.0,0.0,-1000.0,1.0,1.0,15.0,227318.0
02:26:50,AUTO,0.0009008188790176064,0.0013047842658124864,-0.14060591161251068,-0.001306573860347271,0.00019851932302117348,0.009857870172709227,-35.3632622,149.16523795,35559.0,0.0,0.0,-151.0,0.0,0.0,-1000.0,0.0,0.5,9.0,115227.5
02:26:52,AUTO,0.0018559190211817622,0.0017349941190332174,-0.12124801054596901,0.00028239493258297443,-0.0012293594190850854,0.009036147966980934,-35.3632621,149.16523765,38667.0,-0.5,0.0,-151.5,0.0,0.0,-1000.5,1.5,0.0,8.5,3137.0
02:26:54,AUTO,0.0010853686835616827,0.0017443167744204402,-0.10635742172598839,-0.0014627860800828785,-0.0011887518339790404,0.007633041590452194,-35.36326205,149.1652375,41775.0,-1.0,1.0,-152.0,0.0,0.0,-1000.0,0.0,0.0,7.5,3137.0
02:26:55,AUTO,0.001113897596951574,0.0015286749694496393,-0.10155451484024525,0.0009810434421524405,0.0003536225267453119,0.007019743672572076,-35.363262,149.165237475,42940.0,-1.0,1.0,-152.0,0.0,0.0,-999.5,1.75,1.0,6.5,72343.0
02:26:56,AUTO,-0.029285708907991648,0.033838837407529354,-0.012972483411431313,-0.12294388189911842,0.11246901750564575,0.37486087530851364,-35.36326205,149.16523734999998,44861.5,-6.5,-3.5,-142.5,0.0,0.0,-973.5,-121.5,113.0,374.5,72343.0
02:26:58,AUTO,0.03833287954330444,-0.04206358827650547,0.27592872083187103,-0.03706669341772795,0.038163887336850166,-0.03492785803973675,-35.363264650000005,149.1652325,46891.0,8.5,5.5,-59.5,-1.5,-1.5,-974.0,-35.5,39.0,-34.0,72343.0
02:27:00,AUTO,0.004367913177702576,0.01614356692880392,0.213114894926548,0.4270617514848709,-0.0029148663161322474,-0.023548437282443047,-35.36326135,149.16523735,47628.0,10.5,23.5,-13.5,-1.0,3.5,-973.5,427.0,-2.0,-22.5,151718.5
02:27:02,AUTO,0.007239458151161671,-0.048973916098475456,0.1733701378107071,0.21865574643015862,-0.0440610833466053,-0.011518055573105812,-35.3632608,149.16523905,47441.5,19.5,0.5,7.5,-1.0,-11.5,-996.5,219.0,-42.0,-10.5,231094.0
02:27:04,AUTO,-0.02273127157241106,-0.09657830372452736,0.5013157874345779,-0.7672799825668335,0.0707245022058487,-0.08276332914829254,-35.3632461,149.1652457,47197.0,167.5,33.5,18.5,-36.0,-47.0,-990.5,-766.0,71.5,-82.5,231094.0
02:27:05,AUTO,0.006832607032265514,-0.050559706054627895,0.46167878806591034,0.3536289557814598,0.04402562836185098,-0.0649104155600071,-35.363234274999996,149.165250125,47035.0,188.5,39.0,20.0,-39.25,7.25,-1005.5,354.75,44.75,-64.5,6273.0
02:27:06,AUTO,0.004695633164374158,0.0019168456783518195,0.4364194720983505,-0.764053076505661,0.034356883727014065,-0.007260795682668686,-35.36321425,149.16525810000002,46750.0,172.5,37.5,23.0,-32.5,-51.0,-987.5,-763.0,34.5,-6.5,6273.0
02:27:08,AUTO,-0.03460873290896416,-0.03589495271444321,0.4071587324142456,-0.1736496537923813,-0.18977682292461395,-0.006690727546811104,-35.3631932,149.1652692,46411.0,97.0,4.0,14.0,-21.0,6.0,-998.0,-172.0,-188.0,-5.0,6273.0
02:27:10,AUTO,0.007204449735581875,-0.058573246002197266,0.40816594660282135,-0.03240981698036194,0.07848899066448212,-0.0025073374854400754,-35.363173700000004,149.16527535,46150.0,182.5,25.5,18.5,-38.0,-9.0,-1004.0,-32.5,79.5,-1.5,9295.0
02:27:12,AUTO,0.03847464360296726,-0.009251993149518967,0.3972579687833786,0.2569594830274582,0.24161731451749802,-0.004040817730128765,-35.363140200000004,149.16528549999998,45705.0,189.5,50.0,26.5,-43.5,-7.5,-1009.0,256.0,242.0,-3.5,12317.0
02:27:14,AUTO,0.032089351676404476,-0.02446404192596674,0.3876807540655136,0.2168704867362976,0.012556865811347961,0.035213084891438484,-35.36311485,149.16529409999998,45309.5,113.0,47.0,16.5,-27.0,-3.5,-1014.0,216.5,13.5,35.5,12317.0
02:27:15,AUTO,0.01231824787100777,-0.152291189879179,0.38179130107164383,-0.3209894150495529,-0.017356364522129297,0.026721800793893635,-35.363104325,149.16529835,45143.75,144.5,58.75,22.75,-33.75,-33.0,-998.25,-321.0,-16.5,26.75,4999.0
02:27:16,AUTO,0.040497319772839546,-0.051581766456365585,0.3739994317293167,0.11622807383537292,0.0013293474912643433,0.023767017759382725,-35.3630882,149.1653043,44941.5,183.5,69.0,21.0,-44.5,-25.5,-1010.5,115.5,2.0,24.5,4999.0
02:27:18,AUTO,0.04155319184064865,0.020589865744113922,0.36901310086250305,-0.37251097708940506,-0.055787697434425354,0.0012874016538262367,-35.363053550000004,149.16531755,44456.5,150.0,67.5,22.5,-33.5,-55.5,-1005.5,-373.0,-54.5,2.0,4999.0
02:27:20,AUTO,0.00598936015740037,0.01802941784262657,0.3624732792377472,-0.028279781341552734,-0.27415798604488373,-0.014110395684838295,-35.36303325,149.1653284,44097.5,56.5,29.0,9.5,-10.0,-6.0,-1018.5,-28.5,-273.0,-13.0,38934.5
02:27:22,AUTO,0.02800166141241789,0.01121009443886578,0.3529810607433319,-0.6060516908764839,-0.054104432463645935,-0.003526420332491398,-35.3630099,149.16533715,43783.0,160.5,45.5,16.5,-35.0,-55.5,-972.5,-606.0,-53.0,-2.5,72870.0
02:27:24,AUTO,0.015699925366789103,0.0483185313642025,0.350751057267189,-0.4248657189309597,-0.0587763637304306,-0.019999034120701253,-35.362986199999995,149.1653462,43426.5,76.5,33.5,12.0,-17.5,-33.0,-992.5,-425.0,-58.0,-19.0,72870.0
02:27:25,AUTO,-0.002992602181620896,-0.10565285570919514,0.3480525240302086,-0.09023213759064674,0.15391343599185348,0.01680362457409501,-35.362979599999996,149.16534965,43288.75,106.5,37.0,14.0,-23.75,-16.25,-1017.0,-89.5,154.75,17.5,40424.0
02:27:26,AUTO,0.016784012550488114,-0.06164153292775154,0.34384119510650635,-0.11667776107788086,-0.1464453898370266,0.04255176521837711,-35.36296885,149.1653537,43151.0,132.5,40.5,15.0,-28.5,-30.0,-1003.0,-117.0,-145.0,43.0,40424.0
02:27:28,AUTO,0.012673428282141685,-0.027343522757291794,0.34255847334861755,-0.18633313477039337,-0.08845658600330353,0.043921031057834625,-35.3629421,149.1653646,42781.5,134.0,40.5,18.5,-28.0,-22.0,-993.5,-186.0,-87.5,44.0,40424.0
02:27:30,AUTO,0.0007668410471524112,-0.03180256485939026,0.336331382393837,-0.17960093915462494,-0.37023091316223145,-0.02356960903853178,-35.36292295,149.1653728,42474.5,55.5,13.5,9.5,-13.0,-2.5,-1005.0,-179.0,-369.0,-22.0,155022.0
02:27:32,AUTO,0.04318983107805252,-0.02865600772202015,0.3318661004304886,0.34159593284130096,-0.03826506435871124,0.03749396000057459,-35.36289655,149.16538144999998,42130.0,187.5,55.0,21.0,-41.5,-19.5,-989.5,341.5,-37.5,38.5,269620.0
02:27:34,AUTO,0.03425384871661663,0.06696825940161943,0.33233168721199036,0.6809619218111038,-0.08256714046001434,0.014194203075021505,-35.36286665,149.16539305,41688.5,90.5,39.0,15.5,-22.0,6.5,-1025.0,680.5,-82.0,15.5,269620.0
02:27:35,AUTO,0.010888336866628379,-0.14760824106633663,0.3305881395936012,-0.40635077748447657,0.040184829384088516,0.029881571885198355,-35.362859025,149.1653962,41531.25,112.75,45.0,19.25,-26.75,-28.25,-1007.0,-405.75,41.0,30.75,9083.0
02:27:36,AUTO,0.04141576960682869,-0.003008496016263962,0.3280518352985382,0.33121566474437714,-0.009126633405685425,0.03540591290220618,-35.36284645,149.1654004,41371.0,129.5,50.5,14.5,-30.0,-12.5,-999.0,331.5,-8.0,36.5,9083.0
02:27:38,AUTO,0.034534676000475883,0.04164928011596203,0.32575687766075134,-0.2448495328426361,-0.06903845071792603,-0.009651376865804195,-35.362818,149.1654115,40984.5,155.0,62.0,18.0,-34.0,-42.5,-993.5,-244.5,-68.0,-8.5,9083.0
02:27:40,AUTO,0.05405080318450928,0.09220503643155098,0.3263390511274338,0.3780618589371443,-0.06039273738861084,0.03811805974692106,-35.3627927,149.1654206,40588.0,91.5,48.5,13.5,-24.5,-9.0,-1002.5,378.5,-59.0,39.5,9083.0
02:27:41,AUTO,0.04365295358002186,-0.11859468591865152,0.32818175107240677,-0.5224239137023687,-0.29685845971107483,-0.007085202261805534,-35.362786525000004,149.165421225,40478.25,45.25,46.75,10.25,-16.0,-24.25,-992.5,-520.5,-295.0,-6.0,7041.0
02:27:42,AUTO,0.06754569709300995,-0.06787236034870148,0.3187892884016037,-0.18799299001693726,0.20484554767608643,0.01640436105662957,-35.362775,149.1654236,40327.5,144.0,89.5,15.5,-36.5,-20.5,-1001.5,-186.0,205.5,17.0,7041.0
02:27:44,AUTO,0.05962517857551575,0.08802735293284059,0.3230476677417755,-0.35099346935749054,0.10360012948513031,-0.02199159050360322,-35.36274505,149.1654348,39933.5,123.5,103.5,17.0,-28.0,-48.5,-1011.5,-348.5,104.5,-20.5,7041.0
02:27:46,AUTO,0.010910254262853414,0.04332609102129936,0.3211093246936798,-0.04143856465816498,0.06353196501731873,0.0029496178030967712,-35.36272745,149.16544785,39613.5,88.5,60.5,11.5,-15.0,-35.5,-1022.0,-39.0,64.5,4.5,123121.5
02:27:48,AUTO,0.01520917983725667,-0.09903272986412048,0.3195723444223404,0.20709183439612389,0.20723245665431023,-0.014997504651546478,-35.362708299999994,149.1654581,39321.5,189.5,51.5,20.5,-44.5,-11.5,-1003.0,210.5,208.0,-14.0,239202.0
02:27:50,AUTO,0.01590230083093047,-0.005272611975669861,0.3192910701036453,-0.3655140623450279,0.08430197089910507,-0.008794985711574554,-35.3626812,149.1654681,38943.5,114.5,31.5,16.5,-23.0,-41.5,-1009.0,-363.0,85.5,-7.5,239202.0
02:27:51,AUTO,-0.006604542431887239,0.013920138590037823,0.31819286197423935,0.0009647607803344727,-0.3161638844758272,-0.037982419366016984,-35.36267315,149.165472425,38811.0,57.5,13.75,9.75,-8.75,2.5,-1001.5,4.75,-314.75,-36.25,90857.0
02:27:52,AUTO,-0.01263395557180047,-0.1419946625828743,0.31871289014816284,0.10919681936502457,0.13071289658546448,0.03333436045795679,-35.3626644,149.16547755,38655.0,165.5,32.5,19.0,-32.0,-20.0,-1004.0,111.5,132.0,34.0,90857.0
02:27:54,AUTO,0.00754526280798018,-0.038386762142181396,0.3172470033168793,0.03682994842529297,-0.012355700135231018,-0.0009003248997032642,-35.362632399999995,149.1654905,38234.0,181.0,22.0,23.0,-37.5,-14.5,-1001.5,40.0,-11.0,0.0,90857.0
02:27:56,AUTO,0.0036049934569746256,-0.11737270094454288,0.31421448290348053,-0.12888211011886597,0.020070865750312805,-0.00942476000636816,-35.36261055,149.16549824999998,37871.0,111.5,10.0,17.5,-26.5,-22.0,-1009.5,-127.5,21.0,-8.5,63392.0
02:27:58,AUTO,0.006200153846293688,-0.08424063213169575,0.3152749836444855,-0.025525003671646118,0.05225497484207153,-0.03218023758381605,-35.362583,149.16550875000001,37506.5,188.5,36.5,24.0,-37.5,-27.0,-1010.0,-23.5,53.5,-30.5,35927.0
02:28:00,AUTO,0.007071714615449309,-0.03075104020535946,0.31396351754665375,-0.090874582529068,-0.006940916180610657,0.026570037938654423,-35.3625517,149.16552115000002,37057.0,159.5,28.0,24.0,-34.0,-24.0,-990.0,-90.0,-5.5,27.5,35927.0
02:28:01,AUTO,0.013665870064869523,0.0430391114205122,0.31363634020090103,0.059585586190223694,-0.19987765699625015,-0.03604170633479953,-35.3625385,149.16552560000002,36860.25,117.0,17.25,18.0,-24.5,-0.75,-1004.5,61.5,-198.25,-34.5,21119.0
02:28:02,AUTO,0.008139042125549167,-0.07665124954655766,0.31405097246170044,0.1551973521709442,0.08178505301475525,0.017523348331451416,-35.3625271,149.16553034999998,36666.5,161.5,36.0,20.5,-31.5,-11.0,-1013.0,156.5,83.0,18.5,21119.0
02:28:04,AUTO,0.014168769586831331,-0.072351960465312,0.3148529678583145,0.10723981261253357,0.12095209024846554,-0.006685152417048812,-35.36249635,149.16554305,36239.0,208.0,41.0,26.5,-48.0,-23.5,-1000.5,107.5,122.5,-5.0,21119.0
02:28:06,AUTO,0.021548982709646225,0.04271664842963219,0.3145696222782135,-0.27107443660497665,0.11615224927663803,-0.038216679356992245,-35.36246425,149.165554,35769.0,146.5,36.0,22.0,-32.5,-10.0,-1009.0,-269.5,117.5,-37.0,75956.0
02:28:08,AUTO,0.03726479131728411,-0.07337593287229538,0.3121195137500763,0.16013595461845398,0.037353888154029846,-0.014975801634136587,-35.36244145,149.1655612,35425.0,148.5,50.0,19.0,-35.5,-19.0,-989.0,160.0,39.0,-13.5,130793.0
02:28:10,AUTO,0.04489680007100105,-0.008930742740631104,0.3139532208442688,0.5504101812839508,0.04653429239988327,-0.0020746502559632063,-35.36241065,149.16557255,35008.0,160.5,65.5,22.0,-38.0,2.5,-1017.0,551.0,48.0,-0.5,130793.0
02:28:11,AUTO,0.022769751958549023,0.03814501641318202,0.313980333507061,-0.3966564778238535,0.1495097391307354,-0.027033410035073757,-35.362396875,149.165578525,34791.5,137.25,57.75,19.25,-31.75,-37.25,-1011.0,-396.0,150.75,-25.0,52650.0
02:28:12,AUTO,0.03638703655451536,-0.07448980840854347,0.3112275004386902,0.41367150843143463,-0.13391921296715736,-0.03420325182378292,-35.3623859,149.16558245,34622.5,114.5,52.0,20.0,-27.5,7.0,-992.0,414.0,-132.5,-32.0,52650.0
02:28:14,AUTO,0.04257179796695709,-0.04959216108545661,0.3116583824157715,0.04210019111633301,0.04595814645290375,-0.007193799130618572,-35.3623585,149.1655922,34237.5,164.0,74.5,22.5,-33.5,-26.5,-1005.5,43.5,47.0,-4.5,52650.0
02:28:16,AUTO,0.022361677139997482,0.00493292510509491,0.3138648718595505,0.6790956258773804,0.12567602470517159,0.004051921423524618,-35.362329450000004,149.16560594999999,33805.0,142.5,60.0,24.0,-29.5,13.5,-990.5,680.5,126.5,6.0,79048.0
02:28:18,AUTO,-0.001731767551973462,-0.014750466216355562,0.3121485263109207,0.2761038839817047,0.05283973924815655,-0.009698312496766448,-35.3623117,149.1656157,33502.5,88.5,22.5,12.5,-17.0,-5.5,-997.5,277.0,54.5,-7.5,105446.0
02:28:20,AUTO,-0.005153528647497296,0.03147466853260994,0.3120430260896683,0.7277648448944092,0.027196684386581182,0.0026780744083225727,-35.36229935,149.1656217,33335.0,49.0,-3.0,5.5,-6.0,30.5,-1013.0,729.0,28.0,3.5,105446.0
02:28:21,AUTO,-0.02334184688515961,0.04018540307879448,0.3119224011898041,-0.0462627112865448,-0.020465777721256018,0.0022129365825094283,-35.362297174999995,149.16562365,33305.5,14.0,-19.75,1.25,1.25,-9.75,-1009.0,-46.25,-18.75,3.5,38660.0
02:28:22,AUTO,-0.03938581980764866,0.004134397022426128,0.3118644952774048,-0.007969840429723263,-0.03114953450858593,-0.0008199629373848438,-35.3622977,149.16562495,33316.5,3.5,-33.5,0.0,2.5,1.5,-997.5,-8.0,-29.0,1.0,38660.0
02:28:24,RTL,-0.010664266534149647,0.005228990688920021,0.31311754882335663,-0.05039052665233612,-0.002900606719776988,0.00029206305043771863,-35.36229745,149.1656245,33390.5,12.5,-33.5,-13.5,-2.5,-4.5,-1022.0,-51.5,-1.0,1.5,38660.0
02:28:26,RTL,0.011223930399864912,0.002778885420411825,0.3127056658267975,-0.06550084613263607,-0.0016728161717765033,0.003627791302278638,-35.36229645,149.16562140000002,34442.5,2.0,-15.0,-80.5,-3.0,1.5,-1014.5,-65.0,-0.5,5.0,57097.0
02:28:28,RTL,0.022906887345016003,0.005208084359765053,0.31247927248477936,0.15538177639245987,-0.0002579325810074806,0.0021734446054324508,-35.36229565,149.16561860000002,36091.0,-6.0,10.5,-68.5,-1.0,13.0,-978.5,155.0,1.0,4.0,75534.0
02:28:30,RTL,0.019454824272543192,0.008208137936890125,0.3115771859884262,-0.16039738059043884,0.0001708306954242289,0.0016888206591829658,-35.3622953,149.1656179,36942.5,-11.0,20.5,-10.5,-0.5,-6.5,-969.0,-160.5,1.0,3.0,75534.0
02:28:31,RTL,0.018525653518736362,0.006804400007240474,0.3121580556035042,0.2258987370878458,-0.0005187557253520936,0.0024548189830966294,-35.362295325,149.165617875,36963.75,-12.25,23.0,4.75,0.0,25.0,-992.5,227.0,1.0,4.25,279688.0
02:28:32,RTL,0.019968646112829447,0.006876840488985181,0.3118765950202942,0.10551577806472778,-0.0014557989779859781,0.001119690714403987,-35.3622954,149.16561795,36942.0,-11.5,22.5,-5.5,0.5,-0.5,-1044.5,106.0,0.0,2.5,279688.0
02:28:34,RTL,0.00858120946213603,0.006737117422744632,0.312929704785347,-0.35447533428668976,0.0037303552962839603,-0.0010400126921012998,-35.36229565,149.16561835,37635.0,-9.5,21.5,-52.0,1.5,-15.5,-991.0,-353.0,5.0,1.0,279688.0
02:28:36,RTL,0.001612129737623036,0.005729652475565672,0.3119283765554428,-0.10678592324256897,-0.0016087848925963044,-0.0014135184464976192,-35.362296150000006,149.1656196,38161.5,-5.5,11.5,1.5,0.0,-0.5,-997.0,-105.0,0.0,0.5,142032.0
02:28:38,RTL,-0.0021220307098701596,0.005211552372202277,0.31246110796928406,-0.13537374138832092,0.002572236699052155,0.0009000948630273342,-35.36229645,149.16562019999998,38335.5,-2.5,7.5,-36.0,1.0,6.0,-1033.0,-134.0,4.0,2.5,4376.0
02:28:40,RTL,-0.005037412804085761,0.005893220193684101,0.3122105896472931,-0.07451389729976654,0.002242691582068801,0.000853135425131768,-35.3622967,149.16562125000002,39241.5,0.0,-2.0,-27.0,0.0,-5.0,-959.5,-73.0,3.5,2.5,4376.0
02:28:41,RTL,-0.0009788770767045207,0.0035447360714897513,0.3119407296180725,-0.17376705817878246,-0.005220378166995943,-0.00046816113172098994,-35.3622967,149.165621125,39360.75,0.0,-2.75,-0.25,-0.5,4.75,-999.5,-172.0,-3.0,1.25,82302.0
02:28:42,RTL,0.006184115045471117,0.002536343759857118,0.31154170632362366,-0.04225878417491913,-0.0018039060523733497,0.0021522757597267628,-35.3622967,149.16562075000002,39351.0,0.0,-1.5,-4.5,-1.5,-6.5,-1024.0,-41.0,0.0,4.0,82302.0
02:28:44,RTL,0.01134960213676095,0.005084067350253463,0.31254683434963226,0.03725915402173996,-0.0022615467896685004,0.0023944807471707463,-35.3622963,149.16561965,40026.5,-2.0,6.0,-55.0,0.0,10.5,-999.0,39.5,-1.0,4.0,82302.0
02:28:46,RTL,0.0008462212863378227,0.006656690966337919,0.3118951916694641,-0.31147661805152893,-0.0011507475282996893,0.0017451511230319738,-35.3622961,149.1656195,40656.0,-4.0,9.0,-6.0,0.0,-5.0,-999.0,-309.0,0.0,4.0,86141.5
02:28:48,RTL,0.0025926326343324035,0.005945757497102022,0.31234049797058105,-0.16121659924586615,-0.0004272452012325327,-0.0012865597382187843,-35.36229623333333,149.16562,40731.666666666664,-3.6666666666666665,7.333333333333333,-21.666666666666668,1.0,-11.333333333333334,-1039.6666666666667,-159.33333333333334,1.0,1.0,89981.0
02:28:50,RTL,0.00045858515659347177,0.0059178718365728855,0.31227409839630127,0.3729601800441742,-0.0020500519312918186,-0.003975318279117346,-35.3622965,149.165621,41560.0,-1.0,0.0,-53.0,0.0,8.0,-970.0,374.0,0.0,-1.0,89981.0
02:28:51,RTL,-0.0014628006028942764,0.004669769899919629,0.31206227093935013,-0.035863496363162994,-0.0017129192710854113,0.0009588375687599182,-35.362296675,149.1656213,41944.0,-0.25,-3.5,-9.0,0.0,-4.5,-973.5,-34.5,0.25,2.75,178121.0
02:28:52,RTL,-0.0062314082169905305,0.004870373290032148,0.312345027923584,0.1645745262503624,0.0021671400172635913,-0.0031737167737446725,-35.3622967,149.16562134999998,41962.0,0.0,-2.5,3.5,0.0,27.0,-991.0,167.5,3.5,-1.0,178121.0
02:28:54,RTL,0.005701800459064543,0.003439322696067393,0.31227099895477295,0.1493970789015293,0.002934238233137876,-0.0005809327703900635,-35.3622967,149.165621,42132.0,0.0,-3.0,-38.5,0.0,-1.5,-1039.0,150.5,4.5,1.0,178121.0
02:28:56,RTL,-5.8718491345644e-05,0.006021744338795543,0.31164535880088806,-0.0811794102191925,0.0009258773643523455,-0.00040739448741078377,-35.3622967,149.1656212,43104.5,0.0,-3.5,-25.0,0.5,-13.5,-948.0,-80.5,2.5,1.5,157830.0
02:28:58,RTL,0.0025451963010709733,0.0029480289667844772,0.3121809959411621,0.12404627352952957,0.002967317996080965,0.000398050993680954,-35.3622967,149.16562075000002,43162.0,0.0,-1.0,0.0,0.0,21.5,-1020.0,126.5,4.5,2.5,137539.0
02:29:00,RTL,-0.0007041123462840915,0.005513200536370277,0.3124680817127228,-0.23139352351427078,0.00406320026377216,0.001210274058394134,-35.3622965,149.1656206,43812.0,0.0,0.0,-60.0,0.0,-10.0,-1003.0,-229.0,5.5,3.0,137539.0
02:29:01,RTL,0.0005353888846002519,0.006817250745370984,0.3123738244175911,-0.06424319511279464,0.0015157816815190017,0.0005932016647420824,-35.3622965,149.1656207,44425.75,-1.25,0.5,-28.25,0.0,-0.25,-962.25,-62.25,3.0,2.5,124291.0
02:29:02,RTL,0.0009391513885930181,0.006475163623690605,0.3121007829904556,-0.010324805974960327,-0.0013161994284018874,0.0006345947040244937,-35.3622965,149.16562095,44547.5,-1.0,-1.0,-2.5,0.0,-16.5,-969.5,-9.5,1.0,3.0,124291.0
02:29:04,RTL,-0.008134385105222464,0.004920860519632697,0.3120971769094467,-0.3453187048435211,-0.000627045170404017,-0.0005869431188330054,-35.362296549999996,149.16562115,44590.5,-0.5,-3.0,-24.0,0.0,-12.0,-1049.0,-343.0,1.0,1.5,124291.0
02:29:06,RTL,-0.003432254074141383,0.006898478837683797,0.31203168630599976,0.10551176220178604,0.0031360818538814783,-6.275979103520513e-05,-35.3622967,149.16562175,45560.5,0.0,-6.0,-43.5,0.5,-4.5,-962.0,107.0,4.5,1.5,101867.0
02:29:08,RTL,-0.002749950857833028,0.0024479165440425277,0.3122255206108093,-0.1980607658624649,-0.0005697592860087752,0.0005331195425242186,-35.3622967,149.1656212,45799.0,0.0,-6.0,3.0,0.5,10.0,-1002.5,-196.0,2.0,2.5,79443.0
02:29:10,RTL,0.003762416890822351,0.0047650879714637995,0.3120838403701782,-0.009990602731704712,0.006640563253313303,0.001080088666640222,-35.3622966,149.1656206,46155.0,0.0,0.0,-50.0,-0.5,-5.0,-1030.0,-9.0,8.5,3.5,79443.0
02:29:11,RTL,0.010132630821317434,0.005531695205718279,0.31207380443811417,-0.06097067892551422,-0.0019320061255712062,0.0014519849210046232,-35.362296325,149.165620175,46822.25,-1.25,1.0,-41.25,-0.75,-6.75,-966.25,-59.75,0.0,3.5,126870.0
02:29:12,RTL,0.016655511688441038,0.004310093354433775,0.3121338486671448,0.40865733474493027,-0.0012858164263889194,0.0018141410546377301,-35.3622962,149.16561965,47048.5,-3.0,4.5,-12.5,-0.5,27.5,-970.0,410.5,1.0,3.5,126870.0
02:29:14,RTL,0.020021981559693813,0.004202418960630894,0.3121447414159775,0.3371038679033518,-0.0007425558287650347,0.0007416026201099157,-35.362296,149.16561875000002,47059.5,-5.0,14.0,-7.5,-0.5,7.0,-1033.5,338.0,1.5,3.0,126870.0
02:29:16,RTL,0.006349473260343075,0.006986029678955674,0.31282931566238403,0.11706148833036423,-0.0014748468529433012,0.0011129517806693912,-35.36229605,149.16561935,47871.5,-5.0,13.5,-52.5,0.5,8.0,-985.5,119.5,1.0,3.5,126870.0
02:29:17,RTL,-0.008031400153413415,0.008574853651225567,0.3125738352537155,-0.25441793352365494,-0.0016328072233591229,4.2057858081534505e-05,-35.362296275,149.16562050000002,48267.25,-3.75,6.75,-8.75,2.0,-5.75,-974.0,-251.5,0.25,2.75,41987.0
02:29:18,RTL,-0.0012765389983542264,0.007651073159649968,0.3121161162853241,0.49961966276168823,-0.003863555146381259,0.001152779208496213,-35.362296549999996,149.1656214,48287.5,-2.5,1.0,3.0,2.5,0.0,-989.5,500.5,-1.0,3.0,41987.0
02:29:20,RTL,-0.001443764311261475,0.002588455332443118,0.312189444899559,0.05818362534046173,-0.00487145921215415,0.0001300692092627287,-35.3622968,149.16562155,48483.5,0.0,-7.5,-39.5,-0.5,13.0,-1037.0,60.5,-2.0,2.5,41987.0
02:29:22,RTL,0.0032821301138028502,0.004807672463357449,0.31211812794208527,-0.518935352563858,0.0014117204118520021,-0.000188942882232368,-35.3622965,149.16562025000002,49475.5,-0.5,0.0,-25.5,0.0,-20.5,-962.5,-517.0,3.0,2.5,73852.0
02:29:24,RTL,0.0011776821920648217,0.0045405360870063305,0.3120458275079727,-0.3454955294728279,0.0027029778575524688,-0.00125923752784729,-35.3622963,149.1656197,49538.0,-3.0,6.0,1.5,-0.5,1.5,-1012.5,-342.0,4.5,1.0,105717.0
02:29:26,RTL,0.00833010533824563,0.004885215777903795,0.31238384544849396,0.07124510407447815,0.002769766724668443,0.0018678921042010188,-35.3622963,149.16562,50152.5,-3.0,5.0,-58.5,-0.5,-1.0,-1008.0,73.0,4.5,4.5,105717.0
02:29:27,RTL,0.01058294391259551,0.005720982444472611,0.31261570006608963,0.24971669155638665,0.0010679272236302495,0.0012514961417764425,-35.3622963,149.1656199,50746.75,-3.0,5.5,-26.25,0.0,5.0,-965.5,251.5,3.25,3.75,73523.0
02:29:28,RTL,-0.0022055445006117225,0.005804646527394652,0.31270937621593475,-0.6330466568470001,0.0018478265265002847,-0.0004100683145225048,-35.3622963,149.16562005,50860.5,-3.0,5.5,-2.0,0.0,-29.0,-976.0,-631.0,4.0,2.0,73523.0
02:29:30,RTL,-0.013632677961140871,0.006324450485408306,0.3124925047159195,-0.06917989253997803,0.00033971050288528204,0.0003796789678744972,-35.362296650000005,149.16562165,50896.0,-0.5,-2.0,-22.5,0.5,7.5,-1043.0,-66.5,2.5,2.5,73523.0
02:29:32,RTL,-0.009471135679632425,0.0040098740719258785,0.31258681416511536,-0.45437799394130707,0.006655798992142081,-0.0015093808760866523,-35.3622969,149.1656218,51851.0,1.0,-9.5,-43.0,0.0,-14.0,-963.0,-451.5,9.0,1.0,73523.0
02:29:33,RTL,0.003634292515926063,0.003939526213798672,0.3120241016149521,0.49194764625281096,-0.0010418814490549266,0.0008004048722796142,-35.3622969,149.16562155,52095.5,1.0,-7.0,-2.0,0.5,17.25,-991.0,493.75,1.25,3.25,129999.0
02:29:34,RTL,-0.006471291184425354,0.005024705547839403,0.3123758137226105,-0.4312382787466049,-0.00026540295220911503,0.0012693788157775998,-35.3622968,149.1656214,52085.0,1.0,-6.5,2.0,0.0,-17.5,-1000.0,-429.0,2.0,3.5,129999.0
02:29:36,RTL,0.002380938021815382,0.004181193187832832,0.3118533790111542,0.08495496958494186,0.0025150850415229797,0.0017741299234330654,-35.3622967,149.1656211,52467.0,0.0,-4.0,-52.5,0.0,-4.0,-1031.5,86.5,4.5,4.5,129999.0
02:29:38,RTL,-0.0019181782845407724,0.00638420507311821,0.3121192902326584,0.019117899239063263,-0.0031751453643664718,0.0017017583595588803,-35.3622967,149.1656214,53426.0,0.0,-5.0,-14.5,-1.5,-17.5,-953.5,20.5,-0.5,4.0,112840.0
02:29:40,RTL,0.003393943887203932,0.004546793177723885,0.3123973160982132,0.2979280799627304,0.0020563886500895023,-1.2912554666399956e-05,-35.3622966,149.165621,53437.0,-0.5,-2.5,-8.0,-1.0,20.5,-1041.0,299.5,4.5,2.5,95681.0
02:29:42,RTL,0.0148575184866786,0.004122650949284434,0.3129952549934387,0.1986707365140319,-0.0009357328526675701,0.00025049829855561256,-35.3622962,149.16561984999998,54259.5,-3.0,2.0,-56.5,-1.0,14.5,-984.5,200.5,1.5,3.0,95681.0
02:29:43,RTL,0.015380756463855505,0.005190506926737726,0.3124775215983391,0.21495870873332024,0.0017238783184438944,-0.00015895126853138208,-35.3622961,149.1656192,54721.75,-4.75,9.0,-13.25,-0.25,11.25,-970.0,217.0,3.75,2.5,2255.0
02:29:44,RTL,0.009809899143874645,0.0053998990915715694,0.3121856451034546,-0.36851948872208595,-0.0002964144805446267,-0.0007448139367625117,-35.3622961,149.1656193,54761.5,-5.0,10.5,1.5,0.0,-27.0,-989.0,-367.0,2.0,2.5,2255.0
02:29:46,RTL,0.011578833218663931,0.002904853201471269,0.3122050315141678,-0.35824909806251526,-0.0003448177594691515,0.0030410364270210266,-35.3622961,149.1656191,54900.0,-5.5,10.5,-34.0,-1.0,-13.5,-1034.5,-355.5,2.0,5.5,2255.0
02:29:48,RTL,0.020281146746128798,0.005167054478079081,0.31247225403785706,-0.2053702063858509,0.0011577362311072648,-0.0022947117686271667,-35.3622959,149.16561835,55800.0,-6.0,17.5,-21.0,0.0,-21.5,-955.5,-203.5,3.0,0.5,60658.0
02:29:50,RTL,0.011496554128825665,0.005063004093244672,0.31212255358695984,0.1822122409939766,0.001585788675583899,0.0012009057682007551,-35.362296,149.16561875000002,55849.5,-6.0,17.5,2.0,0.5,20.5,-1020.5,186.0,4.0,4.0,119061.0
02:29:52,RTL,0.010170604335144162,0.005245777312666178,0.31183671951293945,-0.15376219991594553,0.0022974616731517017,0.0012210652930662036,-35.3622961,149.1656193,56437.0,-6.0,12.5,-51.0,0.0,-14.0,-1001.0,-150.5,5.0,4.0,119061.0
02:29:53,RTL,0.015636521857231855,0.0051483429269865155,0.3126460164785385,0.2427588254213333,-0.00024091708473861217,0.0007721476722508669,-35.3622961,149.165619275,56922.5,-5.0,12.0,-15.25,0.0,5.0,-965.5,246.0,2.25,3.25,256981.0
02:29:54,RTL,-0.0005516102537512779,0.0064771578181535006,0.31251582503318787,-0.1845223754644394,0.0074283587746322155,-0.001904833596199751,-35.3622962,149.1656196,56983.5,-5.0,12.5,2.0,0.0,3.0,-987.0,-180.5,10.0,1.0,256981.0
02:29:56,RTL,0.004405009676702321,0.0049792807549238205,0.31251703202724457,0.2958177924156189,-0.0026501836255192757,4.601676482707262e-05,-35.3622964,149.1656207,57062.5,-2.5,1.5,-28.5,0.0,12.5,-1041.0,299.0,0.0,3.0,256981.0
02:29:58,RTL,0.013060451252385974,0.0038234589155763388,0.3122432976961136,0.23078349977731705,0.00041561946272850037,0.0033675405429676175,-35.3622963,149.1656198,57991.5,-3.0,4.5,-32.0,0.0,16.5,-957.0,235.0,3.0,6.0,225763.0
02:30:00,RTL,0.02298184297978878,0.004118667216971517,0.3118896484375,0.5922609865665436,-0.0003842154983431101,0.004123027436435223,-35.3622962,149.1656192,58097.0,-5.0,11.5,2.0,0.0,25.0,-1020.5,596.0,2.5,7.0,194545.0
02:30:02,RTL,0.009832861367613077,0.006362180458381772,0.3129303455352783,0.19309479370713234,0.001478948979638517,0.00017289561219513416,-35.362296,149.1656192,58681.5,-5.5,13.5,-55.5,0.0,15.5,-1003.0,197.5,4.0,3.0,194545.0
02:30:03,RTL,0.010765856713987887,0.006998219178058207,0.3122863844037056,-0.007504723966121674,0.002218887908384204,0.0008553722873330116,-35.362295925,149.165619325,59257.75,-6.0,11.5,-25.75,0.25,1.5,-964.25,-3.25,4.75,4.0,66445.0
02:30:04,RTL,0.013132828986272216,0.0069271838292479515,0.31270530819892883,-0.028583720326423645,-0.003051897627301514,0.0012712734751403332,-35.362296,149.1656196,59369.0,-6.0,11.0,-2.0,2.5,-18.5,-984.5,-25.0,0.0,4.0,66445.0
02:30:06,RTL,-0.00018466846086084843,0.005334341432899237,0.31294503808021545,-0.33179936558008194,0.0010674878722056746,0.0005001984536647797,-35.3622963,149.16562025000002,59426.0,-4.0,6.0,-25.5,0.0,-16.5,-1040.5,-327.5,3.5,3.0,66445.0
02:30:08,RTL,-0.004852656391449273,0.005276549840345979,0.3124982863664627,-0.4107521325349808,0.002195922890678048,0.0014003479154780507,-35.3622965,149.16562095,60376.5,-2.0,-1.0,-37.5,0.0,-25.0,-957.5,-406.0,4.5,4.5,70314.5
02:30:10,RTL,-0.0014718548627570271,0.005367298377677798,0.31258848309516907,0.06452052295207977,0.0017105131410062313,-0.0011372460285201669,-35.3622965,149.16562065,60553.0,-1.0,1.5,3.0,0.5,16.5,-992.0,70.5,4.5,2.0,74184.0
02:30:12,RTL,0.0060598645359277725,0.0036960936849936843,0.31209762394428253,0.07391565293073654,-0.001808668952435255,0.001114656450226903,-35.3622965,149.16562075000002,60985.0,-1.0,-0.5,-52.5,-1.0,-1.5,-1016.0,78.0,1.0,4.0,74184.0
02:30:13,RTL,0.0103817586787045,0.0035015890607610345,0.3120787963271141,-0.10981834679841995,0.0004770933883264661,0.0020058893132954836,-35.362296449999995,149.165620025,61617.5,-1.5,2.0,-32.75,-0.5,-4.5,-965.0,-104.75,3.25,5.0,117433.0
02:30:14,RTL,0.017923906445503235,0.003765500267036259,0.3127530515193939,0.6069229543209076,-0.002141489996574819,0.0006250985898077488,-35.3622963,149.1656195,61784.5,-3.0,6.5,-4.5,0.0,30.5,-978.5,611.5,0.5,4.0,117433.0
02:30:16,RTL,0.010757072130218148,0.004974799696356058,0.3127181828022003,-0.17720189690589905,0.0011198734864592552,-0.0002727919491007924,-35.3622962,149.16561945,61772.5,-3.0,10.0,-10.5,0.5,-22.0,-1033.5,-172.5,3.5,3.0,117433.0
02:30:18,RTL,-0.0010235629742965102,0.00690374500118196,0.3127111792564392,0.23431848175823689,-0.005678273970261216,0.0013519185595214367,-35.362296349999994,149.1656207,62605.0,-3.0,3.0,-47.0,1.0,11.0,-978.5,239.5,-2.0,4.5,157468.0
02:30:20,RTL,-0.005277169984765351,0.00643176375888288,0.312656968832016,-0.022464647889137268,0.00046529783867299557,-0.003453153418377042,-35.36229685,149.16562195,62912.5,0.5,-5.0,3.0,3.0,-19.5,-997.0,-18.5,3.0,0.0,197503.0
02:30:22,RTL,-0.016414843499660492,0.003315257024951279,0.31236179172992706,-0.06467140465974808,-0.004364537075161934,0.0021279148058965802,-35.3622972,149.16562305000002,63205.0,4.0,-17.5,-46.5,-1.0,4.5,-1037.0,-59.5,-0.5,5.5,197503.0
02:30:23,RTL,0.0004782590549439192,0.002215118904132396,0.3121689707040787,-0.021510306745767593,0.00021064718021079898,0.0010883501381613314,-35.362297025,149.16562197500002,63879.5,3.0,-14.25,-44.25,-2.0,2.75,-973.25,-16.75,2.75,4.25,63518.0
02:30:24,RTL,0.0061043172609061,0.0019606174319051206,0.31163474917411804,-0.3808375597000122,0.0034388446947559714,0.0023974719224497676,-35.36229675,149.165621,64137.0,1.5,-9.5,-15.5,-3.0,-9.0,-958.5,-376.0,6.0,6.0,63518.0
02:30:26,RTL,0.02470231708139181,0.0035296418936923146,0.31268642842769623,0.39134926348924637,0.0012582993367686868,0.0010693534277379513,-35.362295950000004,149.16561819999998,64143.5,-4.0,14.0,-3.0,-0.5,27.5,-1038.5,397.0,4.0,4.0,63518.0
02:30:28,RTL,-0.013313423376530409,0.009034143295139074,0.31308282911777496,-0.34909142553806305,-0.0014207641361281276,0.0005310394335538149,-35.3622961,149.16562005,64873.5,-5.0,12.5,-53.5,2.0,-11.5,-998.5,-343.5,2.0,4.0,55567.5
02:30:30,RTL,-0.003040084207896143,0.003856021910905838,0.3124964237213135,0.5514713376760483,-0.0008226993959397078,0.0036437715170904994,-35.3622967,149.16562145,65359.5,-0.5,-3.0,2.0,0.5,34.0,-1007.5,557.0,2.5,7.0,47617.0
02:30:32,RTL,0.005209866678342223,0.002408909145742655,0.312686488032341,0.2895605117082596,-0.007440670975483954,0.00025149411521852016,-35.36229675,149.165621,65520.5,0.0,-2.0,-37.0,0.0,13.0,-1046.0,294.0,-4.0,3.5,47617.0
02:30:33,RTL,0.00172281515551731,0.003424729860853404,0.31261248141527176,0.01816817093640566,-0.0005009257583878934,0.0010056492174044251,-35.3622968,149.16562084999998,66178.25,0.75,-1.5,-52.5,0.0,-0.25,-985.25,23.0,2.75,4.25,55240.0
02:30:34,RTL,0.004867059760726988,0.003975584404543042,0.3127456307411194,0.37010280042886734,-0.0017074811039492488,-0.0023609757190570235,-35.3622968,149.1656208,66515.5,0.0,-0.5,-28.5,0.0,18.0,-956.0,374.5,1.5,1.0,55240.0
02:30:36,RTL,0.004541409492958337,0.005751685006543994,0.31343257427215576,0.4121156483888626,0.001333177788183093,-0.0001192665658891201,-35.3622968,149.16562125000002,66598.5,1.0,-2.5,1.0,1.0,3.0,-1013.5,416.0,4.5,3.0,55240.0
02:30:38,RTL,-0.01618230016902089,0.006028250325471163,0.31326770782470703,0.27695444971323013,-0.003007134539075196,0.0007666139863431454,-35.36229715,149.16562295,67198.5,3.5,-13.0,-55.0,0.5,15.0,-1003.5,281.0,0.0,4.0,32625.0
02:30:40,RTL,-0.023104414033393066,0.0037615837063640356,0.31311556696891785,-0.07786302765210469,0.0016154386879255374,0.00013657046171526113,-35.36229743333333,149.1656236,67843.0,6.0,-22.333333333333332,-0.6666666666666666,0.0,9.333333333333334,-984.6666666666666,-72.66666666666667,4.333333333333333,3.3333333333333335,10010.0
02:30:42,RTL,-0.013333184644579887,0.004411524937798579,0.31259089708328247,0.2374364733695984,-0.0025079527404159307,-3.3182945723334946e-05,-35.36229753333333,149.16562386666666,67886.33333333333,8.0,-25.666666666666668,-22.0,0.6666666666666666,4.0,-1045.6666666666667,240.33333333333334,0.6666666666666666,3.3333333333333335,10010.0
02:30:43,RTL,-0.02271239769955476,0.004010715521872044,0.3133845428625743,0.008716293921073278,0.002938954120812317,-0.0012981276959180832,-35.36229766666667,149.16562433333334,68432.33333333333,9.0,-28.666666666666668,-56.0,0.3333333333333333,-2.3333333333333335,-1001.0,11.333333333333334,5.666666666666667,2.3333333333333335,5109.0
02:30:44,RTL,-0.022475964079300564,0.0044125746935606,0.31263911724090576,0.04025367399056753,-0.0029182066985716424,0.0003868575052668651,-35.3622977,149.16562446666669,68829.66666666667,9.666666666666666,-31.0,-42.333333333333336,0.0,2.0,-967.6666666666666,43.0,0.3333333333333333,3.6666666666666665,5109.0
02:30:46,RTL,-0.008392145546774069,0.00010487109102541581,0.31225669384002686,-0.5103843460480372,-0.0008612988361467918,0.002334755379706621,-35.362297399999996,149.16562273333332,69063.66666666667,7.666666666666667,-25.0,4.0,-1.3333333333333333,-15.0,-994.3333333333334,-507.3333333333333,2.3333333333333335,5.333333333333333,5109.0
02:30:48,RTL,-0.0009539573220536113,0.002062748729561766,0.3126201033592224,-0.08508502691984177,-0.00026787569125493366,0.0019023409113287926,-35.36229693333333,149.16562106666666,69430.66666666667,3.6666666666666665,-7.666666666666667,-50.0,-0.6666666666666666,1.3333333333333333,-1030.0,-82.33333333333333,3.3333333333333335,5.333333333333333,29376.0
02:30:50,RTL,0.0032683129005211717,0.0028133333350221315,0.3127126495043437,-0.3666587968667348,0.0007186476917316517,0.0012443119970460732,-35.3622966,149.1656203,70268.66666666667,0.3333333333333333,-1.3333333333333333,-9.666666666666666,-0.6666666666666666,-14.0,-963.0,-364.3333333333333,3.3333333333333335,4.666666666666667,53643.0
02:30:52,RTL,0.00953571405261755,0.0018780847312882543,0.31315918763478595,-0.22603027522563934,0.0020449222841610513,0.00016689424713452658,-35.36229636666666,149.16561893333332,70287.0,-1.3333333333333333,10.666666666666666,-12.666666666666666,0.0,0.0,-1034.0,-222.66666666666666,4.666666666666667,4.0,53643.0
02:30:53,RTL,0.00865917761499683,0.003300800221040845,0.3133378823598226,-0.08535439272721608,0.0033257724717259407,0.001279212844868501,-35.3622963,149.16561903333334,70730.33333333333,-1.6666666666666667,13.666666666666666,-53.666666666666664,0.0,-3.6666666666666665,-1018.3333333333334,-82.0,6.0,4.666666666666667,23356.0
02:30:54,RTL,0.0012919768147791426,0.00524903383726875,0.31356484691301983,-0.17649572590986887,0.0021137040263662734,0.00043353671208024025,-35.36229636666666,149.16561950000002,71148.66666666667,-1.0,11.666666666666666,-49.333333333333336,0.6666666666666666,-6.666666666666667,-974.6666666666666,-173.66666666666666,4.333333333333333,4.0,23356.0
02:30:56,RTL,0.00024875812232494354,0.0044473133360346155,0.31287358204523724,0.42649271090825397,-0.002287115824098388,0.0009041135199368,-35.36229676666667,149.16562103333334,71507.66666666667,0.0,1.3333333333333333,3.6666666666666665,0.3333333333333333,15.666666666666666,-997.0,429.0,0.6666666666666666,4.333333333333333,23356.0
02:30:58,RTL,0.005518783815205097,0.0010822494708312054,0.3128785789012909,0.19895839442809424,-0.0006246738679086169,0.001696432086949547,-35.362297,149.16562116666668,71737.66666666667,2.0,-3.3333333333333335,-42.666666666666664,-0.3333333333333333,6.666666666666667,-1040.6666666666667,201.33333333333334,2.0,5.0,23356.0
02:30:59,RTL,0.009213873340437809,0.0014771272350723545,0.3130444288253784,-0.009310906132062277,0.000564618268981576,0.00028004334308207035,-35.36229683333334,149.16562036666667,72409.66666666667,1.6666666666666667,-0.3333333333333333,-49.0,-0.3333333333333333,2.0,-977.3333333333334,-6.333333333333333,3.0,3.6666666666666665,68464.0
02:31:00,RTL,0.015100440010428429,0.0027381052107860646,0.3130880296230316,0.4151589075724284,-0.002144574304111302,-0.001038933793703715,-35.36229673333333,149.16562006666666,72686.66666666667,0.6666666666666666,3.0,-20.0,0.0,19.0,-969.3333333333334,417.0,0.6666666666666666,2.6666666666666665,68464.0
02:31:02,RTL,0.006334567675366998,0.0029377504251897335,0.31271780530611676,-0.3144309875400116,0.00016589718870818615,0.0008519040420651436,-35.3622966,149.16561976666665,72722.33333333333,0.0,5.333333333333333,-1.0,0.0,-21.0,-1022.3333333333334,-311.6666666666667,2.6666666666666665,4.666666666666667,68464.0
02:31:04,RTL,0.003816454205662012,0.004391162966688474,0.31307509541511536,0.1307282050450643,-0.0010836721242715914,0.00041554464648167294,-35.3622966,149.16562016666668,73393.33333333333,-0.3333333333333333,6.333333333333333,-53.0,0.0,3.6666666666666665,-998.6666666666666,133.66666666666666,1.3333333333333333,3.6666666666666665,66852.0
02:31:06,RTL,-0.003210825535158316,0.0035691145652284226,0.3126760423183441,-0.5769321322441101,-0.0026861410588026047,-0.00039229681715369225,-35.3622966,149.1656202,73928.33333333333,-1.0,3.3333333333333335,1.6666666666666667,0.3333333333333333,-25.0,-988.6666666666666,-573.3333333333334,0.3333333333333333,3.3333333333333335,66852.0
02:31:08,RTL,0.0077548641711473465,0.0016550759901292622,0.31310440103212994,-0.08458947638670604,-0.0031998930110906563,0.0018609599986424048,-35.3622966,149.16561973333333,74044.0,-1.0,6.333333333333333,-32.0,-1.0,2.3333333333333335,-1040.3333333333333,-80.66666666666667,0.0,5.333333333333333,66852.0
02:31:09,RTL,0.008216284060229858,0.0027314629405736923,0.31330712636311847,-0.09404752038729687,0.001078040028611819,0.00019877489345769087,-35.3622965,149.16561946666664,74675.66666666667,-1.0,9.333333333333334,-56.666666666666664,0.0,-4.666666666666667,-989.6666666666666,-91.33333333333333,3.3333333333333335,4.0,82999.0
02:31:10,RTL,0.006512966472655535,0.0035743499950816235,0.31344513098398846,-0.020868280281623203,0.0013826112262904644,-0.0015561073863257964,-35.3622965,149.1656196,75051.66666666667,-1.0,9.333333333333334,-36.0,0.0,-7.333333333333333,-960.6666666666666,-17.333333333333332,4.0,2.0,82999.0
02:31:12,RTL,-0.008692250664656362,0.004005731238673131,0.31322195132573444,-0.12054561575253804,-0.0011987462639808655,0.0009597808433075746,-35.36229676666667,149.16562073333333,75205.66666666667,0.0,2.6666666666666665,3.6666666666666665,1.3333333333333333,6.333333333333333,-1003.6666666666666,-116.66666666666667,1.0,4.333333333333333,82999.0
02:31:14,RTL,-0.016512079474826653,0.003826766973361373,0.313248207171758,-0.015208942194779715,-0.00011139689013361931,0.000539309810847044,-35.3622973,149.1656224,75641.33333333333,5.0,-8.333333333333334,-53.0,0.3333333333333333,-7.0,-1020.3333333333334,-12.0,2.3333333333333335,3.6666666666666665,82999.0
02:31:15,RTL,-0.0156167671084404,0.003485499725987514,0.31307366490364075,-0.19221900900204977,0.0006931249517947435,-0.0007235659286379814,-35.3622975,149.165623,76287.0,7.0,-16.666666666666668,-35.0,-0.3333333333333333,-9.666666666666666,-963.6666666666666,-189.33333333333334,3.0,3.0,123581.0
02:31:16,RTL,-0.007457759852210681,0.0023934688263883195,0.31314824024836224,0.4304349770148595,-0.002635351304585735,0.001338344222555558,-35.3622975,149.16562296666666,76450.66666666667,7.0,-17.666666666666668,-6.666666666666667,0.0,17.333333333333332,-968.0,433.0,0.0,4.333333333333333,123581.0
02:31:18,RTL,0.0026833468582481146,2.6191090000793338e-05,0.3127708335717519,-0.01876529057820638,-0.0014494002098217607,0.0018016769705961149,-35.362297266666666,149.16562186666667,76462.66666666667,6.333333333333333,-14.666666666666666,-13.0,-0.6666666666666666,-4.333333333333333,-1041.0,-16.666666666666668,1.0,5.0,123581.0
02:31:20,RTL,0.011277136703332266,0.002042424981482327,0.3130783935387929,0.31133872270584106,-0.0007833870671068629,0.0011985973299791415,-35.36229676666667,149.1656203,77325.66666666667,2.0,-0.3333333333333333,-47.0,-0.3333333333333333,15.666666666666666,-975.6666666666666,313.3333333333333,1.6666666666666667,4.666666666666667,66922.0
02:31:22,RTL,0.015018923363337914,0.0013973059055084984,0.31348926822344464,-0.34404945373535156,0.0028699039636800685,0.00010901518786946933,-35.3622964,149.16561906666666,77658.66666666667,-0.6666666666666666,8.0,3.3333333333333335,-0.6666666666666666,-21.0,-993.0,-341.6666666666667,5.0,3.6666666666666665,66922.0
02:31:24,RTL,0.013635821950932344,0.0021927969064563513,0.3131859600543976,0.10109745555867751,-0.0012703861575573683,7.332124126454194e-05,-35.3622963,149.1656188,77909.33333333333,-2.0,15.0,-42.666666666666664,0.0,6.333333333333333,-1036.3333333333333,104.0,1.6666666666666667,3.3333333333333335,66922.0
02:31:25,RTL,0.013175702498604855,0.003185112106924256,0.3132626513640086,0.16547871877749762,-0.0018262799518803756,-0.00013759716724356016,-35.3622963,149.1656189,78559.33333333333,-2.6666666666666665,14.666666666666666,-44.0,0.0,4.666666666666667,-968.0,168.66666666666666,0.6666666666666666,3.3333333333333335,44584.0
02:31:26,RTL,0.011767142141858736,0.0032394372392445803,0.31365900238355,-0.17990347743034363,0.00016082683578133583,-0.000479839276522398,-35.3622963,149.1656188,78804.66666666667,-2.3333333333333335,14.333333333333334,-15.333333333333334,0.3333333333333333,-4.333333333333333,-959.0,-176.0,2.3333333333333335,3.0,44584.0
02:31:28,RTL,0.016974600963294506,0.0027899555085847774,0.3128916422526042,0.40509067972501117,-0.002569632139056921,-9.389151819050312e-05,-35.3622963,149.16561906666666,78822.33333333333,-3.0,13.333333333333334,-0.6666666666666666,0.0,17.0,-1020.3333333333334,408.3333333333333,0.0,3.3333333333333335,44584.0
02:31:30,RTL,0.011078999067346254,0.0033055372380961976,0.3135336736838023,-0.06001146137714386,0.0005921410629525781,-0.0011571945312122505,-35.3622963,149.16561893333332,79482.33333333333,-3.0,15.333333333333334,-52.666666666666664,0.3333333333333333,0.3333333333333333,-995.0,-56.0,2.6666666666666665,2.3333333333333335,44584.0
02:31:31,RTL,0.003133646173713108,0.00635117602845033,0.313773254553477,-0.05961240828037262,0.00162379276783516,-0.0009000132946918408,-35.362296333333326,149.16561959999999,79973.33333333333,-2.0,12.0,-14.333333333333334,1.3333333333333333,1.6666666666666667,-964.0,-55.333333333333336,3.6666666666666665,2.3333333333333335,170737.0
02:31:32,RTL,0.002810616046190262,0.006088693471004565,0.31387945016225177,-0.0030172293384869895,-0.0019952720031142235,-0.003622079578538736,-35.36229650000001,149.1656203,80017.66666666667,-1.6666666666666667,8.0,2.0,2.0,-16.0,-986.6666666666666,0.0,0.6666666666666666,0.0,170737.0
02:31:34,RTL,-0.017896305148800213,0.004198327272509535,0.3136526346206665,0.03578058381875356,-0.003400654143964251,3.80473987509807e-05,-35.3622972,149.16562259999998,80129.66666666667,3.3333333333333335,-8.666666666666666,-31.333333333333332,1.6666666666666667,0.6666666666666666,-1043.3333333333333,39.333333333333336,-0.6666666666666666,3.0,170737.0
02:31:36,RTL,-0.015884436822185915,0.002819834277033806,0.31343767046928406,0.10321337232987086,0.0015544466053446133,-0.0010524493797371786,-35.3622976,149.16562336666667,81090.0,7.0,-20.666666666666668,-31.666666666666668,0.0,10.666666666666666,-960.6666666666666,107.0,3.6666666666666665,2.0,26206.0
02:31:38,RTL,-0.002563542356559386,0.0016208889234500627,0.31304314732551575,0.23323804140090942,-0.0013303585195293028,0.0004336376053591569,-35.3622974,149.1656224666667,81204.33333333333,7.0,-16.666666666666668,2.0,0.0,2.0,-1011.6666666666666,235.66666666666666,1.0,3.6666666666666665,26206.0
02:31:40,RTL,-0.0019002601814766724,0.0013151889434084296,0.313143789768219,0.033816383530696235,-0.0016292079041401546,0.0011539715342223644,-35.36229716666667,149.1656217,81748.33333333333,5.333333333333333,-12.333333333333334,-56.666666666666664,-1.6666666666666667,5.666666666666667,-1015.6666666666666,37.0,1.0,4.333333333333333,26206.0
02:31:41,RTL,0.012941662377367416,0.0013947443415721257,0.31350772579511005,0.14992878337701163,0.0021530781717350087,-0.0015347518880541127,-35.36229683333334,149.16562050000002,82372.66666666667,2.3333333333333335,-3.6666666666666665,-30.333333333333332,-0.6666666666666666,12.666666666666666,-954.6666666666666,152.66666666666666,4.333333333333333,1.6666666666666667,5803.0
02:31:42,RTL,-0.00208284977513055,0.002583824098110199,0.3136155108610789,-0.5797235568364462,0.00204518965135018,0.0002650908815364043,-35.3622967,149.1656202,82498.33333333333,1.3333333333333333,0.3333333333333333,-3.6666666666666665,-1.0,-24.333333333333332,-970.6666666666666,-577.0,4.0,3.3333333333333335,5803.0
02:31:44,RTL,0.0034183839743491262,0.0019679305454095206,0.3131796419620514,-0.04153782563904921,-0.0018856402797003586,0.00010012959440549214,-35.3622966,149.1656201,82540.0,0.0,3.6666666666666665,-19.333333333333332,-0.3333333333333333,4.666666666666667,-1036.6666666666667,-38.333333333333336,0.3333333333333333,3.6666666666666665,5803.0
02:31:46,RTL,0.010657661749670902,0.0022374230126539865,0.31328778465588886,-0.351147602001826,0.0013098844792693853,0.0004855250008404255,-35.362296433333334,149.1656193,83415.33333333333,-0.6666666666666666,7.333333333333333,-36.0,-1.3333333333333333,-3.3333333333333335,-961.6666666666666,-347.6666666666667,3.3333333333333335,3.3333333333333335,5803.0
02:31:47,RTL,0.00831830631553506,0.003228376076246301,0.31377671162287396,-0.4960513611634572,0.0031382310359428325,-0.0027070708262423673,-35.3622963,149.1656189,83614.0,-2.6666666666666665,13.666666666666666,1.3333333333333333,0.0,-20.333333333333332,-990.6666666666666,-492.6666666666667,4.666666666666667,0.6666666666666666,78247.0
02:31:48,RTL,0.009103554456184307,0.0053703935506443186,0.3135853211085002,0.36363685224205256,0.001623328619947036,-0.0011998561676591635,-35.3622963,149.1656194,83597.0,-2.0,13.0,2.3333333333333335,1.0,10.0,-1001.0,366.6666666666667,3.3333333333333335,2.0,78247.0
02:31:50,RTL,-0.009158555728693804,0.004629714569697778,0.3134588102499644,0.046424977481365204,-0.0013272658300896485,-8.260031851629417e-05,-35.36229676666667,149.16562136666667,84073.0,0.0,0.0,-53.333333333333336,0.6666666666666666,1.0,-1018.0,49.666666666666664,1.0,3.0,78247.0
02:31:52,RTL,-0.007988950819708407,0.0024312542906651893,0.3132648468017578,-0.3510276253024737,-0.0004164222239827116,-0.0008897879937042793,-35.3622971,149.1656217,84832.33333333333,2.3333333333333335,-6.666666666666667,-5.333333333333333,0.6666666666666666,-12.666666666666666,-981.3333333333334,-348.0,1.6666666666666667,2.0,62202.0
02:31:54,RTL,0.004229708652322491,0.0005469780056349313,0.3134124477704366,0.2068971519668897,-0.0015245999675244093,-0.0007838501284519831,-35.362297,149.16562093333332,84869.0,3.0,-4.0,-16.333333333333332,0.0,16.666666666666668,-1046.3333333333333,210.0,0.6666666666666666,2.3333333333333335,62202.0
02:31:56,RTL,-0.0009337970210860173,0.0035611364680031934,0.31378887097040814,0.15426144997278848,-0.0024852327381571135,3.443735962112745e-05,-35.3622969,149.1656209,85750.33333333333,2.0,-0.6666666666666666,-42.0,0.0,9.0,-970.3333333333334,157.33333333333334,0.0,2.6666666666666665,62202.0
02:31:57,RTL,-0.015265043824911118,0.004687417919437091,0.3138629694779714,-0.31475790590047836,0.00017021945677697659,-0.0004292888722072045,-35.362297,149.16562150000001,86007.0,3.0,-3.6666666666666665,-1.3333333333333333,0.6666666666666666,-8.0,-967.3333333333334,-311.3333333333333,2.0,2.6666666666666665,23552.0
02:31:58,RTL,-0.008119175831476847,0.005593595405419667,0.31360698739687604,0.4521935172379017,-0.002469272663195928,-0.004361368094881375,-35.3622971,149.16562223333335,85993.33333333333,3.6666666666666665,-7.333333333333333,3.3333333333333335,2.6666666666666665,11.333333333333334,-1008.0,454.3333333333333,0.0,-0.6666666666666666,23552.0
02:32:00,RTL,-0.022968389714757603,0.0029899467093249163,0.3137351969877879,-0.09176171819368999,-0.0021415314792344966,0.00028112934281428653,-35.3622976,149.16562383333334,86370.66666666667,8.0,-23.0,-49.0,0.3333333333333333,-5.0,-1018.6666666666666,-89.66666666666667,0.3333333333333333,3.3333333333333335,23552.0
02:32:02,RTL,-0.013161795058598122,-0.0002947713267834236,0.3127938111623128,-0.3766242420921723,-0.0031711950044458113,0.002245179067055384,-35.36229766666667,149.1656233,87161.0,9.0,-26.0,-6.0,-2.0,-14.666666666666666,-965.6666666666666,-375.0,-1.0,5.0,63860.5
02:32:04,RTL,0.01939810657252868,-0.0017444454521561663,0.31319435437520343,0.06068787972132365,0.00025905466948946315,0.0009195118521650633,-35.3622968,149.16561979999997,87178.0,3.0,-3.3333333333333335,-16.0,-3.3333333333333335,15.0,-1039.3333333333333,63.0,2.0,3.6666666666666665,104169.0
02:32:06,RTL,0.016697708206872146,0.002752447035163641,0.31416335701942444,-0.06332014997800191,0.0017083195270970464,-0.0004545080785950025,-35.3622961,149.16561806666664,88072.33333333333,-2.3333333333333335,18.0,-50.0,0.0,1.3333333333333333,-975.3333333333334,-61.0,3.6666666666666665,2.0,104169.0
02:32:07,RTL,0.007020163349807262,0.004458627042671044,0.3137518068154653,-0.16139021515846252,7.209562075634797e-06,-0.0013632373108218114,-35.3622961,149.16561850000002,88417.0,-3.6666666666666665,19.333333333333332,-5.0,0.0,9.0,-966.0,-158.33333333333334,1.6666666666666667,1.3333333333333333,177336.0
02:32:08,RTL,0.015120884403586388,0.0034832066545883813,0.3138347268104553,0.07542425394058228,-0.0010754653097440798,-0.001968329151471456,-35.3622962,149.16561873333333,88416.33333333333,-3.6666666666666665,16.666666666666668,2.6666666666666665,0.3333333333333333,-9.666666666666666,-999.0,77.33333333333333,1.3333333333333333,1.0,177336.0
02:32:10,RTL,0.007713987181584041,0.002989709454899033,0.3141200840473175,-0.005796403934558232,-0.0001487163050721089,-0.000696755712851882,-35.362296333333326,149.1656191333333,88695.33333333333,-2.0,14.666666666666666,-45.0,0.0,0.3333333333333333,-1032.0,-3.3333333333333335,2.3333333333333335,2.0,177336.0
02:32:12,RTL,-0.005547743601103623,0.0031962530532230935,0.31425660848617554,-0.3745533227920532,0.0009632873504112164,-0.0005143616969386736,-35.36229666666667,149.16562009999998,89576.33333333333,-0.3333333333333333,8.0,-14.0,1.0,-4.333333333333333,-962.3333333333334,-371.3333333333333,2.6666666666666665,2.3333333333333335,196132.0
02:32:14,RTL,0.005113267572596669,0.0010238460163236596,0.3138741950194041,-0.027385204409559567,-0.0033953404054045677,-0.0006600326936071118,-35.3622967,149.16562006666666,89597.0,0.0,4.666666666666667,-6.0,-1.0,8.666666666666666,-1033.0,-24.333333333333332,-1.0,2.0,196132.0
02:32:16,RTL,0.012269959474603334,0.002049274781408409,0.31430185834566754,-0.1297925760348638,0.004073426554289957,-0.0016266482416540384,-35.362296566666664,149.165619,90373.0,0.0,12.0,-57.0,0.0,-8.666666666666666,-991.3333333333334,-127.0,5.666666666666667,1.0,196132.0
02:32:17,RTL,-0.001425760875766476,0.005258859135210514,0.3139759798844655,-0.3621297888457775,0.0022719045324871936,-0.0016707091126590967,-35.3622965,149.16561950000002,90882.33333333333,-1.0,11.666666666666666,-15.666666666666666,0.6666666666666666,-10.333333333333334,-960.3333333333334,-358.3333333333333,3.6666666666666665,0.6666666666666666,27800.0
02:32:18,RTL,0.0056776513035098715,0.00678031953672568,0.31423137585322064,0.2900698284308116,0.0003330975693340103,-0.001303427464639147,-35.362296533333335,149.16562016666666,90924.66666666667,0.0,8.0,2.0,2.0,0.6666666666666666,-993.6666666666666,292.6666666666667,2.0,1.3333333333333333,27800.0
02:32:20,RTL,-0.03197996069987615,0.006866761793692906,0.3141184449195862,-0.12903669973214468,-0.004801061043205361,-0.0016314482782036066,-35.36229746666667,149.165624,91049.66666666667,5.0,-15.0,-34.0,3.6666666666666665,-14.333333333333334,-1034.3333333333333,-126.33333333333333,-3.0,1.6666666666666667,27800.0
02:32:22,RTL,-0.012683475079635778,0.0010810786043293774,0.31352193156878155,0.05897613366444906,-0.00254191675533851,-0.00039781661083300907,-35.36229793333333,149.16562456666665,91991.66666666667,11.0,-34.333333333333336,-27.333333333333332,0.0,-1.3333333333333333,-968.0,60.0,-0.6666666666666666,2.0,11940.0
02:32:24,RTL,-0.002940330906615903,-0.001325275341514498,0.3136810064315796,-0.40403013738493126,0.0009138456856211027,0.0014987494796514511,-35.3622975,149.1656221,92075.33333333333,8.666666666666666,-19.0,1.6666666666666667,-1.3333333333333333,-13.0,-1015.0,-402.3333333333333,2.0,4.666666666666667,11940.0
02:32:26,RTL,0.008555985288694501,0.0015909371431916952,0.31431050101915997,-0.04406022528807322,-0.0002789810144652923,-0.0001343488305186232,-35.36229686666667,149.1656204,92646.66666666667,3.6666666666666665,-2.6666666666666665,-55.0,-1.0,-3.0,-1006.6666666666666,-42.0,1.3333333333333333,2.0,11940.0
02:32:27,RTL,0.009492966656883558,0.0025203772044430175,0.3139604528745015,-0.100274957716465,-0.0024180569841216006,-0.0017416418995708227,-35.3622967,149.1656199,93238.33333333333,1.3333333333333333,2.3333333333333335,-25.333333333333332,-1.0,-13.666666666666666,-950.3333333333334,-99.0,-0.6666666666666666,0.6666666666666666,113598.0
02:32:28,RTL,0.005962596517444278,0.0007832803627631316,0.314420352379481,-0.11834628383318584,-0.00345180726920565,0.002258567294726769,-35.3622966,149.16561956666666,93339.0,0.0,5.0,-2.0,-0.6666666666666666,8.666666666666666,-984.3333333333334,-115.66666666666667,-1.3333333333333333,4.666666666666667,113598.0
02:32:30,RTL,0.00910116204371055,0.0028397096320986748,0.3141893943150838,0.24845212201277414,-0.0003104161781569322,0.00032276582593719166,-35.3622966,149.1656194,93370.33333333333,0.0,10.0,-19.0,0.6666666666666666,4.0,-1043.0,250.33333333333334,1.3333333333333333,2.6666666666666665,113598.0
02:32:32,RTL,-0.010857986441502968,0.004877740051597357,0.3142179350058238,-0.38659342130025226,0.0007882271505271395,-0.002530896027262012,-35.3622968,149.16562103333334,94259.0,1.0,1.0,-39.333333333333336,0.0,-12.333333333333334,-962.3333333333334,-384.0,1.6666666666666667,0.0,113598.0
02:32:33,RTL,-0.0007898517263432344,0.0024437805792937675,0.3135613004366557,-0.02414301037788391,-0.0029860835056751966,0.0018199740443378687,-35.362297,149.16562146666664,94497.33333333333,2.0,-4.666666666666667,0.3333333333333333,0.0,-12.333333333333334,-986.6666666666666,-22.666666666666668,-1.0,4.0,190510.0
02:32:34,RTL,-0.000831420145307978,0.0016274753337105115,0.31368868549664813,-0.023025645563999813,-0.001072980579920113,-0.000695161676655213,-35.362297,149.1656212,94483.66666666667,2.3333333333333335,-4.333333333333333,4.333333333333333,0.0,11.333333333333334,-997.0,-20.666666666666668,0.6666666666666666,2.0,190510.0
02:32:36,RTL,0.00487785111181438,0.0018799270037561655,0.31396011511484784,-0.03454084818561872,0.0009415728272870183,-0.0005252654664218426,-35.36229686666667,149.16562056666666,94803.33333333333,2.0,-0.6666666666666666,-45.333333333333336,-0.3333333333333333,-2.0,-1024.0,-32.333333333333336,2.3333333333333335,2.0,190510.0
