time_stamp,MODE,lat,lon,relative_alt,roll,pitch,yaw,rollspeed,pitchspeed,yawspeed,xacc,yacc,zacc,xgyro,ygyro,zgyro,vx,vy,vz,RTL_ALT
09:56:26.227,STABILIZE,-35.3632621,149.1652375,12,0.0006386494496837258,0.0015131226973608136,0.027111509814858437,0.0004043113440275192,0.0002908825990743935,0.0021403185091912746,0,1,-1001,0,0,0,-2,4,3,280818.0
09:56:26.428,STABILIZE,-35.3632622,149.1652376,5,0.0005128112970851362,0.0014621372101828456,0.026927733793854713,0.00012717963545583189,0.0002992501831613481,0.002192987594753504,0,1,-1000,0,0,0,-2,4,3,280818.0
09:56:26.628,STABILIZE,-35.3632622,149.1652376,5,0.0005128112970851362,0.0014621372101828456,0.026927733793854713,0.00012717963545583189,0.0002992501831613481,0.002192987594753504,0,1,-1000,0,0,0,-2,4,3,280818.0
09:56:26.829,STABILIZE,-35.3632622,149.1652376,0,0.0001091056692530401,0.0013561408268287778,0.026596711948513985,0.00017508291057310998,0.00024936022236943245,0.002262771362438798,0,1,-1000,0,0,0,-2,3,3,280818.0
09:56:27.030,STABILIZE,-35.3632622,149.1652376,0,0.0001091056692530401,0.0013561408268287778,0.026596711948513985,0.00017508291057310998,0.00024936022236943245,0.002262771362438798,0,1,-1000,0,0,0,-2,3,3,280818.0
09:56:27.231,STABILIZE,-35.3632622,149.1652376,0,0.0001091056692530401,0.0013561408268287778,0.026596711948513985,0.00017508291057310998,0.00024936022236943245,0.002262771362438798,0,1,-1000,0,0,0,-2,3,3,280818.0
09:56:27.431,STABILIZE,-35.3632622,149.1652376,0,0.0001091056692530401,0.0013561408268287778,0.026596711948513985,0.00017508291057310998,0.00024936022236943245,0.002262771362438798,0,1,-1000,0,0,0,-2,3,3,280818.0
09:56:27.632,STABILIZE,-35.3632622,149.1652376,0,0.0001091056692530401,0.0013561408268287778,0.026596711948513985,0.00017508291057310998,0.00024936022236943245,0.002262771362438798,0,1,-1000,0,0,0,-2,3,3,280818.0
09:56:27.833,STABILIZE,-35.3632622,149.1652376,0,0.0001091056692530401,0.0013561408268287778,0.026596711948513985,0.00017508291057310998,0.00024936022236943245,0.002262771362438798,0,1,-1000,0,0,0,-1,2,2,280818.0
09:56:28.035,STABILIZE,-35.3632622,149.1652376,0,0.0001091056692530401,0.0013561408268287778,0.026596711948513985,0.00017508291057310998,0.00024936022236943245,0.002262771362438798,0,1,-1000,0,0,0,-1,2,2,280818.0
09:56:28.236,STABILIZE,-35.3632622,149.1652376,0,0.0001091056692530401,0.0013561408268287778,0.026596711948513985,0.00017508291057310998,0.00024936022236943245,0.002262771362438798,0,1,-1000,0,0,0,-1,2,2,280818.0
09:56:28.437,STABILIZE,-35.3632622,149.1652375,0,-0.0007780956220813096,0.0010826080106198788,0.025830665603280067,0.00025540724163874984,0.00014537316747009754,0.0019915467128157616,0,1,-1000,1,0,0,-1,1,2,280818.0
09:56:28.638,STABILIZE,-35.3632622,149.1652375,0,-0.0007780956220813096,0.0010826080106198788,0.025830665603280067,0.00025540724163874984,0.00014537316747009754,0.0019915467128157616,0,1,-1000,1,0,0,-1,1,2,280818.0
09:56:28.839,STABILIZE,-35.3632622,149.1652375,0,-0.0009546041837893426,0.0010142233222723007,0.025641459971666336,0.00016543781384825706,7.813674164935946e-05,0.0021236890461295843,0,1,-1000,0,0,0,-1,1,1,280818.0
09:56:29.041,STABILIZE,-35.3632622,149.1652375,0,-0.0009546041837893426,0.0010142233222723007,0.025641459971666336,0.00016543781384825706,7.813674164935946e-05,0.0021236890461295843,0,1,-1000,0,0,0,-1,1,1,280818.0
09:56:29.242,STABILIZE,-35.3632622,149.1652375,0,-0.0009546041837893426,0.0010142233222723007,0.025641459971666336,0.00016543781384825706,7.813674164935946e-05,0.0021236890461295843,0,1,-1000,0,0,0,-1,1,1,280818.0
09:56:29.443,STABILIZE,-35.3632622,149.1652375,0,-0.0009546041837893426,0.0010142233222723007,0.025641459971666336,0.00016543781384825706,7.813674164935946e-05,0.0021236890461295843,0,1,-1000,0,0,0,-1,1,1,280818.0
09:56:29.645,STABILIZE,-35.3632621,149.1652375,0,-0.0007749244105070829,0.0009509418159723282,0.025391900911927223,0.00020719680469483137,0.00013145292177796364,0.0019273882498964667,0,1,-1000,0,0,1,-1,2,2,280818.0
09:56:29.846,STABILIZE,-35.3632621,149.1652375,0,-0.0007749244105070829,0.0009509418159723282,0.025391900911927223,0.00020719680469483137,0.00013145292177796364,0.0019273882498964667,0,1,-1000,0,0,1,-1,2,2,280818.0
09:56:30.047,STABILIZE,-35.3632621,149.1652375,0,-0.0007749244105070829,0.0009509418159723282,0.025391900911927223,0.00020719680469483137,0.00013145292177796364,0.0019273882498964667,0,1,-1000,0,0,1,-1,2,2,280818.0
09:56:30.251,STABILIZE,-35.3632621,149.1652375,0,-0.0007749244105070829,0.0009509418159723282,0.025391900911927223,0.00020719680469483137,0.00013145292177796364,0.0019273882498964667,0,1,-1000,0,0,0,-1,1,2,280818.0
09:56:30.453,STABILIZE,-35.3632621,149.1652375,0,-0.0007749244105070829,0.0009509418159723282,0.025391900911927223,0.00020719680469483137,0.00013145292177796364,0.0019273882498964667,0,1,-1000,0,0,1,-1,1,2,280818.0
09:56:30.654,STABILIZE,-35.3632621,149.1652375,0,-0.001003060839138925,0.0009242825326509774,0.025066254660487175,0.00026711513055488467,0.0003388857585377991,0.0018817841773852706,0,1,-1000,0,1,0,-1,1,2,280818.0
09:56:30.857,STABILIZE,-35.3632621,149.1652375,0,-0.001003060839138925,0.0009242825326509774,0.025066254660487175,0.00026711513055488467,0.0003388857585377991,0.0018817841773852706,0,1,-1000,0,0,0,-1,1,1,280818.0
09:56:31.058,STABILIZE,-35.3632621,149.1652375,0,-0.001003060839138925,0.0009242825326509774,0.025066254660487175,0.00026711513055488467,0.0003388857585377991,0.0018817841773852706,0,1,-1000,0,0,0,-1,1,1,280818.0
09:56:31.259,STABILIZE,-35.3632621,149.1652375,0,-0.001003060839138925,0.0009242825326509774,0.025066254660487175,0.00026711513055488467,0.0003388857585377991,0.0018817841773852706,0,1,-1000,0,0,0,-1,1,1,280818.0
09:56:31.461,STABILIZE,-35.3632621,149.1652375,0,-0.001003060839138925,0.0009242825326509774,0.025066254660487175,0.00026711513055488467,0.0003388857585377991,0.0018817841773852706,0,1,-1000,0,0,0,-1,1,1,280818.0
09:56:31.662,STABILIZE,-35.3632621,149.1652375,0,-0.001147886854596436,0.0009216124308295548,0.024748414754867554,0.00014562741853296757,0.000254572369158268,0.0018272323068231344,0,1,-1000,1,0,0,-1,0,1,280818.0
09:56:31.864,STABILIZE,-35.3632621,149.1652375,0,-0.001147886854596436,0.0009216124308295548,0.024748414754867554,0.00014562741853296757,0.000254572369158268,0.0018272323068231344,0,1,-1000,0,0,0,-1,0,1,280818.0
09:56:32.066,STABILIZE,-35.3632621,149.1652375,0,-0.001147886854596436,0.0009216124308295548,0.024748414754867554,0.00014562741853296757,0.000254572369158268,0.0018272323068231344,0,1,-1000,0,0,0,-1,0,1,280818.0
09:56:32.267,STABILIZE,-35.3632621,149.1652375,0,-0.0012037334963679314,0.0009166586096398532,0.024599533528089523,0.0001693987287580967,0.00021777843357995152,0.0018295039189979434,0,1,-1000,0,0,0,-1,0,1,280818.0
09:56:32.468,STABILIZE,-35.3632621,149.1652375,0,-0.0012037334963679314,0.0009166586096398532,0.024599533528089523,0.0001693987287580967,0.00021777843357995152,0.0018295039189979434,0,1,-1000,0,0,0,-1,0,1,280818.0
09:56:32.670,STABILIZE,-35.3632621,149.1652375,0,-0.0012245412217453122,0.0009362208656966686,0.024455228820443153,0.00018613715656101704,0.0005125535535626113,0.0018845605663955212,0,2,-1000,0,0,0,-1,0,0,280818.0
09:56:32.871,STABILIZE,-35.3632621,149.1652375,0,-0.0012245412217453122,0.0009362208656966686,0.024455228820443153,0.00018613715656101704,0.0005125535535626113,0.0018845605663955212,0,2,-1000,0,0,0,-1,0,0,280818.0
09:56:33.073,STABILIZE,-35.3632621,149.1652375,0,-0.0012245412217453122,0.0009362208656966686,0.024455228820443153,0.00018613715656101704,0.0005125535535626113,0.0018845605663955212,0,2,-1000,0,0,0,-1,0,0,280818.0
09:56:33.291,STABILIZE,-35.3632621,149.1652375,0,-0.0012245412217453122,0.0009362208656966686,0.024455228820443153,0.00018613715656101704,0.0005125535535626113,0.0018845605663955212,0,2,-1000,0,0,0,-1,0,0,280818.0
09:56:33.492,STABILIZE,-35.3632621,149.1652375,0,-0.0012245412217453122,0.0009362208656966686,0.024455228820443153,0.00018613715656101704,0.0005125535535626113,0.0018845605663955212,0,2,-1000,0,0,0,-1,0,0,280818.0
09:56:33.693,STABILIZE,-35.3632621,149.1652375,0,-0.0012245412217453122,0.0009362208656966686,0.024455228820443153,0.00018613715656101704,0.0005125535535626113,0.0018845605663955212,0,2,-1000,0,0,0,-1,0,0,280818.0
09:56:33.895,STABILIZE,-35.3632621,149.1652375,0,-0.0008436556090600789,0.0009680537041276693,0.02404806576669216,0.00018903001910075545,0.0003344569122418761,0.001758820959366858,0,2,-1000,0,0,0,-1,0,0,280818.0
09:56:34.096,STABILIZE,-35.3632622,149.1652377,0,-0.001013354049064219,0.0009724945412017405,0.023961879312992096,0.00018000946147367358,0.00026957911904901266,0.001755372853949666,0,1,-1000,0,0,0,-1,4,5,280818.0
09:56:34.297,STABILIZE,-35.3632622,149.1652377,0,-0.001013354049064219,0.0009724945412017405,0.023961879312992096,0.00018000946147367358,0.00026957911904901266,0.001755372853949666,0,1,-1000,0,0,0,-1,4,5,280818.0
09:56:34.498,STABILIZE,-35.3632622,149.1652377,0,-0.001013354049064219,0.0009724945412017405,0.023961879312992096,0.00018000946147367358,0.00026957911904901266,0.001755372853949666,0,1,-1000,0,0,0,-1,4,5,280818.0
09:56:34.700,STABILIZE,-35.3632622,149.1652377,0,-0.001275258488021791,0.0009912425884976983,0.02380485087633133,0.0002590416115708649,0.00032740802271291614,0.001743367058224976,0,1,-1000,0,0,1,-1,3,4,280818.0
09:56:34.901,STABILIZE,-35.3632622,149.1652376,0,-0.0013984442921355367,0.0009947092039510608,0.023747945204377174,0.00014815287431702018,0.00028979097260162234,0.0018376028165221214,0,1,-1000,0,0,0,-1,2,4,280818.0
09:56:35.102,STABILIZE,-35.3632622,149.1652376,0,-0.0013984442921355367,0.0009947092039510608,0.023747945204377174,0.00014815287431702018,0.00028979097260162234,0.0018376028165221214,0,1,-1000,0,0,0,-1,2,4,280818.0
09:56:35.303,STABILIZE,-35.3632622,149.1652376,0,-0.0013984442921355367,0.0009947092039510608,0.023747945204377174,0.00014815287431702018,0.00028979097260162234,0.0018376028165221214,0,1,-1000,0,0,0,-1,2,4,280818.0
09:56:35.505,STABILIZE,-35.3632622,149.1652376,0,-0.0013984442921355367,0.0009947092039510608,0.023747945204377174,0.00014815287431702018,0.00028979097260162234,0.0018376028165221214,0,1,-1000,0,0,0,-1,2,4,280818.0
09:56:35.706,STABILIZE,-35.3632622,149.1652376,0,-0.001658487832173705,0.0010066494578495622,0.023580005392432213,0.00016957917250692844,0.000166668847668916,0.0016523904632776976,0,2,-1000,0,0,0,-1,1,2,280818.0
09:56:35.907,STABILIZE,-35.3632622,149.1652376,0,-0.001658487832173705,0.0010066494578495622,0.023580005392432213,0.00016957917250692844,0.000166668847668916,0.0016523904632776976,0,1,-1000,0,0,0,-1,1,2,280818.0
09:56:36.108,STABILIZE,-35.3632622,149.1652376,0,-0.001658487832173705,0.0010066494578495622,0.023580005392432213,0.00016957917250692844,0.000166668847668916,0.0016523904632776976,0,1,-1000,0,0,0,-1,1,2,280818.0
09:56:36.309,STABILIZE,-35.3632622,149.1652376,0,-0.001658487832173705,0.0010066494578495622,0.023580005392432213,0.00016957917250692844,0.000166668847668916,0.0016523904632776976,0,1,-1000,0,0,0,-1,1,2,280818.0
09:56:36.511,STABILIZE,-35.3632622,149.1652376,0,-0.001658487832173705,0.0010066494578495622,0.023580005392432213,0.00016957917250692844,0.000166668847668916,0.0016523904632776976,0,1,-1000,0,0,0,-1,1,2,280818.0
09:56:36.712,STABILIZE,-35.3632622,149.1652376,0,-0.0018322167452424765,0.0010000203037634492,0.023416023701429367,0.00020360993221402168,0.0002684740466065705,0.00170773989520967,0,1,-1000,0,0,0,-1,0,0,280818.0
09:56:36.913,STABILIZE,-35.3632622,149.1652375,0,-0.001819259487092495,0.0009974682470783591,0.023382825776934624,0.00018804077990353107,0.0002688622334972024,0.0017963274149224162,0,1,-1000,0,0,0,-1,0,0,280818.0
09:56:37.114,STABILIZE,-35.3632622,149.1652375,0,-0.001819259487092495,0.0009974682470783591,0.023382825776934624,0.00018804077990353107,0.0002688622334972024,0.0017963274149224162,0,1,-1000,0,0,0,-1,0,0,280818.0
09:56:37.316,STABILIZE,-35.3632622,149.1652375,0,-0.001819259487092495,0.0009974682470783591,0.023382825776934624,0.00018804077990353107,0.0002688622334972024,0.0017963274149224162,0,1,-1000,0,0,0,-1,0,0,280818.0
09:56:37.517,STABILIZE,-35.3632622,149.1652375,0,-0.001819259487092495,0.0009974682470783591,0.023382825776934624,0.00018804077990353107,0.0002688622334972024,0.0017963274149224162,0,1,-1000,0,0,0,-1,0,0,280818.0
09:56:37.718,STABILIZE,-35.3632622,149.1652375,0,-0.001819259487092495,0.0009974682470783591,0.023382825776934624,0.00018804077990353107,0.0002688622334972024,0.0017963274149224162,0,1,-1000,0,0,1,-1,0,0,280818.0
09:56:37.919,STABILIZE,-35.3632622,149.1652375,0,-0.001819259487092495,0.0009974682470783591,0.023382825776934624,0.00018804077990353107,0.0002688622334972024,0.0017963274149224162,0,1,-1000,0,0,0,-1,0,-1,280818.0
09:56:38.121,STABILIZE,-35.3632622,149.1652375,0,-0.0016131888842210174,0.000984222162514925,0.023211050778627396,0.00017140485579147935,0.000300697167403996,0.0016568796709179878,0,1,-1000,1,0,0,-1,0,-1,280818.0
09:56:38.322,STABILIZE,-35.3632622,149.1652375,0,-0.0016131888842210174,0.000984222162514925,0.023211050778627396,0.00017140485579147935,0.000300697167403996,0.0016568796709179878,0,1,-1000,1,0,0,-1,0,-1,280818.0
09:56:38.523,STABILIZE,-35.3632622,149.1652375,0,-0.0016131888842210174,0.000984222162514925,0.023211050778627396,0.00017140485579147935,0.000300697167403996,0.0016568796709179878,0,1,-1000,1,0,0,-1,0,-1,280818.0
09:56:38.724,STABILIZE,-35.3632622,149.1652375,0,-0.0016131888842210174,0.000984222162514925,0.023211050778627396,0.00017140485579147935,0.000300697167403996,0.0016568796709179878,0,1,-1000,1,0,0,-1,0,-1,280818.0
09:56:38.926,STABILIZE,-35.3632622,149.1652375,0,-0.0014985821908339858,0.0009811355266720057,0.023093948140740395,0.0001557443174533546,0.0002700547338463366,0.0016943055670708418,0,2,-1000,1,0,1,-1,0,-1,280818.0
09:56:39.127,STABILIZE,-35.3632622,149.1652375,0,-0.0014985821908339858,0.0009811355266720057,0.023093948140740395,0.0001557443174533546,0.0002700547338463366,0.0016943055670708418,0,2,-1000,1,0,1,-1,0,-1,280818.0
09:56:39.328,STABILIZE,-35.3632622,149.1652375,0,-0.0014985821908339858,0.0009811355266720057,0.023093948140740395,0.0001557443174533546,0.0002700547338463366,0.0016943055670708418,0,2,-1000,1,0,1,-1,0,-1,280818.0
09:56:39.530,STABILIZE,-35.3632622,149.1652375,0,-0.0014985821908339858,0.0009811355266720057,0.023093948140740395,0.0001557443174533546,0.0002700547338463366,0.0016943055670708418,0,2,-1000,1,0,1,-1,0,-1,280818.0
09:56:39.731,STABILIZE,-35.3632622,149.1652375,0,-0.0014985821908339858,0.0009811355266720057,0.023093948140740395,0.0001557443174533546,0.0002700547338463366,0.0016943055670708418,0,2,-1000,1,0,1,-1,0,-1,280818.0
09:56:39.932,STABILIZE,-35.3632622,149.1652375,0,-0.001367316348478198,0.0009725373820401728,0.022936368361115456,0.0001763349282555282,0.0002504716976545751,0.0015849217306822538,0,1,-1000,0,0,0,-1,0,-1,280818.0
09:56:40.135,AUTO,-35.3632622,149.1652374,12,-0.001327304053120315,0.0009648185223340988,0.022883420810103416,0.00019440724281594157,0.00021296466002240777,0.0015313716139644384,0,1,-1000,0,1,1,-1,-1,-4,280818.0
09:56:40.351,AUTO,-35.3632622,149.1652374,9,-0.0012447040062397718,0.000958337215706706,0.022840645164251328,0.0002285283408127725,0.0003333787899464369,0.001523343613371253,0,1,-1000,0,0,1,-1,-1,-4,294157.0
09:56:40.552,AUTO,-35.3632622,149.1652374,9,-0.0012447040062397718,0.000958337215706706,0.022840645164251328,0.0002285283408127725,0.0003333787899464369,0.001523343613371253,0,1,-1000,0,0,1,-1,-1,-4,294157.0
09:56:40.754,AUTO,-35.3632622,149.1652374,14,-0.0011594084789976478,0.0009668558486737311,0.022800801321864128,0.00020630937069654465,0.0003779540420509875,0.001504186657257378,0,1,-1000,1,0,1,-1,0,-4,294157.0
09:56:40.955,AUTO,-35.3632622,149.1652374,18,-0.0010782093740999699,0.0009715798660181463,0.02275736629962921,0.0001632324419915676,0.0002101519494317472,0.0016682487912476063,0,1,-1000,1,0,0,-1,0,-4,294157.0
09:56:41.157,AUTO,-35.3632622,149.1652374,18,-0.0010782093740999699,0.0009715798660181463,0.02275736629962921,0.0001632324419915676,0.0002101519494317472,0.0016682487912476063,0,1,-1000,1,0,0,-1,0,-4,294157.0
09:56:41.358,AUTO,-35.3632622,149.1652374,18,-0.0010782093740999699,0.0009715798660181463,0.02275736629962921,0.0001632324419915676,0.0002101519494317472,0.0016682487912476063,0,1,-1000,1,0,0,-1,0,-4,294157.0
09:56:41.560,AUTO,-35.3632622,149.1652374,18,-0.0010782093740999699,0.0009715798660181463,0.02275736629962921,0.0001632324419915676,0.0002101519494317472,0.0016682487912476063,0,1,-1000,1,0,0,-1,0,-4,294157.0
09:56:41.763,AUTO,-35.3632621,149.1652374,25,-0.0008986507309600711,0.0010741070145741105,0.022596905007958412,0.0002963474253192544,0.0003236861666664481,0.0014937103260308504,0,2,-1000,1,1,0,0,0,-4,294157.0
09:56:41.965,AUTO,-35.3632621,149.1652374,27,-0.0008546091266907752,0.0011269962415099144,0.022525779902935028,0.00022922363132238388,0.00034324865555390716,0.0017137459944933653,0,1,-1000,0,0,0,0,0,-3,294157.0
09:56:42.167,AUTO,-35.3632621,149.1652374,28,-0.0008048878517001867,0.0011878646910190582,0.022475283592939377,0.00029561761766672134,0.00011882430408149958,0.0014593233354389668,0,2,-1000,0,0,0,0,0,-3,294157.0
09:56:42.369,AUTO,-35.3632621,149.1652374,29,-0.0007521766237914562,0.0012555228313431144,0.022420091554522514,0.000303521694149822,0.0002566471812315285,0.0015100606251507998,0,1,-1000,0,0,0,0,0,-3,294157.0
09:56:42.570,AUTO,-35.3632621,149.1652374,29,-0.0007521766237914562,0.0012555228313431144,0.022420091554522514,0.000303521694149822,0.0002566471812315285,0.0015100606251507998,0,1,-1000,0,0,0,0,0,-3,294157.0
09:56:42.772,AUTO,-35.3632621,149.1652374,31,-0.0007058698683977127,0.0013246801681816578,0.022339291870594025,0.0002446627477183938,0.0001563620171509683,0.001492620212957263,0,2,-1000,0,0,1,0,1,-3,294157.0
09:56:42.974,AUTO,-35.3632621,149.1652374,32,-0.000649920548312366,0.0013960055075585842,0.02227628044784069,0.00020827091066166759,0.00021409313194453716,0.0014729333342984319,0,1,-1000,0,0,0,0,1,-3,294157.0
09:56:43.176,AUTO,-35.3632621,149.1652374,32,-0.000649920548312366,0.0013960055075585842,0.02227628044784069,0.00020827091066166759,0.00021409313194453716,0.0014729333342984319,0,1,-1000,0,0,0,0,1,-3,234858.0
09:56:43.386,AUTO,-35.3632621,149.1652374,32,-0.000649920548312366,0.0013960055075585842,0.02227628044784069,0.00020827091066166759,0.00021409313194453716,0.0014729333342984319,0,1,-1000,0,0,0,0,1,-3,234858.0
09:56:43.588,AUTO,-35.3632621,149.1652374,33,-0.0004628176102414727,0.0016157503705471754,0.022024141624569893,0.0003990309196524322,0.0002984717721119523,0.0014205409679561853,0,2,-1000,0,0,0,0,1,-2,234858.0
09:56:43.789,AUTO,-35.3632621,149.1652374,33,-0.0004628176102414727,0.0016157503705471754,0.022024141624569893,0.0003990309196524322,0.0002984717721119523,0.0014205409679561853,0,2,-1000,0,0,0,0,1,-2,234858.0
09:56:43.991,AUTO,-35.3632621,149.1652374,33,-0.00039163086330518126,0.0016912715509533882,0.02194494567811489,0.00037231750320643187,0.00025683181593194604,0.001405851449817419,0,1,-1000,1,1,1,0,1,-2,234858.0
09:56:44.192,AUTO,-35.3632621,149.1652374,36,0.000520393019542098,0.0008613121462985873,0.021786753088235855,0.012371628545224667,-0.008923916146159172,0.0016010510735213757,0,0,-1105,13,-8,1,0,0,-9,234858.0
09:56:44.394,AUTO,-35.3632621,149.1652374,98,0.0024446765892207623,-0.0005236570723354816,0.021750878542661667,0.005812447052448988,0.0003631612053140998,0.002765006385743618,0,0,-1143,6,1,2,0,1,-44,234858.0
09:56:44.595,AUTO,-35.3632621,149.1652374,246,0.0020410262513905764,0.00025452562840655446,0.021792711690068245,-0.0075240121223032475,0.003948287107050419,0.0009622580837458372,0,0,-1130,-6,4,0,0,1,-77,234858.0
09:56:44.797,AUTO,-35.3632621,149.1652374,246,0.0020410262513905764,0.00025452562840655446,0.021792711690068245,-0.0075240121223032475,0.003948287107050419,0.0009622580837458372,0,0,-1130,-6,4,0,0,1,-77,234858.0
09:56:44.999,AUTO,-35.3632621,149.1652374,470,0.001596769317984581,0.0011776597239077091,0.02188090980052948,-0.00018251436995342374,0.0028235428035259247,0.0018139034509658813,0,0,-1108,0,3,1,0,1,-106,234858.0
09:56:45.201,AUTO,-35.3632621,149.1652374,470,0.001596769317984581,0.0011776597239077091,0.02188090980052948,-0.00018251436995342374,0.0028235428035259247,0.0018139034509658813,0,0,-1108,0,3,1,0,1,-106,234858.0
09:56:45.402,AUTO,-35.3632621,149.1652374,470,0.001596769317984581,0.0011776597239077091,0.02188090980052948,-0.00018251436995342374,0.0028235428035259247,0.0018139034509658813,0,0,-1108,0,3,1,0,1,-106,234858.0
09:56:45.605,AUTO,-35.3632621,149.1652375,1466,0.02472495473921299,-0.0012910285731777549,0.021869100630283356,0.04646230861544609,-0.0071762241423130035,0.002652300987392664,0,0,-1015,46,-6,2,1,6,-147,234858.0
09:56:45.807,AUTO,-35.3632621,149.1652375,1466,0.02472495473921299,-0.0012910285731777549,0.021869100630283356,0.04646230861544609,-0.0071762241423130035,0.002652300987392664,0,0,-1015,46,-6,2,1,6,-147,234858.0
09:56:46.008,AUTO,-35.363262,149.1652378,1842,0.036082733422517776,-0.003228310728445649,0.022083895280957222,0.04485556110739708,-0.008260207250714302,0.003293226007372141,0,-1,-1006,45,-7,2,1,13,-149,234858.0
09:56:46.209,AUTO,-35.3632619,149.1652382,2225,0.04676155373454094,-0.005521339830011129,0.02235579863190651,0.04217527061700821,-0.009415797889232635,0.0035333915147930384,0,-3,-1002,42,-8,3,3,22,-150,229844.0
09:56:46.411,AUTO,-35.3632618,149.1652389,2608,0.05676286295056343,-0.00825870968401432,0.022679565474390984,0.03797569498419762,-0.011699450202286243,0.004120916128158569,2,-4,-1000,38,-11,3,5,33,-150,229844.0
09:56:46.613,AUTO,-35.3632616,149.1652399,2991,0.06134845316410065,-0.007801091764122248,-0.00801585428416729,-0.03236529976129532,0.040583766996860504,-0.06003669276833534,1,-9,-991,-31,41,-60,9,46,-148,229844.0
09:56:46.814,AUTO,-35.3632616,149.1652399,2991,0.06134845316410065,-0.007801091764122248,-0.00801585428416729,-0.03236529976129532,0.040583766996860504,-0.06003669276833534,1,-9,-991,-31,41,-60,9,46,-148,229844.0
09:56:47.016,AUTO,-35.3632614,149.1652413,3369,0.035344745963811874,0.016068696975708008,-0.03213977813720703,-0.15949442982673645,0.08312904089689255,-0.09570811688899994,4,-13,-991,-158,83,-95,9,55,-146,229844.0
09:56:47.218,AUTO,-35.3632614,149.1652413,3369,0.035344745963811874,0.016068696975708008,-0.03213977813720703,-0.15949442982673645,0.08312904089689255,-0.09570811688899994,4,-13,-991,-158,83,-95,9,55,-146,229844.0
09:56:47.420,AUTO,-35.3632614,149.1652413,3369,0.035344745963811874,0.016068696975708008,-0.03213977813720703,-0.15949442982673645,0.08312904089689255,-0.09570811688899994,4,-13,-991,-158,83,-95,9,55,-146,229844.0
09:56:47.622,AUTO,-35.3632609,149.1652452,4504,-0.034677837044000626,0.007915422320365906,-0.06714554131031036,-0.0619080476462841,-0.0190693661570549,-0.03464636951684952,4,-9,-1002,-61,-18,-35,2,37,-150,229844.0
09:56:47.824,AUTO,-35.3632609,149.1652452,4504,-0.034677837044000626,0.007915422320365906,-0.06714554131031036,-0.0619080476462841,-0.0190693661570549,-0.03464636951684952,4,-9,-1002,-61,-18,-35,2,37,-150,229844.0
09:56:48.027,AUTO,-35.3632608,149.1652461,4888,-0.05520600825548172,0.0039897155947983265,-0.07493036985397339,-0.09583738446235657,-0.008628015406429768,-0.036625467240810394,4,-7,-1000,-95,-8,-37,1,24,-150,229844.0
09:56:48.229,AUTO,-35.3632608,149.1652465,5270,-0.0801989734172821,0.0020048504229635,-0.08326919376850128,-0.06779715418815613,-0.004112359136343002,-0.03300996497273445,2,-3,-1005,-66,-3,-33,0,6,-149,229844.0
09:56:48.431,AUTO,-35.3632608,149.1652464,5659,-0.08030688762664795,0.0004991841269657016,-0.09086485952138901,0.03841882944107056,-0.004971954971551895,-0.02384953945875168,0,0,-1005,38,-4,-24,-1,-15,-150,229844.0
09:56:48.633,AUTO,-35.3632609,149.1652457,6044,-0.06818520277738571,-0.0008656771387904882,-0.09584888815879822,0.05307123810052872,-0.0019226917065680027,-0.016249079257249832,-2,5,-1001,53,-1,-16,-2,-33,-150,229844.0
09:56:48.836,AUTO,-35.3632609,149.1652447,6427,-0.05422908812761307,-0.0008112205541692674,-0.099505215883255,0.05865423008799553,0.003359890542924404,-0.010552924126386642,-3,6,-1000,59,4,-11,-4,-46,-149,229844.0
09:56:49.038,AUTO,-35.3632609,149.1652447,6427,-0.05422908812761307,-0.0008112205541692674,-0.099505215883255,0.05865423008799553,0.003359890542924404,-0.010552924126386642,-3,6,-1000,59,4,-11,-4,-46,-149,229844.0
09:56:49.240,AUTO,-35.3632609,149.1652447,6427,-0.05422908812761307,-0.0008112205541692674,-0.099505215883255,0.05865423008799553,0.003359890542924404,-0.010552924126386642,-3,6,-1000,59,4,-11,-4,-46,-149,119300.0
09:56:49.442,AUTO,-35.3632609,149.1652447,6427,-0.05422908812761307,-0.0008112205541692674,-0.099505215883255,0.05865423008799553,0.003359890542924404,-0.010552924126386642,-3,6,-1000,59,4,-11,-4,-46,-149,119300.0
09:56:49.643,AUTO,-35.3632613,149.16524,7572,-0.00652033556252718,0.005770336836576462,-0.10457710921764374,0.0675991028547287,0.011766232550144196,-0.0011584917083382607,-6,13,-1003,68,12,-1,-10,-61,-151,119300.0
09:56:49.845,AUTO,-35.3632616,149.1652384,7959,0.01034880056977272,0.008695747703313828,-0.10479618608951569,0.0681678056716919,0.010762001387774944,0.0007011635461822152,-7,12,-1004,68,11,0,-13,-58,-152,119300.0
09:56:50.047,AUTO,-35.3632616,149.1652384,7959,0.01034880056977272,0.008695747703313828,-0.10479618608951569,0.0681678056716919,0.010762001387774944,0.0007011635461822152,-7,12,-1004,68,11,0,-13,-58,-152,119300.0
09:56:50.249,AUTO,-35.3632619,149.1652368,8348,0.02725219912827015,0.011035218834877014,-0.1041579619050026,0.06767161190509796,0.008462154306471348,0.0023663868196308613,-3,12,-1003,68,9,2,-15,-50,-153,119300.0
09:56:50.450,AUTO,-35.3632623,149.1652355,8739,0.043772533535957336,0.012527227401733398,-0.10314248502254486,0.06543095409870148,0.003901906544342637,0.0031062080524861813,-4,10,-1003,66,4,2,-18,-39,-153,119300.0
09:56:50.652,AUTO,-35.3632627,149.1652346,9132,0.05968284606933594,0.01270379964262247,-0.1018550768494606,0.062327560037374496,-0.0016126979608088732,0.004130816552788019,-1,9,-1002,62,0,3,-19,-24,-154,119300.0
09:56:50.854,AUTO,-35.3632632,149.1652341,9524,0.07390721887350082,0.010842378251254559,-0.09982005506753922,0.03831668943166733,-0.02040700986981392,0.02664812095463276,1,6,-998,38,-19,26,-20,-6,-153,119300.0
09:56:51.056,AUTO,-35.3632632,149.1652341,9524,0.07390721887350082,0.010842378251254559,-0.09982005506753922,0.03831668943166733,-0.02040700986981392,0.02664812095463276,1,6,-998,38,-19,26,-20,-6,-153,119300.0
09:56:51.258,AUTO,-35.3632632,149.1652341,9524,0.07390721887350082,0.010842378251254559,-0.09982005506753922,0.03831668943166733,-0.02040700986981392,0.02664812095463276,1,6,-998,38,-19,26,-20,-6,-153,119300.0
09:56:51.460,AUTO,-35.3632632,149.1652341,9524,0.07390721887350082,0.010842378251254559,-0.09982005506753922,0.03831668943166733,-0.02040700986981392,0.02664812095463276,1,6,-998,38,-19,26,-20,-6,-153,119300.0
09:56:51.662,AUTO,-35.363264,149.1652352,10688,0.02041706256568432,-0.05499787628650665,-0.04152479022741318,-0.12004236876964569,0.030849911272525787,0.008133729919791222,3,-5,-998,-119,31,7,5,31,-148,119300.0
09:56:51.864,AUTO,-35.3632638,149.165236,11067,-0.0064652711153030396,-0.038172587752342224,-0.04997621476650238,-0.09198615700006485,0.08223620802164078,-0.056948624551296234,1,-7,-1003,-91,83,-57,18,30,-148,119300.0
09:56:52.067,AUTO,-35.3632638,149.165236,11067,-0.0064652711153030396,-0.038172587752342224,-0.04997621476650238,-0.09198615700006485,0.08223620802164078,-0.056948624551296234,1,-7,-1003,-91,83,-57,18,30,-148,119300.0
09:56:52.269,AUTO,-35.3632633,149.1652367,11448,-0.02291831746697426,-0.019333558157086372,-0.06842894107103348,-0.04850948974490166,0.07038974016904831,-0.07987145334482193,-1,-6,-1006,-47,71,-80,25,23,-149,43736.0
09:56:52.471,AUTO,-35.3632627,149.1652372,11831,-0.029978979378938675,-0.0062007117085158825,-0.08835891634225845,-0.015502430498600006,0.04467776417732239,-0.07719404250383377,-2,-7,-1005,-14,45,-77,27,13,-151,43736.0
09:56:52.673,AUTO,-35.3632621,149.1652374,12217,-0.03077884204685688,0.0030664687510579824,-0.10803650319576263,0.007912338711321354,0.03432884067296982,-0.0712689533829689,-4,-5,-1004,8,34,-71,26,4,-151,43736.0
09:56:52.875,AUTO,-35.3632615,149.1652374,12605,-0.027007123455405235,0.009844288229942322,-0.12559857964515686,0.022511083632707596,0.02507847361266613,-0.0597924068570137,-4,-3,-1003,23,25,-60,23,-4,-152,43736.0
09:56:53.077,AUTO,-35.3632615,149.1652374,12605,-0.027007123455405235,0.009844288229942322,-0.12559857964515686,0.022511083632707596,0.02507847361266613,-0.0597924068570137,-4,-3,-1003,23,25,-60,23,-4,-152,43736.0
09:56:53.278,AUTO,-35.3632615,149.1652374,12605,-0.027007123455405235,0.009844288229942322,-0.12559857964515686,0.022511083632707596,0.02507847361266613,-0.0597924068570137,-4,-3,-1003,23,25,-60,23,-4,-152,43736.0
09:56:53.480,AUTO,-35.3632615,149.1652374,12605,-0.027007123455405235,0.009844288229942322,-0.12559857964515686,0.022511083632707596,0.02507847361266613,-0.0597924068570137,-4,-3,-1003,23,25,-60,23,-4,-152,43736.0
09:56:53.682,AUTO,-35.3632604,149.1652365,13776,-0.0013878041645511985,0.020354662090539932,-0.1588735729455948,0.0326460637152195,0.008340141735970974,-0.02647526189684868,-5,0,-1000,33,8,-26,7,-15,-153,43736.0
09:56:53.883,AUTO,-35.3632602,149.165236,14167,0.006054943893104792,0.021489333361387253,-0.1640121340751648,0.02767306938767433,0.0026912593748420477,-0.015189491212368011,-3,1,-1000,28,3,-15,2,-13,-153,43736.0
09:56:54.087,AUTO,-35.3632602,149.1652357,14557,0.011859449557960033,0.020506571978330612,-0.1661868840456009,0.0188854169100523,-0.007137192878872156,-0.0043733082711696625,-2,2,-999,19,-6,-4,-2,-10,-153,43736.0
09:56:54.289,AUTO,-35.3632602,149.1652357,14557,0.011859449557960033,0.020506571978330612,-0.1661868840456009,0.0188854169100523,-0.007137192878872156,-0.0043733082711696625,-2,2,-999,19,-6,-4,-2,-10,-153,43736.0
09:56:54.491,AUTO,-35.3632603,149.1652354,14952,0.014466198161244392,0.01826442964375019,-0.16648146510124207,0.007166527211666107,-0.009296535514295101,0.0013223631540313363,-1,2,-999,7,-8,0,-6,-6,-152,43736.0
09:56:54.692,AUTO,-35.3632603,149.1652352,15341,0.015589175745844841,0.015315596014261246,-0.16564466059207916,0.00197972753085196,-0.01193690113723278,0.0018301287200301886,0,1,-999,2,-11,1,-9,-2,-152,43736.0
09:56:54.894,AUTO,-35.3632605,149.1652352,15730,0.01445184089243412,0.012262269854545593,-0.16459493339061737,-0.008923179470002651,-0.012382842600345612,0.004398136865347624,0,1,-999,-8,-11,4,-11,1,-152,43736.0
09:56:55.096,AUTO,-35.3632605,149.1652352,15730,0.01445184089243412,0.012262269854545593,-0.16459493339061737,-0.008923179470002651,-0.012382842600345612,0.004398136865347624,0,1,-999,-8,-11,4,-11,1,-152,43736.0
09:56:55.298,AUTO,-35.3632605,149.1652352,15730,0.01445184089243412,0.012262269854545593,-0.16459493339061737,-0.008923179470002651,-0.012382842600345612,0.004398136865347624,0,1,-999,-8,-11,4,-11,1,-152,114917.0
09:56:55.499,AUTO,-35.3632605,149.1652352,15730,0.01445184089243412,0.012262269854545593,-0.16459493339061737,-0.008923179470002651,-0.012382842600345612,0.004398136865347624,0,1,-999,-8,-11,4,-11,1,-152,114917.0
09:56:55.701,AUTO,-35.3632611,149.1652353,16890,0.006969113368541002,0.00435430184006691,-0.1652163416147232,-0.009431150741875172,-0.007445136550813913,-0.005666655488312244,2,0,-1000,-8,-6,-5,-11,8,-152,114917.0
09:56:55.903,AUTO,-35.3632613,149.1652355,17277,0.004661688581109047,0.0022796073462814093,-0.16716203093528748,-0.010926981456577778,-0.00798830483108759,-0.009262866340577602,2,0,-999,-9,-7,-9,-11,8,-152,114917.0
09:56:56.104,AUTO,-35.3632615,149.1652357,17665,-0.010535233654081821,0.000360337202437222,-0.16999436914920807,-0.09356178343296051,-0.006488241255283356,-0.013811112381517887,2,0,-995,-93,-5,-14,-10,7,-151,114917.0
09:56:56.306,AUTO,-35.3632615,149.1652357,17665,-0.010535233654081821,0.000360337202437222,-0.16999436914920807,-0.09356178343296051,-0.006488241255283356,-0.013811112381517887,2,0,-995,-93,-5,-14,-10,7,-151,114917.0
09:56:56.507,AUTO,-35.3632617,149.1652357,18049,-0.039462100714445114,-0.0010667581809684634,-0.17419706284999847,-0.12364191561937332,-0.002657029777765274,-0.019888481125235558,1,0,-996,-122,-1,-20,-10,0,-150,114917.0
09:56:56.709,AUTO,-35.3632619,149.1652355,18428,-0.06253103911876678,0.008176443167030811,-0.16049471497535706,-0.043375078588724136,0.08686862140893936,0.1686573475599289,0,2,-980,-42,87,168,-11,-12,-146,114917.0
09:56:56.911,AUTO,-35.3632622,149.1652351,18795,-0.06428258866071701,0.041101761162281036,-0.08055692911148071,-0.009160530753433704,0.11029117554426193,0.45167386531829834,-1,4,-979,-8,110,451,-18,-26,-141,114917.0
09:56:57.112,AUTO,-35.3632622,149.1652351,18795,-0.06428258866071701,0.041101761162281036,-0.08055692911148071,-0.009160530753433704,0.11029117554426193,0.45167386531829834,-1,4,-979,-8,110,451,-18,-26,-141,114917.0
09:56:57.314,AUTO,-35.3632622,149.1652351,18795,-0.06428258866071701,0.041101761162281036,-0.08055692911148071,-0.009160530753433704,0.11029117554426193,0.45167386531829834,-1,4,-979,-8,110,451,-18,-26,-141,114917.0
09:56:57.516,AUTO,-35.3632622,149.1652351,18795,-0.06428258866071701,0.041101761162281036,-0.08055692911148071,-0.009160530753433704,0.11029117554426193,0.45167386531829834,-1,4,-979,-8,110,451,-18,-26,-141,114917.0
09:56:57.717,AUTO,-35.363264,149.165232,19745,0.03549477085471153,-0.028511593118309975,0.06158730387687683,0.11018534004688263,-0.08225972205400467,-0.012593437917530537,1,12,-956,111,-81,-13,-28,-32,-106,114917.0
09:56:57.919,AUTO,-35.3632645,149.1652312,20004,0.056219324469566345,-0.040098920464515686,0.05355001986026764,0.06019500270485878,-0.023918084800243378,-0.04216408729553223,1,8,-960,61,-23,-42,-19,-19,-96,114917.0
09:56:58.121,AUTO,-35.3632648,149.1652308,20235,0.06449912488460541,-0.04058821126818657,0.04387962073087692,0.01158486120402813,0.007055584341287613,-0.03515955060720444,0,3,-964,12,7,-35,-10,-3,-86,114917.0
09:56:58.322,AUTO,-35.3632648,149.1652308,20235,0.06449912488460541,-0.04058821126818657,0.04387962073087692,0.01158486120402813,0.007055584341287613,-0.03515955060720444,0,3,-964,12,7,-35,-10,-3,-86,106586.0
09:56:58.524,AUTO,-35.3632649,149.1652308,20443,0.06277530640363693,-0.03576075658202171,0.03751584142446518,-0.0211867094039917,0.025407640263438225,-0.018185315653681755,0,0,-968,-19,25,-18,-1,11,-77,106586.0
09:56:58.726,AUTO,-35.3632648,149.1652312,20630,0.05477554723620415,-0.02813582867383957,0.03442158177495003,-0.034486860036849976,0.035011082887649536,-0.005027470178902149,1,-3,-972,-33,35,-5,6,24,-69,106586.0
09:56:58.928,AUTO,-35.3632646,149.1652318,20798,0.04362310841679573,-0.019163958728313446,0.03345341980457306,-0.04152652993798256,0.03651493042707443,0.0013981941156089306,0,-7,-974,-40,37,1,12,33,-62,106586.0
09:56:59.130,AUTO,-35.3632646,149.1652318,20798,0.04362310841679573,-0.019163958728313446,0.03345341980457306,-0.04152652993798256,0.03651493042707443,0.0013981941156089306,0,-7,-974,-40,37,1,12,33,-62,106586.0
09:56:59.332,AUTO,-35.3632646,149.1652318,20798,0.04362310841679573,-0.019163958728313446,0.03345341980457306,-0.04152652993798256,0.03651493042707443,0.0013981941156089306,0,-7,-974,-40,37,1,12,33,-62,106586.0
09:56:59.534,AUTO,-35.3632646,149.1652318,20798,0.04362310841679573,-0.019163958728313446,0.03345341980457306,-0.04152652993798256,0.03651493042707443,0.0013981941156089306,0,-7,-974,-40,37,1,12,33,-62,106586.0
09:56:59.742,AUTO,-35.3632635,149.1652348,21205,0.00935820396989584,0.004779796116054058,0.03268394619226456,-0.038068998605012894,0.024938426911830902,0.0037838220596313477,0,-11,-978,-37,25,3,18,42,-45,106586.0
09:56:59.943,AUTO,-35.363263,149.1652359,21313,0.0007092778687365353,0.010048658587038517,0.031992509961128235,-0.03575587272644043,0.018208598718047142,0.0024236259050667286,1,-10,-978,-34,18,1,17,40,-40,106586.0
09:57:00.145,AUTO,-35.3632626,149.1652369,21405,-0.005325057543814182,0.013443482108414173,0.03129599615931511,-0.0055712079629302025,0.010906255804002285,0.00040935230208560824,0,-9,-977,-4,11,0,15,36,-34,106586.0
09:57:00.346,AUTO,-35.3632622,149.1652378,21484,-0.009514443576335907,0.015302672050893307,0.030754955485463142,-0.022670840844511986,0.006001017056405544,0.0013844692148268223,0,-9,-976,-21,6,0,13,31,-28,106586.0
09:57:00.548,AUTO,-35.3632622,149.1652378,21484,-0.009514443576335907,0.015302672050893307,0.030754955485463142,-0.022670840844511986,0.006001017056405544,0.0013844692148268223,0,-9,-976,-21,6,0,13,31,-28,106586.0
09:57:00.751,AUTO,-35.3632619,149.1652385,21546,-0.012808985076844692,0.01578499563038349,0.030238432809710503,-0.0318121612071991,0.0008602826274000108,0.00021078885765746236,0,-7,-974,-30,1,0,10,26,-22,106586.0
09:57:00.954,AUTO,-35.3632616,149.1652392,21591,-0.012944918125867844,0.015256940387189388,0.02960371971130371,0.05205777660012245,-0.0016831683460623026,-0.0004731952794827521,0,-3,-972,53,0,0,7,21,-15,106586.0
09:57:01.157,AUTO,-35.3632616,149.1652392,21591,-0.012944918125867844,0.015256940387189388,0.02960371971130371,0.05205777660012245,-0.0016831683460623026,-0.0004731952794827521,0,-3,-972,53,0,0,7,21,-15,106586.0
09:57:01.359,AUTO,-35.3632616,149.1652392,21591,-0.012944918125867844,0.015256940387189388,0.02960371971130371,0.05205777660012245,-0.0016831683460623026,-0.0004731952794827521,0,-3,-972,53,0,0,7,21,-15,31012.0
09:57:01.561,AUTO,-35.3632616,149.1652392,21591,-0.012944918125867844,0.015256940387189388,0.02960371971130371,0.05205777660012245,-0.0016831683460623026,-0.0004731952794827521,0,-3,-972,53,0,0,7,21,-15,31012.0
09:57:01.763,AUTO,-35.3632613,149.1652401,21593,-0.03689859062433243,0.022913360968232155,0.026934225112199783,0.659950315952301,-0.04882313311100006,0.0009294191841036081,0,16,-972,660,-48,1,-2,0,15,31012.0
09:57:01.964,AUTO,-35.3632613,149.16524,21540,-0.009391062892973423,0.002410250948742032,0.026915276423096657,0.32552894949913025,-0.09367214143276215,0.007552619092166424,1,-12,-983,324,-92,7,-4,-9,22,31012.0
09:57:02.167,AUTO,-35.3632613,149.1652398,21483,0.0012984657660126686,-0.017695218324661255,0.026518214493989944,-0.5413421988487244,-0.07192431390285492,-0.004358026199042797,-2,-37,-1017,-541,-71,-4,-2,-10,18,31012.0
09:57:02.370,AUTO,-35.3632613,149.1652396,21439,0.01472164411097765,-0.032285626977682114,0.02507399208843708,-0.577597975730896,-0.04493612051010132,-0.014404477551579475,-3,-15,-1007,-576,-44,-14,3,-4,13,31012.0
09:57:02.571,AUTO,-35.3632613,149.1652396,21439,0.01472164411097765,-0.032285626977682114,0.02507399208843708,-0.577597975730896,-0.04493612051010132,-0.014404477551579475,-3,-15,-1007,-576,-44,-14,3,-4,13,31012.0
09:57:02.773,AUTO,-35.3632611,149.1652395,21406,0.04159892722964287,-0.04324835166335106,0.023222262039780617,0.2639680504798889,-0.03869970515370369,-0.005538989789783955,-2,24,-1019,266,-37,-5,12,4,8,31012.0
09:57:02.975,AUTO,-35.3632607,149.1652397,21384,0.0653548538684845,-0.052508603781461716,0.021366117522120476,0.7781056761741638,-0.0348881371319294,-0.004666711203753948,-5,20,-1027,779,-33,-5,24,15,4,31012.0
09:57:03.177,AUTO,-35.3632607,149.1652397,21384,0.0653548538684845,-0.052508603781461716,0.021366117522120476,0.7781056761741638,-0.0348881371319294,-0.004666711203753948,-5,20,-1027,779,-33,-5,24,15,4,31012.0
09:57:03.379,AUTO,-35.3632607,149.1652397,21384,0.0653548538684845,-0.052508603781461716,0.021366117522120476,0.7781056761741638,-0.0348881371319294,-0.004666711203753948,-5,20,-1027,779,-33,-5,24,15,4,31012.0
09:57:03.581,AUTO,-35.3632607,149.1652397,21384,0.0653548538684845,-0.052508603781461716,0.021366117522120476,0.7781056761741638,-0.0348881371319294,-0.004666711203753948,-5,20,-1027,779,-33,-5,24,15,4,31012.0
09:57:03.797,AUTO,-35.3632577,149.1652422,21359,0.0678141862154007,-0.09277219325304031,0.2687984108924866,-0.19157849252223969,-0.03488314151763916,0.6513518691062927,-11,-15,-1013,-189,-34,651,67,59,-1,31012.0
09:57:03.999,AUTO,-35.363256,149.1652439,21358,0.0671088919043541,-0.11025047302246094,0.4293242394924164,0.5293264389038086,-0.021713919937610626,0.6294593214988708,-17,6,-1008,530,-20,629,83,77,-2,31012.0
09:57:04.200,AUTO,-35.363254,149.1652461,21358,0.05709729716181755,-0.12679076194763184,0.5801390409469604,0.328762024641037,-0.03362153470516205,0.5873092412948608,-22,-23,-1002,329,-32,586,100,95,-1,31012.0
09:57:04.402,AUTO,-35.3632515,149.1652489,21358,0.031496480107307434,-0.14288654923439026,0.7216036319732666,-0.4026171863079071,-0.0428183376789093,0.5786697864532471,-30,-53,-1003,-402,-42,578,119,114,-2,151967.0
09:57:04.604,AUTO,-35.3632487,149.1652522,21358,0.015968549996614456,-0.15411178767681122,0.8344247937202454,-0.31482866406440735,-0.0293839480727911,0.29752618074417114,-40,-27,-1003,-313,-28,297,138,134,-1,151967.0
09:57:04.806,AUTO,-35.3632487,149.1652522,21358,0.015968549996614456,-0.15411178767681122,0.8344247937202454,-0.31482866406440735,-0.0293839480727911,0.29752618074417114,-40,-27,-1003,-313,-28,297,138,134,-1,151967.0
09:57:05.008,AUTO,-35.3632454,149.1652561,21357,0.02075488679111004,-0.16405093669891357,0.8690774440765381,0.33293431997299194,-0.05143480375409126,0.012174532748758793,-50,1,-1014,334,-50,11,157,155,-2,151967.0
09:57:05.209,AUTO,-35.3632454,149.1652561,21357,0.02075488679111004,-0.16405093669891357,0.8690774440765381,0.33293431997299194,-0.05143480375409126,0.012174532748758793,-50,1,-1014,334,-50,11,157,155,-2,151967.0
09:57:05.411,AUTO,-35.3632454,149.1652561,21357,0.02075488679111004,-0.16405093669891357,0.8690774440765381,0.33293431997299194,-0.05143480375409126,0.012174532748758793,-50,1,-1014,334,-50,11,157,155,-2,151967.0
09:57:05.613,AUTO,-35.3632327,149.1652715,21357,0.02287427708506584,-0.18495921790599823,0.8227646946907043,0.02810213342308998,0.021978233009576797,-0.055800821632146835,-62,-25,-1011,29,22,-55,223,219,-2,151967.0
09:57:05.815,AUTO,-35.3632327,149.1652715,21357,0.02287427708506584,-0.18495921790599823,0.8227646946907043,0.02810213342308998,0.021978233009576797,-0.055800821632146835,-62,-25,-1011,29,22,-55,223,219,-2,151967.0
09:57:06.017,AUTO,-35.3632275,149.1652779,21359,0.03178783878684044,-0.18101614713668823,0.8142132759094238,0.22910039126873016,0.00042599020525813103,-0.02964036911725998,-66,-32,-1006,230,1,-29,245,238,-3,151967.0
09:57:06.219,AUTO,-35.3632218,149.1652848,21363,0.03217567130923271,-0.18402014672756195,0.8111494183540344,-0.12700292468070984,-0.020827315747737885,-0.0036774594336748123,-76,-59,-1003,-126,-19,-4,266,255,-3,151967.0
09:57:06.420,AUTO,-35.3632157,149.1652921,21368,0.03777244687080383,-0.19008971750736237,0.810329794883728,-0.015155818313360214,-0.023347986862063408,-0.012059005908668041,-80,-47,-1002,-13,-22,-12,285,274,-3,151967.0
09:57:06.622,AUTO,-35.3632091,149.1652999,21371,0.043625228106975555,-0.1977880895137787,0.8101075291633606,0.1256454885005951,-0.01790747046470642,-0.008908349089324474,-82,-41,-1001,126,-17,-9,305,292,-3,151967.0
09:57:06.824,AUTO,-35.3632091,149.1652999,21371,0.043625228106975555,-0.1977880895137787,0.8101075291633606,0.1256454885005951,-0.01790747046470642,-0.008908349089324474,-82,-41,-1001,126,-17,-9,305,292,-3,151967.0
09:57:07.026,AUTO,-35.3632021,149.1653083,21375,0.04850442335009575,-0.20017953217029572,0.809280276298523,-0.0008115946548059583,0.004899987485259771,-0.009763747453689575,-78,-60,-998,0,5,-9,325,311,-3,151967.0
09:57:07.228,AUTO,-35.3632021,149.1653083,21375,0.04850442335009575,-0.20017953217029572,0.809280276298523,-0.0008115946548059583,0.004899987485259771,-0.009763747453689575,-78,-60,-998,0,5,-9,325,311,-3,151967.0
09:57:07.437,AUTO,-35.3632021,149.1653083,21375,0.04850442335009575,-0.20017953217029572,0.809280276298523,-0.0008115946548059583,0.004899987485259771,-0.009763747453689575,-78,-60,-998,0,5,-9,325,311,-3,143459.0
09:57:07.639,AUTO,-35.3631784,149.1653368,21385,0.052526362240314484,-0.21290703117847443,0.8067215085029602,0.027818728238344193,0.03998441994190216,-0.009104051627218723,-110,-53,-1006,28,40,-9,382,369,-3,143459.0
09:57:07.840,AUTO,-35.3631695,149.1653474,21392,0.05652974173426628,-0.19907289743423462,0.805274248123169,-0.0028179879300296307,0.04976353049278259,-0.00805002823472023,-108,-56,-1011,-1,50,-8,400,387,-7,143459.0
09:57:08.042,AUTO,-35.3631695,149.1653474,21392,0.05652974173426628,-0.19907289743423462,0.805274248123169,-0.0028179879300296307,0.04976353049278259,-0.00805002823472023,-108,-56,-1011,-1,50,-8,400,387,-7,143459.0
09:57:08.244,AUTO,-35.3631603,149.1653584,21408,0.05855797231197357,-0.1865222454071045,0.8050220012664795,0.030578531324863434,0.02588096261024475,-0.005160920321941376,-137,-84,-1022,31,26,-5,415,401,-11,143459.0
09:57:08.446,AUTO,-35.3631509,149.1653696,21432,0.06635503470897675,-0.1865730583667755,0.8041315674781799,0.023505350574851036,-0.002847403520718217,-0.0024522996973246336,-137,-82,-1002,24,-2,-3,428,413,-12,143459.0
09:57:08.648,AUTO,-35.3631411,149.1653813,21456,0.07171192765235901,-0.18455785512924194,0.8028790354728699,0.042086537927389145,0.029582738876342773,-0.004819938447326422,-133,-51,-996,42,30,-4,439,425,-11,143459.0
09:57:08.850,AUTO,-35.363131,149.1653933,21482,0.07245363295078278,-0.1757926493883133,0.8027024865150452,0.009297247044742107,0.035225193947553635,-0.0093143992125988,-126,-72,-998,10,35,-9,449,437,-12,143459.0
09:57:09.053,AUTO,-35.363131,149.1653933,21482,0.07245363295078278,-0.1757926493883133,0.8027024865150452,0.009297247044742107,0.035225193947553635,-0.0093143992125988,-126,-72,-998,10,35,-9,449,437,-12,143459.0
09:57:09.256,AUTO,-35.363131,149.1653933,21482,0.07245363295078278,-0.1757926493883133,0.8027024865150452,0.009297247044742107,0.035225193947553635,-0.0093143992125988,-126,-72,-998,10,35,-9,449,437,-12,143459.0
09:57:09.458,AUTO,-35.363131,149.1653933,21482,0.07245363295078278,-0.1757926493883133,0.8027024865150452,0.009297247044742107,0.035225193947553635,-0.0093143992125988,-126,-72,-998,10,35,-9,449,437,-12,143459.0
09:57:09.660,AUTO,-35.3631,149.1654308,21567,0.07195302098989487,-0.1676054745912552,0.8015756607055664,0.015544608235359192,0.010253936052322388,-0.00123829604126513,-119,-62,-977,16,11,-1,470,463,-11,143459.0
09:57:09.862,AUTO,-35.3630893,149.1654437,21593,0.07291682809591293,-0.16062018275260925,0.8018830418586731,-0.004214486572891474,0.03927506133913994,-0.003173133824020624,-111,-62,-981,-3,39,-3,477,470,-11,143459.0
09:57:10.063,AUTO,-35.3630893,149.1654437,21593,0.07291682809591293,-0.16062018275260925,0.8018830418586731,-0.004214486572891474,0.03927506133913994,-0.003173133824020624,-111,-62,-981,-3,39,-3,477,470,-11,143459.0
09:57:10.265,AUTO,-35.3630785,149.1654569,21620,0.07350531220436096,-0.14595291018486023,0.8019288778305054,-0.01616896130144596,0.03333013877272606,-0.0001289919891860336,-136,-72,-1002,-15,34,0,482,475,-13,279967.0
09:57:10.468,AUTO,-35.3630676,149.1654701,21653,0.0741504654288292,-0.1429099142551422,0.8016350865364075,0.040916893631219864,0.006065149325877428,-0.0014206880005076528,-134,-87,-985,41,7,-1,484,477,-13,279967.0
09:57:10.670,AUTO,-35.3630565,149.1654834,21685,0.0802583321928978,-0.1427188366651535,0.7998788952827454,-0.017604734748601913,-0.007042085286229849,0.0017945219296962023,-139,-77,-978,-16,-6,1,485,478,-11,279967.0
09:57:10.872,AUTO,-35.3630456,149.1654967,21712,0.08119902014732361,-0.1383276730775833,0.7985429167747498,-0.018346959725022316,0.05635775998234749,-0.0004093320167157799,-140,-82,-990,-17,57,0,487,479,-10,279967.0
09:57:11.074,AUTO,-35.3630456,149.1654967,21712,0.08119902014732361,-0.1383276730775833,0.7985429167747498,-0.018346959725022316,0.05635775998234749,-0.0004093320167157799,-140,-82,-990,-17,57,0,487,479,-10,279967.0
09:57:11.276,AUTO,-35.3630456,149.1654967,21712,0.08119902014732361,-0.1383276730775833,0.7985429167747498,-0.018346959725022316,0.05635775998234749,-0.0004093320167157799,-140,-82,-990,-17,57,0,487,479,-10,279967.0
09:57:11.479,AUTO,-35.3630456,149.1654967,21712,0.08119902014732361,-0.1383276730775833,0.7985429167747498,-0.018346959725022316,0.05635775998234749,-0.0004093320167157799,-140,-82,-990,-17,57,0,487,479,-10,279967.0
09:57:11.682,AUTO,-35.3630131,149.1655363,21787,0.07991335541009903,-0.1286008208990097,0.7982653379440308,-0.008385353721678257,-0.030277356505393982,-0.004731287714093924,-146,-84,-980,-7,-29,-5,484,477,-7,279967.0
09:57:11.884,AUTO,-35.3630022,149.1655496,21800,0.07785353064537048,-0.13723017275333405,0.7974238395690918,-0.05125553905963898,-0.021461155265569687,-0.004682858008891344,-134,-72,-974,-50,-20,-4,483,478,-3,279967.0
09:57:12.086,AUTO,-35.3629913,149.1655629,21806,0.07568836957216263,-0.13639594614505768,0.7973199486732483,-0.024289743974804878,0.0014414347242563963,0.0018396646482869983,-137,-64,-987,-23,2,1,484,479,-2,279967.0
09:57:12.288,AUTO,-35.3629913,149.1655629,21806,0.07568836957216263,-0.13639594614505768,0.7973199486732483,-0.024289743974804878,0.0014414347242563963,0.0018396646482869983,-137,-64,-987,-23,2,1,484,479,-2,279967.0
09:57:12.490,AUTO,-35.3629803,149.1655763,21812,0.07461263239383698,-0.1362786442041397,0.7970243692398071,-0.013300979509949684,-0.0006598573527298868,-0.0004029178526252508,-141,-73,-987,-12,0,0,485,479,-2,279967.0
09:57:12.691,AUTO,-35.3629694,149.1655896,21818,0.07597161829471588,-0.14032775163650513,0.7964197397232056,0.020536504685878754,-0.0230014119297266,-0.002839714754372835,-139,-80,-984,21,-21,-2,487,479,-2,279967.0
09:57:12.894,AUTO,-35.3629585,149.1656028,21822,0.07869043946266174,-0.1414458304643631,0.7958709001541138,-0.01243052538484335,0.016121938824653625,0.005690131336450577,-128,-81,-984,-11,17,5,489,479,-1,279967.0
09:57:13.096,AUTO,-35.3629585,149.1656028,21822,0.07869043946266174,-0.1414458304643631,0.7958709001541138,-0.01243052538484335,0.016121938824653625,0.005690131336450577,-128,-81,-984,-11,17,5,489,479,-1,279967.0
09:57:13.301,AUTO,-35.3629585,149.1656028,21822,0.07869043946266174,-0.1414458304643631,0.7958709001541138,-0.01243052538484335,0.016121938824653625,0.005690131336450577,-128,-81,-984,-11,17,5,489,479,-1,212142.0
09:57:13.503,AUTO,-35.3629585,149.1656028,21822,0.07869043946266174,-0.1414458304643631,0.7958709001541138,-0.01243052538484335,0.016121938824653625,0.005690131336450577,-128,-81,-984,-11,17,5,489,479,-1,212142.0
09:57:13.705,AUTO,-35.3629251,149.1656432,21846,0.08058027178049088,-0.13153915107250214,0.794119656085968,0.008221318013966084,0.016117800027132034,-0.0006931216921657324,-128,-78,-995,9,16,-1,492,483,-5,212142.0
09:57:13.906,AUTO,-35.3629141,149.1656566,21859,0.07616450637578964,-0.1315212994813919,0.7944823503494263,-0.00979081355035305,-0.017899753525853157,0.003981112502515316,-141,-81,-988,-8,-17,4,491,482,-6,212142.0
09:57:14.108,AUTO,-35.362903,149.1656701,21872,0.07662085443735123,-0.12945403158664703,0.7944270968437195,0.00465721869841218,0.013023166917264462,-0.004258203320205212,-147,-79,-1000,5,13,-4,492,482,-6,212142.0
09:57:14.310,AUTO,-35.362903,149.1656701,21872,0.07662085443735123,-0.12945403158664703,0.7944270968437195,0.00465721869841218,0.013023166917264462,-0.004258203320205212,-147,-79,-1000,5,13,-4,492,482,-6,212142.0
09:57:14.511,AUTO,-35.3628919,149.1656835,21889,0.07810432463884354,-0.1294158548116684,0.794068455696106,0.005006969440728426,-0.010218091309070587,-0.000593342527281493,-136,-67,-982,5,-9,0,491,481,-7,212142.0
09:57:14.713,AUTO,-35.3628808,149.1656969,21905,0.07924626022577286,-0.12840516865253448,0.7935032248497009,-0.035860415548086166,-0.002981976605951786,0.006266735959798098,-135,-79,-987,-35,-2,6,491,480,-7,212142.0
09:57:14.915,AUTO,-35.3628699,149.1657102,21921,0.07868469506502151,-0.1302068829536438,0.7935940027236938,-0.0014994185185059905,-0.023714179173111916,0.008239149115979671,-149,-99,-996,0,-22,8,490,479,-6,212142.0
09:57:15.117,AUTO,-35.3628699,149.1657102,21921,0.07868469506502151,-0.1302068829536438,0.7935940027236938,-0.0014994185185059905,-0.023714179173111916,0.008239149115979671,-149,-99,-996,0,-22,8,490,479,-6,212142.0
09:57:15.319,AUTO,-35.3628699,149.1657102,21921,0.07868469506502151,-0.1302068829536438,0.7935940027236938,-0.0014994185185059905,-0.023714179173111916,0.008239149115979671,-149,-99,-996,0,-22,8,490,479,-6,212142.0
09:57:15.521,AUTO,-35.3628699,149.1657102,21921,0.07868469506502151,-0.1302068829536438,0.7935940027236938,-0.0014994185185059905,-0.023714179173111916,0.008239149115979671,-149,-99,-996,0,-22,8,490,479,-6,212142.0
09:57:15.723,AUTO,-35.3628367,149.1657502,21967,0.0792459174990654,-0.12750230729579926,0.7919726967811584,0.0061011724174022675,-0.045716218650341034,0.001997556770220399,-136,-76,-977,7,-44,1,488,477,-6,212142.0
09:57:15.924,AUTO,-35.3628257,149.1657634,21980,0.08054367452859879,-0.13109363615512848,0.7916066646575928,0.0112565066665411,0.005284817889332771,-0.0020523241255432367,-131,-55,-981,12,6,-1,488,477,-4,212142.0
09:57:16.126,AUTO,-35.3628147,149.1657766,21994,0.0848347619175911,-0.1299869418144226,0.7913675308227539,0.04108747839927673,-0.004918020684272051,0.0012458402197808027,-141,-75,-987,41,-4,1,488,475,-5,212142.0
09:57:16.328,AUTO,-35.3628147,149.1657766,21994,0.0848347619175911,-0.1299869418144226,0.7913675308227539,0.04108747839927673,-0.004918020684272051,0.0012458402197808027,-141,-75,-987,41,-4,1,488,475,-5,216092.0
09:57:16.530,AUTO,-35.3628037,149.1657899,22007,0.08568079769611359,-0.12878544628620148,0.7904934287071228,0.01615539938211441,0.023701541125774384,-0.002322356915101409,-146,-72,-995,16,24,-2,487,476,-5,216092.0
09:57:16.732,AUTO,-35.3627926,149.1658033,22021,0.08186618238687515,-0.12722039222717285,0.7902601957321167,0.0055855680257081985,-0.007113132160156965,-0.0016961873043328524,-136,-77,-989,6,-6,-1,486,476,-5,216092.0
09:57:16.934,AUTO,-35.3627816,149.1658165,22034,0.08071436733007431,-0.12658658623695374,0.7902513742446899,-0.016737591475248337,0.005186661146581173,-0.0008512157364748418,-128,-64,-986,-16,6,0,486,477,-5,216092.0
09:57:17.136,AUTO,-35.3627816,149.1658165,22034,0.08071436733007431,-0.12658658623695374,0.7902513742446899,-0.016737591475248337,0.005186661146581173,-0.0008512157364748418,-128,-64,-986,-16,6,0,486,477,-5,216092.0
09:57:17.337,AUTO,-35.3627816,149.1658165,22034,0.08071436733007431,-0.12658658623695374,0.7902513742446899,-0.016737591475248337,0.005186661146581173,-0.0008512157364748418,-128,-64,-986,-16,6,0,486,477,-5,216092.0
09:57:17.539,AUTO,-35.3627816,149.1658165,22034,0.08071436733007431,-0.12658658623695374,0.7902513742446899,-0.016737591475248337,0.005186661146581173,-0.0008512157364748418,-128,-64,-986,-16,6,0,486,477,-5,216092.0
09:57:17.741,AUTO,-35.3627489,149.1658559,22077,0.08188871294260025,-0.12886057794094086,0.7895776629447937,-0.028758319094777107,-0.0051952232606709,-0.0015806645387783647,-139,-98,-989,-27,-3,-1,486,474,-6,216092.0
09:57:17.943,AUTO,-35.362738,149.165869,22090,0.0852275863289833,-0.1333932727575302,0.7885040640830994,0.05489350110292435,-0.0009295737836509943,-0.006047927774488926,-143,-72,-990,55,0,-6,484,474,-4,216092.0
09:57:18.145,AUTO,-35.3627271,149.1658822,22102,0.0831945538520813,-0.12979072332382202,0.7882925271987915,-0.013509446755051613,0.03589906170964241,0.003623193595558405,-128,-87,-992,-12,36,3,485,475,-4,216092.0
09:57:18.347,AUTO,-35.3627161,149.1658953,22114,0.08114046603441238,-0.12816143035888672,0.788301408290863,-0.04382792487740517,0.01934479922056198,0.0060851783491671085,-121,-90,-989,-43,20,6,485,476,-5,216092.0
09:57:18.548,AUTO,-35.3627161,149.1658953,22114,0.08114046603441238,-0.12816143035888672,0.788301408290863,-0.04382792487740517,0.01934479922056198,0.0060851783491671085,-121,-90,-989,-43,20,6,485,476,-5,216092.0
09:57:18.751,AUTO,-35.3627052,149.1659085,22128,0.08125457912683487,-0.12801121175289154,0.7881982922554016,-0.02318163774907589,0.0038946359418332577,-0.0067549822852015495,-131,-69,-985,-22,5,-6,484,476,-5,216092.0
09:57:18.954,AUTO,-35.3626942,149.1659217,22142,0.0810924768447876,-0.12913241982460022,0.7882372140884399,0.025171829387545586,0.004155551549047232,-0.008101513609290123,-147,-103,-997,26,4,-7,484,474,-6,216092.0
09:57:19.156,AUTO,-35.3626942,149.1659217,22142,0.0810924768447876,-0.12913241982460022,0.7882372140884399,0.025171829387545586,0.004155551549047232,-0.008101513609290123,-147,-103,-997,26,4,-7,484,474,-6,216092.0
09:57:19.358,AUTO,-35.3626942,149.1659217,22142,0.0810924768447876,-0.12913241982460022,0.7882372140884399,0.025171829387545586,0.004155551549047232,-0.008101513609290123,-147,-103,-997,26,4,-7,484,474,-6,141492.0
09:57:19.560,AUTO,-35.3626942,149.1659217,22142,0.0810924768447876,-0.12913241982460022,0.7882372140884399,0.025171829387545586,0.004155551549047232,-0.008101513609290123,-147,-103,-997,26,4,-7,484,474,-6,141492.0
09:57:19.762,AUTO,-35.3626615,149.1659611,22195,0.08185184746980667,-0.09770047664642334,0.7876611351966858,0.00575869157910347,0.06716471910476685,-0.004144455771893263,-132,-80,-1007,6,68,-4,478,472,-11,141492.0
09:57:19.964,AUTO,-35.3626507,149.165974,22227,0.08230624347925186,-0.0858209952712059,0.7876400351524353,-0.011398608796298504,0.025763915851712227,-0.0008493982022628188,-131,-75,-988,-10,26,0,471,465,-13,141492.0
09:57:20.167,AUTO,-35.3626401,149.1659866,22260,0.08566180616617203,-0.07598485797643661,0.7878801226615906,0.026776548475027084,0.058968618512153625,-0.0026654107496142387,-131,-79,-990,27,60,-2,464,457,-12,141492.0
09:57:20.369,AUTO,-35.3626297,149.1659991,22291,0.08529547601938248,-0.06331825256347656,0.7884711027145386,-0.00858921930193901,0.05746553838253021,-0.002985171042382717,-126,-75,-989,-7,58,-2,453,448,-12,141492.0
09:57:20.571,AUTO,-35.3626297,149.1659991,22291,0.08529547601938248,-0.06331825256347656,0.7884711027145386,-0.00858921930193901,0.05746553838253021,-0.002985171042382717,-126,-75,-989,-7,58,-2,453,448,-12,141492.0
09:57:20.775,AUTO,-35.3626196,149.1660113,22321,0.08528876304626465,-0.04833009093999863,0.7887959480285645,0.0067394813522696495,0.06524156779050827,0.0005536144599318504,-128,-75,-991,7,66,0,442,438,-11,141492.0
09:57:20.977,AUTO,-35.3626097,149.1660232,22350,0.08455182611942291,-0.03697076067328453,0.7886521816253662,0.016048911958932877,0.05461765080690384,-0.001838301308453083,-118,-79,-984,16,55,-1,429,426,-10,141492.0
09:57:21.179,AUTO,-35.3626097,149.1660232,22350,0.08455182611942291,-0.03697076067328453,0.7886521816253662,0.016048911958932877,0.05461765080690384,-0.001838301308453083,-118,-79,-984,16,55,-1,429,426,-10,141492.0
09:57:21.381,AUTO,-35.3626097,149.1660232,22350,0.08455182611942291,-0.03697076067328453,0.7886521816253662,0.016048911958932877,0.05461765080690384,-0.001838301308453083,-118,-79,-984,16,55,-1,429,426,-10,141492.0
09:57:21.583,AUTO,-35.3626097,149.1660232,22350,0.08455182611942291,-0.03697076067328453,0.7886521816253662,0.016048911958932877,0.05461765080690384,-0.001838301308453083,-118,-79,-984,16,55,-1,429,426,-10,141492.0
09:57:21.786,AUTO,-35.3625821,149.1660567,22413,0.07623085379600525,-0.0015216487227007747,0.7896518111228943,0.07976555824279785,0.05420343205332756,-0.005611874163150787,-109,-68,-993,80,55,-5,381,381,-5,141492.0
09:57:21.987,AUTO,-35.3625736,149.1660671,22426,0.0756637379527092,0.008656950667500496,0.7894323468208313,0.024594487622380257,0.04078486189246178,0.0016564024845138192,-98,-74,-992,25,41,1,363,363,-4,141492.0
09:57:22.189,AUTO,-35.3625657,149.1660769,22435,0.06520472466945648,0.018321368843317032,0.7896599769592285,-0.43379873037338257,0.054439373314380646,0.010495014488697052,-99,-77,-991,-433,55,10,344,344,-2,141492.0
09:57:22.391,AUTO,-35.3625582,149.1660862,22438,0.06703555583953857,0.030000803992152214,0.7889546155929565,0.3629869222640991,0.04239337518811226,-0.03604981675744057,-94,-30,-987,364,43,-35,322,325,1,59950.0
09:57:22.592,AUTO,-35.3625582,149.1660862,22438,0.06703555583953857,0.030000803992152214,0.7889546155929565,0.3629869222640991,0.04239337518811226,-0.03604981675744057,-94,-30,-987,364,43,-35,322,325,1,59950.0
