time_stamp,MODE,lat,lon,relative_alt,roll,pitch,yaw,rollspeed,pitchspeed,yawspeed,xacc,yacc,zacc,xgyro,ygyro,zgyro,vx,vy,vz,RTL_ALT
09:09:31.105,STABILIZE,-35.3632622,149.1652375,0,-0.00013860248145647347,0.0014587248442694545,0.02595546655356884,0.0003075685235671699,0.00029529177118092775,0.002151644788682461,0,1,-1000,0,0,0,-2,1,0,127510.0
09:09:31.306,STABILIZE,-35.3632622,149.1652375,0,-0.00021481157455127686,0.0014133085496723652,0.02580283395946026,0.00016173970652744174,0.0002537016407586634,0.0019703395664691925,0,1,-1000,0,0,0,-2,1,0,127510.0
09:09:31.507,STABILIZE,-35.3632622,149.1652375,0,-0.00021481157455127686,0.0014133085496723652,0.02580283395946026,0.00016173970652744174,0.0002537016407586634,0.0019703395664691925,0,1,-1000,0,0,0,-2,1,0,127510.0
09:09:31.708,STABILIZE,-35.3632622,149.1652375,0,-0.00021481157455127686,0.0014133085496723652,0.02580283395946026,0.00016173970652744174,0.0002537016407586634,0.0019703395664691925,0,1,-1000,0,0,0,-2,1,0,127510.0
09:09:31.909,STABILIZE,-35.3632622,149.1652375,0,-0.00021481157455127686,0.0014133085496723652,0.02580283395946026,0.00016173970652744174,0.0002537016407586634,0.0019703395664691925,0,1,-1000,0,0,0,-2,1,0,127510.0
09:09:32.110,STABILIZE,-35.3632622,149.1652375,0,-0.00021481157455127686,0.0014133085496723652,0.02580283395946026,0.00016173970652744174,0.0002537016407586634,0.0019703395664691925,0,1,-1000,0,0,0,-2,1,0,127510.0
09:09:32.311,STABILIZE,-35.3632622,149.1652375,0,-0.00021481157455127686,0.0014133085496723652,0.02580283395946026,0.00016173970652744174,0.0002537016407586634,0.0019703395664691925,0,1,-1000,0,0,0,-2,1,0,127510.0
09:09:32.512,STABILIZE,-35.3632622,149.1652375,0,-0.0005780572537332773,0.0011571119539439678,0.025162313133478165,0.00025108305271714926,0.0003163735382258892,0.002087120432406664,0,1,-1000,0,0,1,-2,1,0,127510.0
09:09:32.712,STABILIZE,-35.3632622,149.1652375,0,-0.0005780572537332773,0.0011571119539439678,0.025162313133478165,0.00025108305271714926,0.0003163735382258892,0.002087120432406664,0,1,-1000,0,0,1,-2,1,0,127510.0
09:09:32.913,STABILIZE,-35.3632622,149.1652375,0,-0.00064177525928244,0.001118047279305756,0.025048505514860153,0.00016315089305862784,0.00025412614922970533,0.0019871247932314873,0,1,-1000,0,0,0,-1,1,0,127510.0
09:09:33.115,STABILIZE,-35.3632622,149.1652375,0,-0.00064177525928244,0.001118047279305756,0.025048505514860153,0.00016315089305862784,0.00025412614922970533,0.0019871247932314873,0,1,-1000,0,0,0,-1,1,0,127510.0
09:09:33.316,STABILIZE,-35.3632622,149.1652375,0,-0.0007521795341745019,0.0010456512682139874,0.024833926931023598,0.0002814754843711853,0.00029074374469928443,0.0019426726503297687,0,1,-1000,0,0,0,-1,1,0,127510.0
09:09:33.517,STABILIZE,-35.3632622,149.1652375,0,-0.0007521795341745019,0.0010456512682139874,0.024833926931023598,0.0002814754843711853,0.00029074374469928443,0.0019426726503297687,0,1,-1000,0,0,0,-1,1,0,127510.0
09:09:33.718,STABILIZE,-35.3632622,149.1652375,0,-0.0007521795341745019,0.0010456512682139874,0.024833926931023598,0.0002814754843711853,0.00029074374469928443,0.0019426726503297687,0,1,-1000,0,0,0,-1,1,0,127510.0
09:09:33.920,STABILIZE,-35.3632622,149.1652375,0,-0.0007521795341745019,0.0010456512682139874,0.024833926931023598,0.0002814754843711853,0.00029074374469928443,0.0019426726503297687,0,1,-1000,0,0,0,-1,1,0,127510.0
09:09:34.121,STABILIZE,-35.3632622,149.1652375,0,-0.0007521795341745019,0.0010456512682139874,0.024833926931023598,0.0002814754843711853,0.00029074374469928443,0.0019426726503297687,0,1,-1000,0,0,0,-1,1,0,127510.0
09:09:34.323,STABILIZE,-35.3632621,149.1652375,0,-0.0005991621874272823,0.0009571986738592386,0.024453405290842056,0.0003011765656992793,0.00030284796957857907,0.0019649816676974297,0,1,-1000,0,0,0,-1,2,1,127510.0
09:09:34.524,STABILIZE,-35.3632621,149.1652375,0,-0.0005991621874272823,0.0009571986738592386,0.024453405290842056,0.0003011765656992793,0.00030284796957857907,0.0019649816676974297,0,1,-1000,0,0,0,-1,2,1,127510.0
09:09:34.726,STABILIZE,-35.3632621,149.1652375,0,-0.0005991621874272823,0.0009571986738592386,0.024453405290842056,0.0003011765656992793,0.00030284796957857907,0.0019649816676974297,0,1,-1000,0,0,0,-1,2,1,127510.0
09:09:34.927,STABILIZE,-35.3632621,149.1652375,0,-0.0005991621874272823,0.0009571986738592386,0.024453405290842056,0.0003011765656992793,0.00030284796957857907,0.0019649816676974297,0,1,-1000,0,0,1,-1,2,1,127510.0
09:09:35.128,STABILIZE,-35.3632621,149.1652375,0,-0.000841381261125207,0.000932302325963974,0.02416840009391308,9.066634811460972e-05,0.00015787576558068395,0.001895521767437458,0,1,-1000,0,0,0,-1,2,1,127510.0
09:09:35.330,STABILIZE,-35.3632621,149.1652375,0,-0.000841381261125207,0.000932302325963974,0.02416840009391308,9.066634811460972e-05,0.00015787576558068395,0.001895521767437458,0,1,-1000,0,0,0,-1,2,1,127510.0
09:09:35.531,STABILIZE,-35.3632621,149.1652375,0,-0.000841381261125207,0.000932302325963974,0.02416840009391308,9.066634811460972e-05,0.00015787576558068395,0.001895521767437458,0,1,-1000,0,0,0,-1,2,1,127510.0
09:09:35.734,STABILIZE,-35.3632621,149.1652375,0,-0.000841381261125207,0.000932302325963974,0.02416840009391308,9.066634811460972e-05,0.00015787576558068395,0.001895521767437458,0,1,-1000,0,0,0,-1,2,1,127510.0
09:09:35.937,STABILIZE,-35.3632621,149.1652375,0,-0.000841381261125207,0.000932302325963974,0.02416840009391308,9.066634811460972e-05,0.00015787576558068395,0.001895521767437458,0,1,-1000,0,0,0,-1,2,1,127510.0
09:09:36.143,STABILIZE,-35.3632621,149.1652375,0,-0.000841381261125207,0.000932302325963974,0.02416840009391308,9.066634811460972e-05,0.00015787576558068395,0.001895521767437458,0,1,-1000,0,0,0,-1,2,1,127510.0
09:09:36.349,STABILIZE,-35.3632621,149.1652375,0,-0.000841381261125207,0.000932302325963974,0.02416840009391308,9.066634811460972e-05,0.00015787576558068395,0.001895521767437458,0,1,-1000,0,0,1,-1,2,1,127510.0
09:09:36.551,STABILIZE,-35.3632621,149.1652375,0,-0.0011361768702045083,0.000915545504540205,0.023687219247221947,0.00013538147322833538,0.00031870556995272636,0.0018465474713593721,0,1,-1000,0,0,1,-1,2,1,127510.0
09:09:36.752,STABILIZE,-35.3632621,149.1652375,0,-0.0011361768702045083,0.000915545504540205,0.023687219247221947,0.00013538147322833538,0.00031870556995272636,0.0018465474713593721,0,1,-1000,0,1,0,-1,1,0,127510.0
09:09:36.953,STABILIZE,-35.3632621,149.1652375,0,-0.0011361768702045083,0.000915545504540205,0.023687219247221947,0.00013538147322833538,0.00031870556995272636,0.0018465474713593721,0,1,-1000,0,1,0,-1,1,0,127510.0
09:09:37.155,STABILIZE,-35.3632621,149.1652375,0,-0.0011883779661729932,0.0009255328914150596,0.02353440225124359,0.00018554547568783164,0.00023345038061961532,0.001757429214194417,0,1,-1000,0,0,0,-1,1,0,127510.0
09:09:37.356,STABILIZE,-35.3632621,149.1652375,0,-0.0011883779661729932,0.0009255328914150596,0.02353440225124359,0.00018554547568783164,0.00023345038061961532,0.001757429214194417,0,1,-1000,0,0,0,-1,1,0,127510.0
09:09:37.558,STABILIZE,-35.3632621,149.1652375,0,-0.0008821330266073346,0.0009393723448738456,0.023399686440825462,0.00033257179893553257,0.00021873239893466234,0.0018082947935909033,0,1,-1000,0,0,0,-1,1,1,127510.0
09:09:37.760,STABILIZE,-35.3632621,149.1652375,0,-0.0008821330266073346,0.0009393723448738456,0.023399686440825462,0.00033257179893553257,0.00021873239893466234,0.0018082947935909033,0,1,-1000,0,0,0,-1,1,1,127510.0
09:09:37.961,STABILIZE,-35.3632621,149.1652375,0,-0.0008821330266073346,0.0009393723448738456,0.023399686440825462,0.00033257179893553257,0.00021873239893466234,0.0018082947935909033,0,1,-1000,0,0,0,-1,1,1,127510.0
09:09:38.162,STABILIZE,-35.3632621,149.1652375,0,-0.0008821330266073346,0.0009393723448738456,0.023399686440825462,0.00033257179893553257,0.00021873239893466234,0.0018082947935909033,0,1,-1000,0,0,0,-1,1,1,127510.0
09:09:38.365,STABILIZE,-35.3632621,149.1652375,0,-0.0010125132976099849,0.0009521227912046015,0.023156948387622833,0.00018081034068018198,0.00021104508778080344,0.0016785496845841408,0,1,-1000,0,0,0,-1,1,0,127510.0
09:09:38.566,STABILIZE,-35.3632621,149.1652375,0,-0.0010125132976099849,0.0009521227912046015,0.023156948387622833,0.00018081034068018198,0.00021104508778080344,0.0016785496845841408,0,1,-1000,0,0,1,-1,1,0,127510.0
09:09:38.768,STABILIZE,-35.3632621,149.1652375,0,-0.0010125132976099849,0.0009521227912046015,0.023156948387622833,0.00018081034068018198,0.00021104508778080344,0.0016785496845841408,0,1,-1000,0,0,0,-1,1,0,127510.0
09:09:38.970,STABILIZE,-35.3632621,149.1652375,0,-0.0010125132976099849,0.0009521227912046015,0.023156948387622833,0.00018081034068018198,0.00021104508778080344,0.0016785496845841408,0,1,-1000,0,0,0,-1,1,0,127510.0
09:09:39.172,STABILIZE,-35.3632621,149.1652375,0,-0.001119032152928412,0.000971166999079287,0.022958271205425262,0.00017305411165580153,0.00032331323018297553,0.0017883669352158904,0,1,-1000,0,0,0,-1,1,0,127510.0
09:09:39.373,STABILIZE,-35.3632621,149.1652375,0,-0.001119032152928412,0.000971166999079287,0.022958271205425262,0.00017305411165580153,0.00032331323018297553,0.0017883669352158904,0,1,-1000,0,0,0,-1,1,0,127510.0
09:09:39.574,STABILIZE,-35.3632622,149.1652375,0,-0.001119032152928412,0.000971166999079287,0.022958271205425262,0.00017305411165580153,0.00032331323018297553,0.0017883669352158904,0,1,-1000,0,0,0,-1,1,0,127510.0
09:09:39.776,STABILIZE,-35.3632622,149.1652375,0,-0.001119032152928412,0.000971166999079287,0.022958271205425262,0.00017305411165580153,0.00032331323018297553,0.0017883669352158904,0,1,-1000,0,0,0,-1,1,0,127510.0
09:09:39.977,STABILIZE,-35.3632622,149.1652375,0,-0.001119032152928412,0.000971166999079287,0.022958271205425262,0.00017305411165580153,0.00032331323018297553,0.0017883669352158904,0,1,-1000,0,0,0,-1,1,0,127510.0
09:09:40.178,STABILIZE,-35.3632622,149.1652375,0,-0.001119032152928412,0.000971166999079287,0.022958271205425262,0.00017305411165580153,0.00032331323018297553,0.0017883669352158904,0,1,-1000,0,0,0,-1,1,0,127510.0
09:09:40.379,STABILIZE,-35.3632622,149.1652375,0,-0.001119032152928412,0.000971166999079287,0.022958271205425262,0.00017305411165580153,0.00032331323018297553,0.0017883669352158904,0,1,-1000,0,0,0,-1,1,0,127510.0
09:09:40.581,STABILIZE,-35.3632622,149.1652375,0,-0.0012581648770719767,0.0009691292652860284,0.022600222378969193,0.00021937460405752063,0.00011027423897758126,0.0017483560368418694,0,1,-1000,0,0,0,-1,1,0,127510.0
09:09:40.782,STABILIZE,-35.3632622,149.1652375,0,-0.0012581648770719767,0.0009691292652860284,0.022600222378969193,0.00021937460405752063,0.00011027423897758126,0.0017483560368418694,0,1,-1000,0,0,0,-1,1,0,127510.0
09:09:40.983,STABILIZE,-35.3632622,149.1652375,0,-0.0012581648770719767,0.0009691292652860284,0.022600222378969193,0.00021937460405752063,0.00011027423897758126,0.0017483560368418694,0,1,-1000,0,0,0,-1,1,0,127510.0
09:09:41.184,STABILIZE,-35.3632622,149.1652375,0,-0.0012581648770719767,0.0009691292652860284,0.022600222378969193,0.00021937460405752063,0.00011027423897758126,0.0017483560368418694,0,1,-1000,0,0,0,-1,1,0,127510.0
09:09:41.386,STABILIZE,-35.3632622,149.1652375,0,-0.0012581648770719767,0.0009691292652860284,0.022600222378969193,0.00021937460405752063,0.00011027423897758126,0.0017483560368418694,0,1,-1000,0,0,0,-1,1,0,127510.0
09:09:41.587,STABILIZE,-35.3632622,149.1652375,0,-0.0012581648770719767,0.0009691292652860284,0.022600222378969193,0.00021937460405752063,0.00011027423897758126,0.0017483560368418694,0,1,-1000,0,0,1,-1,0,0,127510.0
09:09:41.788,STABILIZE,-35.3632622,149.1652375,0,-0.0012581648770719767,0.0009691292652860284,0.022600222378969193,0.00021937460405752063,0.00011027423897758126,0.0017483560368418694,0,1,-1000,0,0,1,-1,0,0,127510.0
09:09:41.989,STABILIZE,-35.3632622,149.1652375,0,-0.0012581648770719767,0.0009691292652860284,0.022600222378969193,0.00021937460405752063,0.00011027423897758126,0.0017483560368418694,0,1,-1000,0,0,1,-1,0,0,127510.0
09:09:42.190,STABILIZE,-35.3632622,149.1652375,0,-0.0012581648770719767,0.0009691292652860284,0.022600222378969193,0.00021937460405752063,0.00011027423897758126,0.0017483560368418694,0,1,-1000,0,0,1,-1,0,0,127510.0
09:09:42.391,STABILIZE,-35.3632622,149.1652375,0,-0.0012638093903660774,0.0009674208704382181,0.022219490259885788,0.00020661461167037487,0.00018097041174769402,0.001604636898264289,0,1,-1000,0,1,0,-1,0,0,127510.0
09:09:42.593,STABILIZE,-35.3632622,149.1652375,0,-0.0012554213171824813,0.0009667240083217621,0.022157462313771248,0.00028055900475010276,0.00022764899767935276,0.001576341688632965,0,1,-1000,1,0,0,-1,0,0,127510.0
09:09:42.794,STABILIZE,-35.3632622,149.1652375,0,-0.0012427609181031585,0.0009696277556940913,0.022099075838923454,0.00024354213383048773,0.00037645798875018954,0.001448637805879116,0,2,-1000,0,0,0,-1,0,0,127510.0
09:09:42.995,STABILIZE,-35.3632622,149.1652375,0,-0.0012378194369375706,0.0009687347337603569,0.02206004597246647,0.00021287950221449137,0.00020381639478728175,0.001572644105181098,0,1,-1000,0,0,1,-1,0,0,127510.0
09:09:43.197,STABILIZE,-35.3632622,149.1652375,0,-0.0012378194369375706,0.0009687347337603569,0.02206004597246647,0.00021287950221449137,0.00020381639478728175,0.001572644105181098,0,1,-1000,0,0,1,-1,0,0,127510.0
09:09:43.398,STABILIZE,-35.3632622,149.1652375,0,-0.0012378194369375706,0.0009687347337603569,0.02206004597246647,0.00021287950221449137,0.00020381639478728175,0.001572644105181098,0,1,-1000,0,0,1,-1,0,0,127510.0
09:09:43.600,STABILIZE,-35.3632622,149.1652375,0,-0.0012245161924511194,0.0009669495048001409,0.021950244903564453,0.0001704904716461897,0.00029280525632202625,0.0015645730309188366,0,2,-1000,0,1,1,-1,0,-1,127510.0
09:09:43.802,STABILIZE,-35.3632622,149.1652375,0,-0.0012245161924511194,0.0009669495048001409,0.021950244903564453,0.0001704904716461897,0.00029280525632202625,0.0015645730309188366,0,2,-1000,0,1,1,-1,0,-1,127510.0
09:09:44.003,STABILIZE,-35.3632622,149.1652375,0,-0.0012245161924511194,0.0009669495048001409,0.021950244903564453,0.0001704904716461897,0.00029280525632202625,0.0015645730309188366,0,2,-1000,0,1,1,-1,0,-1,127510.0
09:09:44.205,STABILIZE,-35.3632622,149.1652375,0,-0.0012245161924511194,0.0009669495048001409,0.021950244903564453,0.0001704904716461897,0.00029280525632202625,0.0015645730309188366,0,2,-1000,0,1,1,-1,0,-1,127510.0
09:09:44.406,STABILIZE,-35.3632622,149.1652375,0,-0.0010436642915010452,0.0009643813245929778,0.021814152598381042,0.0018653033766895533,0.0002969230990856886,0.0015780230751261115,0,27,-962,2,0,1,-1,1,0,127510.0
09:09:44.607,STABILIZE,-35.3632622,149.1652375,0,-0.0010579685913398862,0.0009667666163295507,0.021764792501926422,0.00031765567837283015,0.00036478869151324034,0.0015283743850886822,0,27,-962,2,0,1,-1,1,0,127510.0
09:09:44.809,STABILIZE,-35.3632622,149.1652375,0,-0.0010579685913398862,0.0009667666163295507,0.021764792501926422,0.00031765567837283015,0.00036478869151324034,0.0015283743850886822,0,27,-962,2,0,1,-1,1,0,127510.0
09:09:45.010,STABILIZE,-35.3632622,149.1652375,0,-0.0011202661553397775,0.0009704658878035843,0.021653419360518456,0.00019986997358500957,0.00037986738607287407,0.0014745176304131746,0,1,-1000,1,0,0,-1,1,0,127510.0
09:09:45.211,STABILIZE,-35.3632622,149.1652375,0,-0.0011202661553397775,0.0009704658878035843,0.021653419360518456,0.00019986997358500957,0.00037986738607287407,0.0014745176304131746,0,1,-1000,1,0,0,-1,1,0,127510.0
09:09:45.413,STABILIZE,-35.3632622,149.1652375,0,-0.0011390737490728498,0.0009724253905005753,0.02159312181174755,0.00010334176477044821,0.00023736077127978206,0.0014440992381423712,0,1,-1000,0,0,1,-1,1,0,127510.0
09:09:45.614,STABILIZE,-35.3632622,149.1652375,0,-0.0011610715882852674,0.0009703797404654324,0.021547257900238037,0.00027336226776242256,0.00011861574603244662,0.0014989410992711782,0,2,-1000,0,1,0,-1,1,0,127510.0
09:09:45.816,AUTO,-35.3632622,149.1652375,0,-0.0011610715882852674,0.0009703797404654324,0.021547257900238037,0.00027336226776242256,0.00011861574603244662,0.0014989410992711782,0,2,-1000,0,1,0,-1,1,0,127510.0
09:09:46.042,AUTO,-35.3632622,149.1652375,0,-0.0011610715882852674,0.0009703797404654324,0.021547257900238037,0.00027336226776242256,0.00011861574603244662,0.0014989410992711782,0,2,-1000,0,1,0,-1,1,0,289751.0
09:09:46.245,AUTO,-35.3632622,149.1652375,0,-0.0011610715882852674,0.0009703797404654324,0.021547257900238037,0.00027336226776242256,0.00011861574603244662,0.0014989410992711782,0,2,-1000,0,1,0,-1,1,0,289751.0
09:09:46.446,AUTO,-35.3632622,149.1652375,1,-0.00119233678560704,0.0009826619643718004,0.021419141441583633,0.00026755855651572347,0.0001775264390744269,0.0014960862463340163,0,1,-1000,1,0,0,-1,1,0,289751.0
09:09:46.648,AUTO,-35.3632622,149.1652375,1,-0.0012013561790809035,0.0009896345436573029,0.02136986330151558,0.0001368251978419721,0.00026817788602784276,0.0015169697580859065,0,2,-1000,0,1,1,-1,0,0,289751.0
09:09:46.849,AUTO,-35.3632621,149.1652375,2,-0.0011912377085536718,0.001012978027574718,0.02132236771285534,0.0003075835993513465,0.00026606139726936817,0.0013800181914120913,0,2,-1000,0,1,0,0,0,0,289751.0
09:09:47.051,AUTO,-35.3632621,149.1652375,2,-0.0011699085589498281,0.0010508482810109854,0.021277546882629395,0.0002652805997058749,0.00030085124308243394,0.0013331398367881775,0,1,-1000,0,0,1,0,0,0,289751.0
09:09:47.252,AUTO,-35.3632621,149.1652375,3,-0.0011357003822922707,0.0010973799508064985,0.02123446762561798,0.00030516780680045485,0.0002355737960897386,0.0014394470490515232,0,1,-1000,0,1,0,0,0,0,289751.0
09:09:47.454,AUTO,-35.3632621,149.1652375,3,-0.0011357003822922707,0.0010973799508064985,0.02123446762561798,0.00030516780680045485,0.0002355737960897386,0.0014394470490515232,0,1,-1000,0,1,0,0,0,0,289751.0
09:09:47.656,AUTO,-35.3632621,149.1652375,3,-0.0010920956265181303,0.0011480530956760049,0.021174028515815735,0.00025333097437396646,0.000178221904207021,0.0013678967952728271,0,1,-1000,1,1,0,0,0,0,289751.0
09:09:47.858,AUTO,-35.3632621,149.1652375,3,-0.0010920956265181303,0.0011480530956760049,0.021174028515815735,0.00025333097437396646,0.000178221904207021,0.0013678967952728271,0,1,-1000,1,1,0,0,0,0,289751.0
09:09:48.061,AUTO,-35.3632621,149.1652375,3,-0.0010920956265181303,0.0011480530956760049,0.021174028515815735,0.00025333097437396646,0.000178221904207021,0.0013678967952728271,0,1,-1000,1,1,0,0,0,0,289751.0
09:09:48.263,AUTO,-35.3632621,149.1652375,4,-0.0007660245755687356,0.0013237406965345144,0.02101527340710163,0.0002706961240619421,0.0003465054905973375,0.0013678262475878,0,2,-1000,1,1,0,0,0,0,289751.0
09:09:48.465,AUTO,-35.3632621,149.1652375,4,-0.0007660245755687356,0.0013237406965345144,0.02101527340710163,0.0002706961240619421,0.0003465054905973375,0.0013678262475878,0,2,-1000,1,1,0,0,0,0,289751.0
09:09:48.667,AUTO,-35.3632621,149.1652375,4,-0.000710341555532068,0.0013975546462461352,0.020955637097358704,0.0002888943417929113,0.00021184247452765703,0.0013972918968647718,0,2,-1000,0,0,1,0,0,0,289751.0
09:09:48.869,AUTO,-35.3632621,149.1652375,5,-0.0006545454962179065,0.0014737683814018965,0.0208999365568161,0.0003141627530567348,0.00036101735895499587,0.0014031841419637203,0,1,-1000,0,0,1,0,0,0,144860.0
09:09:49.070,AUTO,-35.3632621,149.1652375,5,-0.0005994667881168425,0.0015474086394533515,0.020832564681768417,0.0002974563976749778,0.0003576264716684818,0.0013987779384478927,0,2,-1000,1,1,1,0,0,0,144860.0
09:09:49.272,AUTO,-35.3632621,149.1652375,6,-0.000530343852005899,0.0016220267862081528,0.020777558907866478,0.0003330074832774699,0.00030594313284382224,0.001351763028651476,0,2,-1000,0,0,1,0,0,0,144860.0
09:09:49.475,AUTO,-35.3632621,149.1652375,6,-0.000530343852005899,0.0016220267862081528,0.020777558907866478,0.0003330074832774699,0.00030594313284382224,0.001351763028651476,0,2,-1000,0,0,1,0,0,0,144860.0
09:09:49.677,AUTO,-35.3632621,149.1652375,6,-0.000463100615888834,0.0017048970330506563,0.020720647647976875,0.00032851792639121413,0.0003586593084037304,0.0014031968312337995,0,1,-1000,0,0,1,0,0,0,144860.0
09:09:49.878,AUTO,-35.3632621,149.1652375,6,-0.000463100615888834,0.0017048970330506563,0.020720647647976875,0.00032851792639121413,0.0003586593084037304,0.0014031968312337995,0,1,-1000,0,0,1,0,0,0,144860.0
09:09:50.080,AUTO,-35.3632621,149.1652375,6,-0.000463100615888834,0.0017048970330506563,0.020720647647976875,0.00032851792639121413,0.0003586593084037304,0.0014031968312337995,0,1,-1000,0,0,1,0,0,0,144860.0
09:09:50.282,AUTO,-35.3632621,149.1652375,195,0.002819540211930871,0.00014107792230788618,0.020453980192542076,0.004318229388445616,0.004960588179528713,0.0031519976910203695,0,0,-1131,5,5,3,0,0,-71,144860.0
09:09:50.483,AUTO,-35.3632621,149.1652375,195,0.002819540211930871,0.00014107792230788618,0.020453980192542076,0.004318229388445616,0.004960588179528713,0.0031519976910203695,0,0,-1131,5,5,3,0,0,-71,144860.0
09:09:50.685,AUTO,-35.3632621,149.1652375,406,0.001654112827964127,0.0011113012442365289,0.02064066007733345,-0.010682831518352032,0.002029580995440483,0.001721688313409686,0,0,-1110,-9,2,1,0,1,-100,144860.0
09:09:50.886,AUTO,-35.3632621,149.1652375,686,0.0013809361262246966,0.0016532005975022912,0.020563451573252678,0.005134966690093279,0.0008710593683645129,2.3115862859413028e-05,0,0,-1090,5,1,0,0,0,-124,144860.0
09:09:51.088,AUTO,-35.3632621,149.1652375,1024,0.01077455747872591,0.0007171959732659161,0.02030271291732788,0.04727818816900253,-0.006088607013225555,0.0012909818906337023,0,0,-1041,48,-5,0,0,1,-139,144860.0
09:09:51.290,AUTO,-35.363262,149.1652375,1396,0.022820569574832916,-0.0010711229406297207,0.020298365503549576,0.04695252329111099,-0.007099204231053591,0.002169896150007844,0,0,-1017,47,-6,2,1,5,-145,144860.0
09:09:51.491,AUTO,-35.363262,149.1652375,1396,0.022820569574832916,-0.0010711229406297207,0.020298365503549576,0.04695252329111099,-0.007099204231053591,0.002169896150007844,0,0,-1017,47,-6,2,1,5,-145,144860.0
09:09:51.693,AUTO,-35.363262,149.1652377,1773,0.0341913066804409,-0.002996911993250251,0.02043658308684826,0.04474412277340889,-0.00833886954933405,0.0027291185688227415,0,-1,-1007,45,-7,2,1,12,-148,144860.0
09:09:51.895,AUTO,-35.363262,149.1652377,1773,0.0341913066804409,-0.002996911993250251,0.02043658308684826,0.04474412277340889,-0.00833886954933405,0.0027291185688227415,0,-1,-1007,45,-7,2,1,12,-148,201171.0
09:09:52.096,AUTO,-35.363262,149.1652377,1773,0.0341913066804409,-0.002996911993250251,0.02043658308684826,0.04474412277340889,-0.00833886954933405,0.0027291185688227415,0,-1,-1007,45,-7,2,1,12,-148,201171.0
09:09:52.298,AUTO,-35.3632616,149.1652398,2918,0.06167924404144287,-0.009190937504172325,-0.007244992069900036,-0.014691312797367573,0.023531101644039154,-0.04357120394706726,1,-9,-992,-14,24,-43,8,43,-148,201171.0
09:09:52.500,AUTO,-35.3632614,149.1652411,3298,0.040476758033037186,0.01318355742841959,-0.03002099320292473,-0.14148898422718048,0.09877855330705643,-0.10374575853347778,3,-11,-991,-140,99,-103,9,53,-146,201171.0
09:09:52.702,AUTO,-35.3632614,149.1652411,3298,0.040476758033037186,0.01318355742841959,-0.03002099320292473,-0.14148898422718048,0.09877855330705643,-0.10374575853347778,3,-11,-991,-140,99,-103,9,53,-146,201171.0
09:09:52.904,AUTO,-35.3632611,149.1652425,3673,-0.003370200516656041,0.024037476629018784,-0.05093561112880707,-0.16125981509685516,0.012103029526770115,-0.09029551595449448,6,-13,-1004,-160,12,-90,6,54,-145,201171.0
09:09:53.106,AUTO,-35.363261,149.1652439,4051,-0.027077334001660347,0.028016185387969017,-0.07267837971448898,-0.05274093523621559,0.018915394321084023,-0.09062068164348602,6,-11,-1011,-51,19,-90,1,46,-148,201171.0
09:09:53.308,AUTO,-35.3632609,149.165245,4434,-0.03852805867791176,0.02672196552157402,-0.0886891558766365,-0.05348770692944527,-0.027584487572312355,-0.04697771370410919,5,-8,-1004,-52,-27,-47,-3,36,-149,201171.0
09:09:53.511,AUTO,-35.363261,149.1652458,4818,-0.055653851479291916,0.011822122149169445,-0.09046775847673416,-0.07682021707296371,-0.07730479538440704,0.010470111854374409,6,-6,-1001,-76,-76,10,-7,23,-149,201171.0
09:09:53.713,AUTO,-35.363261,149.1652458,4818,-0.055653851479291916,0.011822122149169445,-0.09046775847673416,-0.07682021707296371,-0.07730479538440704,0.010470111854374409,6,-6,-1001,-76,-76,10,-7,23,-149,201171.0
09:09:53.916,AUTO,-35.363261,149.1652458,4818,-0.055653851479291916,0.011822122149169445,-0.09046775847673416,-0.07682021707296371,-0.07730479538440704,0.010470111854374409,6,-6,-1001,-76,-76,10,-7,23,-149,201171.0
09:09:54.118,AUTO,-35.363261,149.1652458,4818,-0.055653851479291916,0.011822122149169445,-0.09046775847673416,-0.07682021707296371,-0.07730479538440704,0.010470111854374409,6,-6,-1001,-76,-76,10,-7,23,-149,201171.0
09:09:54.321,AUTO,-35.3632613,149.1652456,5979,-0.06561780720949173,-0.014553877525031567,-0.08218765258789062,0.04997120052576065,0.0007323903846554458,0.0003777731326408684,-2,4,-1001,50,0,0,-2,-31,-150,201171.0
09:09:54.524,AUTO,-35.3632613,149.1652446,6364,-0.05180037394165993,-0.014122477732598782,-0.08345288038253784,0.058760013431310654,0.0031021235045045614,0.0019488579127937555,-3,5,-1000,59,3,1,0,-44,-150,201171.0
09:09:54.727,AUTO,-35.3632613,149.1652446,6364,-0.05180037394165993,-0.014122477732598782,-0.08345288038253784,0.058760013431310654,0.0031021235045045614,0.0019488579127937555,-3,5,-1000,59,3,1,0,-44,-150,201171.0
09:09:54.930,AUTO,-35.3632614,149.1652432,6748,-0.036773208528757095,-0.012418434955179691,-0.08422603458166122,0.06126897409558296,0.009021332487463951,0.002947236644104123,-6,11,-1001,61,9,2,0,-53,-150,135655.0
09:09:55.134,AUTO,-35.3632614,149.1652417,7132,-0.020979266613721848,-0.00950079970061779,-0.084319569170475,0.06485879421234131,0.013362187892198563,0.00349081470631063,-7,12,-1002,65,14,3,1,-59,-150,135655.0
09:09:55.336,AUTO,-35.3632614,149.16524,7519,-0.004925898741930723,-0.005759760271757841,-0.08403034508228302,0.06633155792951584,0.015861423686146736,0.004001311957836151,-7,8,-1003,67,16,3,1,-60,-151,135655.0
09:09:55.538,AUTO,-35.3632614,149.1652383,7907,0.011517537757754326,-0.001648179953917861,-0.08342529088258743,0.06488923728466034,0.016284991055727005,0.0044457935728132725,-7,10,-1004,65,17,4,0,-57,-152,135655.0
09:09:55.740,AUTO,-35.3632614,149.1652383,7907,0.011517537757754326,-0.001648179953917861,-0.08342529088258743,0.06488923728466034,0.016284991055727005,0.0044457935728132725,-7,10,-1004,65,17,4,0,-57,-152,135655.0
09:09:55.943,AUTO,-35.3632614,149.1652383,7907,0.011517537757754326,-0.001648179953917861,-0.08342529088258743,0.06488923728466034,0.016284991055727005,0.0044457935728132725,-7,10,-1004,65,17,4,0,-57,-152,135655.0
09:09:56.145,AUTO,-35.3632614,149.1652383,7907,0.011517537757754326,-0.001648179953917861,-0.08342529088258743,0.06488923728466034,0.016284991055727005,0.0044457935728132725,-7,10,-1004,65,17,4,0,-57,-152,135655.0
09:09:56.347,AUTO,-35.3632614,149.1652345,9084,0.05854200944304466,0.00795620959252119,-0.08048109710216522,0.05839379131793976,0.007432498037815094,0.0025951345451176167,-4,6,-1002,58,8,2,-3,-25,-154,135655.0
09:09:56.549,AUTO,-35.3632615,149.1652339,9477,0.06626461446285248,0.01497014332562685,-0.08544322848320007,0.01077770534902811,0.04362044110894203,-0.03585465997457504,-2,5,-997,11,44,-36,-4,-9,-153,135655.0
09:09:56.751,AUTO,-35.3632617,149.1652338,9867,0.057800501585006714,0.020203568041324615,-0.09004877507686615,-0.06193024292588234,-0.005788515787571669,-0.0056365979835391045,0,1,-993,-61,-5,-5,-7,6,-151,135655.0
09:09:56.954,AUTO,-35.3632617,149.1652338,9867,0.057800501585006714,0.020203568041324615,-0.09004877507686615,-0.06193024292588234,-0.005788515787571669,-0.0056365979835391045,0,1,-993,-61,-5,-5,-7,6,-151,135655.0
09:09:57.156,AUTO,-35.3632618,149.1652341,10252,0.03762102499604225,0.01378520205616951,-0.08977959305047989,-0.08833865076303482,-0.03370985761284828,0.006787414662539959,2,-1,-996,-87,-33,6,-9,17,-150,135655.0
09:09:57.358,AUTO,-35.363262,149.1652346,10638,0.016959020867943764,0.005511109717190266,-0.08834847807884216,-0.07478455454111099,-0.03113752231001854,0.007041264791041613,3,-2,-1000,-74,-30,6,-10,22,-149,135655.0
09:09:57.560,AUTO,-35.3632622,149.165235,11021,0.0015326141146942973,-0.0005651043611578643,-0.0880204513669014,-0.0511784665286541,-0.018615446984767914,-0.0012480837758630514,4,-2,-1003,-50,-17,-1,-8,23,-150,135655.0
09:09:57.762,AUTO,-35.3632622,149.165235,11021,0.0015326141146942973,-0.0005651043611578643,-0.0880204513669014,-0.0511784665286541,-0.018615446984767914,-0.0012480837758630514,4,-2,-1003,-50,-17,-1,-8,23,-150,135655.0
09:09:57.970,AUTO,-35.3632622,149.165235,11021,0.0015326141146942973,-0.0005651043611578643,-0.0880204513669014,-0.0511784665286541,-0.018615446984767914,-0.0012480837758630514,4,-2,-1003,-50,-17,-1,-8,23,-150,260095.0
09:09:58.172,AUTO,-35.3632622,149.165235,11021,0.0015326141146942973,-0.0005651043611578643,-0.0880204513669014,-0.0511784665286541,-0.018615446984767914,-0.0012480837758630514,4,-2,-1003,-50,-17,-1,-8,23,-150,260095.0
09:09:58.374,AUTO,-35.3632626,149.1652364,12175,-0.015651579946279526,-0.006985907908529043,-0.09732704609632492,-0.0013715327950194478,-0.0021436638198792934,-0.019554775208234787,2,-2,-1001,0,-1,-19,-2,10,-152,260095.0
09:09:58.575,AUTO,-35.3632626,149.1652365,12564,-0.014495300129055977,-0.006946989335119724,-0.10292143374681473,0.008233923465013504,0.004047119524329901,-0.024076439440250397,0,-1,-1001,8,4,-24,0,5,-152,260095.0
09:09:58.777,AUTO,-35.3632625,149.1652366,12954,-0.01183381024748087,-0.005983589682728052,-0.10911866277456284,0.01151569839566946,0.005346928723156452,-0.024218952283263206,0,0,-1000,12,6,-24,1,1,-152,260095.0
09:09:58.978,AUTO,-35.3632625,149.1652366,12954,-0.01183381024748087,-0.005983589682728052,-0.10911866277456284,0.01151569839566946,0.005346928723156452,-0.024218952283263206,0,0,-1000,12,6,-24,1,1,-152,260095.0
09:09:59.180,AUTO,-35.3632625,149.1652365,13343,-0.008272351697087288,-0.00463281711563468,-0.11555549502372742,0.016395138576626778,0.006893596146255732,-0.025100044906139374,0,0,-1000,17,7,-25,3,-1,-152,260095.0
09:09:59.381,AUTO,-35.3632625,149.1652364,13733,-0.004106423817574978,-0.003126629162579775,-0.12169021368026733,0.017723293974995613,0.00694017531350255,-0.022394860163331032,-1,0,-1000,18,7,-22,4,-4,-153,260095.0
09:09:59.583,AUTO,-35.3632624,149.1652363,14123,-0.0002301442000316456,-0.0011874429183080792,-0.12781333923339844,0.015087048523128033,0.009317034855484962,-0.023520493879914284,-2,0,-1000,15,9,-23,4,-5,-153,260095.0
09:09:59.785,AUTO,-35.3632624,149.1652363,14123,-0.0002301442000316456,-0.0011874429183080792,-0.12781333923339844,0.015087048523128033,0.009317034855484962,-0.023520493879914284,-2,0,-1000,15,9,-23,4,-5,-153,260095.0
09:09:59.986,AUTO,-35.3632624,149.1652363,14123,-0.0002301442000316456,-0.0011874429183080792,-0.12781333923339844,0.015087048523128033,0.009317034855484962,-0.023520493879914284,-2,0,-1000,15,9,-23,4,-5,-153,260095.0
09:10:00.188,AUTO,-35.3632624,149.1652363,14123,-0.0002301442000316456,-0.0011874429183080792,-0.12781333923339844,0.015087048523128033,0.009317034855484962,-0.023520493879914284,-2,0,-1000,15,9,-23,4,-5,-153,260095.0
09:10:00.390,AUTO,-35.363262,149.1652357,15445,0.008156445808708668,0.004905508831143379,-0.1461423933506012,0.0037893778644502163,0.007254791911691427,-0.01951727457344532,-2,0,-999,4,7,-19,3,-3,-153,260095.0
09:10:00.591,AUTO,-35.363262,149.1652357,15445,0.008156445808708668,0.004905508831143379,-0.1461423933506012,0.0037893778644502163,0.007254791911691427,-0.01951727457344532,-2,0,-999,4,7,-19,3,-3,-153,260095.0
09:10:00.795,AUTO,-35.3632619,149.1652356,15834,0.008870850317180157,0.006207840982824564,-0.15079933404922485,0.00048209185479208827,0.0025522916112095118,-0.01619165949523449,-1,0,-999,1,2,-16,2,-1,-153,260095.0
09:10:00.997,AUTO,-35.3632618,149.1652355,16224,0.008861246518790722,0.0066269696690142155,-0.15489450097084045,0.00036618142621591687,0.002202348317950964,-0.01656991057097912,-1,0,-1000,1,2,-16,1,0,-153,17171.0
09:10:01.199,AUTO,-35.3632617,149.1652354,16613,0.008705461397767067,0.006995004136115313,-0.15876878798007965,-0.0005287654930725694,0.0010719869751483202,-0.015262939967215061,-1,0,-1000,0,1,-15,0,1,-153,17171.0
09:10:01.401,AUTO,-35.3632617,149.1652354,17003,0.008259378373622894,0.006909774150699377,-0.16218920052051544,-0.003846118226647377,-0.002300007501617074,-0.010775834321975708,0,0,-1000,-3,-1,-11,0,2,-153,17171.0
09:10:01.602,AUTO,-35.3632616,149.1652354,17400,0.007019114680588245,0.006622916553169489,-0.1657417118549347,-0.0023016799241304398,0.000494252541102469,-0.012969392351806164,0,0,-1000,-1,1,-13,0,4,-153,17171.0
09:10:01.804,AUTO,-35.3632616,149.1652354,17400,0.007019114680588245,0.006622916553169489,-0.1657417118549347,-0.0023016799241304398,0.000494252541102469,-0.012969392351806164,0,0,-1000,-1,1,-13,0,4,-153,17171.0
09:10:02.005,AUTO,-35.3632616,149.1652354,17400,0.007019114680588245,0.006622916553169489,-0.1657417118549347,-0.0023016799241304398,0.000494252541102469,-0.012969392351806164,0,0,-1000,-1,1,-13,0,4,-153,17171.0
09:10:02.207,AUTO,-35.3632616,149.1652354,17400,0.007019114680588245,0.006622916553169489,-0.1657417118549347,-0.0023016799241304398,0.000494252541102469,-0.012969392351806164,0,0,-1000,-1,1,-13,0,4,-153,17171.0
09:10:02.409,AUTO,-35.3632616,149.1652356,18568,0.004754333291202784,0.005514475982636213,-0.17636442184448242,-0.002754725283011794,-0.0017794379964470863,-0.012242416851222515,0,0,-999,-1,0,-12,-2,6,-153,17171.0
09:10:02.610,AUTO,-35.3632616,149.1652357,18957,0.004336412996053696,0.004766439087688923,-0.17989851534366608,-0.0034458443988114595,-0.0025121227372437716,-0.015510465949773788,0,0,-1000,-2,-1,-15,-2,6,-153,17171.0
09:10:02.812,AUTO,-35.3632616,149.1652357,18957,0.004336412996053696,0.004766439087688923,-0.17989851534366608,-0.0034458443988114595,-0.0025121227372437716,-0.015510465949773788,0,0,-1000,-2,-1,-15,-2,6,-153,17171.0
09:10:03.013,AUTO,-35.3632616,149.1652358,19346,0.003579978132620454,0.004429459106177092,-0.18391548097133636,-0.0033471528440713882,4.641944542527199e-05,-0.017763664945960045,0,0,-1000,-2,0,-17,-3,6,-153,17171.0
09:10:03.215,AUTO,-35.3632616,149.1652359,19736,0.003029868006706238,0.004161469172686338,-0.18812406063079834,0.00010166928404942155,-0.00017829443095251918,-0.018192410469055176,0,0,-1000,0,0,-18,-3,6,-153,17171.0
09:10:03.417,AUTO,-35.3632616,149.165236,20126,0.002387584885582328,0.0038824009243398905,-0.19251641631126404,-0.0031152786687016487,0.0003193864249624312,-0.01896418258547783,0,-1,-1000,-2,1,-19,-3,6,-153,17171.0
09:10:03.620,AUTO,-35.3632616,149.1652361,20514,0.0017630367074161768,0.003724100533872843,-0.19709736108779907,-0.0027816786896437407,-0.0002448117593303323,-0.01900472491979599,0,0,-1000,-2,0,-19,-3,5,-153,17171.0
09:10:03.821,AUTO,-35.3632616,149.1652361,20514,0.0017630367074161768,0.003724100533872843,-0.19709736108779907,-0.0027816786896437407,-0.0002448117593303323,-0.01900472491979599,0,0,-1000,-2,0,-19,-3,5,-153,17171.0
09:10:04.023,AUTO,-35.3632616,149.1652361,20514,0.0017630367074161768,0.003724100533872843,-0.19709736108779907,-0.0027816786896437407,-0.0002448117593303323,-0.01900472491979599,0,0,-1000,-2,0,-19,-3,5,-153,13808.0
09:10:04.225,AUTO,-35.3632616,149.1652361,20514,0.0017630367074161768,0.003724100533872843,-0.19709736108779907,-0.0027816786896437407,-0.0002448117593303323,-0.01900472491979599,0,0,-1000,-2,0,-19,-3,5,-153,13808.0
09:10:04.426,AUTO,-35.3632618,149.1652361,21668,-0.044995296746492386,0.018725266680121422,-0.18059097230434418,-0.027231132611632347,0.09061085432767868,0.21126821637153625,0,1,-982,-26,91,211,-7,-9,-147,13808.0
09:10:04.628,AUTO,-35.363262,149.1652357,22038,-0.047941893339157104,0.04661060497164726,-0.09299883246421814,-0.029785694554448128,0.0834740623831749,0.4668954014778137,-1,3,-983,-28,84,466,-16,-20,-142,13808.0
09:10:04.829,AUTO,-35.363262,149.1652357,22038,-0.047941893339157104,0.04661060497164726,-0.09299883246421814,-0.029785694554448128,0.0834740623831749,0.4668954014778137,-1,3,-983,-28,84,466,-16,-20,-142,13808.0
09:10:05.032,AUTO,-35.3632624,149.1652349,22392,-0.04106929898262024,0.052795350551605225,0.024722548201680183,0.06375990808010101,-0.10523812472820282,0.37786510586738586,1,7,-956,64,-104,377,-28,-29,-134,13808.0
09:10:05.235,AUTO,-35.3632631,149.165234,22719,-0.01152840256690979,0.012338591739535332,0.08768163621425629,0.1238565593957901,-0.1825622022151947,0.14030440151691437,3,10,-954,124,-181,140,-35,-34,-123,13808.0
09:10:05.437,AUTO,-35.3632638,149.165233,23019,0.01883813738822937,-0.02435225434601307,0.10223140567541122,0.11124257743358612,-0.10911345481872559,8.836529741529375e-05,2,10,-957,112,-108,0,-32,-31,-112,13808.0
09:10:05.639,AUTO,-35.3632644,149.1652323,23291,0.040898438543081284,-0.04121595248579979,0.09457068145275116,0.0648038312792778,-0.03747255355119705,-0.04718857258558273,2,9,-960,65,-36,-47,-23,-21,-102,13808.0
09:10:05.841,AUTO,-35.3632644,149.1652323,23291,0.040898438543081284,-0.04121595248579979,0.09457068145275116,0.0648038312792778,-0.03747255355119705,-0.04718857258558273,2,9,-960,65,-36,-47,-23,-21,-102,13808.0
09:10:06.043,AUTO,-35.3632644,149.1652323,23291,0.040898438543081284,-0.04121595248579979,0.09457068145275116,0.0648038312792778,-0.03747255355119705,-0.04718857258558273,2,9,-960,65,-36,-47,-23,-21,-102,13808.0
09:10:06.245,AUTO,-35.3632644,149.1652323,23291,0.040898438543081284,-0.04121595248579979,0.09457068145275116,0.0648038312792778,-0.03747255355119705,-0.04718857258558273,2,9,-960,65,-36,-47,-23,-21,-102,13808.0
09:10:06.447,AUTO,-35.363265,149.1652318,23960,0.0498230904340744,-0.03419555723667145,0.06886201351881027,-0.027548322454094887,0.033180586993694305,-0.01230743620544672,0,-2,-971,-26,33,-12,4,17,-75,13808.0
09:10:06.649,AUTO,-35.3632648,149.1652324,24141,0.0412769615650177,-0.025070795789361,0.06698867678642273,-0.04072091355919838,0.039070237427949905,-0.0018065560143440962,0,-5,-974,-39,40,-1,11,26,-68,13808.0
09:10:06.853,AUTO,-35.3632645,149.1652331,24306,0.030577437952160835,-0.01567610166966915,0.06650341302156448,-0.040219496935606,0.03712596371769905,0.0014346661046147346,0,-7,-976,-39,38,0,16,33,-62,13808.0
09:10:07.054,AUTO,-35.3632645,149.1652331,24306,0.030577437952160835,-0.01567610166966915,0.06650341302156448,-0.040219496935606,0.03712596371769905,0.0014346661046147346,0,-7,-976,-39,38,0,16,33,-62,42446.0
09:10:07.256,AUTO,-35.363264,149.165234,24455,0.02029760181903839,-0.006830730475485325,0.06605003774166107,-0.03689241409301758,0.033407509326934814,0.001434384728781879,0,-9,-977,-35,34,1,19,36,-56,42446.0
09:10:07.458,AUTO,-35.3632636,149.1652349,24590,0.011698851361870766,0.0007816620054654777,0.06533732265233994,-0.033695999532938004,0.029205018654465675,6.460894655901939e-05,0,-10,-977,-32,30,0,20,37,-50,42446.0
09:10:07.662,AUTO,-35.3632631,149.1652359,24709,0.004296690225601196,0.006913039833307266,0.0644543245434761,-0.02284032106399536,0.0198452640324831,0.0012223069788888097,0,-9,-978,-21,20,1,19,36,-45,42446.0
09:10:07.872,AUTO,-35.3632631,149.1652359,24709,0.004296690225601196,0.006913039833307266,0.0644543245434761,-0.02284032106399536,0.0198452640324831,0.0012223069788888097,0,-9,-978,-21,20,1,19,36,-45,42446.0
09:10:08.074,AUTO,-35.3632631,149.1652359,24709,0.004296690225601196,0.006913039833307266,0.0644543245434761,-0.02284032106399536,0.0198452640324831,0.0012223069788888097,0,-9,-978,-21,20,1,19,36,-45,42446.0
09:10:08.275,AUTO,-35.3632631,149.1652359,24709,0.004296690225601196,0.006913039833307266,0.0644543245434761,-0.02284032106399536,0.0198452640324831,0.0012223069788888097,0,-9,-978,-21,20,1,19,36,-45,42446.0
09:10:08.477,AUTO,-35.3632619,149.1652383,24977,-0.009249689057469368,0.015191414393484592,0.06148284673690796,0.0016423084307461977,0.005574989132583141,-0.0032268636859953403,0,-6,-975,2,6,-3,12,25,-27,42446.0
09:10:08.679,AUTO,-35.3632616,149.1652389,25036,-0.010819397866725922,0.015557968989014626,0.06045883148908615,-0.009421827271580696,-0.001197103876620531,-0.0031009281519800425,0,-6,-1053,-8,0,-3,9,20,-26,42446.0
09:10:08.880,AUTO,-35.3632614,149.1652394,25093,-0.011858240701258183,0.014460435137152672,0.05941512808203697,-0.022293303161859512,-0.003403967246413231,-0.005656418390572071,0,-3,-966,-21,-2,-5,6,15,-20,42446.0
09:10:09.082,AUTO,-35.3632614,149.1652394,25093,-0.011858240701258183,0.014460435137152672,0.05941512808203697,-0.022293303161859512,-0.003403967246413231,-0.005656418390572071,0,-3,-966,-21,-2,-5,6,15,-20,42446.0
09:10:09.283,AUTO,-35.3632612,149.1652397,25128,-0.008375325240194798,0.013089601881802082,0.05841842293739319,0.17516429722309113,-0.0048255594447255135,-0.004490001127123833,0,2,-956,176,-3,-4,4,11,-10,42446.0
09:10:09.485,AUTO,-35.3632611,149.1652399,25130,-0.04319893568754196,0.02859410084784031,0.05745309218764305,-0.45766621828079224,0.06796518713235855,-0.0012204942759126425,1,-24,-900,-457,68,-1,0,5,8,42446.0
09:10:09.687,AUTO,-35.3632611,149.1652399,25079,-0.05064345523715019,0.019170498475432396,0.05493723973631859,-0.8044549226760864,-0.09112023562192917,-0.009842208586633205,0,-26,-945,-803,-90,-9,-4,-4,27,42446.0
09:10:09.889,AUTO,-35.3632611,149.1652399,25079,-0.05064345523715019,0.019170498475432396,0.05493723973631859,-0.8044549226760864,-0.09112023562192917,-0.009842208586633205,0,-26,-945,-803,-90,-9,-4,-4,27,42446.0
09:10:10.091,AUTO,-35.3632611,149.1652399,25079,-0.05064345523715019,0.019170498475432396,0.05493723973631859,-0.8044549226760864,-0.09112023562192917,-0.009842208586633205,0,-26,-945,-803,-90,-9,-4,-4,27,222507.0
09:10:10.293,AUTO,-35.3632611,149.1652399,25079,-0.05064345523715019,0.019170498475432396,0.05493723973631859,-0.8044549226760864,-0.09112023562192917,-0.009842208586633205,0,-26,-945,-803,-90,-9,-4,-4,27,222507.0
09:10:10.494,AUTO,-35.3632611,149.1652393,24896,0.02745969034731388,-0.04564296454191208,0.05235869809985161,0.7737099528312683,-0.0549287348985672,-0.0031978508923202753,-2,41,-1021,775,-53,-3,9,-5,12,222507.0
09:10:10.696,AUTO,-35.3632607,149.1652392,24865,0.043387219309806824,-0.05810840427875519,0.05030783265829086,0.3003136217594147,-0.04970085248351097,-0.0031563593074679375,-2,-11,-1015,300,-48,-3,21,0,6,222507.0
09:10:10.898,AUTO,-35.3632601,149.1652393,24841,0.04258834943175316,-0.06852446496486664,0.048482369631528854,-0.4352334439754486,-0.043772391974925995,0.0004580239183269441,-6,-40,-1010,-435,-42,0,35,8,4,222507.0
09:10:11.099,AUTO,-35.3632601,149.1652393,24841,0.04258834943175316,-0.06852446496486664,0.048482369631528854,-0.4352334439754486,-0.043772391974925995,0.0004580239183269441,-6,-40,-1010,-435,-42,0,35,8,4,222507.0
09:10:11.301,AUTO,-35.3632591,149.1652396,24828,0.03944704681634903,-0.07920586317777634,0.07158147543668747,-0.5930145978927612,-0.04949062317609787,0.284136563539505,-8,-25,-1005,-591,-48,283,51,19,0,222507.0
09:10:11.503,AUTO,-35.3632577,149.1652402,24817,0.03398861736059189,-0.09502384811639786,0.21772699058055878,-0.07925079017877579,-0.053487591445446014,0.7717830538749695,-12,-5,-1020,-77,-52,771,69,30,0,222507.0
09:10:11.706,AUTO,-35.363256,149.1652411,24809,0.029388660565018654,-0.11337076872587204,0.4300660192966461,0.5547924041748047,-0.036211613565683365,0.8342297673225403,-22,22,-1007,556,-35,834,88,41,0,222507.0
09:10:11.908,AUTO,-35.363256,149.1652411,24809,0.029388660565018654,-0.11337076872587204,0.4300660192966461,0.5547924041748047,-0.036211613565683365,0.8342297673225403,-22,22,-1007,556,-35,834,88,41,0,222507.0
09:10:12.110,AUTO,-35.363256,149.1652411,24809,0.029388660565018654,-0.11337076872587204,0.4300660192966461,0.5547924041748047,-0.036211613565683365,0.8342297673225403,-22,22,-1007,556,-35,834,88,41,0,222507.0
09:10:12.312,AUTO,-35.363256,149.1652411,24809,0.029388660565018654,-0.11337076872587204,0.4300660192966461,0.5547924041748047,-0.036211613565683365,0.8342297673225403,-22,22,-1007,556,-35,834,88,41,0,222507.0
09:10:12.515,AUTO,-35.3632481,149.1652458,24789,0.01028977520763874,-0.14965438842773438,0.6052886247634888,-0.5273181200027466,-0.05024951696395874,-0.07608452439308167,-32,-45,-991,-526,-49,-75,152,81,0,222507.0
09:10:12.718,AUTO,-35.3632445,149.1652481,24776,0.012189927510917187,-0.1627947837114334,0.5791464447975159,-0.1929289847612381,-0.05044429004192352,-0.10228049755096436,-43,-17,-1001,-191,-49,-102,176,96,2,222507.0
09:10:12.920,AUTO,-35.3632403,149.1652508,24761,0.02436141110956669,-0.17630049586296082,0.5613663792610168,0.45826613903045654,-0.05956089869141579,-0.06614650040864944,-51,3,-1007,459,-58,-65,201,111,3,222507.0
09:10:13.122,AUTO,-35.3632356,149.165254,24743,0.02920081466436386,-0.1867210417985916,0.5539370179176331,0.28127285838127136,-0.03482166677713394,-0.0060311066918075085,-52,-28,-1004,281,-34,-5,230,126,4,140396.0
09:10:13.324,AUTO,-35.3632356,149.165254,24743,0.02920081466436386,-0.1867210417985916,0.5539370179176331,0.28127285838127136,-0.03482166677713394,-0.0060311066918075085,-52,-28,-1004,281,-34,-5,230,126,4,140396.0
09:10:13.526,AUTO,-35.3632301,149.1652577,24725,0.020061591640114784,-0.1901433914899826,0.5529976487159729,-0.38698646426200867,0.001574584748595953,0.019393201917409897,-56,-56,-1001,-386,2,19,258,142,4,140396.0
09:10:13.728,AUTO,-35.3632241,149.1652618,24706,0.0232425294816494,-0.1890394538640976,0.5528811812400818,-0.052210353314876556,-0.009473536163568497,-0.008327696472406387,-62,-20,-1004,-50,-8,-8,285,157,4,140396.0
09:10:13.931,AUTO,-35.3632241,149.1652618,24706,0.0232425294816494,-0.1890394538640976,0.5528811812400818,-0.052210353314876556,-0.009473536163568497,-0.008327696472406387,-62,-20,-1004,-50,-8,-8,285,157,4,140396.0
09:10:14.133,AUTO,-35.3632241,149.1652618,24706,0.0232425294816494,-0.1890394538640976,0.5528811812400818,-0.052210353314876556,-0.009473536163568497,-0.008327696472406387,-62,-20,-1004,-50,-8,-8,285,157,4,140396.0
09:10:14.335,AUTO,-35.3632241,149.1652618,24706,0.0232425294816494,-0.1890394538640976,0.5528811812400818,-0.052210353314876556,-0.009473536163568497,-0.008327696472406387,-62,-20,-1004,-50,-8,-8,285,157,4,140396.0
09:10:14.537,AUTO,-35.3632027,149.1652761,24642,0.03593958541750908,-0.1931176781654358,0.5508909821510315,-0.2768195867538452,-0.009869903326034546,-0.00730823865160346,-88,-60,-1003,-275,-9,-7,360,196,6,140396.0
09:10:14.738,AUTO,-35.3631945,149.1652817,24620,0.04224091023206711,-0.20199225842952728,0.5494261384010315,0.12958134710788727,-0.03587659075856209,-0.0238468199968338,-77,-41,-992,131,-35,-24,383,209,8,140396.0
09:10:14.942,AUTO,-35.3631857,149.1652876,24594,0.048261288553476334,-0.20910526812076569,0.5479884147644043,0.18348757922649384,-0.02646324783563614,0.004531343467533588,-108,-43,-997,184,-25,4,407,222,9,140396.0
09:10:15.145,AUTO,-35.3631764,149.1652939,24565,0.045412030071020126,-0.21555514633655548,0.5470361113548279,-0.19881515204906464,-0.02194756083190441,0.004060525447130203,-103,-59,-995,-198,-20,4,432,236,10,140396.0
09:10:15.347,AUTO,-35.3631764,149.1652939,24565,0.045412030071020126,-0.21555514633655548,0.5470361113548279,-0.19881515204906464,-0.02194756083190441,0.004060525447130203,-103,-59,-995,-198,-20,4,432,236,10,140396.0
09:10:15.549,AUTO,-35.3631664,149.1653007,24533,0.050266142934560776,-0.21648168563842773,0.5461070537567139,0.06708043068647385,0.017019590362906456,-0.00844054576009512,-97,-53,-998,68,17,-8,457,249,11,140396.0
09:10:15.751,AUTO,-35.3631559,149.1653078,24502,0.05471711978316307,-0.2122008055448532,0.5445548295974731,0.11500146985054016,0.02372613362967968,-0.007464027032256126,-112,-61,-998,116,24,-7,480,262,10,140396.0
09:10:15.953,AUTO,-35.3631559,149.1653078,24502,0.05471711978316307,-0.2122008055448532,0.5445548295974731,0.11500146985054016,0.02372613362967968,-0.007464027032256126,-112,-61,-998,116,24,-7,480,262,10,214836.0
09:10:16.156,AUTO,-35.3631559,149.1653078,24502,0.05471711978316307,-0.2122008055448532,0.5445548295974731,0.11500146985054016,0.02372613362967968,-0.007464027032256126,-112,-61,-998,116,24,-7,480,262,10,214836.0
09:10:16.364,AUTO,-35.3631559,149.1653078,24502,0.05471711978316307,-0.2122008055448532,0.5445548295974731,0.11500146985054016,0.02372613362967968,-0.007464027032256126,-112,-61,-998,116,24,-7,480,262,10,214836.0
09:10:16.568,AUTO,-35.3631218,149.165331,24424,0.061455756425857544,-0.1859130859375,0.5431623458862305,0.047481879591941833,0.03503641113638878,-0.012024013325572014,-133,-72,-1002,48,36,-12,535,293,6,214836.0
09:10:16.770,AUTO,-35.3631096,149.1653393,24404,0.06326771527528763,-0.18120837211608887,0.5415065288543701,-0.07635971158742905,0.014059759676456451,-0.0034859527368098497,-103,-91,-983,-75,14,-3,548,300,6,214836.0
09:10:16.972,AUTO,-35.3630972,149.1653477,24385,0.06735913455486298,-0.18073520064353943,0.5399666428565979,0.05305958911776543,0.005203564651310444,-0.0070802937261760235,-132,-65,-985,54,6,-7,558,307,7,214836.0
09:10:17.174,AUTO,-35.3630845,149.1653563,24362,0.06745928525924683,-0.17705364525318146,0.5390005111694336,-0.03439696133136749,0.03774433210492134,-0.006201379932463169,-120,-62,-984,-33,38,-6,569,314,9,214836.0
09:10:17.376,AUTO,-35.3630716,149.165365,24339,0.07081422209739685,-0.16792961955070496,0.539032518863678,-0.018396597355604172,0.036854322999715805,-0.0019489109981805086,-132,-72,-989,-17,37,-2,578,318,8,214836.0
09:10:17.578,AUTO,-35.3630716,149.165365,24339,0.07081422209739685,-0.16792961955070496,0.539032518863678,-0.018396597355604172,0.036854322999715805,-0.0019489109981805086,-132,-72,-989,-17,37,-2,578,318,8,214836.0
09:10:17.780,AUTO,-35.3630584,149.1653739,24317,0.07606255263090134,-0.1614176481962204,0.5388194918632507,0.057329919189214706,0.007694199215620756,0.005509696435183287,-120,-64,-980,58,8,5,585,323,8,214836.0
09:10:17.982,AUTO,-35.3630584,149.1653739,24317,0.07606255263090134,-0.1614176481962204,0.5388194918632507,0.057329919189214706,0.007694199215620756,0.005509696435183287,-120,-64,-980,58,8,5,585,323,8,214836.0
09:10:18.184,AUTO,-35.3630584,149.1653739,24317,0.07606255263090134,-0.1614176481962204,0.5388194918632507,0.057329919189214706,0.007694199215620756,0.005509696435183287,-120,-64,-980,58,8,5,585,323,8,214836.0
09:10:18.386,AUTO,-35.3630185,149.1654012,24242,0.07494871318340302,-0.15145310759544373,0.5368548035621643,0.026386352255940437,0.05481397733092308,-0.0027293639723211527,-126,-95,-983,27,55,-2,597,331,11,214836.0
09:10:18.588,AUTO,-35.3630185,149.1654012,24242,0.07494871318340302,-0.15145310759544373,0.5368548035621643,0.026386352255940437,0.05481397733092308,-0.0027293639723211527,-126,-95,-983,27,55,-2,597,331,11,214836.0
09:10:18.790,AUTO,-35.363005,149.1654105,24213,0.07772363722324371,-0.13712605834007263,0.5358525514602661,-0.055814340710639954,0.05625968053936958,-0.00503134448081255,-138,-77,-988,-54,57,-4,599,332,10,214836.0
09:10:18.992,AUTO,-35.3629915,149.1654198,24186,0.07897921651601791,-0.12619896233081818,0.5356213450431824,0.0884433314204216,0.03984449803829193,-0.0033120533917099237,-148,-84,-993,89,40,-3,599,331,9,108386.0
09:10:19.194,AUTO,-35.362978,149.165429,24159,0.0794341191649437,-0.12377391010522842,0.5350160598754883,-0.10989036411046982,0.006262597627937794,0.0007240716367959976,-147,-66,-983,-108,6,0,596,330,10,108386.0
09:10:19.395,AUTO,-35.3629646,149.1654383,24128,0.07626091688871384,-0.12739267945289612,0.5338031053543091,0.09732724726200104,-0.027796942740678787,-0.002591318916529417,-140,-55,-976,98,-26,-2,593,330,13,108386.0
09:10:19.598,AUTO,-35.3629646,149.1654383,24128,0.07626091688871384,-0.12739267945289612,0.5338031053543091,0.09732724726200104,-0.027796942740678787,-0.002591318916529417,-140,-55,-976,98,-26,-2,593,330,13,108386.0
09:10:19.800,AUTO,-35.3629512,149.1654477,24090,0.0715644508600235,-0.13280563056468964,0.5331424474716187,-0.012945469468832016,-0.022471949458122253,0.012971876189112663,-136,-78,-980,-12,-21,13,593,330,16,108386.0
09:10:20.001,AUTO,-35.3629512,149.1654477,24090,0.0715644508600235,-0.13280563056468964,0.5331424474716187,-0.012945469468832016,-0.022471949458122253,0.012971876189112663,-136,-78,-980,-12,-21,13,593,330,16,108386.0
09:10:20.203,AUTO,-35.3629512,149.1654477,24090,0.0715644508600235,-0.13280563056468964,0.5331424474716187,-0.012945469468832016,-0.022471949458122253,0.012971876189112663,-136,-78,-980,-12,-21,13,593,330,16,108386.0
09:10:20.405,AUTO,-35.3629109,149.1654755,23959,0.07262898236513138,-0.13825851678848267,0.5308049917221069,-0.07338204979896545,0.008154039271175861,0.011356665752828121,-147,-86,-989,-72,8,11,596,328,17,108386.0
09:10:20.607,AUTO,-35.3628974,149.1654848,23915,0.0711909756064415,-0.13886001706123352,0.5307911038398743,-0.17949765920639038,0.007104093208909035,-0.0004850926634389907,-138,-59,-984,-178,8,0,597,328,17,108386.0
09:10:20.809,AUTO,-35.3628974,149.1654848,23915,0.0711909756064415,-0.13886001706123352,0.5307911038398743,-0.17949765920639038,0.007104093208909035,-0.0004850926634389907,-138,-59,-984,-178,8,0,597,328,17,108386.0
09:10:21.010,AUTO,-35.3628839,149.165494,23871,0.07521771639585495,-0.13739709556102753,0.5305508375167847,0.2936252951622009,0.015892168506979942,-0.015638770535588264,-136,-71,-993,294,16,-15,599,328,17,108386.0
09:10:21.212,AUTO,-35.3628701,149.1655035,23828,0.07422859221696854,-0.13581092655658722,0.5303062200546265,-0.10750830918550491,-0.01601012609899044,0.015476725064218044,-148,-95,-999,-106,-15,15,600,328,14,108386.0
09:10:21.414,AUTO,-35.3628566,149.1655127,23788,0.06797440350055695,-0.13961388170719147,0.5290446281433105,-0.10803090780973434,-0.012016506865620613,-0.012774845585227013,-137,-77,-986,-106,-10,-12,600,328,15,108386.0
09:10:21.616,AUTO,-35.362843,149.1655219,23748,0.07624959200620651,-0.13314078748226166,0.5289239287376404,0.2574203908443451,0.020467547699809074,-0.010418787598609924,-121,-66,-989,258,21,-10,603,330,14,108386.0
09:10:21.819,AUTO,-35.362843,149.1655219,23748,0.07624959200620651,-0.13314078748226166,0.5289239287376404,0.2574203908443451,0.020467547699809074,-0.010418787598609924,-121,-66,-989,258,21,-10,603,330,14,108386.0
09:10:22.020,AUTO,-35.362843,149.1655219,23748,0.07624959200620651,-0.13314078748226166,0.5289239287376404,0.2574203908443451,0.020467547699809074,-0.010418787598609924,-121,-66,-989,258,21,-10,603,330,14,287978.0
09:10:22.222,AUTO,-35.362843,149.1655219,23748,0.07624959200620651,-0.13314078748226166,0.5289239287376404,0.2574203908443451,0.020467547699809074,-0.010418787598609924,-121,-66,-989,258,21,-10,603,330,14,287978.0
09:10:22.424,AUTO,-35.3628025,149.1655493,23647,0.07867047935724258,-0.13327990472316742,0.5272396802902222,0.2721734941005707,0.0027265786193311214,-0.023037778213620186,-139,-61,-987,273,4,-22,600,329,14,287978.0
09:10:22.626,AUTO,-35.3627889,149.1655585,23612,0.08005958795547485,-0.13293267786502838,0.5274525880813599,-0.06439901143312454,0.02643756754696369,0.015397575683891773,-120,-87,-979,-64,27,15,602,328,14,287978.0
09:10:22.828,AUTO,-35.3627889,149.1655585,23612,0.08005958795547485,-0.13293267786502838,0.5274525880813599,-0.06439901143312454,0.02643756754696369,0.015397575683891773,-120,-87,-979,-64,27,15,602,328,14,287978.0
09:10:23.030,AUTO,-35.3627753,149.1655677,23578,0.07560992240905762,-0.13027870655059814,0.527423083782196,-0.2104502171278,-0.014782358892261982,-0.004970968700945377,-140,-79,-987,-209,-13,-5,600,329,13,287978.0
09:10:23.232,AUTO,-35.3627618,149.1655768,23544,0.08114462345838547,-0.12944740056991577,0.525713324546814,0.26126161217689514,0.00424661161378026,-0.017312437295913696,-136,-54,-985,262,5,-17,599,330,14,287978.0
09:10:23.435,AUTO,-35.3627483,149.1655859,23510,0.07868745923042297,-0.13247741758823395,0.5261843800544739,-0.10882697254419327,-0.02139807865023613,0.020528165623545647,-128,-62,-973,-108,-20,20,598,330,14,287978.0
09:10:23.637,AUTO,-35.3627348,149.1655951,23474,0.07218890637159348,-0.1316917985677719,0.5268833637237549,-0.31292492151260376,0.012770782224833965,-0.00821923278272152,-135,-89,-990,-311,13,-8,598,330,15,287978.0
09:10:23.839,AUTO,-35.3627348,149.1655951,23474,0.07218890637159348,-0.1316917985677719,0.5268833637237549,-0.31292492151260376,0.012770782224833965,-0.00821923278272152,-135,-89,-990,-311,13,-8,598,330,15,287978.0
09:10:24.041,AUTO,-35.3627348,149.1655951,23474,0.07218890637159348,-0.1316917985677719,0.5268833637237549,-0.31292492151260376,0.012770782224833965,-0.00821923278272152,-135,-89,-990,-311,13,-8,598,330,15,287978.0
09:10:24.243,AUTO,-35.3627348,149.1655951,23474,0.07218890637159348,-0.1316917985677719,0.5268833637237549,-0.31292492151260376,0.012770782224833965,-0.00821923278272152,-135,-89,-990,-311,13,-8,598,330,15,287978.0
09:10:24.446,AUTO,-35.3626941,149.1656226,23368,0.07775937765836716,-0.13061612844467163,0.5232715606689453,-0.31652116775512695,0.02646266482770443,0.008240032009780407,-128,-98,-997,-315,27,8,598,329,15,287978.0
09:10:24.648,AUTO,-35.3626806,149.1656318,23335,0.08049962669610977,-0.13144291937351227,0.5234555006027222,0.15197467803955078,-0.006097013130784035,-0.026054302230477333,-137,-70,-984,153,-5,-25,596,329,14,287978.0
09:10:24.850,AUTO,-35.3626806,149.1656318,23335,0.08049962669610977,-0.13144291937351227,0.5234555006027222,0.15197467803955078,-0.006097013130784035,-0.026054302230477333,-137,-70,-984,153,-5,-25,596,329,14,287978.0
09:10:25.051,AUTO,-35.3626671,149.1656409,23301,0.08263659477233887,-0.1312195360660553,0.5240857005119324,0.09752976149320602,0.008595616556704044,0.009479799307882786,-132,-68,-980,97,9,10,596,330,14,241680.0
09:10:25.254,AUTO,-35.3626536,149.16565,23267,0.07747610658407211,-0.12931372225284576,0.5242867469787598,-0.2600690722465515,-0.0036563423927873373,0.013134932145476341,-135,-93,-989,-259,-2,13,596,329,14,241680.0
09:10:25.456,AUTO,-35.3626403,149.165659,23233,0.0819530040025711,-0.1335306465625763,0.5226956605911255,0.20382285118103027,-0.041620515286922455,-0.03710378706455231,-122,-72,-976,205,-40,-36,594,329,15,241680.0
09:10:25.658,AUTO,-35.362627,149.165668,23195,0.08560570329427719,-0.13891060650348663,0.5227105617523193,0.11070605367422104,0.002496553584933281,0.019759267568588257,-131,-75,-973,110,3,20,595,329,17,241680.0
09:10:25.870,AUTO,-35.362627,149.165668,23195,0.08560570329427719,-0.13891060650348663,0.5227105617523193,0.11070605367422104,0.002496553584933281,0.019759267568588257,-131,-75,-973,110,3,20,595,329,17,241680.0
09:10:26.082,AUTO,-35.362627,149.165668,23195,0.08560570329427719,-0.13891060650348663,0.5227105617523193,0.11070605367422104,0.002496553584933281,0.019759267568588257,-131,-75,-973,110,3,20,595,329,17,241680.0
09:10:26.284,AUTO,-35.362627,149.165668,23195,0.08560570329427719,-0.13891060650348663,0.5227105617523193,0.11070605367422104,0.002496553584933281,0.019759267568588257,-131,-75,-973,110,3,20,595,329,17,241680.0
09:10:26.486,AUTO,-35.3625868,149.1656954,23085,0.0863475352525711,-0.13111940026283264,0.5213350057601929,0.21028797328472137,-0.010678548365831375,0.021944785490632057,-138,-74,-986,210,-9,22,596,330,14,241680.0
09:10:26.688,AUTO,-35.3625735,149.1657045,23050,0.07727480679750443,-0.13492171466350555,0.5211695432662964,-0.2790522873401642,-0.016528097912669182,0.020997725427150726,-135,-101,-988,-278,-15,21,596,329,15,241680.0
09:10:26.889,AUTO,-35.36256,149.1657138,23012,0.07513316720724106,-0.13528123497962952,0.5202145576477051,0.031849928200244904,0.014154082164168358,-0.02473616600036621,-126,-72,-983,33,15,-24,596,331,16,241680.0
09:10:27.091,AUTO,-35.36256,149.1657138,23012,0.07513316720724106,-0.13528123497962952,0.5202145576477051,0.031849928200244904,0.014154082164168358,-0.02473616600036621,-126,-72,-983,33,15,-24,596,331,16,241680.0
09:10:27.293,AUTO,-35.3625465,149.1657229,22976,0.08146629482507706,-0.13247591257095337,0.5191917419433594,0.17639775574207306,-0.010007377713918686,-0.005864789709448814,-128,-74,-983,177,-8,-5,596,330,15,241680.0
09:10:27.495,AUTO,-35.3625331,149.165732,22940,0.07675481587648392,-0.1323581337928772,0.519523024559021,-0.2398272007703781,-0.019124412909150124,0.02552885189652443,-115,-105,-982,-239,-18,26,596,329,15,241680.0
09:10:27.697,AUTO,-35.3625198,149.1657411,22905,0.08158601075410843,-0.1331305056810379,0.5193809270858765,0.1107681393623352,-6.664544343948364e-06,-0.02237527072429657,-147,-61,-992,112,1,-22,595,329,15,241680.0
