time_stamp,xacc,yacc,zacc,xgyro,ygyro,zgyro,roll,pitch,yaw,rollspeed,pitchspeed,yawspeed,lat,lon,relative_alt,vx,vy,vz,RTL_ALT,MODE
05:12:50,0.0,1.5,-1000.0,1.0,0.0,1.0,-0.0006174247828312218,0.0009608453838154674,0.020123787224292755,0.0001551522291265428,0.00024528405629098415,0.0015224579256027937,-35.3632622,149.1652376,0.0,-1.0,2.0,2.0,168365.0,STABILIZE
05:12:54,0.0,1.0,-1000.0,0.5,0.0,1.0,-0.0010558779467828572,0.0009917168645188212,0.019611693918704987,0.00023523310665041208,0.00029141519917175174,0.00141042162431404,-35.3632622,149.1652375,0.0,-1.0,0.5,2.0,168365.0,AUTO
05:12:56,0.0,2.0,-1000.0,1.0,0.0,0.0,-0.0004774561384692788,0.0014053291524760425,0.019388938322663307,0.0002494894142728299,0.00022738429834134877,0.0013785212067887187,-35.3632621,149.1652375,0.0,0.0,0.0,1.0,158966.0,AUTO
05:12:58,0.0,0.0,-1118.5,-3.0,4.0,0.5,0.0019325179164297879,0.0006170479900902137,0.01914419885724783,-0.003379759204108268,0.0037597089540213346,0.0013954417081549764,-35.3632621,149.1652375,290.0,0.0,0.0,-83.5,149567.0,AUTO
05:13:00,1.5,-9.5,-992.0,-62.5,54.5,-69.5,0.05371716059744358,0.0005325218662619591,-0.017757471883669496,-0.0636531631462276,0.054813836701214314,-0.07014840468764305,-35.3632615,149.16524025,3105.0,8.5,47.5,-145.5,149567.0,AUTO
05:13:01,3.75,-4.25,-1002.0,-44.5,-33.0,-20.0,-0.05051424354314804,0.008411798626184464,-0.0876508429646492,-0.04552001366391778,-0.03417248546611518,-0.01995660106331343,-35.363260975,149.1652458,5010.75,-3.75,18.75,-148.0,72623.0,AUTO
05:13:02,-1.0,4.0,-1002.5,46.0,-1.5,0.5,-0.06628205627202988,-0.014003096148371696,-0.08713967353105545,0.04564890079200268,-0.001967528834939003,0.00043549592373892665,-35.363261249999994,149.1652458,6169.0,-2.0,-29.0,-148.0,72623.0,AUTO
05:13:04,-4.5,7.0,-1001.0,46.5,19.0,-8.0,0.055374592542648315,0.008169116219505668,-0.08510490879416466,0.04599565453827381,0.01893035788089037,-0.007825671695172787,-35.3632614,149.16523495,9267.0,-2.5,-26.5,-152.0,72623.0,AUTO
05:13:06,1.5,-1.5,-1001.5,-1.5,-0.5,-18.0,-0.015480293426662683,-0.006857709726318717,-0.10210275277495384,-0.0023307843366637826,-0.0010586703137960285,-0.018461537547409534,-35.3632625,149.16523655,12360.0,-2.0,9.5,-150.5,121242.0,AUTO
05:13:08,-2.0,0.0,-1000.0,9.0,6.0,-18.5,0.006875869818031788,0.0042545770993456244,-0.14863865822553635,0.008811555802822113,0.005625263322144747,-0.018994489684700966,-35.36326205,149.165236,15482.0,3.0,-4.5,-152.0,169861.0,AUTO
05:13:10,-1.5,3.0,-980.0,-8.0,89.0,333.0,-0.05046321079134941,0.034460924565792084,-0.10522234998643398,-0.009331653825938702,0.0886530913412571,0.3335314393043518,-35.363261800000004,149.16523465,18578.0,-12.0,-22.5,-143.0,169861.0,AUTO
05:13:11,1.0,4.25,-963.0,30.0,-15.25,-31.0,0.055653166025877,-0.033174272160977125,0.05889496020972729,0.029766424326226115,-0.015952745685353875,-0.031440447084605694,-35.36326405,149.1652308,20091.5,-14.5,-6.25,-93.5,36865.0,AUTO
05:13:12,1.5,-5.5,-973.5,-38.0,34.0,-3.5,0.044955743476748466,-0.020624607801437378,0.043265726417303085,-0.0394235048443079,0.033650580793619156,-0.0038747289654565975,-35.36326425,149.16523145,20727.5,7.5,31.5,-68.5,36865.0,AUTO
05:13:14,0.0,-5.5,-973.5,15.0,0.0,-2.5,-0.012955195736140013,0.014386801049113274,0.03876769356429577,0.013755738735198975,-0.0003828771586995572,-0.0029565570293925703,-35.3632616,149.16523890000002,21649.0,7.0,22.0,-21.5,36865.0,AUTO
05:13:16,2.0,2.0,-1011.5,-223.5,-2.0,-7.0,0.05936734192073345,0.000769509013480274,0.034810516983270645,-0.22531795501708984,-0.0028050432447344065,-0.007383451098576188,-35.363261699999995,149.16523955000002,21496.5,-10.0,13.5,10.0,30456.5,AUTO
05:13:18,-28.0,-6.0,-996.5,512.5,82.5,1069.5,0.03905296139419079,-0.05527610890567303,1.4905650615692139,0.512140616774559,0.08220713585615158,1.0701235830783844,-35.363263,149.16525885,21237.0,-7.5,158.5,13.0,24048.0,AUTO
05:13:20,-32.0,-40.0,-998.5,-287.0,4.0,16.5,0.020361629780381918,-0.022242161445319653,1.678463876247406,-0.28713539987802505,0.0030782660469412804,0.017007294576615095,-35.3632651,149.16529409999998,20855.0,-11.0,151.5,16.0,24048.0,AUTO
05:13:21,-24.0,-8.0,-1006.25,85.75,50.25,-7.75,0.019146307604387403,0.034500112757086754,1.681382417678833,0.08450706966686994,0.04982180520892143,-0.007824151980457827,-35.3632664,149.165313375,20641.25,-8.0,112.75,12.25,31327.0,AUTO
05:13:22,-15.5,-42.0,-1005.5,-542.5,30.5,0.0,0.010929877869784832,0.06885013729333878,1.6786519289016724,-0.5437603443861008,0.02988147409632802,-0.0002807455530273728,-35.363267,149.1653215,20563.5,-5.5,63.5,5.5,31327.0,AUTO
05:13:24,-0.3333333333333333,-8.666666666666666,-997.6666666666666,34.333333333333336,-17.666666666666668,2.0,-0.00022841213891903558,0.005272230618478109,1.6744444370269775,0.03410356491804123,-0.01901938673108816,0.002426501848579695,-35.36326806666667,149.16532593333332,20533.0,2.6666666666666665,-5.666666666666667,-1.0,31327.0,AUTO
05:13:26,-5.333333333333333,11.0,-1005.6666666666666,19.666666666666668,26.333333333333332,-3.0,0.012829952330018083,0.009864164361109337,1.6699865261713664,0.018150988966226578,0.025175994262099266,-0.003159536950988695,-35.36326733333333,149.1653277,20561.666666666668,0.3333333333333333,3.0,-2.6666666666666665,19554.0,RTL
05:13:28,-0.3333333333333333,-3.3333333333333335,-1028.6666666666667,-51.333333333333336,3.6666666666666665,2.3333333333333335,0.018948581690589588,0.0134018591294686,1.6664409240086873,-0.05314647903045019,0.0028062922259171805,0.0027078205021098256,-35.3632655,149.1653292,21221.333333333332,-18.666666666666668,-10.666666666666666,-69.66666666666667,19554.0,RTL
05:13:30,4.0,-0.3333333333333333,-969.3333333333334,-0.6666666666666666,59.333333333333336,0.3333333333333333,0.0005044387168406198,0.04797165716687838,1.664263089497884,-0.0026517933001741767,0.05803267036875089,0.00034017373885338503,-35.36326666666667,149.16532850000002,22797.666666666668,-12.0,-24.0,-64.0,19554.0,RTL
05:13:31,18.333333333333332,9.333333333333334,-955.6666666666666,-5.666666666666667,32.666666666666664,-1.0,-0.009926903527230024,0.1044252837697665,1.6629218260447185,-0.007873049898383519,0.031766886822879314,-0.0013730146068458755,-35.36326716666667,149.165322,23293.666666666668,-2.0,-91.0,-6.0,109444.0,RTL
05:13:32,28.666666666666668,18.0,-991.6666666666666,8.666666666666666,-51.0,0.3333333333333333,-0.020024940371513367,0.09414742638667424,1.662156621615092,0.007046921333918969,-0.05303517604867617,-2.882746533335497e-05,-35.3632671,149.16531246666668,23255.666666666668,4.0,-142.66666666666666,14.0,109444.0,RTL
05:13:34,32.0,20.333333333333332,-1010.6666666666666,-115.33333333333333,1.0,3.3333333333333335,-0.031333813443779945,0.0189971886575222,1.6620517174402873,-0.11803241570790608,-0.0008273258184393247,0.0034384680911898613,-35.36326566666667,149.16527676666666,23056.333333333332,15.333333333333334,-158.66666666666666,2.6666666666666665,109444.0,RTL
05:13:36,18.333333333333332,21.0,-1002.0,294.0,-40.666666666666664,0.6666666666666666,-0.01172193605452776,-0.03670308366417885,1.6609164476394653,0.2925441563129425,-0.04267278934518496,0.00043297970357040566,-35.363263366666665,149.16524633333336,23052.666666666668,15.333333333333334,-101.0,-1.0,183673.0,RTL
05:13:38,0.6666666666666666,-0.3333333333333333,-1002.3333333333334,-153.66666666666666,34.333333333333336,-5.333333333333333,-0.008986356823394695,0.002148036379367113,1.6599133014678955,-0.1556011140346527,0.03301101550459862,-0.005812726604441802,-35.363262399999996,149.16523793333332,23045.333333333332,6.333333333333333,-4.0,0.0,183673.0,RTL
05:13:40,3.0,-7.0,-994.0,43.333333333333336,-18.0,1.0,-0.013897768687456846,0.011135258246213198,1.6560655037562053,0.04241991539796194,-0.020392474407951038,0.0015694007258086156,-35.3632634,149.16523719999998,23042.0,11.666666666666666,-15.0,0.0,183673.0,RTL
05:13:41,-0.3333333333333333,13.333333333333334,-1003.3333333333334,178.33333333333334,4.666666666666667,2.3333333333333335,-0.0154902512828509,-0.0003583619763958268,1.6551836729049683,0.1764326294263204,0.003030449850484729,0.0026207904253775873,-35.36326383333333,149.16523633333333,23041.333333333332,17.0,-6.333333333333333,-1.0,116086.0,RTL
05:13:42,-1.0,-2.6666666666666665,-998.0,-87.66666666666667,5.666666666666667,2.0,-0.01672184591492017,0.0018838155471409361,1.6542265017827351,-0.08903579910596211,0.0035877476135889688,0.002221868916725119,-35.363263966666665,149.16523633333335,23051.333333333332,19.0,-2.0,-0.6666666666666666,116086.0,RTL
05:13:44,-2.3333333333333335,-9.666666666666666,-1002.0,-275.6666666666667,4.666666666666667,-1.0,0.0050820782004545135,0.0038967322713385024,1.6541226307551067,-0.27670764550566673,0.003106172662228346,-0.0013219330382222931,-35.363262600000006,149.16523713333333,23051.0,12.0,-1.3333333333333333,0.0,116086.0,RTL
05:13:46,-2.6666666666666665,14.0,-929.6666666666666,-250.33333333333334,3.0,-1.6666666666666667,0.012879541143774986,0.003573538657898704,1.6529979705810547,-0.2537283773223559,0.001201252608249585,-0.0021960867258409658,-35.36326033333333,149.16523783333332,22496.666666666668,-10.0,-4.666666666666667,82.0,116086.0,RTL
05:13:47,-0.6666666666666666,-72.0,-1032.3333333333333,-1220.3333333333333,4.333333333333333,-1.3333333333333333,0.026389829193552334,0.003984539381538828,1.6529146830240886,-1.220943013827006,0.0024623998130361238,-0.0022284505733599267,-35.363259166666666,149.16523806666666,21106.666666666668,-21.0,-5.0,115.66666666666667,28830.0,RTL
05:13:48,0.6666666666666666,-65.33333333333333,-1004.3333333333334,-1389.0,8.0,-1.0,0.011311291561772427,0.008037765976041555,1.651820182800293,-1.390274961789449,0.00633753533475101,-0.002133327148233851,-35.36325913333334,149.16523823333333,20289.0,-28.666666666666668,-5.0,103.33333333333333,28830.0,RTL
05:13:50,4.333333333333333,41.666666666666664,-991.6666666666666,268.6666666666667,6.666666666666667,7.0,-0.015478424107035002,0.013656827621161938,1.6518956820170085,0.2646388038992882,0.004916796072696646,0.006754667575781544,-35.363261333333334,149.1652385,18226.666666666668,-19.666666666666668,-7.0,102.0,28830.0,RTL
05:13:52,2.3333333333333335,-8.0,-1006.6666666666666,-722.6666666666666,-0.6666666666666666,0.6666666666666666,-0.05662061149875323,0.011208429001271725,1.6515409549077351,-0.7258218129475912,-0.0033218207148214183,0.00011386149950946371,-35.3632653,149.16523809999998,16176.666666666666,18.333333333333332,-6.0,99.33333333333333,54128.0,RTL
05:13:54,-1.3333333333333333,47.0,-995.6666666666666,1148.3333333333333,-2.3333333333333335,0.6666666666666666,-0.0174930552020669,0.0034469691260407367,1.6505799690882366,1.1475436687469482,-0.005428503267467022,-9.713609082003434e-05,-35.3632665,149.16523756666666,14157.666666666666,41.333333333333336,-3.6666666666666665,102.0,54128.0,RTL
05:13:56,-6.666666666666667,1.0,-1026.0,606.3333333333334,3.0,4.333333333333333,0.033547362933556236,-0.0021520223623762527,1.650985876719157,0.6078671813011169,0.0006373839763303598,0.0035905979263285794,-35.36326293333334,149.16523753333334,12098.0,22.0,-3.0,99.0,54128.0,RTL
05:13:57,-6.0,-23.0,-1052.0,-559.6666666666666,6.0,5.666666666666667,0.03809709846973419,-0.0009276646693858007,1.6495895385742188,-0.5600862304369608,0.003866393235512078,0.005436983658000827,-35.3632596,149.16523796666667,11214.333333333334,-5.666666666666667,-4.0,35.0,42279.0,RTL
05:13:58,-3.0,30.666666666666668,-1002.6666666666666,506.6666666666667,12.333333333333334,4.0,0.05615868295232455,0.0024024340624843412,1.6493186155954997,0.5052107100685438,0.010014083236455917,0.003425224373737971,-35.363258,149.16523830000003,11037.0,-25.666666666666668,-4.666666666666667,20.666666666666668,42279.0,RTL
05:14:00,2.3333333333333335,-25.666666666666668,-992.6666666666666,-171.66666666666666,2.0,1.3333333333333333,0.025348497554659843,0.009621429567535719,1.6494874556859334,-0.17284310360749564,-0.00042427835675577324,0.001107257364007334,-35.36325803333333,149.1652387,10479.333333333334,-44.666666666666664,-7.333333333333333,35.0,42279.0,RTL
05:14:02,2.3333333333333335,-40.666666666666664,-1003.0,-494.3333333333333,-3.0,0.0,-0.008864810690283775,0.00900467112660408,1.649120291074117,-0.4960071484868725,-0.006415090523660183,-0.0013776511962835987,-35.36326116666666,149.1652384,9781.666666666666,-23.0,-7.0,34.666666666666664,42279.0,RTL
05:14:03,-0.6666666666666666,35.333333333333336,-1001.0,732.0,0.3333333333333333,1.0,0.011127756258550411,0.001608213138145705,1.6497894128163655,0.7297201057275137,-0.0025038491003215313,0.000640560407191515,-35.363261599999994,149.1652379,9350.0,-9.0,-5.666666666666667,34.333333333333336,34354.0,RTL
05:14:04,-0.6666666666666666,-21.666666666666668,-1001.6666666666666,-370.0,1.0,0.3333333333333333,0.013852649057904879,-0.0002861094253603369,1.6492595275243123,-0.3722434441248576,-0.00140542925025026,-0.0006248619368610283,-35.36326106666667,149.16523773333336,9090.666666666666,-9.333333333333334,-4.0,32.666666666666664,34354.0,RTL
05:14:06,0.6666666666666666,7.0,-1007.3333333333334,209.33333333333334,6.0,3.0,0.012630642391741276,0.0053119162718455,1.6496816078821819,0.20657206140458584,0.003374676608170072,0.001923984382301569,-35.36326033333333,149.1652377,8732.0,-20.666666666666668,-1.0,-7.333333333333333,34354.0,RTL
05:14:08,0.0,-7.25,-1004.25,-404.25,2.5,0.0,-0.005309125583153218,0.005839747143909335,1.649190366268158,-0.4076429530978203,-2.8836424462497234e-05,-0.0016744618769735098,-35.36326162500001,149.1652379,8825.75,-8.75,-2.75,-1.0,93939.0,RTL
05:14:10,0.0,-12.666666666666666,-1000.0,-287.6666666666667,3.6666666666666665,2.6666666666666665,-0.0016546046050886314,0.0043875728733837605,1.6490424474080403,-0.2912678197026253,0.001076467412834366,0.0017817513241122167,-35.3632617,149.1652378,8838.666666666666,-7.0,-2.0,-0.3333333333333333,93939.0,RTL
05:14:12,0.0,41.0,-956.3333333333334,585.6666666666666,2.3333333333333335,0.0,0.0009383919799195913,0.004361580281207959,1.6489364703496296,0.5818068385124207,-0.0004528101223210494,-0.0006811289543596407,-35.3632621,149.1652377,8797.333333333334,-2.3333333333333335,-2.0,14.333333333333334,93939.0,RTL
05:14:13,-0.3333333333333333,-6.333333333333333,-1005.0,268.3333333333333,2.3333333333333335,0.3333333333333333,0.01245308325936397,0.0036642325576394796,1.648435393969218,0.26617805163065594,-0.0007310671110947927,-0.0012363276910036802,-35.3632621,149.1652377,8351.0,-1.0,-1.6666666666666667,40.0,104918.0,RTL
05:14:14,-0.6666666666666666,-12.0,-1001.0,-505.3333333333333,2.6666666666666665,1.3333333333333333,-0.007212036017638941,0.0038940494414418936,1.6481630007425945,-0.509187693397204,0.00041048818578322727,0.00048569256129364174,-35.363262066666664,149.16523773333333,8061.333333333333,-1.3333333333333333,-2.0,35.666666666666664,104918.0,RTL
05:14:16,-0.6666666666666666,16.666666666666668,-1005.0,46.333333333333336,5.333333333333333,1.0,0.005603421169022719,0.003291151641557614,1.6480297247568767,0.0419730506837368,0.0022608445336421332,-5.284712339440981e-05,-35.36326136666666,149.1652378,7350.333333333333,-6.333333333333333,-2.0,33.333333333333336,104918.0,RTL
05:14:18,0.3333333333333333,-14.0,-997.0,-756.3333333333334,4.0,2.3333333333333335,-0.008212581742554903,0.005684926174581051,1.6483888626098633,-0.7614050904909769,0.0010514684642354648,0.0006804684332261483,-35.3632611,149.16523793333332,6665.333333333333,-11.333333333333334,-3.0,35.0,104918.0,RTL
05:14:19,-0.6666666666666666,28.666666666666668,-1006.6666666666666,632.0,3.3333333333333335,3.6666666666666665,0.020907243092854817,0.0028437132326265178,1.6484944025675456,0.628656009833018,0.0005054175077627102,0.002863767595651249,-35.363260733333334,149.165238,6248.333333333333,-12.0,-4.0,31.666666666666668,113006.0,RTL
05:14:20,-0.3333333333333333,-11.666666666666666,-997.0,-423.0,4.0,2.0,0.014101224951446056,0.0025589982202897468,1.6483685970306396,-0.4274115910132726,0.0013515813431392114,0.000659068386691312,-35.363260266666664,149.165238,5996.666666666667,-15.666666666666666,-3.3333333333333335,32.333333333333336,113006.0,RTL
05:14:22,0.3333333333333333,23.666666666666668,-1001.6666666666666,257.3333333333333,4.333333333333333,2.3333333333333335,0.008836687076836824,0.005621978081762791,1.648176670074463,0.2520887504021327,0.001488395578538378,0.0009202639727542797,-35.363260233333335,149.165238,5312.0,-22.0,-3.0,32.333333333333336,113006.0,RTL
05:14:24,0.6666666666666666,-21.333333333333332,-1001.3333333333334,-749.6666666666666,6.666666666666667,1.0,-0.00893639943872889,0.00665133601675431,1.648048718770345,-0.7549501955509186,0.004091665692006548,-0.00046412250958383083,-35.36326116666667,149.165238,4627.0,-14.333333333333334,-3.0,33.666666666666664,123880.0,RTL
05:14:26,0.6666666666666666,-24.666666666666668,-1001.6666666666666,-566.0,2.0,2.6666666666666665,-0.017531382696082193,0.005977061266700427,1.6481321652730305,-0.5708007216453552,-0.001480940729379654,0.0017101553579171498,-35.36326276666667,149.1652378,3965.3333333333335,-0.3333333333333333,-2.0,32.666666666666664,123880.0,RTL
05:14:28,2.3333333333333335,-37.0,-1004.0,-788.6666666666666,8.666666666666666,3.0,-0.024429094046354294,0.007065220115085443,1.6477992534637451,-0.7933590213457743,0.006026927536974351,0.001888842632373174,-35.36326373333333,149.16523766666668,3275.6666666666665,11.0,0.0,34.333333333333336,123880.0,RTL
05:14:29,3.3333333333333335,16.0,-994.3333333333334,157.0,1.6666666666666667,5.666666666666667,-0.03413610843320688,0.008155025852223238,1.6486809253692627,0.1523108035326004,-0.0016874662445237238,0.004421743176256617,-35.36326533333334,149.16523756666666,2851.6666666666665,25.0,0.0,33.0,38071.0,RTL
05:14:30,2.6666666666666665,-20.333333333333332,-988.0,-32.666666666666664,1.3333333333333333,1.3333333333333333,-0.035865833361943565,0.007993842009454966,1.6483208735783894,-0.0358561584725976,-0.0016902949040134747,-0.00016421390076478323,-35.3632663,149.1652375,2605.6666666666665,33.0,0.0,33.666666666666664,38071.0,RTL
05:14:32,-2.3333333333333335,-13.333333333333334,-998.3333333333334,-596.0,0.6666666666666666,1.0,-0.02941822571059068,0.00010756442012886207,1.6482655604680378,-0.5996797680854797,-0.0025556640854726234,-0.0004576198213423292,-35.36326626666667,149.16523726666665,1931.3333333333333,46.333333333333336,0.0,34.666666666666664,38071.0,RTL
05:14:34,-3.3333333333333335,-26.333333333333332,-997.0,-138.66666666666666,5.0,1.6666666666666667,0.014020710873107115,-0.000865108939857843,1.6478979587554932,-0.14017224311828613,0.0017863340520610411,-6.8276422098279e-05,-35.363263133333334,149.16523733333335,1233.6666666666667,22.333333333333332,0.0,33.666666666666664,11772.0,RTL
05:14:36,-1.6666666666666667,-21.666666666666668,-1004.6666666666666,-310.6666666666667,5.333333333333333,4.0,0.02017817273736,0.002689290326088667,1.6480612754821777,-0.3127506673336029,0.0026251012459397316,0.0025598601205274463,-35.36326093333333,149.16523783333332,567.3333333333334,-2.6666666666666665,-1.0,33.666666666666664,11772.0,RTL
05:14:38,0.0,0.0,-1000.0,2.0,2.0,2.0,0.00516046987225612,0.0035995030775666237,1.6476475795110066,-0.00043882181247075397,-0.0011362684114525716,0.0006752175201351444,-35.363260266666664,149.165238,147.0,-13.666666666666666,-2.6666666666666665,-9.0,11772.0,RTL
05:14:39,0.0,0.0,-1000.0,2.0,2.0,2.0,0.0021317281449834504,0.001948878091449539,1.6470646460851033,-0.00047111573318640393,-0.001125493086874485,0.0006405324287091693,-35.363260033333326,149.16523813333333,167.0,-8.0,-0.3333333333333333,-7.0,55174.0,RTL
05:14:40,0.0,0.0,-1000.0,2.0,2.0,2.0,0.0006890784328182539,0.0011655541602522135,1.6467585166295369,-0.0004995853329698244,-0.0010846618097275496,0.0006515443092212081,-35.36325993333333,149.16523826666668,170.33333333333334,-4.0,0.6666666666666666,-6.0,55174.0,RTL
05:14:42,0.0,0.0,-1000.0,2.0,2.0,2.0,-0.0016690069266284506,-0.00011785227131137314,1.6469817956288655,-0.0005676961348702511,-0.001095448077345888,0.0006332716826970378,-35.36325946666667,149.16523856666666,129.0,0.6666666666666666,4.0,-3.3333333333333335,55174.0,RTL
05:14:44,0.0,0.0,-1000.0,2.0,2.0,2.0,-0.002228419374053677,-0.00029849187315752107,1.647589921951294,-0.0005091013542066017,-0.0008975168069203695,0.000643906882032752,-35.3632592,149.1652387,105.33333333333333,3.0,5.0,-1.6666666666666667,55174.0,RTL
