time_stamp,MODE,lat,lon,relative_alt,roll,pitch,yaw,rollspeed,pitchspeed,yawspeed,xacc,yacc,zacc,xgyro,ygyro,zgyro,vx,vy,vz,RTL_ALT
12:14:51.566,STABILIZE,-35.3632622,149.1652375,0,-0.0005206495407037437,0.0013971887528896332,0.026545580476522446,0.00019611755851656199,0.00026792666176334023,0.0022882423363626003,0,1,-1000,0,0,0,-2,1,1,1500.0
12:14:51.767,STABILIZE,-35.3632622,149.1652375,0,-0.0005206495407037437,0.0013971887528896332,0.026545580476522446,0.00019611755851656199,0.00026792666176334023,0.0022882423363626003,0,1,-1000,0,0,0,-2,1,1,1500.0
12:14:51.968,STABILIZE,-35.3632622,149.1652375,0,-0.0005206495407037437,0.0013971887528896332,0.026545580476522446,0.00019611755851656199,0.00026792666176334023,0.0022882423363626003,0,1,-1000,0,0,0,-2,1,1,1500.0
12:14:52.170,STABILIZE,-35.3632622,149.1652375,0,-0.0005206495407037437,0.0013971887528896332,0.026545580476522446,0.00019611755851656199,0.00026792666176334023,0.0022882423363626003,0,1,-1000,0,0,0,-2,1,1,1500.0
12:14:52.371,STABILIZE,-35.3632622,149.1652375,0,-0.0005206495407037437,0.0013971887528896332,0.026545580476522446,0.00019611755851656199,0.00026792666176334023,0.0022882423363626003,0,1,-1000,0,0,0,-1,1,0,1500.0
12:14:52.572,STABILIZE,-35.3632622,149.1652375,0,-0.0008324988884851336,0.0011953535722568631,0.026047570630908012,0.00022976467153057456,0.00016622612020000815,0.002190247643738985,0,1,-1000,0,0,0,-1,1,0,1500.0
12:14:52.773,STABILIZE,-35.3632622,149.1652375,0,-0.0008324988884851336,0.0011953535722568631,0.026047570630908012,0.00022976467153057456,0.00016622612020000815,0.002190247643738985,0,1,-1000,0,0,1,-1,1,0,1500.0
12:14:52.974,STABILIZE,-35.3632622,149.1652375,0,-0.0008324988884851336,0.0011953535722568631,0.026047570630908012,0.00022976467153057456,0.00016622612020000815,0.002190247643738985,0,1,-1000,0,0,1,-1,1,0,1500.0
12:14:53.175,STABILIZE,-35.3632622,149.1652375,0,-0.0008324988884851336,0.0011953535722568631,0.026047570630908012,0.00022976467153057456,0.00016622612020000815,0.002190247643738985,0,1,-1000,0,0,1,-1,1,0,1500.0
12:14:53.376,STABILIZE,-35.3632622,149.1652375,0,-0.0006863864837214351,0.0010774965630844235,0.025721624493598938,0.0002259579487144947,0.00028784151072613895,0.0019390012603253126,0,1,-1000,0,0,1,-1,2,1,1500.0
12:14:53.577,STABILIZE,-35.3632622,149.1652375,0,-0.0006863864837214351,0.0010774965630844235,0.025721624493598938,0.0002259579487144947,0.00028784151072613895,0.0019390012603253126,0,1,-1000,0,0,1,-1,2,1,1500.0
12:14:53.778,STABILIZE,-35.3632622,149.1652375,0,-0.0006863864837214351,0.0010774965630844235,0.025721624493598938,0.0002259579487144947,0.00028784151072613895,0.0019390012603253126,0,1,-1000,0,0,1,-1,2,1,1500.0
12:14:53.980,STABILIZE,-35.3632622,149.1652375,0,-0.0006863864837214351,0.0010774965630844235,0.025721624493598938,0.0002259579487144947,0.00028784151072613895,0.0019390012603253126,0,1,-1000,0,0,1,-1,2,1,1500.0
12:14:54.182,STABILIZE,-35.3632622,149.1652375,0,-0.0006863864837214351,0.0010774965630844235,0.025721624493598938,0.0002259579487144947,0.00028784151072613895,0.0019390012603253126,0,1,-1000,0,0,1,-1,2,1,1500.0
12:14:54.383,STABILIZE,-35.3632622,149.1652375,0,-0.0009788032621145248,0.000995345995761454,0.025308066979050636,0.00020126061281189322,0.0002688019012566656,0.0018903736490756273,0,1,-1000,0,0,1,-1,1,1,1500.0
12:14:54.584,STABILIZE,-35.3632622,149.1652375,0,-0.0010404472704976797,0.000987657462246716,0.025215845555067062,0.0002202061004936695,0.0002876443031709641,0.0018602812197059393,0,1,-1000,0,0,1,-1,1,1,1500.0
12:14:54.785,STABILIZE,-35.3632621,149.1652375,0,-0.001084937364794314,0.0009792700875550508,0.025116579607129097,0.00014074955834075809,0.00036933799856342375,0.001932318671606481,0,1,-1000,0,0,1,-1,1,0,1500.0
12:14:54.986,STABILIZE,-35.3632621,149.1652375,0,-0.001084937364794314,0.0009792700875550508,0.025116579607129097,0.00014074955834075809,0.00036933799856342375,0.001932318671606481,0,1,-1000,0,0,1,-1,1,0,1500.0
12:14:55.187,STABILIZE,-35.3632621,149.1652375,0,-0.001084937364794314,0.0009792700875550508,0.025116579607129097,0.00014074955834075809,0.00036933799856342375,0.001932318671606481,0,1,-1000,0,0,1,-1,1,0,1500.0
12:14:55.388,STABILIZE,-35.3632621,149.1652375,0,-0.0011522752465680242,0.0009534638375043869,0.0249620471149683,0.0001617975067347288,0.00022834667470306158,0.0020522705744951963,0,1,-1000,0,0,0,-1,1,0,1500.0
12:14:55.589,STABILIZE,-35.3632621,149.1652375,0,-0.0011522752465680242,0.0009534638375043869,0.0249620471149683,0.0001617975067347288,0.00022834667470306158,0.0020522705744951963,0,1,-1000,0,0,0,-1,1,0,1500.0
12:14:55.790,STABILIZE,-35.3632621,149.1652375,0,-0.0011522752465680242,0.0009534638375043869,0.0249620471149683,0.0001617975067347288,0.00022834667470306158,0.0020522705744951963,0,1,-1000,0,0,0,-1,1,0,1500.0
12:14:55.991,STABILIZE,-35.3632621,149.1652375,0,-0.0011522752465680242,0.0009534638375043869,0.0249620471149683,0.0001617975067347288,0.00022834667470306158,0.0020522705744951963,0,1,-1000,0,0,0,-1,1,0,1500.0
12:14:56.192,STABILIZE,-35.3632621,149.1652375,0,-0.0011522752465680242,0.0009534638375043869,0.0249620471149683,0.0001617975067347288,0.00022834667470306158,0.0020522705744951963,0,1,-1000,0,0,0,-1,1,0,1500.0
12:14:56.393,STABILIZE,-35.3632621,149.1652375,0,-0.0011522752465680242,0.0009534638375043869,0.0249620471149683,0.0001617975067347288,0.00022834667470306158,0.0020522705744951963,0,2,-1000,1,0,0,-1,0,0,1500.0
12:14:56.594,STABILIZE,-35.3632621,149.1652375,0,-0.0011522752465680242,0.0009534638375043869,0.0249620471149683,0.0001617975067347288,0.00022834667470306158,0.0020522705744951963,0,-12,-1022,0,0,0,-1,0,0,1500.0
12:14:56.795,STABILIZE,-35.3632621,149.1652375,0,-0.0012752102920785546,0.0009272756869904697,0.024478590115904808,0.0002355024334974587,0.00023223942844197154,0.0017920128302648664,0,-12,-1022,0,0,0,-1,-1,-3,1500.0
12:14:56.996,STABILIZE,-35.3632621,149.1652374,0,-0.0012179382611066103,0.0009219099883921444,0.024423571303486824,0.0002481425181031227,0.0002505818265490234,0.0018818455282598734,0,1,-1000,0,1,1,-1,0,-3,1500.0
12:14:57.197,STABILIZE,-35.3632621,149.1652374,0,-0.0012179382611066103,0.0009219099883921444,0.024423571303486824,0.0002481425181031227,0.0002505818265490234,0.0018818455282598734,0,1,-1000,0,1,1,-1,0,-3,1500.0
12:14:57.398,STABILIZE,-35.3632621,149.1652374,0,-0.0011449047597125173,0.0009278042707592249,0.024356484413146973,0.00014689500676468015,0.00026933132903650403,0.0018853434594348073,0,1,-1000,0,1,1,-1,0,-3,1500.0
12:14:57.599,STABILIZE,-35.3632621,149.1652374,0,-0.0010689245536923409,0.0009319836972281337,0.024285875260829926,0.0003225213731639087,0.00023622019216418266,0.0017224353505298495,0,1,-1000,0,1,1,-1,0,-3,1500.0
12:14:57.800,STABILIZE,-35.3632621,149.1652374,0,-0.0010689245536923409,0.0009319836972281337,0.024285875260829926,0.0003225213731639087,0.00023622019216418266,0.0017224353505298495,0,1,-1000,0,1,1,-1,0,-3,1500.0
12:14:58.000,STABILIZE,-35.3632621,149.1652374,0,-0.0010689245536923409,0.0009319836972281337,0.024285875260829926,0.0003225213731639087,0.00023622019216418266,0.0017224353505298495,0,1,-1000,0,1,1,-1,0,-3,1500.0
12:14:58.201,STABILIZE,-35.3632621,149.1652374,0,-0.0010689245536923409,0.0009319836972281337,0.024285875260829926,0.0003225213731639087,0.00023622019216418266,0.0017224353505298495,0,1,-1000,0,1,1,-1,0,-3,1500.0
12:14:58.402,STABILIZE,-35.3632621,149.1652375,0,-0.0009059364092536271,0.0009302830439992249,0.024042846634984016,0.00025211123283952475,0.00017278402810916305,0.0016287092585116625,0,2,-1000,0,0,0,-1,0,-2,1500.0
12:14:58.603,STABILIZE,-35.3632621,149.1652375,0,-0.0008611344383098185,0.0009378971299156547,0.02396242506802082,0.0002882028347812593,0.00027621956542134285,0.0017640232108533382,0,2,-1000,0,0,0,-1,0,-2,1500.0
12:14:58.804,STABILIZE,-35.3632621,149.1652375,0,-0.0008247417863458395,0.0009316659416072071,0.023897551000118256,0.000253553269430995,0.00031984102679416537,0.0017528471071273088,0,2,-1000,0,0,0,-1,0,-2,1500.0
12:14:59.005,STABILIZE,-35.3632621,149.1652375,0,-0.0008247417863458395,0.0009316659416072071,0.023897551000118256,0.000253553269430995,0.00031984102679416537,0.0017528471071273088,0,2,-1000,0,0,0,-1,0,-2,1500.0
12:14:59.206,STABILIZE,-35.3632621,149.1652375,0,-0.0007770468364469707,0.0009414628730155528,0.023706218227744102,0.00033894908847287297,0.0002904965658672154,0.0016386904753744602,0,2,-1000,0,0,0,-1,1,-2,1500.0
12:14:59.407,STABILIZE,-35.3632621,149.1652375,0,-0.0007770468364469707,0.0009414628730155528,0.023706218227744102,0.00033894908847287297,0.0002904965658672154,0.0016386904753744602,0,2,-1000,0,0,0,-1,1,-2,1500.0
12:14:59.608,STABILIZE,-35.3632621,149.1652375,0,-0.0007770468364469707,0.0009414628730155528,0.023706218227744102,0.00033894908847287297,0.0002904965658672154,0.0016386904753744602,0,2,-1000,0,0,0,-1,1,-2,1500.0
12:14:59.809,STABILIZE,-35.3632621,149.1652375,0,-0.0007770468364469707,0.0009414628730155528,0.023706218227744102,0.00033894908847287297,0.0002904965658672154,0.0016386904753744602,0,2,-1000,0,0,0,-1,1,-2,1500.0
12:15:00.010,STABILIZE,-35.3632621,149.1652375,0,-0.0007770468364469707,0.0009414628730155528,0.023706218227744102,0.00033894908847287297,0.0002904965658672154,0.0016386904753744602,0,2,-1000,0,0,0,-1,1,-2,1500.0
12:15:00.212,STABILIZE,-35.3632621,149.1652375,0,-0.0007770468364469707,0.0009414628730155528,0.023706218227744102,0.00033894908847287297,0.0002904965658672154,0.0016386904753744602,0,2,-1000,0,0,0,-1,1,-2,1500.0
12:15:00.413,STABILIZE,-35.3632621,149.1652375,0,-0.0007770468364469707,0.0009414628730155528,0.023706218227744102,0.00033894908847287297,0.0002904965658672154,0.0016386904753744602,0,2,-1000,0,0,0,-1,1,-2,1500.0
12:15:00.614,STABILIZE,-35.3632622,149.1652375,0,-0.0004539712390396744,0.0009518581791780889,0.023368125781416893,0.0002471396583132446,0.00026760221226140857,0.0017161626601591706,0,1,-1000,1,0,0,-1,2,0,1500.0
12:15:00.815,STABILIZE,-35.3632622,149.1652375,0,-0.0004539712390396744,0.0009518581791780889,0.023368125781416893,0.0002471396583132446,0.00026760221226140857,0.0017161626601591706,0,1,-1000,0,0,0,-1,2,0,1500.0
12:15:01.016,STABILIZE,-35.3632622,149.1652375,0,-0.0004539712390396744,0.0009518581791780889,0.023368125781416893,0.0002471396583132446,0.00026760221226140857,0.0017161626601591706,0,2,-1000,0,1,0,-1,2,0,1500.0
12:15:01.218,STABILIZE,-35.3632622,149.1652375,0,-0.0006064702174626291,0.0009529739618301392,0.023015297949314117,0.0002975471434183419,0.00022564001847058535,0.0018252581357955933,0,2,-1000,0,1,0,-1,2,0,1500.0
12:15:01.419,STABILIZE,-35.3632622,149.1652375,0,-0.0006064702174626291,0.0009529739618301392,0.023015297949314117,0.0002975471434183419,0.00022564001847058535,0.0018252581357955933,0,2,-1000,0,1,0,-1,2,0,1500.0
12:15:01.620,STABILIZE,-35.3632622,149.1652375,0,-0.0006459777359850705,0.0009620380587875843,0.022927774116396904,0.00032634276431053877,0.00028133782325312495,0.0016628102166578174,0,2,-1000,0,1,0,-1,2,0,1500.0
12:15:01.821,STABILIZE,-35.3632622,149.1652375,0,-0.0006459777359850705,0.0009620380587875843,0.022927774116396904,0.00032634276431053877,0.00028133782325312495,0.0016628102166578174,0,2,-1000,0,1,0,-1,2,0,1500.0
12:15:02.022,STABILIZE,-35.3632622,149.1652375,0,-0.0006459777359850705,0.0009620380587875843,0.022927774116396904,0.00032634276431053877,0.00028133782325312495,0.0016628102166578174,0,2,-1000,0,1,0,-1,2,0,1500.0
12:15:02.224,STABILIZE,-35.3632622,149.1652375,0,-0.0006459777359850705,0.0009620380587875843,0.022927774116396904,0.00032634276431053877,0.00028133782325312495,0.0016628102166578174,0,2,-1000,0,1,0,-1,2,0,1500.0
12:15:02.425,STABILIZE,-35.3632622,149.1652375,0,-0.0006459777359850705,0.0009620380587875843,0.022927774116396904,0.00032634276431053877,0.00028133782325312495,0.0016628102166578174,0,2,-1000,0,1,0,-1,2,0,1500.0
12:15:02.626,STABILIZE,-35.3632622,149.1652375,0,-0.0006459777359850705,0.0009620380587875843,0.022927774116396904,0.00032634276431053877,0.00028133782325312495,0.0016628102166578174,0,1,-1000,1,0,0,-1,2,0,1500.0
12:15:02.827,STABILIZE,-35.3632622,149.1652375,0,-0.0008342990186065435,0.0009569167741574347,0.02253885008394718,0.00026014179456979036,0.00024338223738595843,0.001748142298310995,0,1,-1000,1,0,0,-1,1,0,1500.0
12:15:03.028,STABILIZE,-35.3632622,149.1652375,0,-0.0008694614516571164,0.0009595829178579152,0.022480612620711327,0.00032257597194984555,0.00025082100182771683,0.001631786348298192,0,1,-1000,1,0,0,-1,1,0,1500.0
12:15:03.229,STABILIZE,-35.3632622,149.1652375,0,-0.0008995560347102582,0.0009635683964006603,0.022404247894883156,0.00031384866451844573,0.0002718043397180736,0.0015449593774974346,0,1,-1000,1,0,0,-1,1,0,1500.0
12:15:03.430,STABILIZE,-35.3632622,149.1652375,0,-0.0008995560347102582,0.0009635683964006603,0.022404247894883156,0.00031384866451844573,0.0002718043397180736,0.0015449593774974346,0,1,-1000,1,0,0,-1,1,0,1500.0
12:15:03.631,STABILIZE,-35.3632622,149.1652375,0,-0.0008995560347102582,0.0009635683964006603,0.022404247894883156,0.00031384866451844573,0.0002718043397180736,0.0015449593774974346,0,1,-1000,1,0,0,-1,0,-1,1500.0
12:15:03.832,STABILIZE,-35.3632622,149.1652375,0,-0.0008995560347102582,0.0009635683964006603,0.022404247894883156,0.00031384866451844573,0.0002718043397180736,0.0015449593774974346,0,1,-1000,1,0,0,-1,0,-1,1500.0
12:15:04.034,STABILIZE,-35.3632622,149.1652375,0,-0.0008995560347102582,0.0009635683964006603,0.022404247894883156,0.00031384866451844573,0.0002718043397180736,0.0015449593774974346,0,1,-1000,1,0,0,-1,0,-1,1500.0
12:15:04.235,STABILIZE,-35.3632622,149.1652375,0,-0.0008995560347102582,0.0009635683964006603,0.022404247894883156,0.00031384866451844573,0.0002718043397180736,0.0015449593774974346,0,1,-1000,1,0,0,-1,0,-1,1500.0
12:15:04.436,STABILIZE,-35.3632622,149.1652375,0,-0.0009124805219471455,0.000984938582405448,0.02216118574142456,0.00012672255979850888,0.0002468799357302487,0.0015109498053789139,0,1,-1000,0,1,0,-1,0,-1,1500.0
12:15:04.637,STABILIZE,-35.3632622,149.1652375,0,-0.0009124805219471455,0.000984938582405448,0.02216118574142456,0.00012672255979850888,0.0002468799357302487,0.0015109498053789139,0,1,-1000,0,1,0,-1,0,-1,1500.0
12:15:04.838,STABILIZE,-35.3632622,149.1652375,0,-0.0008936872472986579,0.0009843979496508837,0.022051608189940453,0.00023213960230350494,0.00033631548285484314,0.0014761104248464108,0,1,-1000,0,1,0,-1,0,-1,1500.0
12:15:05.039,STABILIZE,-35.3632622,149.1652375,0,-0.0008871573954820633,0.000980238663032651,0.02198784612119198,0.00024828047025948763,0.00022431276738643646,0.00163126434199512,0,2,-1000,1,0,0,-1,1,-1,1500.0
12:15:05.240,STABILIZE,-35.3632622,149.1652375,0,-0.0008871573954820633,0.000980238663032651,0.02198784612119198,0.00024828047025948763,0.00022431276738643646,0.00163126434199512,0,1,-1000,0,0,0,-1,1,-1,1500.0
12:15:05.441,STABILIZE,-35.3632622,149.1652375,0,-0.0008871573954820633,0.000980238663032651,0.02198784612119198,0.00024828047025948763,0.00022431276738643646,0.00163126434199512,0,1,-1000,0,0,0,-1,1,-1,1500.0
12:15:05.642,STABILIZE,-35.3632622,149.1652375,0,-0.0008871573954820633,0.000980238663032651,0.02198784612119198,0.00024828047025948763,0.00022431276738643646,0.00163126434199512,0,1,-1000,0,0,0,-1,1,-1,1500.0
12:15:05.844,STABILIZE,-35.3632622,149.1652375,0,-0.0008871573954820633,0.000980238663032651,0.02198784612119198,0.00024828047025948763,0.00022431276738643646,0.00163126434199512,0,1,-1000,0,0,0,-1,1,-1,1500.0
12:15:06.045,STABILIZE,-35.3632622,149.1652375,0,-0.0008871573954820633,0.000980238663032651,0.02198784612119198,0.00024828047025948763,0.00022431276738643646,0.00163126434199512,0,1,-1000,0,0,0,-1,1,-1,1500.0
12:15:06.246,STABILIZE,-35.3632622,149.1652375,0,-0.0008871573954820633,0.000980238663032651,0.02198784612119198,0.00024828047025948763,0.00022431276738643646,0.00163126434199512,0,1,-1000,0,0,0,-1,1,-1,1500.0
12:15:06.447,STABILIZE,-35.3632622,149.1652375,0,-0.0008871573954820633,0.000980238663032651,0.02198784612119198,0.00024828047025948763,0.00022431276738643646,0.00163126434199512,0,1,-1000,0,0,0,-1,1,-1,1500.0
12:15:06.648,STABILIZE,-35.3632622,149.1652375,0,-0.0008871573954820633,0.000980238663032651,0.02198784612119198,0.00024828047025948763,0.00022431276738643646,0.00163126434199512,0,1,-1000,0,0,0,-1,1,-1,1500.0
12:15:06.849,STABILIZE,-35.3632622,149.1652375,0,-0.0008871573954820633,0.000980238663032651,0.02198784612119198,0.00024828047025948763,0.00022431276738643646,0.00163126434199512,0,1,-1000,0,0,0,-1,1,-1,1500.0
12:15:07.050,STABILIZE,-35.3632622,149.1652375,0,-0.0008871573954820633,0.000980238663032651,0.02198784612119198,0.00024828047025948763,0.00022431276738643646,0.00163126434199512,0,1,-1000,0,0,0,-1,1,-1,1500.0
12:15:07.251,STABILIZE,-35.3632622,149.1652375,0,-0.0008871573954820633,0.000980238663032651,0.02198784612119198,0.00024828047025948763,0.00022431276738643646,0.00163126434199512,0,1,-1000,0,0,0,-1,1,-1,1500.0
12:15:07.452,STABILIZE,-35.3632622,149.1652375,0,-0.0008871573954820633,0.000980238663032651,0.02198784612119198,0.00024828047025948763,0.00022431276738643646,0.00163126434199512,0,1,-1000,0,0,0,-1,1,-1,1500.0
12:15:07.653,STABILIZE,-35.3632622,149.1652375,0,-0.0008871573954820633,0.000980238663032651,0.02198784612119198,0.00024828047025948763,0.00022431276738643646,0.00163126434199512,0,1,-1000,0,0,0,-1,1,-1,1500.0
12:15:07.854,STABILIZE,-35.3632622,149.1652375,0,-0.0008871573954820633,0.000980238663032651,0.02198784612119198,0.00024828047025948763,0.00022431276738643646,0.00163126434199512,0,1,-1000,0,0,0,-1,1,-1,1500.0
12:15:08.055,STABILIZE,-35.3632622,149.1652375,0,-0.0008871573954820633,0.000980238663032651,0.02198784612119198,0.00024828047025948763,0.00022431276738643646,0.00163126434199512,0,1,-1000,0,0,0,-1,1,-1,1500.0
12:15:08.256,STABILIZE,-35.3632622,149.1652375,0,-0.0008871573954820633,0.000980238663032651,0.02198784612119198,0.00024828047025948763,0.00022431276738643646,0.00163126434199512,0,1,-1000,0,0,0,-1,1,-1,1500.0
12:15:08.457,STABILIZE,-35.3632622,149.1652375,0,-0.0008871573954820633,0.000980238663032651,0.02198784612119198,0.00024828047025948763,0.00022431276738643646,0.00163126434199512,0,1,-1000,0,0,0,-1,1,-1,1500.0
12:15:08.657,STABILIZE,-35.3632622,149.1652375,0,-0.0008871573954820633,0.000980238663032651,0.02198784612119198,0.00024828047025948763,0.00022431276738643646,0.00163126434199512,0,1,-1000,0,0,0,-1,1,-1,1500.0
12:15:08.858,STABILIZE,-35.3632622,149.1652375,0,-0.0008871573954820633,0.000980238663032651,0.02198784612119198,0.00024828047025948763,0.00022431276738643646,0.00163126434199512,0,1,-1000,0,0,0,-1,1,-1,1500.0
12:15:09.059,STABILIZE,-35.3632622,149.1652375,0,-0.0008871573954820633,0.000980238663032651,0.02198784612119198,0.00024828047025948763,0.00022431276738643646,0.00163126434199512,0,1,-1000,0,0,0,-1,1,-1,1500.0
12:15:09.260,STABILIZE,-35.3632622,149.1652375,0,-0.0008871573954820633,0.000980238663032651,0.02198784612119198,0.00024828047025948763,0.00022431276738643646,0.00163126434199512,0,1,-1000,0,0,0,-1,1,-1,1500.0
12:15:09.461,STABILIZE,-35.3632622,149.1652375,0,-0.0008871573954820633,0.000980238663032651,0.02198784612119198,0.00024828047025948763,0.00022431276738643646,0.00163126434199512,0,1,-1000,0,0,0,-1,1,-1,1500.0
12:15:09.661,STABILIZE,-35.3632622,149.1652375,0,-0.0008871573954820633,0.000980238663032651,0.02198784612119198,0.00024828047025948763,0.00022431276738643646,0.00163126434199512,0,1,-1000,0,0,0,-1,1,-1,1500.0
12:15:09.862,STABILIZE,-35.3632622,149.1652375,0,-0.0008871573954820633,0.000980238663032651,0.02198784612119198,0.00024828047025948763,0.00022431276738643646,0.00163126434199512,0,1,-1000,0,0,0,-1,1,-1,1500.0
12:15:10.064,STABILIZE,-35.3632622,149.1652375,0,-0.0008871573954820633,0.000980238663032651,0.02198784612119198,0.00024828047025948763,0.00022431276738643646,0.00163126434199512,0,1,-1000,0,0,0,-1,1,-1,1500.0
12:15:10.265,STABILIZE,-35.3632622,149.1652375,0,-0.0008871573954820633,0.000980238663032651,0.02198784612119198,0.00024828047025948763,0.00022431276738643646,0.00163126434199512,0,1,-1000,0,0,0,-1,1,-1,1500.0
12:15:10.465,STABILIZE,-35.3632622,149.1652375,0,-0.0008871573954820633,0.000980238663032651,0.02198784612119198,0.00024828047025948763,0.00022431276738643646,0.00163126434199512,0,1,-1000,0,0,0,-1,1,-1,1500.0
12:15:10.666,STABILIZE,-35.3632622,149.1652375,0,-0.0008871573954820633,0.000980238663032651,0.02198784612119198,0.00024828047025948763,0.00022431276738643646,0.00163126434199512,0,1,-1000,0,0,0,-1,1,-1,1500.0
12:15:10.867,STABILIZE,-35.3632622,149.1652375,0,-0.0008871573954820633,0.000980238663032651,0.02198784612119198,0.00024828047025948763,0.00022431276738643646,0.00163126434199512,0,1,-1000,0,0,0,-1,1,-1,1500.0
12:15:11.068,STABILIZE,-35.3632622,149.1652375,0,-0.0008871573954820633,0.000980238663032651,0.02198784612119198,0.00024828047025948763,0.00022431276738643646,0.00163126434199512,0,1,-1000,0,0,0,-1,1,-1,1500.0
12:15:11.269,STABILIZE,-35.3632622,149.1652375,0,-0.0008871573954820633,0.000980238663032651,0.02198784612119198,0.00024828047025948763,0.00022431276738643646,0.00163126434199512,0,1,-1000,0,0,0,-1,1,-1,1500.0
12:15:11.470,STABILIZE,-35.363262,149.1652375,1460,0.024683699011802673,-0.0009816009551286697,0.020339366048574448,0.04670524224638939,-0.007426843978464603,0.002319944789633155,0,0,-1015,47,-6,2,0,6,-145,1500.0
12:15:11.671,AUTO,-35.363262,149.1652378,1839,0.03604578971862793,-0.003000363940373063,0.020497538149356842,0.04496096074581146,-0.008203106001019478,0.0030945136677473783,0,-1,-1006,45,-7,2,1,12,-147,1500.0
12:15:11.872,AUTO,-35.3632619,149.1652382,2227,0.04685138538479805,-0.005355567205697298,0.020726054906845093,0.041832420974969864,-0.009876319207251072,0.003349361242726445,0,-3,-1002,42,-9,2,3,21,-148,1500.0
12:15:12.073,AUTO,-35.3632618,149.1652389,2612,0.05684247985482216,-0.008098096586763859,0.021022269502282143,0.03855251893401146,-0.01146089006215334,0.003947430290281773,1,-4,-1000,38,-10,3,5,33,-148,1500.0
12:15:12.274,AUTO,-35.3632618,149.1652389,2612,0.05684247985482216,-0.008098096586763859,0.021022269502282143,0.03855251893401146,-0.01146089006215334,0.003947430290281773,1,-4,-1000,38,-10,3,5,33,-148,1500.0
12:15:12.475,AUTO,-35.3632616,149.16524,2996,0.060832247138023376,-0.00725441612303257,-0.01071862317621708,-0.038244202733039856,0.04510454833507538,-0.06899894773960114,1,-9,-991,-37,46,-69,9,45,-147,1500.0
12:15:12.675,AUTO,-35.3632613,149.1652413,3375,0.03447645902633667,0.01629880629479885,-0.034457892179489136,-0.1632121205329895,0.08027452230453491,-0.09492351114749908,3,-11,-991,-162,81,-95,9,54,-145,1500.0
12:15:12.877,AUTO,-35.3632613,149.1652413,3375,0.03447645902633667,0.01629880629479885,-0.034457892179489136,-0.1632121205329895,0.08027452230453491,-0.09492351114749908,3,-11,-991,-162,81,-95,9,54,-145,1500.0
12:15:13.078,AUTO,-35.3632613,149.1652413,3375,0.03447645902633667,0.01629880629479885,-0.034457892179489136,-0.1632121205329895,0.08027452230453491,-0.09492351114749908,3,-11,-991,-162,81,-95,9,54,-145,1500.0
12:15:13.279,AUTO,-35.3632613,149.1652413,3375,0.03447645902633667,0.01629880629479885,-0.034457892179489136,-0.1632121205329895,0.08027452230453491,-0.09492351114749908,3,-11,-991,-162,81,-95,9,54,-145,1500.0
12:15:13.480,AUTO,-35.363261,149.1652452,4509,-0.036013778299093246,0.02457823045551777,-0.08897405862808228,-0.02600982040166855,-0.012389855459332466,-0.05229007452726364,4,-8,-1004,-25,-11,-52,-3,34,-149,1500.0
12:15:13.681,AUTO,-35.363261,149.1652459,4894,-0.04709837585687637,0.014871184714138508,-0.09517492353916168,-0.05753287672996521,-0.05743052065372467,-0.004252330400049686,4,-5,-1000,-56,-56,-4,-7,22,-149,1500.0
12:15:13.882,AUTO,-35.3632611,149.1652464,5279,-0.06416725367307663,-0.0034148807171732187,-0.08903496712446213,-0.0741100013256073,-0.0802077203989029,0.03500331938266754,4,0,-999,-73,-79,34,-8,7,-148,1500.0
12:15:14.083,AUTO,-35.3632613,149.1652463,5663,-0.07430388778448105,-0.0168235432356596,-0.08221839368343353,0.00484558055177331,-0.01793942041695118,0.0063301268965005875,1,1,-1004,5,-17,5,-5,-10,-148,1500.0
12:15:14.284,AUTO,-35.3632613,149.1652463,5663,-0.07430388778448105,-0.0168235432356596,-0.08221839368343353,0.00484558055177331,-0.01793942041695118,0.0063301268965005875,1,1,-1004,5,-17,5,-5,-10,-148,1500.0
12:15:14.485,AUTO,-35.3632614,149.1652459,6047,-0.06664390861988068,-0.016874631866812706,-0.081928551197052,0.04339846223592758,0.0044761160388588905,0.001123454188928008,-1,4,-1002,44,5,0,-2,-28,-149,1500.0
12:15:14.686,AUTO,-35.3632614,149.1652449,6431,-0.0537017360329628,-0.016025695949792862,-0.08221475034952164,0.05745600908994675,0.002834139857441187,0.0031642208341509104,-3,5,-1001,58,3,2,0,-42,-149,1500.0
12:15:14.888,AUTO,-35.3632614,149.1652449,6431,-0.0537017360329628,-0.016025695949792862,-0.08221475034952164,0.05745600908994675,0.002834139857441187,0.0031642208341509104,-3,5,-1001,58,3,2,0,-42,-149,1500.0
12:15:15.089,AUTO,-35.3632614,149.1652449,6431,-0.0537017360329628,-0.016025695949792862,-0.08221475034952164,0.05745600908994675,0.002834139857441187,0.0031642208341509104,-3,5,-1001,58,3,2,0,-42,-149,1500.0
12:15:15.291,AUTO,-35.3632614,149.1652449,6431,-0.0537017360329628,-0.016025695949792862,-0.08221475034952164,0.05745600908994675,0.002834139857441187,0.0031642208341509104,-3,5,-1001,58,3,2,0,-42,-149,1500.0
12:15:15.492,AUTO,-35.3632614,149.1652404,7587,-0.0074677555821835995,-0.007775531616061926,-0.08206329494714737,0.06370776146650314,0.016533132642507553,0.004436055663973093,-8,13,-1003,64,17,4,3,-60,-150,1500.0
12:15:15.693,AUTO,-35.3632613,149.1652388,7976,0.008652964606881142,-0.0034926016815006733,-0.08129409700632095,0.06608326733112335,0.017663732171058655,0.004440994933247566,-8,13,-1004,66,18,4,3,-58,-151,1500.0
12:15:15.894,AUTO,-35.3632613,149.1652372,8367,0.024682218208909035,0.0007960213697515428,-0.08031848818063736,0.06352731585502625,0.0165313221514225,0.0047496953047811985,-8,7,-1003,64,17,4,2,-51,-152,1500.0
12:15:16.095,AUTO,-35.3632613,149.1652359,8759,0.04055584967136383,0.004597208928316832,-0.07929231971502304,0.06194217875599861,0.014241239055991173,0.004657464101910591,-7,13,-1004,62,14,4,1,-41,-153,1500.0
12:15:16.297,AUTO,-35.3632613,149.1652359,8759,0.04055584967136383,0.004597208928316832,-0.07929231971502304,0.06194217875599861,0.014241239055991173,0.004657464101910591,-7,13,-1004,62,14,4,1,-41,-153,1500.0
12:15:16.498,AUTO,-35.3632612,149.1652349,9152,0.05424242839217186,0.008618577383458614,-0.07964840531349182,0.044109661132097244,0.023932574316859245,-0.012193472124636173,-5,7,-1000,44,24,-12,0,-28,-153,1500.0
12:15:16.699,AUTO,-35.3632613,149.1652342,9546,0.06023067235946655,0.018740283325314522,-0.08654830604791641,0.015613595955073833,0.04763268679380417,-0.0405082106590271,-3,4,-998,16,48,-40,-2,-13,-152,1500.0
12:15:16.901,AUTO,-35.3632613,149.1652342,9546,0.06023067235946655,0.018740283325314522,-0.08654830604791641,0.015613595955073833,0.04763268679380417,-0.0405082106590271,-3,4,-998,16,48,-40,-2,-13,-152,1500.0
12:15:17.101,AUTO,-35.3632613,149.1652342,9546,0.06023067235946655,0.018740283325314522,-0.08654830604791641,0.015613595955073833,0.04763268679380417,-0.0405082106590271,-3,4,-998,16,48,-40,-2,-13,-152,1500.0
12:15:17.303,AUTO,-35.3632613,149.1652342,9546,0.06023067235946655,0.018740283325314522,-0.08654830604791641,0.015613595955073833,0.04763268679380417,-0.0405082106590271,-3,4,-998,16,48,-40,-2,-13,-152,1500.0
12:15:17.553,AUTO,-35.3632618,149.1652344,10709,0.02558959275484085,0.012008310295641422,-0.09565000236034393,-0.07844627648591995,-0.04561636969447136,0.016060400754213333,4,-1,-998,-77,-44,15,-14,21,-149,1500.0
12:15:17.755,AUTO,-35.363262,149.165235,11092,0.007627440150827169,0.0024977473076432943,-0.09302861988544464,-0.0590401366353035,-0.033177487552165985,0.011963180266320705,5,-4,-1002,-58,-32,11,-13,24,-149,1500.0
12:15:17.956,AUTO,-35.3632623,149.1652356,11480,-0.005099085625261068,-0.00388579024001956,-0.09197952598333359,-0.040273819118738174,-0.019485536962747574,0.00206748372875154,5,-2,-1003,-39,-18,1,-11,22,-150,1500.0
12:15:18.157,AUTO,-35.3632625,149.1652361,11867,-0.012124083936214447,-0.007610055152326822,-0.09295180439949036,-0.016779249534010887,-0.012095869518816471,-0.006967813242226839,4,-2,-1003,-15,-11,-7,-8,18,-151,1500.0
12:15:18.358,AUTO,-35.3632627,149.1652365,12255,-0.015137098729610443,-0.009668789803981781,-0.09585211426019669,-0.006538418587297201,-0.003553120419383049,-0.015159503556787968,3,-2,-1002,-5,-2,-15,-5,13,-151,1500.0
12:15:18.560,AUTO,-35.3632627,149.1652365,12255,-0.015137098729610443,-0.009668789803981781,-0.09585211426019669,-0.006538418587297201,-0.003553120419383049,-0.015159503556787968,3,-2,-1002,-5,-2,-15,-5,13,-151,1500.0
12:15:18.761,AUTO,-35.3632627,149.1652368,12643,-0.015439547598361969,-0.01000196672976017,-0.10066281259059906,0.0014166290638968349,0.001348396297544241,-0.020675702020525932,2,-1,-1001,2,2,-21,-2,8,-152,1500.0
12:15:18.963,AUTO,-35.3632627,149.1652368,12643,-0.015439547598361969,-0.01000196672976017,-0.10066281259059906,0.0014166290638968349,0.001348396297544241,-0.020675702020525932,2,-1,-1001,2,2,-21,-2,8,-152,1500.0
12:15:19.164,AUTO,-35.3632627,149.1652368,12643,-0.015439547598361969,-0.01000196672976017,-0.10066281259059906,0.0014166290638968349,0.001348396297544241,-0.020675702020525932,2,-1,-1001,2,2,-21,-2,8,-152,1500.0
12:15:19.366,AUTO,-35.3632627,149.1652368,12643,-0.015439547598361969,-0.01000196672976017,-0.10066281259059906,0.0014166290638968349,0.001348396297544241,-0.020675702020525932,2,-1,-1001,2,2,-21,-2,8,-152,1500.0
12:15:19.567,AUTO,-35.3632626,149.1652367,14200,-0.0027465384919196367,-0.0040222457610070705,-0.1263757199048996,0.015094555914402008,0.009197570383548737,-0.02577339857816696,-1,0,-1000,15,9,-26,5,-6,-152,1500.0
12:15:19.768,AUTO,-35.3632626,149.1652367,14200,-0.0027465384919196367,-0.0040222457610070705,-0.1263757199048996,0.015094555914402008,0.009197570383548737,-0.02577339857816696,-2,0,-1000,15,9,-26,5,-6,-152,1500.0
12:15:19.968,AUTO,-35.3632625,149.1652365,14591,0.0009303729748353362,-0.0015380330150946975,-0.13286523520946503,0.015895633026957512,0.010489610955119133,-0.023669801652431488,-2,0,-1000,16,11,-24,5,-7,-152,1500.0
12:15:20.169,AUTO,-35.3632623,149.1652363,14982,0.004226377699524164,0.0008734780712984502,-0.13902489840984344,0.012596541084349155,0.00978196132928133,-0.022617027163505554,-2,1,-1000,13,10,-22,5,-6,-152,1500.0
12:15:20.370,AUTO,-35.3632622,149.1652361,15372,0.006514720618724823,0.0030904158484190702,-0.14479483664035797,0.00966715905815363,0.008504443801939487,-0.021433085203170776,-2,0,-1000,10,9,-21,5,-6,-152,1500.0
12:15:20.571,AUTO,-35.363262,149.1652359,15763,0.008505498990416527,0.00504801981151104,-0.1501883566379547,0.004869972355663776,0.006756768096238375,-0.019692009314894676,-2,0,-1000,5,7,-19,4,-4,-152,1500.0
12:15:20.773,AUTO,-35.363262,149.1652359,15763,0.008505498990416527,0.00504801981151104,-0.1501883566379547,0.004869972355663776,0.006756768096238375,-0.019692009314894676,-2,0,-1000,5,7,-19,4,-4,-152,1500.0
12:15:20.974,AUTO,-35.363262,149.1652359,15763,0.008505498990416527,0.00504801981151104,-0.1501883566379547,0.004869972355663776,0.006756768096238375,-0.019692009314894676,-2,0,-1000,5,7,-19,4,-4,-152,1500.0
12:15:21.175,AUTO,-35.363262,149.1652359,15763,0.008505498990416527,0.00504801981151104,-0.1501883566379547,0.004869972355663776,0.006756768096238375,-0.019692009314894676,-2,0,-1000,5,7,-19,4,-4,-152,1500.0
12:15:21.376,AUTO,-35.363262,149.1652359,15763,0.008505498990416527,0.00504801981151104,-0.1501883566379547,0.004869972355663776,0.006756768096238375,-0.019692009314894676,-2,0,-1000,5,7,-19,4,-4,-152,1500.0
12:15:21.594,AUTO,-35.3632617,149.1652355,16939,0.01016645971685648,0.00768749276176095,-0.16287659108638763,-0.0011417627101764083,0.0015394962392747402,-0.012436761520802975,0,0,-1000,0,2,-12,1,0,-152,1500.0
12:15:21.818,AUTO,-35.3632616,149.1652355,17330,0.009621785953640938,0.007467307616025209,-0.1661120355129242,-0.00210209540091455,-0.0013683822471648455,-0.014352562837302685,0,0,-1000,-1,0,-14,0,2,-152,1500.0
12:15:22.020,AUTO,-35.3632616,149.1652355,17720,0.008585616946220398,0.007190989330410957,-0.16933786869049072,-0.004160774871706963,-0.0002688993699848652,-0.013505522161722183,0,0,-999,-3,0,-13,0,3,-152,1500.0
12:15:22.221,AUTO,-35.3632616,149.1652356,18110,0.007475872989743948,0.006986800581216812,-0.17271779477596283,-0.004003292415291071,0.00046275206841528416,-0.014656033366918564,0,0,-1000,-3,1,-14,-1,4,-152,1500.0
12:15:22.422,AUTO,-35.3632615,149.1652356,18509,0.006452437024563551,0.006629567593336105,-0.17614561319351196,-0.0017834334867075086,-0.0012781352270394564,-0.012166894972324371,0,0,-1000,-1,0,-12,-2,5,-152,1500.0
12:15:22.624,AUTO,-35.3632615,149.1652356,18900,0.00570308044552803,0.006056752055883408,-0.17957943677902222,-0.0030756935011595488,-0.002409676555544138,-0.01352930348366499,0,0,-1000,-2,-1,-13,-2,6,-153,1500.0
12:15:22.826,AUTO,-35.3632615,149.1652356,18900,0.00570308044552803,0.006056752055883408,-0.17957943677902222,-0.0030756935011595488,-0.002409676555544138,-0.01352930348366499,0,0,-1000,-2,-1,-13,-2,6,-153,1500.0
12:15:23.028,AUTO,-35.3632615,149.1652356,18900,0.00570308044552803,0.006056752055883408,-0.17957943677902222,-0.0030756935011595488,-0.002409676555544138,-0.01352930348366499,0,0,-1000,-2,-1,-13,-2,6,-153,1500.0
12:15:23.229,AUTO,-35.3632615,149.1652356,18900,0.00570308044552803,0.006056752055883408,-0.17957943677902222,-0.0030756935011595488,-0.002409676555544138,-0.01352930348366499,0,0,-1000,-2,-1,-13,-2,6,-153,1500.0
12:15:23.430,AUTO,-35.3632615,149.1652356,18900,0.00570308044552803,0.006056752055883408,-0.17957943677902222,-0.0030756935011595488,-0.002409676555544138,-0.01352930348366499,0,0,-1000,-2,-1,-13,-2,6,-153,1500.0
12:15:23.632,AUTO,-35.3632616,149.1652361,20453,0.0028012676630169153,0.004019784741103649,-0.1950930505990982,-0.0009023392922244966,-0.00139991648029536,-0.01868966594338417,0,0,-1000,0,0,-18,-3,6,-153,1500.0
12:15:23.833,AUTO,-35.3632616,149.1652362,20843,0.0022457505110651255,0.0037881641183048487,-0.19965516030788422,-0.0017328271642327309,4.1345658246427774e-05,-0.01871020905673504,0,0,-1000,0,1,-19,-3,6,-153,1500.0
12:15:24.034,AUTO,-35.3632616,149.1652362,20843,0.0022457505110651255,0.0037881641183048487,-0.19965516030788422,-0.0017328271642327309,4.1345658246427774e-05,-0.01871020905673504,0,0,-1000,0,1,-19,-3,6,-153,1500.0
12:15:24.236,AUTO,-35.3632616,149.1652363,21235,0.0018468439811840653,0.0036626229993999004,-0.20442412793636322,-0.0036685136146843433,-0.0004619365790858865,-0.019428640604019165,0,-1,-999,-2,0,-19,-3,5,-153,1500.0
12:15:24.437,AUTO,-35.3632616,149.1652364,21626,0.0016175134805962443,0.0034287848975509405,-0.20920483767986298,-0.0029836196918040514,-0.0002493945648893714,-0.01876257359981537,0,0,-999,-2,0,-18,-3,5,-153,1500.0
12:15:24.638,AUTO,-35.3632617,149.1652364,22015,0.0016553896712139249,0.0030600624158978462,-0.2139025330543518,0.0015008127084001899,-0.00030812754994258285,-0.020124269649386406,0,0,-1000,2,0,-20,-3,4,-153,1500.0
12:15:24.838,AUTO,-35.3632617,149.1652364,22015,0.0016553896712139249,0.0030600624158978462,-0.2139025330543518,0.0015008127084001899,-0.00030812754994258285,-0.020124269649386406,0,0,-1000,2,0,-20,-3,4,-153,1500.0
12:15:25.039,AUTO,-35.3632617,149.1652364,22015,0.0016553896712139249,0.0030600624158978462,-0.2139025330543518,0.0015008127084001899,-0.00030812754994258285,-0.020124269649386406,0,0,-1000,2,0,-20,-3,4,-153,1500.0
12:15:25.240,AUTO,-35.3632617,149.1652364,22015,0.0016553896712139249,0.0030600624158978462,-0.2139025330543518,0.0015008127084001899,-0.00030812754994258285,-0.020124269649386406,0,0,-1000,2,0,-20,-3,4,-153,1500.0
12:15:25.441,AUTO,-35.3632617,149.1652366,23188,0.0017929829191416502,0.0024497725535184145,-0.22828109562397003,-0.0019684068392962217,-0.00017927831504493952,-0.018141768872737885,0,0,-1000,0,0,-18,-3,3,-153,1500.0
12:15:25.642,AUTO,-35.3632618,149.1652367,23579,0.0019378532888367772,0.002402709797024727,-0.23315578699111938,0.002352270530536771,0.000380867684725672,-0.01975606009364128,0,0,-1000,3,0,-19,-3,3,-153,1500.0
12:15:25.843,AUTO,-35.3632618,149.1652367,23970,0.0020138476975262165,0.0025184445548802614,-0.23820729553699493,0.0015967502258718014,0.001893471460789442,-0.022097421810030937,0,0,-1000,2,2,-22,-2,3,-153,1500.0
12:15:26.044,AUTO,-35.3632618,149.1652367,23970,0.0020138476975262165,0.0025184445548802614,-0.23820729553699493,0.0015967502258718014,0.001893471460789442,-0.022097421810030937,0,0,-1000,2,2,-22,-2,3,-153,1500.0
12:15:26.245,AUTO,-35.3632618,149.1652367,24360,0.0023794728331267834,0.0027840682305395603,-0.24335364997386932,0.003458341583609581,0.00208938866853714,-0.020811667665839195,0,0,-1000,4,3,-21,-2,2,-153,1500.0
12:15:26.446,AUTO,-35.3632618,149.1652367,24751,0.002533912193030119,0.0029202678706496954,-0.24841848015785217,-0.002560004824772477,0.00046851910883560777,-0.019480405375361443,0,0,-999,-1,1,-19,-2,2,-153,1500.0
12:15:26.647,AUTO,-35.3632618,149.1652367,25141,-0.005672873463481665,0.0030081456061452627,-0.2528538405895233,-0.06849435716867447,0.0013162147952243686,-0.01294992957264185,0,0,-997,-67,2,-13,-2,2,-152,1500.0
12:15:26.849,AUTO,-35.3632618,149.1652367,25141,-0.005672873463481665,0.0030081456061452627,-0.2528538405895233,-0.06849435716867447,0.0013162147952243686,-0.01294992957264185,0,0,-997,-67,2,-13,-2,2,-152,1500.0
12:15:27.054,AUTO,-35.3632618,149.1652367,25141,-0.005672873463481665,0.0030081456061452627,-0.2528538405895233,-0.06849435716867447,0.0013162147952243686,-0.01294992957264185,0,0,-997,-67,2,-13,-2,2,-152,1500.0
12:15:27.255,AUTO,-35.3632618,149.1652367,25141,-0.005672873463481665,0.0030081456061452627,-0.2528538405895233,-0.06849435716867447,0.0013162147952243686,-0.01294992957264185,0,0,-997,-67,2,-13,-2,2,-152,1500.0
12:15:27.457,AUTO,-35.3632618,149.1652367,25141,-0.005672873463481665,0.0030081456061452627,-0.2528538405895233,-0.06849435716867447,0.0013162147952243686,-0.01294992957264185,0,0,-997,-67,2,-13,-2,2,-152,1500.0
12:15:27.658,AUTO,-35.3632621,149.1652365,26700,0.010645991191267967,0.003791192313656211,-0.24262307584285736,0.01169741339981556,-0.005553875118494034,0.022729450836777687,0,1,-1000,12,-4,22,-5,0,-153,1500.0
12:15:27.859,AUTO,-35.3632622,149.1652364,27089,0.012768825516104698,0.0026421532966196537,-0.23648346960544586,0.0045420387759804726,-0.002741691656410694,0.025272062048316002,0,0,-999,5,-1,24,-5,1,-153,1500.0
12:15:28.060,AUTO,-35.3632622,149.1652364,27089,0.012768825516104698,0.0026421532966196537,-0.23648346960544586,0.0045420387759804726,-0.002741691656410694,0.025272062048316002,0,0,-999,5,-1,24,-5,1,-153,1500.0
12:15:28.261,AUTO,-35.3632622,149.1652365,27479,0.01245881151407957,0.0017533987993374467,-0.23011085391044617,-0.006624056026339531,-0.0014585014432668686,0.024063600227236748,0,0,-999,-5,0,23,-4,4,-153,1500.0
12:15:28.462,AUTO,-35.3632623,149.1652365,27877,0.010769995860755444,0.0012221528450027108,-0.22381539642810822,-0.008230485022068024,-0.001953719649463892,0.02534370869398117,1,0,-999,-7,-1,25,-3,6,-153,1500.0
12:15:28.663,AUTO,-35.3632623,149.1652367,28265,0.008566269651055336,0.0011069949250668287,-0.21821711957454681,-0.009528018534183502,0.0002542966394685209,0.02129635401070118,1,-1,-999,-8,1,21,-2,8,-152,1500.0
12:15:28.864,AUTO,-35.3632623,149.1652367,28265,0.008566269651055336,0.0011069949250668287,-0.21821711957454681,-0.009528018534183502,0.0002542966394685209,0.02129635401070118,1,-1,-999,-8,1,21,-2,8,-152,1500.0
12:15:29.064,AUTO,-35.3632623,149.1652367,28265,0.008566269651055336,0.0011069949250668287,-0.21821711957454681,-0.009528018534183502,0.0002542966394685209,0.02129635401070118,1,-1,-999,-8,1,21,-2,8,-152,1500.0
12:15:29.265,AUTO,-35.3632623,149.1652367,28265,0.008566269651055336,0.0011069949250668287,-0.21821711957454681,-0.009528018534183502,0.0002542966394685209,0.02129635401070118,1,-1,-999,-8,1,21,-2,8,-152,1500.0
12:15:29.466,AUTO,-35.3632624,149.1652372,29432,0.003494426142424345,0.001749498420394957,-0.20219962298870087,-0.007390967104583979,0.001189348753541708,0.020933840423822403,0,-1,-1000,-6,1,20,0,9,-153,1500.0
12:15:29.667,AUTO,-35.3632624,149.1652374,29820,0.0016868944512680173,0.0017231045057997108,-0.1970451921224594,-0.0071325358003377914,0.00034417962888255715,0.022577855736017227,0,-1,-1000,-6,1,22,0,8,-153,1500.0
12:15:29.868,AUTO,-35.3632624,149.1652375,30209,0.0005368533311411738,0.0017208897043019533,-0.19220443069934845,-0.0012589591788128018,0.0006197028560563922,0.018950587138533592,0,-1,-1001,0,1,18,0,7,-153,1500.0
12:15:30.069,AUTO,-35.3632624,149.1652375,30209,0.0005368533311411738,0.0017208897043019533,-0.19220443069934845,-0.0012589591788128018,0.0006197028560563922,0.018950587138533592,0,-1,-1001,0,1,18,0,7,-153,1500.0
12:15:30.270,AUTO,-35.3632624,149.1652377,30598,-5.578850687015802e-05,0.0018626782111823559,-0.18748871982097626,0.0007240903796628118,0.0011866800487041473,0.019072050228714943,0,-1,-1000,1,2,18,0,6,-153,1500.0
12:15:30.471,AUTO,-35.3632624,149.1652378,30986,-0.0005062810960225761,0.0015551979886367917,-0.18304871022701263,-0.002673045266419649,-0.0010917957406491041,0.019102323800325394,0,-1,-1000,-1,0,19,0,5,-153,1500.0
12:15:30.672,AUTO,-35.3632624,149.1652379,31375,-0.000528625852894038,0.0014234584523364902,-0.178798645734787,0.0031272468622773886,-0.0013087247498333454,0.0180917177349329,0,0,-1001,3,0,17,0,4,-153,1500.0
12:15:30.873,AUTO,-35.3632624,149.1652379,31375,-0.000528625852894038,0.0014234584523364902,-0.178798645734787,0.0031272468622773886,-0.0013087247498333454,0.0180917177349329,0,0,-1001,3,0,17,0,4,-153,1500.0
12:15:31.074,AUTO,-35.3632624,149.1652379,31375,-0.000528625852894038,0.0014234584523364902,-0.178798645734787,0.0031272468622773886,-0.0013087247498333454,0.0180917177349329,0,0,-1001,3,0,17,0,4,-153,1500.0
12:15:31.276,AUTO,-35.3632624,149.1652379,31375,-0.000528625852894038,0.0014234584523364902,-0.178798645734787,0.0031272468622773886,-0.0013087247498333454,0.0180917177349329,0,0,-1001,3,0,17,0,4,-153,1500.0
12:15:31.478,AUTO,-35.3632623,149.165238,32542,3.1685776775702834e-05,0.001128916279412806,-0.16687466204166412,-0.001755493925884366,-0.0019343174062669277,0.014200584962964058,0,0,-1000,0,0,14,0,2,-153,1500.0
12:15:31.679,AUTO,-35.3632623,149.165238,32932,0.00036696146707981825,0.0011566701577976346,-0.1630283147096634,0.001551116001792252,-0.0008209013612940907,0.01603446900844574,0,0,-1000,2,0,16,0,1,-153,1500.0
12:15:31.880,AUTO,-35.3632623,149.165238,33322,0.0008739695185795426,0.001281942706555128,-0.15936429798603058,0.0008682485204190016,0.0005584722966887057,0.013831927441060543,0,0,-999,2,1,13,0,1,-153,1500.0
12:15:32.081,AUTO,-35.3632623,149.165238,33711,0.0012822833377867937,0.0015288422582671046,-0.15574951469898224,-0.0004040440544486046,0.0014471140457317233,0.014296022243797779,0,0,-999,0,2,13,0,0,-153,1500.0
12:15:32.282,AUTO,-35.3632623,149.165238,33711,0.0012822833377867937,0.0015288422582671046,-0.15574951469898224,-0.0004040440544486046,0.0014471140457317233,0.014296022243797779,0,0,-999,0,2,13,0,0,-153,1500.0
12:15:32.484,AUTO,-35.3632623,149.165238,34101,0.0016222194535657763,0.0016311523504555225,-0.15257441997528076,0.001815943163819611,-2.339045749977231e-05,0.013912389054894447,0,0,-1000,2,1,14,0,0,-153,1500.0
12:15:32.685,AUTO,-35.3632623,149.165238,34490,0.001489221234805882,0.0012146920198574662,-0.14954598248004913,-0.0009503473411314189,-0.002572606783360243,0.014407681301236153,0,0,-1000,0,-1,14,0,0,-153,1500.0
12:15:32.886,AUTO,-35.3632623,149.165238,34490,0.001489221234805882,0.0012146920198574662,-0.14954598248004913,-0.0009503473411314189,-0.002572606783360243,0.014407681301236153,0,0,-1000,0,-1,14,0,0,-153,1500.0
12:15:33.088,AUTO,-35.3632623,149.165238,34490,0.001489221234805882,0.0012146920198574662,-0.14954598248004913,-0.0009503473411314189,-0.002572606783360243,0.014407681301236153,0,0,-1000,0,-1,14,0,0,-153,1500.0
12:15:33.289,AUTO,-35.3632623,149.165238,34490,0.001489221234805882,0.0012146920198574662,-0.14954598248004913,-0.0009503473411314189,-0.002572606783360243,0.014407681301236153,0,0,-1000,0,-1,14,0,0,-153,1500.0
12:15:33.490,AUTO,-35.3632622,149.1652379,35658,0.0019923883955925703,0.0009285147534683347,-0.14037111401557922,0.002474023262038827,0.00013108272105455399,0.010799266397953033,0,0,-1001,3,1,10,0,0,-153,1500.0
12:15:33.691,AUTO,-35.3632622,149.1652379,36047,0.0018002847209572792,0.0008013483020476997,-0.1376475840806961,-0.0020071654580533504,-0.0011297115124762058,0.012608116492629051,0,0,-1000,-1,0,12,0,0,-153,1500.0
12:15:33.892,AUTO,-35.3632622,149.1652379,36436,0.001831004279665649,0.0008448029984720051,-0.13497480750083923,-0.0003429960925132036,0.0009511670796200633,0.010570963844656944,0,0,-1000,0,2,10,0,0,-153,1500.0
12:15:34.093,AUTO,-35.3632622,149.1652378,36830,0.0021952020470052958,0.0011949504259973764,-0.13221219182014465,0.00403317715972662,0.0031196095515042543,0.012570456601679325,0,0,-1000,5,4,12,0,0,-153,1500.0
12:15:34.294,AUTO,-35.3632622,149.1652378,36830,0.0021952020470052958,0.0011949504259973764,-0.13221219182014465,0.00403317715972662,0.0031196095515042543,0.012570456601679325,0,0,-1000,5,4,12,0,0,-153,1500.0
12:15:34.495,AUTO,-35.3632622,149.1652378,37219,0.002409348264336586,0.0014854794135317206,-0.12986232340335846,0.0005589982029050589,-2.1152663975954056e-05,0.012769433669745922,0,0,-1000,1,1,12,0,0,-153,1500.0
12:15:34.696,AUTO,-35.3632622,149.1652377,37608,0.0025242336560040712,0.0013818261213600636,-0.12717518210411072,-0.00025698565877974033,-0.0008489935426041484,0.01028607226908207,0,0,-1000,0,0,10,0,0,-153,1500.0
12:15:34.897,AUTO,-35.3632622,149.1652377,37608,0.0025242336560040712,0.0013818261213600636,-0.12717518210411072,-0.00025698565877974033,-0.0008489935426041484,0.01028607226908207,0,0,-1000,0,0,10,0,0,-153,1500.0
12:15:35.098,AUTO,-35.3632622,149.1652377,37608,0.0025242336560040712,0.0013818261213600636,-0.12717518210411072,-0.00025698565877974033,-0.0008489935426041484,0.01028607226908207,0,0,-1000,0,0,10,0,0,-153,1500.0
12:15:35.299,AUTO,-35.3632622,149.1652377,37608,0.0025242336560040712,0.0013818261213600636,-0.12717518210411072,-0.00025698565877974033,-0.0008489935426041484,0.01028607226908207,0,0,-1000,0,0,10,0,0,-153,1500.0
12:15:35.500,AUTO,-35.3632621,149.1652376,38923,0.002963400213047862,0.0016257279785349965,-0.12005036324262619,0.0027800463140010834,-0.0004268639604561031,0.00844498910009861,0,0,-1001,3,0,8,0,0,-153,1500.0
12:15:35.701,AUTO,-35.3632621,149.1652376,39321,0.002827692311257124,0.0014464145060628653,-0.1177719235420227,0.0003841203870251775,-0.0008878348744474351,0.011454761028289795,0,0,-1000,1,0,11,0,0,-153,1500.0
12:15:35.903,AUTO,-35.3632621,149.1652376,39321,0.002827692311257124,0.0014464145060628653,-0.1177719235420227,0.0003841203870251775,-0.0008878348744474351,0.011454761028289795,0,0,-1000,1,0,11,0,0,-153,1500.0
12:15:36.104,AUTO,-35.3632621,149.1652375,39710,0.0028358923736959696,0.0013876224402338266,-0.11582861840724945,-0.003029332496225834,0.0003438574494794011,0.006886436603963375,0,0,-1000,-2,1,7,0,0,-153,1500.0
12:15:36.305,AUTO,-35.3632621,149.1652375,40099,0.0024993966799229383,0.0012567058438435197,-0.11384027451276779,-0.0022475961595773697,-0.0009139750036410987,0.0071776751428842545,0,0,-1000,-1,0,7,0,0,-153,1500.0
12:15:36.506,AUTO,-35.3632621,149.1652375,40488,0.002618828322738409,0.0013216524384915829,-0.11192896962165833,0.0006789774633944035,0.003561306046321988,0.007343308534473181,0,0,-999,1,4,7,0,0,-153,1500.0
12:15:36.708,AUTO,-35.3632621,149.1652375,40877,0.002549441298469901,0.001399894943460822,-0.1102607250213623,0.0015187094686552882,-0.0005475194193422794,0.008054112084209919,0,0,-1000,2,0,8,0,0,-153,1500.0
12:15:36.909,AUTO,-35.3632621,149.1652375,40877,0.002549441298469901,0.001399894943460822,-0.1102607250213623,0.0015187094686552882,-0.0005475194193422794,0.008054112084209919,0,0,-1000,2,0,8,0,0,-153,1500.0
12:15:37.111,AUTO,-35.3632621,149.1652375,40877,0.002549441298469901,0.001399894943460822,-0.1102607250213623,0.0015187094686552882,-0.0005475194193422794,0.008054112084209919,0,0,-1000,2,0,8,0,0,-153,1500.0
12:15:37.313,AUTO,-35.3632621,149.1652375,40877,0.002549441298469901,0.001399894943460822,-0.1102607250213623,0.0015187094686552882,-0.0005475194193422794,0.008054112084209919,0,0,-1000,2,0,8,0,0,-153,1500.0
12:15:37.514,AUTO,-35.3632621,149.1652374,41886,0.002354889875277877,0.0012002142611891031,-0.10606453567743301,-0.0007856637821532786,-0.0003924621851183474,0.007254584692418575,0,0,-1000,2,0,8,-1,1,-153,1500.0
12:15:37.716,AUTO,-35.3632621,149.1652374,42275,0.002466600388288498,0.0011952993227168918,-0.10438291728496552,0.0018075702246278524,-0.0005259219906292856,0.006364892236888409,0,0,-1001,2,0,6,0,1,-153,1500.0
12:15:37.917,AUTO,-35.3632621,149.1652374,42663,0.00230596330948174,0.0013432399136945605,-0.10261783748865128,-0.0021307221613824368,0.0006570352707058191,0.007944796234369278,0,0,-999,-1,1,7,0,1,-153,1500.0
12:15:38.118,AUTO,-35.3632621,149.1652374,43053,0.002372073009610176,0.0014675564598292112,-0.10092086344957352,0.0010176505893468857,0.001808031927794218,0.008361083455383778,0,0,-1000,2,2,8,-1,1,-153,1500.0
12:15:38.319,AUTO,-35.3632621,149.1652374,43053,0.002372073009610176,0.0014675564598292112,-0.10092086344957352,0.0010176505893468857,0.001808031927794218,0.008361083455383778,0,0,-1000,2,2,8,-1,1,-153,1500.0
12:15:38.520,AUTO,-35.363262,149.1652374,43443,0.002422385849058628,0.001511148875579238,-0.09952695667743683,0.0027603604830801487,0.0016806040657684207,0.006964254193007946,0,0,-1000,3,2,7,-1,1,-153,1500.0
12:15:38.722,AUTO,-35.363262,149.1652374,43831,0.0024820363614708185,0.0015429897466674447,-0.0980154275894165,-0.0006884342874400318,0.0002842900576069951,0.006725620944052935,0,0,-1000,0,1,7,-1,1,-153,1500.0
12:15:38.923,AUTO,-35.363262,149.1652374,43831,0.0024820363614708185,0.0015429897466674447,-0.0980154275894165,-0.0006884342874400318,0.0002842900576069951,0.006725620944052935,0,0,-1000,0,1,7,-1,1,-153,1500.0
12:15:39.124,AUTO,-35.363262,149.1652374,43831,0.0024820363614708185,0.0015429897466674447,-0.0980154275894165,-0.0006884342874400318,0.0002842900576069951,0.006725620944052935,0,0,-1000,0,1,7,-1,1,-153,1500.0
12:15:39.325,AUTO,-35.363262,149.1652374,43831,0.0024820363614708185,0.0015429897466674447,-0.0980154275894165,-0.0006884342874400318,0.0002842900576069951,0.006725620944052935,0,0,-1000,0,1,7,-1,1,-153,1500.0
12:15:39.527,AUTO,-35.363262,149.1652374,45000,0.002149291569367051,0.0011743191862478852,-0.09357095509767532,-0.002628560643643141,-0.00015873945085331798,0.0030399488750845194,0,0,-1000,-1,0,3,-1,1,-153,1500.0
12:15:39.728,AUTO,-35.363262,149.1652374,45388,0.002107329433783889,0.0010993664618581533,-0.092203788459301,0.0010041897185146809,-0.00015157682355493307,0.008827688172459602,0,0,-1000,2,1,9,-1,1,-153,1500.0
12:15:39.929,AUTO,-35.363262,149.1652374,45777,0.002195592736825347,0.00126804003957659,-0.09062594175338745,0.0013410210376605392,-0.0006116813165135682,0.0063759745098650455,0,0,-1001,2,0,6,-1,1,-153,1500.0
12:15:40.130,AUTO,-35.363262,149.1652374,46171,0.0020365198142826557,0.001181703875772655,-0.0891461968421936,-0.0014035667991265655,-0.0005497992970049381,0.006738857366144657,0,0,-1000,0,0,6,-1,1,-153,1500.0
12:15:40.332,AUTO,-35.363262,149.1652374,46560,0.002075138268992305,0.0011464681010693312,-0.08779290318489075,0.0017430513398721814,7.130799349397421e-05,0.005962083116173744,0,0,-1000,0,0,6,-1,1,-153,1500.0
12:15:40.533,AUTO,-35.363262,149.1652374,46560,0.002075138268992305,0.0011464681010693312,-0.08779290318489075,0.0017430513398721814,7.130799349397421e-05,0.005962083116173744,0,0,-1000,2,1,6,-1,1,-153,1500.0
12:15:40.735,AUTO,-35.363262,149.1652374,46948,0.0018810256151482463,0.0012545025674626231,-0.0860811099410057,-0.00830050278455019,0.004300759173929691,0.021498296409845352,0,0,-996,-7,5,21,-1,1,-153,1500.0
12:15:40.937,AUTO,-35.363262,149.1652374,46948,0.0018810256151482463,0.0012545025674626231,-0.0860811099410057,-0.00830050278455019,0.004300759173929691,0.021498296409845352,0,0,-996,-7,5,21,-1,1,-153,1500.0
12:15:41.138,AUTO,-35.363262,149.1652374,46948,0.0018810256151482463,0.0012545025674626231,-0.0860811099410057,-0.00830050278455019,0.004300759173929691,0.021498296409845352,0,0,-996,-7,5,21,-1,1,-153,1500.0
12:15:41.340,AUTO,-35.363262,149.1652374,46948,0.0018810256151482463,0.0012545025674626231,-0.0860811099410057,-0.00830050278455019,0.004300759173929691,0.021498296409845352,0,0,-996,-7,5,21,-1,1,-153,1500.0
12:15:41.540,AUTO,-35.3632624,149.1652368,48034,-0.061252083629369736,0.06861571967601776,0.1784115582704544,-0.006379769649356604,-0.0970325767993927,0.41061797738075256,3,4,-941,-5,-96,410,-23,-22,-128,1500.0
12:15:41.741,AUTO,-35.363263,149.165236,48342,-0.03949740529060364,0.026296956464648247,0.2549607753753662,0.10859526693820953,-0.2154446542263031,0.21913306415081024,4,8,-942,109,-214,219,-31,-35,-113,1500.0
12:15:41.942,AUTO,-35.3632637,149.1652349,48613,-0.011314034461975098,-0.018999934196472168,0.29287928342819214,0.10607225447893143,-0.15177053213119507,0.1014493927359581,4,9,-949,107,-150,101,-29,-38,-100,1500.0
12:15:42.143,AUTO,-35.3632642,149.1652339,48853,0.012343316338956356,-0.045060060918331146,0.30702367424964905,0.08548234403133392,-0.0710693746805191,0.03246554732322693,3,10,-956,86,-69,32,-21,-33,-88,1500.0
12:15:42.344,AUTO,-35.3632646,149.1652331,49066,0.028560709208250046,-0.05522178113460541,0.30814510583877563,0.05459757149219513,-0.0189428199082613,-0.005254633724689484,1,7,-962,55,-17,-4,-11,-23,-78,1500.0
12:15:42.546,AUTO,-35.3632646,149.1652331,49066,0.028560709208250046,-0.05522178113460541,0.30814510583877563,0.05459757149219513,-0.0189428199082613,-0.005254633724689484,1,7,-962,55,-17,-4,-11,-23,-78,1500.0
12:15:42.747,AUTO,-35.3632648,149.1652326,49253,0.0375046469271183,-0.054429419338703156,0.30315321683883667,0.011787879280745983,0.017972147092223167,-0.025914793834090233,0,3,-966,13,19,-25,-1,-11,-68,1500.0
12:15:42.948,AUTO,-35.3632648,149.1652326,49253,0.0375046469271183,-0.054429419338703156,0.30315321683883667,0.011787879280745983,0.017972147092223167,-0.025914793834090233,0,3,-966,13,19,-25,-1,-11,-68,1500.0
12:15:43.149,AUTO,-35.3632648,149.1652326,49253,0.0375046469271183,-0.054429419338703156,0.30315321683883667,0.011787879280745983,0.017972147092223167,-0.025914793834090233,0,3,-966,13,19,-25,-1,-11,-68,1500.0
12:15:43.352,AUTO,-35.3632648,149.1652326,49253,0.0375046469271183,-0.054429419338703156,0.30315321683883667,0.011787879280745983,0.017972147092223167,-0.025914793834090233,0,3,-966,13,19,-25,-1,-11,-68,1500.0
12:15:43.553,AUTO,-35.363264,149.165233,49739,0.03239663317799568,-0.020002512261271477,0.27339136600494385,0.07074671238660812,0.042194511741399765,-0.035178277641534805,-3,-1,-979,72,43,-34,18,23,-46,1500.0
12:15:43.774,AUTO,-35.3632636,149.1652336,49848,0.02534441091120243,-0.00989872682839632,0.264506071805954,-0.08142677694559097,0.037435248494148254,-0.032794442027807236,-3,-16,-978,-81,38,-32,20,27,-40,1500.0
12:15:43.978,AUTO,-35.3632631,149.1652344,49944,0.012379486113786697,-0.0015156012959778309,0.25623849034309387,-0.29149603843688965,0.02893795259296894,-0.030126502737402916,-3,-11,-971,-288,30,-29,20,30,-35,1500.0
12:15:44.179,AUTO,-35.3632626,149.1652352,50021,0.015202673152089119,0.00546055706217885,0.2477811574935913,0.4417038857936859,0.02354840189218521,-0.03003099374473095,-3,-11,-971,-288,30,-29,19,31,-28,1500.0
12:15:44.380,AUTO,-35.3632626,149.1652352,50021,0.015202673152089119,0.00546055706217885,0.2477811574935913,0.4417038857936859,0.02354840189218521,-0.03003099374473095,-2,19,-980,445,24,-29,19,31,-28,1500.0
12:15:44.581,AUTO,-35.3632622,149.165236,50082,0.015205733478069305,0.010796303860843182,0.23992763459682465,0.5219554305076599,0.0166562981903553,-0.02887992188334465,-1,3,-972,522,17,-28,17,30,-22,1500.0
12:15:44.782,AUTO,-35.3632618,149.1652368,50130,0.003181886626407504,0.014897370710968971,0.23257382214069366,-0.23832203447818756,0.01395326852798462,-0.028556525707244873,-2,-35,-968,-240,15,-27,14,26,-16,1500.0
12:15:44.983,AUTO,-35.3632618,149.1652368,50130,0.003181886626407504,0.014897370710968971,0.23257382214069366,-0.23832203447818756,0.01395326852798462,-0.028556525707244873,-2,-35,-968,-240,15,-27,14,26,-16,1500.0
12:15:45.184,AUTO,-35.3632618,149.1652368,50130,0.003181886626407504,0.014897370710968971,0.23257382214069366,-0.23832203447818756,0.01395326852798462,-0.028556525707244873,-2,-35,-968,-240,15,-27,14,26,-16,1500.0
12:15:45.385,AUTO,-35.3632618,149.1652368,50130,0.003181886626407504,0.014897370710968971,0.23257382214069366,-0.23832203447818756,0.01395326852798462,-0.028556525707244873,-2,-35,-968,-240,15,-27,14,26,-16,1500.0
12:15:45.586,AUTO,-35.3632611,149.1652386,50164,-0.03314550966024399,0.03909549117088318,0.20646023750305176,0.46223753690719604,0.10251078009605408,0.007219499442726374,0,38,-942,467,103,7,3,14,9,1500.0
12:15:45.787,AUTO,-35.3632611,149.1652389,50126,-0.02407241426408291,0.04313654080033302,0.2030830979347229,0.9377676248550415,-0.02227618917822838,-0.012221327051520348,-1,37,-1003,940,-21,-11,-3,3,14,1500.0
12:15:45.988,AUTO,-35.3632612,149.1652389,50081,-0.009499991312623024,0.0371210016310215,0.20019124448299408,0.737699031829834,-0.02247484214603901,-0.008085290901362896,0,19,-1016,737,-21,-7,-11,-5,15,1500.0
12:15:46.189,AUTO,-35.3632615,149.1652387,50043,-0.0053162346594035625,0.03213686868548393,0.19648094475269318,0.007920663803815842,-0.01814410835504532,-0.01993423141539097,7,-20,-1016,5,-17,-19,-18,-10,11,1500.0
12:15:46.390,AUTO,-35.3632615,149.1652387,50043,-0.0053162346594035625,0.03213686868548393,0.19648094475269318,0.007920663803815842,-0.01814410835504532,-0.01993423141539097,7,-20,-1016,5,-17,-19,-18,-10,11,1500.0
12:15:46.591,AUTO,-35.3632619,149.1652386,50014,-0.011800827458500862,0.02964617684483528,0.19183632731437683,-0.738105833530426,-0.007921840064227581,-0.020118888467550278,6,-33,-1013,-738,-6,-19,-24,-11,7,1500.0
12:15:46.792,AUTO,-35.3632625,149.1652384,49993,-0.009517676196992397,0.028943656012415886,0.18727463483810425,-0.5030116438865662,0.007624405901879072,-0.013678873889148235,7,0,-1009,-499,8,-13,-30,-11,4,1500.0
12:15:46.993,AUTO,-35.3632625,149.1652384,49993,-0.009517676196992397,0.028943656012415886,0.18727463483810425,-0.5030116438865662,0.007624405901879072,-0.013678873889148235,7,0,-1009,-499,8,-13,-30,-11,4,1500.0
12:15:47.194,AUTO,-35.3632625,149.1652384,49993,-0.009517676196992397,0.028943656012415886,0.18727463483810425,-0.5030116438865662,0.007624405901879072,-0.013678873889148235,7,0,-1009,-499,8,-13,-30,-11,4,1500.0
12:15:47.395,AUTO,-35.3632625,149.1652384,49993,-0.009517676196992397,0.028943656012415886,0.18727463483810425,-0.5030116438865662,0.007624405901879072,-0.013678873889148235,7,0,-1009,-499,8,-13,-30,-11,4,1500.0
12:15:47.596,AUTO,-35.3632654,149.1652379,49961,0.008122957311570644,0.05177641659975052,0.172101691365242,0.3539988696575165,0.06382554769515991,-0.02098739519715309,13,9,-1005,352,65,-20,-51,-9,0,1500.0
12:15:47.853,AUTO,-35.3632667,149.1652377,49959,-0.003838025266304612,0.06665913015604019,0.1324835568666458,-0.5657218098640442,0.07737807184457779,-0.36315399408340454,12,-26,-999,-567,78,-362,-63,-9,-1,1500.0
12:15:48.055,AUTO,-35.3632684,149.1652376,49956,-0.020070765167474747,0.07665984332561493,-0.024689115583896637,-0.6191490292549133,0.07145902514457703,-0.7669984698295593,14,-8,-1009,-617,72,-766,-78,-8,-1,1500.0
12:15:48.256,AUTO,-35.3632704,149.1652375,49956,-0.0362078920006752,0.08029337972402573,-0.23324529826641083,0.08532196283340454,0.03128208592534065,-0.8445281386375427,17,39,-998,89,32,-844,-94,-7,-2,1500.0
12:15:48.459,AUTO,-35.3632728,149.1652374,49955,-0.05226568877696991,0.07830987870693207,-0.44907158613204956,0.5659258365631104,0.010446247644722462,-0.838013768196106,14,58,-1007,568,11,-837,-112,-7,-1,1500.0
