time_stamp,MODE,RTL_ALT,roll,pitch,yaw,rollspeed,pitchspeed,yawspeed,lat,lon,relative_alt,vx,vy,vz,xacc,yacc,zacc,xgyro,ygyro,zgyro
18:24:45,STABILIZE,242610.0,0.0003117615997325629,0.0016149405855685472,0.02724885754287243,0.00025042376364581287,0.00020192618831060827,0.002227331046015024,-35.3632621,149.1652374,0.0,-1.0,1.0,1.0,0.0,1.0,-1000.0,0.0,0.0,0.0
18:24:57,STABILIZE,242610.0,-0.0012198438053019345,0.00099714013049379,0.022854438982903957,0.000272086268523708,0.00031009700614959,0.0017413705354556441,-35.3632622,149.1652375,0.0,-1.0,0.0,0.0,0.0,1.0,-1000.0,0.0,0.0,0.0
18:25:01,STABILIZE,242610.0,-0.0008074513946970304,0.0009647779127893349,0.021972987179954846,0.00034918929062162835,0.0003036222381827732,0.0015651783905923367,-35.3632622,149.1652375,0.0,-1.0,2.0,0.0,0.0,1.0,-1000.0,0.0,0.0,1.0
18:25:05,AUTO,242610.0,-0.0009765187278389931,0.0009688925347290933,0.02123245969414711,0.00025805196492001414,0.00020927621517330408,0.0013194854836910963,-35.3632622,149.1652375,0.0,-1.0,0.0,-1.0,0.0,1.0,-1000.0,1.0,0.0,0.0
18:25:07,AUTO,242610.0,-0.000680822665647914,0.0010931865933040779,0.020878296966354053,0.00029781670309603214,0.0002442080100687842,0.0013970592214415471,-35.3632621,149.1652375,4.666666666666667,0.0,0.0,-1.0,0.0,1.3333333333333333,-1000.0,0.3333333333333333,0.6666666666666666,0.3333333333333333
18:25:08,AUTO,141323.0,-0.000158910384925548,0.0014372017467394471,0.020595320189992588,0.000363141802760462,0.00028596756358941394,0.0013296797793979447,-35.3632621,149.1652375,7.666666666666667,0.0,0.0,-1.0,0.0,1.6666666666666667,-1000.0,1.0,0.3333333333333333,1.0
18:25:09,AUTO,141323.0,4.06056315114256e-05,0.0016564056277275085,0.020402871693174045,0.00034962590628614026,0.00032840913627296686,0.00134687265381217,-35.3632621,149.1652375,8.0,0.0,0.0,-1.0,0.0,1.3333333333333333,-1000.0,1.0,0.0,0.6666666666666666
18:25:11,AUTO,141323.0,0.02807635006805261,-0.0018708097535030295,0.020122565949956577,0.04627478991945585,-0.0072408065510292845,0.0025391099819292626,-35.363262033333335,149.16523759999998,1552.6666666666667,1.0,8.666666666666666,-145.66666666666666,0.0,-1.0,-1015.3333333333334,46.666666666666664,-6.0,1.6666666666666667
18:25:13,AUTO,141323.0,-0.03660197307666143,0.004327672533690929,-0.06637622291843097,-0.05889040231704712,-0.011539380686978499,-0.03572991428275903,-35.363260833333335,149.1652453,4594.333333333333,3.3333333333333335,33.0,-148.66666666666666,3.6666666666666665,-8.666666666666666,-1002.3333333333334,-57.333333333333336,-11.0,-35.0
18:25:14,AUTO,53945.0,-0.05596364910403887,0.004529957504322131,-0.10909116764863332,0.05908185119430224,0.0038552138721570373,-0.01576232785979907,-35.36326066666666,149.1652445,6509.333333333333,-6.0,-47.333333333333336,-148.66666666666666,-4.0,7.666666666666667,-1001.0,59.333333333333336,4.333333333333333,-15.333333333333334
18:25:15,AUTO,53945.0,-0.007169828439752261,0.0107286445175608,-0.1158338412642479,0.06905707220236461,0.010735096720357737,-0.0033321500134964785,-35.3632614,149.1652396,7662.666666666667,-15.666666666666666,-62.666666666666664,-150.0,-5.666666666666667,13.666666666666666,-1003.0,69.33333333333333,11.0,-3.0
18:25:17,AUTO,53945.0,0.04798839489618937,-0.06451092412074406,-0.039560522263248764,-0.051514003348226346,-0.05108432099223137,0.07928611384704709,-35.36326523333333,149.1652343333333,10772.0,2.3333333333333335,33.0,-149.0,3.3333333333333335,-3.6666666666666665,-997.6666666666666,-50.666666666666664,-50.333333333333336,78.33333333333333
18:25:19,AUTO,53945.0,-0.024900367793937523,0.029973504443963368,-0.17695495982964835,0.04514617100358009,0.016279638124008972,-0.04386593711872896,-35.36325916666667,149.16523763333333,13853.666666666666,18.333333333333332,-21.0,-153.0,-6.333333333333333,0.0,-1001.3333333333334,45.666666666666664,16.333333333333332,-43.333333333333336
18:25:20,AUTO,21013.0,0.03373046467701594,0.03234205022454262,-0.1954854130744934,0.024716264568269253,-0.0352549856955496,0.02273372747004032,-35.36325926666667,149.1652347,15807.0,-22.666666666666668,-5.333333333333333,-152.66666666666666,1.0,4.333333333333333,-998.6666666666666,25.333333333333332,-34.666666666666664,22.333333333333332
18:25:21,AUTO,21013.0,0.01862858732541402,-0.0048645099547381205,-0.16599991420904794,-0.04482646038134893,-0.02537553198635578,0.02190279805411895,-35.36326076666666,149.16523506666667,16971.666666666668,-22.333333333333332,16.666666666666668,-151.0,5.333333333333333,0.3333333333333333,-999.3333333333334,-43.333333333333336,-24.0,21.333333333333332
18:25:23,AUTO,21013.0,-0.003549397321573148,-0.0021521082186761,-0.21251383423805237,0.011218536334733168,0.007212319566557805,-0.03419500154753526,-35.3632622,149.1652369,20079.0,-1.0,-0.3333333333333333,-153.0,0.0,0.0,-1000.0,11.666666666666666,7.333333333333333,-33.666666666666664
18:25:25,AUTO,21013.0,0.00670583127066493,0.003804461332038045,-0.2615961929162343,-0.0005435424003129204,-0.0011930057080462575,-0.01678992062807083,-35.3632622,149.1652363,23204.666666666668,-0.6666666666666666,2.0,-153.0,0.0,0.0,-1000.0,0.0,-0.3333333333333333,-16.333333333333332
18:25:26,AUTO,18187.0,-0.004870361105228464,0.0035635128151625395,-0.28338884313901264,-0.021022338963424165,0.002041404756406943,-0.015766821491221588,-35.3632622,149.1652364,25149.333333333332,-1.3333333333333333,2.6666666666666665,-152.0,0.0,0.0,-999.3333333333334,-20.0,2.6666666666666665,-15.333333333333334
18:25:27,AUTO,18187.0,0.003921691173066695,0.005023653463770946,-0.2843960126241048,0.026337863877415657,0.0012531218041355412,0.013220510600755611,-35.36326223333334,149.16523636666668,26314.333333333332,-3.6666666666666665,-0.6666666666666666,-153.0,0.0,0.0,-1000.0,27.0,2.0,12.666666666666666
18:25:29,AUTO,18187.0,0.0022362409120736024,0.002481709389636914,-0.238785852988561,-0.006724124929557244,-0.00012338076097269854,0.021049649144212406,-35.36326236666667,149.1652372,29418.666666666668,-1.0,9.666666666666666,-152.0,0.6666666666666666,-0.6666666666666666,-1000.0,-5.333333333333333,0.3333333333333333,20.666666666666668
18:25:31,AUTO,18187.0,-0.0023680081455192217,0.0029270811937749386,-0.1981003483136495,-0.02452984277624637,0.024823068524710834,0.0679384358227253,-35.3632623,149.1652381,32526.666666666668,-0.3333333333333333,2.0,-151.0,0.0,-0.3333333333333333,-989.3333333333334,-23.666666666666668,25.333333333333332,67.66666666666667
18:25:32,AUTO,55174.0,-0.022575968100378912,0.0002211920606593291,0.1573025385538737,0.1049814522266388,-0.157136599222819,0.10139792699677248,-35.3632639,149.1652362,34192.0,-31.0,-33.0,-98.0,3.0,9.0,-941.3333333333334,105.33333333333333,-155.66666666666666,101.33333333333333
18:25:33,AUTO,55174.0,0.03577887763579687,-0.050861732413371406,0.15791941185792288,0.038246890219549336,0.0013208709036310513,-0.03513037289182345,-35.3632653,149.16523383333333,34801.0,-6.666666666666667,-15.0,-62.666666666666664,0.0,5.0,-963.3333333333334,39.0,2.3333333333333335,-34.666666666666664
18:25:35,AUTO,55174.0,0.002240861610819896,0.013207297772169113,0.115599458416303,0.2738827168941498,0.01740557886660099,-0.009663706334928671,-35.3632623,149.1652367,35517.0,20.333333333333332,26.0,-13.0,0.0,12.666666666666666,-979.0,275.3333333333333,18.0,-9.0
18:25:37,AUTO,55174.0,-0.02216809367140134,-0.04281086350480715,0.0891596923271815,0.4988815486431122,-0.044171497225761414,-0.0032138399158914885,-35.3632608,149.16523930000002,35373.333333333336,18.666666666666668,-22.0,1.3333333333333333,-3.0,20.333333333333332,-1011.3333333333334,499.6666666666667,-42.666666666666664,-2.6666666666666665
18:25:38,AUTO,42666.0,-0.00801128956178824,-0.11560465643803279,-0.10356232896447182,0.21464108427365622,-0.03785845264792442,-0.17550769820809364,-35.363255233333334,149.16523703333334,35396.666666666664,100.33333333333333,-41.666666666666664,-7.666666666666667,-22.0,7.0,-1011.6666666666666,215.66666666666666,-36.666666666666664,-175.0
18:25:39,AUTO,42666.0,0.0031740647391416132,-0.1459106703599294,-0.1213838259379069,-0.2588849912087123,-0.04828935240705808,0.02349447226151824,-35.3632465,149.1652338,35464.333333333336,171.66666666666666,-56.666666666666664,-11.666666666666666,-40.333333333333336,-28.0,-1015.6666666666666,-258.3333333333333,-47.0,23.666666666666668
18:25:41,AUTO,42666.0,0.044331065068642296,-0.19108907878398895,-0.13706139226754507,-0.011474546045064926,-0.02240106649696827,-0.0006278253858909011,-35.363196566666666,149.16521723333332,35865.0,395.0,-91.0,-29.0,-78.0,-28.333333333333332,-1007.6666666666666,-10.666666666666666,-21.333333333333332,0.0
18:25:43,AUTO,50851.0,0.06511823957165082,-0.1332150176167488,-0.17868489027023315,0.04144886586194237,0.16573257247606912,-0.0063324930767218275,-35.36310806666666,149.16519203333334,36658.0,573.6666666666666,-122.66666666666667,-57.333333333333336,-111.0,-59.666666666666664,-1023.3333333333334,42.0,165.66666666666666,-5.666666666666667
18:25:45,AUTO,50851.0,0.053814828395843506,0.027813024818897247,-0.1464337408542633,-0.3172719677289327,0.008786083509524664,-0.015354389945665995,-35.36301903333333,149.1651691666667,37771.0,391.3333333333333,-70.66666666666667,-19.666666666666668,-79.66666666666667,-56.333333333333336,-978.0,-316.0,9.0,-14.666666666666666
18:25:47,AUTO,50851.0,0.04177337884902954,0.07641462981700897,-0.1542799174785614,0.4140198876460393,0.02939817247291406,-0.025834588333964348,-35.362967266666665,149.1651564,38064.0,184.66666666666666,-32.666666666666664,-8.666666666666666,-38.666666666666664,1.6666666666666667,-1003.6666666666666,415.0,29.666666666666668,-24.666666666666668
18:25:48,AUTO,7023.0,0.018946378491818905,0.058562334471692644,-0.16076294581095377,-0.014362841844558716,-0.18136645294725895,-0.035719051801910005,-35.36295436666666,149.1651528,38131.333333333336,55.333333333333336,0.0,0.6666666666666666,-9.0,8.666666666666666,-983.0,-12.666666666666666,-180.66666666666666,-35.0
18:25:49,AUTO,7023.0,-0.0038244809644917646,-0.1329901690284411,-0.16504143675168356,-0.27293266852696735,-0.2261138012011846,0.0149641201326934,-35.362950766666664,149.1651524,38131.0,77.0,-8.333333333333334,-0.3333333333333333,-15.0,-28.666666666666668,-1013.0,-272.3333333333333,-225.0,15.0
18:25:51,AUTO,7023.0,0.043974295258522034,-0.15278451641400656,-0.17900771896044412,0.04331944603472948,-0.01638097905864318,-0.002615423252185186,-35.36291143333333,149.1651405,38383.666666666664,337.0,-85.0,-26.0,-75.0,-41.0,-1009.0,44.0,-15.333333333333334,-1.6666666666666667
18:25:53,AUTO,7023.0,0.05828355376919111,-0.20642603933811188,-0.20023402571678162,-0.01006239838898182,0.03144542376200358,-0.049988869267205395,-35.3628346,149.16511796666668,39033.0,527.0,-118.66666666666667,-36.333333333333336,-111.66666666666667,-55.333333333333336,-1002.3333333333334,-8.666666666666666,31.666666666666668,-49.0
18:25:54,AUTO,158379.0,0.08079466968774796,-0.1319610451658567,-0.3480796118577321,0.004007577120016019,-0.011285092371205488,-0.1804632991552353,-35.3627696,149.16509923333334,39599.666666666664,602.3333333333334,-146.33333333333334,-57.666666666666664,-97.33333333333333,-81.0,-1000.3333333333334,5.333333333333333,-10.666666666666666,-179.33333333333334
18:25:55,AUTO,158379.0,0.10189159959554672,-0.0781291238963604,-0.46927642822265625,0.04885657224804163,0.15306650598843893,-0.017210145791371662,-35.362728000000004,149.1650868,40073.666666666664,610.3333333333334,-153.0,-71.66666666666667,-98.33333333333333,-102.66666666666667,-1024.3333333333333,49.666666666666664,153.33333333333334,-16.333333333333332
18:25:57,AUTO,158379.0,0.01999230186144511,0.09933696687221527,-0.16693892081578574,-0.23031864563624063,0.004351710279782613,-0.03388334003587564,-35.36263173333334,149.16506626666668,41277.333333333336,387.0,-59.0,-13.666666666666666,-74.66666666666667,-50.0,-961.6666666666666,-228.33333333333334,4.666666666666667,-32.666666666666664
18:25:59,AUTO,158379.0,0.01597504752377669,0.06506745393077533,-0.1731100877126058,-0.4551670663058758,-0.07741460452477138,-0.010065312730148435,-35.3625867,149.1650545,41365.333333333336,130.33333333333334,-45.333333333333336,-8.0,-30.666666666666668,-27.333333333333332,-1012.0,-453.3333333333333,-76.66666666666667,-8.666666666666666
18:26:00,AUTO,77198.0,0.016019091320534546,-0.20915326476097107,-0.17816964288552603,-0.15426621213555336,-0.18714885910352072,0.0063707611213127775,-35.36257283333333,149.1650486,41424.666666666664,180.0,-49.666666666666664,-7.666666666666667,-37.333333333333336,-32.0,-1021.0,-153.33333333333334,-185.66666666666666,7.0
18:26:01,AUTO,77198.0,0.02817057693998019,-0.21465941766897836,-0.18345500528812408,0.0324904794494311,0.1330074022213618,-0.013951098546385765,-35.36255643333333,149.16504316666666,41498.333333333336,315.0,-81.0,-19.0,-60.0,-36.666666666666664,-1039.6666666666667,33.666666666666664,133.33333333333334,-12.333333333333334
18:26:03,AUTO,77198.0,0.058510309706131615,-0.09965968628724416,-0.18820378184318542,0.006125242138902347,0.18285361242791018,-0.004964575171470642,-35.362485166666666,149.1650217,42198.0,457.0,-103.33333333333333,-45.666666666666664,-91.33333333333333,-54.666666666666664,-1018.6666666666666,7.0,183.0,-4.0
18:26:05,AUTO,77198.0,0.02228933945298195,0.08253974219163258,-0.18818569680054983,-0.398752195139726,-0.11611335227886836,-0.0013158982619643211,-35.362422200000005,149.16500576666667,42992.666666666664,195.33333333333334,-34.333333333333336,-6.666666666666667,-35.333333333333336,-32.0,-996.0,-397.3333333333333,-114.66666666666667,0.3333333333333333
18:26:06,AUTO,29473.0,-0.008560237877342539,0.039556565384070076,-0.19211884339650473,-0.3188106237600247,0.003445314553876718,-0.0014569635192553203,-35.36240513333333,149.16500366666665,43040.666666666664,107.66666666666667,-27.0,-3.3333333333333335,-20.333333333333332,-29.0,-1000.6666666666666,-317.6666666666667,4.0,-0.6666666666666666
18:26:07,AUTO,29473.0,-0.0014178099954733625,-0.03110440354794264,-0.19364449381828308,0.2764604836702347,-0.17132233083248138,0.0048953139533599215,-35.3623988,149.16500246666666,43065.666666666664,83.66666666666667,-30.666666666666668,-2.6666666666666665,-16.333333333333332,-5.666666666666667,-1003.0,277.0,-170.33333333333334,6.333333333333333
18:26:09,AUTO,29473.0,0.03714705134431521,-0.046681096156438194,-0.19957158466180167,0.13533406456311545,0.06722743933399518,-0.01052387012168765,-35.3623726,149.1649926,43240.666666666664,201.66666666666666,-59.666666666666664,-17.666666666666668,-45.333333333333336,-15.666666666666666,-1005.6666666666666,136.33333333333334,67.33333333333333,-8.666666666666666
18:26:11,AUTO,29473.0,0.03158276528120041,0.089028333624204,-0.19805645445982614,-0.05898259083429972,-0.03255536252011856,-0.004599481821060181,-35.3623432,149.16498226666667,43576.666666666664,85.0,-6.0,-7.0,-18.0,-3.0,-997.0,-57.333333333333336,-31.666666666666668,-3.0
18:26:12,AUTO,1924.0,0.002853516722097993,-0.029958372004330158,-0.20073728263378143,-0.325109557248652,-0.06907670199871063,-0.0037109132390469313,-35.362337999999994,149.1649812,43616.0,38.0,9.0,-0.5,-7.5,-5.5,-998.0,-323.0,-68.0,-1.5
18:26:13,AUTO,1924.0,0.02128415904007852,-0.03933253651484847,-0.20185906440019608,0.16946361400187016,0.02683051722124219,-0.007132050697691739,-35.362334875,149.16498015000002,43634.25,61.25,0.75,-2.0,-12.25,-6.25,-998.0,170.0,27.5,-5.25
18:26:15,AUTO,1924.0,0.013488896540366113,0.03858797065913677,-0.20379658788442612,-0.2528563141822815,0.002072236267849803,0.001545039878692478,-35.362325625,149.164977075,43715.5,28.75,13.75,-0.75,-3.75,-11.25,-996.75,-250.75,2.75,2.5
18:26:17,RTL,1924.0,0.000538936466909945,-0.008334538375493139,-0.2055879831314087,0.25523378141224384,-0.009665023302659392,-0.0018682985682971776,-35.362325325,149.164978575,43712.5,-1.75,11.0,0.75,1.5,12.25,-998.75,257.25,-9.0,-0.25
18:26:18,RTL,86229.0,0.008350205374881625,0.006106222979724407,-0.20707104355096817,0.2582197170704603,0.004261108842911199,0.0007269384223036468,-35.3623253,149.16497900000002,43714.5,6.0,7.5,-1.0,0.5,20.5,-1007.0,260.5,4.0,2.0
18:26:20,RTL,86229.0,-0.0025372938252985477,0.0668073408305645,-0.2094612717628479,0.26355691999197006,0.02949151862412691,-0.008314799517393112,-35.36232665,149.16498065,43718.5,-41.5,9.5,1.0,10.0,9.0,-995.5,264.5,29.5,-6.5
18:26:22,RTL,86229.0,-0.0389222726225853,0.1428060606122017,-0.21271014213562012,-0.42249564826488495,0.04605952277779579,0.003960710950195789,-35.362345399999995,149.16498735,43685.5,-186.0,36.0,1.0,40.0,10.0,-1005.0,-420.0,46.5,6.0
18:26:23,RTL,17059.0,-0.04435656499117613,0.17108919098973274,-0.21465862169861794,0.041050851345062256,0.007905833423137665,0.004284651717171073,-35.362360725,149.1649921,43667.75,-266.25,51.75,1.0,53.0,37.0,-1005.75,42.5,8.25,6.0
18:26:24,RTL,17059.0,-0.057197850197553635,0.19785766303539276,-0.21704591065645218,-0.22356312535703182,0.12482150970026851,1.493748277425766e-05,-35.362396849999996,149.16500209999998,43659.5,-378.5,74.5,2.5,78.5,44.0,-983.5,-221.5,125.0,1.5
18:26:26,RTL,17059.0,-0.04620850831270218,0.2806418240070343,-0.21858669072389603,0.0014387378469109535,-0.09556372463703156,0.015046588145196438,-35.362476799999996,149.1650222,43608.5,-531.0,115.5,19.5,114.0,74.5,-1028.5,3.0,-95.0,16.0
18:26:28,RTL,17059.0,-0.06686983816325665,-0.05739511549472809,-0.20356964319944382,-0.37623777985572815,0.011950511485338211,0.056841690093278885,-35.362571849999995,149.16504715,43861.5,-440.5,103.0,-2.0,88.5,64.0,-963.5,-373.0,13.0,58.5
18:26:29,RTL,28670.0,-0.0385567769408226,-0.025717536394950002,-0.2044736109673977,0.512310610152781,0.08070653839968145,-0.0014669835800305009,-35.3625981,149.16505397499998,43803.25,-351.25,81.75,9.0,72.5,62.0,-992.75,513.25,81.0,0.25
18:26:30,RTL,28670.0,-0.03558941185474396,0.21879147738218307,-0.21524351090192795,0.23762253671884537,0.013944104313850403,0.022032026085071266,-35.3626347,149.16506385,43631.0,-359.0,84.5,14.5,66.5,64.0,-1015.5,239.0,14.5,24.0
18:26:32,RTL,28670.0,-0.049921417608857155,0.27512383460998535,-0.2191138043999672,-0.033237017691135406,0.10208922624588013,0.010936504695564508,-35.3626992,149.1650828,43639.0,-397.5,88.0,18.0,84.0,51.5,-1003.5,-31.5,103.0,13.0
18:26:34,RTL,28670.0,-0.06086357310414314,0.29394546151161194,-0.2213931307196617,0.0791208315640688,0.010014966130256653,0.00972919026389718,-35.3627787,149.16510545,43647.0,-492.5,107.5,26.0,94.0,65.5,-1002.0,80.5,10.5,11.0
18:26:35,RTL,174759.0,-0.07058014161884785,0.08035369939170778,-0.21034566685557365,0.005370661616325378,-0.21188105642795563,0.007525209890445694,-35.3628148,149.165115575,43624.75,-546.75,119.75,-19.5,122.0,77.25,-1048.0,7.5,-210.75,9.5
18:26:36,RTL,174759.0,-0.06368435546755791,0.09941916540265083,-0.21102730929851532,0.2586340755224228,0.17175238952040672,-0.014620376750826836,-35.362873500000006,149.16513165,43767.5,-511.5,108.0,2.0,96.0,84.0,-977.5,259.5,172.0,-12.5
18:26:38,RTL,174759.0,-0.16042185574769974,-0.05534469522535801,-0.17285120487213135,-0.09347058087587357,-0.0012862682342529297,-0.04958903696388006,-35.362978850000005,149.16516285,43707.0,-595.0,138.0,-64.0,125.0,61.0,-979.0,-92.0,-0.5,-47.0
18:26:40,RTL,174759.0,-0.03684263862669468,-0.037348924204707146,-0.1802910566329956,-0.732290506362915,0.034896144294179976,-0.02490656776353717,-35.36305795,149.16518065,43793.0,-306.0,41.5,12.0,58.5,5.5,-1003.0,-731.0,35.5,-22.5
18:26:41,RTL,10715.0,-0.01874975790269673,0.12015716312453151,-0.1811859831213951,0.16358068585395813,0.23956508561968803,0.02818341925740242,-35.36307705,149.1651849,43686.5,-289.25,54.0,11.5,60.0,46.5,-1003.25,164.75,240.0,29.75
18:26:42,RTL,10715.0,-0.0404624380171299,-0.0543823316693306,-0.17950572073459625,0.2544598039239645,0.039923712611198425,-0.04310285532847047,-35.363112599999994,149.1651953,43666.0,-306.0,72.5,-17.5,62.5,34.0,-991.5,255.0,40.5,-40.5
18:26:44,RTL,10715.0,-0.0526453573256731,0.02674666792154312,-0.1789575070142746,0.4188353568315506,0.11359868012368679,0.026851525530219078,-35.363170499999995,149.16521315,43682.5,-357.0,77.0,-13.0,72.0,68.0,-988.5,420.0,115.0,29.0
18:26:46,RTL,10715.0,-0.054987771436572075,-0.07358013466000557,-0.17525096982717514,-0.3069787526037544,-0.06188509613275528,0.010295234620571136,-35.363230849999994,149.16522945,43757.0,-271.0,51.5,-2.0,56.5,42.0,-986.5,-305.0,-60.0,12.0
18:26:47,RTL,117808.0,-0.021691211499273777,-0.08003870397806168,-0.17368567362427711,0.29279541224241257,0.01461314395419322,0.00561721040867269,-35.363245750000004,149.165232725,43748.0,-179.5,30.0,2.25,35.25,30.0,-997.75,293.0,15.5,7.5
18:26:48,RTL,117808.0,0.004451421205885708,-0.04028179682791233,-0.17574628442525864,0.631511926651001,0.0270108999684453,0.005566746345721185,-35.36325955,149.16523504999998,43699.5,-71.0,12.0,1.0,14.5,41.0,-1011.5,632.5,27.5,7.0
18:26:50,RTL,117808.0,0.019588174298405647,-0.01084430143237114,-0.17504587024450302,-0.4377710297703743,0.02078649029135704,-0.0026623468147590756,-35.3632654,149.1652349,43692.0,-3.0,14.0,-0.5,0.0,-26.0,-1001.5,-437.0,21.0,-0.5
18:26:52,RTL,117808.0,0.008299727574922144,-0.00343565724324435,-0.17337335646152496,0.3683474436402321,-0.0014692103723064065,-0.0025231188046745956,-35.3632655,149.16523575,43704.5,3.0,20.0,-0.5,0.5,24.0,-1001.0,370.0,-0.5,-0.5
18:26:53,RTL,26940.0,0.003047236707061529,-0.001270435910555534,-0.17406412959098816,-0.148481709882617,0.00624624767806381,-0.0028003407642245293,-35.3632652,149.1652365,43705.0,7.5,14.25,0.0,0.25,-16.25,-1001.0,-147.25,6.75,-0.75
18:26:54,RTL,26940.0,-0.00630834061303176,0.005531798582524061,-0.175194650888443,-0.341907462105155,7.595284841954708e-06,-0.0011533622746355832,-35.3632641,149.16523784999998,43709.5,8.5,4.0,0.0,-0.5,-31.0,-993.0,-340.5,1.0,0.5
18:26:56,RTL,26940.0,0.004360694671049714,0.0012481752783060074,-0.17478369176387787,0.3749285079538822,-0.002061749284621328,0.000825490162242204,-35.363263149999995,149.16523825000002,43711.0,2.0,-4.5,0.0,-2.0,24.5,-998.0,376.5,-1.0,2.0
18:26:58,RTL,26940.0,-0.01312866248190403,0.0028453435515984893,-0.17498473823070526,-1.3351783156394958,0.001541528443340212,0.0019826251082122326,-35.36326285,149.16523695,42714.5,3.0,2.5,108.5,-2.5,-34.5,-924.5,-1332.0,2.0,4.0
18:26:59,RTL,3980.0,-0.0012227199040353298,0.002407952822977677,-0.1754986084997654,-1.3797555565834045,-0.002597313898149878,-0.006724033621139824,-35.363262725000006,149.1652367,41829.0,2.5,4.25,110.5,-0.25,-68.75,-1057.0,-1378.75,-1.25,-4.25
18:27:00,RTL,3980.0,0.01518996711820364,0.00033028528559952974,-0.17445270717144012,-1.0834909081459045,-0.00152711319969967,-0.0011098096147179604,-35.363262750000004,149.16523585,40476.0,2.0,9.0,100.0,-1.5,-71.0,-1006.5,-1082.5,-0.5,0.5
18:27:02,RTL,3980.0,0.017519426066428423,0.002395383664406836,-0.17491447925567627,-1.1788926124572754,0.0028202494140714407,-0.007382434792816639,-35.36326285,149.16523435,38431.5,5.0,22.5,97.5,-0.5,-77.0,-981.5,-1178.0,4.0,-4.5
18:27:04,RTL,3980.0,0.030685939826071262,0.002777045825496316,-0.17522481083869934,-0.32879573106765747,-0.0023327446542680264,-0.0008998810080811381,-35.3632626,149.1652346,36385.5,3.0,22.5,101.0,-1.5,-56.5,-1012.0,-327.5,-1.0,1.5
18:27:05,RTL,82659.0,0.031213087495416403,0.002100454439641908,-0.1745762825012207,-0.43105477653443813,0.00018593823187984526,0.0024456940591335297,-35.363262675,149.16523425,35623.25,3.0,24.75,98.25,-1.0,-59.75,-982.25,-429.5,1.25,3.75
18:27:06,RTL,82659.0,0.006488582119345665,0.002243545954115689,-0.17563800513744354,-1.3938527703285217,-0.0034338159020990133,0.0033371324534527957,-35.3632627,149.16523354999998,34252.0,5.0,30.0,98.5,-0.5,-53.0,-981.0,-1390.0,-1.5,5.5
18:27:08,RTL,82659.0,-0.016238894779235125,0.007739833788946271,-0.1739741712808609,-1.4608598947525024,0.0007229748880490661,-0.0018856209935620427,-35.36326245,149.1652354,32221.5,5.5,25.0,100.5,4.5,-58.5,-982.5,-1457.0,1.0,0.0
18:27:10,RTL,82659.0,-0.012849950697273016,0.004396994481794536,-0.17382275313138962,-0.2484795581549406,-0.002784398850053549,-0.002802392584271729,-35.363261949999995,149.16523940000002,30168.5,-1.5,-4.5,100.0,1.5,-58.0,-1007.0,-246.5,-1.0,-1.0
18:27:11,RTL,189659.0,0.005941404160694219,0.001735256053507328,-0.17459388077259064,0.543176993727684,-0.0020958139502909034,-0.0005759721389040351,-35.363261949999995,149.16523965,29403.25,-2.75,-12.5,98.75,0.0,-16.0,-990.75,544.5,-0.5,1.75
18:27:12,RTL,189659.0,0.015716250985860825,0.0018155433353967965,-0.17405426502227783,0.8061643838882446,-0.0006151906563900411,-0.007087953854352236,-35.363262,149.16523925,28129.5,-2.0,-14.0,101.5,0.0,-2.0,-983.5,808.0,0.5,-4.5
18:27:14,RTL,189659.0,0.0029786296654492617,0.0032667623599991202,-0.17506323754787445,0.543048620223999,0.00349751632893458,0.006689959671348333,-35.363262,149.1652395,26085.0,-2.0,-14.5,97.0,0.0,-16.5,-997.0,544.5,4.0,8.5
18:27:16,RTL,189659.0,0.009353047702461481,-9.660555770096835e-05,-0.17490416765213013,1.213698148727417,0.0009118398884311318,0.004773944499902427,-35.36326205,149.1652385,24043.0,-2.5,-12.0,99.0,-1.0,78.0,-1011.5,1217.5,1.5,6.5
18:27:17,RTL,47746.0,0.014917128719389439,0.0003694882179843262,-0.17470919713377953,1.150818482041359,0.0013533715973608196,0.005558739881962538,-35.363262250000005,149.1652376,23282.5,-0.5,-5.75,98.25,-0.5,77.25,-999.25,1155.0,2.5,7.5
18:27:18,RTL,47746.0,0.004296107799746096,0.003928328980691731,-0.17490272969007492,1.0745962858200073,0.0021836996893398464,-0.001491448376327753,-35.3632623,149.1652373,22018.0,1.0,2.5,101.0,1.0,75.5,-1020.0,1078.5,3.0,0.5
18:27:20,RTL,47746.0,-0.0018984991475008428,0.000880178646184504,-0.17437276244163513,0.3352118730545044,-0.0036115359980612993,0.008826510980725288,-35.3632623,149.1652372,19981.0,0.0,0.5,100.0,-1.5,54.5,-1026.0,340.0,-2.0,10.5
18:27:22,RTL,47746.0,0.0022160036023706198,0.002519620582461357,-0.174171082675457,0.3096785470843315,-0.0009948138613253832,0.0019097020849585533,-35.3632625,149.1652359,17945.5,2.0,11.0,100.0,0.0,53.0,-984.5,314.5,0.0,3.5
18:27:23,RTL,161900.0,-0.010476775583811104,0.003939659334719181,-0.17402581870555878,-0.6085866019129753,0.0009595714800525457,0.010467828251421452,-35.36326245,149.165235975,17178.25,2.75,11.75,103.5,0.0,16.75,-958.5,-603.5,1.75,12.25
18:27:24,RTL,161900.0,-0.022661445662379265,0.008098426973447204,-0.17345605045557022,-0.30883731320500374,0.0001861897762864828,0.007287293090485036,-35.36326215,149.1652373,15902.5,2.0,8.0,100.5,2.5,20.0,-1031.0,-303.0,1.0,9.0
18:27:26,RTL,161900.0,-0.03636987321078777,0.0035543657140806317,-0.17423313856124878,-0.6472645401954651,-0.00716335978358984,0.005878714844584465,-35.3632617,149.1652398,13865.5,-4.5,-13.5,104.5,-0.5,7.0,-982.5,-642.0,-5.5,8.5
18:27:28,RTL,161900.0,-0.002509674639441073,0.0009672925953054801,-0.17445967346429825,-1.2839193940162659,0.008154153358191252,-0.0030961998854763806,-35.3632621,149.16523795,11816.5,-2.5,-10.5,95.0,-2.0,-64.5,-1011.0,-1281.0,9.0,-0.5
18:27:29,RTL,45501.0,-0.0026070475432788953,0.003294912225101143,-0.1741902492940426,-0.5406604539602995,0.0023963708081282675,-0.0006868497875984758,-35.3632621,149.1652376,11314.75,-0.5,-4.0,43.25,-0.5,-20.5,-1058.5,-537.25,3.0,1.5
18:27:30,RTL,45501.0,0.0015813305508345366,0.006133335409685969,-0.1742594763636589,0.20384345203638077,-0.0010718597914092243,-0.001634985557757318,-35.363261949999995,149.16523784999998,10973.0,-1.5,-2.0,24.5,-0.5,-10.5,-983.5,206.0,0.0,0.5
18:27:32,RTL,45501.0,0.014829867985099554,0.004405329469591379,-0.173557847738266,0.47987210750579834,0.002006436581723392,8.102762512862682e-05,-35.3632619,149.16523745,10353.0,-2.0,-1.5,33.0,0.0,6.5,-1016.0,481.5,2.5,3.0
18:27:34,RTL,45501.0,-0.003024985548108816,0.0051679606549441814,-0.17448098212480545,0.8305124640464783,-0.0005963630974292755,-0.0006283301627263427,-35.3632619,149.16523834999998,9667.5,-2.0,-3.0,33.5,0.0,39.5,-1013.5,832.5,1.0,1.5
18:27:35,RTL,123949.0,0.0020803098450414836,0.00264656834769994,-0.17441057413816452,-0.29453229904174805,-0.001993823272641748,-0.00172885597567074,-35.363261924999996,149.16523825000002,9413.25,-3.0,-8.0,34.25,-0.5,-34.25,-999.25,-292.75,-0.75,0.75
18:27:36,RTL,123949.0,0.0017707182560116053,0.0011772314319387078,-0.17360293865203857,0.2605740334838629,-0.001613425964023918,0.004642357234843075,-35.3632622,149.1652374,8986.5,-1.0,-1.5,32.5,-1.0,33.5,-1011.0,264.5,-0.5,7.0
18:27:38,RTL,123949.0,0.007440795190632343,0.004622780717909336,-0.17376304417848587,0.3952510878443718,0.0014664233895018697,0.0007945688557811081,-35.3632622,149.16523725000002,8742.0,0.0,1.5,-7.5,0.5,4.0,-997.5,397.5,2.0,2.5
18:27:40,RTL,123949.0,-0.01282299100421369,0.0058647210244089365,-0.17452707886695862,-0.5536091476678848,0.002380244230153039,-0.0007783141918480396,-35.363262,149.165238,8818.0,-1.0,-1.5,0.5,0.5,-28.5,-983.0,-550.5,3.0,2.0
18:27:41,RTL,80237.0,-0.015420509735122323,0.005767039372585714,-0.17395750060677528,-0.17776195518672466,-0.0035238550626672804,0.0028613126487471163,-35.363261825,149.1652384,8728.75,-2.0,-3.5,16.5,0.5,8.75,-1004.0,-174.0,-2.0,5.0
18:27:42,RTL,80237.0,-0.0010839724563993514,0.0021360101527534425,-0.17423845827579498,-0.5802045464515686,-0.005132070975378156,0.0018837000243365765,-35.363261949999995,149.1652379,8671.0,-4.0,-6.0,-0.5,-1.0,-19.0,-991.5,-577.0,-3.0,4.0
18:27:44,RTL,80237.0,0.01369992084801197,0.00328423990868032,-0.1738790199160576,0.44130992144346237,0.0024713861057534814,0.0035883556120097637,-35.3632622,149.16523645,8691.0,-0.5,5.0,0.5,-2.0,30.5,-1004.0,444.5,3.0,5.5
18:27:46,RTL,80237.0,0.007727496325969696,0.008294328581541777,-0.17418184876441956,0.3476417250931263,-0.00019083218649029732,0.0015348815359175205,-35.3632619,149.1652369,8692.5,-1.5,6.5,0.5,0.5,5.0,-998.0,349.0,1.0,3.5
18:27:47,RTL,156643.0,-0.004501889226958156,0.007169714430347085,-0.17396986857056618,-0.1554479207843542,-0.001115910679800436,0.000292150245513767,-35.3632618,149.16523717500002,8686.5,-2.75,3.25,0.0,0.0,-4.5,-1003.0,-152.5,0.0,2.75
18:27:48,RTL,156643.0,-0.002910813520429656,0.007654483197256923,-0.17329437285661697,-0.4798007979989052,0.006666615605354309,-0.0021904552122578025,-35.3632617,149.1652377,8604.0,-3.5,-0.5,32.0,1.0,-46.0,-927.0,-478.0,7.5,0.5
18:27:50,RTL,156643.0,-0.0351790226995945,0.00996417086571455,-0.17332245409488678,-0.32158036157488823,-0.0004101486993022263,-0.006019533844664693,-35.3632613,149.1652413,7822.0,-6.0,-19.0,37.5,4.0,-40.5,-990.5,-320.5,0.5,-3.0
18:27:52,RTL,156643.0,-0.033501976169645786,0.0036958062555640936,-0.17305681109428406,0.19072040915489197,-0.0026413396699354053,-0.0014594316016882658,-35.3632612,149.16524395,7141.0,-11.0,-48.5,35.0,0.0,-2.0,-1000.0,191.0,-1.0,1.0
18:27:53,RTL,131528.0,-0.04294721223413944,0.0012860989299952053,-0.17348161339759827,-0.38351044058799744,-0.00272619747556746,-0.0011798838095273823,-35.3632613,149.1652439,6889.25,-11.0,-51.75,35.25,-1.25,-6.75,-1003.25,-381.75,-0.75,1.0
18:27:54,RTL,131528.0,-0.007882256293669343,-0.0025059106992557645,-0.17396162450313568,0.5349004119634628,0.00027825275901705027,0.0011699048336595297,-35.36326165,149.16524245,6457.5,-9.5,-50.0,35.0,-4.0,7.5,-999.0,534.0,2.0,3.5
18:27:56,RTL,131528.0,0.01767662726342678,0.00038675402174703777,-0.1739230901002884,0.5136348158121109,0.0030956793343648314,0.003710177610628307,-35.3632621,149.16523845,5765.5,-2.5,-20.5,33.0,-4.0,12.0,-1001.0,513.0,4.0,6.0
18:27:58,RTL,131528.0,0.019755341112613678,0.003089810023084283,-0.17347903549671173,0.7296708226203918,0.002797903958708048,-0.005448515061289072,-35.3632622,149.1652364,5088.0,0.0,2.0,33.0,0.0,14.0,-999.0,729.0,4.0,-2.0
18:27:59,RTL,68420.0,0.003647594421636313,0.003920489572919905,-0.17360026389360428,-0.5649671386927366,0.00019231552141718566,0.0009605873201508075,-35.3632622,149.1652362,4871.25,0.0,4.75,34.25,-1.0,-33.5,-995.75,-565.25,1.75,3.0
18:28:00,RTL,68420.0,0.012721084000077099,0.0029368106042966247,-0.17357151210308075,0.24916787445545197,-0.001427964074537158,0.002770514111034572,-35.363262250000005,149.16523569999998,4530.5,0.0,10.5,32.5,-1.0,28.0,-990.0,250.5,0.5,5.5
18:28:02,RTL,68420.0,0.010810661595314741,0.004402623395435512,-0.17356237769126892,-0.06332126259803772,-0.0001787595683708787,0.0003902517491951585,-35.3632623,149.1652352,3857.0,1.0,17.5,32.5,1.0,9.5,-1008.0,-61.5,1.5,2.5
18:28:04,RTL,68420.0,-0.005436336970888078,0.005676713539287448,-0.17288733273744583,-0.5168567076325417,-0.0002803012612275779,-0.003326169913634658,-35.3632622,149.1652364,3168.0,0.0,12.0,33.5,0.5,-18.5,-992.0,-515.0,1.5,-0.5
18:28:05,RTL,15668.0,0.0033967136405408382,0.006301524234004319,-0.1726650893688202,0.5982849672436714,0.002902547741541639,-6.563571514561772e-05,-35.363262049999996,149.165237325,2828.0,0.0,6.5,32.25,2.0,22.5,-1004.5,598.5,4.25,2.75
18:28:06,RTL,15668.0,-0.017212131526321173,0.0066439262591302395,-0.17355426400899887,-0.24138832464814186,-0.005010126158595085,0.00024270126596093178,-35.36326185,149.1652385,2490.5,-2.0,-1.5,33.5,0.5,-10.0,-990.0,-240.0,-3.0,3.0
18:28:08,RTL,15668.0,0.0006792731583118439,0.000957538140937686,-0.1736454740166664,-0.3192475577816367,-9.199953638017178e-05,0.0010890666162595153,-35.363262,149.16523819999998,1814.5,-3.0,-7.5,33.5,-1.5,-17.0,-981.5,-319.0,2.0,3.5
18:28:10,RTL,15668.0,0.002075143507681787,0.0023001787485554814,-0.1741001009941101,-0.6607242822647095,9.359174873679876e-05,-0.00443370989523828,-35.363262250000005,149.16523684999999,1137.5,0.0,2.0,35.0,-1.5,-25.5,-1006.0,-660.0,1.5,-1.5
18:28:11,RTL,53397.0,0.016328201163560152,0.0018000714189838618,-0.17323938757181168,0.32856570556759834,-0.0032909183064475656,0.0018860322306863964,-35.36326235,149.165236,796.0,0.25,8.25,34.0,-2.0,32.5,-996.75,330.25,-1.5,4.25
18:28:12,RTL,53397.0,0.020336861722171307,0.001488009816966951,-0.17394760996103287,-0.33555005490779877,-0.002647109271492809,0.0005113884108141065,-35.36326245,149.16523510000002,457.5,1.5,14.5,33.5,-2.0,-21.0,-1001.5,-335.0,-1.0,3.0
18:28:14,RTL,53397.0,0.023776442743837833,0.0057522510178387165,-0.174872025847435,0.0020287951338104904,0.0017398130148649216,0.0006031079683452845,-35.3632626,149.16523395000002,102.0,4.5,26.0,-13.0,0.0,0.0,-1000.0,3.0,3.0,3.0
18:28:16,RTL,53397.0,0.017722331918776035,0.008583067916333675,-0.17544172704219818,0.0015862711006775498,0.0017389815766364336,0.0005831331945955753,-35.363262649999996,149.1652343,144.5,-0.5,28.0,-8.5,0.0,0.0,-1000.0,3.0,3.0,3.0
18:28:17,RTL,22619.0,0.014095015823841095,0.00928580085746944,-0.1743578389286995,0.001403189031407237,0.001680112211033702,0.0005667534423992038,-35.363262775,149.165234225,133.25,-2.5,24.25,-6.5,0.0,0.0,-1000.0,3.25,3.0,3.0
18:28:18,RTL,22619.0,0.01000578934326768,0.009247091598808765,-0.17294695228338242,0.001198222627863288,0.001684287446551025,0.0005745644448325038,-35.363262950000006,149.16523385,114.5,-4.5,18.0,-5.5,0.0,0.0,-1000.0,3.0,3.0,3.0
18:28:20,RTL,22619.0,0.005215513985604048,0.009096243418753147,-0.17140517383813858,0.0010436690645292401,0.0015782300615683198,0.0006707487627863884,-35.36326305,149.16523304999998,97.0,-6.0,7.0,-2.5,0.0,0.0,-1000.0,3.5,3.0,3.0
