time_stamp,MODE,lat,lon,relative_alt,roll,pitch,yaw,rollspeed,pitchspeed,yawspeed,xacc,yacc,zacc,xgyro,ygyro,zgyro,vx,vy,vz,RTL_ALT
18:24:45.682,STABILIZE,-35.3632621,149.1652374,0,0.0003117615997325629,0.0016149405855685472,0.02724885754287243,0.00025042376364581287,0.00020192618831060827,0.002227331046015024,0,1,-1000,0,0,0,-1,1,1,242610.0
18:24:45.883,STABILIZE,-35.3632621,149.1652374,0,0.0003117615997325629,0.0016149405855685472,0.02724885754287243,0.00025042376364581287,0.00020192618831060827,0.002227331046015024,0,1,-1000,0,0,0,-1,1,1,242610.0
18:24:46.084,STABILIZE,-35.3632621,149.1652374,0,0.0003117615997325629,0.0016149405855685472,0.02724885754287243,0.00025042376364581287,0.00020192618831060827,0.002227331046015024,0,1,-1000,0,0,0,-1,1,1,242610.0
18:24:46.285,STABILIZE,-35.3632621,149.1652374,0,0.0003117615997325629,0.0016149405855685472,0.02724885754287243,0.00025042376364581287,0.00020192618831060827,0.002227331046015024,0,1,-1000,0,0,0,-1,1,1,242610.0
18:24:46.485,STABILIZE,-35.3632621,149.1652374,0,0.0003117615997325629,0.0016149405855685472,0.02724885754287243,0.00025042376364581287,0.00020192618831060827,0.002227331046015024,0,1,-1000,0,0,0,-1,1,1,242610.0
18:24:46.687,STABILIZE,-35.3632621,149.1652374,0,0.0003117615997325629,0.0016149405855685472,0.02724885754287243,0.00025042376364581287,0.00020192618831060827,0.002227331046015024,0,1,-1000,0,0,0,-1,1,1,242610.0
18:24:46.888,STABILIZE,-35.3632621,149.1652374,0,0.0003117615997325629,0.0016149405855685472,0.02724885754287243,0.00025042376364581287,0.00020192618831060827,0.002227331046015024,0,1,-1000,0,0,0,-1,1,1,242610.0
18:24:47.089,STABILIZE,-35.3632621,149.1652374,0,0.0003117615997325629,0.0016149405855685472,0.02724885754287243,0.00025042376364581287,0.00020192618831060827,0.002227331046015024,0,1,-1000,0,0,0,-1,1,1,242610.0
18:24:47.289,STABILIZE,-35.3632621,149.1652374,0,0.0003117615997325629,0.0016149405855685472,0.02724885754287243,0.00025042376364581287,0.00020192618831060827,0.002227331046015024,0,1,-1000,0,0,0,-1,1,1,242610.0
18:24:47.490,STABILIZE,-35.3632621,149.1652374,0,0.0003117615997325629,0.0016149405855685472,0.02724885754287243,0.00025042376364581287,0.00020192618831060827,0.002227331046015024,0,1,-1000,0,0,0,-1,1,1,242610.0
18:24:47.691,STABILIZE,-35.3632622,149.1652374,0,7.59395197746926e-06,0.0013663211138918996,0.026043100282549858,0.00025145040126517415,0.00018301044474355876,0.0021177418529987335,0,1,-1000,0,0,0,-2,1,0,242610.0
18:24:47.892,STABILIZE,-35.3632622,149.1652374,0,7.59395197746926e-06,0.0013663211138918996,0.026043100282549858,0.00025145040126517415,0.00018301044474355876,0.0021177418529987335,0,1,-1000,0,0,0,-2,1,0,242610.0
18:24:48.094,STABILIZE,-35.3632622,149.1652374,0,7.59395197746926e-06,0.0013663211138918996,0.026043100282549858,0.00025145040126517415,0.00018301044474355876,0.0021177418529987335,0,1,-1000,0,0,0,-2,1,0,242610.0
18:24:48.295,STABILIZE,-35.3632622,149.1652374,0,7.59395197746926e-06,0.0013663211138918996,0.026043100282549858,0.00025145040126517415,0.00018301044474355876,0.0021177418529987335,0,1,-1000,0,0,0,-2,1,0,242610.0
18:24:48.496,STABILIZE,-35.3632622,149.1652374,0,7.59395197746926e-06,0.0013663211138918996,0.026043100282549858,0.00025145040126517415,0.00018301044474355876,0.0021177418529987335,0,1,-1000,0,0,0,-2,1,0,242610.0
18:24:48.697,STABILIZE,-35.3632622,149.1652374,0,-0.00019967897969763726,0.0011546562891453505,0.02551964670419693,0.00010334645048715174,0.00019064548541791737,0.0021332362666726112,0,1,-1000,0,0,0,-2,1,0,242610.0
18:24:48.899,STABILIZE,-35.3632622,149.1652374,0,-0.00019967897969763726,0.0011546562891453505,0.02551964670419693,0.00010334645048715174,0.00019064548541791737,0.0021332362666726112,0,1,-1000,0,0,0,-2,1,0,242610.0
18:24:49.100,STABILIZE,-35.3632622,149.1652374,0,-0.00019967897969763726,0.0011546562891453505,0.02551964670419693,0.00010334645048715174,0.00019064548541791737,0.0021332362666726112,0,1,-1000,0,0,0,-2,1,0,242610.0
18:24:49.302,STABILIZE,-35.3632622,149.1652374,0,-0.00019967897969763726,0.0011546562891453505,0.02551964670419693,0.00010334645048715174,0.00019064548541791737,0.0021332362666726112,0,1,-1000,0,0,0,-2,1,0,242610.0
18:24:49.503,STABILIZE,-35.3632622,149.1652374,0,-0.00019967897969763726,0.0011546562891453505,0.02551964670419693,0.00010334645048715174,0.00019064548541791737,0.0021332362666726112,0,1,-1000,0,0,0,-2,1,0,242610.0
18:24:49.704,STABILIZE,-35.3632622,149.1652374,0,-0.00019967897969763726,0.0011546562891453505,0.02551964670419693,0.00010334645048715174,0.00019064548541791737,0.0021332362666726112,0,1,-1000,0,0,1,-2,1,0,242610.0
18:24:49.913,STABILIZE,-35.3632622,149.1652374,0,-0.00019967897969763726,0.0011546562891453505,0.02551964670419693,0.00010334645048715174,0.00019064548541791737,0.0021332362666726112,0,1,-1000,0,0,1,-2,1,0,242610.0
18:24:50.115,STABILIZE,-35.3632622,149.1652374,0,-0.00019967897969763726,0.0011546562891453505,0.02551964670419693,0.00010334645048715174,0.00019064548541791737,0.0021332362666726112,0,1,-1000,0,0,1,-2,1,0,242610.0
18:24:50.317,STABILIZE,-35.3632622,149.1652374,0,-0.00019967897969763726,0.0011546562891453505,0.02551964670419693,0.00010334645048715174,0.00019064548541791737,0.0021332362666726112,0,1,-1000,0,0,1,-2,1,0,242610.0
18:24:50.518,STABILIZE,-35.3632622,149.1652374,0,-0.00019967897969763726,0.0011546562891453505,0.02551964670419693,0.00010334645048715174,0.00019064548541791737,0.0021332362666726112,0,1,-1000,0,0,1,-2,1,0,242610.0
18:24:50.719,STABILIZE,-35.3632621,149.1652376,0,-0.00025352294323965907,0.0009178288164548576,0.024593455716967583,0.00023615366080775857,0.0002870812313631177,0.001999516738578677,0,1,-1000,0,0,0,-1,4,3,242610.0
18:24:50.920,STABILIZE,-35.3632621,149.1652376,0,-0.00025352294323965907,0.0009178288164548576,0.024593455716967583,0.00023615366080775857,0.0002870812313631177,0.001999516738578677,0,1,-1000,0,0,0,-1,4,3,242610.0
18:24:51.122,STABILIZE,-35.3632621,149.1652376,0,-0.00025352294323965907,0.0009178288164548576,0.024593455716967583,0.00023615366080775857,0.0002870812313631177,0.001999516738578677,0,1,-1000,0,0,0,-1,4,3,242610.0
18:24:51.323,STABILIZE,-35.3632621,149.1652376,0,-0.00025352294323965907,0.0009178288164548576,0.024593455716967583,0.00023615366080775857,0.0002870812313631177,0.001999516738578677,0,1,-1000,0,0,0,-1,4,3,242610.0
18:24:51.524,STABILIZE,-35.3632621,149.1652376,0,-0.00025352294323965907,0.0009178288164548576,0.024593455716967583,0.00023615366080775857,0.0002870812313631177,0.001999516738578677,0,1,-1000,0,0,0,-1,4,3,242610.0
18:24:51.725,STABILIZE,-35.3632621,149.1652376,0,-0.00025352294323965907,0.0009178288164548576,0.024593455716967583,0.00023615366080775857,0.0002870812313631177,0.001999516738578677,0,1,-1000,0,0,0,-1,2,2,242610.0
18:24:51.926,STABILIZE,-35.3632621,149.1652376,0,-0.00025352294323965907,0.0009178288164548576,0.024593455716967583,0.00023615366080775857,0.0002870812313631177,0.001999516738578677,0,1,-1000,0,0,0,-1,2,2,242610.0
18:24:52.127,STABILIZE,-35.3632621,149.1652376,0,-0.00025352294323965907,0.0009178288164548576,0.024593455716967583,0.00023615366080775857,0.0002870812313631177,0.001999516738578677,0,1,-1000,0,0,0,-1,2,2,242610.0
18:24:52.329,STABILIZE,-35.3632621,149.1652376,0,-0.00025352294323965907,0.0009178288164548576,0.024593455716967583,0.00023615366080775857,0.0002870812313631177,0.001999516738578677,0,1,-1000,0,0,0,-1,2,2,242610.0
18:24:52.530,STABILIZE,-35.3632621,149.1652376,0,-0.00025352294323965907,0.0009178288164548576,0.024593455716967583,0.00023615366080775857,0.0002870812313631177,0.001999516738578677,0,1,-1000,0,0,0,-1,2,2,242610.0
18:24:52.731,STABILIZE,-35.3632621,149.1652376,0,-0.001073656720109284,0.0009066715138033032,0.023877663537859917,0.00014294940046966076,0.0001656579552218318,0.0018996908329427242,0,1,-1000,0,0,0,-1,2,2,242610.0
18:24:52.932,STABILIZE,-35.3632621,149.1652376,0,-0.001073656720109284,0.0009066715138033032,0.023877663537859917,0.00014294940046966076,0.0001656579552218318,0.0018996908329427242,0,1,-1000,0,0,0,-1,2,2,242610.0
18:24:53.134,STABILIZE,-35.3632621,149.1652376,0,-0.001073656720109284,0.0009066715138033032,0.023877663537859917,0.00014294940046966076,0.0001656579552218318,0.0018996908329427242,0,1,-1000,0,0,0,-1,2,2,242610.0
18:24:53.335,STABILIZE,-35.3632621,149.1652376,0,-0.001073656720109284,0.0009066715138033032,0.023877663537859917,0.00014294940046966076,0.0001656579552218318,0.0018996908329427242,0,1,-1000,0,0,0,-1,2,2,242610.0
18:24:53.536,STABILIZE,-35.3632621,149.1652376,0,-0.001073656720109284,0.0009066715138033032,0.023877663537859917,0.00014294940046966076,0.0001656579552218318,0.0018996908329427242,0,1,-1000,0,0,0,-1,2,2,242610.0
18:24:53.737,STABILIZE,-35.3632621,149.1652375,0,-0.0010921601206064224,0.0009464506292715669,0.023631859570741653,0.00024239829508587718,0.00041162921115756035,0.0018868562765419483,0,1,-1000,0,0,0,-1,1,1,242610.0
18:24:53.938,STABILIZE,-35.3632621,149.1652375,0,-0.0010921601206064224,0.0009464506292715669,0.023631859570741653,0.00024239829508587718,0.00041162921115756035,0.0018868562765419483,0,1,-1000,0,0,0,-1,1,1,242610.0
18:24:54.140,STABILIZE,-35.3632621,149.1652375,0,-0.0010921601206064224,0.0009464506292715669,0.023631859570741653,0.00024239829508587718,0.00041162921115756035,0.0018868562765419483,0,1,-1000,0,0,0,-1,1,1,242610.0
18:24:54.341,STABILIZE,-35.3632621,149.1652375,0,-0.0010921601206064224,0.0009464506292715669,0.023631859570741653,0.00024239829508587718,0.00041162921115756035,0.0018868562765419483,0,1,-1000,0,0,0,-1,1,1,242610.0
18:24:54.542,STABILIZE,-35.3632621,149.1652375,0,-0.0010921601206064224,0.0009464506292715669,0.023631859570741653,0.00024239829508587718,0.00041162921115756035,0.0018868562765419483,0,1,-1000,0,0,0,-1,1,1,242610.0
18:24:54.743,STABILIZE,-35.3632621,149.1652375,0,-0.001189444330520928,0.000972128240391612,0.02342170476913452,0.0001528360298834741,0.0003745745634660125,0.0017679397715255618,0,1,-1000,0,0,0,-1,1,1,242610.0
18:24:54.944,STABILIZE,-35.3632621,149.1652375,0,-0.001189444330520928,0.000972128240391612,0.02342170476913452,0.0001528360298834741,0.0003745745634660125,0.0017679397715255618,0,1,-1000,0,0,0,-1,1,1,242610.0
18:24:55.146,STABILIZE,-35.3632621,149.1652375,0,-0.001189444330520928,0.000972128240391612,0.02342170476913452,0.0001528360298834741,0.0003745745634660125,0.0017679397715255618,0,2,-1000,0,0,0,-1,1,1,242610.0
18:24:55.347,STABILIZE,-35.3632621,149.1652375,0,-0.001189444330520928,0.000972128240391612,0.02342170476913452,0.0001528360298834741,0.0003745745634660125,0.0017679397715255618,0,2,-1000,0,0,0,-1,1,1,242610.0
18:24:55.550,STABILIZE,-35.3632621,149.1652375,0,-0.0012244527461007237,0.0009934856789186597,0.023217709735035896,0.0001863479265011847,0.0003319946117699146,0.0017698344308882952,0,2,-1000,0,0,0,-1,1,1,242610.0
18:24:55.751,STABILIZE,-35.3632621,149.1652375,0,-0.0012244527461007237,0.0009934856789186597,0.023217709735035896,0.0001863479265011847,0.0003319946117699146,0.0017698344308882952,0,2,-1000,0,0,0,-1,1,1,242610.0
18:24:55.952,STABILIZE,-35.3632621,149.1652375,0,-0.0012244527461007237,0.0009934856789186597,0.023217709735035896,0.0001863479265011847,0.0003319946117699146,0.0017698344308882952,0,2,-1000,0,0,0,-1,1,1,242610.0
18:24:56.153,STABILIZE,-35.3632621,149.1652375,0,-0.0012244527461007237,0.0009934856789186597,0.023217709735035896,0.0001863479265011847,0.0003319946117699146,0.0017698344308882952,0,2,-1000,0,0,0,-1,1,1,242610.0
18:24:56.355,STABILIZE,-35.3632621,149.1652375,0,-0.0012244527461007237,0.0009934856789186597,0.023217709735035896,0.0001863479265011847,0.0003319946117699146,0.0017698344308882952,0,2,-1000,0,0,0,-1,1,1,242610.0
18:24:56.556,STABILIZE,-35.3632622,149.1652375,0,-0.0012259974610060453,0.0009946376085281372,0.0229929331690073,0.00020171637879684567,0.00029011123115196824,0.0017228485085070133,0,2,-1000,1,0,0,-1,0,0,242610.0
18:24:56.757,STABILIZE,-35.3632622,149.1652375,0,-0.0012259974610060453,0.0009946376085281372,0.0229929331690073,0.00020171637879684567,0.00029011123115196824,0.0017228485085070133,0,2,-1000,1,0,0,-1,0,0,242610.0
18:24:56.958,STABILIZE,-35.3632622,149.1652375,0,-0.0012244535610079765,0.0010012098355218768,0.022937290370464325,0.00014655321137979627,0.0002778596244752407,0.0016613961197435856,0,2,-1000,0,0,0,-1,0,0,242610.0
18:24:57.160,STABILIZE,-35.3632622,149.1652375,0,-0.0012281079543754458,0.0009978635935112834,0.022883635014295578,0.00022966915275901556,0.00022811070084571838,0.0017146244645118713,0,1,-1000,0,0,0,-1,0,0,242610.0
18:24:57.362,STABILIZE,-35.3632622,149.1652375,0,-0.0012115796562284231,0.0009964166674762964,0.022825242951512337,0.0003145033842884004,0.00039208331145346165,0.001768116606399417,0,1,-1000,0,0,0,-1,0,0,242610.0
18:24:57.563,STABILIZE,-35.3632622,149.1652375,0,-0.0012115796562284231,0.0009964166674762964,0.022825242951512337,0.0003145033842884004,0.00039208331145346165,0.001768116606399417,0,1,-1000,0,0,0,-1,0,0,242610.0
18:24:57.764,STABILIZE,-35.3632622,149.1652375,0,-0.0012115796562284231,0.0009964166674762964,0.022825242951512337,0.0003145033842884004,0.00039208331145346165,0.001768116606399417,0,1,-1000,0,0,0,-1,0,0,242610.0
18:24:57.966,STABILIZE,-35.3632622,149.1652375,0,-0.0012115796562284231,0.0009964166674762964,0.022825242951512337,0.0003145033842884004,0.00039208331145346165,0.001768116606399417,0,1,-1000,0,0,0,-1,0,0,242610.0
18:24:58.168,STABILIZE,-35.3632622,149.1652375,0,-0.0012115796562284231,0.0009964166674762964,0.022825242951512337,0.0003145033842884004,0.00039208331145346165,0.001768116606399417,0,1,-1000,0,0,0,-1,0,0,242610.0
18:24:58.370,STABILIZE,-35.3632622,149.1652375,0,-0.0012115796562284231,0.0009964166674762964,0.022825242951512337,0.0003145033842884004,0.00039208331145346165,0.001768116606399417,0,1,-1000,0,0,0,-1,0,0,242610.0
18:24:58.572,STABILIZE,-35.3632622,149.1652375,0,-0.0011414748150855303,0.0009795770747587085,0.02255835011601448,0.000299241510219872,0.00018359854584559798,0.001549317268654704,0,1,-1000,1,0,0,-1,0,0,242610.0
18:24:58.773,STABILIZE,-35.3632622,149.1652375,0,-0.0011414748150855303,0.0009795770747587085,0.02255835011601448,0.000299241510219872,0.00018359854584559798,0.001549317268654704,0,1,-1000,1,0,0,-1,0,0,242610.0
18:24:58.975,STABILIZE,-35.3632622,149.1652375,0,-0.0011414748150855303,0.0009795770747587085,0.02255835011601448,0.000299241510219872,0.00018359854584559798,0.001549317268654704,0,1,-1000,1,0,0,-1,0,0,242610.0
18:24:59.176,STABILIZE,-35.3632622,149.1652375,0,-0.0011414748150855303,0.0009795770747587085,0.02255835011601448,0.000299241510219872,0.00018359854584559798,0.001549317268654704,0,1,-1000,1,0,0,-1,0,0,242610.0
18:24:59.378,STABILIZE,-35.3632622,149.1652375,0,-0.0011414748150855303,0.0009795770747587085,0.02255835011601448,0.000299241510219872,0.00018359854584559798,0.001549317268654704,0,1,-1000,0,1,0,-1,0,0,242610.0
18:24:59.579,STABILIZE,-35.3632622,149.1652375,0,-0.0011030720779672265,0.0009757659281603992,0.022349195554852486,0.00029392074793577194,0.00019270938355475664,0.0016494562150910497,0,1,-1000,1,1,0,-1,1,0,242610.0
18:24:59.780,STABILIZE,-35.3632622,149.1652375,0,-0.0011030720779672265,0.0009757659281603992,0.022349195554852486,0.00029392074793577194,0.00019270938355475664,0.0016494562150910497,0,1,-1000,1,1,0,-1,1,0,242610.0
18:24:59.981,STABILIZE,-35.3632622,149.1652375,0,-0.0011030720779672265,0.0009757659281603992,0.022349195554852486,0.00029392074793577194,0.00019270938355475664,0.0016494562150910497,0,1,-1000,1,1,0,-1,1,0,242610.0
18:25:00.183,STABILIZE,-35.3632622,149.1652375,0,-0.0011030720779672265,0.0009757659281603992,0.022349195554852486,0.00029392074793577194,0.00019270938355475664,0.0016494562150910497,0,1,-1000,1,1,0,-1,1,0,242610.0
18:25:00.384,STABILIZE,-35.3632622,149.1652375,0,-0.0010818596929311752,0.0009768983582034707,0.022209296002984047,0.0002198966103605926,0.0001958933426067233,0.0016087004914879799,0,1,-1000,1,0,1,-1,1,0,242610.0
18:25:00.585,STABILIZE,-35.3632622,149.1652375,0,-0.0010818596929311752,0.0009768983582034707,0.022209296002984047,0.0002198966103605926,0.0001958933426067233,0.0016087004914879799,0,1,-1000,1,0,1,-1,1,0,242610.0
18:25:00.787,STABILIZE,-35.3632622,149.1652375,0,-0.0010818596929311752,0.0009768983582034707,0.022209296002984047,0.0002198966103605926,0.0001958933426067233,0.0016087004914879799,0,1,-1000,1,0,1,-1,1,0,242610.0
18:25:00.988,STABILIZE,-35.3632622,149.1652375,0,-0.0007471003918908536,0.000966191990301013,0.022091403603553772,0.0002320710918866098,0.00035733176628127694,0.0015155380824580789,0,1,-1000,1,1,0,-1,2,0,242610.0
18:25:01.189,STABILIZE,-35.3632622,149.1652375,0,-0.0007771555101498961,0.000963282014708966,0.02203351818025112,0.00029405480017885566,0.0003666646662168205,0.001593590946868062,0,1,-1000,0,0,1,-1,2,0,242610.0
18:25:01.390,STABILIZE,-35.3632622,149.1652375,0,-0.0008061293046921492,0.0009682793170213699,0.021979736164212227,0.0004377638688310981,0.00023815123131498694,0.0015778911765664816,0,1,-1000,0,0,1,-1,2,0,242610.0
18:25:01.592,STABILIZE,-35.3632622,149.1652375,0,-0.0008390693692490458,0.0009627724066376686,0.02190570719540119,0.00031574920285493135,0.00030605081701651216,0.0015240530483424664,0,1,-1000,0,0,1,-1,2,0,242610.0
18:25:01.794,STABILIZE,-35.3632622,149.1652375,0,-0.0008390693692490458,0.0009627724066376686,0.02190570719540119,0.00031574920285493135,0.00030605081701651216,0.0015240530483424664,0,1,-1000,0,0,1,-1,2,0,242610.0
18:25:01.995,STABILIZE,-35.3632622,149.1652375,0,-0.0008390693692490458,0.0009627724066376686,0.02190570719540119,0.00031574920285493135,0.00030605081701651216,0.0015240530483424664,0,1,-1000,0,0,1,-1,2,0,242610.0
18:25:02.197,STABILIZE,-35.3632622,149.1652375,0,-0.0008390693692490458,0.0009627724066376686,0.02190570719540119,0.00031574920285493135,0.00030605081701651216,0.0015240530483424664,0,1,-1000,0,0,1,-1,2,0,242610.0
18:25:02.398,STABILIZE,-35.3632622,149.1652375,0,-0.0009271495509892702,0.0009719239897094667,0.021755365654826164,0.00023019092623144388,0.00033214245922863483,0.001503676874563098,0,2,-1000,1,0,0,-1,1,0,242610.0
18:25:02.600,STABILIZE,-35.3632622,149.1652375,0,-0.0009535422432236373,0.000975597882643342,0.02170613594353199,0.00029291422106325626,0.00024849240435287356,0.0015519573353230953,0,2,-1000,1,0,0,-1,1,0,242610.0
18:25:02.801,STABILIZE,-35.3632622,149.1652375,0,-0.0009779043029993773,0.0009790820768103004,0.021660136058926582,0.0002924546133726835,0.000289474381133914,0.0013987282291054726,0,2,-1000,0,0,0,-1,1,0,242610.0
18:25:03.002,STABILIZE,-35.3632622,149.1652375,0,-0.0009779043029993773,0.0009790820768103004,0.021660136058926582,0.0002924546133726835,0.000289474381133914,0.0013987282291054726,0,2,-1000,0,0,0,-1,1,0,242610.0
18:25:03.203,STABILIZE,-35.3632622,149.1652375,0,-0.0010043459478765726,0.0009830211056396365,0.02162790857255459,0.0002849646843969822,0.00035515736090019345,0.0014694969868287444,0,1,-1000,1,0,0,-1,1,0,242610.0
18:25:03.405,STABILIZE,-35.3632622,149.1652375,0,-0.0010043459478765726,0.0009830211056396365,0.02162790857255459,0.0002849646843969822,0.00035515736090019345,0.0014694969868287444,0,1,-1000,1,0,0,-1,1,0,242610.0
18:25:03.606,STABILIZE,-35.3632622,149.1652375,0,-0.0010043459478765726,0.0009830211056396365,0.02162790857255459,0.0002849646843969822,0.00035515736090019345,0.0014694969868287444,0,2,-1000,0,0,0,-1,1,0,242610.0
18:25:03.807,STABILIZE,-35.3632622,149.1652375,0,-0.0010043459478765726,0.0009830211056396365,0.02162790857255459,0.0002849646843969822,0.00035515736090019345,0.0014694969868287444,0,2,-1000,0,0,0,-1,1,0,242610.0
18:25:04.013,STABILIZE,-35.3632622,149.1652375,0,-0.0010043459478765726,0.0009830211056396365,0.02162790857255459,0.0002849646843969822,0.00035515736090019345,0.0014694969868287444,0,2,-1000,0,0,0,-1,1,0,242610.0
18:25:04.217,STABILIZE,-35.3632622,149.1652375,0,-0.0010043459478765726,0.0009830211056396365,0.02162790857255459,0.0002849646843969822,0.00035515736090019345,0.0014694969868287444,0,2,-1000,0,0,0,-1,1,0,242610.0
18:25:04.418,STABILIZE,-35.3632622,149.1652375,0,-0.0010043459478765726,0.0009830211056396365,0.02162790857255459,0.0002849646843969822,0.00035515736090019345,0.0014694969868287444,0,2,-1000,0,0,0,-1,1,0,242610.0
18:25:04.620,STABILIZE,-35.3632622,149.1652375,0,-0.00101791275665164,0.000971483183093369,0.02131710760295391,0.00038088293513283134,0.0002238967572338879,0.0014637480489909649,0,2,-1000,0,0,0,-1,0,-1,242610.0
18:25:04.821,STABILIZE,-35.3632622,149.1652375,0,-0.000989633845165372,0.0009746979922056198,0.021283581852912903,0.00030788907315582037,0.000295078381896019,0.0014924012357369065,0,1,-1000,0,1,0,-1,0,-1,242610.0
18:25:05.022,STABILIZE,-35.3632622,149.1652375,0,-0.000989633845165372,0.0009746979922056198,0.021283581852912903,0.00030788907315582037,0.000295078381896019,0.0014924012357369065,0,1,-1000,0,1,0,-1,0,-1,242610.0
18:25:05.223,STABILIZE,-35.3632622,149.1652375,0,-0.0009765187278389931,0.0009688925347290933,0.02123245969414711,0.00025805196492001414,0.00020927621517330408,0.0013194854836910963,0,1,-1000,1,0,0,-1,0,-1,242610.0
18:25:05.425,STABILIZE,-35.3632622,149.1652375,0,-0.0009765187278389931,0.0009688925347290933,0.02123245969414711,0.00025805196492001414,0.00020927621517330408,0.0013194854836910963,0,1,-1000,1,0,0,-1,0,-1,242610.0
18:25:05.626,STABILIZE,-35.3632622,149.1652375,0,-0.0009765187278389931,0.0009688925347290933,0.02123245969414711,0.00025805196492001414,0.00020927621517330408,0.0013194854836910963,0,1,-1000,1,0,0,-1,0,-1,242610.0
18:25:05.830,STABILIZE,-35.3632622,149.1652375,0,-0.0009765187278389931,0.0009688925347290933,0.02123245969414711,0.00025805196492001414,0.00020927621517330408,0.0013194854836910963,0,1,-1000,1,0,0,-1,0,-1,242610.0
18:25:06.032,AUTO,-35.3632622,149.1652375,0,-0.0009765187278389931,0.0009688925347290933,0.02123245969414711,0.00025805196492001414,0.00020927621517330408,0.0013194854836910963,0,1,-1000,1,0,0,-1,0,-1,242610.0
18:25:06.233,AUTO,-35.3632622,149.1652375,0,-0.0009765187278389931,0.0009688925347290933,0.02123245969414711,0.00025805196492001414,0.00020927621517330408,0.0013194854836910963,0,1,-1000,1,0,0,-1,0,-1,242610.0
18:25:06.503,AUTO,-35.3632622,149.1652375,2,-0.0008897817460820079,0.0009961794130504131,0.021048199385404587,0.0002831360907293856,0.0002944457810372114,0.0014370364369824529,0,2,-1000,1,1,1,-1,1,-1,242610.0
18:25:06.749,AUTO,-35.3632622,149.1652375,2,-0.0008843385148793459,0.0009995129657909274,0.02100815437734127,0.00035073322942480445,0.00020370498532429338,0.0013524515088647604,0,1,-1000,1,1,1,-1,0,-1,242610.0
18:25:06.996,AUTO,-35.3632621,149.1652375,3,-0.0008698354358784854,0.0010106859263032675,0.02096078358590603,0.00024516263511031866,0.00014241720782592893,0.0014059370150789618,0,1,-1000,1,1,0,0,0,-1,242610.0
18:25:07.319,AUTO,-35.3632621,149.1652375,4,-0.0007919577765278518,0.0010917582549154758,0.020883038640022278,0.000278486346360296,0.00019441277254372835,0.0013971029547974467,0,1,-1000,1,0,0,0,0,-1,242610.0
18:25:07.555,AUTO,-35.3632621,149.1652375,4,-0.0007919577765278518,0.0010917582549154758,0.020883038640022278,0.000278486346360296,0.00019441277254372835,0.0013971029547974467,0,1,-1000,1,0,0,0,0,-1,242610.0
18:25:07.760,AUTO,-35.3632621,149.1652375,6,-0.000419644289650023,0.0011451012687757611,0.020830737426877022,0.00025759427808225155,0.00015324557898566127,0.0013445101212710142,0,1,-1000,0,1,0,0,0,-1,242610.0
18:25:07.963,AUTO,-35.3632621,149.1652375,6,-0.000419644289650023,0.0011451012687757611,0.020830737426877022,0.00025759427808225155,0.00015324557898566127,0.0013445101212710142,0,1,-1000,0,1,0,0,0,-1,242610.0
18:25:08.165,AUTO,-35.3632621,149.1652375,6,-0.000419644289650023,0.0011451012687757611,0.020830737426877022,0.00025759427808225155,0.00015324557898566127,0.0013445101212710142,0,1,-1000,0,1,0,0,0,-1,242610.0
18:25:08.368,AUTO,-35.3632621,149.1652375,6,-0.000419644289650023,0.0011451012687757611,0.020830737426877022,0.00025759427808225155,0.00015324557898566127,0.0013445101212710142,0,1,-1000,0,1,0,0,0,-1,141323.0
18:25:08.571,AUTO,-35.3632621,149.1652375,8,-0.00021866110910195857,0.0013647563755512238,0.020655883476138115,0.0003362210118211806,0.0002582877641543746,0.0013551336014643312,0,2,-1000,1,1,1,0,0,-1,141323.0
18:25:08.772,AUTO,-35.3632621,149.1652375,7,-0.00016046746168285608,0.0014364104717969894,0.020602047443389893,0.0003388722543604672,0.00033297331538051367,0.0013542340602725744,0,1,-1000,1,0,1,0,0,-1,141323.0
18:25:08.974,AUTO,-35.3632621,149.1652375,8,-9.76025839918293e-05,0.0015104383928701282,0.020528029650449753,0.0004143321420997381,0.0002666416112333536,0.0012796716764569283,0,2,-1000,1,0,1,0,0,-1,141323.0
18:25:09.176,AUTO,-35.3632621,149.1652375,8,-3.147347524645738e-05,0.0015850975178182125,0.020466351881623268,0.0003627546248026192,0.0003578728064894676,0.001376586384139955,0,1,-1000,1,0,1,0,0,-1,141323.0
18:25:09.378,AUTO,-35.3632621,149.1652375,8,-3.147347524645738e-05,0.0015850975178182125,0.020466351881623268,0.0003627546248026192,0.0003578728064894676,0.001376586384139955,0,1,-1000,1,0,1,0,0,-1,141323.0
18:25:09.580,AUTO,-35.3632621,149.1652375,8,4.0508341044187546e-05,0.001654837280511856,0.02040201798081398,0.00030696409521624446,0.0003576422459445894,0.0012794737704098225,0,1,-1000,1,0,0,0,0,-1,141323.0
18:25:09.781,AUTO,-35.3632621,149.1652375,8,0.00011278202873654664,0.001729282084852457,0.020340245217084885,0.00037915899883955717,0.0002697123563848436,0.0013845578068867326,0,2,-1000,1,0,1,0,0,-1,141323.0
18:25:09.983,AUTO,-35.3632621,149.1652375,8,0.00011278202873654664,0.001729282084852457,0.020340245217084885,0.00037915899883955717,0.0002697123563848436,0.0013845578068867326,0,2,-1000,1,0,1,0,0,-1,141323.0
18:25:10.185,AUTO,-35.3632621,149.1652375,8,0.00011278202873654664,0.001729282084852457,0.020340245217084885,0.00037915899883955717,0.0002697123563848436,0.0013845578068867326,0,2,-1000,1,0,1,0,0,-1,141323.0
18:25:10.387,AUTO,-35.3632621,149.1652375,8,0.00011278202873654664,0.001729282084852457,0.020340245217084885,0.00037915899883955717,0.0002697123563848436,0.0013845578068867326,0,2,-1000,1,0,1,0,0,-1,141323.0
18:25:10.589,AUTO,-35.3632621,149.1652375,281,0.0021370663307607174,0.000559406413231045,0.020193831995129585,-0.005424593109637499,0.0036274828016757965,0.0022009643726050854,0,0,-1122,-4,4,1,0,0,-85,141323.0
18:25:10.790,AUTO,-35.3632621,149.1652375,523,0.0016751193907111883,0.0013171095633879304,0.02013513259589672,-0.0015456478577107191,0.001571022905409336,0.0012756254291161895,0,0,-1102,0,2,1,0,0,-111,141323.0
18:25:10.992,AUTO,-35.3632621,149.1652375,828,0.004810357932001352,0.0013939160853624344,0.020008215680718422,0.03993961960077286,-0.0031812952365726233,0.0010219257092103362,0,0,-1067,40,-2,0,0,0,-132,141323.0
18:25:11.194,AUTO,-35.3632621,149.1652375,1179,0.016506128013134003,-3.1795731047168374e-05,0.01997380144894123,0.04823726788163185,-0.006550157908350229,0.0020115231163799763,0,0,-1029,49,-5,1,0,3,-142,141323.0
18:25:11.396,AUTO,-35.3632621,149.1652375,1179,0.016506128013134003,-3.1795731047168374e-05,0.01997380144894123,0.04823726788163185,-0.006550157908350229,0.0020115231163799763,0,0,-1029,49,-5,1,0,3,-142,141323.0
18:25:11.597,AUTO,-35.363262,149.1652375,1550,0.028256135061383247,-0.00181358412373811,0.02008669264614582,0.046358898282051086,-0.007259461097419262,0.0025587407872080803,0,-1,-1012,47,-6,2,1,8,-147,141323.0
18:25:11.799,AUTO,-35.363262,149.1652378,1929,0.03946678712964058,-0.00376704940572381,0.020307203754782677,0.0442282035946846,-0.007912800647318363,0.003047066042199731,0,-2,-1005,44,-7,2,2,15,-148,141323.0
18:25:12.001,AUTO,-35.363262,149.1652378,1929,0.03946678712964058,-0.00376704940572381,0.020307203754782677,0.0442282035946846,-0.007912800647318363,0.003047066042199731,0,-2,-1005,44,-7,2,2,15,-148,141323.0
18:25:12.203,AUTO,-35.363262,149.1652378,1929,0.03946678712964058,-0.00376704940572381,0.020307203754782677,0.0442282035946846,-0.007912800647318363,0.003047066042199731,0,-2,-1005,44,-7,2,2,15,-148,141323.0
18:25:12.451,AUTO,-35.363262,149.1652378,1929,0.03946678712964058,-0.00376704940572381,0.020307203754782677,0.0442282035946846,-0.007912800647318363,0.003047066042199731,0,-2,-1005,44,-7,2,2,15,-148,141323.0
18:25:12.698,AUTO,-35.3632613,149.1652416,3455,0.024153083562850952,0.020880961790680885,-0.04037986323237419,-0.1789543777704239,0.05407717078924179,-0.08694395422935486,5,-14,-994,-178,54,-87,8,55,-145,141323.0
18:25:13.002,AUTO,-35.3632611,149.165243,3830,-0.011897342279553413,0.02051565982401371,-0.05419924110174179,-0.08191324025392532,-0.040517691522836685,-0.035241007804870605,5,-10,-1011,-81,-40,-35,5,52,-146,141323.0
18:25:13.253,AUTO,-35.363261,149.1652443,4211,-0.024152372032403946,0.008059185929596424,-0.0588107667863369,-0.03159695118665695,-0.0405050627887249,-0.023846520110964775,5,-11,-1007,-30,-40,-23,3,44,-148,141323.0
18:25:13.596,AUTO,-35.3632608,149.1652454,4594,-0.033532023429870605,0.0020782852079719305,-0.06494709104299545,-0.0565800666809082,-0.005164433270692825,-0.03662967309355736,4,-9,-1001,-55,-4,-36,3,34,-149,141323.0
18:25:13.800,AUTO,-35.3632607,149.1652462,4978,-0.05212152376770973,0.0028455464635044336,-0.07537081092596054,-0.0884941890835762,0.011051353998482227,-0.04671354964375496,2,-6,-999,-87,11,-46,4,21,-149,141323.0
18:25:14.005,AUTO,-35.3632607,149.1652462,4978,-0.05212152376770973,0.0028455464635044336,-0.07537081092596054,-0.0884941890835762,0.011051353998482227,-0.04671354964375496,2,-6,-999,-87,11,-46,4,21,-149,141323.0
18:25:14.232,AUTO,-35.3632607,149.1652462,4978,-0.05212152376770973,0.0028455464635044336,-0.07537081092596054,-0.0884941890835762,0.011051353998482227,-0.04671354964375496,2,-6,-999,-87,11,-46,4,21,-149,53945.0
18:25:14.434,AUTO,-35.3632606,149.1652458,6126,-0.07061175256967545,0.003899866249412298,-0.10464455187320709,0.053443361073732376,-0.000884461565874517,-0.022321734577417374,-2,5,-1001,54,0,-22,-3,-35,-149,53945.0
18:25:14.636,AUTO,-35.3632606,149.1652458,6126,-0.07061175256967545,0.003899866249412298,-0.10464455187320709,0.053443361073732376,-0.000884461565874517,-0.022321734577417374,-2,5,-1001,54,0,-22,-3,-35,-149,53945.0
18:25:14.839,AUTO,-35.3632606,149.1652446,6508,-0.0564551055431366,0.004073440097272396,-0.1095457673072815,0.05981680750846863,0.004268659744411707,-0.014898662455379963,-3,8,-1000,60,4,-14,-6,-49,-148,53945.0
18:25:15.041,AUTO,-35.3632608,149.1652431,6894,-0.04082408919930458,0.0056165661662817,-0.11308318376541138,0.06398538500070572,0.008181443437933922,-0.010066586546599865,-7,10,-1002,64,9,-10,-9,-58,-149,53945.0
18:25:15.243,AUTO,-35.363261,149.1652414,7277,-0.024344976991415024,0.007988948374986649,-0.115114226937294,0.06714686751365662,0.01115595642477274,-0.006205555517226458,-5,14,-1002,68,12,-6,-12,-63,-149,53945.0
18:25:15.445,AUTO,-35.3632614,149.1652396,7662,-0.007289553061127663,0.010776306502521038,-0.11618340015411377,0.06994989514350891,0.010952489450573921,-0.0024695356842130423,-6,14,-1003,70,11,-2,-16,-64,-150,53945.0
18:25:15.647,AUTO,-35.3632614,149.1652396,7662,-0.007289553061127663,0.010776306502521038,-0.11618340015411377,0.06994989514350891,0.010952489450573921,-0.0024695356842130423,-6,14,-1003,70,11,-2,-16,-64,-150,53945.0
18:25:15.849,AUTO,-35.3632618,149.1652378,8049,0.010125044733285904,0.013420678675174713,-0.11620389670133591,0.07007445394992828,0.010096844285726547,-0.0013213588390499353,-6,13,-1004,70,10,-1,-19,-61,-151,53945.0
18:25:16.051,AUTO,-35.3632618,149.1652378,8049,0.010125044733285904,0.013420678675174713,-0.11620389670133591,0.07007445394992828,0.010096844285726547,-0.0013213588390499353,-6,13,-1004,70,10,-1,-19,-61,-151,53945.0
18:25:16.252,AUTO,-35.3632618,149.1652378,8049,0.010125044733285904,0.013420678675174713,-0.11620389670133591,0.07007445394992828,0.010096844285726547,-0.0013213588390499353,-6,13,-1004,70,10,-1,-19,-61,-151,53945.0
18:25:16.454,AUTO,-35.3632634,149.1652338,9219,0.06109194457530975,0.01584444008767605,-0.11269082874059677,0.06556801497936249,-0.004619169048964977,0.0046898252330720425,-1,10,-1002,66,-3,4,-28,-26,-153,53945.0
18:25:16.659,AUTO,-35.3632641,149.1652333,9612,0.07425866276025772,0.011843576095998287,-0.1086631715297699,0.01721562258899212,-0.04229951649904251,0.04138718172907829,3,7,-996,17,-41,41,-28,-7,-152,53945.0
18:25:16.861,AUTO,-35.3632641,149.1652333,9612,0.07425866276025772,0.011843576095998287,-0.1086631715297699,0.01721562258899212,-0.04229951649904251,0.04138718172907829,3,7,-996,17,-41,41,-28,-7,-152,53945.0
18:25:17.063,AUTO,-35.3632647,149.1652332,10002,0.06785793602466583,-0.012213209643959999,-0.09010433405637741,-0.04548504948616028,-0.12021926790475845,0.10520166158676147,4,4,-996,-44,-119,105,-25,10,-151,53945.0
18:25:17.265,AUTO,-35.3632652,149.1652336,10388,0.0566585510969162,-0.04490695148706436,-0.06260132789611816,-0.028839927166700363,-0.11596930772066116,0.12262238562107086,6,1,-1001,-28,-115,122,-15,23,-150,53945.0
18:25:17.467,AUTO,-35.3632653,149.1652342,10773,0.05247362703084946,-0.06979065388441086,-0.0357368178665638,0.0038649740163236856,-0.0742555484175682,0.10943438112735748,4,-3,-1002,4,-73,108,1,34,-150,53945.0
18:25:17.669,AUTO,-35.3632652,149.1652352,11155,0.03483300656080246,-0.07883516699075699,-0.020343421027064323,-0.12956705689430237,0.03697189316153526,0.005801574792712927,0,-9,-990,-128,37,5,21,42,-147,53945.0
18:25:17.872,AUTO,-35.3632652,149.1652352,11155,0.03483300656080246,-0.07883516699075699,-0.020343421027064323,-0.12956705689430237,0.03697189316153526,0.005801574792712927,0,-9,-990,-128,37,5,21,42,-147,53945.0
18:25:18.074,AUTO,-35.3632652,149.1652352,11155,0.03483300656080246,-0.07883516699075699,-0.020343421027064323,-0.12956705689430237,0.03697189316153526,0.005801574792712927,0,-9,-990,-128,37,5,21,42,-147,53945.0
18:25:18.302,AUTO,-35.3632652,149.1652352,11155,0.03483300656080246,-0.07883516699075699,-0.020343421027064323,-0.12956705689430237,0.03697189316153526,0.005801574792712927,0,-9,-990,-128,37,5,21,42,-147,53945.0
18:25:18.688,AUTO,-35.3632614,149.1652385,12677,-0.04724612832069397,0.012298128567636013,-0.12305372953414917,-4.47866041213274e-05,0.0537736602127552,-0.10393527895212173,-6,-10,-1008,0,54,-104,44,7,-151,53945.0
18:25:18.993,AUTO,-35.3632604,149.1652385,13066,-0.044192127883434296,0.021480048075318336,-0.14764031767845154,0.024482736364006996,0.03132697939872742,-0.08266831189393997,-9,-6,-1005,25,31,-82,37,-5,-152,53945.0
18:25:19.210,AUTO,-35.3632597,149.1652382,13457,-0.0358799584209919,0.026380576193332672,-0.1653832495212555,0.04032517597079277,0.018522022292017937,-0.05825529620051384,-6,-3,-1002,41,19,-58,28,-15,-153,53945.0
18:25:19.499,AUTO,-35.3632591,149.1652377,13857,-0.025214530527591705,0.0300590880215168,-0.1782890111207962,0.04567652568221092,0.01593608781695366,-0.042724911123514175,-7,0,-1001,46,16,-42,18,-22,-153,53945.0
18:25:19.702,AUTO,-35.3632587,149.165237,14247,-0.01360661443322897,0.033480849117040634,-0.1871926188468933,0.04943681135773659,0.014380804263055325,-0.03061760403215885,-6,3,-1001,50,14,-30,9,-26,-153,53945.0
18:25:19.905,AUTO,-35.3632587,149.165237,14247,-0.01360661443322897,0.033480849117040634,-0.1871926188468933,0.04943681135773659,0.014380804263055325,-0.03061760403215885,-6,3,-1001,50,14,-30,9,-26,-153,53945.0
18:25:20.107,AUTO,-35.3632587,149.165237,14247,-0.01360661443322897,0.033480849117040634,-0.1871926188468933,0.04943681135773659,0.014380804263055325,-0.03061760403215885,-6,3,-1001,50,14,-30,9,-26,-153,53945.0
18:25:20.311,AUTO,-35.3632587,149.165237,14247,-0.01360661443322897,0.033480849117040634,-0.1871926188468933,0.04943681135773659,0.014380804263055325,-0.03061760403215885,-6,3,-1001,50,14,-30,9,-26,-153,21013.0
18:25:20.514,AUTO,-35.3632589,149.165235,15416,0.025343887507915497,0.038861826062202454,-0.19946804642677307,0.05586537718772888,-9.300553938373923e-05,-0.010259974747896194,-1,5,-1001,56,0,-10,-17,-15,-153,21013.0
18:25:20.716,AUTO,-35.3632592,149.1652346,15808,0.0372132770717144,0.03640146180987358,-0.19882996380329132,0.029728056862950325,-0.026840167120099068,0.017371656373143196,1,4,-998,30,-26,17,-24,-5,-153,21013.0
18:25:20.918,AUTO,-35.3632597,149.1652345,16197,0.03863422945141792,0.02176286280155182,-0.18815822899341583,-0.011444640345871449,-0.07883178442716599,0.06108950078487396,3,4,-997,-10,-78,60,-27,4,-152,21013.0
18:25:21.120,AUTO,-35.3632597,149.1652345,16197,0.03863422945141792,0.02176286280155182,-0.18815822899341583,-0.011444640345871449,-0.07883178442716599,0.06108950078487396,3,4,-997,-10,-78,60,-27,4,-152,21013.0
18:25:21.322,AUTO,-35.3632603,149.1652347,16585,0.03155636042356491,0.0015126863727346063,-0.17260631918907166,-0.04371784254908562,-0.05839153379201889,0.04896293208003044,5,2,-997,-42,-57,48,-26,13,-151,21013.0
18:25:21.524,AUTO,-35.3632608,149.1652351,16972,0.0181697066873312,-0.007310519926249981,-0.16370540857315063,-0.050853848457336426,-0.015740513801574707,0.01874994859099388,6,0,-1000,-50,-14,18,-23,18,-151,21013.0
18:25:21.726,AUTO,-35.3632612,149.1652354,17358,0.006159694865345955,-0.008795696310698986,-0.16168801486492157,-0.03990769013762474,-0.0019945483654737473,-0.002004486508667469,5,-1,-1001,-38,-1,-2,-18,19,-151,21013.0
18:25:21.928,AUTO,-35.3632612,149.1652354,17358,0.006159694865345955,-0.008795696310698986,-0.16168801486492157,-0.03990769013762474,-0.0019945483654737473,-0.002004486508667469,5,-1,-1001,-38,-1,-2,-18,19,-151,21013.0
18:25:22.129,AUTO,-35.3632612,149.1652354,17358,0.006159694865345955,-0.008795696310698986,-0.16168801486492157,-0.03990769013762474,-0.0019945483654737473,-0.002004486508667469,5,-1,-1001,-38,-1,-2,-18,19,-151,21013.0
18:25:22.331,AUTO,-35.3632612,149.1652354,17358,0.006159694865345955,-0.008795696310698986,-0.16168801486492157,-0.03990769013762474,-0.0019945483654737473,-0.002004486508667469,5,-1,-1001,-38,-1,-2,-18,19,-151,21013.0
18:25:22.533,AUTO,-35.363262,149.1652366,18520,-0.01001656986773014,-0.00811810977756977,-0.17691393196582794,-0.00539820920675993,0.0014357366599142551,-0.029099654406309128,3,-1,-1001,-4,2,-29,-8,11,-152,21013.0
18:25:22.734,AUTO,-35.3632621,149.1652368,18909,-0.010617351159453392,-0.0070342100225389,-0.18558070063591003,0.001104600029066205,0.008680611848831177,-0.037855733186006546,1,0,-1001,1,9,-37,-5,7,-152,21013.0
18:25:22.936,AUTO,-35.3632622,149.1652369,19298,-0.008866222575306892,-0.005332380998879671,-0.19476661086082458,0.010056179016828537,0.006479217670857906,-0.0362241268157959,1,0,-1000,10,7,-36,-3,4,-152,21013.0
18:25:23.138,AUTO,-35.3632622,149.1652369,19298,-0.008866222575306892,-0.005332380998879671,-0.19476661086082458,0.010056179016828537,0.006479217670857906,-0.0362241268157959,1,0,-1000,10,7,-36,-3,4,-152,21013.0
18:25:23.340,AUTO,-35.3632622,149.1652369,19689,-0.006425797939300537,-0.0037078557070344687,-0.20397314429283142,0.010417662560939789,0.00797218270599842,-0.036647867411375046,0,0,-1000,11,8,-36,-2,1,-153,21013.0
18:25:23.542,AUTO,-35.3632622,149.1652369,20079,-0.0035797206219285727,-0.002161812037229538,-0.2126920521259308,0.011619485914707184,0.007540188729763031,-0.03552508354187012,0,0,-1000,12,8,-35,-1,0,-153,21013.0
18:25:23.744,AUTO,-35.3632622,149.1652369,20469,-0.0006426734034903347,-0.0005866569117642939,-0.2208763062953949,0.011618460528552532,0.0061245872639119625,-0.03041205368936062,0,0,-1000,12,6,-30,0,-2,-153,21013.0
18:25:23.946,AUTO,-35.3632622,149.1652369,20469,-0.0006426734034903347,-0.0005866569117642939,-0.2208763062953949,0.011618460528552532,0.0061245872639119625,-0.03041205368936062,0,0,-1000,12,6,-30,0,-2,-153,21013.0
18:25:24.217,AUTO,-35.3632622,149.1652369,20469,-0.0006426734034903347,-0.0005866569117642939,-0.2208763062953949,0.011618460528552532,0.0061245872639119625,-0.03041205368936062,0,0,-1000,12,6,-30,0,-2,-153,21013.0
18:25:24.455,AUTO,-35.3632622,149.1652365,21639,0.005107073113322258,0.002917062258347869,-0.24164734780788422,0.0063317641615867615,0.002355046570301056,-0.022697873413562775,-1,0,-1000,7,3,-22,0,-1,-153,21013.0
18:25:24.718,AUTO,-35.3632622,149.1652364,22028,0.006033413577824831,0.003494994482025504,-0.2472839653491974,0.004278658423572779,0.002636207267642021,-0.019952891394495964,0,0,-1000,5,3,-20,0,0,-153,21013.0
18:25:24.936,AUTO,-35.3632622,149.1652364,22417,0.0067456625401973724,0.004110667388886213,-0.25267326831817627,0.0030720997601747513,0.0029844497330486774,-0.020441487431526184,0,0,-1000,3,3,-20,0,0,-153,21013.0
18:25:25.159,AUTO,-35.3632622,149.1652364,22417,0.0067456625401973724,0.004110667388886213,-0.25267326831817627,0.0030720997601747513,0.0029844497330486774,-0.020441487431526184,0,0,-1000,3,3,-20,0,0,-153,21013.0
18:25:25.406,AUTO,-35.3632622,149.1652363,22815,0.0070662545040249825,0.004190974403172731,-0.2574419379234314,-6.88763102516532e-05,-0.0018861768767237663,-0.01721462793648243,0,0,-1000,0,-1,-17,0,1,-153,21013.0
18:25:25.608,AUTO,-35.3632622,149.1652363,23205,0.006830899976193905,0.0037501035258173943,-0.26160258054733276,-0.0010623394045978785,-0.0018498993013054132,-0.016454657539725304,0,0,-1000,0,-1,-16,-1,2,-153,21013.0
18:25:25.811,AUTO,-35.3632622,149.1652363,23594,0.006220339331775904,0.003472306067124009,-0.26574406027793884,-0.0004994114860892296,0.00015705905389040709,-0.01670047640800476,0,0,-1000,0,1,-16,-1,3,-153,21013.0
18:25:26.013,AUTO,-35.3632622,149.1652363,23594,0.006220339331775904,0.003472306067124009,-0.26574406027793884,-0.0004994114860892296,0.00015705905389040709,-0.01670047640800476,0,0,-1000,0,1,-16,-1,3,-153,21013.0
18:25:26.219,AUTO,-35.3632622,149.1652363,23594,0.006220339331775904,0.003472306067124009,-0.26574406027793884,-0.0004994114860892296,0.00015705905389040709,-0.01670047640800476,0,0,-1000,0,1,-16,-1,3,-153,18187.0
18:25:26.432,AUTO,-35.3632622,149.1652364,24762,0.0037632680032402277,0.0036052237264811993,-0.2792941629886627,0.00015990645624697208,0.0011478980304673314,-0.017636094242334366,0,0,-1000,1,2,-17,-1,4,-153,18187.0
18:25:26.634,AUTO,-35.3632622,149.1652364,24762,0.0037632680032402277,0.0036052237264811993,-0.2792941629886627,0.00015990645624697208,0.0011478980304673314,-0.017636094242334366,0,0,-1000,1,2,-17,-1,4,-153,18187.0
18:25:26.835,AUTO,-35.3632622,149.1652364,25150,-0.006670115981251001,0.0031497834715992212,-0.2836636006832123,-0.08038628101348877,-0.0006855205865576863,-0.019743742421269417,0,0,-995,-79,0,-19,-1,4,-151,18187.0
18:25:27.037,AUTO,-35.3632622,149.1652364,25536,-0.011704235337674618,0.003935531247407198,-0.28720876574516296,0.0171593576669693,0.005661836825311184,-0.009920627810060978,0,0,-1003,18,6,-10,-2,0,-152,18187.0
18:25:27.239,AUTO,-35.3632622,149.1652364,25924,-0.003021111711859703,0.004953920841217041,-0.28770384192466736,0.039625171571969986,0.004928045440465212,0.003515328746289015,0,0,-1001,40,5,3,-3,-1,-153,18187.0
18:25:27.441,AUTO,-35.3632622,149.1652364,26315,0.004920146893709898,0.005255440715700388,-0.28519588708877563,0.02751278504729271,1.4426186680793762e-06,0.014253363013267517,0,0,-1000,28,1,14,-4,-1,-153,18187.0
18:25:27.643,AUTO,-35.3632622,149.1652364,26315,0.004920146893709898,0.005255440715700388,-0.28519588708877563,0.02751278504729271,1.4426186680793762e-06,0.014253363013267517,0,0,-1000,28,1,14,-4,-1,-153,18187.0
18:25:27.844,AUTO,-35.3632623,149.1652363,26704,0.009866038337349892,0.004861598834395409,-0.28028830885887146,0.011875635012984276,-0.0011701226467266679,0.021892840042710304,0,0,-999,13,0,21,-4,0,-153,18187.0
18:25:28.046,AUTO,-35.3632623,149.1652363,26704,0.009866038337349892,0.004861598834395409,-0.28028830885887146,0.011875635012984276,-0.0011701226467266679,0.021892840042710304,0,0,-999,13,0,21,-4,0,-153,18187.0
18:25:28.248,AUTO,-35.3632623,149.1652363,26704,0.009866038337349892,0.004861598834395409,-0.28028830885887146,0.011875635012984276,-0.0011701226467266679,0.021892840042710304,0,0,-999,13,0,21,-4,0,-153,18187.0
18:25:28.450,AUTO,-35.3632624,149.1652364,27869,0.010764796286821365,0.003606328507885337,-0.2616249918937683,-0.005056964233517647,-0.000665212981402874,0.026862110942602158,0,0,-999,-3,0,26,-3,7,-152,18187.0
18:25:28.652,AUTO,-35.3632624,149.1652364,27869,0.010764796286821365,0.003606328507885337,-0.2616249918937683,-0.005056964233517647,-0.000665212981402874,0.026862110942602158,0,0,-999,-3,0,26,-3,7,-152,18187.0
18:25:28.853,AUTO,-35.3632624,149.1652366,28257,0.008665978908538818,0.003034002846106887,-0.2554734945297241,-0.009867092594504356,-0.001465042820200324,0.02476726472377777,1,0,-999,-8,0,24,-2,9,-152,18187.0
18:25:29.055,AUTO,-35.3632624,149.1652368,28643,0.00634370744228363,0.0027663339860737324,-0.24965275824069977,-0.007791217882186174,0.00222455314360559,0.02308681048452854,1,-1,-1000,-6,2,22,-1,9,-152,18187.0
18:25:29.256,AUTO,-35.3632624,149.165237,29031,0.004030562471598387,0.0028033051639795303,-0.24410288035869598,-0.010380149818956852,0.0011102636344730854,0.02209402061998844,1,-1,-999,-9,1,22,-1,10,-152,18187.0
18:25:29.458,AUTO,-35.3632624,149.1652372,29419,0.00207752943970263,0.0023934512864798307,-0.23881202936172485,-0.004837267100811005,0.0005664301570504904,0.021439431235194206,1,0,-1000,-4,1,21,-1,10,-152,18187.0
18:25:29.660,AUTO,-35.3632624,149.1652372,29419,0.00207752943970263,0.0023934512864798307,-0.23881202936172485,-0.004837267100811005,0.0005664301570504904,0.021439431235194206,1,0,-1000,-4,1,21,-1,10,-152,18187.0
18:25:29.862,AUTO,-35.3632623,149.1652374,29806,0.00060063082491979,0.0022483717184513807,-0.23344264924526215,-0.004954957868903875,-0.0020468360744416714,0.019615495577454567,0,-1,-1001,-3,-1,19,-1,9,-152,18187.0
18:25:30.064,AUTO,-35.3632623,149.1652374,29806,0.00060063082491979,0.0022483717184513807,-0.23344264924526215,-0.004954957868903875,-0.0020468360744416714,0.019615495577454567,0,-1,-1001,-3,-1,19,-1,9,-152,18187.0
18:25:30.321,AUTO,-35.3632623,149.1652374,29806,0.00060063082491979,0.0022483717184513807,-0.23344264924526215,-0.004954957868903875,-0.0020468360744416714,0.019615495577454567,0,-1,-1001,-3,-1,19,-1,9,-152,18187.0
18:25:30.627,AUTO,-35.3632623,149.1652379,30970,-0.0014457791112363338,0.0019408013904467225,-0.21889616549015045,-0.0013381675817072392,-0.00034199003130197525,0.01625765487551689,0,-1,-1000,0,0,16,0,6,-152,18187.0
18:25:30.833,AUTO,-35.3632623,149.165238,31358,-0.0014814521418884397,0.0015728644793853164,-0.2144073098897934,-0.002610752359032631,-0.0020117347594350576,0.016992060467600822,0,0,-1000,-1,-1,16,0,5,-152,18187.0
18:25:31.168,AUTO,-35.3632623,149.1652381,31747,-0.0012207140680402517,0.0013058955082669854,-0.21013587713241577,0.004733228124678135,-0.001170365372672677,0.017934858798980713,0,0,-1000,5,0,17,0,4,-152,18187.0
18:25:31.370,AUTO,-35.3632623,149.1652381,32139,-0.0007577360374853015,0.0013866283698007464,-0.205908864736557,0.0003839113051071763,0.001901965239085257,0.016247734427452087,0,0,-1000,1,2,16,0,3,-152,18187.0
18:25:31.573,AUTO,-35.3632623,149.1652381,32527,-0.0001771727402228862,0.0011682758340612054,-0.20208683609962463,0.002643287181854248,-0.0005284985527396202,0.016246255487203598,0,0,-1000,3,0,16,0,2,-152,18187.0
18:25:31.775,AUTO,-35.3632623,149.1652381,32914,-0.006169115658849478,0.006226339377462864,-0.18630534410476685,-0.07661672681570053,0.07309573888778687,0.1713213175535202,0,-1,-968,-75,74,171,-1,1,-149,18187.0
18:25:31.979,AUTO,-35.3632623,149.1652381,32914,-0.006169115658849478,0.006226339377462864,-0.18630534410476685,-0.07661672681570053,0.07309573888778687,0.1713213175535202,0,-1,-968,-75,74,171,-1,1,-149,18187.0
18:25:32.182,AUTO,-35.3632623,149.1652381,32914,-0.006169115658849478,0.006226339377462864,-0.18630534410476685,-0.07661672681570053,0.07309573888778687,0.1713213175535202,0,-1,-968,-75,74,171,-1,1,-149,55174.0
18:25:32.384,AUTO,-35.3632623,149.1652381,32914,-0.006169115658849478,0.006226339377462864,-0.18630534410476685,-0.07661672681570053,0.07309573888778687,0.1713213175535202,0,-1,-968,-75,74,171,-1,1,-149,55174.0
18:25:32.586,AUTO,-35.3632632,149.1652372,33935,-0.05151592940092087,0.04376900568604469,0.13161970674991608,0.08868187665939331,-0.20452283322811127,0.23424188792705536,4,7,-934,89,-203,234,-32,-29,-113,55174.0
18:25:32.787,AUTO,-35.3632639,149.1652362,34204,-0.021881479769945145,-0.005399866495281458,0.1670030802488327,0.12551598250865936,-0.17640408873558044,0.0716455727815628,3,10,-941,126,-175,71,-34,-36,-97,55174.0
18:25:32.989,AUTO,-35.3632646,149.1652352,34437,0.0056695048697292805,-0.03770556300878525,0.17328482866287231,0.10074649751186371,-0.09048287570476532,-0.0016936797183007002,2,10,-949,101,-89,-1,-27,-34,-84,55174.0
18:25:33.191,AUTO,-35.3632651,149.1652344,34637,0.025790218263864517,-0.05150698125362396,0.16734419763088226,0.0522744245827198,-0.031126316636800766,-0.03226596862077713,1,8,-956,53,-29,-32,-17,-26,-72,55174.0
18:25:33.393,AUTO,-35.3632651,149.1652344,34637,0.025790218263864517,-0.05150698125362396,0.16734419763088226,0.0522744245827198,-0.031126316636800766,-0.03226596862077713,1,8,-956,53,-29,-32,-17,-26,-72,55174.0
18:25:33.595,AUTO,-35.3632654,149.1652337,34809,0.03841689974069595,-0.05318250134587288,0.15781429409980774,0.05431188642978668,0.006749310530722141,-0.03876715898513794,0,7,-964,55,7,-38,-6,-15,-62,55174.0
18:25:33.798,AUTO,-35.3632654,149.1652334,34957,0.043129514902830124,-0.04789571464061737,0.1485997438430786,0.008154359646141529,0.02833961881697178,-0.03435799106955528,-1,0,-970,9,29,-34,3,-4,-54,55174.0
18:25:34.000,AUTO,-35.3632654,149.1652334,34957,0.043129514902830124,-0.04789571464061737,0.1485997438430786,0.008154359646141529,0.02833961881697178,-0.03435799106955528,-1,0,-970,9,29,-34,3,-4,-54,55174.0
18:25:34.206,AUTO,-35.3632654,149.1652334,34957,0.043129514902830124,-0.04789571464061737,0.1485997438430786,0.008154359646141529,0.02833961881697178,-0.03435799106955528,-1,0,-970,9,29,-34,3,-4,-54,55174.0
18:25:34.408,AUTO,-35.3632654,149.1652334,34957,0.043129514902830124,-0.04789571464061737,0.1485997438430786,0.008154359646141529,0.02833961881697178,-0.03435799106955528,-1,0,-970,9,29,-34,3,-4,-54,55174.0
18:25:34.610,AUTO,-35.3632645,149.1652339,35290,0.037425264716148376,-0.017735522240400314,0.12960675358772278,0.40259620547294617,0.036809008568525314,-0.02014021947979927,-2,1,-969,403,37,-19,22,21,-34,55174.0
18:25:34.812,AUTO,-35.363264,149.1652345,35367,0.027148853987455368,-0.0073601724579930305,0.1254148930311203,-0.27311092615127563,0.042313531041145325,-0.01784585975110531,-3,-28,-982,-272,43,-17,24,25,-28,55174.0
18:25:35.014,AUTO,-35.3632634,149.1652352,35431,0.00939249712973833,0.0009779956890270114,0.12169105559587479,-0.6711278557777405,0.023116832599043846,-0.011894771829247475,0,-36,-982,-670,24,-11,24,27,-24,55174.0
18:25:35.216,AUTO,-35.3632628,149.1652359,35483,0.0028956641908735037,0.008360135369002819,0.11858412623405457,-0.2715357840061188,0.02840428426861763,-0.005499258637428284,-1,-4,-980,-269,29,-5,23,28,-18,55174.0
18:25:35.418,AUTO,-35.3632623,149.1652367,35522,0.0008064419962465763,0.013992237858474255,0.11568988114595413,0.4183856248855591,0.015311825089156628,-0.010413135401904583,0,25,-976,420,16,-10,21,27,-13,55174.0
18:25:35.620,AUTO,-35.3632623,149.1652367,35522,0.0008064419962465763,0.013992237858474255,0.11568988114595413,0.4183856248855591,0.015311825089156628,-0.010413135401904583,0,25,-976,420,16,-10,21,27,-13,55174.0
18:25:35.822,AUTO,-35.3632618,149.1652375,35546,0.003020478645339608,0.017269520089030266,0.1125243678689003,0.674798309803009,0.008500627242028713,-0.013078724965453148,1,17,-981,675,9,-12,17,23,-8,55174.0
18:25:36.031,AUTO,-35.3632618,149.1652375,35546,0.003020478645339608,0.017269520089030266,0.1125243678689003,0.674798309803009,0.008500627242028713,-0.013078724965453148,1,17,-981,675,9,-12,17,23,-8,55174.0
18:25:36.261,AUTO,-35.3632618,149.1652375,35546,0.003020478645339608,0.017269520089030266,0.1125243678689003,0.674798309803009,0.008500627242028713,-0.013078724965453148,1,17,-981,675,9,-12,17,23,-8,55174.0
18:25:36.622,AUTO,-35.3632611,149.1652392,35483,-0.044269148260354996,0.02631072700023651,0.10298698395490646,-0.8371182084083557,-0.1341068297624588,-0.001569199375808239,3,-51,-977,-837,-133,-1,0,-1,16,55174.0
18:25:36.879,AUTO,-35.3632612,149.1652395,35440,-0.0399935245513916,-0.0031715359073132277,0.09976933151483536,-0.8187515735626221,-0.09202025085687637,-0.012636019848287106,2,-41,-1020,-818,-90,-12,-1,-8,11,55174.0
18:25:37.150,AUTO,-35.3632612,149.1652396,35408,-0.04066553711891174,-0.020508376881480217,0.09541746973991394,-0.36774083971977234,-0.05313733592629433,-0.007743335794657469,2,-3,-1015,-365,-52,-7,2,-13,8,55174.0
18:25:37.380,AUTO,-35.3632611,149.1652395,35385,-0.030186599120497704,-0.03221340477466583,0.09123246371746063,0.4537931978702545,-0.04390494152903557,-0.010362980887293816,-1,29,-1024,456,-42,-9,9,-18,4,55174.0
18:25:37.582,AUTO,-35.3632609,149.1652393,35370,-0.019330015406012535,-0.04248610511422157,0.08865860849618912,0.6850378513336182,-0.04295223578810692,-0.005511434283107519,-3,35,-1012,686,-42,-5,18,-22,1,55174.0
18:25:37.785,AUTO,-35.3632604,149.1652391,35365,-0.016987666487693787,-0.05373308062553406,0.08758800476789474,0.35781359672546387,-0.045657314360141754,0.00623289542272687,-5,-3,-998,357,-44,6,29,-26,-1,55174.0
18:25:37.990,AUTO,-35.3632604,149.1652391,35365,-0.016987666487693787,-0.05373308062553406,0.08758800476789474,0.35781359672546387,-0.045657314360141754,0.00623289542272687,-5,-3,-998,357,-44,6,29,-26,-1,55174.0
18:25:38.196,AUTO,-35.3632604,149.1652391,35365,-0.016987666487693787,-0.05373308062553406,0.08758800476789474,0.35781359672546387,-0.045657314360141754,0.00623289542272687,-5,-3,-998,357,-44,6,29,-26,-1,42666.0
18:25:38.398,AUTO,-35.3632604,149.1652391,35365,-0.016987666487693787,-0.05373308062553406,0.08758800476789474,0.35781359672546387,-0.045657314360141754,0.00623289542272687,-5,-3,-998,357,-44,6,29,-26,-1,42666.0
18:25:38.601,AUTO,-35.3632573,149.1652378,35381,-0.02037695050239563,-0.10508276522159576,-0.060750480741262436,-0.29803600907325745,-0.0520215705037117,-0.358723521232605,-17,-1,-1008,-296,-51,-358,78,-37,-6,42666.0
18:25:38.802,AUTO,-35.3632554,149.1652371,35395,-0.008922425098717213,-0.11645384877920151,-0.11769184470176697,0.3906260132789612,-0.030282851308584213,-0.15437930822372437,-22,14,-1012,392,-29,-154,100,-41,-8,42666.0
18:25:39.004,AUTO,-35.363253,149.1652362,35414,0.005265506915748119,-0.1252773553133011,-0.13224466145038605,0.5513332486152649,-0.031270936131477356,-0.013420265167951584,-27,8,-1015,551,-30,-13,123,-47,-9,42666.0
18:25:39.206,AUTO,-35.3632501,149.1652351,35437,0.005806248169392347,-0.13469478487968445,-0.12711277604103088,-0.06887826323509216,-0.0393088199198246,0.04840187728404999,-32,-30,-1002,-69,-38,48,146,-52,-11,42666.0
18:25:39.408,AUTO,-35.3632501,149.1652351,35437,0.005806248169392347,-0.13469478487968445,-0.12711277604103088,-0.06887826323509216,-0.0393088199198246,0.04840187728404999,-32,-30,-1002,-69,-38,48,146,-52,-11,42666.0
18:25:39.611,AUTO,-35.3632467,149.1652339,35463,0.00011372653534635901,-0.14595574140548706,-0.12011664360761642,-0.46266400814056396,-0.058601099997758865,0.029254809021949768,-42,-36,-1025,-462,-57,29,171,-57,-11,42666.0
18:25:39.813,AUTO,-35.3632427,149.1652324,35493,0.0036022195126861334,-0.1570814847946167,-0.1169220581650734,-0.24511270225048065,-0.046958137303590775,-0.007173269521445036,-47,-18,-1020,-244,-46,-6,198,-61,-13,42666.0
18:25:40.015,AUTO,-35.3632427,149.1652324,35493,0.0036022195126861334,-0.1570814847946167,-0.1169220581650734,-0.24511270225048065,-0.046958137303590775,-0.007173269521445036,-47,-18,-1020,-244,-46,-6,198,-61,-13,42666.0
18:25:40.218,AUTO,-35.3632427,149.1652324,35493,0.0036022195126861334,-0.1570814847946167,-0.1169220581650734,-0.24511270225048065,-0.046958137303590775,-0.007173269521445036,-47,-18,-1020,-244,-46,-6,198,-61,-13,42666.0
18:25:40.424,AUTO,-35.3632427,149.1652324,35493,0.0036022195126861334,-0.1570814847946167,-0.1169220581650734,-0.24511270225048065,-0.046958137303590775,-0.007173269521445036,-47,-18,-1020,-244,-46,-6,198,-61,-13,42666.0
18:25:40.628,AUTO,-35.3632268,149.1652269,35616,0.023979227989912033,-0.18413440883159637,-0.12578894197940826,-0.2876850664615631,-0.01232333853840828,-0.001541057717986405,-64,-36,-1019,-286,-11,-1,285,-76,-19,42666.0
18:25:40.830,AUTO,-35.3632203,149.1652247,35669,0.029626401141285896,-0.18521659076213837,-0.12938182055950165,0.04140198975801468,-0.003240430261939764,-0.027821814641356468,-68,-21,-1014,42,-2,-27,314,-80,-22,42666.0
18:25:41.031,AUTO,-35.3632131,149.1652223,35727,0.04056209325790405,-0.1859298050403595,-0.1324368715286255,0.24582532048225403,0.0017391067231073976,-0.002897161291912198,-71,-27,-1015,246,2,-2,342,-85,-24,42666.0
18:25:41.233,AUTO,-35.3632052,149.1652199,35792,0.041458938270807266,-0.18798372149467468,-0.13509006798267365,-0.12668845057487488,-0.01787499338388443,0.009932784363627434,-67,-22,-1007,-126,-17,10,369,-87,-27,42666.0
18:25:41.435,AUTO,-35.3631968,149.1652173,35863,0.04148979112505913,-0.1898491084575653,-0.13693325221538544,-0.022285204380750656,-0.012292077764868736,-0.01006009615957737,-83,-35,-1010,-21,-11,-9,395,-91,-29,42666.0
18:25:41.637,AUTO,-35.3631968,149.1652173,35863,0.04148979112505913,-0.1898491084575653,-0.13693325221538544,-0.022285204380750656,-0.012292077764868736,-0.01006009615957737,-83,-35,-1010,-21,-11,-9,395,-91,-29,42666.0
18:25:41.839,AUTO,-35.3631877,149.1652145,35940,0.0500444658100605,-0.19543440639972687,-0.1391608566045761,0.11455001682043076,-0.03703612834215164,-0.0017561643617227674,-84,-28,-1006,115,-36,-1,421,-95,-31,42666.0
18:25:42.067,AUTO,-35.3631877,149.1652145,35940,0.0500444658100605,-0.19543440639972687,-0.1391608566045761,0.11455001682043076,-0.03703612834215164,-0.0017561643617227674,-84,-28,-1006,115,-36,-1,421,-95,-31,42666.0
18:25:42.301,AUTO,-35.3631877,149.1652145,35940,0.0500444658100605,-0.19543440639972687,-0.1391608566045761,0.11455001682043076,-0.03703612834215164,-0.0017561643617227674,-84,-28,-1006,115,-36,-1,421,-95,-31,42666.0
18:25:42.608,AUTO,-35.3631569,149.1652056,36198,0.04988030716776848,-0.20986129343509674,-0.14328502118587494,0.012988891452550888,-0.010287619195878506,-0.002928007859736681,-91,-61,-1006,13,-9,-2,502,-106,-37,42666.0
18:25:42.916,AUTO,-35.3631454,149.1652024,36295,0.054136209189891815,-0.20263521373271942,-0.14818210899829865,0.002845452632755041,0.04483577236533165,-0.03585302084684372,-107,-54,-1010,3,45,-35,527,-111,-40,42666.0
18:25:43.245,AUTO,-35.3631209,149.1651956,36518,0.05556073039770126,-0.16995811462402344,-0.17406430840492249,-0.005201426800340414,0.044005513191223145,-0.06985580176115036,-115,-56,-1015,-4,44,-69,565,-120,-49,42666.0
18:25:43.459,AUTO,-35.3631081,149.1651921,36649,0.06168865039944649,-0.1421654373407364,-0.18872563540935516,0.05587070807814598,0.20711150765419006,-0.01784185692667961,-94,-59,-1025,56,207,-17,579,-125,-55,42666.0
18:25:43.662,AUTO,-35.3631081,149.1651921,36649,0.06168865039944649,-0.1421654373407364,-0.18872563540935516,0.05587070807814598,0.20711150765419006,-0.01784185692667961,-94,-59,-1025,56,207,-17,579,-125,-55,42666.0
18:25:43.865,AUTO,-35.3630952,149.1651884,36807,0.07810533791780472,-0.0875215008854866,-0.17326472699642181,0.07367731630802155,0.2460806965827942,0.06870017945766449,-124,-64,-1030,74,246,69,577,-123,-68,42666.0
18:25:44.068,AUTO,-35.3630952,149.1651884,36807,0.07810533791780472,-0.0875215008854866,-0.17326472699642181,0.07367731630802155,0.2460806965827942,0.06870017945766449,-124,-64,-1030,74,246,69,577,-123,-68,50851.0
18:25:44.271,AUTO,-35.3630952,149.1651884,36807,0.07810533791780472,-0.0875215008854866,-0.17326472699642181,0.07367731630802155,0.2460806965827942,0.06870017945766449,-124,-64,-1030,74,246,69,577,-123,-68,50851.0
18:25:44.473,AUTO,-35.3630586,149.1651787,37378,0.08484082669019699,0.0318528488278389,-0.13996927440166473,-0.12775366008281708,-0.041329577565193176,0.0025739334523677826,-101,-58,-936,-126,-40,2,498,-97,-64,50851.0
18:25:44.675,AUTO,-35.3630477,149.1651759,37525,0.0814967006444931,0.024546919390559196,-0.1412740796804428,0.2893132269382477,-0.02734323777258396,-0.024216854944825172,-94,-45,-942,290,-26,-23,468,-88,-48,50851.0
