time_stamp,RTL_ALT,MODE,xacc,yacc,zacc,xgyro,ygyro,zgyro,roll,pitch,yaw,rollspeed,pitchspeed,yawspeed,lat,lon,relative_alt,vx,vy,vz
14:14:46,25709.0,AUTO,0.0,1.0,-1000.0,0.5,0.0,1.0,-0.0002900369872804731,0.000972308189375326,0.020687881857156754,0.0003182041400577873,0.0002443865523673594,0.0013613298069685698,-35.3632622,149.16523755,3.0,-1.0,2.0,2.0
14:14:47,130467.0,AUTO,0.0,1.25,-1000.0,0.5,0.25,0.5,-0.000329772119584959,0.0010569898877292871,0.02051034802570939,0.0003107238153461367,0.00026274255651514977,0.0014285766228567809,-35.3632621,149.1652375,0.25,0.0,0.25,1.25
14:14:48,130467.0,AUTO,0.0,1.0,-1000.0,0.5,0.0,0.5,-0.00011498015010147355,0.001380619709379971,0.02021668292582035,0.0003295745118521154,0.00028505196678452194,0.0013650787295773625,-35.3632621,149.1652375,0.0,0.0,0.0,1.0
14:14:50,130467.0,AUTO,0.0,0.0,-1120.0,-1.5,4.0,0.5,0.0029828421538695693,0.0005919015638937708,0.019748885184526443,-0.0019118383061140776,0.003777838428504765,0.0012332858168520033,-35.3632621,149.1652375,283.0,0.0,0.0,-82.5
14:14:51,291394.0,AUTO,0.0,-0.25,-1039.75,34.75,-4.0,1.0,0.016878461523447186,-0.00026509579038247466,0.019476888235658407,0.03443606139626354,-0.005182602923014201,0.0019747347687371075,-35.363262049999996,149.16523755,1197.25,0.5,3.75,-136.75
14:14:52,291394.0,AUTO,1.0,-10.0,-991.5,-62.0,59.5,-67.5,0.05381518974900246,0.00041379500180482864,-0.01867498829960823,-0.06271355936769396,0.059271108359098434,-0.0674131466075778,-35.3632615,149.16524025,3086.0,9.0,46.5,-146.0
14:14:54,291394.0,AUTO,-1.5,4.5,-1002.0,51.5,-0.5,-3.5,-0.06285198964178562,-0.00942249596118927,-0.09150658175349236,0.05126733332872391,-0.0012058831343892962,-0.00400357018224895,-35.363261050000006,149.1652455,6145.5,-2.5,-32.0,-148.0
14:14:55,79641.0,AUTO,-6.0,9.0,-1002.25,64.75,11.25,1.25,-0.0178375996183604,-0.004607602317264536,-0.09337466023862362,0.06431407574564219,0.01121044484898448,0.0015406910606543534,-35.3632612,149.16524147500002,7299.25,-1.75,-56.25,-149.0
14:14:56,79641.0,AUTO,-2.0,6.0,-1000.5,52.0,2.0,7.0,0.06162140518426895,0.008718732744455338,-0.08934836089611053,0.051680199801921844,0.0016036699526011944,0.007457781117409468,-35.363261699999995,149.16523475,9250.0,-7.5,-21.5,-152.5
14:14:58,79641.0,AUTO,0.0,-1.5,-1001.5,6.0,4.0,-25.0,-0.014466069173067808,-0.004427079344168305,-0.1047990545630455,0.005811093607917428,0.00384025473613292,-0.025319594889879227,-35.36326245,149.16523654999997,12340.5,2.5,5.5,-151.0
14:14:59,87321.0,AUTO,-1.0,0.0,-1000.5,16.75,8.0,-23.75,-0.004355280572781339,-0.00017679239681456238,-0.12483674101531506,0.01659605046734214,0.007873443537391722,-0.023994581308215857,-35.363262225,149.1652365,13509.25,4.0,-3.5,-151.75
14:15:00,87321.0,AUTO,-1.0,0.0,-1000.0,5.0,3.5,-14.0,0.009581514168530703,0.0064108113292604685,-0.15083381533622742,0.004890114418230951,0.0029800375923514366,-0.014201621990650892,-35.36326175,149.16523565,15459.0,0.5,-2.0,-152.0
14:15:02,87321.0,AUTO,0.0,0.0,-1000.0,-0.5,-0.5,-16.5,0.004732752684503794,0.004350094124674797,-0.1783432811498642,-0.0020246158819645643,-0.0009193024889100343,-0.016670317389070988,-35.3632616,149.16523565,18575.5,-3.0,6.0,-152.0
14:15:03,65794.0,AUTO,0.0,-0.5,-996.5,-47.0,2.75,-12.25,-0.009965673962142318,0.003745132591575384,-0.19167319312691689,-0.048399109742604196,0.0023626025795238093,-0.012692303222138435,-35.363261675000004,149.165235925,19745.0,-3.25,3.5,-151.25
14:15:04,65794.0,AUTO,1.5,9.5,-955.0,116.5,-148.0,213.0,-0.018683987320400774,0.02641167608089745,0.05618278216570616,0.11604832485318184,-0.1492946594953537,0.21372165158391,-35.3632628,149.165234,21579.5,-31.5,-33.5,-125.5
14:15:06,65794.0,AUTO,0.0,-9.0,-976.0,-39.0,35.0,0.5,0.024464615620672703,-0.008984965737909079,0.05659247934818268,-0.04067922197282314,0.034537939354777336,0.0009879411372821778,-35.36326415,149.16523354999998,23373.0,17.5,36.5,-57.0
14:15:07,300000.0,AUTO,0.25,-9.0,-976.75,-19.25,17.0,-0.5,0.0005685853539034724,0.008828515361528844,0.054296497255563736,-0.02062286844011396,0.016620604088529944,-0.0007109965445124544,-35.363262825,149.165236425,23737.25,17.25,34.0,-40.5
14:15:08,300000.0,AUTO,0.0,-7.5,-967.0,-75.5,-2.0,-3.5,-0.011773131787776947,0.013367195148020983,0.04972168244421482,-0.07671517506241798,-0.0034540502820163965,-0.004290625220164657,-35.3632613,149.16523965,24055.5,4.5,12.5,-8.0
14:15:10,300000.0,AUTO,-6.0,11.0,-1021.5,591.0,-36.0,24.0,0.059838585555553436,-0.07166077196598053,0.044308241456747055,0.5905568897724152,-0.03710946440696716,0.023668224457651377,-35.3632595,149.16523985,23803.0,44.5,18.5,3.0
14:15:11,240255.0,AUTO,-15.25,-25.0,-1006.75,3.0,-25.5,337.0,0.06171698495745659,-0.10185825265944004,0.1371552310883999,0.002122454345226288,-0.026765377493575215,0.33745216205716133,-35.363254600000005,149.165243225,23778.75,98.75,54.25,0.0
14:15:12,240255.0,AUTO,-48.5,-19.0,-1000.0,281.0,-55.0,-66.5,0.01815917296335101,-0.17455701529979706,0.6788896918296814,0.2804329842329025,-0.056571708992123604,-0.06646698247641325,-35.3632378,149.1652559,23734.0,212.0,127.0,2.5
14:15:14,240255.0,AUTO,-92.0,-53.0,-995.0,-26.0,-14.0,0.0,0.05783071182668209,-0.21104829758405685,0.6060258150100708,-0.027046107687056065,-0.015032595489174128,0.0002439806703478098,-35.36318195,149.16529824999998,23608.0,406.5,253.0,6.0
14:15:15,11438.0,AUTO,-107.75,-59.0,-1001.25,14.75,33.0,-3.75,0.06650660373270512,-0.2045586183667183,0.6028346568346024,0.01409304462140426,0.032486812910065055,-0.003957603978051338,-35.363152125,149.16532135,23545.75,472.0,299.0,4.75
14:15:16,11438.0,AUTO,-126.0,-80.5,-987.5,7.5,13.0,-1.5,0.07813763990998268,-0.17655445635318756,0.5996992886066437,0.006982460618019104,0.012338667642325163,-0.0017250550590688363,-35.3630946,149.16536624999998,23503.0,541.5,348.5,1.5
14:15:18,11438.0,AUTO,-144.0,-83.0,-987.0,6.0,15.0,-4.0,0.08856410160660744,-0.12078857421875,0.5973916053771973,0.005200507817789912,0.014137916266918182,-0.004282338049961254,-35.3629923,149.16544685,23443.5,573.5,373.0,2.0
14:15:19,300000.0,AUTO,-126.25,-85.5,-983.25,-3.0,20.5,-7.25,0.08883391693234444,-0.1182834543287754,0.5956429690122604,-0.003917229711078107,0.01980623626150191,-0.007719692774116993,-35.36295335,149.16547772500002,23392.25,567.5,369.25,7.5
14:15:20,300000.0,AUTO,-125.5,-86.0,-991.5,4.5,55.5,1.5,0.08563166484236717,-0.056893227621912956,0.5952785313129425,0.003759468672797084,0.054663607850670815,0.001688241260126233,-35.362890449999995,149.1655278,23311.0,530.0,344.0,2.0
14:15:22,300000.0,AUTO,-96.5,-73.0,-997.0,-311.0,49.5,7.0,0.06212388724088669,0.03991484269499779,0.5942051112651825,-0.31135230511426926,0.04882608912885189,0.0066319655161350965,-35.362807000000004,149.16559475,23184.5,369.5,242.5,6.5
14:15:23,72648.0,AUTO,-70.75,-40.0,-1009.0,118.0,8.25,-12.75,0.05353455524891615,0.057448552921414375,0.5931003391742706,0.1169248353689909,0.006836258457042277,-0.012708556139841676,-35.362784575,149.16561297500002,23091.5,292.0,191.0,10.5
14:15:24,72648.0,AUTO,-40.0,-10.5,-1021.0,90.5,24.5,-3.5,0.02076051291078329,0.07293050363659859,0.5902625918388367,0.088274285197258,0.023745042271912098,-0.003386362921446562,-35.36275805,149.1656352,22984.5,174.5,114.5,2.5
14:15:26,72648.0,AUTO,-8.5,-17.5,-996.5,-418.5,-19.5,0.5,-0.009736944222822785,0.04152505658566952,0.5879386961460114,-0.4197174161672592,-0.02148871310055256,0.00020438269712030888,-35.36274135,149.1656496,22960.0,38.5,12.5,-0.5
14:15:27,169357.0,AUTO,-2.75,0.0,-1000.0,33.5,-21.25,1.75,-0.0025173697649734095,0.025475219823420048,0.587537944316864,0.03261348977684975,-0.022933989763259888,0.0014355042658280581,-35.362740075000005,149.16565015,22961.75,15.5,-3.75,-1.0
14:15:28,169357.0,AUTO,-0.5,-4.0,-985.0,-439.0,-21.0,-0.5,-0.004813358653336763,-0.00891893613152206,0.5858536064624786,-0.4407481849193573,-0.022627107799053192,-0.0006877920823171735,-35.3627398,149.16564905,22974.0,2.5,-9.5,-0.5
14:15:30,169357.0,RTL,0.0,4.0,-1045.0,-27.0,0.5,2.0,0.005354110733605921,-0.0016443296917714179,0.5836345255374908,-0.028158187866210938,-0.0006329618627205491,0.002122115867678076,-35.3627393,149.16564764999998,23124.5,2.0,1.5,-32.5
14:15:31,200925.0,RTL,0.0,-0.25,-1048.75,-3.5,2.5,1.0,0.007267726003192365,-0.00029292621547938325,0.5835119932889938,-0.0039263846119865775,0.0018979536835104227,0.001180131221190095,-35.362739149999996,149.1656474,23523.5,0.5,3.25,-68.75
14:15:32,200925.0,RTL,0.0,0.0,-1044.5,0.0,0.5,0.0,0.005136128747835755,0.0010648025199770927,0.5825554728507996,-0.0007260413840413094,-1.206184970214963e-05,-0.000442543881945312,-35.362739,149.1656473,24752.0,-0.5,4.0,-125.0
14:15:34,200925.0,RTL,2.5,-12.0,-994.0,-138.0,69.0,-100.5,0.032248808071017265,0.015246935654431581,0.5528650879859924,-0.13985944539308548,0.06853911280632019,-0.10129127651453018,-35.36274,149.1656512,27712.0,-22.0,51.0,-145.0
14:15:35,135789.0,RTL,3.75,-7.0,-1007.25,-53.75,-21.0,-31.5,-0.058701529167592525,0.011771746270824224,0.5123886615037918,-0.055057652993127704,-0.022588368854485452,-0.03235941054299474,-35.36274112500001,149.165654275,28845.5,-13.75,20.5,-147.5
14:15:36,135789.0,RTL,-4.0,9.0,-1001.0,61.0,5.0,-4.0,-0.029212426394224167,0.0012811464257538319,0.48999908566474915,0.060895685106515884,0.004482894204556942,-0.00487032113596797,-35.3627406,149.1656527,30729.0,17.0,-40.0,-149.0
14:15:38,135789.0,RTL,-2.0,5.0,-999.0,-1.5,-11.5,25.5,0.024942712858319283,-0.008390014292672276,0.5121223330497742,-0.0026379027403891087,-0.012924591079354286,0.024911923799663782,-35.36273875,149.16564625,33256.5,3.5,-16.5,-150.5
14:15:39,146252.0,RTL,-1.5,0.0,-1000.5,-8.75,11.75,-18.25,0.010796133079566061,0.0008340462372871116,0.5056337937712669,-0.01017472124658525,0.010922875837422907,-0.019326659385114908,-35.362738025,149.16564532499999,34812.25,1.5,1.0,-150.25
14:15:40,146252.0,RTL,-0.3333333333333333,-0.6666666666666666,-1000.0,0.3333333333333333,3.3333333333333335,-16.666666666666668,0.006418023879329364,0.006856582127511501,0.4823042154312134,-0.00021761382231488824,0.002463818023291727,-0.017881222069263458,-35.362737466666665,149.1656454666667,36589.0,-1.6666666666666667,3.0,-151.0
14:15:42,146252.0,RTL,0.0,0.0,-1000.0,1.0,0.0,-18.0,0.003279027994722128,0.005998692940920591,0.4405880868434906,0.00045909476466476917,-0.00032608257606625557,-0.01992011070251465,-35.3627374,149.1656463,40064.0,-7.0,3.0,-152.0
14:15:43,200.0,RTL,0.75,0.0,-1000.0,1.0,0.75,-20.0,0.0025743269943632185,0.005039763054810464,0.4270046576857567,-4.606283619068563e-05,-0.0006437163392547518,-0.021320892497897148,-35.36273765,149.16564645,41042.25,-7.5,3.0,-152.0
14:15:44,200.0,RTL,0.5,0.0,-1000.0,2.0,0.5,-19.5,0.001987050985917449,0.0037610065191984177,0.4044659435749054,0.0008634065743535757,-0.0005070932675153017,-0.02107569109648466,-35.362737949999996,149.16564675,42602.0,-6.5,2.5,-152.0
14:15:46,200.0,RTL,0.0,0.0,-1000.5,3.0,1.5,-21.0,0.002171372645534575,0.0034138739574700594,0.3576454669237137,0.002393729460891336,0.0005088745383545756,-0.02222860511392355,-35.362738449999995,149.16564705000002,45719.5,-4.5,2.0,-152.0
14:15:47,199833.0,RTL,0.0,0.0,-1000.0,1.75,1.0,-19.0,0.0021224255324341357,0.0029172886861488223,0.3352787494659424,0.000915709271794185,-0.00010955132893286645,-0.020359449088573456,-35.36273865,149.165647225,47282.75,-4.0,1.75,-152.0
14:15:48,199833.0,RTL,0.0,0.0,-1000.0,3.5,2.5,-18.0,0.002177618443965912,0.0031473312992602587,0.3135635703802109,0.0027039244305342436,0.0016594926128163934,-0.019628447480499744,-35.362738750000005,149.16564735,48841.0,-3.0,1.0,-152.0
14:15:50,199833.0,RTL,0.0,0.0,-1000.0,0.0,0.0,29.0,0.0035928410943597555,0.004713356960564852,0.32988961040973663,-0.0013429090613499284,-0.0017290476243942976,0.028050855733454227,-35.3627391,149.1656476,51950.5,-6.0,3.0,-152.0
14:15:51,66318.0,RTL,0.25,0.0,-1000.0,0.75,0.5,26.0,0.00039957877561391797,0.002106338943121955,0.3558701425790787,-0.0010320529399905354,-0.0013265269808471203,0.025337246246635914,-35.362739425,149.1656479,53499.25,-5.25,2.75,-152.0
14:15:52,66318.0,RTL,0.0,0.0,-1000.0,4.0,1.5,22.0,0.00022104795061750337,0.001750886149238795,0.37786830961704254,0.0029409981798380613,0.0005479436367750168,0.02157184388488531,-35.3627396,149.16564805000002,55053.0,-3.0,1.5,-152.0
14:15:54,66318.0,RTL,0.0,0.0,-1000.5,4.5,2.0,16.0,0.0018551526591181755,0.0018570300308056176,0.41236865520477295,0.003667151089757681,0.0006735725910402834,0.015180069021880627,-35.36273955,149.16564805000002,58157.0,-0.5,0.0,-152.0
14:15:55,88270.0,RTL,0.0,0.0,-999.75,1.5,1.25,14.25,0.002805939468089491,0.0014657302526757121,0.4264105558395386,0.00026176765095442533,0.00025835007545538247,0.013591275084763765,-35.36273945000001,149.165647925,59710.0,0.0,0.0,-152.0
14:15:56,88270.0,RTL,0.0,0.0,-1000.0,3.5,2.5,12.0,0.0028432663530111313,0.002063536609057337,0.43833450973033905,0.0022812355891801417,0.0016203414998017251,0.010868310928344727,-35.36273935,149.16564785,61263.0,0.0,0.5,-152.0
14:15:58,88270.0,RTL,0.0,0.0,-1000.5,4.5,2.0,10.5,0.0026937631191685796,0.002967361710034311,0.45782291889190674,0.002853756188414991,0.000935192743781954,0.009703762363642454,-35.362739149999996,149.1656478,64371.0,-1.0,1.0,-152.0
14:15:59,200.0,RTL,0.0,0.0,-999.75,1.75,1.75,10.0,0.0025944560766220093,0.003081723174545914,0.4655551537871361,0.00022944636293686926,0.00046742960694245994,0.008988877758383751,-35.362739025,149.1656478,65921.25,-2.0,0.25,-152.0
14:16:00,200.0,RTL,0.0,0.0,-1000.0,2.5,0.5,8.5,0.0023196105612441897,0.002482166513800621,0.47260983288288116,0.0012770360917784274,-0.000425723847001791,0.007365746656432748,-35.362739,149.1656478,67478.0,-2.0,0.0,-152.0
14:16:02,200.0,RTL,0.0,0.0,-1000.0,0.0,0.5,7.0,0.0022498384350910783,0.0024349590530619025,0.48511138558387756,-0.0008957934333011508,-0.00108539336360991,0.006111711263656616,-35.362739,149.1656478,70587.5,-2.0,0.0,-152.0
14:16:03,18864.0,RTL,0.0,0.0,-1000.0,2.5,2.25,6.5,0.002236327563878149,0.0023733674897812307,0.49066753685474396,0.0009626441751606762,0.0013082478835713118,0.005569542874582112,-35.362739,149.1656478,72136.25,-2.0,0.0,-152.0
14:16:04,18864.0,RTL,0.0,0.0,-1000.0,3.0,2.5,9.0,0.0021369102178141475,0.0025169900618493557,0.495688334107399,0.001803037477657199,0.0008745480445213616,0.008297979598864913,-35.362739,149.1656478,73689.0,-2.0,0.0,-152.0
14:16:06,18864.0,RTL,0.0,0.0,-1000.5,5.0,2.5,6.5,0.0022235806100070477,0.002309551346115768,0.5060299336910248,0.0034053135896101594,0.0010147574357688427,0.005620662122964859,-35.362739,149.1656478,76794.5,-2.0,0.0,-152.0
14:16:07,200.0,RTL,0.0,0.0,-1000.0,0.5,2.0,6.0,0.0022565529798157513,0.0023709849920123816,0.5101781487464905,-0.0006672920717392117,0.0008776971371844411,0.004772157757543027,-35.362739,149.1656478,78355.5,-2.0,0.0,-152.0
14:16:08,200.0,RTL,0.0,0.0,-1001.0,3.5,1.5,5.0,0.0022019498283043504,0.0023338835453614593,0.5139904320240021,0.002007835078984499,-5.263992352411151e-05,0.004101360449567437,-35.362739,149.1656478,79908.5,-2.0,0.0,-152.0
14:16:10,200.0,RTL,0.0,0.0,-999.5,1.0,2.0,5.0,0.0019849681993946433,0.002564545371569693,0.521123468875885,3.769120667129755e-05,0.0008021339890547097,0.0036839776439592242,-35.362739,149.1656478,83015.5,-2.0,0.0,-152.0
14:16:11,6720.0,RTL,0.0,0.0,-1000.5,1.5,0.75,4.0,0.0017928531160578132,0.002449213759973645,0.5244089215993881,0.00033413348137401044,-0.0006486771162599325,0.003070186881814152,-35.362739,149.1656478,84567.25,-2.0,0.0,-152.0
14:16:12,6720.0,RTL,0.0,0.0,-1000.0,2.0,2.0,5.0,0.0020032398169860244,0.0022365202894434333,0.5273846685886383,0.000639029429294169,0.0006704524857923388,0.003739132545888424,-35.362739,149.1656478,86121.0,-2.0,0.0,-152.0
14:16:14,6720.0,RTL,0.0,0.0,-999.5,2.5,4.0,4.5,0.001989333890378475,0.0022790735820308328,0.5328156054019928,0.0010929887648671865,0.0025334522943012416,0.00308206002227962,-35.362739,149.1656478,89227.0,-2.0,0.0,-152.0
14:16:15,200.0,RTL,0.0,0.0,-999.25,2.0,2.75,4.0,0.0019176628557033837,0.0023424570099450648,0.5351967811584473,0.0004261823196429759,0.0015325213898904622,0.0025720954581629485,-35.362739,149.1656478,90783.0,-2.0,0.0,-152.0
14:16:16,200.0,RTL,0.0,0.0,-999.5,1.5,2.0,3.0,0.0016823695041239262,0.0018751107272692025,0.5373121201992035,-4.262966103851795e-05,0.0007058428600430489,0.002240275964140892,-35.362739,149.1656478,92334.5,-2.0,0.0,-152.0
14:16:18,200.0,RTL,0.0,0.0,-1000.0,3.5,2.0,3.5,0.0021629503462463617,0.0023342579370364547,0.5414024889469147,0.002383929444476962,0.0008251213002949953,0.001883463584817946,-35.362739,149.1656478,95441.0,-1.0,0.0,-152.0
14:16:19,134634.0,RTL,0.0,0.0,-999.75,1.75,1.25,4.0,0.0026362972566857934,0.002643397601787001,0.5432536154985428,-3.0489289201796055e-05,-0.0001308137143496424,0.002824436640366912,-35.362739,149.1656478,96993.5,-1.75,0.0,-152.0
14:16:20,134634.0,RTL,0.0,0.0,-1000.0,2.0,2.0,3.5,0.0024383595446124673,0.0024370140163227916,0.5450695157051086,0.0008392976596951485,0.0007558934157714248,0.001920240290928632,-35.362739,149.1656478,98548.5,-2.0,0.0,-152.0
14:16:22,134634.0,RTL,0.0,0.0,-999.5,2.5,2.5,5.0,0.0017030705348588526,0.002369892899878323,0.5489997267723083,0.000909386551938951,0.001049455488100648,0.0036427162121981382,-35.362739,149.1656478,101660.0,-2.0,0.0,-152.0
14:16:23,300000.0,RTL,0.0,0.0,-1000.0,2.5,1.75,3.5,0.0017935294890776277,0.002304932044353336,0.5501933246850967,0.0009184402879327536,0.00037345284363254905,0.0020371475839056075,-35.362739,149.1656478,103208.75,-2.0,0.0,-152.0
14:16:24,300000.0,RTL,0.0,0.0,-1000.0,1.5,1.5,4.5,0.001926315890159458,0.0023083589039742947,0.5514278709888458,-0.000404988182708621,-2.346013206988573e-05,0.0033809352898970246,-35.362739,149.1656478,104762.5,-2.0,0.0,-152.0
14:16:26,300000.0,RTL,0.0,0.0,-1001.0,4.5,2.0,2.5,0.0019530259887687862,0.0023490136954933405,0.5539129376411438,0.0028570155845955014,0.0005101884016767144,0.001286861312109977,-35.362739,149.1656478,107869.0,-2.0,0.0,-152.0
14:16:27,189226.0,RTL,0.0,0.0,-1000.0,1.75,1.75,3.0,0.0019509419798851013,0.002261902845930308,0.5548522621393204,-3.072491381317377e-05,-2.8644659323617816e-05,0.0014696007710881531,-35.362739,149.1656478,109427.75,-2.0,0.0,-152.0
14:16:28,189226.0,RTL,0.0,0.0,-999.0,1.0,1.5,4.5,0.0018472816445864737,0.0020030700834468007,0.5561915636062622,-0.0007084062090143561,0.00026271509705111384,0.0030310521833598614,-35.362739,149.1656478,110982.5,-2.0,0.0,-152.0
14:16:30,189226.0,RTL,0.0,0.0,-1000.0,2.5,1.5,3.0,0.0017232948448508978,0.001751036790665239,0.5575189888477325,0.0005036331131123006,-4.4578162487596273e-05,0.0017253284459002316,-35.362739,149.1656478,114091.0,-1.0,0.0,-152.0
14:16:31,136904.0,RTL,0.0,0.0,-999.75,3.25,3.5,3.75,0.0022880370379425585,0.0025804585602600127,0.5584162920713425,0.0017888610600493848,0.0017943076090887189,0.00216627778718248,-35.362739,149.1656478,115643.0,-1.25,0.0,-152.0
14:16:32,136904.0,RTL,0.0,0.0,-999.5,2.0,3.5,3.5,0.002149744424968958,0.002594318357296288,0.5589747130870819,0.0007282200967893004,0.0015225695678964257,0.002153665293008089,-35.362739,149.1656478,117196.5,-2.0,0.0,-152.0
14:16:34,136904.0,RTL,0.0,0.0,-1000.0,1.5,1.5,2.0,0.001906873774714768,0.0023761329939588904,0.5604306757450104,-0.00026271335082128644,-0.0006014000973664224,0.0008241936448030174,-35.362739,149.1656478,120303.0,-2.0,0.0,-152.0
14:16:35,200.0,RTL,0.0,0.0,-1000.0,1.5,1.75,2.5,0.0017921599501278251,0.0022849460365250707,0.5611120164394379,-0.00037328683538362384,-9.077120921574533e-05,0.0010169256129302084,-35.362739,149.1656478,121858.5,-2.0,0.0,-152.0
14:16:36,200.0,RTL,0.0,0.0,-1000.0,3.0,2.0,3.5,0.0018334483611397445,0.0023370354901999235,0.5616892278194427,0.0009663710370659828,0.00024326401762664318,0.0019039672333747149,-35.362739,149.1656478,123411.5,-2.0,0.0,-152.0
14:16:38,200.0,RTL,0.0,0.0,-1000.0,1.0,2.5,4.0,0.0016444153152406216,0.002425397397018969,0.5634402632713318,-0.0006268310826271772,0.0005566261825151742,0.00232346827397123,-35.362739,149.1656478,126517.0,-2.0,0.0,-152.0
14:16:39,200.0,RTL,0.0,0.0,-1000.0,3.0,1.75,3.0,0.0017584184824954718,0.0020400139328558,0.5636802166700363,0.000929271976929158,-0.0002403730759397149,0.0012343424605205655,-35.362739,149.1656478,128071.0,-2.0,0.0,-152.0
14:16:40,200.0,RTL,0.0,0.0,-999.5,0.5,2.0,3.5,0.0013524910318665206,0.0015396072412841022,0.5640085637569427,-0.0015999587485566735,0.00041488371789455414,0.0018930870573967695,-35.362739,149.1656478,129626.5,-1.5,0.0,-152.0
14:16:42,200.0,RTL,0.0,0.0,-999.5,2.5,4.0,4.5,0.0020714447600767016,0.0023095166543498635,0.5648318827152252,0.0006544517818838358,0.002058277605101466,0.003166619106195867,-35.362739,149.1656478,132735.0,-1.0,0.0,-152.0
14:16:43,261517.0,RTL,0.0,0.0,-999.75,1.75,1.75,2.0,0.0023486014106310904,0.002664495608769357,0.5651792138814926,-0.0003013380919583142,-2.514640800654888e-05,0.00039657193701714277,-35.362739,149.1656478,134288.25,-1.75,0.0,-152.0
14:16:44,261517.0,RTL,0.0,0.0,-1000.0,3.0,1.0,4.5,0.0019819351145997643,0.002527225762605667,0.5654679834842682,0.0010733383242040873,-0.0007556927157565951,0.0025930595584213734,-35.362739,149.1656478,135842.5,-2.0,0.0,-152.0
14:16:46,261517.0,RTL,0.0,0.0,-999.5,3.5,2.5,2.5,0.0018212046707049012,0.002112261368893087,0.5661097764968872,0.0011107883183285594,0.00042045582085847855,0.0008863758994266391,-35.362739,149.1656478,138954.0,-2.0,0.0,-152.0
14:16:47,252358.0,RTL,0.0,0.0,-1000.0,2.75,2.75,3.25,0.0017804685630835593,0.0022538832272402942,0.5661846548318863,0.0007052384898997843,0.00041592103661969304,0.0012853340595029294,-35.362739,149.1656478,140505.0,-2.0,0.0,-152.0
14:16:48,252358.0,RTL,0.0,0.0,-999.5,1.5,3.0,2.0,0.001806848682463169,0.002279011532664299,0.5664574801921844,-0.000626729684881866,0.001119336811825633,0.00028208945877850056,-35.362739,149.1656478,142063.5,-2.0,0.0,-152.0
14:16:50,252358.0,RTL,0.0,0.0,-1000.5,4.5,3.0,1.5,0.0018611213890835643,0.0023743167985230684,0.5668627321720123,0.00224088819231838,0.0007466624956578016,-0.0003206938854418695,-35.362739,149.1656478,145169.5,-2.0,0.0,-152.0
14:16:51,155813.0,RTL,0.0,0.0,-999.75,2.0,1.5,3.25,0.001412176905432716,0.0015584277862217277,0.566842570900917,3.66999302059412e-05,-0.00041065743425861,0.0014305683434940875,-35.362739,149.1656478,146722.75,-1.75,0.0,-152.0
14:16:52,155813.0,RTL,0.0,0.0,-1000.0,3.5,2.0,2.5,0.0014707305235788226,0.0016119975480251014,0.5670619010925293,0.0012895655818283558,-1.334591070190072e-05,0.0006870540091767907,-35.362739,149.1656478,148275.5,-1.0,0.0,-152.0
14:16:54,155813.0,RTL,0.0,0.0,-1000.0,1.0,2.5,3.0,0.002049579401500523,0.0026949517196044326,0.568136066198349,-0.001248014741577208,0.0006313144695013762,0.001507539302110672,-35.362739,149.1656478,151385.0,-1.5,0.0,-152.0
14:16:55,152141.0,RTL,0.0,0.0,-999.75,3.0,3.0,2.0,0.0021479528804775327,0.0024647307000122964,0.5682744681835175,0.000803064089268446,0.0007806030043866485,9.049350046552718e-05,-35.362739,149.1656478,152936.75,-2.0,0.0,-152.0
14:16:56,152141.0,RTL,0.0,0.0,-1000.0,3.0,2.5,2.0,0.0019266358576714993,0.0023042185930535197,0.5684741139411926,0.0012048124335706234,0.00047381315380334854,3.3604796044528484e-05,-35.362739,149.1656478,154491.0,-2.0,0.0,-152.0
14:16:58,152141.0,RTL,0.0,0.0,-1000.0,3.5,4.0,3.0,0.0018215806921944022,0.002181143034249544,0.5686297714710236,0.001768608926795423,0.001633916632272303,0.0013851096155121922,-35.362739,149.1656478,157596.5,-2.0,0.0,-152.0
14:16:59,57166.0,RTL,0.0,0.0,-1000.0,2.75,2.5,3.5,0.0017704980273265392,0.002348711364902556,0.5684832632541656,0.000904499611351639,0.0005135642131790519,0.0014393810997717083,-35.362739,149.1656478,159150.0,-2.0,0.0,-152.0
14:17:00,57166.0,RTL,0.0,0.0,-1000.5,1.5,1.0,4.0,0.001798740413505584,0.0021857433021068573,0.5687843859195709,-0.0005735096056014299,-0.001206456683576107,0.0019896052544936538,-35.362739,149.1656478,160703.5,-2.0,0.0,-152.0
14:17:02,57166.0,RTL,0.0,0.0,-1000.0,4.0,2.5,3.0,0.0015411772183142602,0.0017793666920624673,0.5687080919742584,0.0016313493251800537,2.063985448330641e-06,0.0010954272001981735,-35.362739,149.1656478,163814.5,-2.0,0.0,-152.0
14:17:03,300000.0,RTL,0.0,0.0,-1000.25,2.5,2.75,2.5,0.0014453174662776291,0.001595011941390112,0.5688449442386627,0.00022267247550189495,0.0004065288230776787,0.0005529827903956175,-35.362739,149.1656478,165367.75,-1.0,0.0,-152.0
14:17:04,300000.0,RTL,0.0,0.0,-1000.5,4.0,1.5,2.5,0.0016607018187642097,0.001897983020171523,0.5686435401439667,0.0017606824403628707,-0.0008998584235087037,0.0003323375713080168,-35.362739,149.1656478,166920.5,-1.0,0.0,-152.0
14:17:06,300000.0,RTL,0.0,0.0,-1000.0,5.0,2.5,4.5,0.0021572833647951484,0.002590664429590106,0.5690860450267792,0.0025786730693653226,-2.1154875867068768e-05,0.002620153361931443,-35.362739,149.1656478,170032.5,-2.0,0.0,-152.0
14:17:07,200.0,RTL,0.0,0.0,-1000.0,1.5,2.0,2.0,0.0018453931261319667,0.0022987330448813736,0.5690931677818298,-0.00024028454208746552,-0.00017846308765001595,0.00020032719476148486,-35.362739,149.1656478,171582.0,-2.0,0.0,-152.0
14:17:08,200.0,RTL,0.0,0.0,-1000.0,2.5,2.5,2.0,0.0017689662636257708,0.002305326284840703,0.5691385567188263,0.00017168093472719193,0.0006693890318274498,0.00013223453424870968,-35.362739,149.1656478,173143.5,-2.0,0.0,-152.0
14:17:10,200.0,RTL,0.0,0.0,-1000.0,4.5,3.0,2.0,0.001980918925255537,0.0021736514754593372,0.5695689022541046,0.0020126851741224527,0.0007723456947132945,0.00037962489295750856,-35.362739,149.1656478,176250.5,-2.0,0.0,-152.0
14:17:11,200.0,RTL,0.0,0.0,-1000.0,2.25,2.25,2.5,0.002168901963159442,0.001997777202632278,0.569833442568779,0.0003325295401737094,0.00021259667119011283,0.0006079559097997844,-35.362739,149.1656478,177803.5,-2.0,0.0,-152.0
14:17:12,200.0,RTL,0.0,0.0,-999.5,4.0,3.5,5.0,0.0019249211763963103,0.0020639016292989254,0.5697451531887054,0.001971460529603064,0.001236270647495985,0.002794868196360767,-35.362739,149.1656478,179356.5,-2.0,0.0,-152.0
14:17:14,200.0,RTL,0.0,0.0,-1000.0,2.5,4.0,2.5,0.001469096285291016,0.0019443667260929942,0.5698223412036896,0.00040738610550761223,0.0018268488347530365,0.0007560797384940088,-35.362739,149.1656478,182465.0,-1.0,0.0,-152.0
14:17:15,200.0,RTL,0.0,0.0,-999.75,2.5,2.5,2.25,0.0016910180856939405,0.002094056166242808,0.5697240084409714,0.000324130553053692,0.00023166625760495663,0.00010785463382489979,-35.362739,149.1656478,184016.5,-1.0,0.0,-152.0
14:17:16,200.0,RTL,0.0,0.0,-999.5,0.5,2.0,3.5,0.0021481194999068975,0.0026072716573253274,0.5696699321269989,-0.0022573943715542555,-0.00041057460475713015,0.0014545872109010816,-35.362739,149.1656478,185570.5,-1.5,0.0,-152.0
14:17:18,200.0,RTL,0.0,0.0,-1000.0,2.0,2.5,2.0,0.001796815893612802,0.002241052221506834,0.5698077380657196,-0.0006962125189602375,-0.00016545498510822654,0.00020041322568431497,-35.362739,149.1656478,188676.5,-2.0,0.0,-152.0
14:17:19,19391.0,RTL,0.0,0.0,-1000.0,3.25,2.0,2.25,0.001684053655480966,0.002307544753421098,0.5696376860141754,0.0006220655050128698,-0.0003977678425144404,0.0002893309574574232,-35.362739,149.1656478,190233.5,-2.0,0.0,-152.0
14:17:20,19391.0,RTL,0.0,0.0,-999.5,2.5,2.0,3.0,0.0018566192593425512,0.0022427364019677043,0.5696307718753815,-1.3704411685466766e-05,-0.0003065060591325164,0.0010449113324284554,-35.362739,149.1656478,191785.0,-2.0,0.0,-152.0
14:17:22,19391.0,RTL,0.0,0.0,-1000.0,0.5,2.5,1.5,0.0016503069200553,0.0023127361200749874,0.5696499645709991,-0.0022054545115679502,-0.00034293998032808304,-0.0007983070681802928,-35.362739,149.1656478,194893.5,-2.0,0.0,-152.0
14:17:23,58581.0,RTL,0.0,0.0,-999.75,3.25,2.25,3.0,0.0016987704148050398,0.002206597477197647,0.5697259604930878,0.0008815171895548701,3.917666617780924e-06,0.001056796289049089,-35.362739,149.1656478,196450.5,-2.0,0.0,-152.0
14:17:24,58581.0,RTL,0.0,0.0,-999.5,1.5,1.5,4.0,0.0013557383208535612,0.0014712234260514379,0.5697855949401855,-0.000977730262093246,-0.0012865248136222363,0.0012846817262470722,-35.362739,149.1656478,198001.0,-1.5,0.0,-152.0
14:17:26,58581.0,RTL,0.0,0.0,-1000.0,3.0,2.5,2.5,0.0016665616421960294,0.00205823197029531,0.5700707137584686,0.0005379329668357968,0.0002988541964441538,0.0007343312026932836,-35.362739,149.1656478,201108.5,-1.0,0.0,-152.0
14:17:27,82158.0,RTL,0.0,0.0,-1000.0,4.75,3.75,3.5,0.0022255511430557817,0.002472042746376246,0.5704997926950455,0.0021465468453243375,0.001357457833364606,0.0012985534267500043,-35.362739,149.1656478,202659.75,-1.25,0.0,-152.0
14:17:28,82158.0,RTL,0.0,0.0,-999.5,2.0,2.5,3.5,0.0020521796541288495,0.002545007038861513,0.570202112197876,-0.0004753214307129383,7.211323827505112e-05,0.0008767226245254278,-35.362739,149.1656478,204215.5,-2.0,0.0,-152.0
14:17:30,82158.0,RTL,0.0,0.0,-1000.0,3.0,3.5,2.5,0.0017010691808536649,0.0022085881792008877,0.5702680945396423,0.0005655747372657061,0.0007916344329714775,0.00020132283680140972,-35.362739,149.1656478,207328.5,-2.0,0.0,-152.0
14:17:31,238721.0,RTL,0.0,0.0,-1000.25,2.75,2.75,2.5,0.0018280614167451859,0.0022443319321610034,0.5701698660850525,-5.3680210839957e-05,-9.298196528106928e-05,0.00014462400577031076,-35.362739,149.1656478,208878.0,-2.0,0.0,-152.0
14:17:32,238721.0,RTL,0.0,0.0,-1000.5,3.5,2.0,1.0,0.0017181091825477779,0.00223590899258852,0.5700955390930176,0.0007949355058372021,-0.00029742345213890076,-0.0014310663100332022,-35.362739,149.1656478,210431.0,-2.0,0.0,-152.0
14:17:34,238721.0,RTL,0.0,0.0,-1000.0,4.0,3.0,2.5,0.0013738529523834586,0.001428627991117537,0.5700671970844269,0.0014101946726441383,2.5669229216873646e-05,0.00029824080411344767,-35.362739,149.1656478,213537.5,-1.0,0.0,-152.0
14:17:35,40086.0,RTL,0.0,0.0,-999.75,3.25,3.5,3.5,0.0015669185668230057,0.0019180265080649406,0.5700531899929047,0.0009224051609635353,0.0008428625296801329,0.0011323205544613302,-35.362739,149.1656478,215097.25,-1.0,0.0,-152.0
14:17:36,40086.0,RTL,0.0,0.0,-1000.0,5.5,4.0,3.0,0.0019169512670487165,0.002278171479701996,0.5702149569988251,0.002699817414395511,0.0010396504076197743,0.0008601319277659059,-35.362739,149.1656478,216652.5,-1.0,0.0,-152.0
14:17:38,40086.0,RTL,0.0,0.0,-1000.5,3.0,2.5,2.0,0.002103985520079732,0.002291576936841011,0.5700208842754364,0.0007075294852256775,-0.00018535659182816744,-0.00035752449184656143,-35.362739,149.1656478,219761.5,-2.0,0.0,-152.0
14:17:39,181862.0,RTL,0.0,0.0,-1000.0,2.5,2.75,3.25,0.002093103190418333,0.0020896404748782516,0.5698695331811905,-0.00016165460692718625,-0.0001556077040731907,0.0006501866737380624,-35.362739,149.1656478,221312.25,-2.0,0.0,-152.0
14:17:40,181862.0,RTL,0.0,0.0,-1000.0,3.5,3.0,3.0,0.001882065029349178,0.0020785892847925425,0.5698370933532715,0.0005749356932938099,6.258953362703323e-06,0.0006869988283142447,-35.362739,149.1656478,222865.5,-2.0,0.0,-152.0
14:17:42,181862.0,RTL,0.0,0.0,-999.5,2.5,3.5,4.5,0.0015378118841908872,0.0024590278044342995,0.5701781511306763,-0.00042781420052051544,0.0005989884957671165,0.0019258562242612243,-35.362739,149.1656478,225972.5,-2.0,0.0,-152.0
14:17:43,200.0,RTL,0.0,0.0,-1000.5,4.25,1.5,2.25,0.00105703977169469,0.0015618859615642577,0.5707167387008667,0.001442729204427451,-0.001399670640239492,-7.153779733926058e-05,-35.362739,149.1656478,227528.75,-1.75,0.0,-152.0
14:17:44,200.0,RTL,0.0,0.0,-1000.0,2.0,3.0,2.5,0.001516233489383012,0.0015436187968589365,0.5704342126846313,-0.0005415088962763548,-7.681746501475573e-05,-0.00011192233068868518,-35.362739,149.1656478,229081.0,-1.0,0.0,-152.0
14:17:46,200.0,RTL,0.0,0.0,-1000.0,1.5,3.5,3.5,0.001958834065590054,0.0023436551564373076,0.570383608341217,-0.0014693399425595999,0.000869341311044991,0.0006335836951620877,-35.362739,149.1656478,232188.5,-1.0,0.0,-152.0
14:17:47,200.0,RTL,0.0,0.0,-1000.0,3.5,3.0,3.25,0.002214616979472339,0.002596674719825387,0.5703442096710205,0.0008799717761576176,0.00032367772655561566,0.0006917876889929175,-35.362739,149.1656478,233739.0,-2.0,0.0,-152.0
14:17:48,200.0,RTL,0.0,0.0,-1000.0,3.5,3.5,4.0,0.0017806876567192376,0.002249531215056777,0.5702169239521027,0.0010460433550179005,0.0003460868028923869,0.0012896524276584387,-35.362739,149.1656478,235295.5,-2.0,0.0,-152.0
14:17:50,200.0,RTL,0.0,0.0,-1000.5,3.5,3.5,2.5,0.0020140390843153,0.0021429251646623015,0.5702199041843414,0.00046422798186540604,0.00029545440338552,-0.00039330217987298965,-35.362739,149.1656478,238403.5,-2.0,0.0,-152.0
14:17:51,213350.0,RTL,0.0,0.0,-1000.0,2.25,3.0,3.0,0.0021040544961579144,0.002109742956236005,0.5700708776712418,-0.0007482676883228123,0.00018321751849725842,0.00042861333349719644,-35.362739,149.1656478,239957.0,-2.0,0.0,-152.0
14:17:52,213350.0,RTL,0.0,0.0,-1000.0,3.0,2.5,3.5,0.001939109351951629,0.0023366896202787757,0.5700651109218597,-0.00013179273810237646,-0.0002358339261263609,0.001267425250262022,-35.362739,149.1656478,241510.0,-2.0,0.0,-152.0
14:17:54,213350.0,RTL,0.0,0.0,-1000.0,2.5,2.0,2.0,0.0012615082086995244,0.002059276564978063,0.569997251033783,-0.00011319364421069622,-0.0008389708818867803,-0.00024220673367381096,-35.362739,149.1656478,244615.5,-1.5,0.0,-152.0
14:17:55,268807.0,RTL,0.0,0.0,-999.5,2.75,3.25,3.25,0.0013652884517796338,0.0017109284817706794,0.5698939263820648,-5.493551725521684e-05,0.00029282027389854193,0.0005408910219557583,-35.362739,149.1656478,246173.0,-1.0,0.0,-152.0
14:17:56,268807.0,RTL,0.0,0.0,-1000.0,3.5,3.0,3.5,0.0018282746896147728,0.001952346123289317,0.5699901878833771,0.0006027310155332088,0.00012329150922596455,0.001103817776311189,-35.362739,149.1656478,247728.5,-1.0,0.0,-152.0
14:17:58,268807.0,RTL,0.0,0.0,-999.0,1.5,31.0,4.5,0.0020193811506032944,0.01935160777065903,0.5702218115329742,-0.002137231989763677,0.028248924762010574,0.0016994961770251393,-35.36273905,149.16564775,250832.5,-6.0,-2.5,-151.5
14:17:59,200.0,RTL,5.5,2.75,-997.25,-0.25,38.75,4.25,-0.0005145110408193432,0.059514304623007774,0.5708204060792923,-0.0038009981508366764,0.03588372655212879,0.0012828654726035893,-35.36274025,149.16564685,252369.25,-33.25,-18.75,-149.0
14:18:00,200.0,RTL,16.5,8.5,-992.5,-6.5,42.5,3.5,-0.008169046370312572,0.09346552193164825,0.5708634257316589,-0.01030030008405447,0.03933294862508774,0.0012584426440298557,-35.36274545,149.16564305,253863.0,-85.5,-51.0,-142.5
14:18:02,200.0,RTL,62.5,9.0,-937.0,86.5,-58.5,177.5,0.04692930541932583,0.14745134487748146,1.043448120355606,0.08324766531586647,-0.06252690218389034,0.17487119138240814,-35.36277365,149.16561769999998,255944.0,-238.5,-186.5,-40.5
14:18:03,139905.0,RTL,86.5,-2.0,-959.25,-61.75,73.5,16.75,0.08663401193916798,0.15206212922930717,1.1213589310646057,-0.06513785244897008,0.07077087927609682,0.013506941264495254,-35.362798925,149.16559654999998,256088.25,-329.25,-194.25,12.25
14:18:04,139905.0,RTL,116.5,4.5,-1013.5,54.0,30.0,5.5,0.06201443262398243,0.2082371488213539,1.108728051185608,0.049931298941373825,0.026327652391046286,0.0021183816716074944,-35.36283325,149.16557315,255844.0,-429.5,-234.5,24.0
14:18:06,139905.0,RTL,150.0,5.0,-1000.0,-67.5,-27.5,-38.0,-0.008382141124457121,0.1928744837641716,1.0214955806732178,-0.07175908610224724,-0.031158585101366043,-0.04195856861770153,-35.36292325,149.16550840000002,255641.0,-548.0,-346.0,-5.0
14:18:07,300000.0,RTL,154.0,26.0,-989.75,-10.75,-21.25,-33.25,-0.021326796151697636,0.1684638373553753,0.9830230623483658,-0.014233879279345274,-0.02539605600759387,-0.037316394969820976,-35.3629734,149.165468875,255688.75,-567.0,-371.0,-7.25
14:18:08,300000.0,RTL,153.5,28.0,-985.0,17.0,-30.0,-30.5,-0.027458956465125084,0.15121054649353027,0.9468624591827393,0.01405530923511833,-0.03365740645676851,-0.03417642042040825,-35.36302455,149.16542750000002,255735.5,-567.5,-373.0,-3.5
14:18:10,300000.0,RTL,135.5,60.5,-994.0,344.0,-66.0,18.5,-0.05050142668187618,0.07264605537056923,0.8887262046337128,0.34020911157131195,-0.06991370022296906,0.015314324758946896,-35.3631238,149.16534715,255778.5,-521.0,-335.5,-3.5
14:18:11,167485.0,RTL,120.25,27.0,-992.5,-207.25,-36.25,-31.25,-0.06891987379640341,0.026806446257978678,0.8670593649148941,-0.21068652719259262,-0.04049592185765505,-0.035030531231313944,-35.3631676,149.165312175,255779.5,-450.0,-288.75,0.0
14:18:12,167485.0,RTL,96.0,38.0,-995.5,198.5,-13.0,-7.5,-0.06306712329387665,-0.01775940670631826,0.8498384952545166,0.19523012451827526,-0.01621118187904358,-0.011401694267988205,-35.3632034,149.1652834,255748.0,-354.0,-230.5,0.5
14:18:14,167485.0,RTL,44.5,8.0,-993.5,-33.0,-7.5,-13.0,-0.05451030097901821,-0.058996764943003654,0.820923775434494,-0.0362793505191803,-0.010988404741510749,-0.016016474924981594,-35.3632497,149.1652471,255697.5,-158.5,-111.5,0.0
14:18:15,202165.0,RTL,22.0,14.5,-1001.75,207.5,26.75,-13.0,-0.040874853264540434,-0.052653443068265915,0.8076516687870026,0.2039453978650272,0.02349414420314133,-0.017108147381804883,-35.3632609,149.165238875,255693.5,-71.0,-62.5,-0.25
14:18:16,202165.0,RTL,7.0,-1.0,-999.5,-5.0,18.5,-9.5,-0.025847106240689754,-0.03564497083425522,0.7951222360134125,-0.00783047080039978,0.015527104027569294,-0.013169229961931705,-35.36326555,149.16523560000002,255698.5,-17.5,-32.5,-0.5
14:18:18,202165.0,RTL,-0.5,3.5,-997.0,70.0,9.5,1.5,-0.014370470773428679,0.0012985046778339893,0.7753546237945557,0.06757035851478577,0.005663864314556122,-0.0015526995994150639,-35.363266749999994,149.1652354,255725.0,14.0,-12.0,0.0
14:18:19,101453.0,RTL,-0.25,3.75,-1002.5,-78.0,0.5,7.25,-0.021098578814417124,-0.005609398416709155,0.7678817361593246,-0.08103716373443604,-0.003221618593670428,0.004005550290457904,-35.3632666,149.165236025,255729.0,14.25,-10.75,1.25
14:18:20,101453.0,RTL,-1.5,-3.5,-991.5,-31.0,7.0,5.0,-0.020665017887949944,-0.0037609932478517294,0.7611016035079956,-0.032971352338790894,0.0040534393629059196,0.0013484901282936335,-35.3632663,149.16523695,255730.5,21.0,-11.0,1.0
14:18:22,101453.0,RTL,-1.5,-9.0,-1002.5,-135.5,6.5,4.5,-0.011640742188319564,-0.0005147337942617014,0.7508450150489807,-0.1370934396982193,0.003128492389805615,0.0012444067979231477,-35.3632647,149.165238,255736.0,20.0,-13.0,1.0
14:18:23,22709.0,RTL,-1.0,-2.25,-973.75,-241.0,0.75,0.25,-0.010493312496691942,-0.000793709132267395,0.7462523728609085,-0.2432795912027359,-0.0032562161795794964,-0.0033734262688085437,-35.363263950000004,149.1652381,255730.25,15.25,-11.75,5.75
14:18:24,22709.0,RTL,0.0,27.5,-953.0,914.5,-0.5,-0.5,0.010606055846437812,-0.0017275878926739097,0.7411613464355469,0.9135838747024536,-0.0046495425049215555,-0.004820749280042946,-35.3632635,149.165238,255436.5,11.0,-9.0,54.5
14:18:26,22709.0,RTL,-4.0,22.5,-1050.0,1065.5,6.5,5.5,0.02318255603313446,-0.005258422344923019,0.7331561744213104,1.0652957260608673,0.002993572037667036,0.0020495366770774126,-35.36326270000001,149.1652374,253451.0,5.5,-5.5,110.5
14:18:27,146277.0,RTL,-3.0,-17.25,-987.5,384.0,3.5,-0.5,0.0337929530069232,-0.0060005588456988335,0.7291895300149918,0.38459179596975446,0.00032630201894789934,-0.004215390945319086,-35.363261725,149.16523625,252386.25,-0.5,1.0,101.25
14:18:28,146277.0,RTL,-0.5,-31.0,-1019.5,-80.0,0.5,-9.5,0.03287419117987156,-0.0035981169203296304,0.7255212366580963,-0.08011189103126526,-0.0035846640821546316,-0.014057469088584185,-35.36326095,149.16523545,251347.5,-8.5,11.0,105.0
14:18:30,146277.0,RTL,-1.5,-71.5,-979.0,-1000.5,0.5,1.5,0.02876223437488079,-0.0034172757295891643,0.7196114659309387,-1.0017056167125702,-0.002974295988678932,-0.0019012212287634611,-35.36326,149.1652344,249300.5,-18.5,19.5,99.5
14:18:31,300000.0,RTL,-1.5,-65.0,-999.75,-1304.25,3.75,2.0,0.024812892079353333,-0.0033393598278053105,0.7156983762979507,-1.3067433536052704,-0.00023991439957171679,-0.0021168728126212955,-35.363259400000004,149.16523362499998,248292.75,-24.0,26.0,97.5
14:18:32,300000.0,RTL,-1.0,-52.5,-982.0,-1382.0,4.5,-3.5,0.020033985376358032,-0.003265419160015881,0.7134750485420227,-1.385987639427185,0.0010251726489514112,-0.007854078314267099,-35.363259,149.16523305,247272.0,-29.0,32.5,100.5
14:18:34,300000.0,RTL,3.5,37.5,-925.0,365.0,6.5,-2.0,0.010546865873038769,0.002545318624470383,0.7088073194026947,0.3597225248813629,0.003186011454090476,-0.005746868555434048,-35.3632596,149.16523410000002,245197.5,-31.0,37.0,105.5
14:18:35,227826.0,RTL,2.75,64.0,-1032.75,1339.75,5.75,8.25,0.012199914548546076,0.0032836822792887688,0.7063656002283096,1.3351936638355255,0.0023915753699839115,0.004908995877485722,-35.36326065,149.16523577499999,244113.75,-23.0,25.75,99.25
14:18:36,227826.0,RTL,1.0,62.5,-1002.5,1075.0,0.5,12.0,-1.361500471830368e-05,0.002600221778266132,0.70485520362854,1.070056676864624,-0.0031664855778217316,0.008460073499009013,-35.363261449999996,149.16523695,243140.5,-14.5,14.5,100.5
14:18:38,227826.0,RTL,0.5,53.5,-1022.0,1417.0,6.0,-2.5,0.01441181218251586,0.0004572045581880957,0.7011049687862396,1.4126803278923035,0.002733538392931223,-0.0062069406267255545,-35.3632623,149.16523805,241146.0,-2.0,-0.5,97.0
14:18:39,198481.0,RTL,1.0,59.25,-1028.5,1411.25,8.25,8.5,0.00794916832819581,0.0010520179057493806,0.699308842420578,1.4069248735904694,0.0049502679612487555,0.005017101531848311,-35.363262600000006,149.16523845,240120.0,0.0,-2.75,102.0
14:18:40,198481.0,RTL,0.5,58.5,-1001.5,1381.0,5.5,7.0,0.0004969477886334062,0.00034010683884844184,0.6973019242286682,1.3768458366394043,0.0014345175586640835,0.0034282200504094362,-35.36326295,149.16523895,239105.5,2.0,-6.0,97.0
14:18:42,198481.0,RTL,1.0,48.5,-1085.0,977.5,1.5,6.0,0.003921179624740034,-0.002895317622460425,0.693546712398529,0.9740588665008545,-0.0026892542373389006,0.0024153105914592743,-35.363263149999995,149.16523895,237020.0,8.0,-12.0,102.0
14:18:43,280800.0,RTL,2.5,-3.5,-972.25,769.75,5.0,3.25,0.00784122891491279,-0.0008420712256338447,0.6934439390897751,0.7678112164139748,0.0017014608019962907,-0.00012963090557605028,-35.363263124999996,149.16523884999998,235962.0,8.75,-11.25,101.5
14:18:44,280800.0,RTL,2.0,-37.0,-1005.5,-89.5,4.5,0.5,-0.01065435993950814,-0.0002757128095254302,0.691590279340744,-0.09132230281829834,0.0009600582998245955,-0.003098959685303271,-35.36326345,149.16523940000002,234953.5,11.0,-13.5,100.0
14:18:46,280800.0,RTL,-1.0,-78.0,-954.5,-1189.5,0.0,-6.5,-0.02871923614293337,-0.002971042296849191,0.6889227628707886,-1.1911986470222473,-0.004228462930768728,-0.01079307752661407,-35.3632642,149.16524025,232912.5,19.0,-24.0,103.0
14:18:47,163852.0,RTL,-1.0,-68.25,-1004.25,-1042.0,3.0,0.5,-0.021903514862060547,-0.0041961121605709195,0.6881251633167267,-1.0437643975019455,-0.0006694491603411734,-0.002940904931165278,-35.363264050000005,149.165240025,231890.75,20.0,-24.5,101.75
14:18:48,163852.0,RTL,-1.0,-71.0,-1044.5,-1123.5,5.0,13.0,-0.022715654224157333,-0.0032864402746781707,0.6868625283241272,-1.1253458261489868,0.001456372207030654,0.009870546404272318,-35.363263700000005,149.16523955,230870.0,18.0,-21.0,103.5
14:18:50,163852.0,RTL,1.5,-57.0,-1001.5,-1384.0,-3.5,9.5,-0.04276904556900263,0.000732705018890556,0.6856653690338135,-1.3860752582550049,-0.007918628165498376,0.006117237149737775,-35.3632639,149.1652401,228827.0,16.5,-19.0,102.5
14:18:51,300000.0,RTL,0.0,-15.5,-1001.25,-848.0,0.5,1.25,-0.05035376735031605,-0.0006231209627003409,0.6852144002914429,-0.8513844907283783,-0.0035419032210484147,-0.002571157645434141,-35.363264349999994,149.16524087500002,227799.5,20.25,-24.75,101.25
14:18:52,300000.0,RTL,-1.0,-22.0,-960.0,-1216.0,0.5,-0.5,-0.0516549963504076,-0.0031339196139015257,0.6841755211353302,-1.2186744213104248,-0.0034027572255581617,-0.0043198204366490245,-35.3632645,149.16524090000001,226765.0,22.0,-28.5,109.5
14:18:54,300000.0,RTL,-2.5,28.0,-1000.5,-197.5,3.5,7.5,-0.006685582106001675,-0.006983831292018294,0.6838525533676147,-0.20054136216640472,0.0001802732003852725,0.00396155915223062,-35.36326305,149.16523834999998,224715.0,14.5,-17.0,100.0
14:18:55,164083.0,RTL,-0.25,67.5,-985.5,825.25,8.5,4.25,-0.0031776492251083255,-0.002733286819420755,0.6827312707901001,0.8225143849849701,0.005079740076325834,0.0009855643729679286,-35.363262524999996,149.16523767500001,223685.75,7.0,-5.25,99.5
14:18:56,164083.0,RTL,1.0,21.5,-1090.0,-240.5,3.5,12.0,-0.02938173431903124,-0.00030108066493994556,0.6817351579666138,-0.24291865527629852,-0.0006168857216835022,0.00891315657645464,-35.3632627,149.16523819999998,222639.5,6.0,-4.0,96.5
14:18:58,164083.0,RTL,2.5,25.5,-1080.5,60.0,-1.5,15.5,-0.027807886712253094,-0.001541350968182087,0.682024210691452,0.057848130352795124,-0.00540113786701113,0.012041273061186075,-35.36326335,149.1652392,220612.5,10.0,-11.0,94.5
14:18:59,132333.0,RTL,-1.0,51.75,-1000.0,241.5,-1.25,6.75,-0.03506680764257908,-0.003256137133575976,0.6806564033031464,0.23948934581130743,-0.0049561907653696835,0.003026443999260664,-35.363263775,149.165239675,219601.75,12.25,-14.25,97.25
14:19:00,132333.0,RTL,-1.5,66.5,-896.5,432.0,4.0,4.0,-0.019740943796932697,-0.005434627179056406,0.6800287663936615,0.4303009808063507,-0.000355549156665802,0.0004538469947874546,-35.363263700000005,149.16523935,218590.0,14.5,-17.0,102.0
14:19:02,132333.0,RTL,-1.5,63.5,-1084.5,830.5,6.5,6.0,0.007656857487745583,-0.004615760641172528,0.6793363094329834,0.8293107450008392,0.00295617594383657,0.0027494681999087334,-35.363262399999996,149.1652375,216551.5,5.0,-4.5,97.0
14:19:03,178379.0,RTL,0.0,61.5,-990.5,1361.75,6.25,2.75,0.02198473224416375,-0.0023129622277338058,0.6793702244758606,1.3617591559886932,0.00280725653283298,-0.0007362965261563659,-35.363261975,149.165236975,215536.75,0.75,1.25,99.5
14:19:04,178379.0,RTL,0.5,42.0,-1014.5,1314.5,4.5,7.0,0.017695361748337746,-0.0011823747190646827,0.6787623167037964,1.3156121373176575,0.0011054095812141895,0.003936075838282704,-35.363261949999995,149.1652371,214509.5,-0.5,2.5,99.5
14:19:06,178379.0,RTL,0.5,-37.0,-994.5,-141.5,1.0,9.0,0.005751368560595438,-0.003590312786400318,0.6787027716636658,-0.1391904652118683,-0.0033127679489552975,0.004625638481229544,-35.3632621,149.16523725000002,212473.0,0.0,0.5,99.0
14:19:07,111676.0,RTL,-0.5,-59.0,-996.0,-535.75,-3.0,-1.25,0.006349510105792433,-0.0036618761951103806,0.6782317459583282,-0.5342042595148087,-0.007203407818451524,-0.005636139423586428,-35.3632622,149.16523725,211436.5,0.0,0.5,99.75
14:19:08,111676.0,RTL,-3.5,-55.0,-955.5,-714.5,5.0,9.5,0.014591665007174015,-0.006849480792880058,0.6778743863105774,-0.7127425670623779,0.0012965603964403272,0.005908909719437361,-35.3632619,149.16523660000001,210420.0,-1.0,2.0,99.0
14:19:10,111676.0,RTL,0.5,-73.0,-979.5,-1199.5,3.0,-1.0,-0.0013434928841888905,-0.002143262536264956,0.6777361929416656,-1.1989295184612274,-0.0009205767419189215,-0.005318421288393438,-35.36326135,149.16523585,208387.5,-7.0,14.5,99.5
14:19:11,300000.0,RTL,1.75,-70.5,-1019.5,-1396.75,2.25,-3.0,-0.01264894986525178,-0.0014436383353313431,0.6775738447904587,-1.3968093395233154,-0.0014541677082888782,-0.007351976179052144,-35.36326175,149.16523652499998,207363.0,-4.5,10.0,99.75
14:19:12,300000.0,RTL,2.5,-54.5,-1007.5,-1377.0,4.5,-2.0,-0.02692318707704544,0.00023840680660214275,0.6778130829334259,-1.3774738311767578,0.0010318912100046873,-0.005827278131619096,-35.3632623,149.1652375,206355.0,-1.0,5.5,98.5
14:19:14,300000.0,RTL,2.5,27.0,-1047.5,-98.0,2.0,1.5,-0.04432591609656811,0.0008795361063675955,0.6775400638580322,-0.09940598905086517,-0.001674896338954568,-0.002559460117481649,-35.36326405,149.16524025,204311.5,12.0,-13.0,101.5
14:19:15,77357.0,RTL,-0.25,55.5,-1030.75,553.0,1.75,9.0,-0.0360552491620183,-0.0020379105408210307,0.6772911250591278,0.5516489781439304,-0.0017351387068629265,0.005366473400499672,-35.363264575,149.165240875,203286.25,19.5,-23.25,98.5
14:19:16,77357.0,RTL,-2.5,72.5,-987.5,808.0,0.5,9.5,-0.01643612002953887,-0.006818217923864722,0.676474392414093,0.807308554649353,-0.0035085348645225167,0.005953968618996441,-35.363264400000006,149.16524034999998,202268.5,20.5,-25.5,94.0
14:19:18,77357.0,RTL,-6.0,72.5,-1022.5,868.5,7.5,-2.0,0.0321752754971385,-0.010437977034598589,0.6762465238571167,0.867751270532608,0.004723367397673428,-0.006518938113003969,-35.363261800000004,149.16523615,200217.5,4.5,-2.5,93.5
14:19:19,107635.0,RTL,-5.5,74.5,-992.75,753.0,6.0,-1.0,0.04587295185774565,-0.010116713121533394,0.676322340965271,0.7515646666288376,0.002447626320645213,-0.0052567278034985065,-35.3632602,149.16523362499998,199199.5,-10.5,17.5,98.75
14:19:20,107635.0,RTL,-4.0,77.5,-991.0,1252.5,-2.0,7.5,0.059816546738147736,-0.00835288455709815,0.677274078130722,1.2506585121154785,-0.005919347982853651,0.003724701702594757,-35.36325895,149.16523185,198175.5,-24.0,35.5,100.0
14:19:22,107635.0,RTL,1.0,57.0,-975.0,1559.5,2.0,2.0,0.056079136207699776,-0.0015523609472438693,0.6776176393032074,1.5583046078681946,-0.0010831559193320572,-0.0013502889778465033,-35.363258349999995,149.16523139999998,196149.5,-38.5,54.5,101.5
14:19:23,125845.0,RTL,2.0,33.75,-1010.25,1319.25,2.5,5.25,0.04900575801730156,-0.0005692008016922045,0.6775912046432495,1.3183172941207886,-0.0012358619133010507,0.0018262238008901477,-35.363258825,149.16523225,195127.0,-36.25,49.75,100.75
14:19:24,125845.0,RTL,4.5,3.5,-955.5,1015.0,2.0,-4.0,0.04879596270620823,-0.0005177066486794502,0.6774575710296631,1.0144436061382294,-0.001332316198386252,-0.00864133145660162,-35.363259299999996,149.16523305,194110.5,-32.5,44.0,96.0
14:19:26,125845.0,RTL,-0.5,-5.5,-988.5,763.0,4.0,6.5,0.0390497911721468,-0.00282753084320575,0.6771573722362518,0.7622312009334564,0.0006714584305882454,0.003129119286313653,-35.3632602,149.16523425,192062.5,-22.5,30.5,98.5
14:19:27,246221.0,RTL,2.25,-44.75,-978.75,-23.75,5.5,3.75,0.032238216139376163,-0.0019960612116847187,0.6763295084238052,-0.02582496264949441,0.0019840343738906085,-5.27267693541944e-05,-35.3632604,149.16523444999999,191046.25,-20.5,28.5,100.25
14:19:28,246221.0,RTL,3.0,-59.0,-1053.0,-622.5,0.5,-1.0,0.015594591852277517,-0.0010150171001441777,0.6765261292457581,-0.6249707490205765,-0.0028930585249327123,-0.005588350351899862,-35.363260749999995,149.16523510000002,190013.5,-17.0,24.5,97.0
14:19:30,246221.0,RTL,0.0,-79.0,-911.0,-1186.5,2.0,3.5,0.0014069912722334266,-0.0025700273690745234,0.6763533055782318,-1.1892116069793701,-0.001032702624797821,-0.00024214398581534624,-35.3632614,149.16523604999998,187993.5,-10.5,14.0,99.0
14:19:31,300000.0,RTL,-0.25,-68.0,-984.75,-1434.25,3.0,4.5,0.002728625606323476,-0.0036152885877527297,0.676536813378334,-1.4384112358093262,3.553688293322921e-05,0.0009575501899234951,-35.363261275,149.1652358,186975.0,-9.25,13.25,100.5
14:19:32,300000.0,RTL,0.5,-27.5,-1025.0,-1189.0,6.5,0.0,-0.006552340055350214,-0.0019766234909184277,0.6767865121364594,-1.1946004033088684,0.0037452189717441797,-0.003691761172376573,-35.363261249999994,149.1652358,185951.5,-10.0,15.5,97.0
14:19:34,300000.0,RTL,2.0,12.5,-954.0,-480.5,2.0,7.5,-0.025423320941627026,0.0011145650350954384,0.6765891313552856,-0.4878414273262024,-0.0014091392513364553,0.004027224262244999,-35.36326205,149.16523745,183896.0,-5.0,8.0,99.0
14:19:35,300000.0,RTL,1.75,44.75,-1006.0,174.75,3.5,-1.0,-0.02775815688073635,0.0012966811736987438,0.6759546250104904,0.1690364609239623,-1.9936123862862587e-05,-0.0049774860963225365,-35.3632628,149.165238625,182870.75,0.0,0.0,98.25
14:19:36,300000.0,RTL,0.0,71.5,-953.0,793.5,0.0,7.5,-0.01758298883214593,-0.0009633965964894742,0.677116721868515,0.7874431908130646,-0.0035959549713879824,0.0042482506250962615,-35.3632632,149.16523915,181850.5,5.0,-8.0,99.5
14:19:38,300000.0,RTL,0.5,25.0,-975.5,1225.5,4.0,5.5,0.0028070913394913077,-0.001187081856187433,0.6764421761035919,1.222731590270996,0.0006255358457565308,0.00208529201336205,-35.363263599999996,149.16523955,179831.5,11.0,-14.0,101.0
14:19:39,188382.0,RTL,-0.25,-26.25,-981.25,189.75,3.75,3.0,-0.009995883621741086,-0.0017302042688243091,0.6762129366397858,0.18755192682147026,0.0006703007966279984,-0.0006383628351613879,-35.363263775,149.165239825,178816.5,14.25,-17.5,101.5
14:19:40,188382.0,RTL,-0.5,-63.5,-1026.5,-835.0,-2.0,7.5,-0.016189714893698692,-0.003059008624404669,0.6757451891899109,-0.8370663523674011,-0.0050680679269135,0.003837917698547244,-35.363263700000005,149.16523965,177788.0,15.5,-19.5,98.5
14:19:42,188382.0,RTL,0.0,-62.5,-961.5,-1213.0,3.5,-0.5,-0.012741783633828163,-0.004035285906866193,0.6760956048965454,-1.2153092324733734,0.0007360987365245819,-0.0044495100155472755,-35.36326305,149.1652386,175739.5,11.5,-13.5,95.5
14:19:43,76025.0,RTL,0.5,-73.25,-1006.75,-1340.5,3.0,-1.0,-0.01563848659861833,-0.0033030229969881475,0.6763273477554321,-1.343274176120758,3.466918133199215e-05,-0.005024333018809557,-35.363262875,149.16523825000002,174715.75,8.5,-8.5,98.5
14:19:44,76025.0,RTL,0.5,-55.5,-976.5,-1406.0,5.0,2.0,-0.029189562425017357,-0.0014412287273444235,0.6763652563095093,-1.4093171954154968,0.0023276451975107193,-0.0019289939664304256,-35.363262950000006,149.1652384,173698.0,8.0,-7.5,100.0
14:19:46,76025.0,RTL,1.0,-49.5,-1016.0,-1312.0,5.5,4.0,-0.039153750985860825,-0.00190031313104555,0.6761688590049744,-1.314982295036316,0.002427061554044485,0.0003652807790786028,-35.36326365,149.16523945,171670.0,14.0,-15.0,100.0
14:19:47,300000.0,RTL,1.0,-7.25,-982.25,-890.25,5.0,4.0,-0.03894033841788769,-0.0031916291336528957,0.6768528968095779,-0.8946407735347748,0.0021478356793522835,0.0003650789149105549,-35.363263849999996,149.165239675,170663.0,15.75,-17.25,101.75
14:19:48,300000.0,RTL,-2.0,9.0,-1021.0,-524.5,2.5,3.5,-0.03869926370680332,-0.003487018053419888,0.6765880286693573,-0.5291987359523773,-0.0004962327657267451,-0.0006494101835414767,-35.3632641,149.16523990000002,169643.0,17.0,-17.5,104.5
14:19:50,300000.0,RTL,-2.0,68.0,-1026.5,821.0,3.5,3.5,-0.00819653389044106,-0.006250215228646994,0.6759741008281708,0.8181556761264801,0.000252970727160573,0.00014609459321945906,-35.36326385,149.16523925,167616.0,18.5,-18.5,104.0
14:19:51,7207.0,RTL,0.0,62.75,-979.75,644.0,-0.5,8.75,-0.006817438086727634,-0.004568153992295265,0.6773139983415604,0.6407515183091164,-0.003285178856458515,0.005654747248627245,-35.363263375,149.165238625,166595.75,14.25,-12.25,104.75
14:19:52,7207.0,RTL,0.0,68.0,-1010.5,1022.0,3.0,3.0,-0.00798020459478721,-0.0030287158442661166,0.6761909425258636,1.0191029608249664,6.211153231561184e-05,-0.00026698538567870855,-35.36326325,149.1652386,165576.0,11.5,-9.0,100.0
14:19:54,7207.0,RTL,1.0,2.0,-989.5,723.5,4.5,2.5,0.00862263492308557,-0.002799836336635053,0.6767032146453857,0.7242189794778824,0.0013053120346739888,-0.0016169757582247257,-35.3632631,149.1652385,163528.5,9.5,-8.5,104.5
14:19:55,59348.0,RTL,0.75,0.25,-997.25,776.0,2.5,7.25,0.002997646683070343,-0.0026149668847210705,0.6762150824069977,0.7770788744091988,-0.0005789235001429915,0.004132029076572508,-35.3632631,149.1652385,162505.25,10.0,-9.0,102.75
14:19:56,59348.0,RTL,0.5,-31.0,-1008.0,265.0,-2.5,1.5,0.0007704733870923519,-0.0026178801199421287,0.6761736273765564,0.26593101397156715,-0.005752261495217681,-0.0016978841740638018,-35.363263149999995,149.1652386,161482.0,10.0,-9.5,103.0
14:19:58,59348.0,RTL,-3.0,-53.0,-1015.5,-707.5,-0.5,6.0,-0.00021666416432708502,-0.006292147329077125,0.6760199069976807,-0.7067665457725525,-0.0042668061796575785,0.0031600656220689416,-35.363262750000004,149.1652379,159445.0,8.5,-9.0,102.0
14:19:59,273756.0,RTL,-1.5,-58.75,-971.0,-1469.5,4.75,-5.5,-0.0032869265996851027,-0.0064984242198988795,0.6753585934638977,-1.4705815315246582,0.0019168355502188206,-0.009674851316958666,-35.363262025000004,149.16523669999998,158421.5,3.75,-1.75,103.0
14:20:00,273756.0,RTL,1.0,-28.0,-1026.5,-1090.0,6.5,2.5,-0.010556426481343806,-0.0017312957934336737,0.6762354969978333,-1.0921268165111542,0.0035365878138691187,-0.0014598490670323372,-35.36326175,149.16523645,157394.0,-0.5,5.5,101.5
14:20:02,273756.0,RTL,1.0,25.5,-1048.0,-168.5,0.5,2.0,-0.029394003562629223,0.0009019360004458576,0.6761881113052368,-0.17121267691254616,-0.0018661340000107884,-0.0014487271546386182,-35.36326285,149.1652387,155342.0,3.0,-3.0,96.0
14:20:03,190370.0,RTL,1.0,49.75,-1005.25,347.75,-0.75,6.25,-0.02423996478319168,-0.0016854204441187903,0.676432341337204,0.345718614757061,-0.004100646765436977,0.0029120781109668314,-35.363263275,149.165239125,154327.75,7.25,-9.25,101.75
14:20:04,190370.0,RTL,-0.5,68.5,-1008.5,1178.5,6.0,5.0,-0.003557857096893713,-0.003928344929590821,0.6761220693588257,1.1768484711647034,0.0033173589035868645,0.001518741250038147,-35.36326335,149.16523895,153303.0,9.5,-12.0,98.5
14:20:06,190370.0,RTL,0.0,81.5,-894.5,1565.5,7.0,10.5,0.004971175221726298,-0.0031296670204028487,0.6762859225273132,1.5649139285087585,0.005072108935564756,0.007410053629428148,-35.3632632,149.1652386,151255.5,8.5,-7.5,100.5
14:20:07,300000.0,RTL,-0.75,64.5,-1021.0,1386.25,3.75,6.5,0.006004890106851235,-0.0034352015936747193,0.6771435886621475,1.385546326637268,0.0010117542115040123,0.0031454049167223275,-35.363263075,149.1652385,150227.75,8.0,-7.75,97.75
14:20:08,300000.0,RTL,-0.5,67.0,-1005.5,1522.0,5.0,10.5,0.011805040296167135,-0.004033449338749051,0.6758690774440765,1.5218531489372253,0.0028743853326886892,0.007371062529273331,-35.3632629,149.16523819999998,149205.0,6.5,-5.5,100.5
14:20:10,300000.0,RTL,-1.0,12.0,-1055.0,829.0,5.0,8.0,0.02086931373924017,-0.005650227190926671,0.6767522096633911,0.8305914402008057,0.0021520532900467515,0.004843674716539681,-35.36326235,149.16523715,147172.5,3.0,-0.5,97.0
14:20:11,118206.0,RTL,-0.25,-44.75,-968.25,-298.0,3.0,3.25,0.01432783913332969,-0.005929569015279412,0.6760223805904388,-0.2965198313613655,0.000647414184641093,-0.0006106226937845349,-35.363262025,149.16523655,146154.75,0.75,2.25,100.0
14:20:12,118206.0,RTL,-1.0,-56.0,-981.0,-1278.0,5.0,4.0,-0.0012171659618616104,-0.005020288284868002,0.6757301092147827,-1.2779555320739746,0.0021762889809906483,0.0001869318075478077,-35.363261550000004,149.16523595,145131.5,-1.5,7.5,99.0
14:20:14,118206.0,RTL,0.0,49.5,-995.0,373.5,8.0,-3.5,0.0021000432316213846,-0.0025804780307225883,0.6766756176948547,0.3717993749305606,0.005576029419898987,-0.007181771099567413,-35.3632614,149.1652359,143080.5,-7.0,14.0,96.0
14:20:15,223543.0,RTL,1.0,56.5,-990.75,690.75,8.5,8.25,0.0031883735791780055,-0.001213006130683425,0.6770680397748947,0.6890493929386139,0.006128602311946452,0.004897960228845477,-35.363261575,149.165236325,142069.25,-6.5,12.75,98.75
14:20:16,223543.0,RTL,3.0,46.5,-1030.5,1302.5,0.5,3.0,0.011361219454556704,0.0007879490440245718,0.6769445836544037,1.3030833005905151,-0.0024643801152706146,-9.260955266654491e-06,-35.3632621,149.1652373,141053.5,-3.0,7.0,99.0
14:20:18,223543.0,RTL,0.5,-24.0,-962.5,431.5,2.5,-1.0,-0.004176530041149817,-0.002246671065222472,0.6767427921295166,0.43319351598620415,8.936005178838968e-05,-0.0041676192777231336,-35.36326325,149.1652388,139025.5,7.5,-7.0,104.0
14:20:19,200.0,RTL,0.25,-66.5,-981.5,-770.0,2.5,-4.0,-0.017815558705478907,-0.0016456115699838847,0.6773137152194977,-0.7684421017765999,0.00016239075921475887,-0.007379283488262445,-35.3632636,149.16523924999998,138015.75,12.0,-12.25,101.5
14:20:20,200.0,RTL,2.0,-68.0,-1019.0,-907.0,-3.0,-5.5,-0.02687395177781582,-0.0012714638141915202,0.6763621866703033,-0.9055700898170471,-0.006191478110849857,-0.009394628927111626,-35.363263950000004,149.16523985,136998.5,16.0,-17.0,105.5
14:20:22,200.0,RTL,-3.5,-23.5,-1043.5,-1099.0,-5.0,2.5,-0.034346217289566994,-0.005902948789298534,0.6754512190818787,-1.0994489192962646,-0.00820838287472725,-0.0012094189878553152,-35.363264099999995,149.16523990000002,134961.5,19.0,-22.5,103.0
14:20:23,200.0,RTL,-3.0,-26.0,-1026.5,-1244.75,3.0,6.5,-0.015612690840498544,-0.008327055489644408,0.6764539033174515,-1.2446957230567932,0.000580077467020601,0.003290105552878231,-35.3632632,149.16523840000002,133938.75,15.5,-17.5,103.75
14:20:24,200.0,RTL,-3.0,44.5,-913.5,-159.5,5.5,0.5,0.004807817051187158,-0.008082523010671139,0.6765206754207611,-0.16058004274964333,0.003728317911736667,-0.003282139077782631,-35.363262000000006,149.16523645,132930.0,4.0,-2.5,105.5
14:20:26,200.0,RTL,-0.5,54.5,-1020.0,433.5,7.5,4.5,0.006403948355000466,-0.0026789758121594787,0.6766577363014221,0.4326444938778877,0.004951664595864713,0.0011484962888062,-35.36326115,149.16523560000002,130893.5,-8.5,16.0,101.5
14:20:27,233837.0,RTL,-0.5,66.5,-977.5,650.5,3.75,2.75,0.005844981733389432,-0.0009648678314988501,0.676496759057045,0.6492861956357956,0.0014032223261892796,-0.00038080511149019003,-35.36326125,149.165235925,129876.5,-8.75,14.75,103.75
