time_stamp,MODE,lat,lon,relative_alt,roll,pitch,yaw,rollspeed,pitchspeed,yawspeed,xacc,yacc,zacc,xgyro,ygyro,zgyro,vx,vy,vz,chan4_raw,RTL_ALT
16:53:04.734,STABILIZE,-35.3632622,149.1652375,0,-9.016035619424656e-05,0.0014261790784075856,0.026700645685195923,0.0002184904005844146,0.00033070481731556356,0.0021627205424010754,0,1,-1000,0,0,0,-2,2,0,1500,1500.0
16:53:04.937,STABILIZE,-35.3632622,149.1652375,0,-9.016035619424656e-05,0.0014261790784075856,0.026700645685195923,0.0002184904005844146,0.00033070481731556356,0.0021627205424010754,0,1,-1000,0,0,0,-2,2,0,1500,1500.0
16:53:05.138,STABILIZE,-35.3632622,149.1652375,0,-9.016035619424656e-05,0.0014261790784075856,0.026700645685195923,0.0002184904005844146,0.00033070481731556356,0.0021627205424010754,0,1,-1000,0,0,0,-2,2,0,1500,1500.0
16:53:05.338,STABILIZE,-35.3632622,149.1652375,0,-9.016035619424656e-05,0.0014261790784075856,0.026700645685195923,0.0002184904005844146,0.00033070481731556356,0.0021627205424010754,0,1,-1000,0,0,0,-2,2,0,1500,1500.0
16:53:05.539,STABILIZE,-35.3632622,149.1652375,0,-9.016035619424656e-05,0.0014261790784075856,0.026700645685195923,0.0002184904005844146,0.00033070481731556356,0.0021627205424010754,0,1,-1000,0,0,0,-2,2,0,1500,1500.0
16:53:05.740,STABILIZE,-35.3632622,149.1652375,0,-9.016035619424656e-05,0.0014261790784075856,0.026700645685195923,0.0002184904005844146,0.00033070481731556356,0.0021627205424010754,0,2,-1000,0,0,0,-2,2,0,1500,1500.0
16:53:05.941,STABILIZE,-35.3632622,149.1652375,0,-9.016035619424656e-05,0.0014261790784075856,0.026700645685195923,0.0002184904005844146,0.00033070481731556356,0.0021627205424010754,0,2,-1000,0,0,0,-1,1,0,1500,1500.0
16:53:06.142,STABILIZE,-35.3632622,149.1652375,0,-9.016035619424656e-05,0.0014261790784075856,0.026700645685195923,0.0002184904005844146,0.00033070481731556356,0.0021627205424010754,0,1,-1000,0,0,1,-1,1,0,1500,1500.0
16:53:06.343,STABILIZE,-35.3632622,149.1652375,0,-0.0006637378828600049,0.0011032797629013658,0.025775345042347908,0.00016382639296352863,0.0002888361341319978,0.0021086563356220722,0,1,-1000,0,0,1,-1,1,0,1500,1500.0
16:53:06.543,STABILIZE,-35.3632622,149.1652375,0,-0.0006637378828600049,0.0011032797629013658,0.025775345042347908,0.00016382639296352863,0.0002888361341319978,0.0021086563356220722,0,1,-1000,0,0,1,-1,1,0,1500,1500.0
16:53:06.744,STABILIZE,-35.3632622,149.1652375,0,-0.0006637378828600049,0.0011032797629013658,0.025775345042347908,0.00016382639296352863,0.0002888361341319978,0.0021086563356220722,0,1,-1000,0,0,1,-1,1,0,1500,1500.0
16:53:06.946,STABILIZE,-35.3632622,149.1652375,0,-0.0006637378828600049,0.0011032797629013658,0.025775345042347908,0.00016382639296352863,0.0002888361341319978,0.0021086563356220722,0,1,-1000,0,0,1,-1,1,0,1500,1500.0
16:53:07.147,STABILIZE,-35.3632622,149.1652375,0,-0.0006637378828600049,0.0011032797629013658,0.025775345042347908,0.00016382639296352863,0.0002888361341319978,0.0021086563356220722,0,1,-1000,0,0,1,-1,1,0,1500,1500.0
16:53:07.349,STABILIZE,-35.3632622,149.1652375,0,-0.0006637378828600049,0.0011032797629013658,0.025775345042347908,0.00016382639296352863,0.0002888361341319978,0.0021086563356220722,0,1,-1000,0,0,1,-1,1,0,1500,1500.0
16:53:07.553,STABILIZE,-35.3632622,149.1652375,0,-0.0006637378828600049,0.0011032797629013658,0.025775345042347908,0.00016382639296352863,0.0002888361341319978,0.0021086563356220722,0,1,-1000,0,0,1,-1,1,0,1500,1500.0
16:53:07.755,STABILIZE,-35.3632621,149.1652375,0,-0.0006395686650648713,0.0009870572248473763,0.025231657549738884,0.00028570060385391116,0.0002871222677640617,0.0018641948699951172,0,1,-1000,0,0,1,-1,2,1,1500,1500.0
16:53:07.956,STABILIZE,-35.3632621,149.1652375,0,-0.0007116356282494962,0.0009837273973971605,0.025121992453932762,0.00024395325453951955,0.0002574709360487759,0.0018449595663696527,0,1,-1000,0,1,0,-1,2,1,1500,1500.0
16:53:08.158,STABILIZE,-35.3632621,149.1652375,0,-0.0007717212429270148,0.0009776502847671509,0.025025544688105583,0.00016949279233813286,0.0003596422611735761,0.001916037406772375,0,1,-1000,0,1,0,-1,1,1,1500,1500.0
16:53:08.359,STABILIZE,-35.3632621,149.1652375,0,-0.0008253970881924033,0.0009585593361407518,0.0249312911182642,0.00023906701244413853,0.00023441211669705808,0.0017386479303240776,0,1,-1000,0,1,0,-1,1,1,1500,1500.0
16:53:08.560,STABILIZE,-35.3632621,149.1652375,0,-0.0008788776467554271,0.0009486250346526504,0.024848511442542076,0.0001932758023031056,0.0002659268502611667,0.00205822242423892,0,1,-1000,0,0,0,-1,1,1,1500,1500.0
16:53:08.761,STABILIZE,-35.3632621,149.1652375,0,-0.0008788776467554271,0.0009486250346526504,0.024848511442542076,0.0001932758023031056,0.0002659268502611667,0.00205822242423892,0,1,-1000,0,0,0,-1,1,1,1500,1500.0
16:53:08.962,STABILIZE,-35.3632621,149.1652375,0,-0.0008788776467554271,0.0009486250346526504,0.024848511442542076,0.0001932758023031056,0.0002659268502611667,0.00205822242423892,0,1,-1000,0,0,0,-1,1,1,1500,1500.0
16:53:09.163,STABILIZE,-35.3632621,149.1652375,0,-0.0008788776467554271,0.0009486250346526504,0.024848511442542076,0.0001932758023031056,0.0002659268502611667,0.00205822242423892,0,1,-1000,0,0,0,-1,1,1,1500,1500.0
16:53:09.365,STABILIZE,-35.3632621,149.1652375,0,-0.0008788776467554271,0.0009486250346526504,0.024848511442542076,0.0001932758023031056,0.0002659268502611667,0.00205822242423892,0,1,-1000,0,0,0,-1,1,1,1500,1500.0
16:53:09.568,STABILIZE,-35.3632621,149.1652375,0,-0.0008788776467554271,0.0009486250346526504,0.024848511442542076,0.0001932758023031056,0.0002659268502611667,0.00205822242423892,0,1,-1000,0,0,0,-1,1,1,1500,1500.0
16:53:09.769,STABILIZE,-35.3632621,149.1652375,0,-0.0008788776467554271,0.0009486250346526504,0.024848511442542076,0.0001932758023031056,0.0002659268502611667,0.00205822242423892,0,2,-1000,1,0,0,-1,1,1,1500,1500.0
16:53:09.970,STABILIZE,-35.3632621,149.1652375,0,-0.001071643317118287,0.0009259255020879209,0.02442541904747486,0.00020835670875385404,0.00020165153546258807,0.0018991853576153517,0,1,-1000,0,0,0,-1,1,0,1500,1500.0
16:53:10.171,STABILIZE,-35.3632621,149.1652375,0,-0.001071643317118287,0.0009259255020879209,0.02442541904747486,0.00020835670875385404,0.00020165153546258807,0.0018991853576153517,0,1,-1000,0,0,0,-1,1,0,1500,1500.0
16:53:10.372,STABILIZE,-35.3632621,149.1652375,0,-0.001071643317118287,0.0009259255020879209,0.02442541904747486,0.00020835670875385404,0.00020165153546258807,0.0018991853576153517,0,1,-1000,0,0,1,-1,1,0,1500,1500.0
16:53:10.573,STABILIZE,-35.3632621,149.1652375,0,-0.0011323862709105015,0.000923669955227524,0.02419363334774971,0.00013696885434910655,0.000256039435043931,0.0018777160439640284,0,1,-1000,0,0,1,-1,1,0,1500,1500.0
16:53:11.300,STABILIZE,-35.3632621,149.1652375,0,-0.0011323862709105015,0.000923669955227524,0.02419363334774971,0.00013696885434910655,0.000256039435043931,0.0018777160439640284,0,1,-1000,0,0,1,-1,1,0,1500,1500.0
16:53:11.501,STABILIZE,-35.3632621,149.1652375,0,-0.0011323862709105015,0.000923669955227524,0.02419363334774971,0.00013696885434910655,0.000256039435043931,0.0018777160439640284,0,1,-1000,0,0,1,-1,1,0,1500,1500.0
16:53:11.702,STABILIZE,-35.3632621,149.1652375,0,-0.0011323862709105015,0.000923669955227524,0.02419363334774971,0.00013696885434910655,0.000256039435043931,0.0018777160439640284,0,1,-1000,0,0,1,-1,1,0,1500,1500.0
16:53:11.906,STABILIZE,-35.3632621,149.1652375,0,-0.0011323862709105015,0.000923669955227524,0.02419363334774971,0.00013696885434910655,0.000256039435043931,0.0018777160439640284,0,1,-1000,0,0,1,-1,1,0,1500,1500.0
16:53:12.107,STABILIZE,-35.3632621,149.1652375,0,-0.0011323862709105015,0.000923669955227524,0.02419363334774971,0.00013696885434910655,0.000256039435043931,0.0018777160439640284,0,1,-1000,0,0,1,-1,1,0,1500,1500.0
16:53:12.310,STABILIZE,-35.3632621,149.1652375,0,-0.0011457095388323069,0.0009276659111492336,0.023897957056760788,0.0002443001721985638,0.0001752331736497581,0.001622554613277316,0,2,-1000,0,0,0,-1,1,0,1500,1500.0
16:53:12.511,STABILIZE,-35.3632621,149.1652375,0,-0.0011457095388323069,0.0009276659111492336,0.023897957056760788,0.0002443001721985638,0.0001752331736497581,0.001622554613277316,0,2,-1000,0,0,0,-1,1,0,1500,1500.0
16:53:12.712,STABILIZE,-35.3632621,149.1652375,0,-0.0011457095388323069,0.0009276659111492336,0.023897957056760788,0.0002443001721985638,0.0001752331736497581,0.001622554613277316,0,1,-1000,0,0,0,-1,0,0,1500,1500.0
16:53:12.913,STABILIZE,-35.3632621,149.1652375,0,-0.0011289523681625724,0.0009365673176944256,0.02370348572731018,0.00032084312988445163,0.0003908984363079071,0.0017953687347471714,0,1,-1000,0,0,0,-1,0,0,1500,1500.0
16:53:13.114,STABILIZE,-35.3632621,149.1652375,0,-0.0011289523681625724,0.0009365673176944256,0.02370348572731018,0.00032084312988445163,0.0003908984363079071,0.0017953687347471714,0,1,-1000,0,0,0,-1,0,0,1500,1500.0
16:53:13.315,STABILIZE,-35.3632621,149.1652375,0,-0.0011289523681625724,0.0009365673176944256,0.02370348572731018,0.00032084312988445163,0.0003908984363079071,0.0017953687347471714,0,1,-1000,0,0,0,-1,0,0,1500,1500.0
16:53:13.516,STABILIZE,-35.3632621,149.1652375,0,-0.0011289523681625724,0.0009365673176944256,0.02370348572731018,0.00032084312988445163,0.0003908984363079071,0.0017953687347471714,0,1,-1000,0,0,0,-1,0,0,1500,1500.0
16:53:13.718,STABILIZE,-35.3632621,149.1652375,0,-0.0011289523681625724,0.0009365673176944256,0.02370348572731018,0.00032084312988445163,0.0003908984363079071,0.0017953687347471714,0,1,-1000,0,0,0,-1,0,0,1500,1500.0
16:53:13.919,STABILIZE,-35.3632621,149.1652375,0,-0.0011289523681625724,0.0009365673176944256,0.02370348572731018,0.00032084312988445163,0.0003908984363079071,0.0017953687347471714,0,1,-1000,0,0,0,-1,0,0,1500,1500.0
16:53:14.121,STABILIZE,-35.3632621,149.1652375,0,-0.0011289523681625724,0.0009365673176944256,0.02370348572731018,0.00032084312988445163,0.0003908984363079071,0.0017953687347471714,0,1,-1000,0,0,0,-1,0,0,1500,1500.0
16:53:14.323,STABILIZE,-35.3632622,149.1652375,0,-0.0011236000573262572,0.0009599936893209815,0.023316385224461555,0.00036496639950200915,0.00024138280423358083,0.001687206793576479,0,1,-1000,0,0,0,-1,1,0,1500,1500.0
16:53:14.524,STABILIZE,-35.3632622,149.1652375,0,-0.0011236000573262572,0.0009599936893209815,0.023316385224461555,0.00036496639950200915,0.00024138280423358083,0.001687206793576479,0,1,-1000,0,0,0,-1,1,0,1500,1500.0
16:53:14.726,STABILIZE,-35.3632622,149.1652375,0,-0.0011236000573262572,0.0009599936893209815,0.023316385224461555,0.00036496639950200915,0.00024138280423358083,0.001687206793576479,0,5,-994,0,0,0,-1,1,0,1500,1500.0
16:53:14.927,STABILIZE,-35.3632622,149.1652375,0,-0.0011236000573262572,0.0009599936893209815,0.023316385224461555,0.00036496639950200915,0.00024138280423358083,0.001687206793576479,0,1,-1000,0,1,0,-1,2,1,1500,1500.0
16:53:15.128,STABILIZE,-35.3632622,149.1652375,0,-0.0011236000573262572,0.0009599936893209815,0.023316385224461555,0.00036496639950200915,0.00024138280423358083,0.001687206793576479,0,1,-1000,1,0,0,-1,2,1,1500,1500.0
16:53:15.330,STABILIZE,-35.3632622,149.1652375,0,-0.0011236000573262572,0.0009599936893209815,0.023316385224461555,0.00036496639950200915,0.00024138280423358083,0.001687206793576479,0,1,-1000,1,0,0,-1,1,1,1500,1500.0
16:53:15.531,STABILIZE,-35.3632622,149.1652375,0,-0.0011236000573262572,0.0009599936893209815,0.023316385224461555,0.00036496639950200915,0.00024138280423358083,0.001687206793576479,0,1,-1000,1,0,1,-1,1,1,1500,1500.0
16:53:15.732,STABILIZE,-35.3632622,149.1652375,0,-0.0011236000573262572,0.0009599936893209815,0.023316385224461555,0.00036496639950200915,0.00024138280423358083,0.001687206793576479,0,1,-1000,1,0,1,-1,1,1,1500,1500.0
16:53:15.934,STABILIZE,-35.3632622,149.1652375,0,-0.0011236000573262572,0.0009599936893209815,0.023316385224461555,0.00036496639950200915,0.00024138280423358083,0.001687206793576479,0,1,-1000,1,0,1,-1,1,1,1500,1500.0
16:53:16.136,STABILIZE,-35.3632622,149.1652375,0,-0.0011236000573262572,0.0009599936893209815,0.023316385224461555,0.00036496639950200915,0.00024138280423358083,0.001687206793576479,0,1,-1000,1,0,1,-1,1,1,1500,1500.0
16:53:16.337,STABILIZE,-35.3632622,149.1652375,0,-0.0011236000573262572,0.0009599936893209815,0.023316385224461555,0.00036496639950200915,0.00024138280423358083,0.001687206793576479,0,1,-1000,1,0,1,-1,1,1,1500,1500.0
16:53:16.540,STABILIZE,-35.3632622,149.1652375,0,-0.0011014587944373488,0.0009653946617618203,0.022891448810696602,0.00026368751423433423,0.00025977310724556446,0.0016895929584279656,0,1,-1000,1,0,0,-1,1,0,1500,1500.0
16:53:16.741,STABILIZE,-35.3632622,149.1652375,0,-0.0011259434977546334,0.0009651367436163127,0.022769881412386894,0.0002598492428660393,0.0002432983019389212,0.0017808243865147233,0,1,-1000,0,0,0,-1,1,0,1500,1500.0
16:53:16.942,STABILIZE,-35.3632622,149.1652375,0,-0.0011435606284067035,0.0009637520997785032,0.0227104052901268,0.0003159287152811885,0.00024223432410508394,0.0016563273966312408,0,1,-1000,0,0,0,-1,1,0,1500,1500.0
16:53:17.143,STABILIZE,-35.3632622,149.1652375,0,-0.0011435606284067035,0.0009637520997785032,0.0227104052901268,0.0003159287152811885,0.00024223432410508394,0.0016563273966312408,0,1,-1000,0,0,0,-1,1,0,1500,1500.0
16:53:17.344,STABILIZE,-35.3632622,149.1652375,0,-0.0011435606284067035,0.0009637520997785032,0.0227104052901268,0.0003159287152811885,0.00024223432410508394,0.0016563273966312408,0,1,-1000,0,0,0,-1,1,0,1500,1500.0
16:53:17.545,STABILIZE,-35.3632622,149.1652375,0,-0.0011435606284067035,0.0009637520997785032,0.0227104052901268,0.0003159287152811885,0.00024223432410508394,0.0016563273966312408,0,1,-1000,0,0,0,-1,1,0,1500,1500.0
16:53:17.746,STABILIZE,-35.3632622,149.1652375,0,-0.0011435606284067035,0.0009637520997785032,0.0227104052901268,0.0003159287152811885,0.00024223432410508394,0.0016563273966312408,0,1,-1000,0,0,0,-1,1,0,1500,1500.0
16:53:17.948,STABILIZE,-35.3632622,149.1652375,0,-0.0011435606284067035,0.0009637520997785032,0.0227104052901268,0.0003159287152811885,0.00024223432410508394,0.0016563273966312408,0,1,-1000,0,0,0,-1,1,0,1500,1500.0
16:53:18.151,STABILIZE,-35.3632622,149.1652375,0,-0.0011435606284067035,0.0009637520997785032,0.0227104052901268,0.0003159287152811885,0.00024223432410508394,0.0016563273966312408,0,1,-1000,0,0,0,-1,1,0,1500,1500.0
16:53:18.352,STABILIZE,-35.3632622,149.1652375,0,-0.0009007051703520119,0.0009948431979864836,0.02238158881664276,0.00013740849681198597,0.0003751956392079592,0.0014553574146702886,0,1,-1000,1,0,1,-1,3,2,1500,1500.0
16:53:18.553,STABILIZE,-35.3632622,149.1652375,0,-0.0009007051703520119,0.0009948431979864836,0.02238158881664276,0.00013740849681198597,0.0003751956392079592,0.0014553574146702886,0,1,-1000,1,0,1,-1,3,2,1500,1500.0
16:53:18.754,STABILIZE,-35.3632622,149.1652375,0,-0.0009684601100161672,0.0009891253430396318,0.022316085174679756,0.00022046739468351007,0.00033560924930498004,0.0014584516175091267,0,2,-1000,0,1,0,-1,2,2,1500,1500.0
16:53:18.955,STABILIZE,-35.3632622,149.1652375,0,-0.0009684601100161672,0.0009891253430396318,0.022316085174679756,0.00022046739468351007,0.00033560924930498004,0.0014584516175091267,0,2,-1000,0,1,0,-1,2,2,1500,1500.0
16:53:19.156,AUTO,-35.3632622,149.1652375,0,-0.0010906520765274763,0.0009833232033997774,0.022214965894818306,0.00035586452577263117,0.0002074626972898841,0.0016195331700146198,0,1,-1000,0,0,0,-1,2,2,1500,1500.0
16:53:19.357,AUTO,-35.3632622,149.1652375,8,-0.0011342116631567478,0.0009948213119059801,0.02219521440565586,0.0003279995289631188,0.0002805678523145616,0.001456473022699356,0,2,-1000,1,0,0,-1,2,2,1500,1500.0
16:53:19.558,AUTO,-35.3632622,149.1652375,8,-0.0011342116631567478,0.0009948213119059801,0.02219521440565586,0.0003279995289631188,0.0002805678523145616,0.001456473022699356,0,2,-1000,1,0,0,-1,2,2,1500,1500.0
16:53:19.760,AUTO,-35.3632622,149.1652375,8,-0.0011342116631567478,0.0009948213119059801,0.02219521440565586,0.0003279995289631188,0.0002805678523145616,0.001456473022699356,0,2,-1000,1,0,0,-1,2,2,1500,1500.0
16:53:19.962,AUTO,-35.3632622,149.1652375,8,-0.0011342116631567478,0.0009948213119059801,0.02219521440565586,0.0003279995289631188,0.0002805678523145616,0.001456473022699356,0,2,-1000,1,0,0,-1,2,2,1500,1500.0
16:53:20.164,AUTO,-35.3632622,149.1652375,8,-0.0011342116631567478,0.0009948213119059801,0.02219521440565586,0.0003279995289631188,0.0002805678523145616,0.001456473022699356,0,2,-1000,1,0,0,-1,2,2,1500,1500.0
16:53:20.365,AUTO,-35.3632622,149.1652375,8,-0.0011342116631567478,0.0009948213119059801,0.02219521440565586,0.0003279995289631188,0.0002805678523145616,0.001456473022699356,0,2,-1000,1,0,0,-1,2,2,1500,1500.0
16:53:20.567,AUTO,-35.3632621,149.1652375,6,-0.0012181996135041118,0.0010612113401293755,0.022015878930687904,0.00018477649427950382,0.00028031179681420326,0.0013737331610172987,0,1,-1000,0,1,0,0,0,1,1500,1500.0
16:53:20.768,AUTO,-35.3632621,149.1652375,6,-0.0011901289690285921,0.0011063157580792904,0.021970698609948158,0.00023199262795969844,0.0003277272335253656,0.0014396840706467628,0,1,-1000,0,0,1,0,0,1,1500,1500.0
16:53:20.970,AUTO,-35.3632621,149.1652375,6,-0.0011509759351611137,0.0011677275178954005,0.021915990859270096,0.00021983496844768524,0.0003432180965319276,0.0014262150507420301,0,2,-1000,1,1,0,0,0,0,1500,1500.0
16:53:21.171,AUTO,-35.3632621,149.1652375,7,-0.0011090545449405909,0.001226781285367906,0.021869169548153877,0.000209027377422899,0.00020312296692281961,0.001455996884033084,0,1,-1000,1,0,0,0,0,0,1500,1500.0
16:53:21.372,AUTO,-35.3632621,149.1652375,7,-0.0010681425919756293,0.0012843427248299122,0.02182246372103691,0.00020985625451430678,0.0001522381789982319,0.001438200008124113,0,1,-1000,0,0,0,0,0,0,1500,1500.0
16:53:21.573,AUTO,-35.3632621,149.1652375,7,-0.0010681425919756293,0.0012843427248299122,0.02182246372103691,0.00020985625451430678,0.0001522381789982319,0.001438200008124113,0,1,-1000,0,0,0,0,0,0,1500,1500.0
16:53:21.773,AUTO,-35.3632621,149.1652375,7,-0.0010681425919756293,0.0012843427248299122,0.02182246372103691,0.00020985625451430678,0.0001522381789982319,0.001438200008124113,0,1,-1000,0,0,0,0,0,0,1500,1500.0
16:53:21.974,AUTO,-35.3632621,149.1652375,7,-0.0010681425919756293,0.0012843427248299122,0.02182246372103691,0.00020985625451430678,0.0001522381789982319,0.001438200008124113,0,1,-1000,0,0,0,0,0,0,1500,1500.0
16:53:22.176,AUTO,-35.3632621,149.1652375,7,-0.0010681425919756293,0.0012843427248299122,0.02182246372103691,0.00020985625451430678,0.0001522381789982319,0.001438200008124113,0,1,-1000,0,0,0,0,0,0,1500,1500.0
16:53:22.378,AUTO,-35.3632621,149.1652374,9,-0.0007109090802259743,0.0015701951924711466,0.021618114784359932,0.00031308713369071484,0.0002591607626527548,0.0014990599593147635,0,1,-1000,1,1,1,0,0,0,1500,1500.0
16:53:22.580,AUTO,-35.3632621,149.1652374,10,-0.0006532317493110895,0.0016473144060000777,0.021551884710788727,0.0002556396066211164,0.00028509320691227913,0.001407695235684514,0,1,-1000,1,1,1,0,0,0,1500,1500.0
16:53:22.781,AUTO,-35.3632621,149.1652374,10,-0.0006532317493110895,0.0016473144060000777,0.021551884710788727,0.0002556396066211164,0.00028509320691227913,0.001407695235684514,0,1,-1000,1,1,1,0,0,0,1500,1500.0
16:53:22.982,AUTO,-35.3632621,149.1652374,10,-0.0005937069654464722,0.0017212716629728675,0.021494083106517792,0.0003056901623494923,0.0002967056934721768,0.0014068407472223043,0,2,-1000,1,0,0,0,0,0,1500,1500.0
16:53:23.186,AUTO,-35.3632621,149.1652374,11,0.00016814202535897493,0.0016508830012753606,0.021505655720829964,0.02504909411072731,-0.006070384290069342,0.003884080797433853,0,1,-1030,25,-5,3,0,0,-1,1500,1500.0
16:53:23.387,AUTO,-35.3632621,149.1652374,54,0.0039059603586792946,-0.0005044813733547926,0.021514201536774635,0.010129177942872047,-0.004239622037857771,0.00047662414726801217,0,0,-1138,10,-3,0,0,0,-33,1500,1500.0
16:53:23.588,AUTO,-35.3632621,149.1652374,54,0.0039059603586792946,-0.0005044813733547926,0.021514201536774635,0.010129177942872047,-0.004239622037857771,0.00047662414726801217,0,0,-1138,10,-3,0,0,0,-33,1500,1500.0
16:53:23.789,AUTO,-35.3632621,149.1652374,54,0.0039059603586792946,-0.0005044813733547926,0.021514201536774635,0.010129177942872047,-0.004239622037857771,0.00047662414726801217,0,0,-1138,10,-3,0,0,0,-33,1500,1500.0
16:53:23.991,AUTO,-35.3632621,149.1652374,54,0.0039059603586792946,-0.0005044813733547926,0.021514201536774635,0.010129177942872047,-0.004239622037857771,0.00047662414726801217,0,0,-1138,10,-3,0,0,0,-33,1500,1500.0
16:53:24.193,AUTO,-35.3632621,149.1652374,54,0.0039059603586792946,-0.0005044813733547926,0.021514201536774635,0.010129177942872047,-0.004239622037857771,0.00047662414726801217,0,0,-1138,10,-3,0,0,0,-33,1500,1500.0
16:53:24.395,AUTO,-35.3632621,149.1652375,991,0.007935959845781326,0.0010694045340642333,0.020716167986392975,0.0469006672501564,-0.005513072479516268,0.0008540163980796933,0,0,-1048,47,-4,0,0,1,-137,1500,1500.0
16:53:24.595,AUTO,-35.3632621,149.1652375,1354,0.019738124683499336,-0.0006088934605941176,0.020611602813005447,0.04710165783762932,-0.007084174081683159,0.0017862129025161266,0,0,-1020,47,-6,1,0,4,-145,1500,1500.0
16:53:24.796,AUTO,-35.3632621,149.1652375,1354,0.019738124683499336,-0.0006088934605941176,0.020611602813005447,0.04710165783762932,-0.007084174081683159,0.0017862129025161266,0,0,-1020,47,-6,1,0,4,-145,1500,1500.0
16:53:24.997,AUTO,-35.363262,149.1652377,1733,0.031289879232645035,-0.002495551249012351,0.020692434161901474,0.04515761509537697,-0.007846985012292862,0.002608989831060171,0,-1,-1008,45,-6,2,1,10,-148,1500,1500.0
16:53:25.198,AUTO,-35.3632619,149.165238,2117,0.04224048927426338,-0.004652437288314104,0.020872503519058228,0.043242670595645905,-0.00897971447557211,0.003164376597851515,0,-2,-1003,43,-8,2,3,18,-149,1500,1500.0
16:53:25.399,AUTO,-35.3632618,149.1652386,2503,0.05246356129646301,-0.007199964486062527,0.021130789071321487,0.03883052617311478,-0.010809242725372314,0.0034325565211474895,1,-5,-1000,39,-10,3,5,28,-149,1500,1500.0
16:53:25.600,AUTO,-35.3632618,149.1652386,2503,0.05246356129646301,-0.007199964486062527,0.021130789071321487,0.03883052617311478,-0.010809242725372314,0.0034325565211474895,1,-5,-1000,39,-10,3,5,28,-149,1500,1500.0
16:53:25.803,AUTO,-35.3632618,149.1652386,2503,0.05246356129646301,-0.007199964486062527,0.021130789071321487,0.03883052617311478,-0.010809242725372314,0.0034325565211474895,1,-5,-1000,39,-10,3,5,28,-149,1500,1500.0
16:53:26.005,AUTO,-35.3632618,149.1652386,2503,0.05246356129646301,-0.007199964486062527,0.021130789071321487,0.03883052617311478,-0.010809242725372314,0.0034325565211474895,1,-5,-1000,39,-10,3,5,28,-149,1500,1500.0
16:53:26.206,AUTO,-35.3632618,149.1652386,2503,0.05246356129646301,-0.007199964486062527,0.021130789071321487,0.03883052617311478,-0.010809242725372314,0.0034325565211474895,1,-5,-1000,39,-10,3,5,28,-149,1500,1500.0
16:53:26.407,AUTO,-35.363261,149.1652436,4023,-0.02406434342265129,0.02187996916472912,-0.0627153292298317,-0.06699033081531525,-0.016508150845766068,-0.05805395543575287,4,-10,-1011,-66,-16,-58,3,48,-147,1500,1500.0
16:53:26.609,AUTO,-35.3632609,149.1652448,4406,-0.03414769098162651,0.016792528331279755,-0.07414016127586365,-0.020518995821475983,-0.015495585277676582,-0.0484590008854866,5,-10,-1007,-19,-14,-48,0,38,-150,1500,1500.0
16:53:26.810,AUTO,-35.3632609,149.1652448,4406,-0.03414769098162651,0.016792528331279755,-0.07414016127586365,-0.020518995821475983,-0.015495585277676582,-0.0484590008854866,5,-10,-1007,-19,-14,-48,0,38,-150,1500,1500.0
16:53:27.010,AUTO,-35.3632609,149.1652457,4793,-0.041591525077819824,0.011816037818789482,-0.08298023790121078,-0.045590274035930634,-0.022384554147720337,-0.03127758577466011,4,-6,-1000,-44,-21,-31,-2,26,-150,1500,1500.0
16:53:27.211,AUTO,-35.3632609,149.1652462,5179,-0.05707107111811638,0.0038568556774407625,-0.08672948181629181,-0.07452423125505447,-0.038260653614997864,-0.006105244159698486,3,-4,-999,-73,-37,-6,-3,13,-150,1500,1500.0
16:53:27.412,AUTO,-35.363261,149.1652463,5567,-0.07510165125131607,-0.005806462373584509,-0.08597001433372498,-0.037591882050037384,-0.02725408226251602,-0.005500242114067078,1,0,-1003,-36,-26,-5,-3,-4,-149,1500,1500.0
16:53:27.613,AUTO,-35.363261,149.1652463,5567,-0.07510165125131607,-0.005806462373584509,-0.08597001433372498,-0.037591882050037384,-0.02725408226251602,-0.005500242114067078,1,0,-1003,-36,-26,-5,-3,-4,-149,1500,1500.0
16:53:27.814,AUTO,-35.363261,149.1652463,5567,-0.07510165125131607,-0.005806462373584509,-0.08597001433372498,-0.037591882050037384,-0.02725408226251602,-0.005500242114067078,1,0,-1003,-36,-26,-5,-3,-4,-149,1500,1500.0
16:53:28.016,AUTO,-35.363261,149.1652463,5567,-0.07510165125131607,-0.005806462373584509,-0.08597001433372498,-0.037591882050037384,-0.02725408226251602,-0.005500242114067078,1,0,-1003,-36,-26,-5,-3,-4,-149,1500,1500.0
16:53:28.218,AUTO,-35.363261,149.1652463,5567,-0.07510165125131607,-0.005806462373584509,-0.08597001433372498,-0.037591882050037384,-0.02725408226251602,-0.005500242114067078,1,0,-1003,-36,-26,-5,-3,-4,-149,1500,1500.0
16:53:28.420,AUTO,-35.3632612,149.1652426,7110,-0.027988312765955925,-0.005757426843047142,-0.0934334546327591,0.06258203089237213,0.009876569733023643,-0.00020967362797819078,-6,11,-1002,63,10,0,-2,-55,-150,1500,1500.0
16:53:28.621,AUTO,-35.3632613,149.165241,7496,-0.011930925771594048,-0.0028173502068966627,-0.09378448128700256,0.06429423391819,0.012415354140102863,0.0014664549380540848,-7,11,-1003,64,12,1,-3,-58,-151,1500,1500.0
16:53:28.822,AUTO,-35.3632613,149.165241,7496,-0.011930925771594048,-0.0028173502068966627,-0.09378448128700256,0.06429423391819,0.012415354140102863,0.0014664549380540848,-7,11,-1003,64,12,1,-3,-58,-151,1500,1500.0
16:53:29.023,AUTO,-35.3632614,149.1652393,7892,0.004747011233121157,0.0005825704429298639,-0.09353537112474442,0.0668865293264389,0.01377856731414795,0.0023294833954423666,-7,14,-1004,67,14,2,-4,-56,-152,1500,1500.0
16:53:29.225,AUTO,-35.3632615,149.1652378,8284,0.02100278064608574,0.003827683860436082,-0.0928637757897377,0.06467125564813614,0.012294718064367771,0.00319214747287333,-6,9,-1004,65,13,2,-5,-51,-153,1500,1500.0
16:53:29.426,AUTO,-35.3632616,149.1652365,8677,0.03710087016224861,0.006604142487049103,-0.09193716943264008,0.06438667327165604,0.010112803429365158,0.003545651910826564,-6,12,-1003,65,10,3,-6,-41,-154,1311,1500.0
16:53:29.627,AUTO,-35.3632616,149.1652365,8677,0.03710087016224861,0.006604142487049103,-0.09193716943264008,0.06438667327165604,0.010112803429365158,0.003545651910826564,-6,12,-1003,65,10,3,-6,-41,-154,1311,1500.0
16:53:29.828,AUTO,-35.3632616,149.1652365,8677,0.03710087016224861,0.006604142487049103,-0.09193716943264008,0.06438667327165604,0.010112803429365158,0.003545651910826564,-6,12,-1003,65,10,3,-6,-41,-154,1311,1500.0
16:53:30.029,AUTO,-35.3632616,149.1652365,8677,0.03710087016224861,0.006604142487049103,-0.09193716943264008,0.06438667327165604,0.010112803429365158,0.003545651910826564,-6,12,-1003,65,10,3,-6,-41,-154,1311,1500.0
16:53:30.253,AUTO,-35.3632616,149.1652365,8677,0.03710087016224861,0.006604142487049103,-0.09193716943264008,0.06438667327165604,0.010112803429365158,0.003545651910826564,-6,12,-1003,65,10,3,-6,-41,-154,1311,1500.0
16:53:30.472,AUTO,-35.3632633,149.1652339,10213,0.015644267201423645,0.08524759858846664,-0.25915980339050293,0.10722111165523529,-0.07948912680149078,-0.4020378887653351,4,6,-984,107,-78,-402,-48,-5,-144,1311,1500.0
16:53:30.673,AUTO,-35.3632645,149.1652339,10581,0.03571488335728645,0.06826043874025345,-0.3667556643486023,0.11794570088386536,-0.08123230189085007,-0.4377259612083435,8,11,-1002,118,-80,-438,-61,7,-143,1311,1500.0
16:53:30.876,AUTO,-35.3632659,149.1652342,10949,0.05853304639458656,0.05199596285820007,-0.4804993271827698,0.11576420813798904,-0.08814816921949387,-0.4591982662677765,9,11,-1005,116,-87,-459,-66,24,-144,1311,1500.0
16:53:31.078,AUTO,-35.3632659,149.1652342,10949,0.05853304639458656,0.05199596285820007,-0.4804993271827698,0.11576420813798904,-0.08814816921949387,-0.4591982662677765,9,11,-1005,116,-87,-459,-66,24,-144,1311,1500.0
16:53:31.281,AUTO,-35.3632674,149.165235,11319,0.08117112517356873,0.03802865743637085,-0.599026620388031,0.10497952252626419,-0.08676113188266754,-0.4756391644477844,12,10,-1004,105,-86,-475,-62,44,-144,1311,1500.0
16:53:31.484,AUTO,-35.3632686,149.1652365,11687,0.10167009383440018,0.028187965974211693,-0.7213190197944641,0.09107842296361923,-0.08041136711835861,-0.4948681592941284,15,10,-1003,91,-79,-495,-50,65,-144,1311,1500.0
16:53:31.686,AUTO,-35.3632686,149.1652365,11687,0.10167009383440018,0.028187965974211693,-0.7213190197944641,0.09107842296361923,-0.08041136711835861,-0.4948681592941284,15,10,-1003,91,-79,-495,-50,65,-144,1311,1500.0
16:53:31.891,AUTO,-35.3632686,149.1652365,11687,0.10167009383440018,0.028187965974211693,-0.7213190197944641,0.09107842296361923,-0.08041136711835861,-0.4948681592941284,15,10,-1003,91,-79,-495,-50,65,-144,1311,1500.0
16:53:32.094,AUTO,-35.3632686,149.1652365,11687,0.10167009383440018,0.028187965974211693,-0.7213190197944641,0.09107842296361923,-0.08041136711835861,-0.4948681592941284,15,10,-1003,91,-79,-495,-50,65,-144,1311,1500.0
16:53:32.296,AUTO,-35.3632686,149.1652365,11687,0.10167009383440018,0.028187965974211693,-0.7213190197944641,0.09107842296361923,-0.08041136711835861,-0.4948681592941284,15,10,-1003,91,-79,-495,-50,65,-144,1311,1500.0
16:53:32.501,AUTO,-35.3632686,149.1652365,11687,0.10167009383440018,0.028187965974211693,-0.7213190197944641,0.09107842296361923,-0.08041136711835861,-0.4948681592941284,15,10,-1003,91,-79,-495,-50,65,-144,1311,1500.0
16:53:32.709,AUTO,-35.3632687,149.1652467,13457,0.018490539863705635,-0.12070780247449875,-1.475439190864563,-0.03082386590540409,-0.1262197047472,-0.3447188436985016,15,-2,-1032,-30,-125,-345,38,32,-148,1500,1500.0
16:53:32.911,AUTO,-35.3632678,149.1652471,13837,0.028195759281516075,-0.14390608668327332,-1.5488053560256958,0.02995573729276657,-0.06223934143781662,-0.25532180070877075,8,-5,-1014,30,-61,-255,45,-4,-150,1500,1500.0
16:53:33.113,AUTO,-35.3632667,149.1652467,14215,0.026472361758351326,-0.13395778834819794,-1.6334131956100464,-0.333368182182312,0.2745171785354614,-0.4970434010028839,0,-14,-946,-332,275,-496,49,-40,-145,1500,1500.0
16:53:33.314,AUTO,-35.3632667,149.1652467,14215,0.026472361758351326,-0.13395778834819794,-1.6334131956100464,-0.333368182182312,0.2745171785354614,-0.4970434010028839,0,-14,-946,-332,275,-496,49,-40,-145,1500,1500.0
16:53:33.516,AUTO,-35.3632655,149.1652452,14584,0.012064408510923386,-0.09817983210086823,-1.7180407047271729,-0.0003244372201152146,0.050672125071287155,-0.27427902817726135,-2,-16,-1013,0,51,-274,46,-67,-145,1500,1500.0
16:53:33.718,AUTO,-35.3632655,149.1652452,14584,0.012064408510923386,-0.09817983210086823,-1.7180407047271729,-0.0003244372201152146,0.050672125071287155,-0.27427902817726135,-2,-16,-1013,0,51,-274,46,-67,-145,1500,1500.0
16:53:33.919,AUTO,-35.3632655,149.1652452,14584,0.012064408510923386,-0.09817983210086823,-1.7180407047271729,-0.0003244372201152146,0.050672125071287155,-0.27427902817726135,-2,-16,-1013,0,51,-274,46,-67,-145,1500,1500.0
16:53:34.121,AUTO,-35.3632655,149.1652452,14584,0.012064408510923386,-0.09817983210086823,-1.7180407047271729,-0.0003244372201152146,0.050672125071287155,-0.27427902817726135,-2,-16,-1013,0,51,-274,46,-67,-145,1500,1500.0
16:53:34.323,AUTO,-35.3632655,149.1652452,14584,0.012064408510923386,-0.09817983210086823,-1.7180407047271729,-0.0003244372201152146,0.050672125071287155,-0.27427902817726135,-2,-16,-1013,0,51,-274,46,-67,-145,1500,1500.0
16:53:34.525,AUTO,-35.3632623,149.1652341,16064,-0.04588622599840164,-0.04242398217320442,-1.9247180223464966,-0.10640405118465424,0.014056041836738586,-0.10757705569267273,-10,-27,-1008,-105,14,-107,10,-116,-147,1500,1500.0
16:53:34.726,AUTO,-35.3632623,149.1652308,16439,-0.06557691097259521,-0.038530100136995316,-1.9465277194976807,-0.06550789624452591,0.028092263266444206,-0.07439307123422623,-18,-23,-1009,-64,28,-74,-10,-116,-149,1500,1500.0
16:53:34.927,AUTO,-35.3632627,149.1652275,16825,-0.07382874935865402,-0.02923932671546936,-1.9611639976501465,-0.0009836435783654451,0.06184713542461395,-0.03363068774342537,-20,-19,-1006,0,62,-33,-33,-112,-149,1500,1500.0
16:53:35.129,AUTO,-35.3632636,149.1652244,17206,-0.06588543206453323,-0.008751616813242435,-1.9664815664291382,0.04784054309129715,0.09629255533218384,-0.006474049761891365,-22,-13,-1007,48,96,-6,-52,-104,-150,1500,1500.0
16:53:35.330,AUTO,-35.3632636,149.1652244,17206,-0.06588543206453323,-0.008751616813242435,-1.9664815664291382,0.04784054309129715,0.09629255533218384,-0.006474049761891365,-22,-13,-1007,48,96,-6,-52,-104,-150,1500,1500.0
16:53:35.531,AUTO,-35.3632649,149.1652216,17590,-0.0526709109544754,0.015373225323855877,-1.9664946794509888,0.05285656452178955,0.0952330231666565,0.007641612086445093,-25,-10,-1010,53,96,7,-66,-92,-152,1500,1500.0
16:53:35.732,AUTO,-35.3632649,149.1652216,17590,-0.0526709109544754,0.015373225323855877,-1.9664946794509888,0.05285656452178955,0.0952330231666565,0.007641612086445093,-25,-10,-1010,53,96,7,-66,-92,-152,1500,1500.0
16:53:35.933,AUTO,-35.3632649,149.1652216,17590,-0.0526709109544754,0.015373225323855877,-1.9664946794509888,0.05285656452178955,0.0952330231666565,0.007641612086445093,-25,-10,-1010,53,96,7,-66,-92,-152,1500,1500.0
16:53:36.135,AUTO,-35.3632649,149.1652216,17590,-0.0526709109544754,0.015373225323855877,-1.9664946794509888,0.05285656452178955,0.0952330231666565,0.007641612086445093,-25,-10,-1010,53,96,7,-66,-92,-152,1500,1500.0
16:53:36.337,AUTO,-35.3632698,149.165216,18768,-0.013757663778960705,0.07545642554759979,-1.9585809707641602,0.05328739807009697,0.06379444897174835,0.01047801598906517,-21,1,-1008,54,64,9,-72,-34,-157,1500,1500.0
16:53:36.540,AUTO,-35.3632713,149.1652153,19167,5.4265663493424654e-05,0.08934340626001358,-1.9559831619262695,0.0570194236934185,0.04988725110888481,0.010637504979968071,-16,6,-1005,57,50,10,-63,-11,-157,1500,1500.0
16:53:36.742,AUTO,-35.3632726,149.1652152,19565,0.014868883416056633,0.0996895357966423,-1.9534021615982056,0.06070748344063759,0.03546556085348129,0.00931785348802805,-11,7,-1002,61,36,8,-50,10,-156,1500,1500.0
16:53:36.943,AUTO,-35.3632736,149.1652157,19961,0.030974233523011208,0.1065685972571373,-1.950713872909546,0.06596557796001434,0.02123093046247959,0.00978113804012537,-6,8,-1000,67,22,9,-34,32,-155,1500,1500.0
16:53:37.145,AUTO,-35.3632742,149.1652167,20352,0.048122256994247437,0.10932325571775436,-1.9475958347320557,0.06928054988384247,0.004173180554062128,0.014649951830506325,0,12,-998,69,5,14,-13,52,-153,1500,1500.0
16:53:37.346,AUTO,-35.3632743,149.1652183,20738,0.06647491455078125,0.10801594704389572,-1.9433029890060425,0.07349926978349686,-0.010667897760868073,0.020846553146839142,0,12,-998,69,5,14,11,69,-150,1500,1500.0
16:53:37.548,AUTO,-35.3632743,149.1652183,20738,0.06647491455078125,0.10801594704389572,-1.9433029890060425,0.07349926978349686,-0.010667897760868073,0.020846553146839142,7,10,-996,74,-9,20,11,69,-150,1500,1500.0
16:53:37.750,AUTO,-35.3632743,149.1652183,20738,0.06647491455078125,0.10801594704389572,-1.9433029890060425,0.07349926978349686,-0.010667897760868073,0.020846553146839142,7,10,-996,74,-9,20,11,69,-150,1500,1500.0
16:53:37.952,AUTO,-35.3632743,149.1652183,20738,0.06647491455078125,0.10801594704389572,-1.9433029890060425,0.07349926978349686,-0.010667897760868073,0.020846553146839142,7,10,-996,74,-9,20,11,69,-150,1500,1500.0
16:53:38.154,AUTO,-35.3632743,149.1652183,20738,0.06647491455078125,0.10801594704389572,-1.9433029890060425,0.07349926978349686,-0.010667897760868073,0.020846553146839142,7,10,-996,74,-9,20,11,69,-150,1500,1500.0
16:53:38.357,AUTO,-35.3632743,149.1652183,20738,0.06647491455078125,0.10801594704389572,-1.9433029890060425,0.07349926978349686,-0.010667897760868073,0.020846553146839142,7,10,-996,74,-9,20,11,69,-150,1500,1500.0
16:53:38.559,AUTO,-35.363269,149.1652274,22210,0.031852636486291885,0.02114240825176239,-1.8791086673736572,-0.15418070554733276,-0.10390812903642654,0.04926271736621857,29,-1,-1008,-153,-103,49,100,87,-143,1500,1500.0
16:53:38.762,AUTO,-35.3632668,149.1652297,22577,-0.004191948100924492,-0.0038345863576978445,-1.870185375213623,-0.13354574143886566,-0.09712623059749603,0.0300747063010931,30,-2,-1019,-132,-96,29,101,80,-146,1500,1500.0
16:53:38.963,AUTO,-35.3632647,149.1652318,22954,-0.03386800363659859,-0.026013780385255814,-1.8654612302780151,-0.101005919277668,-0.08202510327100754,0.010584723204374313,29,-1,-1020,-99,-81,10,91,70,-151,1500,1500.0
16:53:39.165,AUTO,-35.3632628,149.1652335,23341,-0.05795283988118172,-0.04413794353604317,-1.8649358749389648,-0.08281237632036209,-0.06374918669462204,-0.007911045104265213,24,2,-1016,-82,-62,-8,75,58,-154,1500,1500.0
16:53:39.366,AUTO,-35.3632614,149.165235,23737,-0.07288599014282227,-0.05800563469529152,-1.8682494163513184,-0.038592901080846786,-0.04488864168524742,-0.022784018889069557,19,-1,-1012,-37,-43,-22,53,45,-157,1500,1500.0
16:53:39.567,AUTO,-35.3632614,149.165235,23737,-0.07288599014282227,-0.05800563469529152,-1.8682494163513184,-0.038592901080846786,-0.04488864168524742,-0.022784018889069557,19,-1,-1012,-37,-43,-22,53,45,-157,1500,1500.0
16:53:39.769,AUTO,-35.3632614,149.165235,23737,-0.07288599014282227,-0.05800563469529152,-1.8682494163513184,-0.038592901080846786,-0.04488864168524742,-0.022784018889069557,19,-1,-1012,-37,-43,-22,53,45,-157,1500,1500.0
16:53:39.970,AUTO,-35.3632614,149.165235,23737,-0.07288599014282227,-0.05800563469529152,-1.8682494163513184,-0.038592901080846786,-0.04488864168524742,-0.022784018889069557,19,-1,-1012,-37,-43,-22,53,45,-157,1500,1500.0
16:53:40.172,AUTO,-35.3632614,149.165235,23737,-0.07288599014282227,-0.05800563469529152,-1.8682494163513184,-0.038592901080846786,-0.04488864168524742,-0.022784018889069557,19,-1,-1012,-37,-43,-22,53,45,-157,1500,1500.0
16:53:40.373,AUTO,-35.3632608,149.1652374,25310,-0.04148818925023079,-0.03141796961426735,-1.8864740133285522,0.08552850782871246,0.11079985648393631,0.0304954182356596,-4,2,-1002,86,111,30,-31,1,-151,1500,1500.0
16:53:40.574,AUTO,-35.3632608,149.1652374,25310,-0.04148818925023079,-0.03141796961426735,-1.8864740133285522,0.08552850782871246,0.11079985648393631,0.0304954182356596,-4,2,-1002,86,111,30,-31,1,-151,1500,1500.0
16:53:40.776,AUTO,-35.3632617,149.1652374,25695,-0.022745544090867043,-0.01651088520884514,-1.8806931972503662,0.06812135130167007,0.03489421308040619,0.025476783514022827,-5,7,-1004,68,35,25,-39,-1,-152,1500,1500.0
16:53:40.978,AUTO,-35.3632627,149.1652374,26088,-0.0063909608870744705,-0.009523161686956882,-1.8750436305999756,0.06323199719190598,0.0236471239477396,0.02480270154774189,-7,7,-1004,63,24,24,-42,-2,-153,1500,1500.0
16:53:41.179,AUTO,-35.3632637,149.1652374,26478,0.009071116335690022,-0.0039703743532299995,-1.8701248168945312,0.06179692596197128,0.020682310685515404,0.021699558943510056,-6,9,-1004,62,21,21,-41,-2,-154,1500,1500.0
16:53:41.381,AUTO,-35.3632647,149.1652374,26870,0.024545341730117798,0.0016342056915163994,-1.8653695583343506,0.059589751064777374,0.021053951233625412,0.017868006601929665,-7,7,-1004,60,21,17,-36,-2,-155,1500,1500.0
16:53:41.583,AUTO,-35.3632647,149.1652374,26870,0.024545341730117798,0.0016342056915163994,-1.8653695583343506,0.059589751064777374,0.021053951233625412,0.017868006601929665,-7,7,-1004,60,21,17,-36,-2,-155,1500,1500.0
16:53:41.784,AUTO,-35.3632647,149.1652374,26870,0.024545341730117798,0.0016342056915163994,-1.8653695583343506,0.059589751064777374,0.021053951233625412,0.017868006601929665,-7,7,-1004,60,21,17,-36,-2,-155,1500,1500.0
16:53:41.986,AUTO,-35.3632647,149.1652374,26870,0.024545341730117798,0.0016342056915163994,-1.8653695583343506,0.059589751064777374,0.021053951233625412,0.017868006601929665,-7,7,-1004,60,21,17,-36,-2,-155,1500,1500.0
16:53:42.188,AUTO,-35.3632647,149.1652374,26870,0.024545341730117798,0.0016342056915163994,-1.8653695583343506,0.059589751064777374,0.021053951233625412,0.017868006601929665,-7,7,-1004,60,21,17,-36,-2,-155,1500,1500.0
16:53:42.390,AUTO,-35.3632647,149.1652374,26870,0.024545341730117798,0.0016342056915163994,-1.8653695583343506,0.059589751064777374,0.021053951233625412,0.017868006601929665,-7,7,-1004,60,21,17,-36,-2,-155,1500,1500.0
16:53:42.591,AUTO,-35.3632662,149.1652369,28826,0.06608902662992477,0.046921905130147934,-1.8706804513931274,-0.02633582055568695,0.03357953578233719,-0.049632102251052856,1,-3,-997,-25,34,-49,31,0,-152,1683,1500.0
16:53:42.792,AUTO,-35.3632662,149.1652369,28826,0.06608902662992477,0.046921905130147934,-1.8706804513931274,-0.02633582055568695,0.03357953578233719,-0.049632102251052856,1,-3,-997,-25,34,-49,31,0,-152,1683,1500.0
16:53:42.993,AUTO,-35.3632654,149.1652369,29205,0.042779967188835144,0.03858598694205284,-1.8268413543701172,-0.15300166606903076,-0.06495853513479233,0.5233473181724548,5,-7,-942,-152,-64,523,45,4,-144,1683,1500.0
16:53:43.195,AUTO,-35.3632644,149.1652371,29557,0.012906957417726517,0.02012147381901741,-1.6305923461914062,-0.11819842457771301,-0.03789101913571358,0.8548521995544434,7,-8,-991,-117,-37,854,49,8,-135,1683,1500.0
16:53:43.396,AUTO,-35.3632634,149.1652372,29904,-0.006955516058951616,0.015007213689386845,-1.4217946529388428,-0.07288464158773422,-0.00710722990334034,0.8178533911705017,4,-10,-1018,-71,-6,817,47,9,-138,1683,1500.0
16:53:43.597,AUTO,-35.3632634,149.1652372,29904,-0.006955516058951616,0.015007213689386845,-1.4217946529388428,-0.07288464158773422,-0.00710722990334034,0.8178533911705017,4,-10,-1018,-71,-6,817,47,9,-138,1683,1500.0
16:53:43.799,AUTO,-35.3632634,149.1652372,29904,-0.006955516058951616,0.015007213689386845,-1.4217946529388428,-0.07288464158773422,-0.00710722990334034,0.8178533911705017,4,-10,-1018,-71,-6,817,47,9,-138,1683,1500.0
16:53:44.000,AUTO,-35.3632634,149.1652372,29904,-0.006955516058951616,0.015007213689386845,-1.4217946529388428,-0.07288464158773422,-0.00710722990334034,0.8178533911705017,4,-10,-1018,-71,-6,817,47,9,-138,1683,1500.0
16:53:44.201,AUTO,-35.3632634,149.1652372,29904,-0.006955516058951616,0.015007213689386845,-1.4217946529388428,-0.07288464158773422,-0.00710722990334034,0.8178533911705017,4,-10,-1018,-71,-6,817,47,9,-138,1683,1500.0
16:53:44.403,AUTO,-35.363261,149.1652379,31363,-0.021222926676273346,0.021723875775933266,-0.6679985523223877,0.005506159737706184,-0.02120029740035534,0.7279689311981201,0,-3,-1002,6,-20,727,12,6,-147,1683,1500.0
16:53:44.605,AUTO,-35.3632608,149.165238,31734,-0.016323069110512733,0.018959350883960724,-0.48650363087654114,0.005928415805101395,-0.024973763152956963,0.724966824054718,0,-2,-1000,7,-24,725,5,3,-147,1683,1500.0
16:53:44.806,AUTO,-35.3632608,149.165238,31734,-0.016323069110512733,0.018959350883960724,-0.48650363087654114,0.005928415805101395,-0.024973763152956963,0.724966824054718,0,-2,-1000,7,-24,725,5,3,-147,1683,1500.0
16:53:45.007,AUTO,-35.3632608,149.1652381,32106,-0.011444148607552052,0.014658167026937008,-0.3055848479270935,0.00816632155328989,-0.026025207713246346,0.7210875153541565,0,0,-1000,9,-25,721,0,1,-147,1683,1500.0
16:53:45.210,AUTO,-35.3632609,149.1652381,32478,-0.00752660259604454,0.00961548462510109,-0.12499278783798218,0.009412262588739395,-0.026159578934311867,0.724577009677887,1,0,-1000,10,-25,724,-3,0,-147,1683,1500.0
16:53:45.413,AUTO,-35.363261,149.1652381,32850,-0.005017164163291454,0.005019163712859154,0.05572677403688431,0.005655547138303518,-0.02112025022506714,0.7240158319473267,1,0,-999,6,-20,723,-5,-1,-146,1683,1500.0
16:53:45.617,AUTO,-35.363261,149.1652381,32850,-0.005017164163291454,0.005019163712859154,0.05572677403688431,0.005655547138303518,-0.02112025022506714,0.7240158319473267,1,0,-999,6,-20,723,-5,-1,-146,1683,1500.0
16:53:45.822,AUTO,-35.363261,149.1652381,32850,-0.005017164163291454,0.005019163712859154,0.05572677403688431,0.005655547138303518,-0.02112025022506714,0.7240158319473267,1,0,-999,6,-20,723,-5,-1,-146,1683,1500.0
16:53:46.026,AUTO,-35.363261,149.1652381,32850,-0.005017164163291454,0.005019163712859154,0.05572677403688431,0.005655547138303518,-0.02112025022506714,0.7240158319473267,1,0,-999,6,-20,723,-5,-1,-146,1683,1500.0
16:53:46.229,AUTO,-35.363261,149.1652381,32850,-0.005017164163291454,0.005019163712859154,0.05572677403688431,0.005655547138303518,-0.02112025022506714,0.7240158319473267,1,0,-999,6,-20,723,-5,-1,-146,1683,1500.0
16:53:46.432,AUTO,-35.363261,149.1652381,32850,-0.005017164163291454,0.005019163712859154,0.05572677403688431,0.005655547138303518,-0.02112025022506714,0.7240158319473267,1,0,-999,6,-20,723,-5,-1,-146,1683,1500.0
16:53:46.634,AUTO,-35.3632622,149.1652377,34753,0.0029865633696317673,0.02598663605749607,0.5514523983001709,-0.042760055512189865,0.08475533872842789,0.065122090280056,2,0,-997,-41,85,65,-13,-1,-152,1500,1500.0
16:53:46.836,AUTO,-35.3632622,149.1652377,34753,0.0029865633696317673,0.02598663605749607,0.5514523983001709,-0.042760055512189865,0.08475533872842789,0.065122090280056,2,0,-997,-41,85,65,-13,-1,-152,1500,1500.0
16:53:47.038,AUTO,-35.3632627,149.1652376,35143,-0.0048569063656032085,0.046046964824199677,0.5584272742271423,-0.012486696243286133,0.0635952427983284,0.016989458352327347,4,0,-1001,-11,64,17,-20,-6,-152,1500,1500.0
16:53:47.240,AUTO,-35.3632633,149.1652373,35527,-0.009944954887032509,0.060959070920944214,0.5514824986457825,-0.025701211765408516,0.06278447061777115,-0.051867831498384476,5,1,-997,-24,63,-51,-30,-14,-151,1500,1500.0
16:53:47.441,AUTO,-35.3632642,149.1652368,35910,-0.014146297238767147,0.07372074574232101,0.5354698896408081,0.0023392760194838047,0.035267703235149384,-0.06734686344861984,7,4,-999,3,35,-67,-42,-24,-150,1500,1500.0
16:53:47.643,AUTO,-35.3632642,149.1652368,35910,-0.014146297238767147,0.07372074574232101,0.5354698896408081,0.0023392760194838047,0.035267703235149384,-0.06734686344861984,7,4,-999,3,35,-67,-42,-24,-150,1500,1500.0
16:53:47.844,AUTO,-35.3632642,149.1652368,35910,-0.014146297238767147,0.07372074574232101,0.5354698896408081,0.0023392760194838047,0.035267703235149384,-0.06734686344861984,7,4,-999,3,35,-67,-42,-24,-150,1500,1500.0
16:53:48.046,AUTO,-35.3632642,149.1652368,35910,-0.014146297238767147,0.07372074574232101,0.5354698896408081,0.0023392760194838047,0.035267703235149384,-0.06734686344861984,7,4,-999,3,35,-67,-42,-24,-150,1500,1500.0
16:53:48.248,AUTO,-35.3632642,149.1652368,35910,-0.014146297238767147,0.07372074574232101,0.5354698896408081,0.0023392760194838047,0.035267703235149384,-0.06734686344861984,7,4,-999,3,35,-67,-42,-24,-150,1500,1500.0
16:53:48.450,AUTO,-35.3632702,149.1652323,37409,-0.007659872993826866,0.021600715816020966,0.4590463638305664,0.024391883984208107,-0.1185767874121666,-0.08345828950405121,19,11,-1006,25,-117,-83,-81,-51,-147,1500,1500.0
16:53:48.651,AUTO,-35.363272,149.1652309,37786,-0.002764000091701746,-0.0076627884991467,0.43849214911460876,0.016868561506271362,-0.11289653927087784,-0.07971728593111038,19,12,-1009,18,-111,-79,-80,-47,-149,1500,1500.0
16:53:48.852,AUTO,-35.3632738,149.1652296,38167,0.0015119110466912389,-0.034271158277988434,0.419878214597702,0.013342826627194881,-0.10137462615966797,-0.06891581416130066,13,12,-1011,14,-100,-68,-73,-41,-152,1500,1500.0
16:53:49.053,AUTO,-35.3632738,149.1652296,38167,0.0015119110466912389,-0.034271158277988434,0.419878214597702,0.013342826627194881,-0.10137462615966797,-0.06891581416130066,13,12,-1011,14,-100,-68,-73,-41,-152,1500,1500.0
16:53:49.254,AUTO,-35.3632753,149.1652286,38555,0.0051259142346680164,-0.057419076561927795,0.4034685492515564,0.010303637944161892,-0.08587725460529327,-0.05854861065745354,15,11,-1009,11,-84,-58,-60,-32,-154,1500,1500.0
16:53:49.455,AUTO,-35.3632765,149.1652278,38947,0.007455592975020409,-0.07681318372488022,0.389111191034317,0.0020412218291312456,-0.07208599895238876,-0.05390448868274689,11,8,-1006,3,-71,-53,-44,-20,-155,1500,1500.0
16:53:49.657,AUTO,-35.3632765,149.1652278,38947,0.007455592975020409,-0.07681318372488022,0.389111191034317,0.0020412218291312456,-0.07208599895238876,-0.05390448868274689,11,8,-1006,3,-71,-53,-44,-20,-155,1500,1500.0
16:53:49.858,AUTO,-35.3632765,149.1652278,38947,0.007455592975020409,-0.07681318372488022,0.389111191034317,0.0020412218291312456,-0.07208599895238876,-0.05390448868274689,11,8,-1006,3,-71,-53,-44,-20,-155,1500,1500.0
16:53:50.060,AUTO,-35.3632765,149.1652278,38947,0.007455592975020409,-0.07681318372488022,0.389111191034317,0.0020412218291312456,-0.07208599895238876,-0.05390448868274689,11,8,-1006,3,-71,-53,-44,-20,-155,1500,1500.0
16:53:50.262,AUTO,-35.3632765,149.1652278,38947,0.007455592975020409,-0.07681318372488022,0.389111191034317,0.0020412218291312456,-0.07208599895238876,-0.05390448868274689,11,8,-1006,3,-71,-53,-44,-20,-155,1500,1500.0
16:53:50.464,AUTO,-35.3632766,149.1652278,40500,0.01823372207581997,-0.12441205978393555,0.34742727875709534,0.016755491495132446,-0.028636310249567032,-0.02779717557132244,-6,-4,-994,18,-27,-27,49,27,-148,1500,1500.0
16:53:50.666,AUTO,-35.3632752,149.1652287,40873,0.0221590343862772,-0.12121623009443283,0.3368753492832184,0.006125935353338718,0.04451429098844528,-0.045770153403282166,-13,-10,-995,7,45,-45,74,39,-146,1500,1500.0
16:53:50.868,AUTO,-35.3632733,149.1652298,41240,0.024501143023371696,-0.10627392679452896,0.32435110211372375,-0.0039896839298307896,0.07123105973005295,-0.054830871522426605,-18,-12,-996,-2,72,-54,97,49,-143,1500,1500.0
16:53:51.069,AUTO,-35.3632733,149.1652298,41240,0.024501143023371696,-0.10627392679452896,0.32435110211372375,-0.0039896839298307896,0.07123105973005295,-0.054830871522426605,-18,-12,-996,-2,72,-54,97,49,-143,1500,1500.0
16:53:51.272,AUTO,-35.3632709,149.1652312,41604,0.025153474882245064,-0.08692938089370728,0.310776948928833,-0.0010713600786402822,0.07935689389705658,-0.05678611993789673,-21,-16,-1001,0,80,-56,114,56,-143,1500,1500.0
16:53:51.474,AUTO,-35.3632681,149.1652328,41973,0.025072548538446426,-0.06495384871959686,0.29609376192092896,-0.002740381984040141,0.08668410778045654,-0.05557132884860039,-25,-19,-1005,-1,87,-55,126,61,-143,1500,1500.0
16:53:51.676,AUTO,-35.3632681,149.1652328,41973,0.025072548538446426,-0.06495384871959686,0.29609376192092896,-0.002740381984040141,0.08668410778045654,-0.05557132884860039,-25,-19,-1005,-1,87,-55,126,61,-143,1500,1500.0
16:53:51.878,AUTO,-35.3632681,149.1652328,41973,0.025072548538446426,-0.06495384871959686,0.29609376192092896,-0.002740381984040141,0.08668410778045654,-0.05557132884860039,-25,-19,-1005,-1,87,-55,126,61,-143,1500,1500.0
16:53:52.079,AUTO,-35.3632681,149.1652328,41973,0.025072548538446426,-0.06495384871959686,0.29609376192092896,-0.002740381984040141,0.08668410778045654,-0.05557132884860039,-25,-19,-1005,-1,87,-55,126,61,-143,1500,1500.0
16:53:52.281,AUTO,-35.3632681,149.1652328,41973,0.025072548538446426,-0.06495384871959686,0.29609376192092896,-0.002740381984040141,0.08668410778045654,-0.05557132884860039,-25,-19,-1005,-1,87,-55,126,61,-143,1500,1500.0
16:53:52.484,AUTO,-35.363256,149.1652398,43465,0.014788306318223476,0.0314643494784832,0.2370821088552475,-0.01949397101998329,0.10671582072973251,-0.07387812435626984,-22,-19,-1015,-18,107,-73,122,60,-154,1500,1500.0
16:53:52.685,AUTO,-35.3632533,149.1652414,43858,0.008969143964350224,0.057281505316495895,0.21789468824863434,-0.01895052008330822,0.09856938570737839,-0.07678661495447159,-23,-18,-1014,-17,99,-76,107,54,-157,1500,1500.0
16:53:52.888,AUTO,-35.363251,149.1652428,44259,0.0030610852409154177,0.0807051807641983,0.19769105315208435,-0.015850089490413666,0.08914574980735779,-0.08401888608932495,-18,-22,-1011,-14,90,-83,86,45,-159,1500,1500.0
16:53:53.089,AUTO,-35.363251,149.1652428,44259,0.0030610852409154177,0.0807051807641983,0.19769105315208435,-0.015850089490413666,0.08914574980735779,-0.08401888608932495,-18,-22,-1011,-14,90,-83,86,45,-159,1500,1500.0
16:53:53.290,AUTO,-35.3632492,149.1652439,44663,-0.0022071979474276304,0.10126936435699463,0.17650528252124786,-0.013341701589524746,0.0781811997294426,-0.08501002192497253,-15,-15,-1007,-12,79,-84,62,36,-160,1500,1500.0
16:53:53.491,AUTO,-35.363248,149.1652449,45069,-0.008233063854277134,0.11929639428853989,0.15403275191783905,-0.021542904898524284,0.06412424147129059,-0.08143530040979385,-9,-12,-1001,-20,65,-81,34,27,-159,1500,1500.0
16:53:53.692,AUTO,-35.363248,149.1652449,45069,-0.008233063854277134,0.11929639428853989,0.15403275191783905,-0.021542904898524284,0.06412424147129059,-0.08143530040979385,-9,-12,-1001,-20,65,-81,34,27,-159,1500,1500.0
16:53:53.895,AUTO,-35.363248,149.1652449,45069,-0.008233063854277134,0.11929639428853989,0.15403275191783905,-0.021542904898524284,0.06412424147129059,-0.08143530040979385,-9,-12,-1001,-20,65,-81,34,27,-159,1500,1500.0
16:53:54.097,AUTO,-35.363248,149.1652449,45069,-0.008233063854277134,0.11929639428853989,0.15403275191783905,-0.021542904898524284,0.06412424147129059,-0.08143530040979385,-9,-12,-1001,-20,65,-81,34,27,-159,1500,1500.0
16:53:54.300,AUTO,-35.363248,149.1652449,45069,-0.008233063854277134,0.11929639428853989,0.15403275191783905,-0.021542904898524284,0.06412424147129059,-0.08143530040979385,-9,-12,-1001,-20,65,-81,34,27,-159,1500,1500.0
16:53:54.501,AUTO,-35.3632496,149.1652456,46626,-0.059871524572372437,0.10403502732515335,0.1226489469408989,0.04762930050492287,-0.04692106693983078,-0.004090421833097935,9,8,-1000,48,-45,-3,-71,-28,-147,1500,1500.0
16:53:54.702,AUTO,-35.3632513,149.1652447,46998,-0.04544559121131897,0.0920528694987297,0.12286131083965302,0.06059218943119049,-0.051217611879110336,0.003381046699360013,15,12,-999,61,-49,3,-90,-40,-146,1500,1500.0
16:53:54.904,AUTO,-35.3632534,149.1652436,47366,-0.029570868238806725,0.07767552882432938,0.12546677887439728,0.05693209171295166,-0.06739398837089539,0.0213218554854393,15,20,-1000,57,-66,21,-105,-47,-145,1500,1500.0
16:53:55.105,AUTO,-35.3632559,149.1652424,47735,-0.025170236825942993,0.05060083791613579,0.14210450649261475,-0.042429368942976,-0.16540780663490295,0.11638577282428741,18,19,-999,-41,-164,116,-116,-49,-144,1500,1500.0
16:53:55.309,AUTO,-35.3632559,149.1652424,47735,-0.025170236825942993,0.05060083791613579,0.14210450649261475,-0.042429368942976,-0.16540780663490295,0.11638577282428741,18,19,-999,-41,-164,116,-116,-49,-144,1500,1500.0
16:53:55.510,AUTO,-35.3632585,149.165241,48103,-0.05832384154200554,-0.0023956354707479477,0.1986166387796402,-0.24964424967765808,-0.30919140577316284,0.34213730692863464,23,18,-996,-248,-308,342,-116,-54,-144,1962,1500.0
16:53:55.712,AUTO,-35.3632585,149.165241,48103,-0.05832384154200554,-0.0023956354707479477,0.1986166387796402,-0.24964424967765808,-0.30919140577316284,0.34213730692863464,23,18,-996,-248,-308,342,-116,-54,-144,1962,1500.0
16:53:55.915,AUTO,-35.3632585,149.165241,48103,-0.05832384154200554,-0.0023956354707479477,0.1986166387796402,-0.24964424967765808,-0.30919140577316284,0.34213730692863464,23,18,-996,-248,-308,342,-116,-54,-144,1962,1500.0
16:53:56.118,AUTO,-35.3632585,149.165241,48103,-0.05832384154200554,-0.0023956354707479477,0.1986166387796402,-0.24964424967765808,-0.30919140577316284,0.34213730692863464,23,18,-996,-248,-308,342,-116,-54,-144,1962,1500.0
16:53:56.321,AUTO,-35.3632585,149.165241,48103,-0.05832384154200554,-0.0023956354707479477,0.1986166387796402,-0.24964424967765808,-0.30919140577316284,0.34213730692863464,23,18,-996,-248,-308,342,-116,-54,-144,1962,1500.0
16:53:56.524,AUTO,-35.3632632,149.1652349,49139,-0.10389825701713562,-0.1568962186574936,0.8413324952125549,0.4900292456150055,-0.3555220365524292,1.0019638538360596,11,20,-956,491,-354,1002,-9,-86,-121,1962,1500.0
16:53:56.725,AUTO,-35.3632625,149.1652318,49652,-0.007202464621514082,-0.167950838804245,1.290377140045166,0.2510095536708832,0.1282135248184204,0.7971500754356384,-2,12,-929,252,129,797,41,-21,-79,1962,1500.0
16:53:56.927,AUTO,-35.3632615,149.1652316,49831,0.014728020876646042,-0.12975360453128815,1.4907797574996948,0.17697449028491974,0.16379599273204803,0.7718966007232666,-6,8,-938,178,164,772,43,11,-60,1962,1500.0
16:53:57.128,AUTO,-35.3632606,149.1652321,49969,0.03128182142972946,-0.09514488279819489,1.6841707229614258,0.15585289895534515,0.1443958282470703,0.7396408319473267,-9,5,-951,157,145,740,36,34,-46,1962,1500.0
16:53:57.329,AUTO,-35.3632606,149.1652321,49969,0.03128182142972946,-0.09514488279819489,1.6841707229614258,0.15585289895534515,0.1443958282470703,0.7396408319473267,-9,5,-951,157,145,740,36,34,-46,1962,1500.0
16:53:57.531,AUTO,-35.3632599,149.1652331,50072,0.03870448097586632,-0.06698062270879745,1.869077444076538,-0.008293680846691132,0.13138040900230408,0.7311381697654724,-13,-1,-962,-7,132,731,24,47,-35,1962,1500.0
16:53:57.731,AUTO,-35.3632599,149.1652331,50072,0.03870448097586632,-0.06698062270879745,1.869077444076538,-0.008293680846691132,0.13138040900230408,0.7311381697654724,-13,-1,-962,-7,132,731,24,47,-35,1962,1500.0
16:53:57.933,AUTO,-35.3632599,149.1652331,50072,0.03870448097586632,-0.06698062270879745,1.869077444076538,-0.008293680846691132,0.13138040900230408,0.7311381697654724,-13,-1,-962,-7,132,731,24,47,-35,1962,1500.0
16:53:58.135,AUTO,-35.3632599,149.1652331,50072,0.03870448097586632,-0.06698062270879745,1.869077444076538,-0.008293680846691132,0.13138040900230408,0.7311381697654724,-13,-1,-962,-7,132,731,24,47,-35,1962,1500.0
16:53:58.337,AUTO,-35.3632593,149.1652372,50236,0.05298087000846863,-0.021039023995399475,2.413487434387207,-0.13636572659015656,0.06422527879476547,0.7145611047744751,-11,-24,-979,-137,65,715,-10,46,-8,1962,1500.0
16:53:58.539,AUTO,-35.3632595,149.1652384,50249,0.04298962280154228,-0.011350748129189014,2.554298162460327,-0.7028505802154541,0.08619508147239685,0.29924118518829346,-12,-34,-974,-702,87,299,-18,38,-3,1500,1500.0
16:53:58.739,AUTO,-35.3632599,149.1652394,50248,0.039287127554416656,0.00561884231865406,2.5484893321990967,-0.4621550142765045,0.08193033933639526,-0.1425783336162567,-9,-8,-977,-459,83,-142,-23,26,1,1500,1500.0
16:53:58.941,AUTO,-35.3632604,149.1652401,50231,0.03539195656776428,0.018976056948304176,2.5211663246154785,0.11019093543291092,0.08988605439662933,0.09826439619064331,-10,27,-950,114,91,99,-25,16,9,1500,1500.0
16:53:59.141,AUTO,-35.3632609,149.1652404,50188,0.06274821609258652,0.06053322181105614,2.4995651245117188,0.38469967246055603,0.018284572288393974,-0.06296264380216599,-1,34,-1004,389,19,-62,-23,0,17,1500,1500.0
16:53:59.342,AUTO,-35.3632609,149.1652404,50188,0.06274821609258652,0.06053322181105614,2.4995651245117188,0.38469967246055603,0.018284572288393974,-0.06296264380216599,-1,34,-1004,389,19,-62,-23,0,17,1500,1500.0
16:53:59.543,AUTO,-35.3632614,149.1652404,50136,0.05739603191614151,0.04043808579444885,2.489593267440796,0.7064455151557922,-0.12502853572368622,-0.011013300158083439,2,34,-1033,709,-123,-10,-20,-17,18,1500,1500.0
16:53:59.745,AUTO,-35.3632614,149.1652404,50136,0.05739603191614151,0.04043808579444885,2.489593267440796,0.7064455151557922,-0.12502853572368622,-0.011013300158083439,2,34,-1033,709,-123,-10,-20,-17,18,1500,1500.0
16:53:59.948,AUTO,-35.3632614,149.1652404,50136,0.05739603191614151,0.04043808579444885,2.489593267440796,0.7064455151557922,-0.12502853572368622,-0.011013300158083439,2,34,-1033,709,-123,-10,-20,-17,18,1500,1500.0
16:54:00.149,AUTO,-35.3632614,149.1652404,50136,0.05739603191614151,0.04043808579444885,2.489593267440796,0.7064455151557922,-0.12502853572368622,-0.011013300158083439,2,34,-1033,709,-123,-10,-20,-17,18,1500,1500.0
16:54:00.350,AUTO,-35.3632614,149.1652404,50136,0.01931215450167656,-0.03384627029299736,2.4834864139556885,-0.7334369421005249,-0.07058031111955643,-0.0002897967351600528,2,34,-1033,709,-123,-10,-20,-17,18,1500,1500.0
16:54:00.554,AUTO,-35.3632639,149.1652381,49998,0.016029631718993187,-0.04906168952584267,2.483863115310669,-0.6479426026344299,-0.05345914512872696,-0.008166465908288956,0,-23,-1005,-645,-52,-7,-45,-22,5,1500,1500.0
16:54:00.755,AUTO,-35.3632651,149.1652377,49980,0.0236094631254673,-0.06227140128612518,2.493633985519409,-0.00880715437233448,-0.03297165408730507,0.1803480088710785,-4,5,-1015,-5,-31,181,-59,-16,2,1500,1500.0
