time_stamp,RTL_ALT,MODE,roll,pitch,yaw,rollspeed,pitchspeed,yawspeed,lat,lon,relative_alt,vx,vy,vz,xacc,yacc,zacc,xgyro,ygyro,zgyro
03:14:12,1500.0,STABILIZE,-0.00037765997694805264,0.0009418657864443958,0.023055002093315125,0.0003470605588518083,0.0003688452416099608,0.0016907155513763428,-35.3632621,149.1652375,0.0,-1.0,1.0,-1.0,0.0,1.0,-1000.0,0.0,0.0,0.0
03:14:16,1500.0,STABILIZE,-0.00019298780534882098,0.0009710235171951354,0.02165442332625389,0.00030416587833315134,0.0003045352641493082,0.0015762837138026953,-35.3632622,149.1652375,0.0,-1.0,2.0,0.0,0.0,1.0,-1000.0,0.0,0.0,0.0
03:14:22,1500.0,AUTO,-0.0005200203013373539,0.0009946393547579646,0.020184763707220554,0.00020132196368649602,0.00022584284306503832,0.0014574157539755106,-35.3632622,149.1652375,0.0,-1.0,1.5,1.0,0.0,1.0,-1000.0,0.5,0.5,0.0
03:14:24,1500.0,AUTO,-0.0003129961114609614,0.001237320073414594,0.01983619201928377,0.00032346139778383076,0.0002911685442086309,0.001408689538948238,-35.3632621,149.1652375,0.0,0.0,0.0,1.5,0.0,1.5,-1000.0,0.5,0.0,0.5
03:14:25,82778.0,AUTO,-6.916457141414867e-05,0.0015181753551587462,0.01961368601769209,0.000361647384124808,0.0002731109852902591,0.0013347846979741007,-35.3632621,149.1652374,0.0,0.0,0.0,1.0,0.0,1.25,-1000.0,0.25,0.25,0.0
03:14:26,82778.0,AUTO,0.0017968497413676232,0.0009208528426825069,0.019347628578543663,0.003953886218369007,0.0026752168487291783,0.00068442671908997,-35.3632621,149.16523745,85.0,0.0,0.0,-33.5,0.0,0.5,-1065.0,4.5,3.0,0.0
03:14:28,82778.0,AUTO,0.04802982695400715,-0.0061007835902273655,0.0058791188057512045,0.032925029285252094,-0.005289293476380408,-0.007085750927217305,-35.36326185,149.16523855000003,2306.0,4.0,25.5,-146.5,0.5,-4.0,-1002.0,33.0,-4.5,-7.5
03:14:30,78778.5,AUTO,-0.055692778900265694,0.0013966024853289127,-0.08755271136760712,0.0001657772809267044,-0.013656536117196083,-0.017857397673651576,-35.363261,149.16524579999998,5357.5,-2.5,3.0,-148.0,2.0,-2.0,-1002.5,1.0,-12.5,-18.0
03:14:32,74779.0,AUTO,0.026833966025151312,0.0037949782563373446,-0.08861177042126656,0.06505305133759975,0.011810020077973604,0.0038166557205840945,-35.363261449999996,149.16523715,8445.5,-4.0,-46.0,-151.0,-6.5,12.0,-1003.5,65.0,12.0,3.0
03:14:34,74779.0,AUTO,-0.005522983148694038,-0.0038147112354636192,-0.09382935613393784,-0.03677747742040083,-0.0037180311046540737,-0.018339072819799185,-35.3632624,149.1652359,11622.5,-1.0,17.5,-149.5,2.0,-3.0,-1002.0,-36.0,-3.0,-17.5
03:14:35,10324.0,AUTO,-0.011139153386466205,-0.0018921237788163126,-0.1214916855096817,0.017989389365538955,0.006367621477693319,-0.026168054435402155,-35.363262250000005,149.1652369,13252.0,3.75,-2.5,-151.25,-0.5,-0.5,-1000.5,18.0,6.5,-26.0
03:14:36,10324.0,AUTO,0.004832122314837761,0.004126829211600125,-0.14436886459589005,0.012360884808003902,0.004965981934219599,-0.018137040548026562,-35.36326185,149.16523625,14811.5,2.0,-6.5,-152.0,-2.0,0.5,-1000.0,12.5,5.5,-18.0
03:14:38,10324.0,AUTO,-0.020468927919864655,0.006854661041870713,-0.16902201622724533,-0.030730970203876495,0.02524988166987896,0.04150925250723958,-35.36326165,149.16523545,17926.0,-4.0,-4.0,-150.0,0.0,0.5,-992.0,-29.5,26.0,41.0
03:14:40,42512.5,AUTO,0.05426391586661339,-0.03223065845668316,0.05589457228779793,0.011604048311710358,-0.004880007356405258,-0.025952180847525597,-35.3632642,149.165231,20489.5,-10.5,0.0,-88.5,1.0,2.5,-965.5,12.5,-4.0,-26.0
03:14:42,74701.0,AUTO,-0.003382766735740006,0.01052367384545505,0.03993765451014042,-0.011154055711813271,0.009794600307941437,-0.0001419096952304244,-35.36326245,149.16523684999999,21720.5,13.0,33.5,-35.5,0.5,-7.5,-976.5,-10.0,10.0,-0.5
03:14:44,74701.0,AUTO,-0.027361189015209675,0.032342661172151566,0.0338513795286417,0.011050812900066376,0.005372005281969905,-0.002638559089973569,-35.3632616,149.16523945,21875.5,-14.5,-10.5,14.0,2.0,7.0,-1000.5,12.0,6.5,-2.0
03:14:45,101470.0,AUTO,0.0008353488519787788,0.05415805336087942,0.02411491033853963,0.04860560968518257,0.036241705529391766,-0.07752854621503502,-35.363264150000006,149.165237775,21753.5,-49.75,-15.25,1.5,7.5,6.75,-1024.5,49.5,36.75,-77.5
03:14:46,101470.0,AUTO,-0.05369573459029198,0.06909492239356041,-0.4000949338078499,-0.23899304121732712,0.03196495771408081,-0.6599790155887604,-35.3632711,149.1652365,21789.5,-105.5,-12.0,-9.0,9.5,14.0,-1010.5,-237.5,32.5,-659.5
03:14:48,101470.0,AUTO,-0.13335975632071495,-0.056039861403405666,-1.654626727104187,-0.15841767936944962,0.0008012447506189346,-0.6062114238739014,-35.36330565,149.1652326,22097.5,-285.0,-25.5,-24.0,-43.5,42.5,-1012.5,-157.0,1.5,-606.0
03:14:50,101470.0,AUTO,0.026318981195800006,-0.11484668776392937,-2.8524497747421265,-0.030619659461081028,0.012981161940842867,-0.42143312841653824,-35.36336825,149.16522444999998,22754.5,-393.5,-41.0,-36.5,-85.5,-37.0,-998.5,-29.5,13.5,-421.0
03:14:51,99421.0,AUTO,0.05009093973785639,-0.09186223149299622,-3.0487353801727295,-0.0010008637327700853,0.032112919725477695,0.05585054843686521,-35.363404725,149.165219025,23141.25,-416.5,-43.5,-38.25,-80.5,-55.25,-997.75,-0.25,32.75,55.25
03:14:52,99421.0,AUTO,0.049684127792716026,-0.07195323705673218,-3.019582748413086,-0.004316899867262691,0.017248277174076065,0.004230980644933879,-35.3634422,149.16521355,23531.5,-416.5,-44.0,-37.0,-84.0,-46.5,-993.0,-3.5,18.0,4.0
03:14:54,99421.0,AUTO,0.0432649627327919,0.011990307713858783,-3.0208544731140137,-0.007344118785113096,0.04459577612578869,0.0012456534896045923,-35.36351185,149.16520350000002,24244.5,-336.0,-35.5,-29.0,-66.5,-40.0,-990.0,-6.5,45.0,1.0
03:14:56,75537.5,AUTO,0.020636827684938908,0.0778622068464756,-3.0216692686080933,0.08283740282058716,-0.013125409372150898,-0.008258669287897646,-35.36355525,149.16519705,24622.0,-135.5,-16.0,-4.0,-28.5,-13.5,-997.0,84.0,-12.0,-7.5
03:14:58,51654.0,AUTO,-0.010195026407018304,0.032152567990124226,-3.0232454538345337,-0.27951619774103165,-0.014912329614162445,0.0020458311191760004,-35.36356735,149.16519415,24653.5,-17.0,3.5,0.5,-2.5,-16.5,-998.5,-278.5,-13.0,2.0
03:15:00,51654.0,RTL,-0.01269840938039124,0.005217931553488597,-3.0225452184677124,-0.16519545018672943,0.009164641262032092,-0.0046715757343918085,-35.36356855,149.16519355,24641.5,1.0,15.0,0.5,-1.0,-8.0,-995.0,327.0,2.0,-4.0
03:15:01,95016.0,RTL,-0.01561202434822917,0.011797735234722495,-3.0225383639335632,-0.017575986683368683,0.00048769134446047246,-0.005649800470564514,-35.36356895,149.165193325,24686.0,2.5,16.75,-13.0,-0.4,-1.0,-1025.0,-145.6,5.0,-5.0
03:15:02,95016.0,RTL,-0.014873573556542397,0.010016198270022869,-3.0227445363998413,-0.11205647140741348,-0.004080285085365176,-0.006584421964362264,-35.3635692,149.1651933,25033.0,6.0,18.0,-57.0,0.0,-1.0,-1041.0,-111.0,-2.0,-6.0
03:15:04,95016.0,RTL,0.008394922013394535,0.004481253563426435,-3.025050163269043,0.05538753233850002,-0.006206182762980461,-0.0008083385473582894,-35.363569150000004,149.1651943,27063.5,8.0,12.0,-135.5,-0.5,3.0,-1025.5,54.5,-4.5,-1.0
03:15:06,95016.0,RTL,-0.0053867679089307785,0.009144735056906939,-3.0611225366592407,-0.10718053579330444,0.032999658957123756,-0.05728213395923376,-35.363569049999995,149.16519065,30067.5,5.5,-40.0,-146.5,3.5,-6.0,-998.5,-106.5,35.0,-57.0
03:15:07,64936.0,RTL,-0.06309700943529606,0.0021740393967775162,-3.094707190990448,0.03618608508259058,-0.005528917390620336,-0.016319214715622365,-35.363568924999996,149.165189175,31592.5,3.75,14.5,-148.75,-0.75,3.0,-1003.25,36.0,-3.75,-15.75
03:15:08,64936.0,RTL,-0.004478725604712963,0.004192872380372137,-3.102830410003662,0.0672077052295208,0.007085706340149045,-0.0008893240010365844,-35.363568650000005,149.1651941,33139.0,6.0,45.0,-150.5,-5.0,12.0,-1002.5,66.5,8.5,-0.5
03:15:10,64936.0,RTL,0.02602020255289972,-0.02877217438071966,-3.0574982166290283,-0.039879756048321724,-0.0086740143597126,0.010909982025623322,-35.36356725,149.16520014999998,36252.5,-6.0,-20.5,-149.5,-0.5,-1.5,-999.0,-39.5,-6.5,11.0
03:15:12,64740.0,RTL,0.0032725955825299025,0.015807734802365303,-3.131643533706665,0.017401287332177162,0.006125396117568016,-0.029865993186831474,-35.3635698,149.1651992,38773.0,-11.0,-8.0,-152.0,-3.0,-1.0,-1000.0,17.0,7.0,-29.0
03:15:14,64544.0,RTL,0.010163207072764635,0.005917656235396862,3.1249663829803467,-0.0038280650041997433,-0.008428751956671476,-0.010280912276357412,-35.3635698,149.1651991,41852.0,9.0,-15.5,-152.0,2.0,0.0,-1000.5,-3.0,-6.0,-9.0
03:15:16,64544.0,RTL,0.002768781268969178,-0.0009364164143335074,3.082216501235962,0.0006281700916588306,0.001013296889141202,-0.02706971112638712,-35.3635686,149.16519764999998,44975.0,2.5,-11.5,-152.0,1.0,0.0,-1000.0,1.0,2.5,-26.5
03:15:17,133127.0,RTL,0.0055701048113405704,0.0014508907624986023,3.047157347202301,0.0038178775866981596,0.0012060229782946408,-0.025554970372468233,-35.3635685,149.16519735,46925.0,0.0,-9.0,-152.0,0.0,0.0,-1000.0,4.25,2.75,-24.5
03:15:18,133127.0,RTL,0.006233960390090942,0.002276610233820975,3.0278687477111816,0.0005714651488233358,0.0003905418561771512,-0.022872256115078926,-35.36356845,149.1651972,48096.5,0.0,-9.0,-152.0,0.0,0.0,-1000.5,1.5,1.5,-21.5
03:15:20,133127.0,RTL,0.004400322213768959,0.0026164755690842867,2.9820523262023926,0.0010334983235225081,-0.0006506519857794046,-0.02033331338316202,-35.3635684,149.1651967,51211.0,0.0,-8.0,-152.0,0.0,0.0,-1000.5,2.0,0.5,-19.5
03:15:22,133127.0,RTL,0.005675415741279721,0.003246353822760284,2.9892070293426514,-0.004767651029396802,-0.0034474183339625597,0.02878145221620798,-35.3635682,149.1651961,54319.0,1.5,-10.0,-152.0,0.0,0.0,-1000.0,-3.0,-1.5,29.5
03:15:23,132587.0,RTL,0.0022821209859102964,0.0014383048692252487,3.022763729095459,0.00030233604775276035,-0.0004163004632573575,0.027201805729418993,-35.363568025,149.16519555,56257.0,0.5,-8.0,-152.0,0.0,0.0,-1000.25,1.25,0.75,27.75
03:15:24,132587.0,RTL,0.0020604850724339485,0.0008766927057877183,3.041125535964966,0.00023307683295570314,-0.0012684224639087915,0.022198162972927094,-35.363568,149.16519534999998,57423.5,0.0,-6.0,-152.0,0.0,0.0,-1000.0,1.0,0.0,23.0
03:15:26,132587.0,RTL,0.0037167903501540422,0.0006172697176225483,3.0786696672439575,0.0021712437737733126,4.1764520574361086e-05,0.018136242404580116,-35.363568,149.1651954,60524.5,-1.0,-3.0,-152.0,0.0,0.0,-1000.5,2.5,1.5,18.5
03:15:28,182250.5,RTL,0.004628766793757677,0.0016944646486081183,3.1068549156188965,0.00320978561649099,0.0005849811714142561,0.014303809497505426,-35.3635682,149.1651957,63630.0,-0.5,-4.0,-152.0,0.0,0.0,-1000.0,4.0,2.0,14.5
03:15:30,231914.0,RTL,0.0037218191428110003,0.00232648360542953,3.1279263496398926,-0.001172602700535208,0.0006645055836997926,0.011342404410243034,-35.3635684,149.1651958,66739.0,0.0,-4.0,-152.0,0.0,0.0,-999.5,0.5,1.5,12.0
03:15:32,231914.0,RTL,0.0032421774230897427,0.0016365142073482275,-3.139384627342224,0.00018137734150514007,-0.00010792096145451069,0.008339851628988981,-35.3635684,149.1651958,69845.0,0.0,-4.0,-152.0,0.0,0.0,-1000.0,1.5,1.5,9.0
03:15:33,90100.0,RTL,0.003156729449983686,0.0017299833707511425,-3.131211817264557,0.0006378117541316897,-0.0005447243747767061,0.007381072035059333,-35.3635684,149.1651958,71787.5,0.0,-4.0,-152.0,0.0,0.0,-1000.0,1.75,0.75,8.25
03:15:34,90100.0,RTL,0.002736005815677345,0.002069587295409292,-3.126572012901306,0.0002811430022120476,0.0016759345890022814,0.007118404610082507,-35.3635684,149.1651958,72958.0,0.0,-3.0,-152.0,0.0,0.0,-999.5,2.0,3.0,8.0
03:15:36,90100.0,RTL,0.0030201004119589925,0.0020507340086624026,-3.114627242088318,0.0006702335667796433,-0.00041571533074602485,0.00875914515927434,-35.3635685,149.1651958,76059.0,1.0,-3.0,-152.0,0.0,0.0,-1000.0,2.0,1.0,9.5
03:15:38,63631.5,RTL,0.002692792797461152,0.0020591389620676637,-3.1049071550369263,0.003219030040781945,-0.0002141304430551827,0.005628155544400215,-35.3635685,149.1651958,79168.0,1.0,-3.0,-152.0,0.0,0.0,-1000.5,4.5,1.5,6.5
03:15:40,37163.0,RTL,0.0029094346100464463,0.001904717821162194,-3.0964369773864746,-0.0020283227786421776,-0.0005337038310244679,0.004801304079592228,-35.3635685,149.1651958,82274.0,1.0,-3.0,-152.0,0.0,0.0,-1000.0,0.0,0.5,5.5
03:15:42,37163.0,RTL,0.0027568700024858117,0.0021894824458286166,-3.089008927345276,-0.000939711753744632,0.0002545370371080935,0.005227450979873538,-35.3635685,149.1651958,85384.0,1.0,-3.0,-152.0,0.0,0.0,-1000.0,0.5,1.5,6.5
03:15:43,6065.0,RTL,0.0025495075387880206,0.0022956307511776686,-3.0848604440689087,-0.00031326382304541767,0.0008704552601557225,0.004234777181409299,-35.363568550000004,149.1651958,87321.25,1.0,-3.0,-152.0,0.0,0.0,-999.5,1.5,2.5,5.25
03:15:44,6065.0,RTL,0.002429195214062929,0.002198750851675868,-3.0826414823532104,0.0007258100085891783,-0.00047351804096251726,0.003769059432670474,-35.3635686,149.1651958,88485.5,1.0,-2.5,-152.0,0.0,0.0,-1000.5,2.0,0.5,5.0
03:15:46,6065.0,RTL,0.0019381972379051149,0.0020405834075063467,-3.0771324634552,0.0014873630134388804,-0.000466200930532068,0.002919038641266525,-35.3635686,149.16519575,91590.0,1.0,-2.0,-152.0,0.0,0.0,-1000.5,3.0,1.0,4.0
03:15:48,73513.0,RTL,0.002162994584068656,0.0020875674672424793,-3.0719246864318848,-0.0010315979598090053,-0.00073394482024014,0.0028657334623858333,-35.3635686,149.1651958,94699.0,1.0,-2.0,-152.0,0.0,0.0,-999.5,0.0,1.0,4.5
03:15:50,140961.0,RTL,0.002210161415860057,0.0018062616582028568,-3.068008065223694,-0.0007596412906423211,-0.00023451086599379778,0.001400765497237444,-35.3635686,149.1651958,97805.0,1.0,-2.0,-152.0,0.0,0.0,-1000.0,1.5,1.5,2.5
03:15:52,140961.0,RTL,0.002342473133467138,0.0023802744690328836,-3.0633127689361572,-0.0006894104881212115,-0.0005338531918823719,0.003770503564737737,-35.3635686,149.1651958,100918.0,1.0,-2.0,-152.0,0.0,0.0,-1000.0,1.5,1.0,4.5
03:15:53,20405.0,RTL,0.00170517637161538,0.0025907966191880405,-3.0613056421279907,0.0006206714897416532,-6.523012416437268e-06,0.0019395046983845532,-35.3635686,149.165195775,103006.0,1.0,-2.0,-152.0,0.0,0.0,-1000.25,2.5,1.5,3.0
03:15:54,20405.0,RTL,0.0017628908390179276,0.0023080388782545924,-3.0601896047592163,-0.0001387674710713327,0.000992845743894577,0.0029359175823628902,-35.3635686,149.1651957,104175.0,1.0,-2.0,-152.0,0.0,0.0,-1000.0,1.5,2.5,4.0
03:15:56,20405.0,RTL,0.0020267238141968846,0.0024061615113168955,-3.057124376296997,0.00223875988740474,0.0006971778348088264,0.0015183264622464776,-35.3635686,149.1651957,107277.0,1.0,-1.0,-152.0,0.0,0.0,-1000.0,3.5,2.5,3.0
03:15:58,34285.5,RTL,0.0023409425048157573,0.0020429538562893867,-3.0548784732818604,-7.402605842798948e-05,0.0011560878483578563,0.003009125590324402,-35.3635686,149.1651957,110394.5,1.0,-1.0,-152.0,0.0,0.0,-999.0,2.0,2.5,4.5
03:16:00,48166.0,RTL,0.002041470375843346,0.002243264578282833,-3.0528109073638916,0.000688423402607441,0.000445558805949986,0.0014403986860997975,-35.3635686,149.1651957,113493.5,1.0,-2.0,-152.0,0.0,0.0,-1000.5,2.5,2.0,2.5
03:16:02,48166.0,RTL,0.001947891665622592,0.00218624877743423,-3.051144003868103,0.0009513177210465074,0.0015537755098193884,0.002335831639356911,-35.3635686,149.1651957,116600.0,1.0,-2.0,-152.0,0.0,0.0,-999.5,3.0,3.0,4.0
03:16:03,142645.0,RTL,0.00201915274374187,0.002152915403712541,-3.0499719381332397,0.0006554047286044806,0.0004549749428406358,0.0011485881404951215,-35.3635686,149.1651957,118544.75,1.0,-2.0,-152.0,0.0,0.0,-1000.25,2.5,2.0,2.25
03:16:04,142645.0,RTL,0.0018855344969779253,0.002198986359871924,-3.049589157104492,0.0020707750227302313,-0.00021853175712749362,0.0011058500967919827,-35.3635686,149.1651957,119713.5,1.0,-2.0,-152.0,0.0,0.0,-1001.0,3.5,1.5,2.5
03:16:06,142645.0,RTL,0.0019018036546185613,0.0019175721099600196,-3.047987222671509,-0.0003040662268176675,-0.0003346587182022631,-0.00036172481486573815,-35.3635686,149.1651957,122822.0,1.0,-1.0,-152.0,0.0,0.0,-1000.5,2.0,1.5,0.5
03:16:08,72375.0,RTL,0.0014252833789214492,0.0024730460718274117,-3.0464515686035156,0.000991560344118625,0.0028264287393540144,0.004276503575965762,-35.3635686,149.1651957,125927.5,1.0,-1.0,-152.0,0.0,0.0,-1000.0,3.0,4.5,6.0
03:16:10,2105.0,RTL,0.001894843066111207,0.0022202639374881983,-3.045171856880188,0.0016494679730385542,-0.00038574624340981245,-0.00012334517668932676,-35.3635686,149.1651957,129035.0,1.0,-1.0,-152.0,0.0,0.0,-1001.0,3.5,1.5,1.0
03:16:12,2105.0,RTL,0.001878230890724808,0.002178388647735119,-3.044299602508545,0.0024783696280792356,0.0007148011354729533,0.002331324853003025,-35.3635686,149.1651957,132145.0,1.0,-1.0,-152.0,0.0,0.0,-1000.0,4.5,2.5,3.5
03:16:13,211549.0,RTL,0.0020906240097247064,0.0022098063491284847,-3.0438178181648254,0.003011269378475845,0.000698715855833143,0.0011539773258846253,-35.3635686,149.1651957,134083.75,1.0,-1.0,-152.0,0.0,0.0,-1000.0,4.75,2.25,2.5
03:16:14,211549.0,RTL,0.002298569423146546,0.0022336787078529596,-3.0435951948165894,3.3763120882213116e-05,-0.00023832061560824513,0.000823674607090652,-35.3635686,149.1651957,135251.0,1.0,-1.0,-152.0,0.0,0.0,-1000.5,2.0,1.5,2.0
03:16:16,211549.0,RTL,0.0019419887685216963,0.0023688991786912084,-3.042849540710449,0.0005165837937965989,0.0010738326236605644,0.0014258625451475382,-35.3635686,149.1651957,138355.0,1.0,-1.0,-152.0,0.0,0.0,-999.5,2.5,3.0,2.5
03:16:18,190521.0,RTL,0.0018854333902709186,0.002265388611704111,-3.0425021648406982,0.0009950302774086595,0.0009519571904093027,-0.00019110151333734393,-35.3635686,149.1651957,141468.0,1.0,-1.0,-152.0,0.0,0.0,-1000.0,3.0,3.0,1.5
03:16:20,169493.0,RTL,0.001408805837854743,0.0022994307801127434,-3.04179584980011,-0.0003489375812932849,-0.0012663915986195207,0.0011350114946253598,-35.3635686,149.1651957,144570.5,1.0,-1.0,-152.0,0.0,0.0,-1000.5,2.0,1.0,2.5
03:16:22,169493.0,RTL,0.0017742697964422405,0.0016155359335243702,-3.0413167476654053,-0.0009937997674569488,0.00015676929615437984,0.0011585390893742442,-35.3635686,149.1651957,147676.5,1.0,-1.0,-152.0,0.0,0.0,-1000.0,1.0,2.0,2.5
03:16:23,113503.0,RTL,0.0018723699904512614,0.00207944746944122,-3.041192352771759,0.0009443165617994964,0.000372521550161764,0.0013349686050787568,-35.3635686,149.1651957,149620.5,1.0,-1.0,-152.0,0.0,0.0,-1000.0,3.0,2.25,3.0
03:16:24,113503.0,RTL,0.0017743103671818972,0.002222938113845885,-3.0406936407089233,-0.00033402693225070834,3.2876268960535526e-06,0.0030110811349004507,-35.3635686,149.1651957,150791.0,1.0,-1.0,-152.0,0.0,0.0,-1000.0,1.5,1.5,4.5
03:16:26,113503.0,RTL,0.0003280228120274842,0.05668272264301777,-3.039966344833374,-0.004499388393014669,0.03528505191206932,0.0006504894699901342,-35.36356745,149.1651958,153881.0,33.0,0.5,-149.5,4.0,2.0,-997.5,-2.0,37.0,2.5
03:16:28,113358.5,RTL,-0.05395113676786423,0.06602551229298115,-2.9207191467285156,-0.16455108672380447,0.1108846627175808,0.48822087049484253,-35.3635534,149.16519745,156862.5,110.5,17.0,-132.5,21.5,8.5,-956.5,-161.5,113.0,489.5
03:16:30,113214.0,RTL,0.047993917018175125,-0.01727967942133546,-2.4968477487564087,0.08305898308753967,0.05701030232012272,-0.004186457954347134,-35.3635354,149.16520545,158187.0,76.0,0.0,4.0,17.5,-20.5,-926.0,85.0,59.0,-2.0
03:16:32,113214.0,RTL,0.0007412658887915313,0.04545282945036888,-2.5640740394592285,0.685513824224472,-0.010978528996929526,-0.03587460331618786,-35.3635205,149.16520150000002,157798.5,98.5,-17.5,8.5,24.0,34.0,-1024.0,688.0,-8.0,-33.0
03:16:33,154286.0,RTL,-0.011552125914022326,0.03158065630123019,-2.6190285086631775,-0.27721264213323593,-0.007394578366074711,-0.04866797663271427,-35.36350937500001,149.165201125,157750.5,101.0,8.25,-0.75,20.25,-10.0,-994.25,-274.75,-4.25,-45.75
03:16:34,154286.0,RTL,0.01199681730940938,0.026595480740070343,-2.6500011682510376,0.5994086861610413,-0.004789384489413351,-0.03222604189068079,-35.36350305,149.1652028,157750.0,103.5,11.0,-1.5,20.0,33.0,-996.5,602.0,-2.5,-29.0
03:16:36,154286.0,RTL,0.00357396159961354,0.02678451593965292,-2.7155860662460327,-0.5587025433778763,0.0005437021609395742,-0.03574455250054598,-35.3634859,149.16520715000001,157748.0,109.0,2.5,-0.5,21.0,-21.0,-998.5,-556.0,3.5,-33.0
03:16:38,41319.0,RTL,-0.003791319439187646,0.03021707944571972,-2.7631733417510986,-0.17040416598320007,-0.002852817182429135,-0.01173564838245511,-35.3634683,149.16521025,157754.0,113.0,-2.0,-0.5,22.5,15.0,-991.5,-166.0,0.0,-8.5
03:16:40,41319.0,RTL,0.014648411888629198,0.02800258994102478,-2.798145890235901,0.6004413068294525,-0.006108467350713909,-0.012325973715633154,-35.36345025,149.16521305,157767.0,113.5,-1.0,0.0,24.0,30.0,-1002.5,603.5,-3.0,-9.5
03:16:42,41319.0,RTL,0.011358239687979221,0.03024605754762888,-2.824939727783203,0.4296194463968277,-0.0017409862484782934,-0.011873691342771053,-35.36343205,149.16521555,157770.5,112.5,-2.0,0.0,24.5,15.0,-1011.0,433.0,1.5,-9.0
03:16:43,14753.0,RTL,-0.01996001019142568,0.03231765329837799,-2.837932527065277,-0.0339682474732399,0.0007573659531772137,-0.003891774220392108,-35.3634204,149.1652156,157779.25,110.0,4.25,0.25,25.5,11.0,-997.5,-29.25,3.5,-1.0
03:16:44,14753.0,RTL,-0.02348367590457201,0.032056763768196106,-2.844966769218445,-0.23173526674509048,-0.0015243259258568287,-0.015598186291754246,-35.3634133,149.16521555,157780.0,107.5,12.5,0.0,25.0,-14.5,-1003.0,-228.5,1.5,-12.0
03:16:46,14753.0,RTL,-0.04492332972586155,0.028788868337869644,-2.8591948747634888,-0.6090013384819031,-0.0018745201523415744,-0.012224039994180202,-35.3633943,149.16521565,157783.5,99.5,34.0,0.0,24.5,-20.5,-993.0,-605.0,1.0,-9.0
03:16:48,63247.5,RTL,-0.026579762808978558,0.02333167940378189,-2.8713159561157227,-0.6334940195083618,0.001794654643163085,-0.013656271155923605,-35.363376,149.1652188,157788.0,97.0,40.5,2.0,20.0,-14.0,-994.5,-630.0,5.0,-10.5
03:16:50,111742.0,RTL,-0.01184656098484993,0.02528190892189741,-2.882506847381592,-0.5223680436611176,0.005618342780508101,-0.008072109892964363,-35.363358500000004,149.16522379999998,157783.0,100.5,24.5,0.5,19.5,-10.0,-1002.5,-518.5,8.5,-5.0
03:16:52,111742.0,RTL,-0.017782430164515972,0.02901341672986746,-2.8929898738861084,0.31435112096369267,-0.0007734695682302117,0.008556490764021873,-35.363340550000004,149.16522625,157776.0,105.0,13.0,0.5,22.5,37.5,-1003.5,317.5,2.5,10.5
03:16:53,56612.0,RTL,-0.013943844474852085,0.027204470708966255,-2.8971430460611978,0.32704801112413406,-0.0041685240576043725,-0.0028969384729862213,-35.3633293,149.1652275,157779.0,105.33333333333333,17.333333333333332,0.0,21.0,37.0,-1001.3333333333334,329.6666666666667,-0.6666666666666666,-0.6666666666666666
03:16:54,56612.0,RTL,-0.012496961591144403,0.02343691512942314,-2.900463898976644,-0.26890331506729126,0.0019698106528570256,-0.0026274637784808874,-35.36332243333334,149.16522896666666,157778.0,105.0,17.0,0.3333333333333333,20.666666666666668,8.333333333333334,-1002.6666666666666,-265.6666666666667,5.333333333333333,-0.3333333333333333
03:16:56,56612.0,RTL,0.0012491396628320217,0.026102681333820026,-2.9076973597208657,0.231034388144811,0.0035502034394691386,-0.0007483677472919226,-35.3633044,149.1652326,157774.0,105.33333333333333,6.0,0.0,22.333333333333332,15.666666666666666,-1002.3333333333334,233.66666666666666,6.666666666666667,1.6666666666666667
03:16:58,77699.0,RTL,-0.010519819178928932,0.027810338884592056,-2.9142568111419678,0.2039326230684916,-0.0027059640269726515,-0.012737770254413286,-35.3632861,149.1652339,157769.0,105.33333333333333,10.333333333333334,0.3333333333333333,21.666666666666668,-1.0,-991.3333333333334,206.0,1.0,-9.666666666666666
03:17:00,98786.0,RTL,-0.0031848127643267312,-0.017605677479878068,-2.9193023840586343,-0.43925953408082324,-0.05557647223273913,-0.0078115092280010385,-35.3632682,149.16523753333334,157777.33333333334,91.66666666666667,9.333333333333334,0.3333333333333333,17.333333333333332,-15.666666666666666,-998.3333333333334,-436.6666666666667,-51.333333333333336,-4.666666666666667
03:17:02,98786.0,RTL,0.004174642187232773,-0.00792329122001926,-2.9246951738993325,-0.3488050599892934,0.0626355769733588,0.005020211761196454,-35.36326196666667,149.1652397,157772.33333333334,-2.3333333333333335,-12.0,0.6666666666666666,-1.0,-2.3333333333333335,-996.3333333333334,-345.0,65.66666666666667,7.333333333333333
03:17:03,276344.0,RTL,0.005693890581217905,0.022587642073631287,-2.9272281328837075,0.20557159185409546,-0.00929643710454305,0.001272936041156451,-35.36326256666666,149.16523873333333,157770.33333333334,8.333333333333334,-9.0,0.0,1.3333333333333333,-5.333333333333333,-1005.3333333333334,208.0,-5.0,3.3333333333333335
03:17:04,276344.0,RTL,-0.008057277804861466,0.005758211171875398,-2.928574323654175,-0.24444040656089783,-0.01567040818432967,-0.0011904349861045678,-35.3632621,149.1652381,157774.66666666666,12.666666666666666,-5.666666666666667,0.0,3.3333333333333335,-3.6666666666666665,-1001.6666666666666,-240.66666666666666,-11.0,1.0
03:17:06,276344.0,RTL,-0.011110111760596434,0.0022953300504013896,-2.932690382003784,0.4677274574836095,0.005132808970908324,0.0032082433657099805,-35.3632613,149.16523636666668,157777.0,0.3333333333333333,3.6666666666666665,0.6666666666666666,0.3333333333333333,21.333333333333332,-1012.6666666666666,470.6666666666667,8.666666666666666,5.666666666666667
03:17:08,23068.0,RTL,-0.0011473091241593163,0.0027374501805752516,-2.9352458318074546,0.5119905595978101,-0.004298371107627948,-0.0031340636778622866,-35.363261533333336,149.16523546666667,157779.0,-2.0,16.666666666666668,1.0,0.0,14.0,-995.3333333333334,513.6666666666666,0.0,-0.3333333333333333
03:17:10,23068.0,RTL,-0.0264447337637345,0.0033778405437866845,-2.9383114178975425,-0.6962623000144958,0.0032649092997113862,0.007350578128049771,-35.36326186666667,149.16523576666668,156958.33333333334,-1.0,15.333333333333334,98.0,-1.3333333333333333,7.333333333333333,-920.6666666666666,-691.3333333333334,7.333333333333333,10.0
03:17:12,23068.0,RTL,2.7438004811604817e-05,0.0020753930245215693,-2.940462032953898,-0.7290251279870669,-0.0011276939573387306,-0.006436624486620228,-35.363262133333336,149.16523646666667,154707.66666666666,0.0,14.666666666666666,96.0,0.0,-64.0,-1010.0,-727.6666666666666,2.6666666666666665,-3.3333333333333335
03:17:13,64821.0,RTL,-0.003349598031491041,0.00815948067853848,-2.9412505626678467,1.362974762916565,0.0027477730376025042,0.0011953068897128105,-35.36326213333333,149.16523576666665,153432.0,0.0,7.333333333333333,97.66666666666667,3.0,50.0,-996.3333333333334,1365.0,7.0,4.0
03:17:14,64821.0,RTL,-0.014410147132972876,0.009145508520305157,-2.941529115041097,1.393389900525411,-0.0010387302997211616,0.002906856359913945,-35.3632621,149.1652342333333,152679.66666666666,-1.0,17.0,101.66666666666667,2.6666666666666665,48.666666666666664,-983.3333333333334,1394.6666666666667,2.6666666666666665,5.333333333333333
03:17:16,64821.0,RTL,-0.018872810217241447,-0.004523354737708966,-2.941171487172445,0.4096420059601466,-0.011837541746596495,-0.007786063943058252,-35.3632618,149.16523446666667,150657.0,-0.3333333333333333,30.333333333333332,101.33333333333333,-6.0,60.0,-986.0,413.3333333333333,-7.0,-4.666666666666667
03:17:18,49368.0,RTL,0.06320835029085477,-0.003496398353793969,-2.9454216162363687,-0.38472555081049603,0.007368827859560649,-0.001432911880935232,-35.3632628,149.16524176666667,148597.0,2.0,-10.666666666666666,98.66666666666667,-4.0,-44.333333333333336,-1018.6666666666666,-384.3333333333333,11.666666666666666,1.3333333333333333
03:17:20,49368.0,RTL,0.05347111448645592,0.006214965755740802,-2.9463077386220298,0.9610890944798788,-0.0023712972179055214,-0.004991916085903843,-35.36326366666666,149.1652432333333,146561.33333333334,11.0,-44.0,100.0,0.6666666666666666,15.0,-1015.6666666666666,962.3333333333334,2.3333333333333335,-1.6666666666666667
03:17:22,49368.0,RTL,0.045201665411392845,0.006639420986175537,-2.9477933247884116,1.393231709798177,-0.006615513935685158,-0.0008559351166089376,-35.36326356666667,149.16524216666667,144522.33333333334,12.333333333333334,-42.666666666666664,101.33333333333333,4.0,35.333333333333336,-1001.3333333333334,1396.0,-1.6666666666666667,1.6666666666666667
03:17:23,47940.0,RTL,-0.004022569628432393,0.006728561595082283,-2.948995351791382,-0.10167556504408519,0.0036456556990742683,0.0034963719081133604,-35.3632631,149.16524043333334,143222.0,9.333333333333334,-33.0,98.33333333333333,1.6666666666666667,27.333333333333332,-974.6666666666666,-96.0,7.666666666666667,6.333333333333333
03:17:24,47940.0,RTL,-0.0151503828043739,0.008876165685554346,-2.948349396387736,-0.09862422694762547,0.002312861072520415,0.01602596479157607,-35.3632628,149.16523876666668,142470.33333333334,7.0,-24.666666666666668,98.33333333333333,5.666666666666667,24.0,-975.6666666666666,-92.33333333333333,6.333333333333333,18.333333333333332
03:17:26,47940.0,RTL,-0.0477393294374148,0.006601213322331508,-2.9482409159342446,0.21510696907838187,-0.00213364123677214,0.011760544963181019,-35.363261766666675,149.16523336666668,140431.66666666666,0.0,15.666666666666666,99.0,2.3333333333333335,43.0,-972.3333333333334,220.33333333333334,2.3333333333333335,14.333333333333334
03:17:28,47940.0,RTL,-0.01037526410073042,-0.002577546751126647,-2.9482971827189126,-0.5758510679006577,-0.0039522491085032625,0.0012543218520780404,-35.36326143333333,149.16523356666667,138382.66666666666,-3.3333333333333335,36.0,102.33333333333333,-3.3333333333333335,-61.0,-935.3333333333334,-574.3333333333334,0.6666666666666666,4.0
03:17:29,176223.0,RTL,0.042086356009046234,-0.0088294493034482,-2.948965390523275,0.573878288269043,0.0006395927630364895,-0.003846199174101154,-35.36326183333333,149.1652375,137126.66666666666,-1.6666666666666667,19.666666666666668,100.33333333333333,-9.0,-6.333333333333333,-967.0,574.6666666666666,5.0,-0.6666666666666666
03:17:30,176223.0,RTL,0.058348500480254493,-0.00587571132928133,-2.9501458009084067,0.12756786247094473,0.001956028242905935,-0.0023264362243935466,-35.36326236666667,149.16524036666667,136365.0,-0.3333333333333333,0.0,99.0,-5.333333333333333,-24.333333333333332,-982.6666666666666,128.66666666666666,6.0,0.3333333333333333
03:17:32,176223.0,RTL,0.02889203652739525,0.0067411307245492935,-2.950664440790812,-0.8827955722808838,-0.0021855109371244907,0.0016012918204069138,-35.36326333333333,149.16524223333332,134309.66666666666,7.0,-35.333333333333336,101.33333333333333,0.3333333333333333,-70.66666666666667,-990.3333333333334,-880.6666666666666,2.3333333333333335,4.333333333333333
03:17:34,86104.0,RTL,0.037057358771562576,0.0018582329503260553,-2.949668566385905,1.4628877639770508,-0.005027072969824076,0.0007355560082942247,-35.363263233333335,149.16524133333334,132264.33333333334,11.0,-35.0,99.33333333333333,-1.3333333333333333,72.0,-990.0,1466.6666666666667,-0.6666666666666666,3.3333333333333335
03:17:36,86104.0,RTL,0.07759740948677063,-0.002066476115336021,-2.951247533162435,0.9726300239562988,0.005653213399151961,0.0019580657050634422,-35.363263366666665,149.16524483333333,130153.33333333333,11.0,-54.0,103.33333333333333,-1.3333333333333333,19.0,-959.0,976.3333333333334,9.666666666666666,4.333333333333333
03:17:38,86104.0,RTL,0.059867143630981445,0.0036164630049218736,-2.951880613962809,1.2924523154894512,-0.0014834908458093803,0.002421378390863538,-35.36326366666666,149.1652455,128120.0,14.0,-68.66666666666667,103.33333333333333,0.0,75.0,-993.3333333333334,1299.6666666666667,3.0,5.333333333333333
03:17:39,84521.0,RTL,0.012685409591843685,0.008698097274949154,-2.9515328407287598,-1.4152212142944336,0.0083392687762777,-0.0006857296296705803,-35.3632637,149.1652442333333,126858.66666666667,13.666666666666666,-67.66666666666667,102.66666666666667,2.6666666666666665,-51.333333333333336,-982.6666666666666,-1407.0,12.666666666666666,2.0
03:17:40,84521.0,RTL,-0.004521769064012915,0.009620286524295807,-2.9516486326853433,-1.31419571240743,-0.0013359396252781153,0.0007608572486788034,-35.36326353333333,149.16524256666665,126111.66666666667,12.666666666666666,-55.666666666666664,102.33333333333333,3.0,-57.666666666666664,-991.3333333333334,-1306.0,3.6666666666666665,3.3333333333333335
03:17:42,84521.0,RTL,-0.007281467318534851,0.011384358940025171,-2.952695926030477,-0.17633034785588583,0.003029637193928162,-0.010740271459023157,-35.363262733333336,149.16523776666668,124056.33333333333,6.333333333333333,-22.333333333333332,104.0,7.666666666666667,-58.333333333333336,-1002.0,-170.33333333333334,8.0,-7.0
03:17:44,84521.0,RTL,-0.029105940833687782,0.008130295823017756,-2.95095427831014,1.1757269303003948,-0.00039545159476498765,0.0038316226564347744,-35.363261666666666,149.16523196666665,122022.0,-0.6666666666666666,29.0,106.0,3.6666666666666665,38.333333333333336,-1030.3333333333333,1182.6666666666667,4.333333333333333,7.0
03:17:45,59566.0,RTL,-0.06585044165452321,0.0028862565911064544,-2.9515814781188965,-1.234447717666626,-0.0023817170100907483,0.002276061646019419,-35.3632613,149.16523063333332,120743.66666666667,-4.333333333333333,48.666666666666664,102.66666666666667,-0.6666666666666666,-30.333333333333332,-1031.3333333333333,-1226.6666666666667,2.3333333333333335,5.666666666666667
03:17:46,59566.0,RTL,-0.05284027879436811,-0.0003369721816852689,-2.950657526652018,-1.354487697283427,-0.0011445373917619388,-0.006006666071092089,-35.36326126666666,149.16523113333332,119978.33333333333,-5.0,53.333333333333336,104.66666666666667,-3.6666666666666665,-35.333333333333336,-1005.6666666666666,-1347.3333333333333,3.6666666666666665,-2.6666666666666665
03:17:48,59566.0,RTL,0.004005008765185873,-0.0022203349120294056,-2.9514923890431723,-1.1632040739059448,0.002964948769658804,-0.0019467213423922658,-35.3632619,149.16523593333332,117937.66666666667,-3.0,29.0,106.0,-3.6666666666666665,-78.33333333333333,-955.6666666666666,-1158.3333333333333,7.666666666666667,1.0
03:17:50,1230.0,RTL,0.04633992165327072,0.002380406755643586,-2.951239744822184,1.187038501103719,-5.537403436998526e-05,0.002685529257481297,-35.36326283333333,149.16523956666666,115863.0,3.6666666666666665,-7.666666666666667,104.0,-2.0,32.666666666666664,-998.6666666666666,1192.3333333333333,4.666666666666667,5.333333333333333
03:17:52,1230.0,RTL,0.02825932204723358,-0.0013340094398396711,-2.9513999621073403,0.5375969757636389,0.0023139569287498793,6.288926427563031e-05,-35.36326306666667,149.16524186666666,113805.0,7.666666666666667,-27.666666666666668,101.66666666666667,-2.3333333333333335,63.666666666666664,-976.0,546.0,6.666666666666667,2.6666666666666665
03:17:54,1230.0,RTL,0.018870638062556584,0.001669505921502908,-2.952224016189575,-0.9564128319422404,0.004503538521627585,0.0025697166565805674,-35.3632632,149.16524326666664,111750.0,8.333333333333334,-44.666666666666664,98.0,0.0,-16.0,-1022.3333333333334,-947.0,9.0,5.333333333333333
03:17:55,47181.0,RTL,0.04403684536616007,0.0038581156016637883,-2.951641003290812,0.40786781907081604,0.0014685553809007008,-0.0005499526547888914,-35.3632632,149.1652427,110470.0,8.0,-44.666666666666664,97.66666666666667,0.6666666666666666,-23.666666666666668,-1014.6666666666666,413.6666666666667,6.333333333333333,2.6666666666666665
03:17:56,47181.0,RTL,0.047114974508682884,0.004634457485129436,-2.951740105946859,0.8106033205986023,-0.006561324931681156,-0.0049086418778946,-35.36326313333333,149.16524223333332,109714.66666666667,8.333333333333334,-43.0,100.33333333333333,1.6666666666666667,2.3333333333333335,-1000.3333333333334,817.0,-1.3333333333333333,-1.6666666666666667
03:17:58,47181.0,RTL,0.018434618910153706,0.0029074177922060094,-2.9528116385142007,1.072484294573466,0.00332185672596097,0.007496439618989825,-35.363262733333336,149.16524046666666,107669.66666666667,6.333333333333333,-33.0,95.66666666666667,1.0,74.33333333333333,-1012.0,1082.6666666666667,8.0,10.333333333333334
03:18:00,47181.0,RTL,-0.005703034810721874,0.00268968582774202,-2.951456387837728,-0.2999255607525508,-0.00402692798525095,0.0026156591096272073,-35.3632625,149.16523929999997,105623.0,3.6666666666666665,-20.0,100.66666666666667,0.0,21.333333333333332,-1034.0,-289.3333333333333,0.6666666666666666,5.666666666666667
03:18:01,24850.0,RTL,0.01128750309968988,0.0008806402426368246,-2.9522250493367515,-0.8838117917378744,0.0038831414033969245,-0.013596078070501486,-35.363262533333334,149.1652392,104344.33333333333,4.0,-14.666666666666666,98.0,-1.0,-72.33333333333333,-981.3333333333334,-875.6666666666666,8.333333333333334,-10.0
03:18:02,24850.0,RTL,0.033252100770672165,0.00024273921735584736,-2.953551928202311,-0.17086145033439,0.00012387102469801903,-0.011154495800534884,-35.3632626,149.1652399,103583.66666666667,3.0,-14.0,98.0,-1.3333333333333333,-48.333333333333336,-988.0,-163.33333333333334,5.333333333333333,-7.333333333333333
03:18:04,24850.0,RTL,-0.0058419108390808105,0.011702580377459526,-2.9527878761291504,0.5558590888977051,-0.0007081014725069205,0.00022177111047009626,-35.36326256666666,149.1652373,101554.66666666667,2.0,-13.333333333333334,99.33333333333333,6.333333333333333,-20.0,-962.3333333333334,563.6666666666666,3.6666666666666665,3.3333333333333335
03:18:06,14374.0,RTL,-0.03050933623065551,0.006067008711397648,-2.9518845081329346,1.2922005256017048,0.0024013997366031012,0.014778454477588335,-35.36326163333333,149.16523226666666,99510.33333333333,-3.0,30.333333333333332,100.66666666666667,5.333333333333333,53.333333333333336,-1030.6666666666667,1302.0,7.0,18.0
03:18:08,14374.0,RTL,-0.06334370747208595,0.0030325638751188913,-2.950571616490682,0.5955363710721334,-0.0009902647385994594,0.006330272726093729,-35.3632608,149.16522899999998,97496.33333333333,-10.0,60.333333333333336,100.66666666666667,1.0,58.666666666666664,-1017.6666666666666,605.0,3.6666666666666665,9.333333333333334
03:18:10,14374.0,RTL,-0.0468572365740935,-0.004046813352033496,-2.9513096809387207,-1.3075495560963948,0.00491217120240132,-0.003334814061721166,-35.3632608,149.1652306,95429.33333333333,-12.0,67.0,98.0,-4.333333333333333,-43.666666666666664,-1038.3333333333333,-1300.0,9.666666666666666,0.6666666666666666
03:18:11,103349.0,RTL,0.0029917372157797217,-0.0004548726186233883,-2.951199452082316,0.6491772532463074,0.005403903778642416,0.0011953834909945726,-35.36326126666666,149.16523273333334,94146.33333333333,-10.333333333333334,50.333333333333336,99.0,-2.3333333333333335,-8.0,-968.3333333333334,653.3333333333334,10.0,5.0
03:18:12,103349.0,RTL,0.003126715775579214,0.0005741749482695013,-2.9516884485880532,1.3245936632156372,0.0037359196382264295,-0.001713869006683429,-35.3632615,149.16523366666667,93382.66666666667,-8.333333333333334,42.666666666666664,98.66666666666667,-2.6666666666666665,51.333333333333336,-1045.6666666666667,1330.0,8.666666666666666,1.6666666666666667
03:18:14,103349.0,RTL,-0.013324374333024025,0.0012102937907911837,-2.951580206553141,0.7379293441772461,0.0021776876722772918,-0.004414705637221535,-35.36326196666666,149.16523503333335,91335.66666666667,-2.6666666666666665,26.0,97.0,-3.3333333333333335,66.66666666666667,-1045.6666666666667,745.0,7.0,-0.3333333333333333
03:18:16,103349.0,RTL,0.003723852957288424,-0.0002985723646512876,-2.9516595204671225,-1.2664239803949993,0.0077416133135557175,0.0005158688873052597,-35.36326246666667,149.16523823333333,89283.66666666667,0.0,6.666666666666667,97.66666666666667,-2.6666666666666665,-35.666666666666664,-1050.3333333333333,-1260.3333333333333,12.666666666666666,4.333333333333333
03:18:17,224551.0,RTL,0.008734261461844047,0.007502606293807427,-2.9517277081807456,-0.5791445473829905,0.008303030083576838,-0.005543395411223173,-35.3632627,149.16523836666667,88026.0,1.3333333333333333,-3.6666666666666665,95.0,2.6666666666666665,-61.666666666666664,-958.3333333333334,-574.6666666666666,13.0,-1.6666666666666667
03:18:18,224551.0,RTL,-0.014838050740460554,0.011368374029795328,-2.951113224029541,-0.5859130273262659,0.0037680388583491244,-0.0017397016442070405,-35.363262666666664,149.1652368,87271.0,1.0,0.3333333333333333,101.0,4.0,-65.33333333333333,-969.3333333333334,-582.0,8.333333333333334,2.0
03:18:20,224551.0,RTL,-0.035965642581383385,0.00530448400725921,-2.9511584440867105,-0.4928627709547679,-0.007122691720724106,-0.0033941029105335474,-35.363261800000004,149.1652325,85247.66666666667,-2.0,33.666666666666664,99.33333333333333,3.0,-60.666666666666664,-994.0,-489.6666666666667,-1.6666666666666667,0.3333333333333333
03:18:22,71310.0,RTL,-0.014126619634528955,-0.0010619285167194903,-2.9508444468180337,1.3087944587071736,-0.00267489580437541,0.00023222419743736586,-35.36326136666667,149.16523253333335,83216.0,-6.0,42.0,100.66666666666667,-2.0,77.66666666666667,-967.6666666666666,1313.0,2.6666666666666665,4.0
03:18:24,71310.0,RTL,0.028212472175558407,-0.007557169999927282,-2.95074733098348,0.9900755286216736,0.002414770113925139,-0.005823516131689151,-35.36326183333333,149.16523759999998,81203.0,-3.0,18.666666666666668,103.66666666666667,-6.666666666666667,82.33333333333333,-990.3333333333334,995.3333333333334,7.333333333333333,-1.6666666666666667
03:18:26,71310.0,RTL,0.02699204037586848,-0.00046330127709855634,-2.9504106044769287,0.0782200296719869,0.007742924615740776,0.002330803389971455,-35.36326293333333,149.1652422,79143.0,4.0,-27.666666666666668,105.66666666666667,-4.333333333333333,46.333333333333336,-1027.6666666666667,84.0,12.666666666666666,6.0
03:18:27,5560.0,RTL,0.03898719325661659,0.0029135747657467923,-2.9510454336802163,-0.7450829744338989,-0.0034516756422817707,-0.015110780484974384,-35.36326326666667,149.16524316666664,77869.33333333333,7.333333333333333,-42.333333333333336,100.66666666666667,0.0,-56.333333333333336,-1014.6666666666666,-741.6666666666666,2.0,-11.0
03:18:28,5560.0,RTL,0.04174980769554774,0.003330617599810163,-2.950471878051758,-0.291090985139211,0.0019976982536415258,-0.007315138742948572,-35.36326333333333,149.16524313333332,77118.66666666667,8.0,-42.333333333333336,103.0,1.3333333333333333,-54.666666666666664,-969.0,-287.6666666666667,7.0,-3.3333333333333335
03:18:30,5560.0,RTL,0.010046549451847872,0.007731741759926081,-2.9505759874979653,0.7338848114013672,-0.005770513865475853,0.0016888202323267858,-35.3632629,149.1652394,75060.33333333333,6.666666666666667,-30.0,102.33333333333333,4.0,-9.333333333333334,-1020.6666666666666,737.3333333333334,0.0,5.0
03:18:32,97013.0,RTL,0.00886693224310875,-0.0010553305958940957,-2.9502779642740884,1.140043596426646,-0.002629263714576761,0.006799807461599509,-35.3632623,149.16523796666664,72987.66666666667,3.3333333333333335,-8.333333333333334,100.0,-2.3333333333333335,72.33333333333333,-1028.3333333333333,1146.6666666666667,2.0,10.666666666666666
03:18:34,97013.0,RTL,0.037329761777073145,-0.0023835041210986674,-2.949571669101715,1.0306228697299957,0.003449239186011255,-0.000851089833304286,-35.363262575,149.165241125,70956.25,3.75,-23.25,96.5,-2.75,75.25,-1005.5,1037.75,8.75,3.25
03:18:36,97013.0,RTL,0.010209854983258992,0.0065311521757394075,-2.9504711031913757,0.22428039088845253,0.005028614366892725,0.007686857017688453,-35.363263124999996,149.165241825,68906.5,6.5,-39.5,99.0,1.25,50.0,-994.75,232.75,10.25,11.0
03:18:37,222630.0,RTL,-0.007881704601459205,0.00916636735200882,-2.9496876001358032,-0.07257168740034103,0.0028319174889475107,0.003294592257589102,-35.363263,149.16523995,67633.0,7.0,-31.5,99.0,2.0,32.5,-989.0,-63.5,7.5,6.5
03:18:39,222630.0,RTL,-0.028158798813819885,0.004244902404025197,-2.950270891189575,-1.4577460289001465,-0.004192509455606341,0.0090624806471169,-35.363262250000005,149.16523684999999,65595.0,1.5,-1.0,102.5,3.0,-63.0,-985.5,-1450.0,1.5,12.5
03:18:41,222630.0,RTL,-0.05408134497702122,0.004428277490660548,-2.95014488697052,-1.3505986332893372,-0.004133397713303566,-0.0009136807639151812,-35.363261449999996,149.16523295,63568.0,-4.5,26.0,99.5,2.0,-75.0,-980.0,-1344.5,1.0,3.0
03:18:42,5511.0,RTL,-0.03968021459877491,0.003467028494924307,-2.949737012386322,-0.7374027520418167,-0.0005814866162836552,-0.0024054120294749737,-35.363261275,149.165232025,62800.75,-7.25,38.5,100.75,1.75,-74.25,-961.75,-732.75,4.75,1.5
03:18:43,5511.0,RTL,-0.028947945684194565,0.0043107206001877785,-2.949040651321411,1.0488373041152954,-0.002866807160899043,1.195073127746582e-05,-35.36326095,149.16523065,61530.0,-10.0,47.5,100.0,3.0,26.0,-1041.5,1053.0,2.5,4.0
03:18:45,5511.0,RTL,-0.029860522598028183,-0.0019503086223267019,-2.949102282524109,1.5112972259521484,-0.011003046529367566,0.0018094554543495178,-35.3632607,149.1652294,59493.0,-12.0,67.5,96.0,-1.5,84.5,-1013.5,1516.0,-5.5,6.0
03:18:47,5511.0,RTL,0.02144861314445734,-0.006513628643006086,-2.94878888130188,0.32095103710889816,-0.003658929723314941,-0.006438084994442761,-35.363261249999994,149.1652345,57397.5,-10.0,44.5,98.0,-4.5,-22.0,-1014.0,322.5,1.0,-2.5
03:18:48,93605.0,RTL,0.029250137507915497,-0.004631593415979296,-2.948996663093567,0.7901789844036102,0.0007937434129416943,-0.001348370045889169,-35.363261625,149.165236375,56639.5,-7.5,26.75,91.0,-4.25,13.75,-994.0,792.25,5.75,2.25
03:18:49,93605.0,RTL,0.033989681862294674,0.0011877001379616559,-2.948714256286621,1.299020528793335,0.00402165949344635,-0.0006270590238273144,-35.3632622,149.1652382,55356.0,-3.5,3.5,95.0,0.0,49.5,-1060.0,1302.0,9.0,3.0
03:18:51,93605.0,RTL,0.032839277759194374,-0.00182255549589172,-2.948709726333618,1.3338698744773865,-0.0037681967951357365,-0.009024678729474545,-35.36326255,149.16523935,53337.0,1.5,-7.5,96.5,-3.0,50.5,-1052.5,1337.0,1.0,-5.0
03:18:53,76410.5,RTL,0.021696937270462513,-0.0018267474370077252,-2.947370171546936,0.2801016792654991,-0.0022503328509628773,-0.0005057845264673233,-35.36326285,149.16524149999998,51306.0,5.5,-28.0,96.5,-3.5,53.5,-1039.0,286.0,3.0,3.0
03:18:55,59216.0,RTL,0.052612531930208206,-0.003474612603895366,-2.9491337537765503,-0.7067798674106598,0.009009284898638725,-0.008321184199303389,-35.3632634,149.16524585,49261.5,9.5,-56.5,100.5,-4.0,-1.5,-1025.0,-699.5,13.5,-4.5
03:18:57,59216.0,RTL,0.03647990524768829,0.005091694183647633,-2.9482818841934204,-1.0279896259307861,-0.0006229865830391645,-0.003068362595513463,-35.3632637,149.16524535,47211.0,13.0,-71.5,99.5,1.0,-92.5,-933.5,-1022.0,4.5,0.5
03:18:58,224514.0,RTL,0.051768883131444454,0.003058713220525533,-2.9476441740989685,-0.07208781689405441,-0.003972227277699858,-0.002073926792945713,-35.363263599999996,149.165244875,46448.0,13.5,-67.0,97.0,0.25,-42.25,-992.5,-66.5,1.25,1.5
03:18:59,224514.0,RTL,0.06464747525751591,0.0005581151344813406,-2.9494324922561646,1.3610424995422363,0.0030816225335001945,-4.152185283601284e-05,-35.363263450000005,149.16524514999998,45177.5,12.5,-66.0,99.5,2.0,63.0,-1034.0,1369.0,8.0,3.5
03:19:01,224514.0,RTL,0.012309747748076916,0.003895142115652561,-2.947915196418762,0.48011790215969086,-0.00026750145480036736,0.019386897794902325,-35.36326285,149.1652424,43135.5,8.0,-54.0,95.0,2.5,47.5,-977.0,490.5,4.5,22.5
03:19:03,137574.0,RTL,0.005668604688253254,0.0025997840566560626,-2.948595404624939,-1.1631679236888885,-0.006046330323442817,-0.011806984432041645,-35.36326245,149.16523975,41083.5,3.0,-27.5,94.0,1.5,-57.0,-1028.0,-1154.5,-1.0,-7.5
03:19:05,50634.0,RTL,0.014339894521981478,0.005082838470116258,-2.948923110961914,-0.03683271259069443,-0.001006225124001503,-0.0007161700632423162,-35.3632623,149.16523825000002,39042.5,0.5,-13.0,94.5,3.0,-46.0,-967.0,-29.5,4.0,3.5
03:19:07,50634.0,RTL,-0.013059889897704124,0.0036972889211028814,-2.94902503490448,1.3296543955802917,-0.006297136191278696,0.002102544065564871,-35.3632619,149.16523519999998,37005.5,-0.5,6.0,92.0,2.5,64.0,-1057.5,1339.5,-1.0,6.0
03:19:08,45515.0,RTL,-0.014316256972961128,0.0009483030735282227,-2.94791042804718,1.1045555025339127,-0.005234634270891547,0.00013208820018917322,-35.3632618,149.165234875,36250.25,-1.5,13.75,95.5,-1.0,71.75,-1009.25,1115.0,0.25,4.0
03:19:09,45515.0,RTL,0.004111225833185017,-0.0038937394274398685,-2.948394536972046,0.9413367807865143,-0.0031046392396092415,-0.011321447091177106,-35.3632617,149.1652363,34977.0,-2.0,14.0,98.0,-2.0,78.0,-1013.0,952.0,1.5,-7.0
03:19:11,45515.0,RTL,-0.009521483676508069,-0.0017664111801423132,-2.9482600688934326,-0.3987793028354645,0.0037294914945960045,0.0026704000774770975,-35.3632619,149.16523834999998,32928.0,-2.0,-3.0,95.5,-1.5,25.0,-954.0,-387.0,8.5,6.0
03:19:13,45515.0,RTL,-0.007184427930042148,0.00025658553954599483,-2.947043538093567,-1.50272935628891,-0.015032533090561628,0.008348617935553193,-35.3632621,149.16523855,30914.0,-0.5,-5.0,97.5,-0.5,-67.5,-1024.5,-1494.0,-9.5,11.5
03:19:14,15739.0,RTL,0.020047882804647088,-0.0016194710333365947,-2.948376953601837,-0.3795126713812351,-0.002057434991002083,-0.009975419729016721,-35.363262150000004,149.165238925,30153.5,-0.25,-6.75,98.5,-0.25,-49.0,-1008.0,-371.5,3.0,-6.0
03:19:15,15739.0,RTL,0.023972232826054096,0.0032963670091703534,-2.948457360267639,0.11364062130451202,0.004661222454160452,-0.006141724996268749,-35.3632622,149.16523895,28892.5,-1.0,-12.0,102.0,1.5,-41.5,-1001.5,121.5,9.0,-1.5
03:19:17,15739.0,RTL,-0.02540018130093813,0.004055361379869282,-2.9475663900375366,-1.0208638906478882,-0.002789134159684181,-0.008779992815107107,-35.3632619,149.1652355,26838.5,-2.0,8.0,104.5,2.5,-78.5,-985.5,-1012.5,2.5,-4.0
03:19:19,56091.0,RTL,-0.018280048854649067,0.002830684301443398,-2.946787714958191,1.4587658047676086,0.005559273296967149,-0.0034647174179553986,-35.3632616,149.165234,24802.0,-4.5,23.5,96.5,1.0,86.0,-952.5,1468.0,10.0,0.0
03:19:21,96443.0,RTL,-0.04548226110637188,-0.001199863210786134,-2.947261929512024,-0.7999972105026245,-0.007030460750684142,0.005891100037842989,-35.3632614,149.1652334,22770.0,-6.5,31.5,103.0,-1.5,-10.5,-1062.0,-790.0,-1.5,9.5
03:19:23,96443.0,RTL,-0.00732535938732326,-0.007461392320692539,-2.947502017021179,-1.1917952299118042,0.0023801883216947317,-0.0056998152285814285,-35.363261550000004,149.165237,20742.5,-5.5,16.5,102.5,-6.0,-39.0,-1013.5,-1183.0,7.0,-2.0
03:19:24,80563.0,RTL,0.040628882590681314,-0.008732662303373218,-2.9479219913482666,-0.11131782829761505,-0.005155035702046007,-0.006696061813272536,-35.363261875,149.165239125,19966.75,-3.25,3.75,104.0,-6.75,-34.25,-1009.5,-104.75,-0.5,-2.75
03:19:25,80563.0,RTL,0.06530099175870419,-0.003686746465973556,-2.9470889568328857,0.9382363855838776,-0.00034129642881453037,-0.0083787573967129,-35.3632626,149.16524245,18730.0,0.5,-23.5,104.0,-3.5,20.0,-961.5,946.0,4.0,-4.0
03:19:27,80563.0,RTL,0.04457209259271622,0.006122264778241515,-2.947896718978882,0.9894534945487976,-0.00022052484564483166,-0.002923192107118666,-35.3632634,149.16524355,16701.5,7.5,-52.0,106.5,2.0,16.5,-991.0,997.5,4.0,1.0
03:19:29,57130.0,RTL,-0.007453687721863389,0.007014972856268287,-2.9469741582870483,1.0226628482341766,0.0043535856530070305,0.012553388718515635,-35.363262750000004,149.16523905,14536.0,6.0,-27.5,104.5,3.5,59.0,-1008.5,1034.0,9.0,16.0
03:19:31,33697.0,RTL,-0.04393855482339859,0.003854586975648999,-2.9473541975021362,-1.2634501457214355,-0.0033380803652107716,0.0007693252991884947,-35.36326185,149.1652353,12599.5,-0.5,6.5,103.0,4.0,-49.5,-986.5,-1253.0,1.5,4.5
03:19:33,33697.0,RTL,-0.03431918906668822,0.0015135154632541041,-2.9471394220987954,0.4720269441604614,0.00039321261768539745,0.008382718389232954,-35.363261233333326,149.16523273333334,11151.666666666666,-7.0,31.333333333333332,38.0,1.0,37.333333333333336,-1018.3333333333334,482.0,4.666666666666667,12.0
03:19:34,168871.0,RTL,-0.023973787669092417,0.0004942281448165886,-2.9469414353370667,0.7859663367271423,-0.0009213791927322745,0.0026281389873474836,-35.363261025,149.165232275,10880.75,-9.0,38.5,27.0,0.5,25.5,-1008.25,794.25,3.75,6.0
03:19:35,168871.0,RTL,-0.03215678408741951,-0.0017271215911023319,-2.9465112686157227,-0.7110271602869034,-0.0035847198450937867,-0.0012472305679693818,-35.363261,149.1652326,10528.5,-10.0,43.5,35.0,-1.5,-35.0,-995.0,-703.0,0.5,2.5
03:19:37,168871.0,RTL,-0.01939088385552168,-0.003356153378263116,-2.9464019536972046,-0.7790495455265045,0.0010330929653719068,-0.0018792870687320828,-35.363261249999994,149.1652348,9840.0,-9.0,30.0,36.0,-2.5,-36.0,-983.5,-771.0,5.5,1.5
03:19:39,160522.0,RTL,-0.004788189427927136,0.00030276870529633015,-2.9460556507110596,0.8503435850143433,0.0004358193837106228,0.0011786562390625477,-35.3632617,149.16523604999998,9147.0,-6.0,13.5,36.0,0.0,50.0,-997.0,858.0,4.5,4.5
03:19:41,152173.0,RTL,-0.0031341221183538437,-0.00014787984036956914,-2.9465404748916626,0.4141756296157837,-0.003286206629127264,0.002426286810077727,-35.3632618,149.1652364,8622.0,-4.0,11.0,0.0,0.0,20.0,-1035.0,421.5,1.5,6.0
03:19:43,152173.0,RTL,-0.008369906339794397,-0.0007042675861157477,-2.9460678100585938,-0.5725964605808258,-0.00041849655099213123,0.001117213862016797,-35.36326185,149.16523715,8731.5,-4.0,6.5,1.0,0.0,-24.0,-994.5,-565.0,3.5,4.5
03:19:44,271131.0,RTL,-0.011371798813343048,0.000283762037724955,-2.946979582309723,-0.22935824003070593,0.003367990138940513,0.0008142527658492327,-35.3632619,149.165237125,8730.5,-4.0,4.5,3.0,0.25,5.25,-1001.0,-221.5,7.5,4.5
03:19:45,271131.0,RTL,-0.009601995348930359,0.0024993810802698135,-2.946494936943054,-0.17339564114809036,-0.0027274254243820906,-0.0031997618498280644,-35.3632619,149.16523635,8687.0,-4.0,8.0,22.0,2.0,-30.0,-967.0,-167.5,1.5,0.5
03:19:47,271131.0,RTL,-0.014652072452008724,-0.0011490635806694627,-2.9461675882339478,-0.4904004782438278,-0.001374288578517735,9.417824912816286e-05,-35.3632617,149.16523585,8591.0,-5.0,15.0,2.0,0.0,-13.0,-1001.0,-483.0,3.0,3.0
03:19:49,271131.0,RTL,-0.018156959675252438,7.778869417052192e-05,-2.9469891786575317,-0.6521627306938171,0.0016032359562814236,-0.0030319823417812586,-35.3632616,149.1652353,8593.0,-7.0,18.5,2.0,0.0,-36.5,-1018.5,-646.0,5.5,1.0
03:19:50,17211.0,RTL,-0.0178627606946975,0.0008927123562898487,-2.947113573551178,0.06342212110757828,-0.0004719543503597379,1.4065182767808437e-05,-35.3632615,149.16523504999998,8600.0,-7.0,19.5,0.75,0.0,0.75,-996.5,69.75,3.75,3.25
03:19:51,17211.0,RTL,-0.012867275159806013,-5.060885814600624e-05,-2.946571469306946,0.36315014213323593,-0.004412709968164563,0.0013214789796620607,-35.3632615,149.16523485,8600.0,-6.0,22.0,1.5,0.0,27.5,-1001.5,369.5,-0.5,4.5
03:19:53,17211.0,RTL,0.00039137830026447773,0.00043132660357514396,-2.946946144104004,0.7680586874485016,0.0016788782086223364,0.0033047726610675454,-35.3632618,149.165236,8308.0,-4.5,14.5,42.5,0.0,44.0,-1019.0,774.0,5.5,6.5
03:19:55,111418.0,RTL,0.010095393285155296,-0.0019551650038920343,-2.946269154548645,-0.02032281458377838,-0.006207640282809734,-0.0062967510893940926,-35.363261949999995,149.1652371,7517.5,-2.0,11.0,36.0,-2.5,-19.5,-992.5,-16.0,-1.5,-2.5
03:19:57,205625.0,RTL,0.01959124021232128,0.0006377473764587194,-2.9467475414276123,0.5246119499206543,-0.002140261116437614,-0.0020759713370352983,-35.3632623,149.1652388,6824.5,0.0,-6.0,33.5,0.0,-0.5,-992.5,529.0,2.0,1.0
03:19:59,205625.0,RTL,-0.025631338357925415,0.007186054717749357,-2.9473894834518433,-0.6337906718254089,0.00968634826131165,0.003171830321662128,-35.3632623,149.16523705,6143.5,-0.5,-3.5,31.0,3.5,-15.5,-990.0,-627.0,13.5,6.0
03:20:00,76477.0,RTL,-0.03359138313680887,0.007823245483450592,-2.9469212889671326,0.24276407063007355,0.0012239767820574343,0.006110795424319804,-35.363262049999996,149.165235325,5898.5,-1.25,5.5,32.5,2.75,21.5,-1006.5,249.25,5.0,9.0
03:20:01,76477.0,RTL,-0.03863929584622383,0.0022601490491069853,-2.945836901664734,-0.7442004084587097,-0.005584429483860731,-0.005511880619451404,-35.36326165,149.1652333,5486.0,-3.5,28.0,34.0,0.0,-43.0,-1007.5,-739.0,-1.0,-2.0
03:20:03,76477.0,RTL,-0.011621651239693165,-0.0034301377600058913,-2.94593346118927,-0.7352516353130341,0.0025650362949818373,-0.005605703219771385,-35.3632616,149.1652355,4807.5,-5.0,25.5,35.5,-3.0,-13.5,-992.5,-729.5,6.5,-1.5
03:20:05,157811.5,RTL,0.02303806971758604,1.6360179870389402e-05,-2.94621205329895,1.028022676706314,-0.0032979509560391307,-0.008447323343716562,-35.36326215,149.165238,4107.5,-0.5,1.0,36.5,-2.5,60.5,-963.5,1033.0,0.5,-4.5
03:20:07,239146.0,RTL,0.041680581867694855,-0.0023311455734074116,-2.9459949731826782,0.649276614189148,0.0019146505510434508,-0.00627215881831944,-35.363262750000004,149.16524135,3456.5,4.5,-21.5,36.0,-3.0,46.0,-1016.0,655.5,5.5,-2.5
03:20:09,239146.0,RTL,0.018172179348766804,0.0027171376859769225,-2.9462926387786865,-0.6940842270851135,0.00362575170584023,0.007637385278940201,-35.3632631,149.1652424,2771.0,6.0,-39.5,35.0,1.5,-27.0,-1026.5,-687.0,7.5,10.5
03:20:10,38045.0,RTL,0.009114270214922726,0.006083900458179414,-2.946259617805481,0.04855823889374733,0.0045618179719895124,0.007103399315383285,-35.363263,149.165241325,2518.0,6.0,-39.5,35.25,3.0,20.75,-992.75,56.25,8.25,9.75
03:20:11,38045.0,RTL,-0.0006303192349150777,0.004988459637388587,-2.946077346801758,-0.4094924330711365,-0.005326386075466871,-0.0038032931042835116,-35.363262649999996,149.16523905,2092.0,4.5,-22.0,36.0,2.0,-44.0,-991.5,-403.5,-0.5,-0.5
03:20:13,38045.0,RTL,-0.013369008898735046,0.0009104759083129466,-2.9455857276916504,-0.8490879535675049,-0.0009754705242812634,-0.004246662138029933,-35.3632621,149.1652374,1402.5,0.0,-3.5,35.5,0.0,-38.5,-994.0,-843.0,2.5,-1.5
03:20:15,38045.0,RTL,0.012764892540872097,0.0003773633361561224,-2.9461973905563354,0.698732778429985,-0.0020878846989944577,0.0034998999908566475,-35.3632621,149.16523765,827.0,0.0,-2.0,35.0,-1.5,24.0,-1011.5,705.0,1.5,6.5
03:20:16,144740.0,RTL,0.004983127466402948,0.00023070046881912276,-2.9457709193229675,-0.4678000956773758,0.000926407752558589,-0.0034164697281084955,-35.3632621,149.16523795,520.0,-0.5,-1.5,33.75,0.0,-33.25,-1004.75,-462.0,5.0,0.0
03:20:17,144740.0,RTL,0.01277415337972343,0.0011716769658960402,-2.9454352855682373,0.49830206483602524,-0.0009160272311419249,0.005622339551337063,-35.36326215,149.1652382,190.5,0.0,-6.0,34.0,-0.5,29.5,-995.5,505.0,3.0,8.5
03:20:19,144740.0,RTL,0.005728507763706148,-0.0012220166390761733,-2.944798707962036,-0.004302057670429349,-0.0016114615136757493,-0.0004913724260404706,-35.3632622,149.1652381,0.0,-0.5,-14.0,13.0,0.0,0.0,-1000.0,2.0,2.0,2.0
03:20:21,176989.0,RTL,-0.0061941801104694605,-0.002973524504341185,-2.9461545944213867,-0.004440975841134787,-0.0015718492213636637,-0.0005656481953337789,-35.36326245,149.16523865,0.0,-6.0,0.5,8.5,0.0,0.0,-1000.0,2.0,2.0,2.0
03:20:23,209238.0,RTL,-0.013375669252127409,-0.003782891435548663,-2.9478847980499268,-0.004355552373453975,-0.0014943904243409634,-0.0005214853445068002,-35.363262750000004,149.1652398,0.0,-10.5,14.5,4.5,0.0,0.0,-1000.0,2.0,2.0,2.0
03:20:25,209238.0,RTL,-0.015912539325654507,-0.0037308286409825087,-2.9498820304870605,-0.004115915158763528,-0.0013670828193426132,-0.0006506540812551975,-35.363262950000006,149.16524055,0.0,-12.0,21.0,1.5,0.0,0.0,-1000.0,2.5,2.0,2.0
