time_stamp,roll,pitch,yaw,rollspeed,pitchspeed,yawspeed,lat,lon,relative_alt,vx,vy,vz,xacc,yacc,zacc,xgyro,ygyro,zgyro,MODE,RTL_ALT
15:06:43,-4.5298314944375306e-05,0.0016118247294798493,0.027868596836924553,0.00023262735339812934,0.00019435497233644128,0.0024006653111428022,-35.3632621,149.1652374,0.0,-1.0,1.0,0.0,0.0,1.0,-1000.0,0.0,0.0,0.0,STABILIZE,158387.0
15:06:47,-0.0007485129171982408,0.0010372356628067791,0.025886732153594494,0.00015782445552758873,0.00024267930712085217,0.0021774180931970477,-35.3632622,149.16523745,0.0,-1.0,1.0,0.0,0.0,1.0,-1000.0,0.0,0.0,0.0,STABILIZE,158387.0
15:06:57,-0.0011295104632154107,0.000966823601629585,0.022662973031401634,0.0001778420410118997,0.00019758695270866156,0.0015994132263585925,-35.3632622,149.1652375,0.0,-1.0,1.0,0.0,0.0,1.5,-1000.0,0.5,0.0,0.5,STABILIZE,158387.0
15:06:59,-0.0008845735574141145,0.0009598048830715319,0.022299508253733318,0.0002933687064796686,0.0003002432834667464,0.001526242393689851,-35.3632622,149.1652375,5.333333333333333,-1.0,1.3333333333333333,1.0,0.0,1.3333333333333333,-1000.0,1.0,0.0,1.0,AUTO,296337.0
15:07:01,-0.0007461875211447477,0.0012705552314097683,0.021860770881175995,0.00027023003591845435,0.00026643299497663975,0.0014398404164239764,-35.3632621,149.1652375,6.666666666666667,0.0,0.0,0.0,0.0,1.3333333333333333,-1000.0,0.6666666666666666,0.3333333333333333,0.6666666666666666,AUTO,296337.0
15:07:02,-0.00031800240685697645,0.00161957141244784,0.021531464532017708,0.0003377879038453102,0.00028231809847056866,0.0014299100148491561,-35.3632621,149.1652375,5.0,0.0,0.0,0.0,0.0,1.0,-1000.0,0.0,0.0,1.0,AUTO,234068.0
15:07:03,0.0017856605918495916,0.0005058238541550963,0.021365708205848932,0.0011108215257991105,-1.5135854482650757e-05,0.0016312450170516968,-35.3632621,149.1652375,104.75,0.0,0.0,-38.75,0.0,0.25,-1099.5,2.0,0.25,1.0,AUTO,234068.0
15:07:05,0.05109787825495005,-0.005560436169616878,0.012843301286920905,0.015071745961904526,0.010515786008909345,-0.020278854353819042,-35.363261775,149.16523885,2524.0,5.0,30.0,-147.75,0.25,-4.75,-999.0,15.5,11.25,-20.75,AUTO,145913.0
15:07:07,-0.07072084645430247,-0.007662974084572245,-0.0864508847395579,-0.008961276151239872,-0.025848876442372177,0.002158015345533689,-35.363261066666674,149.16524616666666,5630.0,-3.6666666666666665,-10.0,-149.0,1.0,0.3333333333333333,-1002.0,-8.333333333333334,-25.0,2.0,AUTO,145913.0
15:07:08,-0.009964147175196558,-0.004520445945672691,-0.09042859077453613,0.06539170816540718,0.013958004768937826,0.0028206603601574898,-35.3632613,149.1652406,7508.5,-0.5,-59.0,-150.5,-7.0,10.5,-1002.5,65.5,14.0,2.0,AUTO,166382.0
15:07:09,0.03831976721994579,0.005335921392543241,-0.08771475031971931,0.06277554295957088,0.010325100040063262,0.004706295556388795,-35.3632615,149.16523617500002,8679.25,-4.0,-39.75,-153.0,-5.5,9.5,-1003.25,63.25,10.25,4.0,AUTO,166382.0
15:07:11,-0.011071515269577503,-0.004454420472029597,-0.09390492551028728,-0.01877516007516533,-0.0018108990043401718,-0.019725398626178503,-35.363262425,149.16523595,11787.75,-0.75,14.25,-151.0,1.75,-2.25,-1002.25,-17.75,-1.25,-19.5,AUTO,215641.0
15:07:12,-0.0036935355747118592,-0.0008479096068185754,-0.12480628117918968,0.016892428509891033,0.007914252346381545,-0.023785891942679882,-35.363262250000005,149.16523645,13729.0,4.0,-4.5,-153.0,-1.0,0.0,-1000.0,17.0,8.0,-23.5,AUTO,215641.0
15:07:14,0.006061902618966997,0.00609157863073051,-0.16066326200962067,-0.029126378009095788,-0.001256834832020104,-0.01136835478246212,-35.36326165,149.1652355,16847.5,-0.5,1.5,-152.5,0.0,0.0,-997.0,-27.5,0.0,-11.0,AUTO,159771.0
15:07:16,0.051451265811920166,-0.031888860277831554,0.06547827459871769,0.066254373639822,-0.04288601968437433,-0.033742341212928295,-35.3632638,149.16523095,19647.0,-22.0,-19.5,-103.0,1.0,8.0,-960.0,66.5,-42.0,-33.5,AUTO,103901.0
15:07:17,0.05411946401000023,-0.02718908106908202,0.045011079870164394,-0.028504463116405532,0.024943922297097743,-0.014600657930714078,-35.3632643,149.16523095,20319.75,1.5,20.75,-76.5,1.0,-2.75,-970.5,-27.0,25.25,-14.75,AUTO,241203.0
15:07:18,0.0018427680479362607,0.007939615054056048,0.040004950016736984,-0.029667938128113747,0.017432222608476877,0.003133971127681434,-35.363262899999995,149.16523554999998,21090.5,15.5,40.5,-45.5,1.0,-10.0,-977.0,-28.0,17.5,2.5,AUTO,241203.0
15:07:20,-0.04490005783736706,0.02580383885651827,0.03437923267483711,-0.19437760580331087,0.01099708629772067,-0.004022601759061217,-35.3632612,149.1652401,21461.0,-4.5,-4.0,14.5,0.0,-6.5,-975.0,-193.5,11.5,-4.0,AUTO,256702.0
15:07:22,-0.0311794001609087,0.06132333539426327,-0.1445035506039858,0.44427818059921265,0.0011839554645121098,-0.7055216133594513,-35.36326725,149.1652353,21245.5,-76.5,-30.0,-4.0,10.0,39.0,-1013.0,445.0,2.0,-705.0,AUTO,272201.0
15:07:23,-0.09735784120857716,0.029966629546834156,-0.7695819586515427,-0.05818994715809822,0.0021772910840809345,-0.884376659989357,-35.363274125000004,149.165232375,21277.0,-125.0,-43.5,-7.25,-3.0,30.75,-1007.25,-57.0,3.0,-884.0,AUTO,127659.0
15:07:24,-0.06497872807085514,-0.153335802257061,-2.170483350753784,0.1649727807380259,-0.053151385858654976,-1.224911391735077,-35.36329365,149.16522465,21365.5,-237.0,-81.5,-9.5,-53.0,18.5,-1004.0,166.0,-52.0,-1224.0,AUTO,127659.0
15:07:26,0.05814104713499546,-0.2027183175086975,-2.7749319076538086,0.0059811826795339584,-0.02411459246650338,0.017634933872614056,-35.36335445,149.1651982,21620.5,-443.0,-165.0,-18.0,-90.5,-58.5,-1003.5,7.0,-23.0,17.0,AUTO,81265.5
15:07:28,0.06399265304207802,-0.1705186814069748,-2.781757116317749,0.010900764726102352,0.037327655125409365,0.0020795981399714947,-35.3634492,149.1651544,22134.5,-594.5,-218.0,-33.0,-131.0,-66.0,-996.5,11.5,38.0,2.5,AUTO,34872.0
15:07:29,0.07328441180288792,-0.1596686914563179,-2.7824226021766663,0.012252718908712268,0.02301711682230234,-0.0016436806763522327,-35.36349045,149.165135825,22384.5,-620.25,-224.75,-33.5,-132.5,-79.0,-994.0,12.75,23.25,-1.25,AUTO,78304.0
15:07:30,0.07856958359479904,-0.13179036229848862,-2.7817686796188354,-0.018429256975650787,0.021145902574062347,0.0030266352114267647,-35.363561250000004,149.16510399999999,22797.5,-633.5,-232.5,-32.5,-131.0,-71.5,-983.5,-17.0,22.0,3.0,AUTO,78304.0
15:07:32,0.0832044705748558,-0.0887383371591568,-2.78340482711792,0.006530693732202053,0.06323119252920151,-0.0024740491062402725,-35.363675099999995,149.16505285,23377.5,-618.0,-229.5,-32.5,-129.0,-81.0,-990.5,7.5,64.0,-2.5,AUTO,149920.0
15:07:34,0.0711928978562355,0.010646736016497016,-2.781203866004944,0.0541354650631547,0.05387054942548275,-0.0067970758536830544,-35.3637748,149.16500725,23942.0,-469.5,-176.0,-19.5,-103.5,-66.0,-991.0,55.0,54.0,-6.5,AUTO,221536.0
15:07:35,0.06202779710292816,0.045678566209971905,-2.7814981937408447,0.2093389593064785,0.023898131621535867,-0.013068757194560021,-35.363803475,149.16499395,24056.0,-384.5,-146.25,-11.75,-79.0,-42.75,-994.75,210.5,24.75,-13.0,AUTO,229481.0
15:07:36,0.037189725786447525,0.06049865297973156,-2.78225576877594,0.0412166565656662,0.01982349157333374,-0.011548449285328388,-35.36383945,149.16497705,24132.0,-246.5,-95.0,-6.0,-54.5,-26.0,-1008.0,42.5,20.5,-11.0,AUTO,229481.0
15:07:38,0.015418229158967733,0.05609500966966152,-2.7839365005493164,0.6115623712539673,-0.018080228939652443,-0.00011835945770144463,-35.363866200000004,149.16496415,24201.0,-61.5,-24.0,-2.5,-12.0,9.0,-1017.5,612.0,-16.5,0.0,AUTO,226871.0
15:07:40,-0.017611985094845295,0.014293736312538385,-2.782196044921875,-0.5789739787578583,-0.025454116985201836,-0.0036308113485574722,-35.36386985,149.1649617,24227.0,5.5,11.5,-0.5,1.0,-29.5,-1007.5,-578.0,-24.0,-3.0,AUTO,224261.0
15:07:41,-0.010600414243526757,-0.0017509626050014049,-2.781518518924713,0.24234218732453883,-0.015423919539898634,-0.0047515666810795665,-35.363869625,149.1649615,24228.25,4.0,14.5,-0.5,1.25,8.25,-1002.25,242.75,-13.75,-4.25,AUTO,255877.0
15:07:42,-0.0073438819963485,0.0039059052360244095,-2.78137469291687,0.4945310652256012,0.05309740174561739,-0.008184375008568168,-35.3638698,149.16496075,24235.0,-9.5,9.5,-2.0,-1.5,23.5,-1006.5,495.0,53.5,-8.0,RTL,255877.0
15:07:44,0.003536020580213517,0.004471105523407459,-2.7842509746551514,0.15120436623692513,-0.006273363716900349,-0.0012824887526221573,-35.3638708,149.16496080000002,24797.0,2.5,17.5,-68.5,-2.0,7.0,-1046.0,150.5,-4.5,-1.5,RTL,198523.0
15:07:46,0.03431656397879124,-0.0004156687355134636,-2.787880063056946,0.05261527746915817,-0.004337230580858886,0.0017779649933800101,-35.3638712,149.16496335,27136.0,10.0,-3.5,-147.0,-0.5,2.0,-1010.5,52.0,-2.0,0.5,RTL,141169.0
15:07:47,0.06670741271227598,-0.005503004300408065,-2.7913708686828613,0.019388144835829735,0.01023550983518362,-0.019710845197550952,-35.36387105,149.164962625,28278.5,15.5,-35.25,-148.0,0.75,-3.0,-997.75,19.5,12.0,-20.25,RTL,163150.0
15:07:48,-0.06004451774060726,0.01041170908138156,-2.8591322898864746,-0.08279573358595371,-0.018586755730211735,-0.04101254791021347,-35.3638702,149.1649571,30160.5,17.0,-39.0,-146.5,5.0,-7.5,-1011.0,-82.0,-16.5,-41.0,RTL,163150.0
15:07:50,0.018254246097058058,0.0029676436679437757,-2.891502261161804,0.06852263957262039,0.007600713986903429,0.0019218622473999858,-35.36387055,149.16496410000002,33240.0,0.5,44.0,-151.5,-6.0,12.5,-1004.0,68.5,9.0,1.5,RTL,118063.5
15:07:52,0.0015588987153023481,-0.033703261986374855,-2.8499571084976196,-0.06850235350430012,0.08226197212934494,-0.06684926897287369,-35.3638696,149.16496695,36345.5,-8.5,-40.5,-147.5,-0.5,-7.0,-1003.0,-67.5,84.0,-66.0,RTL,72977.0
15:07:53,-0.014345391187816858,0.005399163288529962,-2.9110177159309387,0.005456139508169144,0.032359853852540255,-0.06962087284773588,-35.363871025,149.16496525,37503.5,-18.5,-21.25,-150.75,-3.5,-4.5,-1003.25,6.25,33.75,-69.0,RTL,28561.0
15:07:54,0.0136372079141438,0.01912196632474661,-2.9675220251083374,0.0183054874651134,-0.00733466143719852,-0.013324062339961529,-35.36387275,149.16496519999998,39461.5,0.5,-2.0,-152.0,-1.0,0.0,-999.0,18.5,-5.5,-12.5,RTL,28561.0
15:07:56,0.004893432836979628,-0.00330368522554636,-2.9859793186187744,-0.0029762564226984978,-0.0059522101655602455,-0.017460843548178673,-35.3638711,149.16496495,42578.0,12.5,-11.0,-151.5,2.5,0.0,-1000.0,-1.5,-3.5,-16.5,RTL,122241.5
15:07:58,0.005615429021418095,-0.0031690415926277637,-3.040436863899231,0.004396743839606643,0.0031220675446093082,-0.027566340751945972,-35.3638701,149.16496425,45694.5,1.5,-7.0,-152.0,0.0,0.0,-1000.0,5.0,4.5,-26.5,RTL,215922.0
15:07:59,0.0070628144312649965,-0.001323895703535527,-3.0616710782051086,0.0015913377865217626,0.0011614395480137318,-0.024229291826486588,-35.3638701,149.164964175,46870.75,0.0,-7.0,-152.0,0.0,0.0,-1000.0,2.25,2.25,-23.5,RTL,134645.0
15:08:00,0.007773464312776923,0.0012220942444400862,-3.088857054710388,0.0068393899127841,0.005526360124349594,-0.0027858568355441093,-35.3638701,149.16496395000001,48812.5,0.5,-7.5,-152.0,0.0,0.0,-999.5,7.5,7.0,-2.5,RTL,134645.0
15:08:02,0.003871760447509587,-0.00047422149509657174,-3.04318904876709,-0.00014306025695987046,-0.0024891854263842106,0.03014808800071478,-35.3638697,149.164963,51923.0,3.5,-9.0,-152.0,0.5,0.0,-1000.5,0.5,-0.5,30.5,RTL,197399.5
15:08:04,0.0038173957727849483,-0.002398247830569744,-2.995054006576538,0.002035277138929814,1.212448114529252e-05,0.022322019562125206,-35.3638695,149.1649626,55027.5,0.0,-4.0,-152.0,0.0,0.0,-1000.0,3.0,1.0,22.5,RTL,260154.0
15:08:05,0.004476758767850697,-0.0022337405243888497,-2.9810871481895447,0.0016315847751684487,-0.00018753376207314432,0.01904792245477438,-35.3638695,149.1649626,56195.25,0.0,-3.25,-152.0,0.0,0.0,-1000.25,2.75,0.75,19.25,RTL,143549.0
15:08:06,0.004988146014511585,-0.0017246599309146404,-2.96067214012146,0.003558932803571224,0.0010142566752620041,0.015582498628646135,-35.3638696,149.1649627,58133.0,0.0,-3.0,-152.0,0.0,0.0,-1000.5,4.5,2.0,16.0,RTL,143549.0
15:08:08,0.0053155189380049706,-0.00048381164378952235,-2.934905529022217,0.00010236498201265931,-0.00017189374193549156,0.01124145369976759,-35.36386985,149.1649628,61238.0,0.0,-3.0,-152.0,0.0,0.0,-1000.0,1.0,0.5,12.0,RTL,101888.0
15:08:10,0.004641830688342452,-0.0007968896825332195,-2.9155101776123047,0.0004485771059989929,0.00013275770470499992,0.010150452144443989,-35.36387,149.1649629,64343.5,0.5,-3.0,-152.0,0.0,0.0,-1000.0,2.0,1.5,11.0,RTL,60227.0
15:08:11,0.004586924449540675,-0.0006738553056493402,-2.9096255898475647,0.0012396671809256077,0.0004172786429990083,0.0096601617988199,-35.36387,149.1649629,65508.5,1.0,-3.0,-152.0,0.0,0.0,-999.75,2.75,2.0,10.25,RTL,253040.0
15:08:12,0.004416837356984615,-0.0008535978849977255,-2.901017904281616,0.002614680561237037,7.107510464265943e-05,0.007510587340220809,-35.3638701,149.1649629,67449.0,1.0,-3.0,-152.0,0.0,0.0,-1000.5,4.0,1.0,8.0,RTL,253040.0
15:08:14,0.0042151762172579765,-0.0008114388620015234,-2.8883984088897705,0.00243587011937052,0.00019469513790681958,0.006154304137453437,-35.3638701,149.1649629,70554.5,1.0,-3.0,-152.0,0.0,0.0,-1000.5,3.5,1.5,7.0,RTL,160554.5
15:08:16,0.004145550075918436,-0.0007677068933844566,-2.877624034881592,0.0012917097774334252,0.0005732043064199388,0.007844038307666779,-35.3638701,149.1649629,73663.5,1.0,-2.5,-152.0,0.0,0.0,-1000.0,2.5,1.5,9.0,RTL,68069.0
15:08:17,0.004267838899977505,-0.0006270120065892115,-2.874022126197815,-0.0011138789413962513,0.000633404910331592,0.005720143322832882,-35.3638701,149.1649629,74833.5,1.0,-2.0,-152.0,0.0,0.0,-999.5,0.75,1.75,7.0,RTL,118265.0
15:08:18,0.004015529993921518,-0.0006430979701690376,-2.8673774003982544,0.0006341707194224,0.0006036823615431786,0.00510453199967742,-35.3638701,149.1649629,76768.5,1.0,-2.0,-152.0,0.0,0.0,-1000.0,2.0,2.0,6.5,RTL,118265.0
15:08:20,0.003924785298295319,-0.00019781815353780985,-2.859359860420227,-0.0009747067233547568,0.00014286494115367532,0.005160486092790961,-35.3638701,149.1649629,79873.5,1.0,-2.0,-152.0,0.0,0.0,-999.5,1.0,1.5,6.5,RTL,117290.5
15:08:22,0.0040132347494363785,-0.000644872838165611,-2.8524330854415894,0.0010648627649061382,0.00039745960384607315,0.0047024276573210955,-35.3638701,149.1649629,82983.5,1.0,-2.0,-152.0,0.0,0.0,-1000.5,2.5,2.0,6.0,RTL,116316.0
15:08:23,0.0039909264305606484,-0.0005302589852362871,-2.8499337434768677,-0.0007813846168573946,0.0005090268095955253,0.004869678057730198,-35.3638701,149.164962875,84152.5,1.0,-2.0,-152.0,0.0,0.0,-999.5,1.0,2.0,6.0,RTL,229178.0
15:08:24,0.00403748732060194,-0.0005970960482954979,-2.8460322618484497,0.0031240961980074644,0.0014580418355762959,0.00470934621989727,-35.3638701,149.1649629,86093.5,1.0,-2.0,-152.0,0.0,0.0,-1000.0,4.5,2.5,6.0,RTL,229178.0
15:08:26,0.003930796403437853,-0.00036673189606517553,-2.840898871421814,0.0026617153780534863,0.0001304755569435656,0.0037596665788441896,-35.3638701,149.1649628,89199.0,1.0,-2.0,-152.0,0.0,0.0,-1001.0,4.5,2.0,5.0,RTL,207785.5
15:08:28,0.004114005481824279,0.0004435879527591169,-2.8362414836883545,0.00047496985644102097,0.001422169676516205,0.00377457682043314,-35.3638702,149.1649628,92305.0,1.5,-2.0,-152.0,0.0,0.0,-1000.0,1.5,2.5,5.0,RTL,186393.0
15:08:29,0.0040266484138555825,0.0004085209366166964,-2.834578573703766,-0.0005514141812454909,-0.0006218297348823398,0.0026789784897118807,-35.3638702,149.1649628,93470.25,2.0,-2.0,-152.0,0.0,0.0,-1000.0,1.5,1.0,3.75,RTL,292821.0
15:08:30,0.0035123357083648443,-0.00048186622734647244,-2.8318156003952026,-0.0006893065292388201,-0.0015148544334806502,0.0036782707320526242,-35.3638702,149.1649628,95413.0,2.0,-2.0,-152.0,0.0,0.0,-1000.0,1.0,0.5,5.0,RTL,292821.0
15:08:32,0.0034559944178909063,-0.0010108756250701845,-2.828412890434265,0.00025669881142675877,0.0006519424496218562,0.001598785980604589,-35.3638702,149.1649628,98518.0,1.0,-1.0,-152.0,0.0,0.0,-1000.0,1.5,2.0,2.5,RTL,215993.5
15:08:34,0.0038158007664605975,-0.0002670179965207353,-2.8246095180511475,0.000912044255528599,0.0006604610243812203,0.0036513686645776033,-35.3638702,149.1649628,101625.5,1.0,-1.0,-152.0,0.0,0.0,-999.5,3.0,2.0,5.0,RTL,139166.0
15:08:35,0.003986039548180997,-0.0001989205429708818,-2.823584258556366,0.00037742426502518356,0.0003545579093042761,0.0023710985551588237,-35.3638702,149.1649628,102790.5,1.0,-1.0,-152.0,0.0,0.0,-999.75,2.0,1.75,3.75,RTL,78314.0
15:08:36,0.003791702911257744,-0.00016498126205988228,-2.821928858757019,-0.001490126014687121,0.0010991482995450497,0.0016431671101599932,-35.3638702,149.1649628,104737.0,1.5,-1.0,-152.0,0.0,0.0,-999.5,0.0,3.0,3.0,RTL,78314.0
15:08:38,0.0038268896751105785,0.0002922453568316996,-2.8194223642349243,-0.001049742626491934,0.000721013406291604,0.0002539245178923011,-35.3638702,149.1649628,107842.0,2.0,-1.0,-152.0,0.0,0.0,-999.5,0.5,2.5,2.0,RTL,105364.5
15:08:40,0.003333751577883959,-0.0009749009041115642,-2.81751811504364,-0.0015671795699745417,2.185744233429432e-05,0.0007409073296003044,-35.3638702,149.1649628,110949.0,1.5,-1.0,-152.0,0.0,0.0,-1000.0,0.5,2.0,2.0,RTL,132415.0
15:08:41,0.00333131430670619,-0.0009250430593965575,-2.8168649673461914,2.3289991077035666e-05,0.00013095649774186313,0.0013362429745029658,-35.3638702,149.1649628,112114.5,1.0,-1.0,-152.0,0.0,0.0,-1000.25,2.0,1.75,2.75,RTL,173047.0
15:08:42,0.003635036526247859,-0.0006181405624374747,-2.815790891647339,0.0006315030623227358,-0.0007077620830386877,0.0027541148010641336,-35.3638702,149.1649628,114055.5,1.0,-1.0,-152.0,0.0,0.0,-1000.0,2.5,1.0,4.5,RTL,173047.0
15:08:44,0.003060887916944921,0.00036109845677856356,-2.8143789768218994,0.0008148878114297986,-0.00017014797776937485,0.0018568628001958132,-35.3638702,149.1649627,117171.0,1.0,-1.0,-152.0,0.0,0.0,-1000.0,3.0,1.5,3.5,RTL,115015.5
15:08:46,0.003894231980666518,-0.0006090415408834815,-2.812934160232544,0.003123014932498336,-3.347342135384679e-05,0.0023221912560984492,-35.3638702,149.1649627,120279.0,1.0,-0.5,-152.0,0.0,0.0,-1000.0,5.0,1.5,4.0,RTL,56984.0
15:08:47,0.004471846506930888,0.00010997310982929775,-2.812652349472046,0.00010064698290079832,0.0013357079005800188,0.0016502990911249071,-35.3638702,149.1649627,121443.75,1.5,-1.0,-152.0,0.0,0.0,-999.5,1.75,3.0,3.25,RTL,154906.0
15:08:48,0.0041341695468872786,6.256229426071513e-05,-2.811819314956665,0.0002622412866912782,-0.0012952719698660076,0.0030991211533546448,-35.3638703,149.1649628,123385.0,2.0,-1.0,-152.0,0.0,0.0,-1000.0,2.5,0.5,4.5,RTL,154906.0
15:08:50,0.002838839776813984,-0.0006357786187436432,-2.8100515604019165,0.0017745367949828506,-0.0005572179798036814,0.003270924440585077,-35.3638702,149.1649628,126490.5,2.0,-1.0,-152.0,0.0,0.0,-1000.0,3.5,1.0,4.5,RTL,139480.0
15:08:52,0.003225875669158995,-0.0005290391272865236,-2.809317946434021,-0.0018909740028902888,0.001138654537498951,0.001720709668006748,-35.3638702,149.1649628,129597.0,1.0,-1.0,-152.0,0.0,0.0,-999.5,1.0,2.5,3.5,RTL,124054.0
15:08:53,0.0028488749521784484,-0.00017590932111488655,-2.8089852929115295,0.00010519704665057361,0.0005668859812431037,0.001685274124611169,-35.3638702,149.1649627,130762.25,1.0,-0.75,-152.0,0.0,0.0,-1000.0,2.0,2.25,3.25,RTL,178535.0
15:08:54,0.0036172257969155908,0.00011621075100265443,-2.808582901954651,0.002023391076363623,0.0010896279709413648,0.000354238785803318,-35.3638702,149.1649627,132704.5,1.0,0.0,-152.0,0.0,0.0,-1000.0,4.0,3.0,2.0,RTL,178535.0
15:08:56,0.004538733744993806,0.00021779505914309993,-2.8080426454544067,-0.0004335502162575722,0.0012099557789042592,0.002291271463036537,-35.3638702,149.1649627,135815.0,1.5,-1.0,-152.0,0.0,0.0,-999.5,1.5,3.0,4.0,RTL,232569.5
15:08:58,0.0034789687488228083,5.07368786202278e-05,-2.807473063468933,-0.0003497052239254117,-0.0004096443299204111,0.0017367388354614377,-35.3638702,149.1649627,138921.0,2.0,-1.0,-152.0,0.0,0.0,-1000.0,1.5,1.5,3.5,RTL,286604.0
15:08:59,0.003348758560605347,-0.0006381241146300454,-2.807340085506439,-0.0001975487102754414,-0.0009095402201637626,0.0006978156743571162,-35.3638702,149.1649627,140087.0,2.0,-1.0,-152.0,0.0,0.0,-1000.0,1.75,1.0,2.5,RTL,196102.0
15:09:00,0.003415437415242195,-0.0005697316664736718,-2.806978464126587,0.00018809165339916945,0.0007273374358192086,-9.736861102283001e-06,-35.3638702,149.1649627,142030.5,1.0,-1.0,-152.0,0.0,0.0,-1000.5,2.0,3.0,1.5,RTL,196102.0
15:09:02,0.002850075950846076,-0.00018716233898885548,-2.8063985109329224,-0.0003386466996744275,-0.00035056390333920717,0.001031154824886471,-35.3638702,149.1649627,145135.0,1.0,-1.0,-152.0,0.0,0.0,-1000.5,1.5,1.5,2.5,RTL,111465.0
15:09:04,0.0033221866469830275,-0.0003864361351588741,-2.806453227996826,-0.0009742440888658166,-0.0009711567545309663,0.0016855504363775253,-35.3638702,149.1649627,148250.0,1.0,0.0,-152.0,0.0,0.0,-999.5,1.5,1.0,3.5,RTL,26828.0
15:09:05,0.003420292225200683,-0.000348383910022676,-2.80631023645401,0.0005205540219321847,-5.8267731219530106e-05,0.00028901349287480116,-35.3638702,149.1649627,149418.25,1.0,0.0,-152.0,0.0,0.0,-1000.25,2.5,2.0,1.75,RTL,94862.0
15:09:06,0.003924251301214099,-0.00018831212946679443,-2.8053520917892456,8.962687570601702e-05,-4.697893746197224e-05,0.0027163673657923937,-35.3638702,149.1649627,151353.0,1.5,-1.0,-152.0,0.0,0.0,-1000.0,2.0,2.0,4.5,RTL,94862.0
15:09:08,0.0036309721181169152,-0.00019060483464272693,-2.8050752878189087,0.0005798014462925494,6.942788604646921e-05,0.001503374776802957,-35.3638702,149.1649627,154459.5,1.0,-1.0,-152.0,0.0,0.0,-999.5,2.5,2.0,3.0,RTL,181515.0
15:09:10,0.00350474810693413,-0.00034965343365911394,-2.8048118352890015,0.00016865914221853018,-0.0003250086447224021,-8.792080916464329e-05,-35.3638702,149.1649627,157573.5,1.0,-1.0,-152.0,0.0,0.0,-1000.5,2.5,2.0,2.0,RTL,268168.0
15:09:11,0.0028484261129051447,-0.00010557329005678184,-2.804819107055664,-0.0011542301799636334,-6.798157119192183e-05,0.0014033098123036325,-35.3638702,149.1649627,158738.75,1.0,-1.0,-152.0,0.0,0.0,-999.75,1.0,2.25,3.5,RTL,91675.0
15:09:12,0.00314934307243675,-0.00021052927695563994,-2.804596424102783,8.829205762594938e-05,-0.0010828268132172525,0.0012515587732195854,-35.3638702,149.1649627,160680.0,1.0,0.0,-152.0,0.0,0.0,-1000.0,2.5,1.0,3.0,RTL,91675.0
15:09:14,0.0036568832583725452,0.000655373529298231,-2.804457187652588,-0.0005604687612503767,0.000493277795612812,-0.0017911921022459865,-35.3638702,149.1649627,163788.0,2.0,0.0,-152.0,0.0,0.0,-1000.5,2.0,2.5,0.5,RTL,165874.5
15:09:16,0.003387515200302005,-0.0005760477943113074,-2.8043588399887085,-0.0034068231470882893,-0.0013105946127325296,7.169612217694521e-05,-35.3638702,149.1649627,166894.0,2.0,-1.0,-152.0,0.0,0.0,-1000.0,0.0,0.5,1.5,RTL,240074.0
15:09:17,0.0031840832671150565,-0.0007962392119225115,-2.8044497966766357,0.0003121619811281562,0.0005653075058944523,0.00020272392430342734,-35.3638702,149.1649627,168059.0,1.75,-1.0,-152.0,0.0,0.0,-1000.0,2.5,2.5,1.75,RTL,204260.0
15:09:18,0.0032892433227971196,-0.0007354023691732436,-2.8043787479400635,-0.00016868615057319403,0.00026198080740869045,0.0019011948024854064,-35.3638702,149.1649627,170001.5,1.0,-1.0,-152.0,0.0,0.0,-1000.0,2.5,2.0,4.0,RTL,204260.0
15:09:20,0.002971551031805575,0.00021827531963936053,-2.8042072057724,-0.0013476224849000573,0.0006163544021546841,0.0012040416477248073,-35.3638702,149.1649627,173109.5,1.0,-1.0,-152.0,0.0,0.0,-1000.0,1.5,3.0,3.5,RTL,207111.5
15:09:22,0.003512630588375032,0.0005646518839057535,-2.8037426471710205,0.000887732021510601,0.0026870823930948973,0.0032302942126989365,-35.3638702,149.1649627,176216.5,2.0,0.0,-152.0,0.0,0.0,-1000.0,3.0,5.0,5.5,RTL,209963.0
15:09:23,0.0035527008585631847,0.0005991521684336476,-2.803459584712982,0.0002733457076828927,-0.0004561680252663791,-0.00016498868353664875,-35.3638702,149.1649627,177382.75,2.0,0.0,-152.0,0.0,0.0,-999.75,2.75,1.5,2.0,RTL,174173.0
15:09:24,0.004032936063595116,-0.00033779525256250054,-2.8035664558410645,-0.0021984486375004053,-0.00045484607107937336,-0.0008221027092076838,-35.3638702,149.1649627,179328.0,2.0,-1.0,-152.0,0.0,0.0,-1000.0,0.5,1.5,1.5,RTL,174173.0
15:09:26,0.003406761330552399,-0.0002690944020287134,-2.8038456439971924,-0.0010663469438441098,0.0005113747902214527,0.0009840484708547592,-35.3638702,149.1649627,182434.0,1.0,-1.0,-152.0,0.0,0.0,-999.5,1.5,3.0,3.5,RTL,225952.5
15:09:28,0.003204699489288032,-0.0003064918055315502,-2.803690195083618,-0.0010384224588051438,-0.00027856347151100636,-0.0007368736551143229,-35.3638702,149.1649627,185541.0,1.0,-1.0,-152.0,0.0,0.0,-1000.0,1.0,2.0,1.0,RTL,277732.0
15:09:29,0.0027485087630338967,-4.1803204567258945e-05,-2.8037437796592712,0.00011707493104040623,0.0007321842713281512,0.0013926451210863888,-35.3638702,149.1649627,186706.5,1.0,-0.75,-152.0,0.0,0.0,-1000.0,2.5,3.0,3.25,RTL,298988.0
15:09:30,0.0031592566519975662,-0.00041427848918829113,-2.8033249378204346,0.0004397508455440402,-0.00014612532686442137,0.0011830724542960525,-35.3638702,149.1649627,188655.5,1.0,0.0,-152.0,0.0,0.0,-999.5,3.0,1.5,3.5,RTL,298988.0
15:09:32,0.0037866701604798436,-0.0005533521325560287,-2.8038934469223022,0.0012364167487248778,-0.00010237633250653744,-0.0012301214737817645,-35.3638702,149.1649627,191763.0,1.0,0.0,-152.0,0.0,0.0,-1000.0,3.5,2.0,1.0,RTL,218733.0
15:09:34,0.0033880287082865834,-0.00037359161069616675,-2.8037614822387695,-0.0009313056943938136,-0.00011994258966296911,0.00031971419230103493,-35.3638702,149.1649627,194870.0,1.0,-1.0,-152.0,0.0,0.0,-1000.5,2.0,2.0,2.5,RTL,138478.0
15:09:35,0.003595076617784798,-0.00023039998632157221,-2.8037604093551636,0.0008101192070171237,0.0005993042723275721,0.0007392557745333761,-35.3638702,149.1649627,196034.75,1.0,-1.0,-152.0,0.0,0.0,-999.75,3.5,2.75,3.0,RTL,246764.0
15:09:36,0.0034559762571007013,-0.0003618108748923987,-2.8038018941879272,-0.0001838562311604619,1.6558915376663208e-06,6.55630137771368e-05,-35.3638702,149.1649627,197977.0,1.0,-1.0,-152.0,0.0,0.0,-1000.0,2.5,2.5,2.0,RTL,246764.0
15:09:38,0.002517262240871787,0.00011167428601766005,-2.8035157918930054,-3.942626062780619e-05,0.0007117301574908197,0.0006675050826743245,-35.3638702,149.1649627,201084.0,1.0,-1.0,-152.0,0.0,0.0,-1000.0,2.5,3.0,3.0,RTL,253784.0
15:09:40,0.0034040751634165645,-0.0004315683036111295,-2.8031610250473022,0.00018335157074034214,0.001853815047070384,0.0012012156657874584,-35.3638702,149.1649627,204189.0,1.0,0.0,-152.0,0.0,0.0,-999.5,2.5,4.5,3.5,RTL,260804.0
15:09:41,0.0033754826290532947,-0.000443124481535051,-2.8031758666038513,0.001772459363564849,0.0004739252617582679,0.0019501178758218884,-35.3638702,149.1649627,205356.5,1.0,0.0,-152.0,0.0,0.0,-1000.0,4.25,2.75,4.0,RTL,204586.0
15:09:42,0.003981004003435373,-0.0006862833397462964,-2.8032426834106445,0.00011448608711361885,-0.0004615307552739978,0.0008893300546333194,-35.3638702,149.1649627,207296.0,1.0,-1.0,-152.0,0.0,0.0,-1000.5,2.5,2.0,3.0,RTL,204586.0
15:09:44,0.0037842622259631753,0.0004507112244027667,-2.80331814289093,0.0027729900320991874,0.0024250656133517623,0.002385940751992166,-35.3638702,149.1649627,210407.0,1.0,-1.0,-152.0,0.0,0.0,-1000.5,5.5,4.5,4.5,RTL,237732.5
15:09:46,0.0034812953090295196,-0.00015363049897132441,-2.8031322956085205,-0.00048289052210748196,-0.00012240710202604532,-4.33062668889761e-05,-35.3638702,149.1649627,213514.0,2.0,-1.0,-152.0,0.0,0.0,-1000.5,2.5,2.5,2.0,RTL,270879.0
15:09:48,0.0026502381078898907,-0.00020602627046173438,-2.8034729957580566,0.0012337587540969253,0.0009121662005782127,0.0012478100834414363,-35.3638702,149.1649627,216619.0,1.0,-1.0,-152.0,0.0,0.0,-1000.0,4.0,3.5,3.5,RTL,97366.0
15:09:50,0.003406207775697112,-0.00045041495468467474,-2.8034255504608154,0.0009081109892576933,2.418330404907465e-05,0.00014975195517763495,-35.3638702,149.1649627,219726.5,1.0,0.0,-152.0,0.0,0.0,-1000.0,3.5,2.5,2.5,RTL,97366.0
15:09:51,0.004115813237149268,-0.0005317648974596523,-2.8036205172538757,0.0009725675918161869,-9.658071212470531e-05,0.0006789209728594869,-35.3638702,149.1649627,220900.25,1.0,-0.5,-152.0,0.0,0.0,-1000.0,3.75,2.5,3.0,RTL,244111.0
15:09:52,0.0037267071893438697,-0.00031030386162456125,-2.803552746772766,-0.0006085128989070654,0.001766116707585752,0.00032814504811540246,-35.3638702,149.1649627,222841.0,1.0,-1.0,-152.0,0.0,0.0,-999.5,2.5,4.0,2.5,RTL,244111.0
15:09:54,0.00360116851516068,-0.00021190262486925349,-2.8035613298416138,-0.00039411347825080156,0.0002170387888327241,0.0003906823694705963,-35.3638702,149.1649627,225948.5,1.5,-1.0,-152.0,0.0,0.0,-1000.0,2.5,2.5,3.0,RTL,202823.0
15:09:56,0.0034875512355938554,-0.0003700788802234456,-2.8030266761779785,-0.00012870447244495153,0.00040364661253988743,0.001107259071432054,-35.3638702,149.1649627,229056.0,1.5,-1.0,-152.0,0.0,0.0,-1000.0,2.5,3.0,3.5,RTL,202823.0
15:09:57,0.002933439740445465,-6.950075135137013e-05,-2.8029422760009766,0.0005627101636491716,0.0008161873556673527,-5.3858617320656776e-05,-35.3638702,149.1649627,230220.75,1.0,-1.0,-152.0,0.0,0.0,-1000.25,3.75,3.5,2.25,RTL,155329.0
15:09:58,0.0030268889386206865,-0.0001970714220078662,-2.803215980529785,0.0017911725444719195,-5.5616721510887146e-05,0.0016931190621107817,-35.3638702,149.1649627,232162.0,1.0,0.0,-152.0,0.0,0.0,-999.5,5.0,2.5,4.0,RTL,155329.0
15:10:00,0.0034083027858287096,0.0003053030086448416,-2.8032158613204956,0.001070421072654426,-0.0003330481704324484,0.0002517713000997901,-35.3638702,149.1649627,235268.5,2.0,0.0,-152.0,0.0,0.0,-1000.5,4.0,2.5,3.0,RTL,251901.0
15:10:02,0.0033925690222531557,-0.0007116082415450364,-2.803414821624756,-1.2994394637644291e-05,0.00215147458948195,0.00039569404907524586,-35.3638702,149.1649627,238376.0,1.0,-1.0,-152.0,0.0,0.0,-1000.0,2.5,5.0,3.0,RTL,251901.0
15:10:03,0.003482877160422504,-0.0004280928988009691,-2.803420305252075,0.0009569566464051604,0.0006303233676590025,0.00018694327445700765,-35.3638702,149.1649627,239541.25,1.0,-1.0,-152.0,0.0,0.0,-999.75,4.0,3.25,3.0,RTL,219813.0
15:10:04,0.00353034189902246,-0.0002943619983852841,-2.803260564804077,0.00024859607219696045,0.001529561704955995,0.001488792710006237,-35.3638702,149.1649627,241488.0,1.0,-1.0,-152.0,0.0,0.0,-999.5,3.5,4.0,4.0,RTL,219813.0
15:10:06,0.002893110504373908,7.97396514826687e-05,-2.803543210029602,0.0012176017044112086,0.0004720003344118595,0.0005458598025143147,-35.3638702,149.1649627,244594.5,1.5,-1.0,-152.0,0.0,0.0,-1001.0,4.0,3.0,3.0,RTL,193596.0
15:10:08,0.0033491849899291992,-0.00027284148382022977,-2.8036030530929565,-0.0016898202011361718,-0.0004695988027378917,-0.00016888848040252924,-35.3638702,149.1649627,247700.0,2.0,0.0,-152.0,0.0,0.0,-999.5,2.0,2.5,2.5,RTL,193596.0
15:10:09,0.004027421411592513,-0.0005579554053838365,-2.803575336933136,0.0006480004522018135,0.0007213153876364231,0.0010192650370299816,-35.3638702,149.1649627,248865.5,2.0,-0.5,-152.0,0.0,0.0,-999.75,3.5,3.75,3.75,RTL,1451.0
15:10:10,0.0037929783575236797,-0.0002923090578406118,-2.803471326828003,-0.0008339771302416921,0.0009615329327061772,5.699601024389267e-05,-35.3638702,149.1649627,250807.0,1.5,-1.0,-152.0,0.0,0.0,-999.5,2.0,4.0,2.5,RTL,1451.0
15:10:12,0.0039181438041850924,0.00035637458495330065,-2.8027604818344116,0.00020565255545079708,2.2771069779992104e-05,-0.000989261723589152,-35.3638702,149.1649627,253922.0,2.0,-1.0,-152.0,0.0,0.0,-1000.0,3.5,3.0,2.0,RTL,174545.0
15:10:14,0.003126358613371849,-0.0010396816360298544,-2.8029279708862305,-0.0012500715674832463,0.001840404118411243,0.0002662201877683401,-35.3638702,149.1649627,257028.0,2.0,-1.0,-152.0,0.0,0.0,-999.5,2.5,5.0,3.0,RTL,174545.0
15:10:15,0.003309194289613515,-0.0005193139149923809,-2.8029401898384094,-0.0010259664850309491,0.0007203348213806748,0.0001556315692141652,-35.3638702,149.1649627,258193.5,1.0,-1.0,-152.0,0.0,0.0,-1000.0,2.25,3.75,2.75,RTL,28280.0
15:10:16,0.0026037859497591853,1.2046004485455342e-05,-2.8032830953598022,0.00018874346278607845,0.00029222271405160427,0.001476682722568512,-35.3638702,149.1649627,260136.0,1.0,-1.0,-152.0,0.0,0.0,-1000.5,3.0,3.0,4.0,RTL,28280.0
15:10:18,0.003323268727399409,-0.0003667749260785058,-2.8031527996063232,0.0014848115388303995,0.0013090081047266722,0.0013347434578463435,-35.3638702,149.1649627,263243.5,1.0,0.0,-152.0,0.0,0.0,-1000.0,4.5,4.0,4.0,RTL,138794.0
15:10:20,0.004187229089438915,-0.0005985274619888514,-2.8030786514282227,0.0005263800267130136,0.0016094375168904662,0.000811220146715641,-35.3638702,149.1649627,266349.5,1.0,-1.0,-152.0,0.0,0.0,-999.5,3.5,4.5,3.5,RTL,138794.0
15:10:21,0.0037322110729292035,-0.0004018557592644356,-2.8032089471817017,9.373220382258296e-05,0.00011546490713953972,0.001027617894578725,-35.3638702,149.1649627,267515.5,1.0,-1.0,-152.0,0.0,0.0,-1000.0,3.25,3.0,4.0,RTL,30955.0
15:10:22,0.003444714122451842,-0.00011416697452659719,-2.8035799264907837,0.0003186371177434921,-0.0005356547189876437,0.0019216482760384679,-35.3638702,149.1649627,269611.0,2.0,-1.0,-152.0,0.0,0.0,-1000.0,3.0,2.5,4.5,RTL,30955.0
15:10:24,0.00344027706887573,-0.00018701503722695634,-2.8036388158798218,-0.0003915217239409685,-0.0011241947067901492,0.0005551030626520514,-35.3638702,149.1649627,272721.5,2.0,-1.0,-152.0,0.0,0.0,-1000.5,2.5,2.0,3.5,RTL,110395.0
15:10:26,0.002815174637362361,0.0004195660148980096,-2.8035359382629395,-0.000276923761703074,5.6091463193297386e-05,0.0012259276118129492,-35.3638702,149.1649627,275827.0,1.0,-1.0,-152.0,0.0,0.0,-1000.0,3.0,3.0,4.0,RTL,110395.0
15:10:27,0.0030975269619375467,0.0008814682223601267,-2.803102493286133,0.00016763177700340748,-0.000731021398678422,0.001724060857668519,-35.3638702,149.1649627,276991.75,2.0,0.0,-152.0,0.0,0.0,-1000.0,3.5,2.25,4.75,RTL,262969.0
15:10:28,0.0031228807056322694,-0.0002996028997586109,-2.802786111831665,-0.0022091888822615147,-0.001243219303432852,-1.2222444638609886e-06,-35.3638702,149.1649627,278934.5,2.0,0.0,-152.0,0.0,0.0,-1000.0,1.0,1.5,3.0,RTL,262969.0
15:10:30,0.003742168308235705,-0.00047802753397263587,-2.802824020385742,-0.0010928672272711992,-2.7377158403396606e-05,-0.0004260026616975665,-35.3638702,149.1649627,282045.0,1.0,-1.0,-152.0,0.0,0.0,-1000.0,2.5,3.0,2.5,RTL,170858.0
15:10:32,0.0035862501244992018,-0.00012026549302390777,-2.8031939268112183,0.002692196285352111,3.974884748458862e-05,0.0015363771235570312,-35.3638702,149.1649627,285155.0,1.0,-1.0,-152.0,0.0,0.0,-1000.5,6.0,3.0,4.0,RTL,170858.0
15:10:33,0.0035330767277628183,-0.00041801577754085883,-2.8031654357910156,-0.0001072566956281662,-0.00026865419931709766,0.0006174094742164016,-35.3638702,149.1649627,286323.25,1.0,-1.0,-152.0,0.0,0.0,-999.75,3.25,2.75,3.5,RTL,216349.0
15:10:34,0.0034432318061590195,-0.00030676618916913867,-2.803252935409546,-0.00015521887689828873,-4.6061002649366856e-05,-0.00024637929163873196,-35.3638702,149.1649627,288262.5,1.5,-1.0,-152.0,0.0,0.0,-1000.5,3.0,3.0,2.5,RTL,216349.0
15:10:36,0.002600161940790713,-4.2237276829837356e-05,-2.8033753633499146,-0.000863655237480998,-0.0003078931476920843,-0.0016691505443304777,-35.3638702,149.1649627,291369.0,2.0,-1.0,-152.0,0.0,0.0,-1000.0,3.0,3.0,1.0,RTL,281587.0
15:10:38,0.0032658824929967523,-0.00039535418909508735,-2.8034794330596924,0.0012441246071830392,-0.00013501523062586784,0.0017322145868092775,-35.3638702,149.1649627,294476.0,1.0,0.0,-152.0,0.0,0.0,-1000.0,5.0,2.5,5.0,RTL,281587.0
15:10:39,0.0036232555867172778,0.00017325516819255427,-2.80340439081192,0.0005260042380541563,0.0005112219951115549,0.0013346902560442686,-35.3638702,149.1649627,295640.0,1.5,0.0,-152.0,0.0,0.0,-1000.0,4.0,3.75,4.0,RTL,120636.0
15:10:40,0.004096081014722586,0.00024689782731002197,-2.803336501121521,-0.0015334272757172585,-0.0001760279992595315,0.00046712777111679316,-35.3638702,149.1649627,297582.0,2.0,-1.0,-152.0,0.0,0.0,-999.5,2.0,3.0,3.0,RTL,120636.0
15:10:42,0.0030657764291390777,-0.0007347161881625652,-2.8033262491226196,-0.0018208492547273636,6.348197348415852e-05,-0.0008049816824495792,-35.3638702,149.1649627,300687.5,1.5,-1.0,-152.0,0.0,0.0,-1000.0,1.5,3.5,2.5,RTL,178905.0
15:10:44,0.0035297201247885823,-0.0006065210909582675,-2.802912473678589,-0.0004095059121027589,0.001020265743136406,0.0005014349007979035,-35.3638702,149.1649627,303797.5,1.0,-1.0,-152.0,0.0,0.0,-1000.0,3.0,4.5,3.5,RTL,178905.0
15:10:45,0.003012827190104872,-0.00031378408311866224,-2.80308336019516,8.71182419359684e-05,0.0007615476497448981,0.0015966750215739012,-35.3638702,149.1649627,304967.0,1.0,-1.0,-152.0,0.0,0.0,-1000.0,4.0,4.0,4.75,RTL,207284.0
15:10:46,0.003156509483233094,0.0001765320630511269,-2.802902102470398,0.0002558506093919277,0.0005453455960378051,0.0002728143008425832,-35.3638702,149.1649627,306905.0,1.0,0.0,-152.0,0.0,0.0,-1000.0,4.0,4.0,3.5,RTL,207284.0
15:10:48,0.003444538568146527,-0.0005721269844798371,-2.803266406059265,-0.0010984496911987662,-0.0008061609696596861,-2.9071932658553123e-05,-35.3638702,149.1649627,310013.0,1.5,0.0,-152.0,0.0,0.0,-1000.0,2.5,3.0,3.0,RTL,127576.0
15:10:50,0.0038800424663349986,0.0005368883721530437,-2.8031363487243652,-0.001191378803923726,-0.0019518565386533737,0.0012306412681937218,-35.3638702,149.1649627,313122.5,2.0,-1.0,-152.0,0.0,0.0,-1000.0,4.0,3.0,4.0,RTL,127576.0
15:10:51,0.003545486911510428,0.00011636926137725823,-2.8031436602274575,-4.4889903316895165e-05,-0.00017850520089268684,0.00036063650622963905,-35.3638702,149.1649627,314096.0,2.0,-1.0,-152.0,0.0,0.0,-1000.0,3.0,2.5,3.75,RTL,127335.0
15:10:52,0.003129797133927544,-0.0006342235938063823,-2.8031743367513022,0.0014204496207336585,0.00025179237127304077,0.001305862097069621,-35.3638702,149.1649627,315778.3333333333,2.0,-1.0,-152.0,0.0,0.0,-1000.0,4.666666666666667,3.6666666666666665,4.666666666666667,RTL,127335.0
15:10:54,0.002562185167334974,-0.0006146080559119582,-2.8032617568969727,0.0010421695187687874,0.0008460846729576588,0.001162587315775454,-35.3638702,149.1649627,319336.5,1.0,-1.0,-152.0,0.0,0.0,-999.5,4.0,4.5,6.0,RTL,31681.0
15:10:56,0.003620262024924159,6.208306149346754e-05,-2.803164482116699,0.0017241132445633411,0.0016531464643776417,0.0009005260653793812,-35.3638702,149.1649627,322250.0,1.0,0.0,-152.0,0.0,0.0,-1000.5,4.5,4.0,4.0,RTL,31681.0
15:10:57,0.003540051926393062,-7.033050223981263e-05,-2.803331971168518,0.0004873062134720385,-0.0004729112843051553,-0.0007665392477065325,-35.3638702,149.1649627,323228.5,1.0,0.0,-152.0,0.0,0.0,-1000.0,4.0,3.0,2.5,RTL,150503.0
15:10:58,0.003964378110443552,9.562480651463071e-06,-2.8035263220469155,0.00012248925243814787,0.001395621569827199,-0.00034090174206842977,-35.3638702,149.1649627,324782.0,2.0,-0.5,-152.0,0.0,0.0,-999.5,3.0,5.0,2.5,RTL,150503.0
15:11:00,0.0033024700824171305,0.00018126569921150804,-2.802630305290222,-8.375872857868671e-05,-0.0006053932011127472,-0.0010738404234871268,-35.3638702,149.1649627,327890.5,2.0,-1.0,-152.0,0.0,0.0,-1000.0,4.0,3.0,2.5,RTL,8435.0
15:11:02,0.0029172049835324287,-0.0009772978664841503,-2.803160309791565,-0.0001913447631523013,0.0007094917818903923,0.0005474950885400176,-35.36387015,149.1649627,330994.5,1.0,-1.0,-152.0,0.0,0.0,-999.5,4.0,4.5,4.0,RTL,8435.0
15:11:03,0.0024689221754670143,-0.0006517886649817228,-2.803121864795685,-1.7672718968242407e-05,0.0009331542532891035,0.001111124234739691,-35.3638701,149.1649627,332548.0,1.0,-0.75,-152.0,0.0,0.0,-999.5,3.5,4.5,4.5,RTL,221996.0
15:11:04,0.0025705824373289943,-0.0005885126302018762,-2.8030391931533813,-0.0004195955116301775,-8.366350084543228e-05,0.0016904869116842747,-35.36387015,149.1649627,334101.0,1.0,0.0,-152.0,0.0,0.0,-999.5,3.5,3.5,5.0,RTL,221996.0
15:11:06,0.002697279560379684,-0.0008729133987799287,-2.8032883405685425,0.0005772178992629051,-0.0003896857379004359,-0.00017512461636215448,-35.3638701,149.1649627,337208.0,1.0,0.0,-152.0,0.0,0.0,-1000.5,4.5,3.5,3.0,RTL,29548.0
15:11:08,0.0024446832248941064,-0.0011982672731392086,-2.803329348564148,0.0023821452632546425,0.001102146226912737,0.001196462195366621,-35.3638701,149.1649627,340317.5,0.0,0.0,-152.0,0.0,0.0,-1000.0,6.5,4.5,4.5,RTL,29548.0
15:11:09,0.002423377416562289,-0.0010305759351467714,-2.803549587726593,-0.0007243232103064656,-0.00018097279826179147,-8.996709948405623e-05,-35.3638701,149.1649627,341867.5,0.0,0.0,-152.0,0.0,0.0,-999.75,3.25,3.25,3.25,RTL,234121.0
15:11:10,0.0024254368618130684,-0.0015478889690712094,-2.8032528162002563,0.0011023408733308315,0.0003278931835666299,0.0002841841196641326,-35.36387005,149.1649627,343425.0,0.0,0.0,-152.0,0.0,0.0,-1000.0,5.0,4.0,4.0,RTL,234121.0
15:11:12,0.001988467061892152,-0.001383258670102805,-2.8034894466400146,0.000802002614364028,0.00011993828229606152,-0.000264802947640419,-35.36387,149.16496265,346536.0,0.0,0.0,-152.0,0.0,0.0,-1000.0,4.5,3.5,3.0,RTL,215651.5
15:11:14,0.002025031950324774,-0.0018520908779464662,-2.8034534454345703,-3.79031989723444e-05,-0.00029333087150007486,-0.0004712027730420232,-35.36387,149.1649626,349642.5,0.0,0.0,-152.0,0.0,0.0,-1000.5,4.0,3.0,3.5,RTL,197182.0
15:11:15,0.0020345874945633113,-0.0017124927253462374,-2.8036532402038574,-6.059010047465563e-05,3.1383184250444174e-05,-0.0008581908186897635,-35.36387,149.1649626,351191.75,0.0,0.0,-152.0,0.0,0.0,-1000.25,3.75,3.5,2.75,RTL,181282.0
15:11:16,0.0018559909076429904,-0.0015152772539295256,-2.802880883216858,0.00038119510281831026,-0.00045188970398157835,0.000783301773481071,-35.36387,149.1649626,352748.5,0.0,0.0,-152.0,0.0,0.0,-1000.0,4.0,3.0,4.0,RTL,181282.0
15:11:18,0.0019170429441146553,-0.0017020718078128994,-2.8028786182403564,-0.0026915764901787043,-0.0008746471721678972,0.00043534114956855774,-35.36387,149.1649626,355859.5,0.0,0.0,-152.0,0.0,0.0,-1000.0,1.5,2.5,4.0,RTL,225406.0
15:11:20,0.0015509335207752883,-0.0019392475951462984,-2.8029767274856567,-0.0021627290407195687,-0.0018773442134261131,0.0005708497483283281,-35.36387,149.1649626,358967.5,0.0,0.0,-152.0,0.0,0.0,-1000.0,1.5,1.5,4.5,RTL,269530.0
15:11:21,0.001337713241809979,-0.0028266439330764115,-2.803114950656891,0.00011987739708274603,-0.0005352535517886281,0.0010394657729193568,-35.3638699,149.1649626,360520.25,-0.5,0.0,-152.0,0.0,0.0,-1000.0,3.75,3.0,4.75,RTL,269088.0
15:11:22,0.0014706189394928515,-0.002209687139838934,-2.803302049636841,0.00012107612565159798,-4.5294640585780144e-05,0.0003342485288158059,-35.3638699,149.1649626,362074.5,-1.0,0.0,-152.0,0.0,0.0,-1000.0,3.5,3.5,3.5,RTL,269088.0
15:11:24,0.00185819756006822,-0.0015323800616897643,-2.803118586540222,-0.0005260290345177054,-2.4487730115652084e-05,0.0007857412565499544,-35.3638699,149.1649626,365179.5,-1.0,0.0,-152.0,0.0,0.0,-1000.0,3.5,3.0,4.5,RTL,170824.5
15:11:26,0.0014834358007647097,-0.0018571701366454363,-2.8033541440963745,-0.0004469712730497122,-0.000354178249835968,-0.0008315489394590259,-35.3638699,149.1649626,368286.0,0.0,0.0,-152.0,0.0,0.0,-1000.0,3.0,3.0,3.0,RTL,72561.0
15:11:27,0.001565431070048362,-0.0020046525169163942,-2.80329030752182,-0.0003056681016460061,0.00011745799565687776,0.0010621873661875725,-35.3638699,149.1649626,369842.75,0.0,0.0,-152.0,0.0,0.0,-1000.0,3.5,3.5,5.0,RTL,266890.0
15:11:28,0.0012663481757044792,-0.0022969995043240488,-2.803329110145569,-0.003057423746213317,-0.002226428594440222,-0.0002675676951184869,-35.3638699,149.1649626,371394.5,-0.5,0.0,-152.0,0.0,0.0,-999.5,1.5,1.5,3.5,RTL,266890.0
15:11:30,0.0014958336250856519,-0.002337039913982153,-2.8033186197280884,0.0010419045574963093,0.0010080451611429453,0.0014211537782102823,-35.3638699,149.1649626,374504.0,-1.0,0.0,-152.0,0.0,0.0,-1000.0,5.0,4.5,5.5,RTL,163671.5
15:11:32,0.0013169407029636204,-0.002133925212547183,-2.8029955625534058,-0.0013542277738451958,-0.0004781038733199239,0.001681647845543921,-35.3638699,149.1649626,377614.5,-1.0,0.0,-152.0,0.0,0.0,-1000.0,2.0,3.0,5.5,RTL,60453.0
15:11:33,0.0013376093411352485,-0.0022500063059851527,-2.802781343460083,-0.00033228722168132663,-8.713046554476023e-06,0.00039767578709870577,-35.3638699,149.1649626,379167.75,-1.0,0.0,-152.0,0.0,0.0,-1000.0,3.25,3.5,4.25,RTL,279868.0
15:11:34,0.0010847990051843226,-0.0022211616160348058,-2.8027679920196533,-0.0022877424489706755,-0.0005790434079244733,-0.001100018504075706,-35.3638699,149.1649625,380720.0,-1.0,0.0,-152.0,0.0,0.0,-1000.0,1.0,3.0,2.5,RTL,279868.0
15:11:36,0.0014447591383941472,-0.001927834702655673,-2.8029088973999023,-0.00037419807631522417,-0.00022066524252295494,-0.00010956649202853441,-35.3638699,149.1649625,383832.0,-1.0,0.0,-152.0,0.0,0.0,-1000.0,3.5,3.5,3.5,RTL,216207.0
15:11:38,0.0011160495923832059,-0.001925002143252641,-2.8031331300735474,-0.003963601076975465,-0.0013383920304477215,-0.0017143570585176349,-35.3638699,149.1649625,386937.5,-1.0,0.0,-152.0,0.0,0.0,-1000.0,0.0,2.5,2.0,RTL,152546.0
15:11:39,0.0009069077204912901,-0.0028529326082207263,-2.8030152916908264,-0.00033295468892902136,-0.0015680441283620894,-0.00086828792700544,-35.36386985,149.1649625,388490.25,-1.0,0.0,-152.0,0.0,0.0,-1000.25,3.5,1.75,2.5,RTL,25917.0
15:11:40,0.0010534329048823565,-0.003031881293281913,-2.803148627281189,4.6170782297849655e-05,-0.0006100632017478347,0.001085708849132061,-35.3638698,149.1649625,390044.0,-1.5,0.0,-152.0,0.0,0.0,-1000.0,4.0,2.5,4.5,RTL,25917.0
15:11:42,0.001269187720026821,-0.002406140440143645,-2.8031102418899536,-0.0021296580089256167,-0.00010115443728864193,-0.00067975337151438,-35.3638698,149.1649625,393153.0,-2.0,0.0,-152.0,0.0,0.0,-1000.0,1.5,3.5,2.5,RTL,44047.0
15:11:44,0.00102796102873981,-0.001985896786209196,-2.8030487298965454,-0.0013432379346340895,-0.0013392234686762094,0.0008976587560027838,-35.3638698,149.1649625,396258.5,-1.0,0.5,-152.0,0.0,0.0,-1000.0,2.5,1.5,4.5,RTL,62177.0
15:11:45,0.001018842973280698,-0.0023659823345951736,-2.8031792640686035,-0.0005423454567790031,-0.00035830517299473286,-0.0005559538258239627,-35.3638698,149.1649625,397810.75,-1.0,1.0,-152.0,0.0,0.0,-999.75,3.0,3.0,3.25,RTL,258695.0
15:11:46,0.0005604600592050701,-0.0021452148212119937,-2.8032333850860596,-0.00265939487144351,-0.00018371420446783304,-0.0010335257975384593,-35.3638698,149.16496245000002,399364.0,-1.0,1.0,-152.0,0.0,0.0,-999.5,1.5,3.5,2.5,RTL,258695.0
15:11:48,0.0012496009294409305,-0.002409628825262189,-2.802958607673645,0.00015070638619363308,-0.0007350653177127242,0.0001952743623405695,-35.3638698,149.1649624,402470.5,-1.0,1.0,-152.0,0.0,0.0,-1000.0,3.5,2.5,3.5,RTL,199635.0
15:11:50,0.0017301903571933508,-0.002404571510851383,-2.8026243448257446,-0.0010574418120086193,0.0005373754538595676,0.00016373861581087112,-35.3638698,149.1649625,405581.5,-1.0,0.0,-152.0,0.0,0.0,-1000.0,2.0,3.5,3.5,RTL,140575.0
15:11:51,0.0012304066913202405,-0.0022884096251800656,-2.802682399749756,-0.0013684992445632815,-0.00040723016718402505,-0.0008222230244427919,-35.3638698,149.1649625,407134.25,-1.0,0.0,-152.0,0.0,0.0,-999.75,2.5,2.75,2.75,RTL,199432.0
15:11:52,0.001147260016296059,-0.002178985276259482,-2.8028677701950073,0.00124931032769382,0.00038629479240626097,0.0007914109155535698,-35.3638698,149.1649625,408687.5,-1.0,0.0,-152.0,0.0,0.0,-1000.5,4.5,3.5,4.5,RTL,199432.0
15:11:54,0.0011380815412849188,-0.0021505726035684347,-2.8029128313064575,0.000712322536855936,-3.929703962057829e-05,0.00029874371830374,-35.3638698,149.1649625,411797.5,-1.0,1.0,-152.0,0.0,0.0,-1000.5,4.0,3.5,3.5,RTL,151716.0
15:11:56,0.0005069082690170035,-0.0020536285592243075,-2.8029764890670776,0.0001066792756319046,-0.001039119204506278,-0.00032886024564504623,-35.3638698,149.1649624,414908.0,-1.0,1.0,-152.0,0.0,0.0,-1000.5,3.5,2.5,3.5,RTL,104000.0
15:11:57,0.0007956944755278528,-0.0022935958695597947,-2.8031837940216064,0.00022398383589461446,-0.000978191033937037,-0.000682750775013119,-35.3638698,149.1649624,416461.0,-1.0,1.0,-152.0,0.0,0.0,-1000.25,3.5,2.0,2.75,RTL,18343.0
15:11:58,0.0014639635337516665,-0.0025151255540549755,-2.803216814994812,0.003099335473962128,-0.0003907722420990467,0.001078123925253749,-35.3638698,149.1649624,418014.5,-1.0,1.0,-152.0,0.0,0.0,-1000.0,6.5,3.0,4.5,RTL,18343.0
15:12:00,0.001479943748563528,-0.0023608074989169836,-2.803122878074646,-0.00035555229987949133,1.972098834812641e-05,0.0007122601382434368,-35.3638698,149.1649625,421121.0,-1.0,0.0,-152.0,0.0,0.0,-999.5,3.0,3.0,4.0,RTL,143717.0
15:12:02,0.0008742913778405637,-0.0020781696075573564,-2.8032954931259155,0.0006698484066873789,-0.00012067402713000774,0.0018294680630788207,-35.3638698,149.1649625,424227.5,-1.0,0.5,-152.0,0.0,0.0,-1000.0,4.0,2.5,5.0,RTL,269091.0
15:12:03,0.0008274728752439842,-0.002200096903834492,-2.8032844066619873,-0.0012100701569579542,-0.0008039401436690241,1.081038499251008e-05,-35.3638698,149.1649625,425782.25,-1.0,1.0,-152.0,0.0,0.0,-999.75,2.25,2.5,3.5,RTL,12528.0
15:12:04,0.00038178796239662915,-0.001955687825102359,-2.802803158760071,0.001254372764378786,0.00044310942757874727,0.0008956310339272022,-35.3638698,149.16496245000002,427335.0,-1.0,1.0,-152.0,0.0,0.0,-1000.0,4.0,3.5,4.5,RTL,12528.0
15:12:06,0.001208175322972238,-0.002644181833602488,-2.802795171737671,-0.0006717632059007883,-0.0008932851487770677,-0.0002821661764755845,-35.3638698,149.1649624,430442.0,-1.0,1.0,-152.0,0.0,0.0,-1000.0,2.5,2.0,3.0,RTL,36294.5
15:12:08,0.0011137910769321024,-0.002565875183790922,-2.802793264389038,-0.0002560195280238986,-0.0004966940032318234,0.00031985039822757244,-35.3638698,149.1649624,433548.5,-2.0,0.0,-152.0,0.0,0.0,-1000.0,3.0,3.0,4.0,RTL,60061.0
15:12:09,0.0010285046155331656,-0.0024649210972711444,-2.8028374910354614,0.00044463889207690954,0.0004031934658996761,0.0006314280617516488,-35.3638698,149.1649624,435103.0,-2.0,0.25,-152.0,0.0,0.0,-1000.25,4.0,3.25,4.0,RTL,184413.0
15:12:10,0.0011045453138649464,-0.0022282637655735016,-2.8029558658599854,-0.000857885112054646,2.1202722564339638e-05,-0.0010550853330641985,-35.3638698,149.1649624,436661.0,-2.0,0.5,-152.0,0.0,0.0,-1000.0,2.5,3.0,2.5,RTL,184413.0
15:12:12,0.0010990804876200855,-0.0022873850539326668,-2.8029667139053345,0.0021214026492089033,0.0005820674123242497,0.00044614984653890133,-35.3638698,149.1649624,439764.0,-1.0,1.0,-152.0,0.0,0.0,-1000.0,5.5,3.5,3.5,RTL,213028.5
15:12:14,0.0005743041256209835,-0.0021958949510008097,-2.8032033443450928,0.001286631915718317,0.00038892030715942383,-0.0010223365388810635,-35.3638698,149.1649624,442871.0,-1.0,1.0,-152.0,0.0,0.0,-999.5,4.0,3.5,2.5,RTL,241644.0
15:12:15,0.0003517698442010442,-0.0020241201855242252,-2.8031463027000427,3.86146130040288e-05,-0.0006221253424882889,0.0006717594806104898,-35.3638698,149.1649624,444430.5,-1.0,1.0,-152.0,0.0,0.0,-999.75,3.25,2.25,3.75,RTL,195178.0
15:12:16,0.0007930847350507975,-0.002354490337893367,-2.8029526472091675,-0.0012984930071979761,-0.0013253752840682864,-9.378127288073301e-05,-35.3638698,149.1649624,445986.0,-1.0,1.0,-152.0,0.0,0.0,-999.5,2.0,1.5,3.0,RTL,195178.0
15:12:18,0.001413990103174001,-0.0025014174170792103,-2.8032342195510864,-0.001474111690185964,-0.000518607092089951,-0.000725350808352232,-35.3638698,149.16496245000002,449095.0,-1.0,1.0,-152.0,0.0,0.0,-999.5,1.5,2.0,2.5,RTL,234965.5
15:12:20,0.0008752601279411465,-0.002178475959226489,-2.8029978275299072,-0.001027268823236227,0.0008465333376079798,0.0017371197463944554,-35.3638698,149.1649625,452199.5,-1.0,0.5,-152.0,0.0,0.0,-999.5,2.5,3.5,5.0,RTL,274753.0
15:12:21,0.0008953450742410496,-0.002511664410121739,-2.8025389313697815,0.0018758373917080462,-0.0009659018542151898,-0.00030344846891239285,-35.3638698,149.1649625,453753.0,-1.0,1.0,-152.0,0.0,0.0,-1000.25,4.75,1.75,3.0,RTL,142824.0
15:12:22,0.0010552663588896394,-0.0028200928354635835,-2.8025829792022705,-0.0003317486261948943,0.0002390037989243865,-0.0007345541380345821,-35.3638698,149.1649625,455306.0,-2.0,1.0,-152.0,0.0,0.0,-1000.0,3.0,3.5,2.5,RTL,142824.0
15:12:24,0.0006348878960125148,-0.0022497271420434117,-2.8025593757629395,-0.0013380848104134202,0.001329213846474886,-0.00010034418664872646,-35.3638698,149.1649625,458415.0,-2.0,1.0,-152.0,0.0,0.0,-999.5,2.0,4.0,3.0,RTL,87774.5
15:12:26,0.0009234065655618906,-0.002062013139948249,-2.802837610244751,0.0007129870355129242,0.0010376315331086516,0.0005209440132603049,-35.3638698,149.1649624,461521.0,-1.5,1.0,-152.0,0.0,0.0,-999.5,3.5,3.5,3.5,RTL,32725.0
15:12:27,0.0012084891932317987,-0.0024706594995222986,-2.8030229210853577,0.0009223416564054787,0.0006436430849134922,-0.0003329747123643756,-35.3638698,149.1649624,463072.5,-1.0,1.0,-152.0,0.0,0.0,-1000.0,3.75,3.25,2.75,RTL,156071.0
15:12:28,0.0014816226321272552,-0.0025200158124789596,-2.803045868873596,0.000998465227894485,-0.00010021822527050972,0.001512620016001165,-35.3638698,149.1649624,464628.0,-1.0,0.5,-152.0,0.0,0.0,-1000.5,4.0,2.5,4.5,RTL,156071.0
15:12:30,0.000939509947784245,-0.0022939572809264064,-2.803095579147339,-0.0008703827043063939,2.7174828574061394e-06,-0.0010513414163142443,-35.3638698,149.1649624,467740.0,-1.0,0.5,-152.0,0.0,0.0,-999.5,2.0,2.5,2.0,RTL,191310.5
15:12:32,0.0010308813652954996,-0.00229072873480618,-2.8031359910964966,-0.002098933677189052,-0.0005569547647610307,-0.0007604156853631139,-35.3638698,149.1649624,470846.0,-1.0,1.0,-152.0,0.0,0.0,-1000.0,1.0,2.5,2.0,RTL,226550.0
15:12:33,0.00039823262704885565,-0.0021659191697835922,-2.8030951619148254,-0.002798415836878121,-2.1972693502902985e-05,-0.0013232704950496554,-35.3638698,149.1649624,472395.25,-1.5,1.0,-152.0,0.0,0.0,-999.75,0.5,2.5,1.75,RTL,170959.0
15:12:34,0.00046767163439653814,-0.002128864696715027,-2.803323984146118,0.003140232991427183,-6.533408304676414e-05,-0.0006849921774119139,-35.3638698,149.1649624,473952.0,-1.0,1.0,-152.0,0.0,0.0,-1000.0,6.5,2.5,2.5,RTL,170959.0
15:12:36,0.001019723858917132,-0.0028723919531330466,-2.803087830543518,0.001656480599194765,0.0009016793919727206,0.0014406879199668765,-35.3638698,149.1649624,477063.0,-2.0,1.0,-152.0,0.0,0.0,-999.5,4.5,3.0,4.5,RTL,163191.0
15:12:38,0.0011215589474886656,-0.002633282681927085,-2.8027366399765015,-0.0008537550456821918,0.0020887457067146897,0.0003518601879477501,-35.3638698,149.1649625,480172.0,-2.0,0.5,-152.0,0.0,0.0,-999.5,2.0,5.0,3.5,RTL,155423.0
15:12:39,0.0010458540928084403,-0.0024221809580922127,-2.8027058243751526,0.0008119095000438392,0.0005921479896642268,0.0007057094480842352,-35.3638698,149.1649625,481724.0,-2.0,0.25,-152.0,0.0,0.0,-1000.0,3.75,3.0,4.0,RTL,86423.0
15:12:40,0.0011921325931325555,-0.0019974763854406774,-2.8027143478393555,0.0022651863982900977,0.00040375743992626667,-0.0007464629597961903,-35.3638698,149.1649625,483278.0,-1.5,0.5,-152.0,0.0,0.0,-1000.0,5.0,3.0,2.5,RTL,86423.0
15:12:42,0.001070618163794279,-0.0023525829892605543,-2.803017020225525,0.0028400325682014227,0.00022420019377022982,0.0012795329093933105,-35.3638698,149.1649625,486383.5,-1.0,1.0,-152.0,0.0,0.0,-1000.0,5.5,3.0,4.0,RTL,74023.0
15:12:44,0.00020293390844017267,-0.0021599612664431334,-2.8028934001922607,0.0018047875491902232,0.000919075682759285,0.0009705442935228348,-35.3638698,149.16496245000002,489490.0,-1.0,1.0,-152.0,0.0,0.0,-999.5,5.0,3.5,3.5,RTL,61623.0
15:12:45,0.0006667281631962396,-0.002236069121863693,-2.8030763268470764,0.00011604331666603684,-7.386610377579927e-05,-0.001487073372118175,-35.3638698,149.1649624,491046.25,-1.0,1.0,-152.0,0.0,0.0,-999.75,2.75,2.25,1.0,RTL,288220.0
15:12:46,0.0008074701472651213,-0.002322004293091595,-2.8030011653900146,0.0015160053735598922,-6.3746701925992966e-06,-0.0007831084076315165,-35.3638698,149.1649624,492597.0,-1.0,1.0,-152.0,0.0,0.0,-1000.0,4.0,2.5,2.0,RTL,288220.0
15:12:48,0.0014596378314308822,-0.0024935647379606962,-2.803124189376831,-0.0020860867807641625,0.0002007561270147562,-0.001569178537465632,-35.3638698,149.1649624,495706.0,-2.0,0.5,-152.0,0.0,0.0,-999.5,0.5,2.5,1.5,RTL,205531.5
15:12:50,0.0008556802931707352,-0.0027531571686267853,-2.803227663040161,-0.000895176432095468,-0.001126557239331305,-0.0010542740346863866,-35.3638698,149.1649624,498815.0,-2.0,1.0,-152.0,0.0,0.0,-1000.0,2.0,1.5,1.5,RTL,122843.0
15:12:51,0.0010886132076848298,-0.002569420961663127,-2.8032419085502625,0.00032040791120380163,0.00028056412702426314,-0.000872171891387552,-35.3638698,149.1649624,500369.0,-2.0,1.0,-152.0,0.0,0.0,-999.75,3.0,2.75,1.75,RTL,71021.0
15:12:52,0.000963257800322026,-0.0024209084222093225,-2.8033496141433716,-0.0002475131768733263,-5.496526136994362e-05,-0.0006211170693859458,-35.3638698,149.1649624,501922.0,-2.0,1.0,-152.0,0.0,0.0,-1000.0,2.0,2.0,2.5,RTL,71021.0
15:12:54,0.0005596432893071324,-0.0018593805725686252,-2.8026031255722046,0.0015855582896620035,0.0004996665520593524,-0.0007681536371819675,-35.3638698,149.1649624,505028.5,-1.5,1.0,-152.0,0.0,0.0,-1000.0,4.5,3.0,2.0,RTL,140588.5
15:12:56,0.0006453796231653541,-0.0024039557902142406,-2.8028448820114136,0.00037072983104735613,0.00011205999180674553,0.00013430370017886162,-35.3638698,149.1649624,508139.5,-1.0,1.0,-152.0,0.0,0.0,-999.5,3.0,2.5,3.0,RTL,210156.0
15:12:57,0.0013032181595917791,-0.002440785290673375,-2.8029619455337524,0.0011663081822916865,0.00043447973439469934,7.632828783243895e-05,-35.3638698,149.1649624,509692.5,-1.0,1.0,-152.0,0.0,0.0,-999.75,3.75,2.75,2.75,RTL,226041.0
15:12:58,0.0013514593592844903,-0.0026370981940999627,-2.802812695503235,-0.0035203028237447143,9.149510879069567e-05,-0.001971862278878689,-35.3638698,149.1649624,511246.5,-1.5,0.5,-152.0,0.0,0.0,-999.5,-0.5,2.5,1.0,RTL,226041.0
15:13:00,0.000908956426428631,-0.002334030228666961,-2.802880883216858,-0.0011205144110135734,0.0006121698534116149,0.0006018736166879535,-35.3638698,149.1649624,514355.0,-1.0,0.5,-152.0,0.0,0.0,-999.0,1.0,3.0,3.5,RTL,200375.5
15:13:02,0.0009317096555605531,-0.0022833250695839524,-2.8029712438583374,0.001079155714251101,-0.0003922813921235502,-0.0010892916470766068,-35.3638698,149.1649624,517462.0,-1.0,1.0,-152.0,0.0,0.0,-1000.0,3.5,2.0,2.0,RTL,174710.0
15:13:03,0.0004731059270852711,-0.002546753326896578,-2.8029685616493225,-0.00022828858345746994,-0.0007034427544567734,-0.0011169119970872998,-35.3638698,149.1649624,519014.25,-1.5,1.0,-152.0,0.0,0.0,-1000.25,2.25,1.5,1.25,RTL,29407.0
15:13:04,0.00034454112756066024,-0.0023821427021175623,-2.803048849105835,-8.317444007843733e-05,0.00031347188632935286,-0.0021229622652754188,-35.3638698,149.1649624,520567.0,-2.0,1.0,-152.0,0.0,0.0,-1000.0,2.5,2.0,1.0,RTL,29407.0
15:13:06,0.0009243980457540601,-0.002609544899314642,-2.8033969402313232,0.0017833083402365446,-0.0005675733555108309,-0.0012540731695480645,-35.3638698,149.1649624,523674.0,-2.0,1.0,-152.0,0.0,0.0,-1000.5,4.0,1.5,1.5,RTL,87454.5
15:13:08,0.0014638329739682376,-0.0021350985625758767,-2.803252935409546,0.0013964299578219652,0.0004899464547634125,0.0013250659685581923,-35.3638698,149.16496245000002,526785.5,-1.5,0.5,-152.0,0.0,0.0,-999.5,4.0,2.5,4.0,RTL,145502.0
15:13:09,0.0009001198486657813,-0.0020297699666116387,-2.802698791027069,-0.0012347720912657678,7.940700743347406e-05,0.0004738454008474946,-35.3638698,149.1649624,528338.25,-1.0,0.5,-152.0,0.0,0.0,-999.75,1.0,2.5,3.25,RTL,255001.0
15:13:10,0.0009747951407916844,-0.002451141132041812,-2.802409291267395,-0.001463417080231011,-0.0002555171959102154,-0.00011497992090880871,-35.3638698,149.1649624,529891.0,-1.0,1.0,-152.0,0.0,0.0,-999.5,1.0,2.0,2.5,RTL,255001.0
15:13:12,0.0008711879490874708,-0.0023264146875590086,-2.802856206893921,0.002239704830572009,-0.0003787147579714656,-0.0001718087587505579,-35.3638698,149.1649624,533001.5,-1.0,1.0,-152.0,0.0,0.0,-1000.0,4.5,1.5,2.5,RTL,222233.0
15:13:14,0.000223820567043731,-0.0021197617752477527,-2.8028279542922974,-0.000711267814040184,-0.000506881857290864,0.0005027197767049074,-35.3638698,149.1649624,536111.0,-1.5,1.0,-152.0,0.0,0.0,-999.0,1.5,1.0,3.0,RTL,189465.0
15:13:15,0.0005398233188316226,-0.0023207206977531314,-2.802883803844452,-0.00044711100053973496,9.707457502372563e-05,-0.000948481319937855,-35.3638698,149.1649624,537663.5,-1.25,1.0,-152.0,0.0,0.0,-999.75,1.75,2.25,1.5,RTL,73703.0
15:13:16,0.0006367856694851071,-0.0026309541426599026,-2.8030009269714355,1.650757621973753e-05,-0.0010731099173426628,-0.001638619927689433,-35.3638698,149.1649624,539216.5,-1.5,1.0,-152.0,0.0,0.0,-1000.0,2.0,0.5,1.0,RTL,73703.0
15:13:18,0.0014903191477060318,-0.0026438727509230375,-2.8029547929763794,-0.0015735627966932952,-0.00034474104177206755,-0.0022973475279286504,-35.3638698,149.1649624,542325.0,-2.0,1.0,-152.0,0.0,0.0,-1000.0,0.5,1.5,0.5,RTL,183356.0
15:13:20,0.0010325983166694641,-0.0023401917424052954,-2.803174138069153,-0.0007773673278279603,-0.00010567111894488335,-0.00013325747568160295,-35.3638698,149.1649624,545432.5,-2.0,1.0,-152.0,0.0,0.0,-1000.0,1.5,2.0,2.5,RTL,293009.0
15:13:21,0.0011911315086763352,-0.002097153424983844,-2.803255021572113,-0.0007849265821278095,0.0006286914576776326,-0.0013209277531132102,-35.3638698,149.1649624,546986.0,-2.0,1.0,-152.0,0.0,0.0,-999.75,1.75,2.5,0.75,RTL,126359.0
