time_stamp,MODE,lat,lon,relative_alt,roll,pitch,yaw,rollspeed,pitchspeed,yawspeed,xacc,yacc,zacc,xgyro,ygyro,zgyro,vx,vy,vz,RTL_ALT
15:40:34.247,STABILIZE,-35.3632621,149.1652374,0,-0.0003029688086826354,0.0015974048292264342,0.02874751389026642,0.0002582208253443241,0.0002786001714412123,0.002327843802049756,0,1,-1000,0,0,0,-1,0,-1,1500.0
15:40:34.448,STABILIZE,-35.3632621,149.1652374,0,-0.0003029688086826354,0.0015974048292264342,0.02874751389026642,0.0002582208253443241,0.0002786001714412123,0.002327843802049756,0,1,-1000,0,0,0,-1,0,-1,1500.0
15:40:34.648,STABILIZE,-35.3632621,149.1652374,0,-0.0003029688086826354,0.0015974048292264342,0.02874751389026642,0.0002582208253443241,0.0002786001714412123,0.002327843802049756,0,1,-1000,0,0,0,-1,0,-1,1500.0
15:40:34.849,STABILIZE,-35.3632621,149.1652374,0,-0.0003029688086826354,0.0015974048292264342,0.02874751389026642,0.0002582208253443241,0.0002786001714412123,0.002327843802049756,0,1,-1000,0,0,0,-1,0,-1,1500.0
15:40:35.050,STABILIZE,-35.3632621,149.1652374,0,-0.0003029688086826354,0.0015974048292264342,0.02874751389026642,0.0002582208253443241,0.0002786001714412123,0.002327843802049756,0,1,-1000,0,0,0,-1,0,-1,1500.0
15:40:35.250,STABILIZE,-35.3632621,149.1652374,0,-0.0003029688086826354,0.0015974048292264342,0.02874751389026642,0.0002582208253443241,0.0002786001714412123,0.002327843802049756,0,1,-1000,0,0,0,-1,0,-1,1500.0
15:40:35.451,STABILIZE,-35.3632621,149.1652374,0,-0.0003029688086826354,0.0015974048292264342,0.02874751389026642,0.0002582208253443241,0.0002786001714412123,0.002327843802049756,0,1,-1000,0,0,0,-1,0,-1,1500.0
15:40:35.651,STABILIZE,-35.3632621,149.1652374,0,-0.0003029688086826354,0.0015974048292264342,0.02874751389026642,0.0002582208253443241,0.0002786001714412123,0.002327843802049756,0,1,-1000,0,0,0,-1,0,-1,1500.0
15:40:35.852,STABILIZE,-35.3632622,149.1652374,0,-0.0002608922077342868,0.0014813465531915426,0.02783043496310711,0.00012243070523254573,0.00019335912656970322,0.0023292650002986193,0,1,-1000,0,0,0,-2,0,-2,1500.0
15:40:36.053,STABILIZE,-35.3632622,149.1652374,2,-0.0002637258148752153,0.0014265369391068816,0.027670206502079964,0.000335470715072006,0.0004118202778045088,0.0023355234880000353,0,1,-1000,0,0,0,-2,0,-2,1500.0
15:40:36.255,STABILIZE,-35.3632622,149.1652374,2,-0.0002637258148752153,0.0014265369391068816,0.027670206502079964,0.000335470715072006,0.0004118202778045088,0.0023355234880000353,0,1,-1000,0,0,0,-2,0,-2,1500.0
15:40:36.456,STABILIZE,-35.3632622,149.1652374,2,-0.0002637258148752153,0.0014265369391068816,0.027670206502079964,0.000335470715072006,0.0004118202778045088,0.0023355234880000353,0,1,-1000,0,0,0,-2,0,-2,1500.0
15:40:36.658,STABILIZE,-35.3632622,149.1652374,2,-0.0002637258148752153,0.0014265369391068816,0.027670206502079964,0.000335470715072006,0.0004118202778045088,0.0023355234880000353,0,1,-1000,0,0,0,-2,0,-2,1500.0
15:40:36.859,STABILIZE,-35.3632622,149.1652374,2,-0.0002637258148752153,0.0014265369391068816,0.027670206502079964,0.000335470715072006,0.0004118202778045088,0.0023355234880000353,0,1,-1000,0,0,0,-2,0,-2,1500.0
15:40:37.061,STABILIZE,-35.3632622,149.1652374,2,-0.0002637258148752153,0.0014265369391068816,0.027670206502079964,0.000335470715072006,0.0004118202778045088,0.0023355234880000353,0,1,-1000,0,0,0,-2,0,-2,1500.0
15:40:37.262,STABILIZE,-35.3632622,149.1652374,6,-0.00033817472285591066,0.001168438931927085,0.026937061920762062,0.0002117364783771336,0.00022774180979467928,0.0021321773529052734,0,1,-1000,0,0,0,-1,1,-1,1500.0
15:40:37.464,STABILIZE,-35.3632622,149.1652374,6,-0.00033817472285591066,0.001168438931927085,0.026937061920762062,0.0002117364783771336,0.00022774180979467928,0.0021321773529052734,0,1,-1000,0,0,0,-1,1,-1,1500.0
15:40:37.665,STABILIZE,-35.3632622,149.1652374,6,-0.00033817472285591066,0.001168438931927085,0.026937061920762062,0.0002117364783771336,0.00022774180979467928,0.0021321773529052734,0,1,-1000,0,0,0,-1,1,-1,1500.0
15:40:37.866,STABILIZE,-35.3632622,149.1652374,6,-0.00033817472285591066,0.001168438931927085,0.026937061920762062,0.0002117364783771336,0.00022774180979467928,0.0021321773529052734,0,1,-1000,0,1,0,-1,1,-1,1500.0
15:40:38.068,STABILIZE,-35.3632622,149.1652374,8,-0.00033817472285591066,0.001168438931927085,0.026937061920762062,0.0002117364783771336,0.00022774180979467928,0.0021321773529052734,0,1,-1000,0,0,0,-1,1,-1,1500.0
15:40:38.269,STABILIZE,-35.3632622,149.1652374,8,-0.00033817472285591066,0.001168438931927085,0.026937061920762062,0.0002117364783771336,0.00022774180979467928,0.0021321773529052734,0,1,-1000,0,0,0,-1,1,-1,1500.0
15:40:38.471,STABILIZE,-35.3632622,149.1652374,8,-0.00033817472285591066,0.001168438931927085,0.026937061920762062,0.0002117364783771336,0.00022774180979467928,0.0021321773529052734,0,1,-1000,0,0,0,-1,1,-1,1500.0
15:40:38.672,STABILIZE,-35.3632622,149.1652374,8,-0.00033817472285591066,0.001168438931927085,0.026937061920762062,0.0002117364783771336,0.00022774180979467928,0.0021321773529052734,0,1,-1000,0,0,0,-1,1,-1,1500.0
15:40:38.874,STABILIZE,-35.3632622,149.1652374,8,-0.00033817472285591066,0.001168438931927085,0.026937061920762062,0.0002117364783771336,0.00022774180979467928,0.0021321773529052734,0,1,-1000,0,0,0,-1,1,-1,1500.0
15:40:39.075,STABILIZE,-35.3632621,149.1652374,8,-0.00040375173557549715,0.0009823915315791965,0.026003217324614525,0.00017934973584488034,0.00027310597943142056,0.0019343297462910414,0,1,-1000,0,0,1,-1,1,-1,1500.0
15:40:39.277,STABILIZE,-35.3632621,149.1652374,9,-0.0004290565266273916,0.0009687960264272988,0.025881249457597733,0.000196602544747293,0.00019218455418013036,0.0019450841937214136,0,1,-1000,0,0,0,-1,1,-1,1500.0
15:40:39.478,STABILIZE,-35.3632621,149.1652374,9,-0.0004290565266273916,0.0009687960264272988,0.025881249457597733,0.000196602544747293,0.00019218455418013036,0.0019450841937214136,0,1,-1000,0,0,0,-1,1,-1,1500.0
15:40:39.680,STABILIZE,-35.3632621,149.1652374,9,-0.0004290565266273916,0.0009687960264272988,0.025881249457597733,0.000196602544747293,0.00019218455418013036,0.0019450841937214136,0,1,-1000,0,0,0,-1,1,-1,1500.0
15:40:39.881,STABILIZE,-35.3632621,149.1652374,10,-0.00046043648035265505,0.0009641687502153218,0.02563869208097458,0.00017887644935399294,0.00033410152536816895,0.0020296203438192606,0,1,-1000,0,0,0,-1,1,-1,1500.0
15:40:40.082,STABILIZE,-35.3632621,149.1652374,10,-0.00046043648035265505,0.0009641687502153218,0.02563869208097458,0.00017887644935399294,0.00033410152536816895,0.0020296203438192606,0,1,-1000,0,0,0,-1,1,-1,1500.0
15:40:40.284,STABILIZE,-35.3632621,149.1652374,10,-0.00046043648035265505,0.0009641687502153218,0.02563869208097458,0.00017887644935399294,0.00033410152536816895,0.0020296203438192606,0,1,-1000,0,0,0,-1,1,-1,1500.0
15:40:40.485,STABILIZE,-35.3632621,149.1652374,10,-0.00046043648035265505,0.0009641687502153218,0.02563869208097458,0.00017887644935399294,0.00033410152536816895,0.0020296203438192606,0,1,-1000,0,0,0,-1,1,-1,1500.0
15:40:40.687,STABILIZE,-35.3632621,149.1652374,10,-0.00046043648035265505,0.0009641687502153218,0.02563869208097458,0.00017887644935399294,0.00033410152536816895,0.0020296203438192606,0,1,-1000,0,0,0,-1,1,-1,1500.0
15:40:40.888,STABILIZE,-35.3632621,149.1652374,10,-0.00046043648035265505,0.0009641687502153218,0.02563869208097458,0.00017887644935399294,0.00033410152536816895,0.0020296203438192606,0,1,-1000,0,0,0,-1,1,-1,1500.0
15:40:41.090,STABILIZE,-35.3632621,149.1652375,8,-0.0005378794739954174,0.0009502837201580405,0.025072632357478142,0.00025520107010379434,0.0001901304058264941,0.0018484573811292648,0,1,-1000,0,0,0,-1,1,0,1500.0
15:40:41.291,STABILIZE,-35.3632621,149.1652375,8,-0.0005378794739954174,0.0009502837201580405,0.025072632357478142,0.00025520107010379434,0.0001901304058264941,0.0018484573811292648,0,1,-1000,0,0,0,-1,1,0,1500.0
15:40:41.493,STABILIZE,-35.3632621,149.1652375,8,-0.0005378794739954174,0.0009502837201580405,0.025072632357478142,0.00025520107010379434,0.0001901304058264941,0.0018484573811292648,0,1,-1000,0,0,0,-1,1,0,1500.0
15:40:41.695,STABILIZE,-35.3632621,149.1652375,7,-0.0005860753590241075,0.0009350132313556969,0.02485801838338375,0.00020478467922657728,0.00024440360721200705,0.001885556848719716,0,1,-1000,0,1,0,-1,1,0,1500.0
15:40:41.896,STABILIZE,-35.3632621,149.1652375,6,-0.000602966989390552,0.0009327870211564004,0.024749869480729103,0.00016615120694041252,0.0002845004200935364,0.0017832709709182382,0,1,-1000,1,0,0,-1,1,0,1500.0
15:40:42.098,STABILIZE,-35.3632621,149.1652375,6,-0.0006163245998322964,0.0009289177251048386,0.024635635316371918,0.00036271713906899095,0.00025914731668308377,0.00184514035936445,0,1,-1000,0,0,0,-1,1,0,1500.0
15:40:42.299,STABILIZE,-35.3632621,149.1652375,6,-0.0006163245998322964,0.0009289177251048386,0.024635635316371918,0.00036271713906899095,0.00025914731668308377,0.00184514035936445,0,1,-1000,0,0,0,-1,1,0,1500.0
15:40:42.501,STABILIZE,-35.3632621,149.1652375,6,-0.0006163245998322964,0.0009289177251048386,0.024635635316371918,0.00036271713906899095,0.00025914731668308377,0.00184514035936445,0,1,-1000,0,0,0,-1,1,0,1500.0
15:40:42.705,STABILIZE,-35.3632621,149.1652375,6,-0.0006163245998322964,0.0009289177251048386,0.024635635316371918,0.00036271713906899095,0.00025914731668308377,0.00184514035936445,0,1,-1000,0,0,0,-1,1,0,1500.0
15:40:42.909,STABILIZE,-35.3632621,149.1652375,6,-0.0006163245998322964,0.0009289177251048386,0.024635635316371918,0.00036271713906899095,0.00025914731668308377,0.00184514035936445,0,1,-1000,0,0,0,-1,1,0,1500.0
15:40:43.115,STABILIZE,-35.3632621,149.1652375,6,-0.0006163245998322964,0.0009289177251048386,0.024635635316371918,0.00036271713906899095,0.00025914731668308377,0.00184514035936445,0,1,-1000,0,0,0,-1,1,0,1500.0
15:40:43.318,STABILIZE,-35.3632621,149.1652375,6,-0.0006163245998322964,0.0009289177251048386,0.024635635316371918,0.00036271713906899095,0.00025914731668308377,0.00184514035936445,0,1,-1000,0,0,0,-1,1,0,1500.0
15:40:43.520,STABILIZE,-35.3632621,149.1652375,6,-0.0006163245998322964,0.0009289177251048386,0.024635635316371918,0.00036271713906899095,0.00025914731668308377,0.00184514035936445,0,1,-1000,0,0,0,-1,1,0,1500.0
15:40:43.721,STABILIZE,-35.3632621,149.1652375,6,-0.0006163245998322964,0.0009289177251048386,0.024635635316371918,0.00036271713906899095,0.00025914731668308377,0.00184514035936445,0,1,-1000,0,0,0,-1,1,0,1500.0
15:40:43.923,STABILIZE,-35.3632621,149.1652375,0,-0.00046539364848285913,0.0009443828603252769,0.023912716656923294,0.00023813621373847127,0.0003322195843793452,0.0017348704859614372,0,2,-1000,0,1,0,-1,1,0,1500.0
15:40:44.124,STABILIZE,-35.3632621,149.1652375,0,-0.0004984046099707484,0.0009529519593343139,0.023817121982574463,0.0003348605241626501,0.00033011147752404213,0.0017935089999809861,0,1,-1000,0,0,0,-1,1,0,1500.0
15:40:44.325,STABILIZE,-35.3632622,149.1652375,0,-0.0005325438687577844,0.0009559704922139645,0.02371707372367382,0.0003162296488881111,0.00032142765121534467,0.001556003582663834,0,1,-1000,0,0,0,-1,1,0,1500.0
15:40:44.527,STABILIZE,-35.3632622,149.1652375,0,-0.0005325438687577844,0.0009559704922139645,0.02371707372367382,0.0003162296488881111,0.00032142765121534467,0.001556003582663834,0,1,-1000,0,0,0,-1,1,0,1500.0
15:40:44.728,STABILIZE,-35.3632622,149.1652375,0,-0.0005325438687577844,0.0009559704922139645,0.02371707372367382,0.0003162296488881111,0.00032142765121534467,0.001556003582663834,0,1,-1000,0,0,0,-1,1,0,1500.0
15:40:44.929,STABILIZE,-35.3632622,149.1652375,0,-0.0005325438687577844,0.0009559704922139645,0.02371707372367382,0.0003162296488881111,0.00032142765121534467,0.001556003582663834,0,1,-1000,0,0,0,-1,1,0,1500.0
15:40:45.131,STABILIZE,-35.3632622,149.1652375,0,-0.0005325438687577844,0.0009559704922139645,0.02371707372367382,0.0003162296488881111,0.00032142765121534467,0.001556003582663834,0,1,-1000,0,0,0,-1,1,0,1500.0
15:40:45.332,STABILIZE,-35.3632622,149.1652375,0,-0.0006755393114872277,0.0009560697362758219,0.02333945780992508,0.0001456738100387156,0.00030970422085374594,0.0017297929152846336,0,1,-1000,0,0,0,-1,1,0,1500.0
15:40:45.533,STABILIZE,-35.3632622,149.1652375,0,-0.0006755393114872277,0.0009560697362758219,0.02333945780992508,0.0001456738100387156,0.00030970422085374594,0.0017297929152846336,0,1,-1000,0,1,1,-1,1,0,1500.0
15:40:45.734,STABILIZE,-35.3632622,149.1652375,0,-0.0006755393114872277,0.0009560697362758219,0.02333945780992508,0.0001456738100387156,0.00030970422085374594,0.0017297929152846336,0,1,-1000,0,1,1,-1,1,0,1500.0
15:40:45.935,STABILIZE,-35.3632622,149.1652375,0,-0.0006755393114872277,0.0009560697362758219,0.02333945780992508,0.0001456738100387156,0.00030970422085374594,0.0017297929152846336,0,1,-1000,0,1,1,-1,1,0,1500.0
15:40:46.136,STABILIZE,-35.3632622,149.1652375,0,-0.0006755393114872277,0.0009560697362758219,0.02333945780992508,0.0001456738100387156,0.00030970422085374594,0.0017297929152846336,0,1,-1000,0,1,1,-1,1,0,1500.0
15:40:46.338,STABILIZE,-35.3632622,149.1652376,0,-0.0005237262230366468,0.0009621407371014357,0.023003842681646347,0.0003162443754263222,0.00024108868092298508,0.0017282158369198442,0,1,-1000,1,0,1,-1,3,3,1500.0
15:40:46.539,STABILIZE,-35.3632622,149.1652376,0,-0.0005237262230366468,0.0009621407371014357,0.023003842681646347,0.0003162443754263222,0.00024108868092298508,0.0017282158369198442,0,1,-1000,1,0,1,-1,3,3,1500.0
15:40:46.740,STABILIZE,-35.3632622,149.1652376,0,-0.0005237262230366468,0.0009621407371014357,0.023003842681646347,0.0003162443754263222,0.00024108868092298508,0.0017282158369198442,0,1,-1000,1,0,1,-1,3,3,1500.0
15:40:46.941,STABILIZE,-35.3632622,149.1652376,0,-0.0005237262230366468,0.0009621407371014357,0.023003842681646347,0.0003162443754263222,0.00024108868092298508,0.0017282158369198442,0,1,-1000,1,0,1,-1,3,3,1500.0
15:40:47.142,STABILIZE,-35.3632622,149.1652376,0,-0.0007911488646641374,0.0009554498246870935,0.022749390453100204,0.0002269987016916275,0.0002080635167658329,0.001658740220591426,0,1,-1000,0,0,0,-1,2,2,1500.0
15:40:47.343,STABILIZE,-35.3632622,149.1652376,0,-0.0008707891101948917,0.000961357494816184,0.022681783884763718,0.00020970363402739167,0.00028599920915439725,0.0016526291146874428,0,1,-1000,0,0,0,-1,2,2,1500.0
15:40:47.545,STABILIZE,-35.3632622,149.1652376,0,-0.0009509887895546854,0.0009601007914170623,0.022626325488090515,0.00016096478793770075,0.00019145209807902575,0.001596543937921524,0,1,-1000,0,0,0,-1,2,2,1500.0
15:40:47.747,STABILIZE,-35.3632622,149.1652376,0,-0.001011692569591105,0.0009654394816607237,0.022537916898727417,0.0003031590604223311,0.0003761743428185582,0.0016464964719489217,0,1,-1000,0,0,0,-1,2,2,1500.0
15:40:47.949,STABILIZE,-35.3632622,149.1652376,0,-0.001011692569591105,0.0009654394816607237,0.022537916898727417,0.0003031590604223311,0.0003761743428185582,0.0016464964719489217,0,1,-1000,0,0,0,-1,2,2,1500.0
15:40:48.151,STABILIZE,-35.3632622,149.1652376,0,-0.001011692569591105,0.0009654394816607237,0.022537916898727417,0.0003031590604223311,0.0003761743428185582,0.0016464964719489217,0,1,-1000,0,0,0,-1,2,2,1500.0
15:40:48.352,STABILIZE,-35.3632622,149.1652376,0,-0.001011692569591105,0.0009654394816607237,0.022537916898727417,0.0003031590604223311,0.0003761743428185582,0.0016464964719489217,0,1,-1000,0,0,0,-1,2,2,1500.0
15:40:48.554,STABILIZE,-35.3632622,149.1652376,0,-0.001011692569591105,0.0009654394816607237,0.022537916898727417,0.0003031590604223311,0.0003761743428185582,0.0016464964719489217,0,1,-1000,0,0,0,-1,2,2,1500.0
15:40:48.755,STABILIZE,-35.3632622,149.1652376,0,-0.001011692569591105,0.0009654394816607237,0.022537916898727417,0.0003031590604223311,0.0003761743428185582,0.0016464964719489217,0,1,-1000,0,0,0,-1,2,2,1500.0
15:40:48.956,STABILIZE,-35.3632622,149.1652376,0,-0.001011692569591105,0.0009654394816607237,0.022537916898727417,0.0003031590604223311,0.0003761743428185582,0.0016464964719489217,0,1,-1000,0,0,0,-1,2,2,1500.0
15:40:49.158,STABILIZE,-35.3632622,149.1652376,0,-0.001011692569591105,0.0009654394816607237,0.022537916898727417,0.0003031590604223311,0.0003761743428185582,0.0016464964719489217,0,1,-1000,0,0,0,-1,2,2,1500.0
15:40:49.359,STABILIZE,-35.3632622,149.1652375,0,-0.0012675980105996132,0.0009812513599172235,0.022223060950636864,0.00016766501357778907,0.0002738010953180492,0.0014950663316994905,0,1,-1000,0,1,0,-1,1,1,1500.0
15:40:49.560,STABILIZE,-35.3632622,149.1652375,0,-0.0012675980105996132,0.0009812513599172235,0.022223060950636864,0.00016766501357778907,0.0002738010953180492,0.0014950663316994905,0,1,-1000,0,1,0,-1,1,1,1500.0
15:40:49.761,STABILIZE,-35.3632622,149.1652375,0,-0.0012675980105996132,0.0009812513599172235,0.022223060950636864,0.00016766501357778907,0.0002738010953180492,0.0014950663316994905,0,1,-1000,0,1,0,-1,1,1,1500.0
15:40:49.962,STABILIZE,-35.3632622,149.1652375,0,-0.0012675980105996132,0.0009812513599172235,0.022223060950636864,0.00016766501357778907,0.0002738010953180492,0.0014950663316994905,0,1,-1000,0,1,0,-1,1,1,1500.0
15:40:50.163,STABILIZE,-35.3632622,149.1652375,0,-0.0012675980105996132,0.0009812513599172235,0.022223060950636864,0.00016766501357778907,0.0002738010953180492,0.0014950663316994905,0,1,-1000,0,1,0,-1,1,1,1500.0
15:40:50.364,STABILIZE,-35.3632622,149.1652374,0,-0.0010647393064573407,0.0009870125213637948,0.022054916247725487,0.0003184623783454299,0.0002774117165245116,0.0016102686058729887,0,1,-1000,0,0,0,-1,-1,-2,1500.0
15:40:50.566,AUTO,-35.3632622,149.1652374,0,-0.0010647393064573407,0.0009870125213637948,0.022054916247725487,0.0003184623783454299,0.0002774117165245116,0.0016102686058729887,0,1,-1000,0,0,0,-1,-1,-2,1500.0
15:40:50.767,AUTO,-35.3632622,149.1652374,0,-0.0010647393064573407,0.0009870125213637948,0.022054916247725487,0.0003184623783454299,0.0002774117165245116,0.0016102686058729887,0,1,-1000,0,0,0,-1,-1,-2,1500.0
15:40:50.968,AUTO,-35.3632622,149.1652374,0,-0.0010647393064573407,0.0009870125213637948,0.022054916247725487,0.0003184623783454299,0.0002774117165245116,0.0016102686058729887,0,1,-1000,0,0,0,-1,-1,-2,1500.0
15:40:51.170,AUTO,-35.3632622,149.1652374,7,-0.0008521388517692685,0.001004928955808282,0.02194216474890709,0.0003113680286332965,0.0002632982796058059,0.0014626776101067662,0,1,-1000,1,1,1,-1,0,-2,200.0
15:40:51.371,AUTO,-35.3632622,149.1652375,8,-0.0007959991926327348,0.0010093868477270007,0.02188492938876152,0.00036251056008040905,0.00020920141832903028,0.0014458884252235293,0,1,-1000,1,1,0,-1,0,-2,200.0
15:40:51.573,AUTO,-35.3632621,149.1652375,9,-0.0007476895116269588,0.0010324824834242463,0.021831003949046135,0.0001416944433003664,0.00031403632601723075,0.001401708461344242,0,1,-1000,0,0,0,0,0,-1,200.0
15:40:51.774,AUTO,-35.3632621,149.1652375,10,-0.0006996478186920285,0.0010689619230106473,0.021762508898973465,0.00018271338194608688,0.0003134285216219723,0.0013989219442009926,0,1,-1000,0,0,0,0,0,-1,200.0
15:40:51.976,AUTO,-35.3632621,149.1652375,10,-0.0006996478186920285,0.0010689619230106473,0.021762508898973465,0.00018271338194608688,0.0003134285216219723,0.0013989219442009926,0,1,-1000,0,0,0,0,0,-1,200.0
15:40:52.177,AUTO,-35.3632621,149.1652375,10,-0.000650524627417326,0.0011204328620806336,0.021692894399166107,0.000289787829387933,0.00029922008980065584,0.0014241477474570274,0,1,-1000,0,1,1,0,0,-1,200.0
15:40:52.379,AUTO,-35.3632621,149.1652375,11,-0.0006101948674768209,0.001178911654278636,0.02163083665072918,0.00019499094923958182,0.0002709036925807595,0.001467839814722538,0,1,-1000,1,0,0,0,0,-1,200.0
15:40:52.581,AUTO,-35.3632621,149.1652375,11,-0.0006101948674768209,0.001178911654278636,0.02163083665072918,0.00019499094923958182,0.0002709036925807595,0.001467839814722538,0,1,-1000,1,0,0,0,0,-1,200.0
15:40:52.783,AUTO,-35.3632621,149.1652375,11,-0.0006101948674768209,0.001178911654278636,0.02163083665072918,0.00019499094923958182,0.0002709036925807595,0.001467839814722538,0,1,-1000,1,0,0,0,0,-1,200.0
15:40:52.984,AUTO,-35.3632621,149.1652375,11,-0.0006101948674768209,0.001178911654278636,0.02163083665072918,0.00019499094923958182,0.0002709036925807595,0.001467839814722538,0,1,-1000,1,0,0,0,0,-1,200.0
15:40:53.187,AUTO,-35.3632621,149.1652375,11,-0.0002852620091289282,0.001362648792564869,0.021424541249871254,0.00032132980413734913,0.0003183741355314851,0.0014186033513396978,0,1,-1000,0,0,1,0,0,-1,200.0
15:40:53.389,AUTO,-35.3632621,149.1652375,11,-0.00022570280998479575,0.0014320483896881342,0.021359002217650414,0.0003224944812245667,0.00025911396369338036,0.001532101770862937,0,1,-1000,0,0,1,0,0,-1,200.0
15:40:53.590,AUTO,-35.3632621,149.1652375,11,-0.00016528251580893993,0.0015045289183035493,0.02127237617969513,0.00031800696160644293,0.0003160626511089504,0.0014230848755687475,0,1,-1000,1,1,1,0,0,0,200.0
15:40:53.792,AUTO,-35.3632621,149.1652375,11,-0.00010471060522831976,0.001581727061420679,0.021189438179135323,0.00030030368361622095,0.0002268063835799694,0.0013806517235934734,0,1,-1000,0,0,1,0,0,0,200.0
15:40:53.993,AUTO,-35.3632621,149.1652375,11,-0.00010471060522831976,0.001581727061420679,0.021189438179135323,0.00030030368361622095,0.0002268063835799694,0.0013806517235934734,0,1,-1000,0,0,1,0,0,0,200.0
15:40:54.195,AUTO,-35.3632621,149.1652375,11,-4.01085962948855e-05,0.0016527696279808879,0.021115001291036606,0.0003094490966759622,0.00026702566538006067,0.0014397073537111282,0,1,-1000,0,1,0,0,0,0,200.0
15:40:54.397,AUTO,-35.3632621,149.1652375,11,3.34694268531166e-05,0.0017284367932006717,0.02103271149098873,0.00038020999636501074,0.00034236907958984375,0.0014293318381533027,0,1,-1000,1,0,1,0,0,0,200.0
15:40:54.599,AUTO,-35.3632621,149.1652375,11,3.34694268531166e-05,0.0017284367932006717,0.02103271149098873,0.00038020999636501074,0.00034236907958984375,0.0014293318381533027,0,1,-1000,1,0,1,0,0,0,200.0
15:40:54.800,AUTO,-35.3632621,149.1652375,11,3.34694268531166e-05,0.0017284367932006717,0.02103271149098873,0.00038020999636501074,0.00034236907958984375,0.0014293318381533027,0,1,-1000,1,0,1,0,0,0,200.0
15:40:55.006,AUTO,-35.3632621,149.1652375,11,3.34694268531166e-05,0.0017284367932006717,0.02103271149098873,0.00038020999636501074,0.00034236907958984375,0.0014293318381533027,0,1,-1000,1,0,1,0,0,0,200.0
15:40:55.212,AUTO,-35.3632621,149.1652375,209,0.0025035031139850616,0.00021466465841513127,0.02092723548412323,0.0009802901186048985,0.003981785383075476,0.0004025764064863324,0,0,-1130,1,4,0,0,1,-73,280358.0
15:40:55.413,AUTO,-35.3632621,149.1652375,426,0.0018817350501194596,0.0011770378332585096,0.02082723192870617,-0.0043237158097326756,0.0026507615111768246,0.0011270011309534311,0,0,-1108,-3,3,0,0,1,-101,280358.0
15:40:55.615,AUTO,-35.3632621,149.1652375,710,0.0018603286007419229,0.0016439389437437057,0.02077658288180828,0.008448203094303608,-0.00018417747924104333,0.0010465659433975816,0,0,-1087,8,0,0,0,1,-125,280358.0
15:40:55.817,AUTO,-35.3632621,149.1652375,1049,0.011777875944972038,0.0005530602065846324,0.02066086418926716,0.04793735593557358,-0.00598227558657527,0.0017998318653553724,0,0,-1039,48,-5,1,0,2,-139,280358.0
15:40:56.019,AUTO,-35.363262,149.1652375,1414,0.02366836555302143,-0.0011577378027141094,0.020737310871481895,0.04661517217755318,-0.007179427891969681,0.002460325602442026,0,0,-1016,47,-6,1,1,6,-145,280358.0
15:40:56.220,AUTO,-35.363262,149.1652375,1414,0.02366836555302143,-0.0011577378027141094,0.020737310871481895,0.04661517217755318,-0.007179427891969681,0.002460325602442026,0,0,-1016,47,-6,1,1,6,-145,280358.0
15:40:56.422,AUTO,-35.363262,149.1652377,1791,0.035063788294792175,-0.0030540244188159704,0.020939799025654793,0.04489293321967125,-0.007740916218608618,0.003046083729714155,0,-1,-1007,45,-7,2,1,12,-147,280358.0
15:40:56.623,AUTO,-35.363262,149.1652377,1791,0.035063788294792175,-0.0030540244188159704,0.020939799025654793,0.04489293321967125,-0.007740916218608618,0.003046083729714155,0,-1,-1007,45,-7,2,1,12,-147,280358.0
15:40:56.825,AUTO,-35.363262,149.1652377,1791,0.035063788294792175,-0.0030540244188159704,0.020939799025654793,0.04489293321967125,-0.007740916218608618,0.003046083729714155,0,-1,-1007,45,-7,2,1,12,-147,280358.0
15:40:57.027,AUTO,-35.3632616,149.1652398,2941,0.062192026525735855,-0.008612911216914654,-0.008862623944878578,-0.015302351675927639,0.02532835491001606,-0.05191211774945259,2,-7,-993,-14,25,-52,8,44,-147,280358.0
15:40:57.228,AUTO,-35.3632616,149.1652398,2941,0.062192026525735855,-0.008612911216914654,-0.008862623944878578,-0.015302351675927639,0.02532835491001606,-0.05191211774945259,2,-7,-993,-14,25,-52,8,44,-147,280358.0
15:40:57.429,AUTO,-35.3632613,149.1652411,3319,0.04025221988558769,0.014359114691615105,-0.03202774003148079,-0.14068742096424103,0.09583865851163864,-0.10379984229803085,4,-13,-991,-140,96,-104,9,53,-145,280358.0
15:40:57.631,AUTO,-35.3632611,149.1652425,3693,-0.0024973300751298666,0.024377895519137383,-0.051500942558050156,-0.13880904018878937,-0.00273467181250453,-0.06396497040987015,4,-11,-1008,-138,-1,-64,6,55,-144,280358.0
15:40:57.833,AUTO,-35.363261,149.1652439,4074,-0.02288771979510784,0.016486626118421555,-0.06105951964855194,-0.045299481600522995,-0.03783467039465904,-0.03654894977807999,5,-13,-1010,-44,-37,-37,3,47,-147,280358.0
15:40:58.035,AUTO,-35.3632609,149.1652451,4456,-0.031141769140958786,0.008378866128623486,-0.06753607094287872,-0.039393749088048935,-0.02207438088953495,-0.03215508535504341,4,-8,-1003,-38,-21,-32,1,38,-148,280358.0
15:40:58.237,AUTO,-35.3632609,149.1652451,4456,-0.031141769140958786,0.008378866128623486,-0.06753607094287872,-0.039393749088048935,-0.02207438088953495,-0.03215508535504341,4,-8,-1003,-38,-21,-32,1,38,-148,280358.0
15:40:58.439,AUTO,-35.3632608,149.165246,4840,-0.045954201370477676,0.0040084319189190865,-0.07458434253931046,-0.07520018517971039,-0.008008288219571114,-0.034590691328048706,4,-8,-1000,-74,-7,-34,1,26,-148,280358.0
15:40:58.641,AUTO,-35.3632608,149.165246,4840,-0.045954201370477676,0.0040084319189190865,-0.07458434253931046,-0.07520018517971039,-0.008008288219571114,-0.034590691328048706,4,-8,-1000,-74,-7,-34,1,26,-148,280358.0
15:40:58.844,AUTO,-35.3632608,149.165246,4840,-0.045954201370477676,0.0040084319189190865,-0.07458434253931046,-0.07520018517971039,-0.008008288219571114,-0.034590691328048706,4,-8,-1000,-74,-7,-34,1,26,-148,280358.0
15:40:59.046,AUTO,-35.3632608,149.165246,5983,-0.07152999937534332,-0.0006668434361927211,-0.09615969657897949,0.05086579546332359,-0.0035582941491156816,-0.01823987439274788,-2,3,-1002,51,-2,-18,-2,-28,-148,280358.0
15:40:59.248,AUTO,-35.3632608,149.165246,5983,-0.07152999937534332,-0.0006668434361927211,-0.09615969657897949,0.05086579546332359,-0.0035582941491156816,-0.01823987439274788,-2,3,-1002,51,-2,-18,-2,-28,-148,117956.0
15:40:59.450,AUTO,-35.3632609,149.1652451,6367,-0.0580001175403595,-0.0010547911515459418,-0.10023529827594757,0.0571356937289238,0.0019540099892765284,-0.012233133427798748,-3,6,-1000,57,2,-12,-4,-43,-148,117956.0
15:40:59.652,AUTO,-35.363261,149.1652438,6750,-0.0431097038090229,-2.8604179533431306e-05,-0.10307528078556061,0.06202838942408562,0.006868693511933088,-0.007598447613418102,-5,9,-1001,62,7,-7,-6,-53,-148,117956.0
15:40:59.854,AUTO,-35.3632611,149.1652422,7134,-0.02725060284137726,0.0021136614959686995,-0.10482802242040634,0.06540466099977493,0.010313061065971851,-0.004037441685795784,-6,11,-1002,65,10,-4,-8,-60,-149,117956.0
15:41:00.056,AUTO,-35.3632613,149.1652405,7518,-0.010744316503405571,0.0048616742715239525,-0.10568824410438538,0.06760653108358383,0.011558725498616695,-0.0012338839005678892,-6,12,-1003,68,12,-1,-10,-61,-149,117956.0
15:41:00.258,AUTO,-35.3632615,149.1652388,7905,0.0061075324192643166,0.007806080859154463,-0.10575869679450989,0.06787324696779251,0.011333240196108818,-0.0001532651949673891,-7,13,-1004,68,11,0,-12,-59,-150,117956.0
15:41:00.460,AUTO,-35.3632615,149.1652388,7905,0.0061075324192643166,0.007806080859154463,-0.10575869679450989,0.06787324696779251,0.011333240196108818,-0.0001532651949673891,-7,13,-1004,68,11,0,-12,-59,-150,117956.0
15:41:00.661,AUTO,-35.3632615,149.1652388,7905,0.0061075324192643166,0.007806080859154463,-0.10575869679450989,0.06787324696779251,0.011333240196108818,-0.0001532651949673891,-7,13,-1004,68,11,0,-12,-59,-150,117956.0
15:41:00.863,AUTO,-35.3632615,149.1652388,7905,0.0061075324192643166,0.007806080859154463,-0.10575869679450989,0.06787324696779251,0.011333240196108818,-0.0001532651949673891,-7,13,-1004,68,11,0,-12,-59,-150,117956.0
15:41:01.065,AUTO,-35.3632626,149.1652348,9080,0.05595521256327629,0.012652621604502201,-0.1032513901591301,0.06294162571430206,0.0001718835555948317,0.003163466928526759,-1,10,-1002,63,0,2,-19,-28,-152,117956.0
15:41:01.266,AUTO,-35.3632631,149.1652342,9473,0.07122021913528442,0.011686804704368114,-0.10220305621623993,0.05919794738292694,-0.006431656423956156,0.0047746580094099045,0,7,-1001,59,-5,4,-20,-11,-152,117956.0
15:41:01.468,AUTO,-35.3632631,149.1652342,9473,0.07122021913528442,0.011686804704368114,-0.10220305621623993,0.05919794738292694,-0.006431656423956156,0.0047746580094099045,0,7,-1001,59,-5,4,-20,-11,-152,117956.0
15:41:01.670,AUTO,-35.3632635,149.165234,9864,0.07413306832313538,-0.0005975459353066981,-0.09203924238681793,-0.032319050282239914,-0.08878189325332642,0.08147898316383362,3,3,-993,-31,-87,81,-19,6,-151,117956.0
15:41:01.871,AUTO,-35.3632639,149.1652344,10250,0.05879560485482216,-0.03387622907757759,-0.06558533012866974,-0.07307655364274979,-0.14579133689403534,0.14173096418380737,5,0,-996,-72,-145,141,-12,22,-149,117956.0
15:41:02.074,AUTO,-35.363264,149.1652349,10632,0.03120430000126362,-0.05711541697382927,-0.04493151232600212,-0.13017816841602325,-0.012147895060479641,0.03998439013957977,3,-5,-995,-129,-11,39,1,31,-147,117956.0
15:41:02.276,AUTO,-35.3632639,149.1652358,11016,0.00010441819904372096,-0.044947199523448944,-0.048269420862197876,-0.1048966571688652,0.07799073308706284,-0.04314025118947029,2,-7,-1003,-104,78,-43,15,31,-147,117956.0
15:41:02.478,AUTO,-35.3632639,149.1652358,11016,0.00010441819904372096,-0.044947199523448944,-0.048269420862197876,-0.1048966571688652,0.07799073308706284,-0.04314025118947029,2,-7,-1003,-104,78,-43,15,31,-147,117956.0
15:41:02.680,AUTO,-35.3632639,149.1652358,11016,0.00010441819904372096,-0.044947199523448944,-0.048269420862197876,-0.1048966571688652,0.07799073308706284,-0.04314025118947029,2,-7,-1003,-104,78,-43,15,31,-147,117956.0
15:41:02.882,AUTO,-35.3632639,149.1652358,11016,0.00010441819904372096,-0.044947199523448944,-0.048269420862197876,-0.1048966571688652,0.07799073308706284,-0.04314025118947029,2,-7,-1003,-104,78,-43,15,31,-147,117956.0
15:41:03.083,AUTO,-35.3632622,149.1652374,12160,-0.03141975402832031,0.0008445120183750987,-0.10590904206037521,0.0005354397580958903,0.03951207175850868,-0.07882245630025864,-4,-5,-1004,1,40,-79,27,6,-150,117956.0
15:41:03.285,AUTO,-35.3632616,149.1652375,12548,-0.02857816033065319,0.00869166012853384,-0.12473032623529434,0.020136745646595955,0.028566617518663406,-0.0671403557062149,-4,-4,-1003,20,28,-67,24,-2,-151,200.0
15:41:03.486,AUTO,-35.3632616,149.1652375,12548,-0.02857816033065319,0.00869166012853384,-0.12473032623529434,0.020136745646595955,0.028566617518663406,-0.0671403557062149,-4,-4,-1003,20,28,-67,24,-2,-151,200.0
15:41:03.688,AUTO,-35.3632611,149.1652373,12936,-0.021694881841540337,0.01401825062930584,-0.14017705619335175,0.03406117483973503,0.018946528434753418,-0.0545547679066658,-5,-2,-1002,34,19,-54,20,-9,-152,200.0
15:41:03.890,AUTO,-35.3632607,149.165237,13327,-0.012792549096047878,0.01794365793466568,-0.15227827429771423,0.037519920617341995,0.013384177349507809,-0.041806917637586594,-4,0,-1001,38,14,-42,14,-13,-152,200.0
15:41:04.092,AUTO,-35.3632604,149.1652366,13718,-0.003721836255863309,0.02072056382894516,-0.16128532588481903,0.03695240616798401,0.009368355385959148,-0.0326218344271183,-5,0,-1000,37,10,-33,9,-15,-152,200.0
15:41:04.294,AUTO,-35.3632602,149.1652362,14109,0.004376241005957127,0.021693557500839233,-0.1668974608182907,0.027211926877498627,0.001350443810224533,-0.017472751438617706,-3,1,-999,27,2,-17,3,-14,-152,200.0
15:41:04.496,AUTO,-35.3632602,149.1652362,14109,0.004376241005957127,0.021693557500839233,-0.1668974608182907,0.027211926877498627,0.001350443810224533,-0.017472751438617706,-3,1,-999,27,2,-17,3,-14,-152,200.0
15:41:04.698,AUTO,-35.3632602,149.1652362,14109,0.004376241005957127,0.021693557500839233,-0.1668974608182907,0.027211926877498627,0.001350443810224533,-0.017472751438617706,-3,1,-999,27,2,-17,3,-14,-152,200.0
15:41:04.900,AUTO,-35.3632602,149.1652362,14109,0.004376241005957127,0.021693557500839233,-0.1668974608182907,0.027211926877498627,0.001350443810224533,-0.017472751438617706,-3,1,-999,27,2,-17,3,-14,-152,200.0
15:41:05.102,AUTO,-35.3632603,149.1652353,15281,0.015546003356575966,0.015808697789907455,-0.169383704662323,0.002448268700391054,-0.011711183935403824,0.002067130757495761,0,2,-999,3,-10,1,-8,-3,-151,200.0
15:41:05.303,AUTO,-35.3632604,149.1652352,15674,0.014913381077349186,0.012860734015703201,-0.16846777498722076,-0.004352775402367115,-0.011478410102427006,0.0026222781743854284,0,1,-999,-3,-10,2,-10,0,-151,200.0
15:41:05.505,AUTO,-35.3632604,149.1652352,15674,0.014913381077349186,0.012860734015703201,-0.16846777498722076,-0.004352775402367115,-0.011478410102427006,0.0026222781743854284,0,1,-999,-3,-10,2,-10,0,-151,200.0
15:41:05.706,AUTO,-35.3632606,149.1652352,16063,0.012885226868093014,0.009794633835554123,-0.16770625114440918,-0.010120878927409649,-0.011647150851786137,0.0022286702878773212,1,1,-999,-9,-11,1,-11,3,-151,200.0
15:41:05.908,AUTO,-35.3632609,149.1652352,16451,0.010198964737355709,0.006804364267736673,-0.16751638054847717,-0.011716607958078384,-0.011144238524138927,-0.002652260009199381,2,0,-999,-11,-10,-2,-12,5,-151,200.0
15:41:06.110,AUTO,-35.3632611,149.1652354,16837,0.0011716184671968222,0.004464068450033665,-0.16841012239456177,-0.0750207006931305,-0.00832045916467905,-0.006450407672673464,2,0,-995,-74,-7,-6,-12,7,-150,200.0
15:41:06.312,AUTO,-35.3632613,149.1652355,17222,-0.025541778653860092,0.002362945582717657,-0.1705043911933899,-0.12559404969215393,-0.006747139152139425,-0.01176057942211628,2,0,-995,-124,-6,-11,-12,3,-149,200.0
15:41:06.528,AUTO,-35.3632613,149.1652355,17222,-0.025541778653860092,0.002362945582717657,-0.1705043911933899,-0.12559404969215393,-0.006747139152139425,-0.01176057942211628,2,0,-995,-124,-6,-11,-12,3,-149,200.0
15:41:06.730,AUTO,-35.3632613,149.1652355,17222,-0.025541778653860092,0.002362945582717657,-0.1705043911933899,-0.12559404969215393,-0.006747139152139425,-0.01176057942211628,2,0,-995,-124,-6,-11,-12,3,-149,200.0
15:41:06.932,AUTO,-35.3632613,149.1652355,17222,-0.025541778653860092,0.002362945582717657,-0.1705043911933899,-0.12559404969215393,-0.006747139152139425,-0.01176057942211628,2,0,-995,-124,-6,-11,-12,3,-149,200.0
15:41:07.133,AUTO,-35.3632623,149.1652342,18325,-0.05130991339683533,0.045786015689373016,-0.015556197613477707,0.1212819367647171,-0.07287682592868805,0.3247391879558563,2,8,-951,121,-72,324,-28,-34,-132,200.0
15:41:07.335,AUTO,-35.363263,149.1652331,18650,-0.010488979518413544,0.011637968942523003,0.04033122584223747,0.16986390948295593,-0.16544748842716217,0.13045962154865265,0,9,-950,170,-164,130,-34,-40,-119,148601.0
15:41:07.537,AUTO,-35.3632637,149.165232,18943,0.027437878772616386,-0.022096995264291763,0.0550888292491436,0.1319430023431778,-0.10276142507791519,0.008789079263806343,1,11,-954,132,-102,8,-31,-35,-108,148601.0
15:41:07.739,AUTO,-35.3632637,149.165232,18943,0.027437878772616386,-0.022096995264291763,0.0550888292491436,0.1319430023431778,-0.10276142507791519,0.008789079263806343,1,11,-954,132,-102,8,-31,-35,-108,148601.0
15:41:07.940,AUTO,-35.3632642,149.1652312,19207,0.05269975960254669,-0.03799356147646904,0.049627501517534256,0.07273533940315247,-0.036503370851278305,-0.036426737904548645,1,9,-958,73,-35,-36,-23,-23,-97,148601.0
15:41:08.142,AUTO,-35.3632647,149.1652307,19444,0.06443317234516144,-0.04080319404602051,0.03994906693696976,0.025966230779886246,0.000501962611451745,-0.037280745804309845,1,5,-962,26,1,-37,-14,-8,-86,148601.0
15:41:08.344,AUTO,-35.3632649,149.1652306,19658,0.06544382870197296,-0.03757433220744133,0.03273129090666771,-0.011128940619528294,0.018790967762470245,-0.0224046241492033,1,0,-966,-10,19,-22,-4,7,-77,148601.0
15:41:08.547,AUTO,-35.3632649,149.1652306,19658,0.06544382870197296,-0.03757433220744133,0.03273129090666771,-0.011128940619528294,0.018790967762470245,-0.0224046241492033,1,0,-966,-10,19,-22,-4,7,-77,148601.0
15:41:08.751,AUTO,-35.3632649,149.1652306,19658,0.06544382870197296,-0.03757433220744133,0.03273129090666771,-0.011128940619528294,0.018790967762470245,-0.0224046241492033,1,0,-966,-10,19,-22,-4,7,-77,148601.0
15:41:08.953,AUTO,-35.3632649,149.1652306,19658,0.06544382870197296,-0.03757433220744133,0.03273129090666771,-0.011128940619528294,0.018790967762470245,-0.0224046241492033,1,0,-966,-10,19,-22,-4,7,-77,148601.0
15:41:09.155,AUTO,-35.3632645,149.1652323,20165,0.034792639315128326,-0.012293663807213306,0.02769547887146473,-0.041209444403648376,0.0347478911280632,0.005379353649914265,0,-8,-975,-40,35,5,15,38,-55,148601.0
15:41:09.357,AUTO,-35.3632641,149.1652333,20301,0.02334568090736866,-0.004301866050809622,0.02733812853693962,-0.04240601509809494,0.030783550813794136,0.0033857973758131266,0,-10,-977,-41,31,3,17,42,-50,148601.0
15:41:09.559,AUTO,-35.3632636,149.1652344,20421,0.013095306232571602,0.002793711144477129,0.0268500167876482,-0.037569835782051086,0.026477454230189323,0.003339232876896858,0,-10,-978,-36,27,3,18,43,-44,148601.0
15:41:09.761,AUTO,-35.3632632,149.1652355,20530,0.003664108458906412,0.008166199550032616,0.026557939127087593,-0.03146277368068695,0.02050195261836052,0.004428511019796133,0,-10,-978,-30,21,4,18,41,-39,148601.0
15:41:09.963,AUTO,-35.3632632,149.1652355,20530,0.003664108458906412,0.008166199550032616,0.026557939127087593,-0.03146277368068695,0.02050195261836052,0.004428511019796133,0,-10,-978,-30,21,4,18,41,-39,148601.0
15:41:10.165,AUTO,-35.3632627,149.1652365,20622,-0.0037110866978764534,0.01209560688585043,0.026214370504021645,-0.025201033800840378,0.014693686738610268,0.0021747881546616554,3,-10,-977,-24,15,1,16,38,-33,148601.0
15:41:10.366,AUTO,-35.3632624,149.1652375,20700,-0.008549791760742664,0.014606679789721966,0.025540193542838097,-0.007969694212079048,0.007017647381871939,-0.0009613331058062613,1,-9,-976,-7,8,0,14,33,-27,148601.0
15:41:10.568,AUTO,-35.3632624,149.1652375,20700,-0.008549791760742664,0.014606679789721966,0.025540193542838097,-0.007969694212079048,0.007017647381871939,-0.0009613331058062613,1,-9,-976,-7,8,0,14,33,-27,148601.0
15:41:10.770,AUTO,-35.3632624,149.1652375,20700,-0.008549791760742664,0.014606679789721966,0.025540193542838097,-0.007969694212079048,0.007017647381871939,-0.0009613331058062613,1,-9,-976,-7,8,0,14,33,-27,148601.0
15:41:10.971,AUTO,-35.3632624,149.1652375,20700,-0.008549791760742664,0.014606679789721966,0.025540193542838097,-0.007969694212079048,0.007017647381871939,-0.0009613331058062613,1,-9,-976,-7,8,0,14,33,-27,148601.0
15:41:11.173,AUTO,-35.3632615,149.1652395,20834,-0.013434983789920807,0.014597555622458458,0.02374328300356865,0.0038812938146293163,-0.004266385920345783,-0.0021463430020958185,0,-4,-969,4,-3,-2,5,18,-7,148601.0
15:41:11.375,AUTO,-35.3632614,149.1652399,20842,-0.03094499558210373,0.019593412056565285,0.022616656497120857,-0.3098640739917755,0.1379312127828598,-0.005818773526698351,0,1,-934,-308,138,-5,3,12,2,199343.0
15:41:11.576,AUTO,-35.3632613,149.1652401,20813,-0.04627643898129463,0.028386753052473068,0.021471824496984482,0.47328194975852966,0.0011322901118546724,-0.0041650389321148396,0,16,-975,474,2,-4,-1,1,15,199343.0
15:41:11.778,AUTO,-35.3632614,149.1652399,20762,-0.03389478847384453,0.028085706755518913,0.02083057165145874,-0.055344633758068085,0.008325669914484024,-0.010947533883154392,0,-24,-961,-56,9,-11,-7,-10,23,199343.0
15:41:11.980,AUTO,-35.3632614,149.1652399,20762,-0.03389478847384453,0.028085706755518913,0.02083057165145874,-0.055344633758068085,0.008325669914484024,-0.010947533883154392,0,-24,-961,-56,9,-11,-7,-10,23,199343.0
15:41:12.182,AUTO,-35.3632615,149.1652396,20704,-0.0305759459733963,0.0313885435461998,0.020367279648780823,-0.5317838191986084,0.01515046413987875,-0.006745122838765383,0,-34,-1024,-531,16,-6,-14,-18,19,199343.0
15:41:12.383,AUTO,-35.3632619,149.165239,20660,-0.02986300177872181,0.03388851881027222,0.01995255798101425,-0.5107367038726807,0.011246714740991592,-0.002187073929235339,1,-4,-1020,-509,12,-2,-21,-22,13,199343.0
15:41:12.585,AUTO,-35.3632619,149.165239,20660,-0.02986300177872181,0.03388851881027222,0.01995255798101425,-0.5107367038726807,0.011246714740991592,-0.002187073929235339,1,-4,-1020,-509,12,-2,-21,-22,13,199343.0
15:41:12.787,AUTO,-35.3632619,149.165239,20660,-0.02986300177872181,0.03388851881027222,0.01995255798101425,-0.5107367038726807,0.011246714740991592,-0.002187073929235339,1,-4,-1020,-509,12,-2,-21,-22,13,199343.0
15:41:12.988,AUTO,-35.3632619,149.165239,20660,-0.02986300177872181,0.03388851881027222,0.01995255798101425,-0.5107367038726807,0.011246714740991592,-0.002187073929235339,1,-4,-1020,-509,12,-2,-21,-22,13,199343.0
15:41:13.190,AUTO,-35.3632641,149.1652368,20604,-0.014340866357088089,0.045691635459661484,0.017418915405869484,0.635097861289978,0.0213986337184906,-0.00024333401233889163,6,39,-1014,636,22,0,-47,-30,-1,199343.0
15:41:13.391,AUTO,-35.3632652,149.165236,20608,-0.02545044757425785,0.05139908567070961,0.008831199258565903,-0.009120192378759384,0.02927061915397644,-0.12522192299365997,7,1,-1023,-9,30,-125,-57,-34,-6,199343.0
15:41:13.593,AUTO,-35.3632666,149.1652351,20622,-0.03982952982187271,0.05431162193417549,-0.09311430901288986,-0.533875048160553,0.059605810791254044,-0.682759165763855,5,-13,-1005,-533,60,-682,-68,-38,-8,199343.0
15:41:13.795,AUTO,-35.3632683,149.1652341,20644,-0.06429091840982437,0.04577402025461197,-0.3517073094844818,-0.21601030230522156,0.01803383231163025,-1.3151397705078125,4,25,-1011,-214,18,-1315,-80,-41,-12,199343.0
15:41:13.997,AUTO,-35.3632683,149.1652341,20644,-0.06429091840982437,0.04577402025461197,-0.3517073094844818,-0.21601030230522156,0.01803383231163025,-1.3151397705078125,4,25,-1011,-214,18,-1315,-80,-41,-12,199343.0
15:41:14.205,AUTO,-35.3632703,149.165233,20673,-0.0800057202577591,0.01375200692564249,-0.7717070579528809,0.39669907093048096,-0.054935336112976074,-1.9785854816436768,-1,46,-1015,398,-54,-1978,-94,-47,-14,199343.0
15:41:14.408,AUTO,-35.3632726,149.1652318,20707,-0.08503840118646622,-0.04181209206581116,-1.3353004455566406,0.1347135603427887,-0.06919050216674805,-2.41111421585083,-18,19,-1012,134,-68,-2411,-109,-55,-16,199343.0
15:41:14.621,AUTO,-35.3632726,149.1652318,20707,-0.08503840118646622,-0.04181209206581116,-1.3353004455566406,0.1347135603427887,-0.06919050216674805,-2.41111421585083,-18,19,-1012,134,-68,-2411,-109,-55,-16,199343.0
15:41:14.823,AUTO,-35.3632726,149.1652318,20707,-0.08503840118646622,-0.04181209206581116,-1.3353004455566406,0.1347135603427887,-0.06919050216674805,-2.41111421585083,-18,19,-1012,134,-68,-2411,-109,-55,-16,199343.0
15:41:15.026,AUTO,-35.3632818,149.1652269,20837,0.03435356914997101,-0.13525913655757904,-2.6964850425720215,0.30834659934043884,-0.04618365317583084,-0.7884652614593506,-40,-3,-1020,309,-45,-788,-165,-84,-21,199343.0
15:41:15.230,AUTO,-35.3632818,149.1652269,20837,0.03435356914997101,-0.13525913655757904,-2.6964850425720215,0.30834659934043884,-0.04618365317583084,-0.7884652614593506,-40,-3,-1020,309,-45,-788,-165,-84,-21,199343.0
15:41:15.431,AUTO,-35.3632858,149.1652247,20894,0.05778754502534866,-0.14173920452594757,-2.799832344055176,0.24169951677322388,-0.021501101553440094,-0.11495545506477356,-36,-19,-1018,242,-20,-114,-188,-95,-24,282136.0
15:41:15.633,AUTO,-35.3632903,149.1652222,20957,0.05828363075852394,-0.14569085836410522,-2.777413845062256,-0.19051209092140198,-0.006191197782754898,0.2181067019701004,-44,-43,-1015,-190,-5,217,-210,-107,-27,282136.0
15:41:15.835,AUTO,-35.3632954,149.1652193,21029,0.059165436774492264,-0.14527882635593414,-2.7152984142303467,0.07929233461618423,0.03745100647211075,0.23864683508872986,-50,-23,-1018,80,38,238,-231,-120,-30,282136.0
15:41:16.037,AUTO,-35.3633009,149.165216,21109,0.058502696454524994,-0.13074663281440735,-2.667440414428711,0.12996548414230347,0.076821468770504,0.14233866333961487,-60,-33,-1019,130,77,142,-249,-132,-35,282136.0
15:41:16.239,AUTO,-35.3633009,149.165216,21109,0.058502696454524994,-0.13074663281440735,-2.667440414428711,0.12996548414230347,0.076821468770504,0.14233866333961487,-60,-33,-1019,130,77,142,-249,-132,-35,282136.0
15:41:16.441,AUTO,-35.3633068,149.1652123,21200,0.05507667362689972,-0.11549142748117447,-2.6445999145507812,-0.09237130731344223,0.05671123415231705,0.05556048825383186,-62,-46,-1015,-91,57,55,-263,-143,-39,282136.0
15:41:16.643,AUTO,-35.3633068,149.1652123,21200,0.05507667362689972,-0.11549142748117447,-2.6445999145507812,-0.09237130731344223,0.05671123415231705,0.05556048825383186,-62,-46,-1015,-91,57,55,-263,-143,-39,282136.0
15:41:16.845,AUTO,-35.3633068,149.1652123,21200,0.05507667362689972,-0.11549142748117447,-2.6445999145507812,-0.09237130731344223,0.05671123415231705,0.05556048825383186,-62,-46,-1015,-91,57,55,-263,-143,-39,282136.0
15:41:17.047,AUTO,-35.3633259,149.1651997,21518,0.048403412103652954,-0.0941620022058487,-2.6458137035369873,0.009837429970502853,0.03412388637661934,-0.01473920326679945,-64,-42,-1005,10,35,-15,-290,-162,-46,282136.0
15:41:17.249,AUTO,-35.3633259,149.1651997,21518,0.048403412103652954,-0.0941620022058487,-2.6458137035369873,0.009837429970502853,0.03412388637661934,-0.01473920326679945,-64,-42,-1005,10,35,-15,-290,-162,-46,282136.0
15:41:17.450,AUTO,-35.3633326,149.1651952,21635,0.046252310276031494,-0.0881444662809372,-2.648223638534546,-0.04176564887166023,0.016337258741259575,-0.004288152325898409,-67,-46,-1002,-41,16,-4,-297,-165,-48,282136.0
15:41:17.652,AUTO,-35.3633395,149.1651905,21755,0.04384564980864525,-0.08640976250171661,-2.6492645740509033,-0.01875884458422661,0.01750081591308117,-0.0018635933520272374,-72,-42,-999,-17,18,-2,-302,-167,-48,282136.0
15:41:17.854,AUTO,-35.3633464,149.1651858,21876,0.04149004444479942,-0.085920050740242,-2.6493215560913086,0.004331810865551233,0.0008006102289073169,-0.0014954120852053165,-71,-39,-997,5,1,-1,-307,-169,-48,282136.0
15:41:18.056,AUTO,-35.3633534,149.165181,21999,0.040337443351745605,-0.08385495841503143,-2.649230718612671,0.007613698951900005,0.006372295785695314,0.003174430690705776,-86,-48,-1002,8,7,2,-312,-169,-49,282136.0
15:41:18.258,AUTO,-35.3633534,149.165181,21999,0.040337443351745605,-0.08385495841503143,-2.649230718612671,0.007613698951900005,0.006372295785695314,0.003174430690705776,-86,-48,-1002,8,7,2,-312,-169,-49,282136.0
15:41:18.460,AUTO,-35.3633605,149.1651762,22122,0.04060591384768486,-0.08063440769910812,-2.649287700653076,-0.012061207555234432,0.01036285050213337,-0.0003726205031853169,-81,-48,-997,-11,11,0,-316,-169,-49,282136.0
15:41:18.661,AUTO,-35.3633605,149.1651762,22122,0.04060591384768486,-0.08063440769910812,-2.649287700653076,-0.012061207555234432,0.01036285050213337,-0.0003726205031853169,-81,-48,-997,-11,11,0,-316,-169,-49,282136.0
15:41:18.864,AUTO,-35.3633605,149.1651762,22122,0.04060591384768486,-0.08063440769910812,-2.649287700653076,-0.012061207555234432,0.01036285050213337,-0.0003726205031853169,-81,-48,-997,-11,11,0,-316,-169,-49,282136.0
15:41:19.066,AUTO,-35.3633823,149.1651618,22494,0.04323935508728027,-0.058670904487371445,-2.649888277053833,0.017744023352861404,0.006212472915649414,-0.003319317474961281,-77,-37,-996,18,7,-3,-321,-167,-49,282136.0
15:41:19.267,AUTO,-35.3633896,149.165157,22618,0.04292462766170502,-0.06186823546886444,-2.6501312255859375,-0.006295403931289911,-0.028715308755636215,-0.002954751020297408,-72,-44,-990,-5,-27,-3,-320,-166,-48,110557.0
15:41:19.469,AUTO,-35.3633896,149.165157,22618,0.04292462766170502,-0.06186823546886444,-2.6501312255859375,-0.006295403931289911,-0.028715308755636215,-0.002954751020297408,-72,-44,-990,-5,-27,-3,-320,-166,-48,110557.0
15:41:19.670,AUTO,-35.3633969,149.1651523,22739,0.04310055822134018,-0.06792642176151276,-2.650615692138672,0.015699902549386024,0.0002413425245322287,-0.0036735176108777523,-80,-42,-993,16,1,-3,-319,-166,-46,110557.0
15:41:19.872,AUTO,-35.3634042,149.1651477,22856,0.04492053762078285,-0.06460345536470413,-2.650467872619629,0.0002410464221611619,0.034415651112794876,-0.00016007064550649375,-73,-47,-995,0,35,0,-320,-164,-45,110557.0
15:41:20.074,AUTO,-35.3634114,149.1651431,22972,0.047124456614255905,-0.05432195961475372,-2.650625467300415,-0.0023205550387501717,0.05458740517497063,-0.0044100056402385235,-72,-44,-997,-1,55,-4,-318,-163,-45,110557.0
15:41:20.276,AUTO,-35.3634185,149.1651386,23089,0.04669279605150223,-0.03963466361165047,-2.650738000869751,-0.024680281057953835,0.058126579970121384,-0.0016403694171458483,-71,-40,-996,-24,59,-1,-313,-161,-45,110557.0
15:41:20.478,AUTO,-35.3634185,149.1651386,23089,0.04669279605150223,-0.03963466361165047,-2.650738000869751,-0.024680281057953835,0.058126579970121384,-0.0016403694171458483,-71,-40,-996,-24,59,-1,-313,-161,-45,110557.0
15:41:20.680,AUTO,-35.3634185,149.1651386,23089,0.04669279605150223,-0.03963466361165047,-2.650738000869751,-0.024680281057953835,0.058126579970121384,-0.0016403694171458483,-71,-40,-996,-24,59,-1,-313,-161,-45,110557.0
15:41:20.882,AUTO,-35.3634185,149.1651386,23089,0.04669279605150223,-0.03963466361165047,-2.650738000869751,-0.024680281057953835,0.058126579970121384,-0.0016403694171458483,-71,-40,-996,-24,59,-1,-313,-161,-45,110557.0
15:41:21.084,AUTO,-35.3634391,149.1651256,23430,0.04823296144604683,-0.004515741486102343,-2.650611400604248,-0.04787649214267731,0.042567234486341476,-0.004096244461834431,-63,-38,-989,-47,43,-4,-285,-147,-42,110557.0
15:41:21.286,AUTO,-35.3634454,149.1651216,23535,0.04846882075071335,0.007551982533186674,-2.6504151821136475,0.02814229391515255,0.04905691742897034,-0.003081592032685876,-63,-35,-990,28,49,-3,-271,-141,-39,110557.0
15:41:21.488,AUTO,-35.3634454,149.1651216,23535,0.04846882075071335,0.007551982533186674,-2.6504151821136475,0.02814229391515255,0.04905691742897034,-0.003081592032685876,-63,-35,-990,28,49,-3,-271,-141,-39,110557.0
15:41:21.690,AUTO,-35.3634515,149.1651178,23635,0.04949043691158295,0.020472301170229912,-2.6501317024230957,0.01066954992711544,0.05074991285800934,0.0005168378702364862,-57,-31,-989,11,51,0,-256,-134,-37,110557.0
15:41:21.891,AUTO,-35.3634572,149.1651142,23727,0.044650301337242126,0.034070082008838654,-2.650280237197876,-0.09278576076030731,0.04372168704867363,0.0016252968925982714,-54,-38,-988,-92,44,1,-238,-126,-34,110557.0
15:41:22.093,AUTO,-35.3634625,149.1651108,23811,0.04415754973888397,0.04551885649561882,-2.65023136138916,0.09977158904075623,0.038759153336286545,-0.004531868267804384,-52,-28,-988,100,39,-4,-219,-117,-30,110557.0
15:41:22.295,AUTO,-35.3634672,149.1651077,23887,0.04333114251494408,0.056289225816726685,-2.6501317024230957,0.04869253188371658,0.047786593437194824,-0.0026899888180196285,-47,-36,-988,48,48,-3,-198,-106,-27,110557.0
15:41:22.497,AUTO,-35.3634672,149.1651077,23887,0.04333114251494408,0.056289225816726685,-2.6501317024230957,0.04869253188371658,0.047786593437194824,-0.0026899888180196285,-47,-36,-988,48,48,-3,-198,-106,-27,110557.0
15:41:22.699,AUTO,-35.3634672,149.1651077,23887,0.04333114251494408,0.056289225816726685,-2.6501317024230957,0.04869253188371658,0.047786593437194824,-0.0026899888180196285,-47,-36,-988,48,48,-3,-198,-106,-27,110557.0
15:41:22.900,AUTO,-35.3634672,149.1651077,23887,0.04333114251494408,0.056289225816726685,-2.6501317024230957,0.04869253188371658,0.047786593437194824,-0.0026899888180196285,-47,-36,-988,48,48,-3,-198,-106,-27,110557.0
15:41:23.102,AUTO,-35.3634786,149.1651003,24050,0.036555323749780655,0.09007282555103302,-2.650938034057617,0.524667501449585,0.009360544383525848,-0.017546817660331726,-30,16,-977,526,10,-17,-127,-74,-13,110557.0
15:41:23.304,AUTO,-35.3634813,149.1650984,24078,0.034544482827186584,0.09003962576389313,-2.6514711380004883,0.48515617847442627,-0.020643532276153564,-0.0012559674214571714,-25,-4,-998,485,-19,-1,-103,-61,-8,200.0
15:41:23.506,AUTO,-35.3634813,149.1650984,24078,0.034544482827186584,0.09003962576389313,-2.6514711380004883,0.48515617847442627,-0.020643532276153564,-0.0012559674214571714,-25,-4,-998,485,-19,-1,-103,-61,-8,200.0
15:41:23.707,AUTO,-35.3634834,149.1650969,24099,0.020779728889465332,0.07881739735603333,-2.651418924331665,-0.4000934958457947,-0.05873850733041763,0.016408592462539673,-22,-42,-987,-400,-57,16,-80,-50,-5,200.0
15:41:23.909,AUTO,-35.3634852,149.1650958,24113,0.010266488417983055,0.06246432662010193,-2.651358127593994,-0.70107102394104,-0.059858836233615875,-0.0013446699595078826,-16,-33,-988,-700,-58,-1,-62,-40,-3,200.0
15:41:24.111,AUTO,-35.3634866,149.1650949,24119,0.008058206178247929,0.050547823309898376,-2.6511054039001465,-0.34532251954078674,-0.03899568319320679,-0.010899163782596588,-12,0,-984,-343,-37,-11,-48,-33,0,200.0
15:41:24.313,AUTO,-35.3634877,149.1650943,24119,0.020405538380146027,0.042796023190021515,-2.6513190269470215,0.42958182096481323,-0.027579568326473236,-0.013718584552407265,-11,26,-1007,431,-26,-14,-36,-27,0,200.0
15:41:24.524,AUTO,-35.3634877,149.1650943,24119,0.020405538380146027,0.042796023190021515,-2.6513190269470215,0.42958182096481323,-0.027579568326473236,-0.013718584552407265,-11,26,-1007,431,-26,-14,-36,-27,0,200.0
15:41:24.725,AUTO,-35.3634877,149.1650943,24119,0.020405538380146027,0.042796023190021515,-2.6513190269470215,0.42958182096481323,-0.027579568326473236,-0.013718584552407265,-11,26,-1007,431,-26,-14,-36,-27,0,200.0
15:41:24.927,AUTO,-35.3634877,149.1650943,24119,0.020405538380146027,0.042796023190021515,-2.6513190269470215,0.42958182096481323,-0.027579568326473236,-0.013718584552407265,-11,26,-1007,431,-26,-14,-36,-27,0,200.0
15:41:25.129,AUTO,-35.3634898,149.1650935,24120,0.012537200003862381,0.026888016611337662,-2.652737617492676,-0.5966513156890869,-0.010447156615555286,-0.003900981042534113,-5,-35,-990,-596,-9,-4,-12,-15,0,200.0
15:41:25.331,AUTO,-35.3634902,149.1650934,24120,0.010340697132050991,0.023685304448008537,-2.6530227661132812,-0.4188821017742157,-0.00874031987041235,-0.004531046375632286,-4,0,-992,-417,-7,-4,-5,-14,1,200.0
15:41:25.532,AUTO,-35.3634905,149.1650934,24118,0.01784425973892212,0.020542291924357414,-2.653740644454956,0.43969839811325073,-0.016764923930168152,-0.004602125845849514,-2,32,-1001,441,-15,-4,0,-13,0,200.0
15:41:25.734,AUTO,-35.3634905,149.1650934,24118,0.01784425973892212,0.020542291924357414,-2.653740644454956,0.43969839811325073,-0.016764923930168152,-0.004602125845849514,-2,32,-1001,441,-15,-4,0,-13,0,200.0
15:41:25.936,AUTO,-35.3634907,149.1650934,24115,0.025281202048063278,0.016074273735284805,-2.6545586585998535,0.4058818221092224,-0.019320184364914894,-0.0013841894688084722,-2,8,-1003,406,-18,-1,2,-10,1,200.0
15:41:26.138,AUTO,-35.3634908,149.1650934,24112,0.014843359589576721,0.011188467033207417,-2.6548314094543457,-0.40039515495300293,-0.017947625368833542,-0.0013363518519327044,0,-32,-991,-400,-16,-2,4,-9,2,200.0
15:41:26.340,AUTO,-35.3634908,149.1650934,24107,0.007389905862510204,0.006267011631280184,-2.655224561691284,-0.6230316758155823,-0.017164910212159157,0.0005343391094356775,-1,-21,-1004,-622,-16,0,6,-10,2,200.0
15:41:26.542,AUTO,-35.3634908,149.1650934,24107,0.007389905862510204,0.006267011631280184,-2.655224561691284,-0.6230316758155823,-0.017164910212159157,0.0005343391094356775,-1,-21,-1004,-622,-16,0,6,-10,2,200.0
15:41:26.744,AUTO,-35.3634908,149.1650934,24107,0.007389905862510204,0.006267011631280184,-2.655224561691284,-0.6230316758155823,-0.017164910212159157,0.0005343391094356775,-1,-21,-1004,-622,-16,0,6,-10,2,200.0
15:41:26.946,AUTO,-35.3634908,149.1650934,24107,0.007389905862510204,0.006267011631280184,-2.655224561691284,-0.6230316758155823,-0.017164910212159157,0.0005343391094356775,-1,-21,-1004,-622,-16,0,6,-10,2,200.0
15:41:27.149,AUTO,-35.3634911,149.1650933,24097,0.018596097826957703,-0.00021862340508960187,-2.656172513961792,0.29178422689437866,0.004714310169219971,0.0013796305283904076,0,-6,-999,292,5,0,3,-11,1,200.0
15:41:27.351,AUTO,-35.3634912,149.1650932,24092,0.014952339231967926,-0.004860858898609877,-2.6565423011779785,-0.3178277909755707,-0.03478028625249863,0.006452536676079035,-1,-27,-1006,-317,-33,6,1,-11,2,278654.0
15:41:27.552,AUTO,-35.3634914,149.165093,24089,0.005929877050220966,-0.014534412883222103,-2.6570887565612793,-0.5218179225921631,-0.027748722583055496,0.0016880244947969913,-2,-14,-1010,-520,-26,1,0,-14,0,278654.0
15:41:27.754,RTL,-35.3634914,149.165093,24089,0.005929877050220966,-0.014534412883222103,-2.6570887565612793,-0.5218179225921631,-0.027748722583055496,0.0016880244947969913,-2,-14,-1010,-520,-26,1,0,-14,0,278654.0
15:41:27.956,RTL,-35.3634916,149.1650927,24089,0.01459524966776371,-0.00615156814455986,-2.65631365776062,0.33295974135398865,0.09396069496870041,0.011910399422049522,-3,27,-995,334,95,11,-3,-17,0,278654.0
15:41:28.158,RTL,-35.3634919,149.1650924,24088,0.017773892730474472,0.011456416919827461,-2.6565449237823486,0.6313610672950745,0.03891734033823013,0.0001023942168103531,-2,17,-1004,632,40,0,-3,-16,1,278654.0
15:41:28.360,RTL,-35.3634922,149.1650922,24089,0.012038339860737324,0.015825744718313217,-2.6572999954223633,-0.11232388019561768,0.007568757981061935,0.0025162468664348125,-2,-22,-1020,-111,8,2,-2,-13,-2,278654.0
15:41:28.562,RTL,-35.3634922,149.1650922,24089,0.012038339860737324,0.015825744718313217,-2.6572999954223633,-0.11232388019561768,0.007568757981061935,0.0025162468664348125,-2,-22,-1020,-111,8,2,-2,-13,-2,278654.0
15:41:28.763,RTL,-35.3634922,149.1650922,24089,0.012038339860737324,0.015825744718313217,-2.6572999954223633,-0.11232388019561768,0.007568757981061935,0.0025162468664348125,-2,-22,-1020,-111,8,2,-2,-13,-2,278654.0
15:41:28.965,RTL,-35.3634922,149.1650922,24089,0.012038339860737324,0.015825744718313217,-2.6572999954223633,-0.11232388019561768,0.007568757981061935,0.0025162468664348125,-2,-22,-1020,-111,8,2,-2,-13,-2,278654.0
15:41:29.167,RTL,-35.3634927,149.1650915,24178,0.0062724226154387,0.01655523106455803,-2.6573293209075928,0.2217095047235489,-0.0012443322921171784,0.008167712017893791,0,16,-1048,223,0,8,5,-9,-23,278654.0
15:41:29.369,RTL,-35.3634928,149.1650913,24248,0.009849706664681435,0.015463678166270256,-2.6569998264312744,0.38265660405158997,-0.0045818425714969635,0.002489369362592697,0,8,-1038,383,-3,2,7,-7,-32,278654.0
15:41:29.570,RTL,-35.3634929,149.1650912,24344,0.002504291944205761,0.014579953625798225,-2.656846284866333,-0.22252503037452698,-0.0009749668533913791,0.0025623783003538847,0,-17,-1039,-221,0,2,8,-5,-43,278654.0
15:41:29.772,RTL,-35.3634929,149.1650912,24467,0.0024244054220616817,0.013058745302259922,-2.656932830810547,-0.15112648904323578,-0.013583004474639893,0.003534914692863822,0,-4,-1041,-149,-12,3,9,-3,-53,278654.0
15:41:29.974,RTL,-35.3634929,149.1650912,24467,0.0024244054220616817,0.013058745302259922,-2.656932830810547,-0.15112648904323578,-0.013583004474639893,0.003534914692863822,0,-4,-1041,-149,-12,3,9,-3,-53,278654.0
15:41:30.176,RTL,-35.3634929,149.1650912,24614,0.008083741180598736,0.010594082996249199,-2.6566293239593506,0.20553424954414368,-0.0036193160340189934,0.00405556196346879,0,10,-1033,207,-2,4,10,-2,-62,278654.0
15:41:30.377,RTL,-35.3634928,149.1650912,24780,0.00625657057389617,0.00938454084098339,-2.6565115451812744,-0.07899881154298782,0.00046831078361719847,0.0024533290416002274,0,-6,-1023,-77,1,2,10,-1,-68,278654.0
15:41:30.579,RTL,-35.3634928,149.1650912,24780,0.00625657057389617,0.00938454084098339,-2.6565115451812744,-0.07899881154298782,0.00046831078361719847,0.0024533290416002274,0,-6,-1023,-77,1,2,10,-1,-68,278654.0
15:41:30.781,RTL,-35.3634928,149.1650912,24780,0.00625657057389617,0.00938454084098339,-2.6565115451812744,-0.07899881154298782,0.00046831078361719847,0.0024533290416002274,0,-6,-1023,-77,1,2,10,-1,-68,278654.0
