time_stamp,xacc,yacc,zacc,xgyro,ygyro,zgyro,MODE,roll,pitch,yaw,rollspeed,pitchspeed,yawspeed,lat,lon,relative_alt,vx,vy,vz,RTL_ALT
20:55:10,0.0,2.0,-1000.0,0.0,0.5,0.0,AUTO,-0.0009822251158766448,0.0009685096156317741,0.021910405717790127,0.0002649711968842894,0.00031039322493597865,0.0015064527979120612,-35.36326215,149.1652375,17.0,-1.0,0.0,-2.5,1500.0
20:55:12,0.0,1.5,-1000.0,0.0,0.0,0.5,AUTO,-0.0005512569041457027,0.001367060118354857,0.021364478394389153,0.0003632943844422698,0.00026600065757520497,0.001498379628174007,-35.3632621,149.1652375,26.5,0.0,0.0,-2.0,1500.0
20:55:14,0.0,0.0,-1120.5,-3.0,4.0,1.0,AUTO,0.00211040215799585,0.0006134108916739933,0.020900367759168148,-0.002990512817632407,0.0033702661748975515,0.0017408843850716949,-35.3632621,149.1652375,325.5,0.0,1.0,-87.5,1500.0
20:55:16,1.5,-9.5,-991.5,-73.0,58.5,-71.5,AUTO,0.05228507146239281,0.0018588947132229805,-0.018940352369099855,-0.07327863574028015,0.0581624461337924,-0.0717651229351759,-35.3632615,149.16524035,3130.5,8.5,48.0,-147.0,1500.0
20:55:18,-2.5,5.0,-1000.5,54.0,0.0,-16.5,AUTO,-0.06341454200446606,0.0009012286609504372,-0.10001394525170326,0.05455084517598152,-0.0003737345105037093,-0.016444820445030928,-35.3632608,149.1652454,6183.5,-3.0,-36.0,-149.0,1500.0
20:55:20,0.5,8.0,-999.5,46.5,-13.5,18.0,AUTO,0.06481306999921799,0.011936976108700037,-0.10341659560799599,0.04664588812738657,-0.014436319936066866,0.018739097518846393,-35.3632631,149.16523445,9291.5,-21.5,-17.5,-153.0,1500.0
20:55:22,-5.5,-5.0,-1004.0,11.0,36.0,-75.5,AUTO,-0.029615556821227074,0.007210926152765751,-0.11507624387741089,0.01129345188383013,0.035885476507246494,-0.07557996362447739,-35.363261800000004,149.1652373,12381.0,29.0,1.0,-151.5,1500.0
20:55:24,0.5,1.5,-999.0,-0.5,-12.0,5.0,AUTO,0.016252190805971622,0.015959245152771473,-0.1687038317322731,-0.0006186235696077347,-0.012983114924281836,0.00572921265847981,-35.3632601,149.16523504999998,15509.0,-11.5,-1.0,-152.0,1500.0
20:55:26,1.5,0.0,-1000.0,-2.5,0.5,-23.5,AUTO,-0.0004259014349372592,-0.002699661417864263,-0.18047654628753662,-0.0029235801775939763,0.00011274116695858538,-0.023459711112082005,-35.363261949999995,149.16523610000002,18621.0,-7.0,7.5,-152.0,1500.0
20:55:28,0.0,0.0,-999.5,1.5,4.0,-24.0,AUTO,0.003556255018338561,0.0023703910410404205,-0.23216859251260757,0.0020225400221534073,0.0033441800624132156,-0.024116696789860725,-35.3632621,149.1652364,21755.5,0.0,2.0,-153.0,1500.0
20:55:30,0.0,-1.5,-989.5,-53.0,7.0,-9.5,AUTO,0.0010419872996862978,0.0034183370880782604,-0.27215851843357086,-0.05301381560275331,0.00640949874650687,-0.009173730795737356,-35.3632621,149.16523665,24882.0,-1.0,3.5,-152.5,1500.0
20:55:32,0.5,0.0,-999.5,-6.0,1.5,23.0,AUTO,0.008548848098143935,0.0014337251195684075,-0.2317703291773796,-0.006414286093786359,0.00026705302298069,0.02362209837883711,-35.3632624,149.16523675000002,27995.5,-2.5,6.5,-152.5,1500.0
20:55:34,0.0,0.0,-1000.5,0.5,0.0,17.0,AUTO,-0.0010022350470535457,0.001239395933225751,-0.19259878993034363,0.000573894358240068,-0.0001738332794047892,0.01779503095895052,-35.3632624,149.16523795,31111.0,0.0,4.5,-153.0,1500.0
20:55:36,0.0,0.0,-1000.0,0.5,1.5,13.0,AUTO,0.0014486381551250815,0.0009334044007118791,-0.16325680911540985,0.00029764953069388866,0.001043032418237999,0.01337144011631608,-35.3632623,149.1652381,34224.5,0.0,0.0,-153.0,1500.0
20:55:38,0.0,0.0,-1001.0,3.5,1.5,9.0,AUTO,0.0015736256609670818,0.0011227118666283786,-0.14150093495845795,0.004187735263258219,0.0011300609621684998,0.009538373909890652,-35.3632622,149.1652378,37338.0,0.0,0.0,-153.0,1500.0
20:55:40,0.0,0.0,-1000.5,2.0,0.5,8.5,AUTO,0.0023698273580521345,0.0015230783028528094,-0.12489818781614304,0.002169086132198572,-0.00018744025146588683,0.008741026744246483,-35.3632621,149.16523755,40456.5,0.0,0.0,-153.0,1500.0
20:55:42,0.0,0.0,-1000.0,0.5,1.0,6.5,AUTO,0.0018555900896899402,0.0016028481186367571,-0.11189152300357819,0.0003753298515221104,0.000320231425575912,0.006719172233715653,-35.363262,149.1652375,43569.0,-1.0,1.0,-153.0,1500.0
20:55:44,0.0,0.0,-999.5,2.0,2.5,8.0,AUTO,0.0017313838470727205,0.0012021003640256822,-0.1001092866063118,0.002389834960922599,0.0018797997618094087,0.008130328264087439,-35.363262,149.1652374,46693.0,-1.0,1.0,-153.0,1500.0
20:55:46,0.5,5.5,-965.0,49.0,-1.5,-11.0,AUTO,0.031564568169415,-0.05433990620076656,0.2933233827352524,0.04901578463613987,-0.0028384365141391754,-0.012114672572351992,-35.3632647,149.16523295,49106.5,-7.0,-17.0,-73.5,1500.0
20:55:48,-2.0,-32.5,-975.5,-451.5,18.0,-25.0,AUTO,0.003062016796320677,0.011208390351384878,0.22644365578889847,-0.45117609202861786,0.017615032382309437,-0.025603530928492546,-35.36326215,149.16523605,50057.0,16.5,29.0,-25.0,1500.0
20:55:50,2.5,-30.0,-1021.5,-626.0,-32.0,-21.5,AUTO,0.0055928577203303576,-0.020004157908260822,0.18038307130336761,-0.6266051530838013,-0.03394139837473631,-0.022272407077252865,-35.363261249999994,149.16523905,50029.0,-2.0,4.5,9.0,1500.0
20:55:52,-24.5,3.0,-1005.5,346.0,-35.0,761.0,AUTO,0.017695277463644743,-0.1199028305709362,0.8772715926170349,0.34360964968800545,-0.03622254356741905,0.761193037033081,-35.3632564,149.1652514,49955.5,81.5,102.5,0.0,1500.0
20:55:54,-75.5,-37.5,-1004.5,-257.0,40.0,-54.0,AUTO,0.007315647788345814,-0.16057177633047104,1.148439645767212,-0.25766677781939507,0.03867863118648529,-0.054768556728959084,-35.3632327,149.16529565000002,49940.0,187.5,255.5,0.0,1500.0
20:55:56,-108.5,-53.0,-1062.5,89.0,359.5,-30.5,AUTO,0.05036824382841587,-0.13028530031442642,1.1145325303077698,0.08849583193659782,0.35898609459400177,-0.030977687798440456,-35.36319315,149.16536835,49892.5,269.5,403.5,-7.5,1500.0
20:55:58,-146.5,-58.5,-1079.0,5.0,313.5,37.0,BRAKE,0.02410339005291462,-0.24355051666498184,1.10836923122406,0.005457136780023575,0.31270045787096024,0.036900251638144255,-35.363144250000005,149.16546215,49808.5,330.5,513.5,19.0,1500.0
20:56:00,-48.0,-72.5,-1016.5,-1097.0,-307.0,19.5,BRAKE,0.039265988394618034,0.17784401774406433,1.11166512966156,-1.0973232686519623,-0.3087862879037857,0.019721713848412037,-35.36309695,149.16555325000002,50190.5,103.0,186.0,16.0,1500.0
20:56:02,-25.0,5.5,-1007.5,-15.0,20.0,-8.0,BRAKE,0.009760202374309301,0.005116084008477628,1.1030640006065369,-0.017378270626068115,0.018613028340041637,-0.0085785235860385,-35.36308415,149.1655792,49987.0,61.5,75.0,0.5,1500.0
20:56:04,-19.5,-82.0,-895.5,-1840.0,3.0,8.0,AUTO,-0.02089535351842642,-0.004529521334916353,1.0917999148368835,-1.8390235900878906,0.0018907114281319082,0.008580475579947233,-35.36307375,149.16559315,49204.5,54.5,51.0,150.0,1500.0
20:56:06,-13.5,-38.0,-1050.0,-637.5,-10.0,9.0,AUTO,0.030300218611955643,-0.003293149289675057,1.081527292728424,-0.6356820464134216,-0.011864441446959972,0.008730539586395025,-35.36306495,149.1656018,46616.0,20.0,31.5,37.5,1500.0
20:56:08,-17.5,-17.5,-1008.5,-365.5,-95.0,-1.5,AUTO,0.024113873951137066,-0.07188511453568935,1.0535728931427002,-0.368089247494936,-0.09741964563727379,-0.0025595366023480892,-35.36305815,149.16561044999997,46406.0,17.0,77.5,0.0,1500.0
20:56:10,-63.5,-51.0,-1012.0,-151.5,17.5,6.5,AUTO,0.038966212421655655,-0.17775124311447144,1.0449320077896118,-0.15282225608825684,0.01590281049720943,0.005427094758488238,-35.3630404,149.1656463,46454.5,156.5,279.0,-4.0,1500.0
20:56:12,-108.0,-57.5,-1009.0,41.0,35.0,-2.0,AUTO,0.05490034259855747,-0.19842323660850525,1.0381823182106018,0.040391115471720695,0.033897584304213524,-0.003393571882043034,-35.36299895,149.16572835,46645.5,281.0,462.0,-10.0,1500.0
20:56:14,-154.0,-64.0,-1028.5,21.5,253.0,-14.5,AUTO,0.06522566825151443,-0.11935609951615334,1.0361849665641785,0.020809853449463844,0.25150101631879807,-0.016290586441755295,-35.3629405,149.16584405,47053.0,352.0,559.5,-25.0,1500.0
20:56:16,-78.0,-45.5,-990.0,398.5,-20.5,15.0,AUTO,0.06722169928252697,0.03654119186103344,1.0361968874931335,0.4007425829768181,-0.022898178547620773,0.013089134357869625,-35.3628892,149.1659454,47534.0,213.0,343.0,10.0,1500.0
20:56:18,-31.5,-57.5,-1008.0,-266.5,92.5,12.0,BRAKE,0.031426651403307915,0.15018995851278305,1.034710943698883,-0.26388406846672297,0.09060708433389664,0.010614922270178795,-35.36286145,149.16600255,47517.5,99.0,151.5,-1.5,1500.0
20:56:20,-9.0,-12.5,-1000.0,-412.5,-4.5,6.5,BRAKE,-0.02022967766970396,0.007630673935636878,1.03344064950943,-0.4155261516571045,-0.006422756938263774,0.0050651817582547665,-35.3628545,149.16601965,47542.5,34.5,40.5,0.0,1500.0
20:56:22,-7.5,30.5,-878.0,935.5,-4.0,-1.5,ALT_HOLD,0.012253538938239217,-0.0020837834454141557,1.0299662351608276,0.9351480901241302,-0.0058443715097382665,-0.003661998314782977,-35.36285065,149.16602815,47507.5,34.0,22.0,34.0,1500.0
20:56:24,-13.0,-27.0,-1130.0,-1307.0,-49.5,-7.5,AUTO,-0.014839340932667255,0.015857075341045856,1.024172067642212,-1.3108170628547668,-0.052099356427788734,-0.009694705251604319,-35.362846700000006,149.1660359,44652.5,20.5,24.0,137.0,1500.0
20:56:26,-11.5,-25.0,-1010.5,-547.0,-37.0,-7.0,AUTO,0.024031522683799267,-0.016330384649336338,1.0213052034378052,-0.5481920838356018,-0.039889145642519,-0.008634600089862943,-35.3628406,149.16604174999998,43670.5,11.0,45.0,1.5,1500.0
20:56:28,-45.5,-32.0,-1015.5,123.0,-50.0,15.0,AUTO,0.031039233319461346,-0.17439766973257065,1.012917399406433,0.12314889580011368,-0.05296609178185463,0.013464201241731644,-35.362830349999996,149.1660621,43767.5,98.5,184.5,-10.0,1500.0
20:56:30,-85.66666666666667,-49.666666666666664,-1007.3333333333334,-4.333333333333333,-18.0,3.3333333333333335,AUTO,0.048018267999092736,-0.18567152818044028,1.0081562995910645,-0.005074434603254001,-0.02051814179867506,0.002203780420434972,-35.3627982,149.1661252,44164.666666666664,238.33333333333334,382.3333333333333,-28.0,1500.0
20:56:32,-124.33333333333333,-67.66666666666667,-1034.3333333333333,31.333333333333332,245.0,57.0,AUTO,0.07444590578476588,-0.0899933110922575,0.9634048938751221,0.030485783393184345,0.2431989312171936,0.05519766608874003,-35.36274516666666,149.16622686666668,44969.0,326.6666666666667,508.0,-57.666666666666664,1500.0
20:56:34,-79.5,-83.5,-984.0,-477.5,14.5,27.0,AUTO,0.05464293248951435,0.03997462056577206,1.016717791557312,-0.47692594677209854,0.012445842497982085,0.02596078533679247,-35.362696650000004,149.16632215,45953.5,196.0,330.5,-7.0,1500.0
20:56:36,-33.0,-11.5,-1002.0,-88.5,35.5,-2.0,AUTO,0.014463941566646099,0.09332550689578056,1.0144204497337341,-0.09271667897701263,0.033598363399505615,-0.004162005614489317,-35.36267105,149.16637495,46139.5,84.5,145.0,-2.0,1500.0
20:56:38,-10.666666666666666,-22.666666666666668,-1007.6666666666666,-251.66666666666666,-226.33333333333334,15.0,AUTO,-0.006187684989223878,-0.1125787819425265,1.0120193163553874,-0.25146229068438214,-0.22932944695154825,0.013293057059248289,-35.3626649,149.16638883333334,46166.333333333336,30.0,36.333333333333336,3.0,1500.0
20:56:40,-55.0,-44.0,-1016.6666666666666,-104.66666666666667,356.0,21.333333333333332,BRAKE,0.04268598804871241,0.1136495117098093,1.0171025196711223,-0.10427455448855956,0.35411883145570755,0.019821397960186005,-35.362644833333334,149.16642346666666,46354.0,139.66666666666666,198.0,-25.333333333333332,1500.0
20:56:42,-6.666666666666667,-27.0,-1003.3333333333334,-425.0,-30.0,4.333333333333333,BRAKE,-0.00722760505353411,0.03228163222471873,1.0175814231236775,-0.42618901530901593,-0.032836380104223885,0.002811915047156314,-35.362633466666665,149.16644553333333,46498.666666666664,22.333333333333332,34.333333333333336,0.3333333333333333,1500.0
20:56:44,-3.6666666666666665,41.333333333333336,-885.0,796.3333333333334,-9.666666666666666,1.6666666666666667,ALT_HOLD,0.0039457110688090324,-0.0014400009143476684,1.0157795349756877,0.7924994044005871,-0.012376999637732903,0.0001954051355520884,-35.3626316,149.16645096666664,46443.333333333336,20.0,11.0,31.0,1500.0
20:56:46,-1.6666666666666667,-87.33333333333333,-1113.3333333333333,-1517.3333333333333,-17.666666666666668,4.333333333333333,AUTO,-0.019607602929075558,0.01167109637754038,1.0153681834538777,-1.5143309831619263,-0.02035670479138692,0.0026985908237596354,-35.36263016666666,149.1664567,43665.333333333336,18.666666666666668,18.666666666666668,138.33333333333334,1500.0
20:56:48,-10.333333333333334,-21.666666666666668,-1013.3333333333334,-362.0,-29.0,-17.333333333333332,AUTO,-0.019647044440110523,-0.0159804771343867,1.0129626194636028,-0.3620625436306,-0.032064626614252724,-0.01927244896069169,-35.362628066666666,149.1664644,42648.0,42.333333333333336,25.666666666666668,-1.0,1500.0
20:56:50,-41.333333333333336,-16.333333333333332,-1023.0,92.0,-47.333333333333336,1.3333333333333333,AUTO,0.019554778312643368,-0.1679868350426356,1.0024661620457966,0.092278391122818,-0.050566162914037704,-0.0005106164996201793,-35.36261686666666,149.1664828,42896.333333333336,127.66666666666667,155.66666666666666,-25.0,1500.0
20:56:52,-85.33333333333333,-37.333333333333336,-1032.6666666666667,21.333333333333332,210.0,-2.3333333333333335,AUTO,0.05756412694851557,-0.10850291947523753,0.9981619318326315,0.02212813962250948,0.20760257790486017,-0.004278356713863711,-35.36258293333333,149.1665425,43813.666666666664,238.33333333333334,356.3333333333333,-70.66666666666667,1500.0
20:56:54,-58.666666666666664,-33.666666666666664,-976.3333333333334,-29.666666666666668,13.0,-0.6666666666666666,AUTO,0.05048102140426636,0.021589392175277073,1.0029969612757366,-0.03006688893462221,0.010842632269486785,-0.002545549999922514,-35.36254589999999,149.16661193333334,45255.333333333336,148.66666666666666,255.33333333333334,-42.333333333333336,1500.0
20:56:56,-23.666666666666668,-22.666666666666668,-997.3333333333334,143.66666666666666,36.666666666666664,12.666666666666666,BRAKE,0.031678156927227974,0.10814147939284642,1.0053064028422039,0.1449776291847229,0.03416626403729121,0.01140389529367288,-35.3625254,149.16665349999997,45836.0,57.666666666666664,116.0,-14.666666666666666,1500.0
20:56:58,-8.333333333333334,-13.333333333333334,-1001.3333333333334,-344.0,1.0,1.6666666666666667,BRAKE,0.011985228396952152,0.0028823326574638486,1.0046615203221638,-0.3445112345119317,-0.0020032754788796106,0.0006464237812906504,-35.3625201,149.16666510000002,46014.666666666664,9.666666666666666,40.333333333333336,-5.333333333333333,1500.0
20:57:00,-6.666666666666667,-13.333333333333334,-889.0,179.66666666666666,-10.333333333333334,1.6666666666666667,ALT_HOLD,0.010089516329268614,0.00020980567205697298,1.0046442747116089,0.18175449967384338,-0.013352334732189775,0.0003469528164714575,-35.3625166,149.1666709,46050.0,6.333333333333333,30.0,25.666666666666668,1500.0
20:57:02,-10.333333333333334,83.0,-1126.6666666666667,1539.6666666666667,-16.666666666666668,-11.0,AUTO,0.0469008224705855,0.008577931439504027,1.0015215476353962,1.5358794530232747,-0.019322115927934647,-0.012964926039179167,-35.36251073333333,149.16667423333334,43344.666666666664,11.666666666666666,21.666666666666668,140.66666666666666,1500.0
20:57:04,-8.0,7.666666666666667,-1024.0,149.66666666666666,-13.333333333333334,7.0,AUTO,0.038902988036473594,-0.005392180018437405,1.001748522122701,0.14677191774050394,-0.01618754716279606,0.005593569134362042,-35.3625055,149.16667833333335,42326.0,-5.333333333333333,43.333333333333336,-4.0,1500.0
20:57:06,-26.666666666666668,-21.0,-1032.0,-18.0,-25.0,-0.3333333333333333,AUTO,0.017681591523190338,-0.1209977666536967,1.0119450092315674,-0.019818299760421116,-0.02800020140906175,-0.0027007294508318105,-35.3624994,149.16669370000002,42716.333333333336,57.666666666666664,137.66666666666666,-39.666666666666664,1500.0
20:57:08,-36.333333333333336,-24.666666666666668,-981.3333333333334,-23.0,0.6666666666666666,3.3333333333333335,AUTO,0.02258967359860738,0.031277984380722046,1.0126910209655762,-0.024651130040486652,-0.002657596177111069,0.0017325249500572681,-35.36248113333334,149.16673326666668,43999.0,94.66666666666667,162.0,-69.0,1500.0
20:57:10,-19.333333333333332,-21.0,-980.6666666666666,-194.33333333333334,17.0,4.333333333333333,AUTO,0.005080557176067184,0.03672473753492037,1.0128504435221355,-0.1963342527548472,0.014325042876104513,0.0028274813666939735,-35.3624685,149.1667609,45000.0,53.666666666666664,83.0,-28.0,1500.0
20:57:12,-2.0,4.333333333333333,-995.3333333333334,343.0,-81.0,1.3333333333333333,AUTO,0.009601591465373835,0.018706637871218845,1.0130576292673747,0.3427940408388774,-0.08414282277226448,-0.0006925139265755812,-35.36246383333333,149.1667704,45230.0,6.666666666666667,3.0,3.6666666666666665,1500.0
20:57:14,-27.0,-16.333333333333332,-1030.0,-102.33333333333333,53.666666666666664,-0.6666666666666666,AUTO,0.021764685089389484,-0.07881513983011246,1.0119887590408325,-0.10443289081255595,0.05139475936690966,-0.0026306440122425556,-35.362458333333336,149.16677790000003,45330.333333333336,62.666666666666664,98.33333333333333,-26.0,1500.0
20:57:16,-18.333333333333332,-6.666666666666667,-980.3333333333334,43.0,61.333333333333336,6.0,AUTO,0.01878245050708453,0.10386104136705399,1.013432502746582,0.040392318119605385,0.05850485029319922,0.003621554079776009,-35.362444833333335,149.16680376666667,46165.0,41.0,80.66666666666667,-38.333333333333336,1500.0
20:57:18,3.3333333333333335,-21.333333333333332,-1000.3333333333334,-280.0,-23.333333333333332,-4.333333333333333,BRAKE,-0.009054592015066495,0.007761833568414052,1.0145426988601685,-0.28026097019513446,-0.026547554569939773,-0.0065362952882424,-35.3624442,149.16680863333332,46424.666666666664,-9.0,-13.0,0.3333333333333333,1500.0
20:57:20,0.6666666666666666,18.0,-999.3333333333334,251.0,7.0,4.333333333333333,BRAKE,-0.006410025370617707,0.00818792295952638,1.0140293439229329,0.2476983666419983,0.00443753080132107,0.0026607337640598416,-35.36244573333334,149.16680766666664,46436.666666666664,2.0,-7.333333333333333,-2.3333333333333335,1500.0
20:57:22,0.0,-41.333333333333336,-889.3333333333334,-581.3333333333334,-4.666666666666667,0.3333333333333333,ALT_HOLD,-0.002887522956977288,0.0013277977074418839,1.0129591226577759,-0.5800867329041163,-0.007829293996716538,-0.0019464447783927123,-35.3624461,149.16680770000002,46406.0,7.0,-3.6666666666666665,25.666666666666668,1500.0
20:57:24,-2.6666666666666665,20.0,-1120.3333333333333,1208.3333333333333,4.0,20.666666666666668,AUTO,0.011244813445955515,0.007096569820229585,1.0126300652821858,1.210032840569814,0.0006362938632567724,0.018942623088757198,-35.36244663333333,149.1668106666667,43686.0,6.333333333333333,11.333333333333334,143.66666666666666,1500.0
20:57:26,-6.666666666666667,11.666666666666666,-1026.6666666666667,305.6666666666667,-9.333333333333334,2.3333333333333335,AUTO,0.00953278325808545,-0.002839805616531521,1.0126990874608357,0.304491067926089,-0.012524327651287118,-8.198595605790615e-05,-35.36244463333333,149.16681453333334,42708.666666666664,21.666666666666668,13.333333333333334,-9.0,1500.0
20:57:28,-16.666666666666668,-7.0,-1016.0,26.333333333333332,63.666666666666664,6.0,AUTO,0.013206389422218004,-0.022882597831388313,0.9806276758511862,0.024624228477478027,0.06124291568994522,0.004652460726598899,-35.36243876666666,149.16682296666667,43286.0,44.666666666666664,66.33333333333333,-49.0,1500.0
20:57:30,-8.0,3.3333333333333335,-980.3333333333334,77.0,3.3333333333333335,2.0,AUTO,0.004736260588591297,0.026496676728129387,0.9832723140716553,0.074730783700943,0.00034330956016977626,0.00047345490505297977,-35.3624323,149.16683576666668,44245.666666666664,21.333333333333332,35.333333333333336,-32.666666666666664,1500.0
20:57:32,0.3333333333333333,-23.0,-989.3333333333334,-195.66666666666666,-39.0,4.0,AUTO,-0.004268135273984323,0.013379337343697747,0.9832857251167297,-0.1945903996626536,-0.042915825421611466,0.0018563260479519765,-35.362430866666664,149.16684,44544.666666666664,2.6666666666666665,-1.0,2.3333333333333335,1500.0
20:57:34,-10.0,3.0,-1032.0,118.0,35.666666666666664,4.0,AUTO,-0.011483663537849983,-0.03961968794465065,0.9839989344278971,0.11607788006464641,0.03279353926579157,0.002069868457814058,-35.36242983333333,149.16684413333334,44618.666666666664,41.666666666666664,37.333333333333336,-22.666666666666668,1500.0
20:57:36,-5.333333333333333,8.0,-971.0,146.66666666666666,-2.0,0.3333333333333333,AUTO,-0.001993766132121285,0.06787641594807307,0.9833049178123474,0.14526627461115518,-0.005422684674461682,-0.0024753951778014502,-35.36242386666667,149.16685493333333,45314.333333333336,25.666666666666668,7.333333333333333,-23.333333333333332,1500.0
20:57:38,-2.0,-17.333333333333332,-1008.6666666666666,-76.0,-56.0,12.666666666666666,AUTO,-0.0023379343717048564,-0.027026446536183357,0.9830345114072164,-0.07405659308036168,-0.059555878241856895,0.010880792047828436,-35.36242386666667,149.16685433333336,45395.0,12.666666666666666,-5.333333333333333,1.3333333333333333,1500.0
20:57:40,-14.666666666666666,-3.3333333333333335,-994.0,144.66666666666666,88.66666666666667,-0.3333333333333333,AUTO,0.017953304884334404,0.03143604348103205,0.9831339518229166,0.144815132021904,0.08572183549404144,-0.0030144179860750833,-35.362418133333335,149.166862,45804.666666666664,40.333333333333336,45.666666666666664,-35.666666666666664,1500.0
20:57:42,1.0,2.3333333333333335,-991.6666666666666,-198.0,-31.0,5.0,BRAKE,-0.0028589683740089336,-0.0013042455539107323,0.9829098780949911,-0.1996128261089325,-0.034338894532993436,0.0030821782226363816,-35.3624163,149.16686446666665,46115.0,-12.666666666666666,-9.666666666666666,2.3333333333333335,1500.0
20:57:44,0.0,4.666666666666667,-1002.6666666666666,284.0,5.0,0.0,BRAKE,0.011686776299029589,0.012552594455579916,0.9836649298667908,0.2850547730922699,0.002125553864364823,-0.002779780887067318,-35.3624165,149.1668639,46066.666666666664,-4.666666666666667,1.6666666666666667,0.0,1500.0
20:57:46,0.0,-18.333333333333332,-999.3333333333334,-484.0,-1.6666666666666667,3.3333333333333335,BRAKE,0.005305048854400714,0.00812242180109024,0.9834062059720358,-0.4846530656019847,-0.00531732306505243,0.001343369095896681,-35.36241643333333,149.1668635,46077.333333333336,-7.666666666666667,0.0,-0.6666666666666666,1500.0
20:57:48,-2.6666666666666665,-86.0,-857.0,-1556.6666666666667,3.6666666666666665,-2.0,ALT_HOLD,-0.009678955810765425,0.0006010927027091384,0.9826231400171915,-1.553078015645345,0.00017601888005932173,-0.004641570694123705,-35.3624154,149.16686286666666,45456.0,3.6666666666666665,2.6666666666666665,133.0,1500.0
20:57:50,-4.0,-32.666666666666664,-1080.3333333333333,-304.0,9.333333333333334,3.6666666666666665,AUTO,0.022309355748196442,-0.001797528724030902,0.9828334053357443,-0.3024984896183014,0.006157131788010399,0.00173576595261693,-35.362412400000004,149.166863,42819.333333333336,0.3333333333333333,16.333333333333332,37.333333333333336,1500.0
20:57:52,-1.6666666666666667,8.666666666666666,-1006.0,164.0,10.333333333333334,3.3333333333333335,AUTO,0.010455351633330187,0.013437469179431597,0.9832921425501505,0.16152730584144592,0.007169557890544335,0.0009823674336075783,-35.3624107,149.16686643333335,42883.0,-4.666666666666667,19.333333333333332,-22.0,1500.0
20:57:54,0.3333333333333333,-27.333333333333332,-985.6666666666666,-444.3333333333333,-0.6666666666666666,0.0,AUTO,-0.0019484641185651224,0.018421897664666176,0.9836162726084391,-0.44501202801863354,-0.004121718540166815,-0.002632935531437397,-35.36241053333333,149.16686860000002,43211.333333333336,-7.333333333333333,2.6666666666666665,-5.0,1500.0
20:57:56,-2.3333333333333335,9.333333333333334,-1024.3333333333333,231.0,12.0,2.6666666666666665,AUTO,-0.0001988978668426474,-0.013891342716912428,0.9837332169214884,0.22851987183094025,0.00889616971835494,0.00044724426697939634,-35.362410833333335,149.16687006666666,43310.666666666664,9.333333333333334,16.666666666666668,-17.0,1500.0
20:57:58,-5.0,5.666666666666667,-982.3333333333334,176.66666666666666,27.666666666666668,4.333333333333333,AUTO,-0.0030253761603186526,0.03190004328886668,0.9829592704772949,0.17529799540837607,0.024532351177185774,0.0020089919368426004,-35.36240866666666,149.16687646666665,43959.333333333336,20.0,13.0,-33.0,1500.0
20:58:00,0.0,-18.0,-996.6666666666666,-375.6666666666667,-14.0,2.3333333333333335,AUTO,-0.005547388728397588,0.0012130789303531249,0.9829651514689127,-0.37654781838258106,-0.018089007896681625,0.00021208287216722965,-35.362408,149.16687723333334,44199.333333333336,4.666666666666667,-8.333333333333334,1.6666666666666667,1500.0
20:58:02,-9.333333333333334,-7.666666666666667,-1020.3333333333334,12.333333333333334,35.0,3.0,AUTO,0.0077111811842769384,-0.009822714840993285,0.98304816087087,0.012358140821258226,0.03176097137232622,0.0006001141543189684,-35.362405966666664,149.16688023333333,44464.0,24.666666666666668,28.666666666666668,-37.333333333333336,1500.0
20:58:04,-0.6666666666666666,-2.0,-970.3333333333334,98.66666666666667,-32.333333333333336,-1.0,AUTO,0.01873938584079345,0.03111656631032626,1.0373860994974773,0.09906102220217387,-0.036822753647963204,-0.003878074542929729,-35.36240243333334,149.16688443333334,45155.666666666664,-6.0,0.3333333333333333,-10.333333333333334,1500.0
20:58:06,-3.6666666666666665,0.6666666666666666,-1035.3333333333333,-109.33333333333333,-16.0,2.3333333333333335,AUTO,0.018785047344863415,-0.02860060582558314,1.035645882288615,-0.11164923012256622,-0.01986207750936349,-0.00043966776380936307,-35.3624017,149.16688356666666,45172.333333333336,-6.333333333333333,19.666666666666668,-8.666666666666666,1500.0
20:58:08,-2.0,-19.0,-985.0,-378.0,-8.333333333333334,5.666666666666667,BRAKE,0.016254290317495663,0.024584912384549778,1.036849856376648,-0.3799566725889842,-0.012886804218093554,0.0030662833402554193,-35.362398666666664,149.16688906666664,45698.333333333336,-7.666666666666667,26.666666666666668,-21.333333333333332,1500.0
20:58:10,1.6666666666666667,10.333333333333334,-999.0,313.6666666666667,1.6666666666666667,2.3333333333333335,BRAKE,0.009041445174564918,0.013172660333414873,1.0368814865748088,0.3122224360704422,-0.0018197840545326471,-0.00013620786679287752,-35.36239890000001,149.1668919,45929.666666666664,-13.666666666666666,10.0,-5.666666666666667,1500.0
20:58:12,-2.3333333333333335,75.33333333333333,-918.3333333333334,1824.3333333333333,7.0,13.333333333333334,AUTO,0.021080989701052506,0.0004934846559384217,1.0362706184387207,1.8201330105463664,0.0033172035279373326,0.010332745189468065,-35.362399,149.16689323333333,45110.666666666664,0.0,10.0,148.33333333333334,1500.0
20:58:14,-2.6666666666666665,18.333333333333332,-1088.0,73.0,10.666666666666666,5.666666666666667,AUTO,0.008222095057135448,0.006265131911883752,1.0364770491917927,0.06765933831532796,0.007290725673859318,0.0031818232188622155,-35.3623974,149.1668950333333,42405.666666666664,-1.0,11.333333333333334,30.666666666666668,1500.0
20:58:16,0.0,-11.0,-998.6666666666666,-51.0,6.666666666666667,2.3333333333333335,AUTO,0.004382920451462269,0.013458363711833954,1.0366518100102742,-0.052270688116550446,0.0031455225932101407,-3.894402955969175e-05,-35.3623967,149.1668972,42511.333333333336,-3.6666666666666665,6.333333333333333,-25.0,1500.0
20:58:18,0.3333333333333333,18.333333333333332,-989.0,318.6666666666667,2.3333333333333335,6.0,AUTO,-0.0001772502437233925,0.012867640083034834,1.0368324518203735,0.3156876762708028,-0.0016668331809341908,0.0037666038454820714,-35.36239696666667,149.16689816666667,42830.666666666664,-2.6666666666666665,-1.6666666666666667,-6.0,1500.0
20:58:20,-2.3333333333333335,-15.333333333333334,-1020.0,-222.0,8.333333333333334,3.0,AUTO,0.0007976582855917513,-0.0035363233958681426,1.0367291768391926,-0.22336327036221823,0.004732223538060983,0.0008786877927680811,-35.362396933333336,149.16689853333335,42938.333333333336,6.0,5.666666666666667,-20.0,1500.0
20:58:22,-2.6666666666666665,-7.333333333333333,-976.6666666666666,-145.33333333333334,14.666666666666666,4.0,BRAKE,-0.0014750953608502944,0.02010614921649297,1.0358148415883381,-0.1479735958079497,0.010585506912320852,0.0011641574868311484,-35.362395533333334,149.1669017,43684.0,9.0,8.0,-38.666666666666664,1500.0
20:58:24,-1.6666666666666667,-13.0,-993.6666666666666,-74.66666666666667,5.0,3.6666666666666665,BRAKE,-0.00016043657281746468,0.010129508251945177,1.0363342761993408,-0.07531280318895976,0.001099810004234314,0.0008709564960251251,-35.36239496666666,149.16690303333334,44109.0,4.0,-1.3333333333333333,-8.666666666666666,1500.0
20:58:26,-0.3333333333333333,32.0,-910.3333333333334,393.3333333333333,-6.333333333333333,6.666666666666667,ALT_HOLD,-0.0014886962405095498,0.001389075855210346,1.0356909434000652,0.38859585920969647,-0.010729919498165449,0.004028263812263806,-35.362394599999995,149.1669034,44180.666666666664,4.333333333333333,-0.3333333333333333,20.0,1500.0
20:58:28,-2.0,-72.66666666666667,-1130.3333333333333,-1553.6666666666667,13.333333333333334,5.333333333333333,AUTO,-0.011810721984754005,0.009422734069327513,1.0358963807423909,-1.5549983183542888,0.009333582983041802,0.002763849993546804,-35.3623932,149.1669047,41547.0,8.0,6.0,147.0,1500.0
20:58:30,-0.6666666666666666,-12.666666666666666,-1020.0,-274.6666666666667,5.0,2.0,AUTO,-0.000722232119490703,0.01190510547409455,1.036649465560913,-0.27698253467679024,0.0010908514571686585,-0.00044167837283263606,-35.362392166666666,149.16690616666668,40606.333333333336,2.0,2.3333333333333335,-14.0,1500.0
20:58:32,0.6666666666666666,-15.666666666666666,-987.0,-156.33333333333334,3.3333333333333335,2.3333333333333335,AUTO,-0.005760191008448601,0.011824768347044786,1.0364396969477336,-0.15755544106165567,-0.0005762344226241112,-0.0003487075058122476,-35.36239226666667,149.1669071,41005.0,2.0,-3.0,-15.0,1500.0
20:58:34,-1.0,25.0,-1014.6666666666666,517.6666666666666,1.0,5.0,AUTO,-0.00030088684676835936,0.005172660341486335,1.0364044904708862,0.5151262978712717,-0.002841114066541195,0.002327095872412125,-35.3623926,149.1669072,41110.666666666664,6.0,-5.666666666666667,1.0,1500.0
20:58:36,-3.3333333333333335,-2.3333333333333335,-1013.6666666666666,-87.0,11.333333333333334,3.0,AUTO,0.0022124016735081873,0.004403426855181654,1.0358892281850178,-0.08952382206916809,0.007404410590728124,9.870311866203944e-05,-35.362391800000005,149.16690756666665,41431.0,8.0,2.0,-33.666666666666664,1500.0
20:58:38,-0.3333333333333333,-8.666666666666666,-972.6666666666666,-359.0,-0.6666666666666666,5.333333333333333,AUTO,0.004817109011734526,0.013706418996055921,1.0365945895512898,-0.3615745175629854,-0.005485072576751311,0.0023491377166161933,-35.3623904,149.16690823333332,42032.0,-3.0,0.0,-8.0,1500.0
20:58:40,0.3333333333333333,10.666666666666666,-1029.0,212.33333333333334,0.6666666666666666,3.6666666666666665,AUTO,0.002938683998460571,0.001869252553054442,1.0366820494333904,0.2096337197969357,-0.004071442099908988,0.0006823907606303692,-35.36239053333333,149.16690843333333,42058.666666666664,-4.333333333333333,4.0,-9.0,1500.0
20:58:42,-0.3333333333333333,2.3333333333333335,-989.6666666666666,109.0,16.0,3.6666666666666665,AUTO,-0.007165518434097369,0.013983263944586119,1.035814642906189,0.10667188962300618,0.012086172277728716,0.0007492258058240017,-35.3623909,149.16691089999998,42788.0,6.333333333333333,4.333333333333333,-48.666666666666664,1500.0
20:58:44,0.0,19.333333333333332,-1001.6666666666666,359.0,2.6666666666666665,3.6666666666666665,AUTO,-0.001443136405820648,0.00537409633398056,1.0366592407226562,0.356432984272639,-0.0017457313369959593,0.0007691841262082258,-35.3623909,149.1669115,43252.0,6.666666666666667,-6.666666666666667,1.6666666666666667,1500.0
20:58:46,-2.3333333333333335,-6.666666666666667,-1036.0,-39.0,14.333333333333334,2.0,AUTO,0.003342746136089166,-0.0006362159814064702,1.0362154642740886,-0.04009079933166504,0.010160686758657297,-0.0009328143981595834,-35.36239006666666,149.16691173333334,43437.0,9.0,5.0,-37.666666666666664,1500.0
20:58:48,-0.6666666666666666,-10.666666666666666,-975.3333333333334,-261.0,-10.0,6.333333333333333,BRAKE,-0.002417448442429304,0.014879123928646246,1.035669485727946,-0.26269731173912686,-0.01490242468814055,0.0034581654084225497,-35.362389033333336,149.16691360000002,44399.333333333336,2.6666666666666665,0.3333333333333333,-31.0,1500.0
20:58:50,-0.3333333333333333,6.333333333333333,-996.6666666666666,316.0,4.666666666666667,3.3333333333333335,BRAKE,0.00528082965562741,0.00753784691914916,1.036439021428426,0.3148459692796071,0.0006350299809128046,0.0001792579423636198,-35.362388833333334,149.1669138,44743.0,2.3333333333333335,-0.6666666666666666,-7.333333333333333,1500.0
20:58:52,0.0,-30.333333333333332,-868.0,-768.6666666666666,-1.6666666666666667,2.0,ALT_HOLD,-0.01153680169954896,0.0007969668270864835,1.0365755558013916,-0.7701997111241022,-0.00642493258540829,-0.0005304921263207992,-35.362388466666665,149.1669140333333,44776.0,3.0,1.3333333333333333,29.666666666666668,1500.0
20:58:54,1.3333333333333333,8.0,-1118.3333333333333,1154.3333333333333,17.0,-0.6666666666666666,AUTO,0.012375197101694843,0.015424210267762343,1.0359300374984741,1.1567986806233723,0.012630791248132786,-0.003668618698914846,-35.362388933333335,149.1669173,42015.666666666664,6.0,10.333333333333334,136.33333333333334,1500.0
20:58:56,1.0,0.0,-1017.6666666666666,131.0,-1.6666666666666667,3.6666666666666665,AUTO,-0.024372007697820663,0.013860851836701235,1.035769780476888,0.13099719087282816,-0.005940880471219619,0.0003681270560870568,-35.36239033333334,149.1669203,41242.333333333336,21.0,-13.0,-15.666666666666666,1500.0
20:58:58,-1.3333333333333333,20.0,-989.0,309.3333333333333,5.0,3.6666666666666665,AUTO,-0.012496108810106913,0.007325442818303903,1.0362974802652996,0.30781833330790204,0.0011475016362965107,0.0003782319836318493,-35.36239016666667,149.16692016666664,41647.333333333336,24.333333333333332,-18.0,-13.0,1500.0
20:59:00,-2.3333333333333335,-20.666666666666668,-1003.6666666666666,-354.6666666666667,3.0,3.3333333333333335,AUTO,0.005002379495029648,0.003505440584073464,1.036145289738973,-0.35290008286635083,-0.0014622958066562812,0.0004738389203945796,-35.36238843333333,149.1669186,41725.0,13.0,-9.0,1.6666666666666667,1500.0
20:59:02,-2.3333333333333335,6.0,-1015.3333333333334,156.33333333333334,9.0,2.3333333333333335,AUTO,0.015489871613681316,0.006039721580843131,1.036057988802592,0.15627390146255493,0.004604914070417483,-0.0005665796343237162,-35.36238673333333,149.16691793333334,42050.333333333336,-1.0,3.6666666666666665,-33.666666666666664,1500.0
20:59:04,0.0,20.0,-973.6666666666666,384.0,2.6666666666666665,5.0,AUTO,0.01831729554881652,0.010926135194798311,1.0364318291346233,0.3829589436451594,-0.0015700783890982468,0.0018489702294270198,-35.36238586666666,149.16691813333333,42643.666666666664,-11.666666666666666,5.0,-7.333333333333333,1500.0
20:59:06,-0.3333333333333333,-3.6666666666666665,-1030.0,82.33333333333333,5.666666666666667,4.333333333333333,AUTO,0.01711217841754357,0.004828758692989747,1.036324143409729,0.08265792826811473,0.001540390696997444,0.0013318242660413186,-35.3623858,149.16691813333333,42676.666666666664,-13.333333333333334,7.333333333333333,-10.333333333333334,1500.0
20:59:08,-0.3333333333333333,-5.666666666666667,-985.0,-24.0,8.333333333333334,3.6666666666666665,BRAKE,0.007952164800371975,0.011499086084465185,1.0359224478403728,-0.024721366663773853,0.0041498662903904915,0.0009518376706788937,-35.3623859,149.16691906666668,43409.333333333336,-9.333333333333334,8.0,-44.333333333333336,1500.0
20:59:10,0.25,9.75,-995.0,168.0,3.0,4.5,BRAKE,0.011099393042968586,0.00853619840927422,1.0368157029151917,0.16612647473812103,-0.0017973868525587022,0.0011738011380657554,-35.362386,149.1669194,43895.25,-8.75,3.75,-11.0,1500.0
20:59:12,0.0,-19.0,-998.0,-325.6666666666667,3.6666666666666665,2.6666666666666665,ALT_HOLD,0.00838469659599165,0.007572981994599104,1.0363864103953044,-0.32596836735804874,-0.0002928876783698797,-0.0006646189528206984,-35.3623862,149.1669194,44038.0,-10.333333333333334,6.0,-4.0,1500.0
20:59:14,-1.3333333333333333,7.0,-920.0,1196.0,7.333333333333333,4.333333333333333,AUTO,0.03273714830478033,0.0008911293116398156,1.0351861317952473,1.1997209390004475,0.003048742345223824,0.0008095613059898218,-35.3623862,149.16692006666668,43016.333333333336,0.0,9.333333333333334,161.0,1500.0
20:59:16,-1.6666666666666667,0.3333333333333333,-1079.0,289.3333333333333,8.333333333333334,6.333333333333333,AUTO,0.016355296596884727,0.010406648429731527,1.0361388127009075,0.28940047820409137,0.0040874310458699865,0.0027461659628897905,-35.36238516666667,149.1669213,40533.333333333336,-1.6666666666666667,5.333333333333333,23.666666666666668,1500.0
20:59:18,1.0,7.333333333333333,-997.3333333333334,67.66666666666667,3.0,3.6666666666666665,AUTO,0.00038047845009714365,0.010609989364941915,1.0362601677576702,0.06488377352555592,-0.0018393237454195817,0.00023082193608085314,-35.3623852,149.1669219,40707.333333333336,-4.666666666666667,1.0,-21.666666666666668,1500.0
20:59:20,0.0,-18.333333333333332,-988.0,-313.6666666666667,0.3333333333333333,3.6666666666666665,BRAKE,-0.005858185196605821,0.00700803908209006,1.0365853309631348,-0.3138962686061859,-0.00426681883012255,0.00034728778215746087,-35.36238603333334,149.1669222,40984.333333333336,1.6666666666666667,-2.3333333333333335,-2.0,1500.0
20:59:22,-0.3333333333333333,22.333333333333332,-1002.3333333333334,406.0,8.0,4.333333333333333,BRAKE,0.006660053467688461,0.005802427728970845,1.0365662177403767,0.4037460635105769,0.003709981683641672,0.0006749488723774751,-35.36238573333333,149.16692173333334,40984.0,1.6666666666666667,-0.3333333333333333,0.0,1500.0
20:59:24,-0.3333333333333333,-25.666666666666668,-994.0,-386.6666666666667,4.0,1.0,ALT_HOLD,0.0018292838940396905,0.007394724215070407,1.0362766186396282,-0.38689147296827286,-0.0004095841043939193,-0.0027195853957285485,-35.362385466666666,149.16692156666667,41002.0,0.0,0.0,0.0,1500.0
20:59:27,-3.0,-3.0,-1154.3333333333333,-644.3333333333334,4.333333333333333,3.0,AUTO,-0.02066853642463684,0.012267603538930416,1.0356768369674683,-0.6502289474010468,0.00039182230830192566,-0.0007097233707706133,-35.36238456666666,149.16692293333335,37902.666666666664,5.0,4.0,105.33333333333333,1500.0
20:59:28,-0.6666666666666666,29.333333333333332,-1077.6666666666667,479.6666666666667,8.333333333333334,4.666666666666667,AUTO,-0.003306556260213256,0.01425865013152361,1.035597284634908,0.4768284112215042,0.0041658760358889895,0.001253975477690498,-35.3623845,149.1669236,37431.0,4.333333333333333,-0.3333333333333333,24.0,1500.0
20:59:30,0.0,-11.333333333333334,-996.0,-272.0,1.6666666666666667,3.6666666666666665,AUTO,-0.004377543382967512,0.009816291431585947,1.0356751680374146,-0.2740553667147954,-0.0028407713398337364,-7.270400722821553e-05,-35.36238426666667,149.1669239,37623.666666666664,4.0,-7.666666666666667,-19.666666666666668,1500.0
20:59:32,0.0,1.0,-987.3333333333334,247.33333333333334,4.666666666666667,2.3333333333333335,BRAKE,0.010155600495636463,0.005432493363817533,1.0366106033325195,0.24706431229909262,0.0005082053442796072,-0.000943158675606052,-35.3623839,149.166923,37903.666666666664,0.0,-2.3333333333333335,-0.3333333333333333,1500.0
20:59:34,-0.3333333333333333,-8.666666666666666,-1004.0,-373.6666666666667,1.6666666666666667,4.333333333333333,BRAKE,-0.0034888675048326454,0.0062582604587078094,1.0363489389419556,-0.37643978496392566,-0.0030061155557632446,0.0006190758819381396,-35.3623837,149.1669225,37895.666666666664,-0.3333333333333333,0.6666666666666666,0.6666666666666666,1500.0
20:59:36,0.6666666666666666,12.666666666666666,-1008.6666666666666,326.0,5.666666666666667,2.0,ALT_HOLD,0.0004692729562520981,0.007637792577346166,1.0367312828699748,0.3248531700422366,0.0012332495922843616,-0.0014255862527837355,-35.36238406666667,149.16692266666666,37907.0,1.0,0.3333333333333333,0.0,1500.0
20:59:38,-1.0,-24.666666666666668,-924.3333333333334,-1399.6666666666667,3.3333333333333335,1.0,AUTO,-0.026457034051418304,0.0007833426934666932,1.0354307492574055,-1.4046366612116497,-0.000734657592450579,-0.0025382482757170997,-35.36238453333333,149.1669234,36827.666666666664,5.333333333333333,6.0,163.0,1500.0
20:59:41,-0.6666666666666666,-1.6666666666666667,-1006.3333333333334,-187.66666666666666,2.3333333333333335,3.6666666666666665,AUTO,0.004726611931497852,0.007102788736422856,1.0366366704305012,-0.1900200049082438,-0.00203732765900592,0.0005437170621007681,-35.362383933333334,149.16692479999998,34328.0,1.3333333333333333,0.0,-18.666666666666668,1500.0
20:59:42,-0.3333333333333333,-7.666666666666667,-998.0,-11.333333333333334,4.0,1.6666666666666667,AUTO,0.010879197157919407,0.00635404388109843,1.036736011505127,-0.011525191366672516,0.0001377450923124949,-0.0018672889564186335,-35.362383666666666,149.16692463333334,34484.0,-1.0,1.0,-21.0,1500.0
20:59:44,0.0,18.0,-998.3333333333334,364.6666666666667,4.666666666666667,3.3333333333333335,BRAKE,0.006286334712058306,0.005916033250590165,1.0364406903584797,0.3618929112950961,0.0002515421559413274,-0.000673012730355064,-35.3623836,149.1669243,34772.0,-3.6666666666666665,3.6666666666666665,-5.0,1500.0
20:59:47,0.3333333333333333,-17.333333333333332,-996.0,-335.6666666666667,3.3333333333333335,2.3333333333333335,ALT_HOLD,0.001634608410919706,0.006187898727754752,1.0367066065470378,-0.3370894466837247,-0.0011511211438725393,-0.0011318814164648454,-35.3623836,149.1669244,34890.333333333336,-3.6666666666666665,4.666666666666667,-0.6666666666666666,1500.0
20:59:48,0.0,15.666666666666666,-885.6666666666666,585.3333333333334,1.0,0.0,ALT_HOLD,0.010299349203705788,0.0012344840021493535,1.036357045173645,0.5853186746438345,-0.0038260971972097955,-0.004825443960726261,-35.3623836,149.16692443333332,34845.0,-2.0,5.333333333333333,28.333333333333332,1500.0
20:59:51,0.3333333333333333,-0.6666666666666666,-1059.6666666666667,267.6666666666667,5.666666666666667,1.6666666666666667,AUTO,0.006234097857183467,0.010798226731518904,1.0369847615559895,0.2670196294784546,0.0015394114889204502,-0.001698015412936608,-35.36238253333334,149.16692563333334,31257.333333333332,0.0,3.6666666666666665,8.666666666666666,1500.0
20:59:52,0.3333333333333333,7.0,-1020.3333333333334,12.666666666666666,5.333333333333333,4.333333333333333,AUTO,-0.008435275017594298,0.011163547014196714,1.0365731716156006,0.00996622567375501,0.0009398551192134619,0.0009745101754864057,-35.362382700000005,149.16692606666666,31285.0,0.3333333333333333,0.3333333333333333,-15.666666666666666,1500.0
20:59:55,-0.3333333333333333,-24.666666666666668,-984.3333333333334,-499.6666666666667,1.0,1.6666666666666667,BRAKE,-0.008398075588047504,0.004781405907124281,1.0367746353149414,-0.5005335112412771,-0.0035755229958643517,-0.0016823602685083945,-35.3623833,149.166926,31769.0,7.666666666666667,-3.6666666666666665,0.0,1500.0
20:59:57,-1.0,12.0,-1002.6666666666666,-1.6666666666666667,6.666666666666667,5.0,BRAKE,-0.0007402360594520966,0.004270674816022317,1.03684397538503,-0.0052115147312482195,0.0026528285816311836,0.0012959581799805164,-35.3623828,149.16692536666667,31769.0,5.0,-0.3333333333333333,-0.3333333333333333,1500.0
20:59:59,0.0,12.5,-1011.0,499.5,6.0,1.5,ALT_HOLD,0.003711738002796968,0.006362170757104953,1.0366313457489014,0.1302625040213267,0.0007414467787990967,-0.0019749714992940426,-35.3623825,149.1669252,31786.0,3.6666666666666665,0.3333333333333333,-0.3333333333333333,1500.0
21:00:01,-2.3333333333333335,9.333333333333334,-948.6666666666666,-781.6666666666666,4.666666666666667,2.6666666666666665,AUTO,-0.011247489601373672,0.0006640306673943996,1.034998615582784,-0.789193739493688,0.0009162152806917826,-0.001083116823186477,-35.36238243333333,149.16692616666666,30282.666666666668,2.3333333333333335,10.0,176.0,1500.0
21:00:02,-1.6666666666666667,-83.33333333333333,-1130.6666666666667,-1338.0,20.666666666666668,-7.0,AUTO,-0.012947203901906809,0.010172244471808275,1.0360730091730754,-1.3358405629793804,0.016354162245988846,-0.011001726534838477,-35.3623825,149.16692716666668,28977.666666666668,3.0,8.666666666666666,139.0,1500.0
21:00:05,0.5,-23.0,-998.5,-388.5,0.5,1.0,AUTO,-0.02445082056025664,0.009536545723676682,1.0364385445912678,-0.26926624154051143,-0.003639970285197099,0.00022876751609146595,-35.362384066666664,149.1669294333333,28393.666666666668,14.666666666666666,-11.0,-21.333333333333332,1500.0
21:00:07,0.0,23.0,-997.0,503.0,3.3333333333333335,4.333333333333333,AUTO,-0.0054661002941429615,0.0059412382543087006,1.0366193056106567,0.5019998451073965,-0.00015748594887554646,0.0010228883475065231,-35.3623841,149.16692903333333,28630.333333333332,19.0,-12.333333333333334,-1.3333333333333333,1500.0
21:00:09,-1.5,-19.5,-1016.0,-373.0,2.0,1.5,AUTO,-0.002296082073977838,0.004531759303063154,1.0360427697499592,-0.23579033340017,-0.0005856906063854694,-0.0006130809585253397,-35.36238343333333,149.16692816666668,28789.333333333332,14.666666666666666,-8.0,-25.333333333333332,1500.0
21:00:11,-2.0,-5.0,-976.5,-208.0,2.5,4.5,AUTO,0.01219438419987758,0.0033859039346377053,1.036083181699117,0.02690608302752177,0.0008509527736653885,0.0014903752598911524,-35.3623821,149.166927,29574.666666666668,2.0,0.0,-34.0,1500.0
21:00:13,-0.5,-8.0,-993.5,131.0,5.5,1.5,AUTO,0.018316689257820446,0.00512318251033624,1.0368253389994304,-0.1497405618429184,0.0009068850583086411,-0.0012171043393512566,-35.362381,149.1669262,29812.5,-8.5,8.0,2.0,1500.0
21:00:15,1.0,11.5,-1029.5,128.0,3.5,4.5,AUTO,0.01240197786440452,0.006543402249614398,1.0365582704544067,0.11931279798348744,0.0003273227096845706,1.6633886843919754e-05,-35.362381,149.16692603333334,30142.333333333332,-15.333333333333334,11.666666666666666,-44.333333333333336,1500.0
21:00:17,0.5,20.0,-965.0,423.0,5.0,3.5,BRAKE,0.00839075050316751,0.006860802415758371,1.0368708372116089,0.42080196738243103,0.001063978299498558,0.0005299985641613603,-35.36238175,149.16692655,31007.5,-9.5,8.5,-21.5,1500.0
21:00:19,0.5,-30.5,-997.5,-397.0,4.0,0.0,BRAKE,1.822701112056772e-05,0.006338141082475583,1.0364283323287964,-0.43899403512477875,-0.0012777924227217834,-0.0011481800271819036,-35.3623824,149.16692709999998,31132.666666666668,-2.6666666666666665,4.0,-1.3333333333333333,1500.0
21:00:21,-1.0,24.5,-1004.0,185.0,3.5,4.5,BRAKE,0.0016894132131710649,0.005871256114915013,1.0367796421051025,0.18098823726177216,-0.00028712814673781395,0.0008944120490923524,-35.3623828,149.1669274,31171.5,-1.0,3.0,-1.5,1500.0
21:00:23,-1.5,-98.0,-945.0,-1863.5,4.5,-16.5,ALT_HOLD,-0.004594674954811732,0.0006123403048453232,1.0356293519337971,-1.573170820871989,0.0046975743025541306,-0.02176571326951186,-35.3623823,149.16692773333332,29752.0,7.333333333333333,4.666666666666667,173.0,1500.0
21:00:25,2.0,-26.0,-1065.5,-578.5,3.0,2.0,AUTO,-0.022569955326616764,0.012588352430611849,1.0368365049362183,-0.5807496160268784,-0.0007382365874946117,-0.001648111967369914,-35.362382499999995,149.16692940000001,27584.5,8.0,-0.5,15.5,1500.0
21:00:27,0.0,-14.5,-991.0,-121.0,-0.5,2.0,AUTO,-0.024660501008232433,0.007689018112917741,1.036099910736084,-0.19403737286726633,-0.005496367656936248,-0.0004734736867249012,-35.362384033333335,149.16693056666668,27858.666666666668,23.333333333333332,-15.333333333333334,-20.0,1500.0
21:00:29,-1.0,32.5,-995.0,586.5,3.5,2.0,AUTO,0.005506771597235153,0.002724708911652366,1.0364013115564983,0.47720205783843994,0.000980864278972149,-0.0005064147990196943,-35.3623829,149.16692923333332,28095.333333333332,19.666666666666668,-11.0,0.6666666666666666,1500.0
21:00:31,-1.5,-22.5,-1022.5,-490.0,5.5,1.5,AUTO,0.001608586584097793,0.005165417678654194,1.036902129650116,-0.4890136569738388,0.0017455436754971743,-0.0017641858430579305,-35.36238175,149.16692834999998,28157.0,7.5,-1.5,-16.5,1500.0
21:00:33,0.0,-13.5,-980.0,-159.0,2.5,2.5,AUTO,0.004070183698786423,0.006391763919964433,1.0362655520439148,-0.1570736989378929,-0.001579777104780078,-0.0008725001243874431,-35.3623813,149.1669279,28841.0,0.0,2.0,-35.5,1500.0
21:00:35,0.0,31.5,-991.5,616.5,3.0,2.5,AUTO,0.011531542986631393,0.005817621247842908,1.0369027853012085,0.6150692850351334,-0.0010635405778884888,3.0405237339437008e-05,-35.3623813,149.1669279,29125.0,-1.0,2.5,2.5,1500.0
21:00:37,0.0,-9.0,-1031.0,-282.5,1.5,2.0,AUTO,-0.0014687078073620796,0.0063685833010822535,1.0363168120384216,-0.28274964541196823,-0.0019698459655046463,-0.0005290504777804017,-35.3623815,149.1669278,29342.5,-1.5,2.5,-37.5,1500.0
21:00:39,-0.5,9.5,-958.5,-64.5,2.0,5.5,AUTO,0.004076839170011226,0.005819766549393535,1.0363087058067322,-0.06688950955867767,-0.001450914889574051,0.0024300500517711043,-35.3623814,149.1669277,30253.0,-2.0,2.5,-24.0,1500.0
21:00:41,0.5,-3.5,-1017.5,209.0,1.0,-0.5,AUTO,0.01169938175007701,0.00672674854286015,1.036731481552124,0.21129144728183746,-0.0025250205071642995,-0.0034688612213358283,-35.3623812,149.1669276,30326.5,-4.5,3.5,1.0,1500.0
21:00:43,0.0,0.5,-995.5,-264.5,2.5,2.0,BRAKE,0.006798995425924659,0.00547166564501822,1.0365111231803894,-0.2668944410979748,-0.0013078382471576333,-0.0008551158243790269,-35.3623809,149.1669272,30499.0,-6.5,5.5,-5.5,1500.0
21:00:45,0.0,-12.0,-999.0,20.0,4.5,1.5,BRAKE,0.013895324431359768,0.0063546523451805115,1.0367424488067627,0.0217016339302063,0.0014339463086798787,-0.0012916921987198293,-35.362381,149.1669273,30572.5,-7.5,7.0,-1.0,1500.0
21:00:47,-2.0,87.5,-957.5,1387.0,8.5,7.5,ALT_HOLD,0.010550068109296262,0.0010399925231467932,1.0343222618103027,1.3794845938682556,0.005291973357088864,0.004828371223993599,-35.36238125,149.16692825,29345.0,0.5,10.5,170.0,1500.0
21:00:49,0.5,28.0,-1064.5,512.0,1.5,4.0,AUTO,-0.0003653023159131408,0.010892745107412338,1.0370984077453613,0.509856253862381,-0.0019548353739082813,0.0008901173714548349,-35.3623815,149.1669302,26961.0,2.0,3.0,15.5,1500.0
21:00:51,0.0,15.0,-1001.3333333333334,422.6666666666667,2.6666666666666665,1.3333333333333333,AUTO,-0.002985765070964893,0.0069146341023345785,1.0362290541330974,0.42267248034477234,-0.0004203311012436946,-0.0013237550544242065,-35.362382133333334,149.16693073333332,27159.333333333332,9.0,-5.0,-21.0,1500.0
21:00:53,-0.5,-22.0,-990.5,-595.5,0.0,3.5,AUTO,-0.0039765601977705956,0.0043355380184948444,1.0368003249168396,-0.595765233039856,-0.0032430875580757856,0.0005299076437950134,-35.36238175,149.16693014999998,27451.5,9.0,-3.5,0.5,1500.0
21:00:55,-0.5,19.5,-1021.5,382.0,8.0,4.5,AUTO,0.006210327730514109,0.006253290688619018,1.0368923544883728,0.38170717656612396,0.004448201623745263,0.0014044878771528602,-35.3623814,149.1669298,27569.5,3.0,0.0,-21.5,1500.0
21:00:57,0.5,22.0,-975.5,335.0,2.5,3.5,AUTO,0.00259851774899289,0.005660144379362464,1.0365105271339417,0.33393145725131035,-0.0015605087392032146,0.0005660670576617122,-35.3623814,149.1669297,28278.0,1.5,0.0,-29.0,1500.0
21:00:59,-1.0,-30.0,-998.0,-428.5,0.0,-2.5,AUTO,6.33064191788435e-05,0.005731846671551466,1.0366541743278503,-0.42644431442022324,-0.003974311053752899,-0.005774909746833146,-35.3623815,149.1669297,28451.0,3.0,0.0,2.5,1500.0
21:01:01,0.0,15.0,-1022.0,267.0,4.0,1.0,AUTO,0.008847472490742803,0.006527929566800594,1.0363196730613708,0.2671472504734993,0.0007548908470198512,-0.0012961524771526456,-35.36238135,149.16692934999998,28845.0,0.0,0.0,-46.5,1500.0
21:01:03,-1.0,29.0,-965.0,569.0,3.0,3.5,AUTO,0.009736771695315838,0.0048650531098246574,1.036895513534546,0.5682178437709808,-0.000187684316188097,0.0010072776349261403,-35.3623812,149.1669291,29647.0,-1.5,2.5,-9.5,1500.0
21:01:05,0.5,-27.5,-996.0,-231.0,2.0,-0.5,BRAKE,0.005947258439846337,0.006391174392774701,1.0369576811790466,-0.22773004695773125,-0.0018358470406383276,-0.003465177258476615,-35.362381150000004,149.16692905000002,29685.0,-2.0,4.0,-0.5,1500.0
21:01:07,0.5,18.5,-1001.5,60.0,2.5,6.0,BRAKE,-0.007135245483368635,0.007827586261555552,1.0364540815353394,0.05735491216182709,-0.0004929685965180397,0.0029916010098531842,-35.36238175,149.16692965,29719.5,0.5,1.5,-1.0,1500.0
21:01:09,0.0,-91.0,-934.5,-827.0,-1.0,-13.5,ALT_HOLD,0.012029688572511077,0.0006270553567446768,1.035274088382721,-0.8190852999687195,-0.004996145376935601,-0.016809518449008465,-35.36238245,149.1669311,28302.5,4.5,9.0,176.0,1500.0
21:01:11,-0.5,-27.5,-1051.5,-510.0,-1.0,2.0,AUTO,-0.0098466114141047,0.010473867878317833,1.0365314483642578,-0.5084962546825409,-0.005274615716189146,-0.00025668309535831213,-35.3623832,149.16693345,26048.5,6.5,-0.5,8.5,1500.0
21:01:17,-0.5,-24.5,-993.0,-558.0,0.0,3.0,BRAKE,-0.0016681806009728462,0.006081675412133336,1.0369388461112976,-0.5570124089717865,-0.003576837363652885,0.0005344083765521646,-35.3623824,149.1669324,26638.0,0.0,1.0,-6.0,1500.0
21:01:19,0.0,25.5,-1005.5,507.5,5.5,3.5,BRAKE,0.011971153318881989,0.005769720301032066,1.0371695756912231,0.5059508830308914,0.0026419874047860503,0.0013330922229215503,-35.3623822,149.1669322,26716.5,-3.0,4.0,-1.5,1500.0
21:01:21,0.0,-66.0,-831.0,-1172.5,-1.0,-3.0,ALT_HOLD,-0.010584166506305337,0.00043313170317560434,1.0361770987510681,-1.1694335043430328,-0.004766126163303852,-0.0059606877621263266,-35.3623828,149.1669329,26626.0,2.5,4.5,53.5,1500.0
21:01:23,1.0,43.5,-1192.5,1232.0,-8.0,1.0,AUTO,-0.0007408382880385034,0.013271150179207325,1.0346196293830872,1.2325292825698853,-0.01170837925747037,-0.0015816896921023726,-35.36238365,149.1669356,23651.0,6.0,7.0,114.0,1500.0
21:01:25,1.0,-22.0,-1007.0,-309.5,-2.5,0.5,AUTO,-0.03410894609987736,0.009838844183832407,1.0361590385437012,-0.30724469013512135,-0.0062730570789426565,-0.0015361362602561712,-35.362385599999996,149.16693765000002,23152.5,23.0,-12.0,-18.5,1500.0
21:01:27,-1.5,4.0,-989.0,249.5,0.5,3.5,AUTO,-0.008250742685049772,0.003527890658006072,1.036469578742981,0.2522175535559654,-0.002682148478925228,0.0009781793924048543,-35.3623854,149.16693700000002,23547.5,30.0,-17.0,-10.5,1500.0
21:01:29,-1.5,5.5,-1013.5,-238.0,2.0,5.0,AUTO,-0.002155591413611546,0.003900875919498503,1.0369707942008972,-0.23812802135944366,-0.0011440266389399767,0.0030025984160602093,-35.3623837,149.1669357,23592.5,16.0,-7.0,1.0,1500.0
21:01:31,-1.0,-9.5,-1013.5,-307.0,0.0,4.0,AUTO,0.0022876584553159773,0.0054561716970056295,1.0361022353172302,-0.3054620549082756,-0.00355355953797698,0.0018709885189309716,-35.362382749999995,149.1669349,23966.0,5.0,-1.5,-35.5,1500.0
21:01:33,-0.5,-17.5,-974.5,-180.0,3.5,5.0,AUTO,0.015981913544237614,0.004909882787615061,1.0369127988815308,-0.17620447278022766,0.0006950151873752475,0.002750492887571454,-35.362381850000006,149.16693405,24531.0,-3.5,4.5,-5.0,1500.0
21:01:37,0.0,-28.0,-990.5,-362.0,0.0,-3.0,BRAKE,0.012013196013867855,0.005153254838660359,1.0368953347206116,-0.35863246768713,-0.0028152605518698692,-0.0060866172425448895,-35.36238015,149.16693285000002,24572.0,-7.0,5.0,0.0,1500.0
21:01:39,-2.0,68.5,-936.5,258.5,13.0,-20.5,ALT_HOLD,-0.002176355221308768,0.0010854488355107605,1.0337768197059631,0.25188447907567024,0.010176603216677904,-0.023556863889098167,-35.3623786,149.16693205,23187.5,3.0,5.0,172.5,1500.0
21:01:41,-2.5,26.0,-1079.0,535.0,3.5,1.5,AUTO,0.02783409971743822,0.0058736130595207214,1.0367788076400757,0.5353999435901642,0.0006404222222045064,-0.00032877206103876233,-35.362376499999996,149.1669313,20915.0,-9.5,8.5,10.5,1500.0
21:01:43,1.0,4.0,-998.0,-128.5,3.5,2.5,AUTO,0.019039010629057884,0.007192901568487287,1.0368082523345947,-0.12983737140893936,0.0008415449410676956,0.00032895244657993317,-35.362375650000004,149.1669307,21190.0,-21.5,14.5,-21.5,1500.0
21:01:45,2.0,-22.5,-984.0,-102.0,-1.0,-2.5,AUTO,0.009367843391373754,0.006801882991567254,1.0373516082763672,-0.09937459975481033,-0.004178432049229741,-0.005221859784796834,-35.362376749999996,149.16693135,21434.0,-14.5,10.5,0.0,1500.0
21:01:49,0.5,11.5,-982.0,131.0,3.5,3.5,BRAKE,-0.005344578763470054,0.006810955237597227,1.0367476344108582,0.12915069609880447,0.0007627453887835145,0.001589287188835442,-35.362379000000004,149.1669326,22252.0,3.5,-1.0,-29.5,1500.0
21:01:51,0.5,-32.5,-983.5,-617.5,0.0,2.0,BRAKE,-0.014477666933089495,0.007229730486869812,1.0370031595230103,-0.616801381111145,-0.002818792127072811,-0.0008484638528898358,-35.3623797,149.166933,22578.5,10.0,-4.0,-5.5,1500.0
21:01:53,0.0,47.0,-851.5,1065.0,0.0,0.5,ALT_HOLD,0.011649721302092075,0.0005307204701239243,1.0362296104431152,1.0652047991752625,-0.00214877026155591,-0.0015431189094670117,-35.36238025,149.16693335000002,22562.5,12.0,-1.5,46.0,1500.0
21:01:55,-1.0,-32.5,-1129.0,-1128.0,2.0,3.0,AUTO,-0.030338390730321407,0.01151795918121934,1.0355831980705261,-1.1298519372940063,-0.001157491933554411,0.0007889126427471638,-35.36238145,149.1669361,19657.0,7.0,6.5,115.5,1500.0
21:01:59,0.0,7.5,-987.5,-178.5,2.5,0.0,AUTO,0.01158677414059639,0.004064979730173945,1.036863386631012,-0.17989670485258102,0.00040154438465833664,-0.0023320108302868903,-35.3623792,149.16693475,19490.0,-9.0,7.0,-13.0,1500.0
21:02:01,0.0,19.0,-1013.0,513.0,3.5,-1.0,AUTO,0.02049386128783226,0.006234822561964393,1.0370887517929077,0.5136063992977142,0.0009767774026840925,-0.0033004849683493376,-35.362379,149.1669345,19562.0,-13.5,10.5,-2.5,1500.0
21:02:05,0.5,4.5,-976.0,-166.0,3.0,1.5,AUTO,-0.004989437904441729,0.007200522581115365,1.0368562936782837,-0.16865668445825577,0.000402380945160985,-7.950782310217619e-05,-35.36238005,149.16693494999998,20603.5,-8.5,7.5,-4.0,1500.0
21:02:11,0.0,29.5,-847.0,1026.5,-0.5,-2.0,ALT_HOLD,0.016379120759665966,0.0004947278648614883,1.0363408923149109,1.0280652046203613,-0.0029169180197641253,-0.004388405941426754,-35.362381150000004,149.16693575,20535.5,2.0,4.0,46.5,1500.0
21:02:13,-2.0,-37.5,-1146.5,-1332.0,0.0,4.5,AUTO,-0.015171395149081945,0.008550579659640789,1.035537600517273,-1.3341713547706604,-0.002790192374959588,0.002595230587758124,-35.3623806,149.166937,17615.5,2.5,6.5,120.5,1500.0
21:02:17,1.5,-16.0,-984.5,-438.5,1.0,-1.0,AUTO,0.002443810721160844,0.006318271858617663,1.0371062755584717,-0.44003917276859283,-0.0016888754907995462,-0.002552329911850393,-35.362378899999996,149.16693605,17458.0,-15.0,11.0,-11.5,1500.0
21:02:21,0.0,12.0,-1013.0,100.0,1.0,1.5,AUTO,-0.006346530688460916,0.00691809062846005,1.0363925099372864,0.0980885699391365,-0.001328272745013237,-0.00018203083891421556,-35.3623812,149.1669375,17883.0,4.5,-2.0,-36.0,1500.0
21:02:23,-0.5,-19.5,-971.5,-558.0,2.0,2.0,AUTO,-0.012258427683264017,0.006188976112753153,1.0364209413528442,-0.5599960535764694,-0.00032404193188995123,0.0005216977442614734,-35.3623813,149.1669373,18461.0,8.0,-2.5,-5.5,1500.0
21:02:27,-2.0,-6.0,-1003.5,218.5,5.0,2.5,BRAKE,0.015176103450357914,0.004354154923930764,1.0364615321159363,0.2200126238167286,0.003176246420480311,0.0003215119941160083,-35.3623807,149.16693694999998,18467.5,7.0,-2.5,0.0,1500.0
21:02:29,-1.0,-3.0,-856.5,-589.0,2.5,1.5,ALT_HOLD,-0.01460966281592846,0.000465854667709209,1.0364762544631958,-0.5931489989161491,0.0006801581475883722,-0.0006012402009218931,-35.362379649999994,149.1669363,18378.5,1.0,3.0,45.0,1500.0
21:02:33,0.5,-20.5,-1009.0,-313.5,1.5,1.0,AUTO,0.010011446895077825,0.009189337026327848,1.0370801091194153,-0.3134178351610899,-0.0011446608696132898,-0.000747142534237355,-35.3623776,149.1669367,14883.5,-8.5,5.0,-18.5,1500.0
21:02:35,1.0,-17.0,-984.0,-101.5,2.5,-1.5,AUTO,-0.00048453640192747116,0.007321043172851205,1.0364406108856201,-0.10058340430259705,0.0007975954795256257,-0.003651880659162998,-35.36237855,149.16693715000002,15278.5,-3.5,1.5,-13.0,1500.0
21:02:37,1.0,-19.5,-1000.0,-343.0,2.0,-0.5,BRAKE,-0.007261475664563477,0.006693392992019653,1.0368477702140808,-0.34345582872629166,0.00015010300558060408,-0.0023120464757084846,-35.36237935,149.1669374,15342.0,3.5,0.0,1.0,1500.0
21:02:39,2.5,-20.5,-994.5,-494.5,2.5,1.0,BRAKE,-0.011566618457436562,0.00872986251488328,1.03677237033844,-0.49549898505210876,0.00015055015683174133,-0.000791782746091485,-35.362381299999996,149.1669384,15344.5,2.5,0.0,0.5,1500.0
21:02:43,1.5,43.0,-1231.5,585.5,0.0,4.0,AUTO,-0.035766808316111565,0.015242288820445538,1.0361891388893127,0.5816356241703033,-0.0019156952039338648,0.003104656731011346,-35.36238945,149.166946,12090.5,1.0,14.0,118.0,1500.0
21:02:45,-0.5,-10.5,-1013.0,-293.5,-2.5,0.0,AUTO,-0.017036099918186665,0.005829084664583206,1.0363131165504456,-0.2926296070218086,-0.005287140375003219,-0.0018122063484042883,-35.36239035,149.16694735,11549.5,23.0,-13.0,-21.0,1500.0
