time_stamp,MODE,lat,lon,relative_alt,roll,pitch,yaw,rollspeed,pitchspeed,yawspeed,xacc,yacc,zacc,xgyro,ygyro,zgyro,vx,vy,vz,RTL_ALT
20:54:56.773,STABILIZE,-35.3632621,149.1652374,0,-8.191230881493539e-05,0.0015928726643323898,0.02657482586801052,0.00031730689806863666,0.00030537982820533216,0.002196250483393669,0,1,-1000,0,0,0,-1,1,0,1500.0
20:54:56.975,STABILIZE,-35.3632621,149.1652374,0,-8.191230881493539e-05,0.0015928726643323898,0.02657482586801052,0.00031730689806863666,0.00030537982820533216,0.002196250483393669,0,1,-1000,0,0,0,-1,1,0,1500.0
20:54:57.177,STABILIZE,-35.3632621,149.1652374,0,-8.191230881493539e-05,0.0015928726643323898,0.02657482586801052,0.00031730689806863666,0.00030537982820533216,0.002196250483393669,0,1,-1000,0,0,0,-1,1,0,1500.0
20:54:57.378,STABILIZE,-35.3632621,149.1652374,0,-8.191230881493539e-05,0.0015928726643323898,0.02657482586801052,0.00031730689806863666,0.00030537982820533216,0.002196250483393669,0,1,-1000,0,0,0,-1,1,0,1500.0
20:54:57.578,STABILIZE,-35.3632621,149.1652374,1,-8.191230881493539e-05,0.0015928726643323898,0.02657482586801052,0.00031730689806863666,0.00030537982820533216,0.002196250483393669,0,1,-1000,0,0,0,-2,1,0,1500.0
20:54:57.779,STABILIZE,-35.3632621,149.1652374,2,-8.191230881493539e-05,0.0015928726643323898,0.02657482586801052,0.00031730689806863666,0.00030537982820533216,0.002196250483393669,0,1,-1000,0,0,0,-2,1,0,1500.0
20:54:57.979,STABILIZE,-35.3632621,149.1652374,2,-0.00029205024475231767,0.0014836214249953628,0.02564748376607895,0.00012278939539100975,0.00024283360107801855,0.002103349193930626,0,2,-1000,0,0,0,-2,1,0,1500.0
20:54:58.180,STABILIZE,-35.3632621,149.1652374,2,-0.00029205024475231767,0.0014836214249953628,0.02564748376607895,0.00012278939539100975,0.00024283360107801855,0.002103349193930626,0,2,-1000,0,0,0,-2,1,0,1500.0
20:54:58.381,STABILIZE,-35.3632621,149.1652374,2,-0.00029205024475231767,0.0014836214249953628,0.02564748376607895,0.00012278939539100975,0.00024283360107801855,0.002103349193930626,0,2,-1000,0,0,0,-2,1,0,1500.0
20:54:58.581,STABILIZE,-35.3632621,149.1652374,2,-0.0004291633376851678,0.0013911161804571748,0.025346165522933006,0.00020721269538626075,0.0002755406021606177,0.002170101273804903,0,2,-1000,0,0,0,-2,1,0,1500.0
20:54:58.782,STABILIZE,-35.3632621,149.1652374,2,-0.0004291633376851678,0.0013911161804571748,0.025346165522933006,0.00020721269538626075,0.0002755406021606177,0.002170101273804903,0,2,-1000,0,0,0,-2,1,0,1500.0
20:54:58.983,STABILIZE,-35.3632621,149.1652374,2,-0.0004291633376851678,0.0013911161804571748,0.025346165522933006,0.00020721269538626075,0.0002755406021606177,0.002170101273804903,0,2,-1000,0,0,0,-2,1,0,1500.0
20:54:59.184,STABILIZE,-35.3632621,149.1652374,2,-0.0004291633376851678,0.0013911161804571748,0.025346165522933006,0.00020721269538626075,0.0002755406021606177,0.002170101273804903,0,2,-1000,0,0,0,-2,1,0,1500.0
20:54:59.385,STABILIZE,-35.3632621,149.1652374,2,-0.0004291633376851678,0.0013911161804571748,0.025346165522933006,0.00020721269538626075,0.0002755406021606177,0.002170101273804903,0,2,-1000,0,0,0,-2,1,0,1500.0
20:54:59.586,STABILIZE,-35.3632622,149.1652375,8,-0.0006270864396356046,0.0012269762810319662,0.024951469153165817,0.00017271825345233083,0.00019181607058271766,0.0020600531715899706,0,4,-995,0,0,0,-1,1,0,1500.0
20:54:59.787,STABILIZE,-35.3632622,149.1652375,8,-0.0006270864396356046,0.0012269762810319662,0.024951469153165817,0.00017271825345233083,0.00019181607058271766,0.0020600531715899706,0,1,-1000,0,0,1,-1,1,0,1500.0
20:54:59.987,STABILIZE,-35.3632622,149.1652375,0,-0.0006270864396356046,0.0012269762810319662,0.024951469153165817,0.00017271825345233083,0.00019181607058271766,0.0020600531715899706,0,1,-1000,0,0,1,-1,3,2,1500.0
20:55:00.188,STABILIZE,-35.3632622,149.1652375,0,-0.00087971385801211,0.0010696796234697104,0.0244719460606575,0.0002642885665409267,0.0002935389638878405,0.001819372409954667,0,1,-1000,0,0,1,-1,3,2,1500.0
20:55:00.389,STABILIZE,-35.3632622,149.1652375,0,-0.00087971385801211,0.0010696796234697104,0.0244719460606575,0.0002642885665409267,0.0002935389638878405,0.001819372409954667,0,1,-1000,0,0,1,-1,3,2,1500.0
20:55:00.590,STABILIZE,-35.3632622,149.1652375,0,-0.00087971385801211,0.0010696796234697104,0.0244719460606575,0.0002642885665409267,0.0002935389638878405,0.001819372409954667,0,1,-1000,0,0,1,-1,2,1,1500.0
20:55:00.792,STABILIZE,-35.3632622,149.1652375,0,-0.00087971385801211,0.0010696796234697104,0.0244719460606575,0.0002642885665409267,0.0002935389638878405,0.001819372409954667,0,1,-1000,0,0,1,-1,2,1,1500.0
20:55:00.993,STABILIZE,-35.3632622,149.1652375,0,-0.00087971385801211,0.0010696796234697104,0.0244719460606575,0.0002642885665409267,0.0002935389638878405,0.001819372409954667,0,1,-1000,0,0,1,-1,2,1,1500.0
20:55:01.194,STABILIZE,-35.3632622,149.1652375,0,-0.00087971385801211,0.0010696796234697104,0.0244719460606575,0.0002642885665409267,0.0002935389638878405,0.001819372409954667,0,1,-1000,0,0,1,-1,2,1,1500.0
20:55:01.396,STABILIZE,-35.3632622,149.1652375,0,-0.00087971385801211,0.0010696796234697104,0.0244719460606575,0.0002642885665409267,0.0002935389638878405,0.001819372409954667,0,1,-1000,0,0,1,-1,2,1,1500.0
20:55:01.597,STABILIZE,-35.3632622,149.1652375,0,-0.0013312206137925386,0.000984350685030222,0.02402055636048317,0.00022206472931429744,0.00025835036649368703,0.0017766214441508055,0,1,-1000,0,1,0,-1,2,1,1500.0
20:55:01.798,STABILIZE,-35.3632622,149.1652375,0,-0.0013769903453066945,0.0009749949676916003,0.023940827697515488,0.0001486787514295429,0.00036112286034040153,0.0018627041717991233,0,1,-1000,0,1,0,-1,2,1,1500.0
20:55:01.999,STABILIZE,-35.3632622,149.1652375,0,-0.0014044838026165962,0.0009604597580619156,0.023873064666986465,0.00021928222849965096,0.00023573398357257247,0.0016657450469210744,0,1,-1000,0,0,1,-1,2,1,1500.0
20:55:02.200,STABILIZE,-35.3632621,149.1652375,0,-0.0014044838026165962,0.0009604597580619156,0.023873064666986465,0.00021928222849965096,0.00023573398357257247,0.0016657450469210744,0,1,-1000,0,0,0,-1,0,0,1500.0
20:55:02.401,STABILIZE,-35.3632621,149.1652375,0,-0.0014651636593043804,0.0009476465056650341,0.023743335157632828,0.000191933213500306,0.00021368672605603933,0.0018449421040713787,0,2,-1000,0,0,0,-1,0,0,1500.0
20:55:02.602,STABILIZE,-35.3632621,149.1652375,0,-0.0014651636593043804,0.0009476465056650341,0.023743335157632828,0.000191933213500306,0.00021368672605603933,0.0018449421040713787,0,2,-1000,0,0,0,-1,0,0,1500.0
20:55:02.803,STABILIZE,-35.3632621,149.1652375,0,-0.0014651636593043804,0.0009476465056650341,0.023743335157632828,0.000191933213500306,0.00021368672605603933,0.0018449421040713787,0,2,-1000,0,0,0,-1,0,0,1500.0
20:55:03.004,STABILIZE,-35.3632621,149.1652375,0,-0.0014651636593043804,0.0009476465056650341,0.023743335157632828,0.000191933213500306,0.00021368672605603933,0.0018449421040713787,0,2,-1000,0,0,0,-1,0,0,1500.0
20:55:03.205,STABILIZE,-35.3632621,149.1652375,0,-0.0014651636593043804,0.0009476465056650341,0.023743335157632828,0.000191933213500306,0.00021368672605603933,0.0018449421040713787,0,2,-1000,0,0,0,-1,0,0,1500.0
20:55:03.406,STABILIZE,-35.3632621,149.1652375,0,-0.0012044041650369763,0.0009300138335675001,0.02353833056986332,0.0002782028168439865,0.00015879556303843856,0.001618914189748466,0,2,-1000,0,0,0,-1,2,3,1500.0
20:55:03.607,STABILIZE,-35.3632621,149.1652375,0,-0.0012687043054029346,0.0009281500824727118,0.023467551916837692,0.0002218899899162352,0.0002018292434513569,0.0018110189121216536,0,1,-1000,0,0,0,-1,2,2,1500.0
20:55:03.808,STABILIZE,-35.3632621,149.1652375,0,-0.0012687043054029346,0.0009281500824727118,0.023467551916837692,0.0002218899899162352,0.0002018292434513569,0.0018110189121216536,0,1,-1000,0,0,0,-1,2,2,1500.0
20:55:04.009,STABILIZE,-35.3632621,149.1652375,0,-0.0012687043054029346,0.0009281500824727118,0.023467551916837692,0.0002218899899162352,0.0002018292434513569,0.0018110189121216536,0,1,-1000,0,0,0,-1,2,2,1500.0
20:55:04.210,STABILIZE,-35.3632621,149.1652375,0,-0.0012687043054029346,0.0009281500824727118,0.023467551916837692,0.0002218899899162352,0.0002018292434513569,0.0018110189121216536,0,1,-1000,0,0,0,-1,1,2,1500.0
20:55:04.410,STABILIZE,-35.3632621,149.1652375,0,-0.0012687043054029346,0.0009281500824727118,0.023467551916837692,0.0002218899899162352,0.0002018292434513569,0.0018110189121216536,0,1,-1000,0,0,0,-1,1,2,1500.0
20:55:04.611,STABILIZE,-35.3632621,149.1652375,0,-0.0012687043054029346,0.0009281500824727118,0.023467551916837692,0.0002218899899162352,0.0002018292434513569,0.0018110189121216536,0,1,-1000,0,0,0,-1,1,2,1500.0
20:55:04.812,STABILIZE,-35.3632621,149.1652375,0,-0.0012687043054029346,0.0009281500824727118,0.023467551916837692,0.0002218899899162352,0.0002018292434513569,0.0018110189121216536,0,1,-1000,0,0,0,-1,1,2,1500.0
20:55:05.013,STABILIZE,-35.3632621,149.1652375,0,-0.0012687043054029346,0.0009281500824727118,0.023467551916837692,0.0002218899899162352,0.0002018292434513569,0.0018110189121216536,0,1,-1000,0,0,0,-1,1,2,1500.0
20:55:05.213,STABILIZE,-35.3632621,149.1652375,0,-0.0012687043054029346,0.0009281500824727118,0.023467551916837692,0.0002218899899162352,0.0002018292434513569,0.0018110189121216536,0,1,-1000,0,0,0,-1,1,2,1500.0
20:55:05.414,STABILIZE,-35.3632621,149.1652375,0,-0.0014980463311076164,0.0009326461586169899,0.023005153983831406,0.00021968648070469499,0.00017567566828802228,0.0015425750752910972,0,2,-1000,0,0,0,-1,0,0,1500.0
20:55:05.615,STABILIZE,-35.3632621,149.1652375,0,-0.0014980463311076164,0.0009326461586169899,0.023005153983831406,0.00021968648070469499,0.00017567566828802228,0.0015425750752910972,0,2,-1000,0,0,0,-1,0,0,1500.0
20:55:05.816,STABILIZE,-35.3632621,149.1652375,0,-0.0014980463311076164,0.0009326461586169899,0.023005153983831406,0.00021968648070469499,0.00017567566828802228,0.0015425750752910972,0,1,-1000,0,0,0,-1,0,0,1500.0
20:55:06.016,STABILIZE,-35.3632621,149.1652375,0,-0.0014980463311076164,0.0009326461586169899,0.023005153983831406,0.00021968648070469499,0.00017567566828802228,0.0015425750752910972,0,1,-1000,0,0,0,-1,0,0,1500.0
20:55:06.217,STABILIZE,-35.3632621,149.1652375,0,-0.0014980463311076164,0.0009326461586169899,0.023005153983831406,0.00021968648070469499,0.00017567566828802228,0.0015425750752910972,0,1,-1000,0,0,0,-1,0,0,1500.0
20:55:06.418,STABILIZE,-35.3632621,149.1652375,0,-0.0014951496850699186,0.0009478557039983571,0.022727789357304573,0.00016536949260625988,0.00012920325389131904,0.0016326068434864283,0,1,-1000,0,0,0,-1,0,0,1500.0
20:55:06.619,STABILIZE,-35.3632621,149.1652375,0,-0.0014951496850699186,0.0009478557039983571,0.022727789357304573,0.00016536949260625988,0.00012920325389131904,0.0016326068434864283,0,1,-1000,0,0,0,-1,0,0,1500.0
20:55:06.820,STABILIZE,-35.3632621,149.1652375,0,-0.0014951496850699186,0.0009478557039983571,0.022727789357304573,0.00016536949260625988,0.00012920325389131904,0.0016326068434864283,0,1,-1000,0,0,0,-1,0,0,1500.0
20:55:07.022,STABILIZE,-35.3632621,149.1652375,0,-0.0014951496850699186,0.0009478557039983571,0.022727789357304573,0.00016536949260625988,0.00012920325389131904,0.0016326068434864283,0,1,-1000,0,0,0,-1,0,0,1500.0
20:55:07.223,STABILIZE,-35.3632621,149.1652375,0,-0.0014951496850699186,0.0009478557039983571,0.022727789357304573,0.00016536949260625988,0.00012920325389131904,0.0016326068434864283,0,1,-1000,0,0,0,-1,0,0,1500.0
20:55:07.424,STABILIZE,-35.3632621,149.1652375,3,-0.0013844865607097745,0.0009568753303028643,0.022603632882237434,0.00022211392933968455,0.0002700879122130573,0.0016547528794035316,0,1,-1000,0,0,0,-1,0,-1,1500.0
20:55:07.625,STABILIZE,-35.3632621,149.1652375,3,-0.0013844865607097745,0.0009568753303028643,0.022603632882237434,0.00022211392933968455,0.0002700879122130573,0.0016547528794035316,0,1,-1000,0,0,0,-1,0,-1,1500.0
20:55:07.826,STABILIZE,-35.3632621,149.1652375,5,-0.00128616311121732,0.0009510890813544393,0.022502271458506584,0.0002648915979079902,0.00017999409465119243,0.001626463606953621,0,1,-1000,0,0,0,-1,0,-1,1500.0
20:55:08.026,STABILIZE,-35.3632621,149.1652375,5,-0.00128616311121732,0.0009510890813544393,0.022502271458506584,0.0002648915979079902,0.00017999409465119243,0.001626463606953621,0,2,-1000,0,1,1,-1,0,-1,1500.0
20:55:08.227,STABILIZE,-35.3632622,149.1652375,9,-0.0012141936458647251,0.0009565652580931783,0.0223940871655941,0.00026930036256089807,0.00025218568043783307,0.001665137941017747,0,2,-1000,0,0,0,-1,0,-1,1500.0
20:55:08.428,STABILIZE,-35.3632622,149.1652375,9,-0.0011808443814516068,0.0009611478308215737,0.022327156737446785,0.0003095999709330499,0.0002840021625161171,0.0016147511778399348,0,1,-1000,0,0,1,-1,0,-1,1500.0
20:55:08.628,STABILIZE,-35.3632622,149.1652375,9,-0.0011808443814516068,0.0009611478308215737,0.022327156737446785,0.0003095999709330499,0.0002840021625161171,0.0016147511778399348,0,1,-1000,0,0,1,-1,0,-1,1500.0
20:55:08.830,STABILIZE,-35.3632622,149.1652375,9,-0.0011808443814516068,0.0009611478308215737,0.022327156737446785,0.0003095999709330499,0.0002840021625161171,0.0016147511778399348,0,1,-1000,0,0,1,-1,0,-1,1500.0
20:55:09.030,STABILIZE,-35.3632622,149.1652375,9,-0.0011808443814516068,0.0009611478308215737,0.022327156737446785,0.0003095999709330499,0.0002840021625161171,0.0016147511778399348,0,1,-1000,0,0,1,-1,0,-1,1500.0
20:55:09.231,STABILIZE,-35.3632622,149.1652375,9,-0.0011808443814516068,0.0009611478308215737,0.022327156737446785,0.0003095999709330499,0.0002840021625161171,0.0016147511778399348,0,1,-1000,0,0,1,-1,0,-1,1500.0
20:55:09.432,STABILIZE,-35.3632622,149.1652375,9,-0.0011808443814516068,0.0009611478308215737,0.022327156737446785,0.0003095999709330499,0.0002840021625161171,0.0016147511778399348,0,1,-1000,0,0,1,-1,0,-1,1500.0
20:55:09.633,STABILIZE,-35.3632622,149.1652375,9,-0.0011808443814516068,0.0009611478308215737,0.022327156737446785,0.0003095999709330499,0.0002840021625161171,0.0016147511778399348,0,1,-1000,0,0,1,-1,0,-1,1500.0
20:55:09.834,AUTO,-35.3632622,149.1652375,18,-0.001050387741997838,0.0009538553422316909,0.022048015147447586,0.000377284042770043,0.00029964244458824396,0.0015737575013190508,0,1,-1000,0,1,0,-1,0,-1,1500.0
20:55:10.034,AUTO,-35.3632622,149.1652375,12,-0.0010326880728825927,0.0009607448591850698,0.02198328822851181,0.0003348168102093041,0.00024807738373056054,0.0015821793349459767,0,1,-1000,0,0,1,-1,0,-3,1500.0
20:55:10.235,AUTO,-35.3632622,149.1652375,16,-0.0010059219785034657,0.0009624160011298954,0.02193566970527172,0.00032953734626062214,0.00027041067369282246,0.0014885917771607637,0,2,-1000,0,1,0,-1,0,-3,1500.0
20:55:10.436,AUTO,-35.3632621,149.1652375,18,-0.000958528253249824,0.0009746032301336527,0.021885141730308533,0.00020040504750795662,0.00035037577617913485,0.0015243138186633587,0,2,-1000,0,0,0,-1,0,-2,1500.0
20:55:10.637,AUTO,-35.3632621,149.1652375,18,-0.000958528253249824,0.0009746032301336527,0.021885141730308533,0.00020040504750795662,0.00035037577617913485,0.0015243138186633587,0,2,-1000,0,0,0,-1,0,-2,1500.0
20:55:10.838,AUTO,-35.3632621,149.1652375,18,-0.000958528253249824,0.0009746032301336527,0.021885141730308533,0.00020040504750795662,0.00035037577617913485,0.0015243138186633587,0,2,-1000,0,0,0,-1,0,-2,1500.0
20:55:11.040,AUTO,-35.3632621,149.1652375,18,-0.000958528253249824,0.0009746032301336527,0.021885141730308533,0.00020040504750795662,0.00035037577617913485,0.0015243138186633587,0,2,-1000,0,0,0,-1,0,-2,1500.0
20:55:11.242,AUTO,-35.3632621,149.1652375,18,-0.000958528253249824,0.0009746032301336527,0.021885141730308533,0.00020040504750795662,0.00035037577617913485,0.0015243138186633587,0,2,-1000,0,0,0,-1,0,-2,1500.0
20:55:11.444,AUTO,-35.3632621,149.1652375,24,-0.0007525599212385714,0.0011486391304060817,0.021612824872136116,0.00020107568707317114,0.00038557330844923854,0.001324574346654117,0,2,-1000,0,0,0,0,0,-2,1500.0
20:55:11.646,AUTO,-35.3632621,149.1652375,24,-0.000699387863278389,0.0012062633177265525,0.021542534232139587,0.00025714089861139655,0.00034695450449362397,0.00141339679248631,0,2,-1000,0,0,0,0,0,-2,1500.0
20:55:11.848,AUTO,-35.3632621,149.1652375,25,-0.000699387863278389,0.0012062633177265525,0.021542534232139587,0.00025714089861139655,0.00034695450449362397,0.00141339679248631,0,2,-1000,0,1,0,0,0,-2,1500.0
20:55:12.049,AUTO,-35.3632621,149.1652375,26,-0.0006387846078723669,0.0012677644845098257,0.021472791209816933,0.00029768564854748547,0.00022759445710107684,0.0016031136037781835,0,2,-1000,0,1,0,0,0,-2,1500.0
20:55:12.250,AUTO,-35.3632621,149.1652375,26,-0.000580751511733979,0.001330884755589068,0.021404365077614784,0.00039702680078335106,0.0002437468501739204,0.0016005646903067827,0,1,-1000,0,0,1,0,0,-2,1500.0
20:55:12.451,AUTO,-35.3632621,149.1652375,27,-0.0005217622965574265,0.001403235481120646,0.02132459171116352,0.00032956196810118854,0.00028825446497648954,0.0013961945660412312,0,2,-1000,0,0,0,0,0,-2,1500.0
20:55:12.652,AUTO,-35.3632621,149.1652375,27,-0.0005217622965574265,0.001403235481120646,0.02132459171116352,0.00032956196810118854,0.00028825446497648954,0.0013961945660412312,0,2,-1000,0,0,0,0,0,-2,1500.0
20:55:12.853,AUTO,-35.3632621,149.1652375,27,-0.0005217622965574265,0.001403235481120646,0.02132459171116352,0.00032956196810118854,0.00028825446497648954,0.0013961945660412312,0,2,-1000,0,0,0,0,0,-2,1500.0
20:55:13.054,AUTO,-35.3632621,149.1652375,27,-0.0005217622965574265,0.001403235481120646,0.02132459171116352,0.00032956196810118854,0.00028825446497648954,0.0013961945660412312,0,2,-1000,0,0,0,0,0,-2,1500.0
20:55:13.256,AUTO,-35.3632621,149.1652375,27,-0.0005217622965574265,0.001403235481120646,0.02132459171116352,0.00032956196810118854,0.00028825446497648954,0.0013961945660412312,0,2,-1000,0,0,0,0,0,-2,1500.0
20:55:13.457,AUTO,-35.3632621,149.1652375,27,-0.0002498359535820782,0.0017063658451661468,0.02099984511733055,0.0003514311683829874,0.000336354598402977,0.0013522596564143896,0,1,-1000,0,0,0,0,0,-1,1500.0
20:55:13.657,AUTO,-35.3632621,149.1652375,28,0.00033140258165076375,0.0011265096254646778,0.02097994275391102,0.005191436968743801,-0.010555618442595005,0.0024603111669421196,0,0,-1076,5,-9,2,0,0,-5,1500.0
20:55:13.858,AUTO,-35.3632621,149.1652375,28,0.00033140258165076375,0.0011265096254646778,0.02097994275391102,0.005191436968743801,-0.010555618442595005,0.0024603111669421196,0,0,-1076,5,-9,2,0,0,-5,1500.0
20:55:14.059,AUTO,-35.3632621,149.1652375,80,0.002570945303887129,-0.0005414855550043285,0.020948756486177444,0.007249975576996803,-0.001113426173105836,0.0022225892171263695,0,0,-1141,7,0,1,0,0,-39,1500.0
20:55:14.260,AUTO,-35.3632621,149.1652375,217,0.002456605201587081,9.855137614067644e-05,0.020906241610646248,0.0014881655806675553,0.0035460772924125195,0.001995265018194914,0,0,-1131,1,4,1,0,1,-73,1500.0
20:55:14.461,AUTO,-35.3632621,149.1652375,434,0.0017641991144046187,0.0011282704072073102,0.020894493907690048,-0.007469191215932369,0.0031944550573825836,0.0014865037519484758,0,0,-1110,-7,4,1,0,1,-102,1500.0
20:55:14.662,AUTO,-35.3632621,149.1652375,434,0.0017641991144046187,0.0011282704072073102,0.020894493907690048,-0.007469191215932369,0.0031944550573825836,0.0014865037519484758,0,0,-1110,-7,4,1,0,1,-102,1500.0
20:55:14.864,AUTO,-35.3632621,149.1652375,434,0.0017641991144046187,0.0011282704072073102,0.020894493907690048,-0.007469191215932369,0.0031944550573825836,0.0014865037519484758,0,0,-1110,-7,4,1,0,1,-102,1500.0
20:55:15.065,AUTO,-35.3632621,149.1652375,434,0.0017641991144046187,0.0011282704072073102,0.020894493907690048,-0.007469191215932369,0.0031944550573825836,0.0014865037519484758,0,0,-1110,-7,4,1,0,1,-102,1500.0
20:55:15.266,AUTO,-35.3632621,149.1652375,434,0.0017641991144046187,0.0011282704072073102,0.020894493907690048,-0.007469191215932369,0.0031944550573825836,0.0014865037519484758,0,0,-1110,-7,4,1,0,1,-102,1500.0
20:55:15.468,AUTO,-35.363262,149.1652377,1791,0.034644193947315216,-0.0029526029247790575,0.02042843960225582,0.04496827349066734,-0.008202600292861462,0.002824069233611226,0,-1,-1007,45,-7,2,1,12,-148,1500.0
20:55:15.669,AUTO,-35.3632619,149.1652381,2173,0.045462366193532944,-0.005129711702466011,0.02059325762093067,0.04267364740371704,-0.009554928168654442,0.0032600618433207273,0,-2,-1002,42,-8,2,3,20,-149,1500.0
20:55:15.870,AUTO,-35.3632619,149.1652381,2173,0.045462366193532944,-0.005129711702466011,0.02059325762093067,0.04267364740371704,-0.009554928168654442,0.0032600618433207273,0,-2,-1002,42,-8,2,3,20,-149,1500.0
20:55:16.070,AUTO,-35.3632618,149.1652387,2558,0.0556219220161438,-0.00775831937789917,0.020798932760953903,0.03869091719388962,-0.011230362579226494,0.0036301498766988516,1,-4,-1000,38,-10,3,5,31,-149,1500.0
20:55:16.271,AUTO,-35.3632616,149.1652397,2941,0.06257609277963638,-0.009021880105137825,-0.007835372351109982,-0.010925307869911194,0.021631022915244102,-0.04415513947606087,0,-8,-992,-11,22,-44,8,43,-148,1500.0
20:55:16.472,AUTO,-35.3632614,149.165241,3320,0.04199405014514923,0.012739669531583786,-0.03004533238708973,-0.1356319636106491,0.0946938693523407,-0.09937510639429092,3,-11,-991,-135,95,-99,9,53,-146,1500.0
20:55:16.674,AUTO,-35.3632614,149.165241,3320,0.04199405014514923,0.012739669531583786,-0.03004533238708973,-0.1356319636106491,0.0946938693523407,-0.09937510639429092,3,-11,-991,-135,95,-99,9,53,-146,1500.0
20:55:16.876,AUTO,-35.3632614,149.165241,3320,0.04199405014514923,0.012739669531583786,-0.03004533238708973,-0.1356319636106491,0.0946938693523407,-0.09937510639429092,3,-11,-991,-135,95,-99,9,53,-146,1500.0
20:55:17.077,AUTO,-35.3632614,149.165241,3320,0.04199405014514923,0.012739669531583786,-0.03004533238708973,-0.1356319636106491,0.0946938693523407,-0.09937510639429092,3,-11,-991,-135,95,-99,9,53,-146,1500.0
20:55:17.278,AUTO,-35.3632614,149.165241,3320,0.04199405014514923,0.012739669531583786,-0.03004533238708973,-0.1356319636106491,0.0946938693523407,-0.09937510639429092,3,-11,-991,-135,95,-99,9,53,-146,1500.0
20:55:17.479,AUTO,-35.3632608,149.1652459,4840,-0.04880093038082123,0.004071427043527365,-0.07406449317932129,-0.08584431558847427,-0.005337527021765709,-0.03565968945622444,3,-6,-1000,-85,-4,-36,2,26,-149,1500.0
20:55:17.680,AUTO,-35.3632607,149.1652464,5224,-0.07358107715845108,0.0032247439958155155,-0.08313309401273727,-0.10965633392333984,0.002860664390027523,-0.039405275136232376,2,-4,-998,-109,3,-39,1,9,-149,1500.0
20:55:17.881,AUTO,-35.3632607,149.1652464,5224,-0.07358107715845108,0.0032247439958155155,-0.08313309401273727,-0.10965633392333984,0.002860664390027523,-0.039405275136232376,2,-4,-998,-109,3,-39,1,9,-149,1500.0
20:55:18.082,AUTO,-35.3632607,149.1652464,5607,-0.08142080157995224,0.002463145647197962,-0.09155255556106567,0.02522852085530758,-0.0030008030589669943,-0.02956385351717472,0,0,-1006,25,-2,-30,0,-10,-149,1500.0
20:55:18.283,AUTO,-35.3632608,149.1652459,5991,-0.07027027755975723,0.0010412014089524746,-0.0977044403553009,0.05161973834037781,-0.002800167538225651,-0.019780686125159264,-1,4,-1001,51,-2,-20,-2,-29,-149,1500.0
20:55:18.484,AUTO,-35.3632608,149.1652449,6376,-0.05655880644917488,0.0007612559129483998,-0.10232345014810562,0.057481952011585236,0.002052698517218232,-0.013108954764902592,-4,6,-1000,57,2,-13,-4,-43,-149,1500.0
20:55:18.684,AUTO,-35.3632608,149.1652449,6376,-0.05655880644917488,0.0007612559129483998,-0.10232345014810562,0.057481952011585236,0.002052698517218232,-0.013108954764902592,-4,6,-1000,57,2,-13,-4,-43,-149,1500.0
20:55:18.885,AUTO,-35.3632608,149.1652449,6376,-0.05655880644917488,0.0007612559129483998,-0.10232345014810562,0.057481952011585236,0.002052698517218232,-0.013108954764902592,-4,6,-1000,57,2,-13,-4,-43,-149,1500.0
20:55:19.086,AUTO,-35.3632608,149.1652449,6376,-0.05655880644917488,0.0007612559129483998,-0.10232345014810562,0.057481952011585236,0.002052698517218232,-0.013108954764902592,-4,6,-1000,57,2,-13,-4,-43,-149,1500.0
20:55:19.288,AUTO,-35.3632608,149.1652449,6376,-0.05655880644917488,0.0007612559129483998,-0.10232345014810562,0.057481952011585236,0.002052698517218232,-0.013108954764902592,-4,6,-1000,57,2,-13,-4,-43,-149,1500.0
20:55:19.489,AUTO,-35.3632616,149.1652386,7916,0.007904953323304653,0.009323869831860065,-0.10764476656913757,0.06802471727132797,0.010757447220385075,-0.0009620793862268329,-5,13,-1004,68,11,-1,-14,-58,-151,1500.0
20:55:19.690,AUTO,-35.363262,149.165237,8305,0.02488401159644127,0.011577636003494263,-0.10700284689664841,0.06765787303447723,0.007953322492539883,0.002101740799844265,-4,13,-1004,67,8,1,-17,-51,-152,1500.0
20:55:19.891,AUTO,-35.363262,149.165237,8305,0.02488401159644127,0.011577636003494263,-0.10700284689664841,0.06765787303447723,0.007953322492539883,0.002101740799844265,-4,13,-1004,67,8,1,-17,-51,-152,1500.0
20:55:20.092,AUTO,-35.3632624,149.1652357,8697,0.041568052023649216,0.012975276447832584,-0.10602477937936783,0.06644739955663681,0.0038177913520485163,0.0024338059592992067,-4,10,-1003,66,4,1,-20,-40,-153,1500.0
20:55:20.293,AUTO,-35.3632629,149.1652347,9095,0.05784452706575394,0.013066207058727741,-0.10469622164964676,0.0631924420595169,-0.002039206214249134,0.004537892993539572,0,10,-1002,63,-1,4,-21,-26,-153,1500.0
20:55:20.494,AUTO,-35.3632633,149.1652342,9488,0.07178161293268204,0.010807745158672333,-0.10213696956634521,0.030099334195256233,-0.026833433657884598,0.032940302044153214,1,6,-997,30,-26,32,-22,-9,-153,1500.0
20:55:20.695,AUTO,-35.3632633,149.1652342,9488,0.07178161293268204,0.010807745158672333,-0.10213696956634521,0.030099334195256233,-0.026833433657884598,0.032940302044153214,1,6,-997,30,-26,32,-22,-9,-153,1500.0
20:55:20.897,AUTO,-35.3632633,149.1652342,9488,0.07178161293268204,0.010807745158672333,-0.10213696956634521,0.030099334195256233,-0.026833433657884598,0.032940302044153214,1,6,-997,30,-26,32,-22,-9,-153,1500.0
20:55:21.099,AUTO,-35.3632633,149.1652342,9488,0.07178161293268204,0.010807745158672333,-0.10213696956634521,0.030099334195256233,-0.026833433657884598,0.032940302044153214,1,6,-997,30,-26,32,-22,-9,-153,1500.0
20:55:21.300,AUTO,-35.3632633,149.1652342,9488,0.07178161293268204,0.010807745158672333,-0.10213696956634521,0.030099334195256233,-0.026833433657884598,0.032940302044153214,1,6,-997,30,-26,32,-22,-9,-153,1500.0
20:55:21.501,AUTO,-35.3632641,149.1652358,11036,-0.0003186161338817328,-0.04853776842355728,-0.04191001132130623,-0.09971600025892258,0.08621551096439362,-0.04982660710811615,1,-7,-1002,-99,86,-50,19,30,-147,1500.0
20:55:21.702,AUTO,-35.3632635,149.1652365,11416,-0.01931561902165413,-0.026297831907868385,-0.059756774455308914,-0.059394050389528275,0.08365171402692795,-0.0830773338675499,-1,-9,-1006,-59,84,-83,28,24,-148,1500.0
20:55:21.904,AUTO,-35.3632635,149.1652365,11416,-0.01931561902165413,-0.026297831907868385,-0.059756774455308914,-0.059394050389528275,0.08365171402692795,-0.0830773338675499,-1,-9,-1006,-59,84,-83,28,24,-148,1500.0
20:55:22.105,AUTO,-35.3632628,149.165237,11800,-0.028853969648480415,-0.00857729371637106,-0.0827774628996849,-0.025857290253043175,0.06150855869054794,-0.08845675736665726,-3,-8,-1006,-25,62,-88,32,15,-150,1500.0
20:55:22.306,AUTO,-35.3632621,149.1652373,12186,-0.030872181057929993,0.0029358137398958206,-0.10514596104621887,0.0022813857067376375,0.04251398146152496,-0.08389941602945328,-5,-6,-1005,2,43,-84,31,5,-151,1500.0
20:55:22.507,AUTO,-35.3632615,149.1652373,12576,-0.028358932584524155,0.011486038565635681,-0.1250065267086029,0.020305518060922623,0.029256971552968025,-0.0672605112195015,-6,-4,-1003,20,29,-67,27,-3,-152,1500.0
20:55:22.708,AUTO,-35.3632615,149.1652373,12576,-0.028358932584524155,0.011486038565635681,-0.1250065267086029,0.020305518060922623,0.029256971552968025,-0.0672605112195015,-6,-4,-1003,20,29,-67,27,-3,-152,1500.0
20:55:22.909,AUTO,-35.3632615,149.1652373,12576,-0.028358932584524155,0.011486038565635681,-0.1250065267086029,0.020305518060922623,0.029256971552968025,-0.0672605112195015,-6,-4,-1003,20,29,-67,27,-3,-152,1500.0
20:55:23.110,AUTO,-35.3632615,149.1652373,12576,-0.028358932584524155,0.011486038565635681,-0.1250065267086029,0.020305518060922623,0.029256971552968025,-0.0672605112195015,-6,-4,-1003,20,29,-67,27,-3,-152,1500.0
20:55:23.311,AUTO,-35.3632615,149.1652373,12576,-0.028358932584524155,0.011486038565635681,-0.1250065267086029,0.020305518060922623,0.029256971552968025,-0.0672605112195015,-6,-4,-1003,20,29,-67,27,-3,-152,1500.0
20:55:23.513,AUTO,-35.3632599,149.165236,14136,0.005421454552561045,0.025159351527690887,-0.16872943937778473,0.02853497862815857,0.0009760911343619227,-0.016563404351472855,-4,1,-999,28,1,-17,2,-14,-153,1500.0
20:55:23.714,AUTO,-35.3632599,149.1652356,14527,0.011592375114560127,0.02397020347416401,-0.17106573283672333,0.020749801769852638,-0.007846759632229805,-0.00553148565813899,-3,1,-999,20,-6,-5,-2,-11,-153,1500.0
20:55:23.914,AUTO,-35.3632599,149.1652353,14918,0.015177367255091667,0.021142393350601196,-0.1708838939666748,0.008019392378628254,-0.012894336134195328,0.0009136432781815529,-1,2,-999,8,-11,0,-7,-7,-152,1500.0
20:55:24.115,AUTO,-35.3632599,149.1652353,14918,0.015177367255091667,0.021142393350601196,-0.1708838939666748,0.008019392378628254,-0.012894336134195328,0.0009136432781815529,-1,2,-999,8,-11,0,-7,-7,-152,1500.0
20:55:24.316,AUTO,-35.36326,149.1652351,15310,0.01655973680317402,0.017849572002887726,-0.16960573196411133,0.0023576165549457073,-0.01271361019462347,0.005770252086222172,0,2,-999,2,-12,5,-10,-3,-152,1500.0
20:55:24.517,AUTO,-35.3632602,149.165235,15708,0.015944644808769226,0.01406891830265522,-0.16780193150043488,-0.0035948636941611767,-0.0132526196539402,0.005688173230737448,1,1,-999,-3,-12,5,-13,1,-152,1500.0
20:55:24.718,AUTO,-35.3632602,149.165235,15708,0.015944644808769226,0.01406891830265522,-0.16780193150043488,-0.0035948636941611767,-0.0132526196539402,0.005688173230737448,1,1,-999,-3,-12,5,-13,1,-152,1500.0
20:55:24.919,AUTO,-35.3632602,149.165235,15708,0.015944644808769226,0.01406891830265522,-0.16780193150043488,-0.0035948636941611767,-0.0132526196539402,0.005688173230737448,1,1,-999,-3,-12,5,-13,1,-152,1500.0
20:55:25.121,AUTO,-35.3632602,149.165235,15708,0.015944644808769226,0.01406891830265522,-0.16780193150043488,-0.0035948636941611767,-0.0132526196539402,0.005688173230737448,1,1,-999,-3,-12,5,-13,1,-152,1500.0
20:55:25.322,AUTO,-35.363261,149.1652353,16869,0.007860329933464527,0.004029707983136177,-0.1657567173242569,-0.01037147268652916,-0.009171966463327408,-0.004995879717171192,3,0,-1000,-10,-8,-5,-13,9,-152,1500.0
20:55:25.523,AUTO,-35.3632613,149.1652355,17258,0.005157030653208494,0.0013952073641121387,-0.1669289618730545,-0.009798923507332802,-0.009849203750491142,-0.007617858238518238,3,0,-1000,-9,-9,-7,-13,9,-152,1500.0
20:55:25.724,AUTO,-35.3632615,149.1652356,17648,0.003070264356210828,-0.0006066019413992763,-0.16934704780578613,-0.008855422027409077,-0.00672459090128541,-0.009971678256988525,3,0,-1000,-8,-5,-10,-11,9,-152,1500.0
20:55:25.925,AUTO,-35.3632617,149.1652358,18037,0.0012165014632046223,-0.0018547294894233346,-0.17303091287612915,-0.003395052393898368,-0.003395900595933199,-0.017295096069574356,2,0,-1001,-3,-2,-17,-9,9,-152,1500.0
20:55:26.126,AUTO,-35.3632617,149.1652358,18037,0.0012165014632046223,-0.0018547294894233346,-0.17303091287612915,-0.003395052393898368,-0.003395900595933199,-0.017295096069574356,2,0,-1001,-3,-2,-17,-9,9,-152,1500.0
20:55:26.327,AUTO,-35.3632619,149.165236,18426,-4.5681481424253434e-05,-0.0026262220926582813,-0.17771857976913452,-0.004364349879324436,5.7185126934200525e-05,-0.022360267117619514,2,0,-1000,-4,0,-22,-8,8,-152,1500.0
20:55:26.528,AUTO,-35.363262,149.1652362,18816,-0.0008061213884502649,-0.002773100743070245,-0.18323451280593872,-0.0014828104758635163,0.00016829720698297024,-0.024559155106544495,1,0,-1000,-1,1,-25,-6,7,-152,1500.0
20:55:26.729,AUTO,-35.363262,149.1652362,18816,-0.0008061213884502649,-0.002773100743070245,-0.18323451280593872,-0.0014828104758635163,0.00016829720698297024,-0.024559155106544495,1,0,-1000,-1,1,-25,-6,7,-152,1500.0
20:55:26.930,AUTO,-35.363262,149.1652362,18816,-0.0008061213884502649,-0.002773100743070245,-0.18323451280593872,-0.0014828104758635163,0.00016829720698297024,-0.024559155106544495,1,0,-1000,-1,1,-25,-6,7,-152,1500.0
20:55:27.131,AUTO,-35.363262,149.1652362,18816,-0.0008061213884502649,-0.002773100743070245,-0.18323451280593872,-0.0014828104758635163,0.00016829720698297024,-0.024559155106544495,1,0,-1000,-1,1,-25,-6,7,-152,1500.0
20:55:27.333,AUTO,-35.363262,149.1652362,18816,-0.0008061213884502649,-0.002773100743070245,-0.18323451280593872,-0.0014828104758635163,0.00016829720698297024,-0.024559155106544495,1,0,-1000,-1,1,-25,-6,7,-152,1500.0
20:55:27.534,AUTO,-35.3632622,149.1652364,20387,0.0012725972337648273,-0.00027010112535208464,-0.20992417633533478,0.0044157239608466625,0.0045003523118793964,-0.025702064856886864,0,0,-1000,4,5,-26,-1,2,-153,1500.0
20:55:27.735,AUTO,-35.3632622,149.1652364,20778,0.002006198512390256,0.000573140976484865,-0.21651732921600342,0.0029221868608146906,0.003315991023555398,-0.024879364296793938,0,0,-1000,3,3,-25,-1,2,-153,1500.0
20:55:27.936,AUTO,-35.3632621,149.1652364,21169,0.0026399234775453806,0.0013347548665478826,-0.22293438017368317,0.002834330080077052,0.0031673612538725138,-0.024277687072753906,0,0,-1000,2,4,-24,0,2,-153,1500.0
20:55:28.137,AUTO,-35.3632621,149.1652364,21169,0.0026399234775453806,0.0013347548665478826,-0.22293438017368317,0.002834330080077052,0.0031673612538725138,-0.024277687072753906,0,0,-1000,2,4,-24,0,2,-153,1500.0
20:55:28.338,AUTO,-35.3632621,149.1652364,21560,0.0032702619209885597,0.001994310412555933,-0.2291686087846756,0.0016482422361150384,0.004567787982523441,-0.02543952688574791,0,0,-999,1,5,-25,0,2,-153,1500.0
20:55:28.539,AUTO,-35.3632621,149.1652364,21951,0.0038422481156885624,0.002746471669524908,-0.23516857624053955,0.0023968378081917763,0.00212057214230299,-0.02279386669397354,0,0,-1000,2,3,-23,0,2,-153,1500.0
20:55:28.740,AUTO,-35.3632621,149.1652364,21951,0.0038422481156885624,0.002746471669524908,-0.23516857624053955,0.0023968378081917763,0.00212057214230299,-0.02279386669397354,0,0,-1000,2,3,-23,0,2,-153,1500.0
20:55:28.941,AUTO,-35.3632621,149.1652364,21951,0.0038422481156885624,0.002746471669524908,-0.23516857624053955,0.0023968378081917763,0.00212057214230299,-0.02279386669397354,0,0,-1000,2,3,-23,0,2,-153,1500.0
20:55:29.143,AUTO,-35.3632621,149.1652364,21951,0.0038422481156885624,0.002746471669524908,-0.23516857624053955,0.0023968378081917763,0.00212057214230299,-0.02279386669397354,0,0,-1000,2,3,-23,0,2,-153,1500.0
20:55:29.344,AUTO,-35.3632621,149.1652364,21951,0.0038422481156885624,0.002746471669524908,-0.23516857624053955,0.0023968378081917763,0.00212057214230299,-0.02279386669397354,0,0,-1000,2,3,-23,0,2,-153,1500.0
20:55:29.546,AUTO,-35.3632621,149.1652365,23514,0.004247164353728294,0.0034449922386556864,-0.25618016719818115,0.0013679815456271172,0.0013146548299118876,-0.019758950918912888,0,0,-1000,1,2,-20,-1,3,-153,1500.0
20:55:29.747,AUTO,-35.3632621,149.1652365,23903,0.00398427015170455,0.003344874829053879,-0.2607521712779999,-0.002155096037313342,-0.0016133850440382957,-0.016997015103697777,0,0,-1000,-2,0,-17,-1,3,-153,1500.0
20:55:29.948,AUTO,-35.3632621,149.1652366,24295,0.003080447670072317,0.0031882638577371836,-0.26540064811706543,-0.004128274042159319,-0.00023169018095359206,-0.01850173808634281,0,0,-1000,-3,0,-18,-1,4,-153,1500.0
20:55:30.149,AUTO,-35.3632621,149.1652366,24295,0.003080447670072317,0.0031882638577371836,-0.26540064811706543,-0.004128274042159319,-0.00023169018095359206,-0.01850173808634281,0,0,-1000,-3,0,-18,-1,4,-153,1500.0
20:55:30.350,AUTO,-35.3632621,149.1652366,24685,0.0028791013173758984,0.003221452236175537,-0.27015775442123413,0.0012633594451472163,0.0005066047888249159,-0.019236760213971138,0,0,-1000,1,1,-19,-1,4,-153,1500.0
20:55:30.551,AUTO,-35.3632621,149.1652367,25079,-0.0007951267180033028,0.0036152219399809837,-0.2741592824459076,-0.10729099065065384,0.012312392704188824,0.0008892986224964261,0,-3,-979,-107,13,0,-1,3,-152,1500.0
20:55:30.752,AUTO,-35.3632621,149.1652367,25079,-0.0007951267180033028,0.0036152219399809837,-0.2741592824459076,-0.10729099065065384,0.012312392704188824,0.0008892986224964261,0,-3,-979,-107,13,0,-1,3,-152,1500.0
20:55:30.953,AUTO,-35.3632621,149.1652367,25079,-0.0007951267180033028,0.0036152219399809837,-0.2741592824459076,-0.10729099065065384,0.012312392704188824,0.0008892986224964261,0,-3,-979,-107,13,0,-1,3,-152,1500.0
20:55:31.154,AUTO,-35.3632621,149.1652367,25079,-0.0007951267180033028,0.0036152219399809837,-0.2741592824459076,-0.10729099065065384,0.012312392704188824,0.0008892986224964261,0,-3,-979,-107,13,0,-1,3,-152,1500.0
20:55:31.355,AUTO,-35.3632621,149.1652367,25079,-0.0007951267180033028,0.0036152219399809837,-0.2741592824459076,-0.10729099065065384,0.012312392704188824,0.0008892986224964261,0,-3,-979,-107,13,0,-1,3,-152,1500.0
20:55:31.556,AUTO,-35.3632622,149.1652366,26631,0.008844203315675259,0.004325006157159805,-0.2542664706707001,0.012613867409527302,-0.003656764980405569,0.026494426652789116,0,0,-999,13,-2,26,-5,0,-153,1500.0
20:55:31.757,AUTO,-35.3632623,149.1652366,27021,0.01063475850969553,0.003228830173611641,-0.2473442256450653,0.0008719025645405054,-0.005633196793496609,0.027200374752283096,0,0,-1000,1,-4,26,-4,2,-153,1500.0
20:55:31.958,AUTO,-35.3632623,149.1652366,27411,0.010653390549123287,0.0022327450569719076,-0.24073174595832825,-0.00018968283256981522,-0.0023320631589740515,0.026643387973308563,0,0,-999,0,-1,26,-4,4,-153,1500.0
20:55:32.159,AUTO,-35.3632623,149.1652366,27411,0.010653390549123287,0.0022327450569719076,-0.24073174595832825,-0.00018968283256981522,-0.0023320631589740515,0.026643387973308563,0,0,-999,0,-1,26,-4,4,-153,1500.0
20:55:32.361,AUTO,-35.3632624,149.1652367,27801,0.009291199967265129,0.001413407502695918,-0.2347085177898407,-0.005167980212718248,-0.0014467635191977024,0.024587014690041542,1,0,-999,-5,0,24,-3,6,-153,1500.0
20:55:32.562,AUTO,-35.3632624,149.1652368,28190,0.007806496229022741,0.001454042736440897,-0.22883214056491852,-0.007660591974854469,0.0019808695651590824,0.022657182067632675,0,0,-1000,-7,3,22,-2,7,-152,1500.0
20:55:32.763,AUTO,-35.3632624,149.1652368,28190,0.007806496229022741,0.001454042736440897,-0.22883214056491852,-0.007660591974854469,0.0019808695651590824,0.022657182067632675,0,0,-1000,-7,3,22,-2,7,-152,1500.0
20:55:32.964,AUTO,-35.3632624,149.1652368,28190,0.007806496229022741,0.001454042736440897,-0.22883214056491852,-0.007660591974854469,0.0019808695651590824,0.022657182067632675,0,0,-1000,-7,3,22,-2,7,-152,1500.0
20:55:33.167,AUTO,-35.3632624,149.1652368,28190,0.007806496229022741,0.001454042736440897,-0.22883214056491852,-0.007660591974854469,0.0019808695651590824,0.022657182067632675,0,0,-1000,-7,3,22,-2,7,-152,1500.0
20:55:33.369,AUTO,-35.3632624,149.1652368,28190,0.007806496229022741,0.001454042736440897,-0.22883214056491852,-0.007660591974854469,0.0019808695651590824,0.022657182067632675,0,0,-1000,-7,3,22,-2,7,-152,1500.0
20:55:33.570,AUTO,-35.3632624,149.1652375,29749,0.0012473230017349124,0.001725228619761765,-0.20799072086811066,-0.004674585536122322,0.001733762794174254,0.02039683423936367,1,-1,-1000,-4,2,20,0,8,-152,1500.0
20:55:33.771,AUTO,-35.3632624,149.1652377,30137,0.0002769418351817876,0.001832621288485825,-0.2035510092973709,-0.0038205443415790796,-0.001123271300457418,0.020029716193675995,0,-1,-1000,-3,0,19,0,7,-153,1500.0
20:55:33.972,AUTO,-35.3632624,149.1652378,30526,-0.00044964050175622106,0.0015695063630118966,-0.19916675984859467,-0.0005371355218812823,-0.0006667146808467805,0.018167946487665176,0,-1,-1000,0,0,17,0,6,-153,1500.0
20:55:34.173,AUTO,-35.3632624,149.1652379,30916,-0.0009370048064738512,0.0013033018913120031,-0.1947154849767685,-0.001268359599635005,-9.186920942738652e-05,0.019540006294846535,0,0,-1000,-1,0,19,0,5,-153,1500.0
20:55:34.374,AUTO,-35.3632624,149.1652379,30916,-0.0009370048064738512,0.0013033018913120031,-0.1947154849767685,-0.001268359599635005,-9.186920942738652e-05,0.019540006294846535,0,0,-1000,-1,0,19,0,5,-153,1500.0
20:55:34.575,AUTO,-35.3632624,149.165238,31306,-0.0010674652876332402,0.0011754899751394987,-0.19048209488391876,0.002416148316115141,-0.0002557973493821919,0.016050055623054504,0,0,-1001,2,0,15,0,4,-153,1500.0
20:55:34.776,AUTO,-35.3632624,149.165238,31306,-0.0010674652876332402,0.0011754899751394987,-0.19048209488391876,0.002416148316115141,-0.0002557973493821919,0.016050055623054504,0,0,-1001,2,0,15,0,4,-153,1500.0
20:55:34.977,AUTO,-35.3632624,149.165238,31306,-0.0010674652876332402,0.0011754899751394987,-0.19048209488391876,0.002416148316115141,-0.0002557973493821919,0.016050055623054504,0,0,-1001,2,0,15,0,4,-153,1500.0
20:55:35.178,AUTO,-35.3632624,149.165238,31306,-0.0010674652876332402,0.0011754899751394987,-0.19048209488391876,0.002416148316115141,-0.0002557973493821919,0.016050055623054504,0,0,-1001,2,0,15,0,4,-153,1500.0
20:55:35.379,AUTO,-35.3632624,149.1652381,32471,-0.000167905367561616,0.000985827762633562,-0.17876601219177246,0.006173520348966122,0.0006805126322433352,0.015078075230121613,0,0,-1001,6,1,14,0,2,-153,1500.0
20:55:35.580,AUTO,-35.3632624,149.1652381,32860,0.000529887736774981,0.0010287690674886107,-0.17506182193756104,0.005240330472588539,0.0010638972744345665,0.015537246130406857,0,0,-1000,5,2,15,0,1,-153,1500.0
20:55:35.781,AUTO,-35.3632623,149.1652381,33249,0.0010292285587638617,0.0011079686228185892,-0.17170414328575134,9.006552863866091e-05,-0.0013275162782520056,0.012380272150039673,0,0,-1000,0,0,12,0,1,-153,1500.0
20:55:35.982,AUTO,-35.3632623,149.1652381,33639,0.0013684466248378158,0.0009280466474592686,-0.16825410723686218,0.0028934874571859837,0.0003698441432788968,0.013957011513411999,0,0,-1000,3,1,13,0,0,-153,1500.0
20:55:36.183,AUTO,-35.3632623,149.1652381,34028,0.0014802650548517704,0.0007854598225094378,-0.16494470834732056,0.002891926560550928,-3.720627864822745e-05,0.014299635775387287,0,0,-1000,3,0,14,0,0,-153,1500.0
20:55:36.384,AUTO,-35.3632623,149.1652381,34028,0.0014802650548517704,0.0007854598225094378,-0.16494470834732056,0.002891926560550928,-3.720627864822745e-05,0.014299635775387287,0,0,-1000,3,0,14,0,0,-153,1500.0
20:55:36.585,AUTO,-35.3632623,149.1652381,34421,0.0014170112553983927,0.0010813489789143205,-0.16156890988349915,-0.002296627499163151,0.0021232711151242256,0.012443244457244873,0,0,-1000,-2,3,12,0,0,-153,1500.0
20:55:36.786,AUTO,-35.3632623,149.1652381,34421,0.0014170112553983927,0.0010813489789143205,-0.16156890988349915,-0.002296627499163151,0.0021232711151242256,0.012443244457244873,0,0,-1000,-2,3,12,0,0,-153,1500.0
20:55:36.987,AUTO,-35.3632623,149.1652381,34421,0.0014170112553983927,0.0010813489789143205,-0.16156890988349915,-0.002296627499163151,0.0021232711151242256,0.012443244457244873,0,0,-1000,-2,3,12,0,0,-153,1500.0
20:55:37.189,AUTO,-35.3632623,149.1652381,34421,0.0014170112553983927,0.0010813489789143205,-0.16156890988349915,-0.002296627499163151,0.0021232711151242256,0.012443244457244873,0,0,-1000,-2,3,12,0,0,-153,1500.0
20:55:37.390,AUTO,-35.3632622,149.165238,35585,0.0013898927718400955,0.001267775776796043,-0.15284544229507446,0.0012875328538939357,-2.8318841941654682e-05,0.012385828420519829,0,0,-1000,1,1,12,0,0,-153,1500.0
20:55:37.591,AUTO,-35.3632622,149.1652379,35975,0.0014222260797396302,0.0010468692053109407,-0.14994443953037262,0.0009601162164472044,-0.0004722312733065337,0.012185070663690567,0,0,-1000,1,0,11,0,0,-153,1500.0
20:55:37.792,AUTO,-35.3632622,149.1652379,36365,0.0014670387608930469,0.0011825899127870798,-0.14754696190357208,0.0006850754143670201,0.0002828675205819309,0.010692944750189781,0,0,-1000,1,1,10,0,0,-153,1500.0
20:55:37.993,AUTO,-35.3632622,149.1652379,36753,0.0013646883890032768,0.0011245912173762918,-0.14504459500312805,-0.0016974336467683315,0.0005060877883806825,0.010936968959867954,0,0,-999,-1,1,11,0,0,-153,1500.0
20:55:38.193,AUTO,-35.3632622,149.1652378,37143,0.0014721413608640432,0.0010968659771606326,-0.14263027906417847,0.00461674714460969,0.000828584365081042,0.010563232935965061,0,0,-1001,4,1,10,0,0,-153,1500.0
20:55:38.394,AUTO,-35.3632622,149.1652378,37143,0.0014721413608640432,0.0010968659771606326,-0.14263027906417847,0.00461674714460969,0.000828584365081042,0.010563232935965061,0,0,-1001,4,1,10,0,0,-153,1500.0
20:55:38.595,AUTO,-35.3632622,149.1652378,37533,0.0016751099610701203,0.0011485577560961246,-0.14037159085273743,0.003758723381906748,0.0014315375592559576,0.008513514883816242,0,0,-1001,3,2,8,0,0,-153,1500.0
20:55:38.796,AUTO,-35.3632622,149.1652378,37533,0.0016751099610701203,0.0011485577560961246,-0.14037159085273743,0.003758723381906748,0.0014315375592559576,0.008513514883816242,0,0,-1001,3,2,8,0,0,-153,1500.0
20:55:38.997,AUTO,-35.3632622,149.1652378,37533,0.0016751099610701203,0.0011485577560961246,-0.14037159085273743,0.003758723381906748,0.0014315375592559576,0.008513514883816242,0,0,-1001,3,2,8,0,0,-153,1500.0
20:55:39.198,AUTO,-35.3632622,149.1652378,37533,0.0016751099610701203,0.0011485577560961246,-0.14037159085273743,0.003758723381906748,0.0014315375592559576,0.008513514883816242,0,0,-1001,3,2,8,0,0,-153,1500.0
20:55:39.399,AUTO,-35.3632622,149.1652377,38700,0.0021156040020287037,0.0013512989971786737,-0.13382399082183838,0.0009491615928709507,0.001231623813509941,0.008273505605757236,0,0,-1000,1,2,8,0,0,-153,1500.0
20:55:39.600,AUTO,-35.3632621,149.1652376,39094,0.0025597894564270973,0.0013698199763894081,-0.131721630692482,0.00531983794644475,0.0021602618508040905,0.01111465785652399,0,0,-1000,5,3,11,0,0,-153,1500.0
20:55:39.802,AUTO,-35.3632621,149.1652376,39482,0.0025659617967903614,0.001572302426211536,-0.1295606642961502,-0.0012101868633180857,0.0006649564020335674,0.007436139974743128,0,0,-1000,-1,1,7,0,0,-153,1500.0
20:55:40.002,AUTO,-35.3632621,149.1652376,39872,0.0022304083686321974,0.0015639999182894826,-0.12773561477661133,-0.0033548595383763313,-0.0009621490025892854,0.009742752648890018,0,0,-999,-3,0,9,0,0,-153,1500.0
20:55:40.204,AUTO,-35.3632621,149.1652376,40262,0.002332937903702259,0.0015191570855677128,-0.12572835385799408,0.0021330160088837147,-0.0005905653815716505,0.008965462446212769,0,0,-1001,2,0,9,0,0,-153,1500.0
20:55:40.405,AUTO,-35.3632621,149.1652376,40262,0.002332937903702259,0.0015191570855677128,-0.12572835385799408,0.0021330160088837147,-0.0005905653815716505,0.008965462446212769,0,0,-1001,2,0,9,0,0,-153,1500.0
20:55:40.607,AUTO,-35.3632621,149.1652375,40651,0.00240671681240201,0.001526999520137906,-0.12406802177429199,0.0022051562555134296,0.00021568487863987684,0.008516591042280197,0,0,-1000,2,1,8,0,0,-153,1500.0
20:55:40.808,AUTO,-35.3632621,149.1652375,40651,0.00240671681240201,0.001526999520137906,-0.12406802177429199,0.0022051562555134296,0.00021568487863987684,0.008516591042280197,0,0,-1000,2,1,8,0,0,-153,1500.0
20:55:41.010,AUTO,-35.3632621,149.1652375,40651,0.00240671681240201,0.001526999520137906,-0.12406802177429199,0.0022051562555134296,0.00021568487863987684,0.008516591042280197,0,0,-1000,2,1,8,0,0,-153,1500.0
20:55:41.212,AUTO,-35.3632621,149.1652375,40651,0.00240671681240201,0.001526999520137906,-0.12406802177429199,0.0022051562555134296,0.00021568487863987684,0.008516591042280197,0,0,-1000,2,1,8,0,0,-153,1500.0
20:55:41.414,AUTO,-35.3632621,149.1652375,40651,0.00240671681240201,0.001526999520137906,-0.12406802177429199,0.0022051562555134296,0.00021568487863987684,0.008516591042280197,0,0,-1000,2,1,8,0,0,-153,1500.0
20:55:41.616,AUTO,-35.3632621,149.1652375,42204,0.0017851346638053656,0.0013737197732552886,-0.11728193610906601,0.0019338822457939386,0.0009178773034363985,0.00639953650534153,0,0,-1001,2,1,6,0,1,-153,1500.0
20:55:41.817,AUTO,-35.3632621,149.1652375,42594,0.0018776794895529747,0.0016405365895479918,-0.11572523415088654,0.0009772561024874449,8.929171599447727e-05,0.0058054677210748196,0,0,-1000,1,1,5,-1,1,-153,1500.0
20:55:42.018,AUTO,-35.3632621,149.1652375,42983,0.001872268388979137,0.0016224613646045327,-0.1140563040971756,-0.0014125778106972575,0.0006849886849522591,0.007376635447144508,0,0,-999,-1,1,7,-1,1,-153,1500.0
20:55:42.219,AUTO,-35.363262,149.1652375,43372,0.0018948586657643318,0.0016491285059601068,-0.11265386641025543,-0.00018039767746813595,0.0013065972598269582,0.00606178492307663,0,0,-999,0,2,6,-1,1,-153,1500.0
20:55:42.421,AUTO,-35.363262,149.1652375,43766,0.0018163215136155486,0.0015565677313134074,-0.11112917959690094,0.0009310573805123568,-0.0006661344086751342,0.007376559544354677,0,0,-1001,1,0,7,-1,1,-153,1500.0
20:55:42.622,AUTO,-35.363262,149.1652375,43766,0.0018163215136155486,0.0015565677313134074,-0.11112917959690094,0.0009310573805123568,-0.0006661344086751342,0.007376559544354677,0,0,-1001,1,0,7,-1,1,-153,1500.0
20:55:42.823,AUTO,-35.363262,149.1652375,43766,0.0018163215136155486,0.0015565677313134074,-0.11112917959690094,0.0009310573805123568,-0.0006661344086751342,0.007376559544354677,0,0,-1001,1,0,7,-1,1,-153,1500.0
20:55:43.024,AUTO,-35.363262,149.1652375,43766,0.0018163215136155486,0.0015565677313134074,-0.11112917959690094,0.0009310573805123568,-0.0006661344086751342,0.007376559544354677,0,0,-1001,1,0,7,-1,1,-153,1500.0
20:55:43.226,AUTO,-35.363262,149.1652375,43766,0.0018163215136155486,0.0015565677313134074,-0.11112917959690094,0.0009310573805123568,-0.0006661344086751342,0.007376559544354677,0,0,-1001,1,0,7,-1,1,-153,1500.0
20:55:43.428,AUTO,-35.363262,149.1652374,45323,0.001655429252423346,0.0012703393585979939,-0.10517843067646027,0.0036199609749019146,-0.0006115980795584619,0.007565788459032774,0,0,-1000,4,0,7,-1,1,-153,1500.0
20:55:43.629,AUTO,-35.363262,149.1652374,45323,0.001655429252423346,0.0012703393585979939,-0.10517843067646027,0.0036199609749019146,-0.0006115980795584619,0.007565788459032774,0,0,-1000,4,0,7,-1,1,-153,1500.0
20:55:43.830,AUTO,-35.363262,149.1652374,45712,0.0015219489578157663,0.0011713732965290546,-0.10396510362625122,-0.002416739473119378,-0.0005041394615545869,0.0039330897852778435,0,0,-1000,-2,0,4,-1,1,-153,1500.0
20:55:44.031,AUTO,-35.363262,149.1652374,46108,0.0015280473744496703,0.0008775203605182469,-0.10213686525821686,0.0005432197940535843,-0.0011388699058443308,0.008337258361279964,0,0,-1000,1,0,8,-1,1,-153,1500.0
20:55:44.232,AUTO,-35.363262,149.1652374,46498,0.0017279668245464563,0.001258434378542006,-0.10081493109464645,0.0029347462113946676,0.003626423655077815,0.0070932786911726,0,0,-1000,3,4,7,-1,1,-153,1500.0
20:55:44.432,AUTO,-35.363262,149.1652374,46888,0.0017348008695989847,0.0011457663495093584,-0.09940364211797714,0.00184492371045053,0.00013317586854100227,0.009167377837002277,0,0,-999,1,1,9,-1,1,-153,1500.0
20:55:44.633,AUTO,-35.363262,149.1652374,46888,0.0017348008695989847,0.0011457663495093584,-0.09940364211797714,0.00184492371045053,0.00013317586854100227,0.009167377837002277,0,0,-999,1,1,9,-1,1,-153,1500.0
20:55:44.834,AUTO,-35.363262,149.1652374,46888,0.0017348008695989847,0.0011457663495093584,-0.09940364211797714,0.00184492371045053,0.00013317586854100227,0.009167377837002277,0,0,-999,1,1,9,-1,1,-153,1500.0
20:55:45.035,AUTO,-35.363262,149.1652374,46888,0.0017348008695989847,0.0011457663495093584,-0.09940364211797714,0.00184492371045053,0.00013317586854100227,0.009167377837002277,0,0,-999,1,1,9,-1,1,-153,1500.0
20:55:45.237,AUTO,-35.363262,149.1652374,46888,0.0017348008695989847,0.0011457663495093584,-0.09940364211797714,0.00184492371045053,0.00013317586854100227,0.009167377837002277,0,0,-999,1,1,9,-1,1,-153,1500.0
20:55:45.438,AUTO,-35.363263,149.1652361,48283,-0.04165121912956238,0.029814140871167183,0.2375362515449524,0.11006660759449005,-0.2184336632490158,0.23042145371437073,3,7,-941,110,-217,230,-31,-34,-113,1500.0
20:55:45.639,AUTO,-35.363263,149.1652361,48283,-0.04165121912956238,0.029814140871167183,0.2375362515449524,0.11006660759449005,-0.2184336632490158,0.23042145371437073,3,7,-941,110,-217,230,-31,-34,-113,1500.0
20:55:45.840,AUTO,-35.3632637,149.165235,48556,-0.012925342656672001,-0.016592370346188545,0.27768778800964355,0.1106296181678772,-0.15662923455238342,0.10826783627271652,4,10,-949,111,-155,108,-30,-38,-100,1500.0
20:55:46.041,AUTO,-35.3632642,149.165234,48799,0.010397915728390217,-0.04397071897983551,0.2932925224304199,0.06869232654571533,-0.07360337674617767,0.03829619288444519,3,10,-956,69,-72,38,-22,-33,-88,1500.0
20:55:46.243,AUTO,-35.3632646,149.1652332,49012,0.026615718379616737,-0.054393552243709564,0.2955600321292877,0.06699936836957932,-0.019838012754917145,-0.0019992024172097445,1,8,-962,67,-18,-1,-12,-23,-78,1500.0
20:55:46.445,AUTO,-35.3632648,149.1652327,49201,0.03651341795921326,-0.05428626015782356,0.29108673334121704,0.031032200902700424,0.014161139726638794,-0.02223014272749424,0,3,-968,31,15,-21,-2,-11,-69,1500.0
20:55:46.647,AUTO,-35.3632648,149.1652327,49201,0.03651341795921326,-0.05428626015782356,0.29108673334121704,0.031032200902700424,0.014161139726638794,-0.02223014272749424,0,3,-968,31,15,-21,-2,-11,-69,1500.0
20:55:46.848,AUTO,-35.3632648,149.1652327,49201,0.03651341795921326,-0.05428626015782356,0.29108673334121704,0.031032200902700424,0.014161139726638794,-0.02223014272749424,0,3,-968,31,15,-21,-2,-11,-69,1500.0
20:55:47.049,AUTO,-35.3632648,149.1652327,49201,0.03651341795921326,-0.05428626015782356,0.29108673334121704,0.031032200902700424,0.014161139726638794,-0.02223014272749424,0,3,-968,31,15,-21,-2,-11,-69,1500.0
20:55:47.250,AUTO,-35.3632648,149.1652327,49201,0.03651341795921326,-0.05428626015782356,0.29108673334121704,0.031032200902700424,0.014161139726638794,-0.02223014272749424,0,3,-968,31,15,-21,-2,-11,-69,1500.0
20:55:47.452,AUTO,-35.3632638,149.1652334,49766,0.022140704095363617,-0.014945349656045437,0.2551591396331787,-0.38947027921676636,0.04195001721382141,-0.03386576101183891,-2,-12,-969,-388,43,-33,20,26,-42,1500.0
20:55:47.653,AUTO,-35.3632638,149.1652334,49766,0.022140704095363617,-0.014945349656045437,0.2551591396331787,-0.38947027921676636,0.04195001721382141,-0.03386576101183891,-2,-12,-969,-388,43,-33,20,26,-42,1500.0
20:55:47.854,AUTO,-35.3632633,149.1652341,49865,0.021080659702420235,-0.005151540506631136,0.24587570130825043,0.25185054540634155,0.03307609260082245,-0.029053514823317528,-4,16,-986,254,34,-28,20,30,-37,1500.0
20:55:48.055,AUTO,-35.3632628,149.1652349,49950,0.020952561870217323,0.003074460895732045,0.23751702904701233,0.44557198882102966,0.0297846756875515,-0.028771044686436653,-2,7,-987,445,30,-28,20,31,-32,1500.0
20:55:48.256,AUTO,-35.3632624,149.1652357,50026,0.008759080432355404,0.009247126057744026,0.23014400899410248,-0.25868943333625793,0.021603839471936226,-0.026354636996984482,-3,-33,-976,-260,22,-26,18,30,-28,1500.0
20:55:48.457,AUTO,-35.3632619,149.1652364,50088,-0.0026350468397140503,0.01316965464502573,0.22274330258369446,-0.6436627507209778,0.013626225292682648,-0.02485242486000061,-1,-32,-975,-643,14,-24,15,28,-22,1500.0
20:55:48.659,AUTO,-35.3632619,149.1652364,50088,-0.0026350468397140503,0.01316965464502573,0.22274330258369446,-0.6436627507209778,0.013626225292682648,-0.02485242486000061,-1,-32,-975,-643,14,-24,15,28,-22,1500.0
20:55:48.860,AUTO,-35.3632619,149.1652364,50088,-0.0026350468397140503,0.01316965464502573,0.22274330258369446,-0.6436627507209778,0.013626225292682648,-0.02485242486000061,-1,-32,-975,-643,14,-24,15,28,-22,1500.0
20:55:49.061,AUTO,-35.3632619,149.1652364,50088,-0.0026350468397140503,0.01316965464502573,0.22274330258369446,-0.6436627507209778,0.013626225292682648,-0.02485242486000061,-1,-32,-975,-643,14,-24,15,28,-22,1500.0
20:55:49.265,AUTO,-35.3632619,149.1652364,50088,-0.0026350468397140503,0.01316965464502573,0.22274330258369446,-0.6436627507209778,0.013626225292682648,-0.02485242486000061,-1,-32,-975,-643,14,-24,15,28,-22,1500.0
20:55:49.468,AUTO,-35.3632609,149.1652386,50166,-0.0202042106539011,0.041796620935201645,0.20120869576931,0.9445076584815979,0.007185876835137606,-0.03239211440086365,1,54,-964,208,-8,-17,0,11,13,1500.0
20:55:49.673,AUTO,-35.363261,149.1652387,50121,-0.004224044736474752,0.02450331300497055,0.1946832537651062,0.8333665728569031,-0.118800587952137,-0.01872384175658226,4,22,-1002,833,-117,-18,-5,2,17,1500.0
20:55:49.879,AUTO,-35.363261,149.1652387,50121,-0.004224044736474752,0.02450331300497055,0.1946832537651062,0.8333665728569031,-0.118800587952137,-0.01872384175658226,4,22,-1002,833,-117,-18,-5,2,17,1500.0
20:55:50.081,AUTO,-35.3632611,149.1652388,50077,0.004178577568382025,-0.0016789925284683704,0.1892293244600296,-0.2289123833179474,-0.08518373221158981,-0.015878824517130852,3,-33,-998,-232,-83,-15,-7,0,14,1500.0
20:55:50.283,AUTO,-35.3632612,149.1652389,50042,0.003965743351727724,-0.01594034768640995,0.18338577449321747,-0.6689931750297546,-0.039710141718387604,-0.022380392998456955,2,-39,-1034,-670,-38,-22,-4,2,10,1500.0
20:55:50.484,AUTO,-35.3632613,149.1652392,50016,0.007219972088932991,-0.024067968130111694,0.17738036811351776,-0.5842171311378479,-0.028172655031085014,-0.022164421156048775,3,-21,-1009,-582,-26,-21,0,7,8,1500.0
20:55:50.689,AUTO,-35.3632613,149.1652392,50016,0.007219972088932991,-0.024067968130111694,0.17738036811351776,-0.5842171311378479,-0.028172655031085014,-0.022164421156048775,3,-21,-1009,-582,-26,-21,0,7,8,1500.0
20:55:50.892,AUTO,-35.3632613,149.1652392,50016,0.007219972088932991,-0.024067968130111694,0.17738036811351776,-0.5842171311378479,-0.028172655031085014,-0.022164421156048775,3,-21,-1009,-582,-26,-21,0,7,8,1500.0
20:55:51.094,AUTO,-35.3632613,149.1652392,50016,0.007219972088932991,-0.024067968130111694,0.17738036811351776,-0.5842171311378479,-0.028172655031085014,-0.022164421156048775,3,-21,-1009,-582,-26,-21,0,7,8,1500.0
20:55:51.300,AUTO,-35.3632613,149.1652392,50016,0.007219972088932991,-0.024067968130111694,0.17738036811351776,-0.5842171311378479,-0.028172655031085014,-0.022164421156048775,3,-21,-1009,-582,-26,-21,0,7,8,1500.0
20:55:51.506,AUTO,-35.3632613,149.1652392,50016,0.007219972088932991,-0.024067968130111694,0.17738036811351776,-0.5842171311378479,-0.028172655031085014,-0.022164421156048775,3,-21,-1009,-582,-26,-21,0,7,8,1500.0
20:55:51.708,AUTO,-35.3632597,149.1652448,49964,0.04340818524360657,-0.08095843344926834,0.3601796627044678,-0.5500508546829224,-0.07018163055181503,0.7856900095939636,-2,-57,-1001,-551,-69,785,46,57,0,1500.0
20:55:51.909,AUTO,-35.3632597,149.1652448,49964,0.04340818524360657,-0.08095843344926834,0.3601796627044678,-0.5500508546829224,-0.07018163055181503,0.7856900095939636,-2,-57,-1001,-551,-69,785,46,57,0,1500.0
20:55:52.110,AUTO,-35.3632586,149.165247,49960,0.031161293387413025,-0.09792961180210114,0.5696635842323303,-0.4312121570110321,-0.04331976920366287,0.8296960592269897,-11,-34,-1006,-429,-42,829,60,74,0,1500.0
20:55:52.311,AUTO,-35.3632572,149.1652498,49957,0.023018203675746918,-0.11289095133543015,0.7782289385795593,0.12336484342813492,-0.03607775270938873,0.7856954336166382,-22,-1,-1006,126,-35,785,74,93,0,1500.0
20:55:52.511,AUTO,-35.3632556,149.165253,49954,0.012372351251542568,-0.12691470980644226,0.9763142466545105,0.563854455947876,-0.03636733442544937,0.7366906404495239,-27,7,-1005,566,-35,737,89,112,0,1500.0
20:55:52.712,AUTO,-35.3632556,149.165253,49954,0.012372351251542568,-0.12691470980644226,0.9763142466545105,0.563854455947876,-0.03636733442544937,0.7366906404495239,-27,7,-1005,566,-35,737,89,112,0,1500.0
20:55:52.914,AUTO,-35.3632556,149.165253,49954,0.012372351251542568,-0.12691470980644226,0.9763142466545105,0.563854455947876,-0.03636733442544937,0.7366906404495239,-27,7,-1005,566,-35,737,89,112,0,1500.0
20:55:53.115,AUTO,-35.3632556,149.165253,49954,0.012372351251542568,-0.12691470980644226,0.9763142466545105,0.563854455947876,-0.03636733442544937,0.7366906404495239,-27,7,-1005,566,-35,737,89,112,0,1500.0
20:55:53.317,AUTO,-35.3632556,149.165253,49954,0.012372351251542568,-0.12691470980644226,0.9763142466545105,0.563854455947876,-0.03636733442544937,0.7366906404495239,-27,7,-1005,566,-35,737,89,112,0,1500.0
20:55:53.519,AUTO,-35.3632454,149.1652722,49943,-0.012378755025565624,-0.12784162163734436,1.2373262643814087,0.14913374185562134,0.11558562517166138,-0.14326870441436768,-54,-3,-1015,151,116,-143,148,197,-1,1500.0
