time_stamp,roll,pitch,yaw,rollspeed,pitchspeed,yawspeed,MODE,RTL_ALT,xacc,yacc,zacc,xgyro,ygyro,zgyro,lat,lon,relative_alt,vx,vy,vz
04:37:19,-0.001144789275713265,0.0009689689322840422,0.022222792729735374,0.0002107114705722779,0.00018817587988451123,0.0018062873277813196,STABILIZE,200.0,0.0,1.0,-1000.0,0.0,0.0,0.0,-35.3632622,149.1652375,0.0,-1.0,1.0,0.0
04:37:25,-0.0009511830285191536,0.0011177004198543727,0.021048733964562416,0.0002037487574853003,0.00023158936528488994,0.0015182620263658464,AUTO,200.0,0.0,1.5,-1000.0,0.5,0.5,0.5,-35.3632621,149.1652375,1.0,0.0,0.0,1.0
04:37:26,-0.0008227988000726327,0.0013113930763211101,0.020883632358163595,0.0003127620875602588,0.0002716889575822279,0.0013799933367408812,AUTO,300000.0,0.0,1.25,-1000.0,0.25,0.75,0.25,-35.3632621,149.16523745,1.25,0.0,0.0,0.25
04:37:27,-0.00040190957952290773,0.0016607770812697709,0.020565273240208626,0.00030160407186485827,0.0002561097498983145,0.0013758903369307518,AUTO,300000.0,0.0,2.0,-1000.0,1.0,0.5,0.5,-35.3632621,149.1652375,0.0,0.0,0.0,1.0
04:37:29,0.02812611497938633,-0.0018011601932812482,0.020157618448138237,0.0459603127092123,-0.007777714636176825,0.002531044650822878,AUTO,300000.0,0.0,-0.5,-1012.0,46.0,-6.5,2.0,-35.363262,149.1652376,1600.0,0.5,7.5,-146.0
04:37:30,0.05085249338299036,-0.0022122630616649985,0.000587906688451767,-0.016137778293341398,0.02460952545516193,-0.03389010642422363,AUTO,106602.0,1.0,-6.25,-996.25,-15.5,25.25,-34.0,-35.363261675000004,149.16523937500003,2756.25,6.25,36.0,-147.75
04:37:31,-0.03877035155892372,0.012267864774912596,-0.08045198395848274,-0.03417080640792847,-0.019185123965144157,-0.037181769497692585,AUTO,106602.0,3.5,-7.5,-1003.5,-33.0,-18.5,-37.0,-35.3632609,149.16524535000002,4657.5,-0.5,30.0,-149.5
04:37:33,-0.002810495672747493,8.178793359547853e-05,-0.0974663533270359,0.0666782334446907,0.01392420893535018,0.0018013755325227976,AUTO,106602.0,-7.0,11.0,-1003.5,66.5,13.5,1.5,-35.363261249999994,149.16523990000002,7749.5,-4.0,-59.0,-151.5
04:37:34,0.04564908845350146,0.008168609230779111,-0.09438620693981647,0.06129696313291788,0.005960127979051322,0.006758389296010137,AUTO,119804.0,-3.75,8.5,-1002.25,61.5,6.5,5.75,-35.363261699999995,149.165235725,8923.25,-8.5,-34.0,-153.75
04:37:35,0.010959096893202513,-0.00921943737193942,-0.07723097875714302,-0.0721456278115511,0.007271951530128717,-0.014576422749087214,AUTO,119804.0,2.5,-2.5,-1001.5,-71.0,7.5,-14.5,-35.3632626,149.16523495,10868.5,-1.0,22.0,-150.0
04:37:37,-0.00045541691360995173,0.0051092421635985374,-0.13665959984064102,0.017480310052633286,0.006610065931454301,-0.023072426207363605,AUTO,119804.0,-2.0,0.0,-1000.0,17.5,6.5,-23.0,-35.363261800000004,149.16523619999998,13974.0,3.5,-6.0,-153.0
04:37:38,0.0078027197159826756,0.0072255495470017195,-0.14987697079777718,0.006744542391970754,0.0012610013654921204,-0.014165777014568448,AUTO,199227.0,-1.25,0.0,-1000.0,7.0,1.25,-13.75,-35.36326155,149.16523569999998,15145.5,0.25,-3.5,-153.0
04:37:39,0.007266526808962226,0.0053720660507678986,-0.1648014411330223,-0.005877315765246749,-0.001845718885306269,-0.01312657818198204,AUTO,199227.0,0.0,0.0,-999.5,-4.5,-1.0,-12.5,-35.3632615,149.16523545,17094.5,-3.0,3.5,-153.0
04:37:41,0.0022133294260129333,0.003011719440110028,-0.199389286339283,0.000657604105072096,4.919304046779871e-05,-0.02013915590941906,AUTO,199227.0,0.0,0.0,-1000.0,1.0,0.5,-20.0,-35.3632617,149.1652361,20209.0,-3.0,4.5,-154.0
04:37:42,0.00204036696231924,0.0027701022336259484,-0.21443939954042435,0.0012692766322288662,0.0009913606991176493,-0.021895633079111576,AUTO,12511.0,0.0,0.0,-1000.0,1.75,1.25,-21.5,-35.3632618,149.1652363,21381.0,-2.25,3.75,-154.0
04:37:43,0.0023028443101793528,0.0029498249059543014,-0.24019520729780197,0.0010500609932933003,0.0008225201745517552,-0.02028543781489134,AUTO,12511.0,0.0,0.0,-1000.0,1.5,1.5,-20.0,-35.3632618,149.16523654999997,23327.0,-2.0,3.0,-154.0
04:37:45,0.008407430723309517,0.0035080991219729185,-0.24387386441230774,0.015811132732778788,-0.00325604563113302,0.02583498228341341,AUTO,12511.0,0.0,1.0,-999.5,16.5,-2.0,25.5,-35.36326215,149.16523654999997,26596.5,-4.5,-0.5,-154.0
04:37:46,-0.0055478321155533195,0.017637183977058157,-0.180030919611454,-0.06899572286056355,0.05464537045918405,0.23007929744198918,AUTO,170283.0,0.0,0.0,-984.5,-68.0,55.0,229.5,-35.363262375,149.16523657499997,27752.0,-5.75,2.75,-148.25
04:37:47,0.0007217573001980782,-0.029532683081924915,0.15897197276353836,0.0929991602897644,-0.09789391793310642,-0.004994850605726242,AUTO,170283.0,3.0,8.5,-953.5,93.5,-96.5,-5.0,-35.363264599999994,149.16523485,29363.5,-28.0,-25.5,-96.5
04:37:49,0.012826879392378032,-0.0007434093859046698,0.11311093717813492,-0.2560829482972622,0.031856301240623,-0.006987645057961345,AUTO,170283.0,-2.5,-21.0,-973.0,-255.5,32.0,-6.5,-35.363263599999996,149.16523545,30641.0,24.0,27.5,-38.0
04:37:50,0.002350907656364143,0.013796218205243349,0.10669603943824768,0.11108631826937199,0.011073847068473697,-0.006366349523887038,AUTO,14072.0,-1.0,-7.75,-972.25,111.5,11.5,-6.0,-35.3632621,149.165237475,30845.0,17.5,23.5,-20.5
04:37:51,-0.01581354660447687,0.03647543117403984,0.09815127775073051,0.6502983719110489,-0.022287726402282715,-0.01744434330612421,AUTO,14072.0,2.0,40.0,-1013.5,652.0,-21.0,-17.0,-35.363261050000006,149.1652392,30849.0,-8.0,-1.5,14.0
04:37:53,0.0549930315464735,0.05887065455317497,0.27512507885694504,-0.26255893521010876,0.016378605272620916,0.7112478911876678,AUTO,14072.0,18.0,-23.5,-1005.5,-262.0,17.0,711.0,-35.3632676,149.16523940000002,30712.0,-72.0,28.0,-3.5
04:37:54,0.10221138224005699,0.029321481939405203,0.8782632499933243,0.12798497639596462,0.026547460700385273,0.7605255097150803,AUTO,233406.0,21.5,-12.75,-1004.25,129.25,27.25,760.25,-35.363274175,149.1652423,30720.5,-116.75,56.0,-4.25
04:37:55,0.14998220652341843,-0.06551726348698139,1.76334547996521,0.3358742184937,-0.02774216514080763,0.706788033246994,AUTO,233406.0,-1.0,-50.5,-1000.5,336.0,-26.0,706.5,-35.363292799999996,149.16525224999998,30743.5,-220.0,103.5,-4.0
04:37:57,0.0482743289321661,-0.12464278191328049,2.889065384864807,-0.17241010814905167,0.035193078219890594,-0.059229286620393395,AUTO,233406.0,-94.5,-42.5,-1001.5,-171.0,36.5,-59.5,-35.363348,149.16528215,30831.5,-400.0,168.0,-15.5
04:37:58,0.05293612089008093,-0.26137247309088707,2.8300187587738037,0.0697428984567523,-0.10582181997597218,-0.03805046854540706,AUTO,205353.0,-99.75,-44.0,-984.25,70.75,-104.25,-37.5,-35.3633759,149.1652968,30860.75,-462.25,187.0,5.0
04:37:59,0.08115144073963165,-0.029447096632793546,2.821764588356018,-0.06861743330955505,-0.07774613797664642,0.0046653104946017265,AUTO,205353.0,-113.5,-69.5,-966.0,-67.0,-77.0,4.5,-35.36343345,149.16532610000002,31027.0,-525.0,205.0,-42.0
04:38:01,0.0689118541777134,0.032023366540670395,2.8199421167373657,0.41577600315213203,0.010398790705949068,0.0040747299790382385,AUTO,205353.0,-70.5,-39.0,-1009.5,416.0,10.5,4.5,-35.3635099,149.16536274999999,31220.0,-317.0,112.5,3.5
04:38:02,0.03304446069523692,-0.08892497327178717,2.8136218190193176,-0.30413151904940605,-0.24998219311237335,-0.0018988146912306547,AUTO,190654.0,-57.25,-49.0,-995.25,-302.5,-248.5,-1.75,-35.363529575,149.16537155,31169.0,-284.25,100.25,5.25
04:38:03,0.050889577716588974,-0.021374013274908066,2.805586576461792,0.021069422364234924,0.4375533163547516,-0.02640151046216488,AUTO,190654.0,-86.0,-58.5,-1056.5,22.0,438.0,-26.0,-35.36356685,149.1653895,31120.5,-370.0,151.0,-23.0
04:38:05,0.07316285744309425,-0.056846980936825275,2.795350193977356,-0.01215122826397419,0.37431274354457855,-0.02602184610441327,AUTO,190654.0,-109.5,-63.0,-1065.0,-10.0,375.0,-25.5,-35.3636355,149.1654259,31213.5,-458.0,179.5,-28.0
04:38:06,0.07372361049056053,-0.16235771775245667,2.7913742661476135,-0.03850876726210117,-0.3184546045958996,0.02248798101209104,AUTO,200.0,-93.75,-60.25,-938.25,-36.75,-316.75,22.5,-35.363665525,149.16544145,31363.25,-443.0,169.0,-5.5
04:38:07,0.08031010255217552,-0.04826912749558687,2.7965627908706665,0.037152327597141266,0.37162937223911285,-0.05561230331659317,AUTO,200.0,-133.0,-68.5,-1082.5,39.0,372.5,-55.0,-35.3637229,149.16547025,31333.0,-555.0,213.5,-39.5
04:38:09,0.06056678853929043,0.07854684442281723,2.7953221797943115,-0.7385114431381226,-0.1015060804784298,0.051821271888911724,AUTO,200.0,-69.0,-95.5,-980.0,-736.5,-99.5,51.5,-35.3638086,149.16551175,31732.5,-341.0,121.5,0.5
04:38:10,0.03474469389766455,0.024068720638751984,2.790091633796692,0.2594839483499527,-0.13869049679487944,-0.012361441040411592,AUTO,300000.0,-55.25,-24.5,-1002.75,262.0,-136.75,-12.0,-35.363829200000005,149.16552044999997,31687.25,-264.0,91.5,5.25
04:38:11,0.021117279306054115,-0.21925292909145355,2.78265643119812,0.15586069598793983,-0.03885149583220482,-0.027957113459706306,AUTO,300000.0,-65.0,-31.5,-1012.5,158.0,-37.0,-27.5,-35.3638593,149.1655339,31592.5,-306.5,127.5,6.0
04:38:13,0.05108797177672386,-0.15526548027992249,2.778412342071533,0.04061251878738403,0.14198898524045944,-0.01090816780924797,AUTO,300000.0,-76.5,-55.0,-1019.5,42.5,143.5,-10.5,-35.3639204,149.16556605,31726.0,-365.0,156.5,-0.5
04:38:14,0.05317502282559872,-0.06921597383916378,2.778164267539978,-0.10937337763607502,0.10100890509784222,-0.0002722093486227095,AUTO,200.0,-87.75,-60.25,-1007.25,-107.0,102.5,0.0,-35.363946424999995,149.16557932499998,31779.5,-380.5,160.75,-13.0
04:38:15,0.05497891083359718,0.11938909441232681,2.779895782470703,-0.1221437007188797,0.11677636206150055,0.008830095175653696,AUTO,200.0,-59.5,-62.0,-1001.5,-121.5,118.0,9.0,-35.36398675,149.16559940000002,31944.0,-279.5,115.0,-10.5
04:38:17,-0.004975459480192512,-0.035100869834423065,2.7765713930130005,-0.287548691034317,-0.021993344416841865,-0.0033042672439478338,AUTO,200.0,-22.0,-12.5,-1013.0,-285.0,-19.0,-3.0,-35.36401525,149.16561174999998,31908.0,-89.0,37.5,1.5
04:38:18,0.011234009871259332,-0.0018535797717049718,2.775420606136322,0.01774386130273342,0.09270321344956756,-0.0036670294357463717,AUTO,121458.0,-21.5,-12.75,-1000.5,19.75,94.25,-3.25,-35.36402162500001,149.165615325,31910.25,-87.5,42.25,-2.0
04:38:19,0.007804233173374087,0.05493640527129173,2.7748268842697144,-0.5617621392011642,-0.03102090023458004,0.005911462154472247,AUTO,121458.0,-6.0,-38.0,-996.0,-560.0,-28.0,6.0,-35.364028899999994,149.16561984999998,31933.0,-22.5,10.5,0.0
04:38:21,-0.0027857920358655974,-0.013484994415193796,2.7728251218795776,0.49887870252132416,0.011402496136724949,0.0019031842821277678,AUTO,121458.0,0.0,19.5,-1002.0,500.0,14.0,2.0,-35.36402925,149.16561935,31935.5,9.5,1.5,-0.5
04:38:22,-0.009237935237251804,-0.004177506954874843,2.7721357345581055,-0.16090042144060135,0.005219160957494751,-0.003721240282175131,RTL,168500.0,-0.5,1.25,-998.0,-158.5,7.25,-3.0,-35.36402915,149.1656193,31937.75,6.0,4.25,-1.5
04:38:23,-0.01320355897769332,-0.0002352746741962619,2.770646572113037,-0.1794421151280403,0.007738898508250713,-0.006114479620009661,RTL,168500.0,-0.5,-2.0,-1041.0,-177.5,10.0,-5.5,-35.36402925,149.165619,32103.5,5.5,4.5,-33.0
04:38:25,-0.011331669986248016,-0.0019163945689797401,2.767537832260132,0.014637410640716553,0.0006030258955433965,-0.0032868096604943275,RTL,168500.0,1.0,-1.0,-1000.0,16.0,3.0,-2.5,-35.3640295,149.16561825000002,33429.0,9.5,11.5,-80.0
04:38:26,-0.010003872914239764,-0.004561278852634132,2.766293942928314,0.008760738302953541,-0.004205965553410351,-0.002558766514994204,RTL,147840.0,-0.25,2.75,-989.5,10.0,-1.0,-1.75,-35.364029325,149.165618225,34037.0,9.75,12.0,-75.75
04:38:27,0.0009381049312651157,-0.008737260475754738,2.765635132789612,0.2021792307496071,-0.0004860502667725086,5.96057616348844e-05,RTL,147840.0,-0.5,11.0,-975.0,203.0,2.0,0.0,-35.3640288,149.1656188,34900.0,6.5,9.5,-52.5
04:38:29,0.01048352476209402,-0.008225408382713795,2.7644370794296265,0.5155252814292908,0.004457960370928049,0.002501051058061421,RTL,147840.0,0.0,30.0,-989.0,517.0,6.5,2.5,-35.364028149999996,149.1656201,35411.5,-1.0,-0.5,2.0
04:38:30,0.00720346665912075,-0.00623771792743355,2.7640236020088196,-0.08728976547718048,0.0012649465934373438,0.0005399977671913803,RTL,200.0,-1.5,-2.75,-996.75,-86.0,3.25,1.0,-35.364028075,149.16562045,35378.75,-1.75,-2.25,5.0
04:38:31,0.010058414191007614,-0.004954933654516935,2.7627224922180176,-0.29572030156850815,0.004638443700969219,0.00013932998990640044,RTL,200.0,-1.5,-2.0,-1034.0,-293.5,6.5,0.5,-35.36402795,149.16562134999998,35410.5,-3.5,-9.0,-18.5
04:38:33,0.008514073677361012,0.00012751224676321726,2.7610037326812744,0.2094543520361185,0.005318927112966776,0.0037639517104253173,RTL,200.0,0.5,6.5,-969.0,211.0,7.0,4.0,-35.364028250000004,149.16562145,36324.0,-4.0,-15.0,-43.5
04:38:34,-0.00024805363500490785,-0.00021282028865243774,2.76115483045578,0.024069547653198242,-0.0006484033656306565,0.0034667119616642594,RTL,300000.0,1.0,2.5,-965.0,26.0,1.75,3.5,-35.3640285,149.16562090000002,36538.75,-1.5,-12.75,-13.75
04:38:35,-0.012350034900009632,-0.0023158289259299636,2.761132001876831,-0.23438700288534164,-0.0007550780428573489,0.0010243011638522148,RTL,300000.0,0.0,2.0,-1002.5,-232.0,1.5,1.0,-35.3640287,149.16562,36567.5,0.5,-6.5,4.5
04:38:37,-8.686035289429128e-05,-0.005013670772314072,2.760244607925415,-0.18201204109936953,-0.00174621120095253,0.0006070274102967232,RTL,300000.0,-0.5,-3.5,-1029.5,-180.0,1.0,1.0,-35.3640287,149.16561984999998,36880.0,2.0,-1.5,-47.5
04:38:38,0.007365328725427389,-0.004843381000682712,2.7596448063850403,0.09474682062864304,0.0019053971045650542,0.001219030498759821,RTL,241201.0,-0.75,5.75,-989.75,96.25,4.25,1.5,-35.36402855,149.16562015,37285.0,0.75,-2.25,-52.5
04:38:39,0.011030921246856451,-0.004157795570790768,2.7594274282455444,0.4325932636857033,0.0007172127952799201,0.0018017386901192367,RTL,241201.0,0.0,23.5,-964.5,434.5,2.5,2.0,-35.3640284,149.16562055,37751.0,0.0,-6.5,-11.5
04:38:41,0.0028327416912361514,-0.0019878149032592773,2.7583987712860107,-0.44029703736305237,0.0009232404408976436,0.004189620027318597,RTL,241201.0,1.0,-16.0,-1026.0,-437.5,3.0,4.5,-35.3640283,149.1656211,37755.5,-1.5,-10.5,-7.0
04:38:42,0.0056308636121684685,-0.002215087355580181,2.758351981639862,0.04108216613531113,-0.0006027584022376686,0.0013204449933255091,RTL,278604.0,0.0,1.75,-1038.0,43.25,1.75,1.5,-35.364028375,149.16562092499998,37930.25,-1.25,-10.5,-35.25
04:38:43,-0.00016375049017369747,-0.0034949987893924117,2.757603645324707,-0.040338918566703796,0.001286880171392113,0.0025296708336099982,RTL,278604.0,0.0,2.5,-985.5,-38.0,3.5,3.0,-35.3640284,149.16562055,38562.5,0.0,-8.0,-53.0
04:38:45,-0.002589570125564933,-0.004783187061548233,2.7577152252197266,-0.5815535485744476,0.0007265002932399511,-0.001325552468188107,RTL,278604.0,-0.5,-26.0,-991.0,-579.0,2.5,-0.5,-35.3640284,149.1656204,38994.0,0.0,-5.0,3.0
04:38:46,0.004327377711888403,-0.003429268253967166,2.757436156272888,-0.005620740354061127,0.0033545878250151873,0.0012977352453162894,RTL,300000.0,0.25,-3.5,-1010.5,-3.25,5.25,2.25,-35.3640284,149.165620375,38974.75,0.0,-5.5,0.25
04:38:47,-0.0024344694684259593,-0.00211810483597219,2.7572015523910522,-0.273068442940712,-0.0003413130762055516,-0.0007668418693356216,RTL,300000.0,0.0,-14.5,-1038.0,-270.5,2.0,0.5,-35.36402855,149.16562015,39170.0,0.0,-4.5,-38.5
04:38:49,-0.0033617871813476086,-0.001965913805179298,2.7567617893218994,0.3460506647825241,0.004128255415707827,0.003044588433112949,RTL,300000.0,0.5,18.0,-958.5,348.5,6.5,4.0,-35.3640289,149.1656194,40181.5,2.5,0.0,-29.0
04:38:50,-0.0038003078079782426,-0.003643819014541805,2.756865978240967,-0.03263371717184782,-0.005616845155600458,0.0021197372407186776,RTL,173602.0,0.25,2.25,-975.5,-30.0,-2.5,2.75,-35.364028875,149.165619325,40294.0,4.0,1.5,-4.0
04:38:51,-0.007746619870886207,-0.00487689464353025,2.756824016571045,-0.3062262125313282,0.004021473345346749,-0.002136105438694358,RTL,173602.0,-0.5,1.5,-1000.5,-303.5,6.5,-0.5,-35.3640287,149.16561945,40271.5,2.5,0.5,3.5
04:38:53,-0.0045702074421569705,-0.003586834529414773,2.7559523582458496,-0.08583483844995499,-3.791821654886007e-05,0.002677852346096188,RTL,173602.0,0.0,2.0,-1008.0,-83.0,3.0,4.0,-35.3640288,149.1656194,40803.5,2.0,1.0,-54.5
04:38:54,0.0009859513374976814,-0.0037362995208241045,2.75612211227417,0.11669710278511047,0.00030395336216315627,0.001677654159720987,RTL,286151.0,0.0,4.75,-970.25,118.75,3.0,2.5,-35.3640288,149.165619525,41198.25,2.25,1.25,-44.0
04:38:55,0.0029104630229994655,-0.003583589452318847,2.7556209564208984,0.4212631434202194,0.003144153277389705,0.005277600605040789,RTL,286151.0,0.5,28.0,-975.0,423.5,6.0,6.0,-35.3640287,149.1656197,41496.0,2.0,0.0,-1.5
04:38:57,-0.0031496863812208176,-0.0041591927874833345,2.7559378147125244,-0.3663294017314911,-0.000574174802750349,0.0008690773975104094,RTL,286151.0,-0.5,-15.5,-1038.5,-363.5,2.5,1.5,-35.3640287,149.1656198,41520.5,1.5,0.0,-20.5
04:38:58,-0.000995169801171869,-0.0031980504281818867,2.7552241683006287,0.06522720539942384,0.0005040952237322927,0.0014755117299500853,RTL,277461.0,0.25,3.25,-1029.5,67.25,3.5,2.75,-35.3640287,149.165619725,41791.75,1.0,-0.25,-46.25
04:38:59,-0.0017395011382177472,-0.003675482817925513,2.755644202232361,0.2270357981324196,0.0003564666258171201,0.0013926323154009879,RTL,277461.0,0.5,8.5,-966.0,229.0,2.5,2.5,-35.3640288,149.1656194,42441.0,2.5,1.5,-42.5
04:39:01,-0.00597915705293417,-0.004153003450483084,2.755846858024597,0.12175020575523376,0.0037358648842200637,-0.0005259417230263352,RTL,277461.0,0.0,22.0,-1000.5,125.0,6.5,0.5,-35.3640288,149.1656193,42666.0,2.5,2.0,3.5
04:39:02,0.0011709059472195804,-0.004429974826052785,2.75550639629364,-0.037030779756605625,-0.0008202530443668365,0.0010837781883310527,RTL,276287.0,0.0,-0.25,-1031.0,-35.25,2.0,2.25,-35.36402875,149.16561945,42670.5,2.5,2.0,-7.75
04:39:03,0.0051985932514071465,-0.004603765672072768,2.7550946474075317,0.05623689293861389,0.0014388109557330608,0.0006561632035300136,RTL,276287.0,-1.0,6.5,-1029.5,58.0,4.5,2.0,-35.3640286,149.16561995,43038.0,1.0,-0.5,-51.0
04:39:05,0.01458199042826891,-0.004161492455750704,2.7553489208221436,0.3300211913883686,0.0053675202652812,0.0028778533451259136,RTL,276287.0,-0.5,3.5,-959.0,331.5,8.0,4.0,-35.3640284,149.1656207,43916.5,0.0,-6.0,-10.5
04:39:06,0.004722629673779011,-0.0030517116538248956,2.755082368850708,-0.00690053403377533,0.0025522465584799647,0.0019797742424998432,RTL,84981.0,0.0,0.25,-990.0,-4.5,5.25,3.0,-35.3640283,149.1656207,43936.25,-0.75,-7.25,2.25
04:39:07,0.0017947953310795128,-0.003165454021655023,2.7550625801086426,0.3060298431664705,0.001246346510015428,0.0029848216800019145,RTL,84981.0,0.5,20.0,-1036.5,308.5,4.5,4.0,-35.364028450000006,149.16562025000002,43918.0,-1.0,-7.0,-6.5
04:39:09,0.00379521722697973,-0.0036993902176618576,2.754815459251404,0.19790182262659073,0.0032815788872539997,-0.00145917315967381,RTL,84981.0,-0.5,9.0,-987.5,200.0,6.0,0.0,-35.3640286,149.16561984999998,44732.5,1.0,-1.0,-55.0
04:39:10,0.005804639513371512,-0.004069334652740508,2.7546700835227966,-0.04607267118990421,-0.0025501313502900302,0.00011918391101062298,RTL,53668.0,-0.25,-4.0,-958.0,-43.75,0.25,1.75,-35.364028575,149.165620075,45068.5,1.0,-1.75,-30.5
04:39:11,0.018140077590942383,-0.005376239074394107,2.7550700902938843,0.5674978345632553,0.003643575473688543,0.0013362822937779129,RTL,53668.0,1.0,16.0,-1006.5,569.0,6.0,2.5,-35.36402835,149.1656205,45211.0,0.0,-5.0,3.5
04:39:13,0.0024233896983787417,-0.003962757997214794,2.7549009323120117,0.03353030979633331,-0.0006627516122534871,0.0021757144713774323,RTL,53668.0,0.0,7.5,-1041.5,36.0,2.5,3.5,-35.3640283,149.1656205,45348.5,-1.0,-7.0,-35.0
04:39:14,0.006980064761592075,-0.004057039332110435,2.754883825778961,0.011699495371431112,0.000664419902022928,0.0002601792220957577,RTL,227264.0,-0.75,-1.0,-1010.0,13.75,3.5,1.5,-35.3640283,149.165620575,45712.0,-1.0,-6.5,-54.0
04:39:15,0.01344080176204443,-0.0025276680244132876,2.754483222961426,0.0773000717163086,0.0010489673004485667,0.002536014362704009,RTL,227264.0,0.5,-3.5,-957.5,79.5,4.0,4.0,-35.3640283,149.1656209,46327.5,-1.0,-8.5,-28.5
04:39:17,-0.006664889166131616,-0.0046864766627550125,2.755151867866516,-0.3513736631721258,-0.00013993028551340103,-2.914085052907467e-05,RTL,227264.0,0.5,-5.0,-1010.0,-347.5,3.0,2.0,-35.3640284,149.1656203,46416.0,-0.5,-6.5,2.5
04:39:18,0.0016910942795220762,-0.004014221485704184,2.754646420478821,0.03725765645503998,-0.00027910020435228944,0.00030245055677369237,RTL,103248.0,1.0,-3.0,-1040.25,39.75,2.5,1.5,-35.364028425,149.16562005,46469.25,-0.75,-4.75,-17.25
04:39:19,-0.004440948832780123,-0.00332765094935894,2.754520297050476,-0.111506637185812,-0.0005848959553986788,-7.116119377315044e-05,RTL,103248.0,-0.5,-1.5,-1009.0,-109.0,2.5,1.5,-35.3640286,149.16561965,46959.5,0.0,-1.0,-55.0
04:39:21,-0.0001326811034232378,-0.004399593453854322,2.754399061203003,0.10452082753181458,-0.0013670723419636488,0.0028683196287602186,RTL,103248.0,0.5,17.5,-976.5,108.5,2.0,4.0,-35.3640287,149.16561965,47676.0,1.5,-0.5,-2.0
04:39:22,0.002628555550472811,-0.0051674359710887074,2.7551509141921997,-0.0954647846519947,-0.0012476926785893738,0.002399183256784454,RTL,227582.0,-0.5,-6.75,-993.5,-92.5,1.75,3.75,-35.364028575,149.165619775,47662.5,1.25,-0.25,4.25
04:39:23,0.003945196920540184,-0.005154163343831897,2.754586100578308,-0.3935859948396683,-0.00020908983424305916,0.0010730854119174182,RTL,227582.0,0.0,-14.5,-1041.0,-390.5,3.0,3.0,-35.3640284,149.16562025000002,47688.0,0.0,-3.0,-17.5
04:39:25,0.0018432533834129572,-0.0025646532885730267,2.7544050216674805,0.10532547533512115,0.0008624596521258354,0.0024717856431379914,RTL,227582.0,0.0,11.0,-967.5,109.0,3.5,4.0,-35.3640285,149.16562034999998,48592.5,0.0,-5.0,-44.0
04:39:26,0.001800753059796989,-0.0021766654681414366,2.7545685172080994,0.027028796263039112,0.0010486419196240604,0.0005052910419180989,RTL,288482.0,0.25,0.0,-964.25,29.75,3.75,1.75,-35.364028525,149.165620225,48812.0,0.0,-4.25,-14.5
04:39:27,-0.00676260533509776,-0.0031387939816340804,2.7550370693206787,0.009557202458381653,0.001779844518750906,-0.0001343490439467132,RTL,288482.0,0.0,15.0,-995.5,13.0,5.0,2.0,-35.3640287,149.16561984999998,48842.5,1.0,-3.0,4.0
04:39:29,-0.006211375584825873,-0.00313390651717782,2.754290819168091,-0.26448510587215424,0.0005436965730041265,0.0010184088023379445,RTL,288482.0,0.0,-11.5,-1021.5,-261.0,3.5,3.0,-35.3640288,149.16561935,49169.0,2.0,1.0,-48.0
04:39:30,-0.008487495826557279,-0.0020295320719014853,2.7543593049049377,-0.0684196762740612,0.0007637215894646943,0.0014689524250570685,RTL,100122.0,0.25,-3.5,-988.25,-65.75,4.25,3.25,-35.364028975000004,149.165619025,49568.0,3.0,2.5,-50.0
04:39:31,-0.014015755616128445,-0.003623874392360449,2.754760503768921,-0.39166309684515,-0.004441899713128805,0.00323127256706357,RTL,100122.0,0.0,-11.0,-963.5,-388.0,-1.0,5.0,-35.3640291,149.1656186,50000.5,5.5,6.5,-8.0
04:39:33,0.0008110778871923685,-0.005071325693279505,2.755397081375122,-0.05594521760940552,0.0020852111047133803,-0.0003982707276009023,RTL,100122.0,0.0,-10.0,-1032.0,-54.0,5.0,1.5,-35.36402885,149.16561895,49993.0,4.5,7.0,-6.0
04:39:34,-0.00013686297461390495,-0.0054395709885284305,2.7546603679656982,-0.02615775167942047,-0.0011238795705139637,0.0003912913962267339,RTL,90277.0,-1.0,1.75,-1035.5,-23.5,2.25,2.25,-35.364028725000004,149.16561925,50164.75,3.0,4.5,-34.0
04:39:35,0.0002228492230642587,-0.0038820006884634495,2.7545565366744995,-0.1800862019881606,0.0003210105933248997,0.00048629799857735634,RTL,90277.0,0.0,-5.5,-981.0,-177.5,3.5,2.5,-35.3640287,149.16561975000002,50771.5,1.5,1.5,-48.5
04:39:37,-0.002261537592858076,-0.005121487425640225,2.7552433013916016,-0.6311445236206055,-0.002969144028611481,0.001566561113577336,RTL,90277.0,0.0,-30.0,-994.5,-628.0,0.5,3.0,-35.36402855,149.1656201,51135.5,1.5,-1.0,3.5
04:39:38,0.007467339964932762,-0.005243124673143029,2.7548025250434875,0.17397438548505306,0.0010913643636740744,-0.0017109787731897086,RTL,200.0,-0.25,7.5,-1013.0,176.25,4.0,0.5,-35.364028425,149.165620325,51117.5,0.0,-3.5,-1.25
04:39:39,0.006175255170091987,-0.004343705251812935,2.754459500312805,-0.04732425510883331,-0.001614175969734788,0.0005636214045807719,RTL,200.0,0.0,-8.0,-1034.0,-45.0,1.5,2.5,-35.3640284,149.16562055,51367.5,-0.5,-5.0,-43.0
04:39:41,0.00042456923983991146,-0.0031084491638466716,2.754256010055542,-0.11547073721885681,-0.003277837997302413,0.0004027060931548476,RTL,200.0,0.0,2.5,-958.0,-112.0,0.5,2.5,-35.3640284,149.1656206,52308.5,0.0,-7.0,-18.5
04:39:42,0.004319498402765021,-0.0038788949023000896,2.754918694496155,-0.16093479376286268,-0.0007695364765822887,0.0012592973362188786,RTL,105600.0,0.0,-12.25,-987.0,-158.5,2.5,3.25,-35.3640284,149.16562055,52362.75,0.0,-6.5,0.25
04:39:43,0.0021567816147580743,-0.0036603108746930957,2.754467248916626,-0.24460086040198803,-0.0014500864781439304,-0.00024237041361629963,RTL,105600.0,0.5,-23.0,-1019.5,-242.5,2.0,1.5,-35.3640284,149.1656203,52336.5,0.0,-5.0,-2.5
04:39:45,0.0031401519299834035,-0.0038780776085332036,2.7540857791900635,-0.13793933764100075,-0.0012026141630485654,1.538719516247511e-05,RTL,105600.0,0.0,-9.5,-993.0,-135.0,2.5,2.0,-35.3640285,149.1656202,53065.5,0.0,-3.5,-58.5
04:39:46,0.0011345843086019158,-0.003341742092743516,2.7540515661239624,-0.056813664734363556,0.0009548149537295103,0.0013899440527893603,RTL,13388.0,0.0,-0.5,-959.75,-53.5,4.0,3.25,-35.3640285,149.16562015,53450.5,0.0,-3.25,-39.25
04:39:47,-0.006648448412306607,-0.003989364020526409,2.754594922065735,-0.499055877327919,-0.0012235062895342708,0.0015939741861075163,RTL,13388.0,0.5,-33.5,-982.0,-496.0,2.0,3.5,-35.3640285,149.16561984999998,53677.5,0.5,-1.5,1.0
04:39:49,-0.004488954786211252,-0.0027739652432501316,2.7546958923339844,0.27423505298793316,-0.0005206381902098656,0.00046402669977396727,RTL,13388.0,0.0,4.5,-1041.0,276.5,3.0,2.5,-35.36402885,149.1656189,53740.5,2.5,4.0,-26.5
04:39:50,-0.010565817006863654,-0.0031284664291888475,2.7543675303459167,-0.08400685340166092,-0.0004693572991527617,0.00011094243382103741,RTL,200.0,0.0,-3.75,-1021.5,-81.0,3.5,2.25,-35.364028975000004,149.16561862499998,54053.0,3.5,6.25,-49.75
04:39:51,-0.0069132468197494745,-0.003682181239128113,2.754510998725891,-0.2649649055674672,-0.00217538233846426,0.0008326821262016892,RTL,200.0,0.0,-15.0,-959.0,-262.5,1.5,3.0,-35.36402905,149.16561865,54706.5,6.0,8.5,-37.5
04:39:53,0.0007730111246928573,-0.0034483057679608464,2.754778027534485,0.5911345779895782,0.0007352930260822177,0.0011944567086175084,RTL,200.0,0.0,17.0,-1001.0,593.5,4.0,3.5,-35.364029,149.1656186,54882.0,4.5,7.5,4.5
04:39:54,-0.008581736343330704,-0.0040514987194910645,2.7547220587730408,-0.04498262703418732,0.0002740888739936054,-0.0024714916944503784,RTL,85306.0,-1.25,2.0,-1030.75,-42.25,3.5,0.0,-35.364029,149.16561854999998,54891.25,5.0,8.0,-8.5
04:39:55,0.0021898344857618213,-0.005373585969209671,2.7546881437301636,0.2208845615386963,0.002615964272990823,-0.0006126656080596149,RTL,85306.0,-1.0,8.5,-1019.0,223.0,6.0,1.5,-35.3640289,149.16561895,55275.5,5.0,8.0,-50.0
04:39:57,0.01278555253520608,-0.004244179232046008,2.754858374595642,0.16367265582084656,0.002316728699952364,0.0058620385825634,RTL,85306.0,-0.5,-7.5,-974.0,165.0,6.0,8.0,-35.3640285,149.1656202,56032.5,1.5,-0.5,-3.5
04:39:58,0.0036243059257685672,-0.002773229090962559,2.7545695900917053,0.04468534700572491,0.0020360543858259916,0.0007332464738283306,RTL,87699.0,0.5,2.25,-997.5,47.25,5.5,3.0,-35.364028525,149.165620225,56034.25,0.25,-3.25,2.75
04:39:59,0.0014131755160633475,-0.0028046683873981237,2.754815697669983,0.46692974865436554,0.0007412484847009182,0.00214852683711797,RTL,87699.0,0.0,24.5,-1034.0,469.5,4.5,4.5,-35.364028649999995,149.16561995,56034.5,1.0,-3.0,-11.5
04:40:01,0.00924290856346488,-0.0027650623815134168,2.754068374633789,0.21415231004357338,0.0005853583570569754,0.0009012301452457905,RTL,87699.0,-0.5,7.5,-976.0,216.0,4.0,3.0,-35.3640287,149.16562025000002,56890.0,2.0,-3.0,-48.5
04:40:02,0.008296013465951546,-0.003262420417740941,2.754561185836792,0.07016980461776257,-0.0013260099804028869,0.000995692884316668,RTL,74673.0,0.0,1.75,-959.5,72.75,2.5,3.5,-35.3640286,149.1656205,57149.75,1.5,-5.0,-19.0
04:40:03,0.010837230016477406,-0.0058244881220161915,2.7549827098846436,0.3765852376818657,-0.0008130917558446527,-0.0014382505905814469,RTL,74673.0,-1.0,30.5,-995.0,379.5,2.5,0.5,-35.36402835,149.1656209,57206.5,0.0,-9.0,3.5
04:40:05,0.01694758189842105,-0.0036946749314665794,2.7545359134674072,0.03134824335575104,0.003469199873507023,0.0026500759413465858,RTL,74673.0,0.0,3.5,-1032.5,34.5,7.0,5.0,-35.36402785,149.1656221,57480.5,-5.5,-17.5,-45.5
04:40:06,0.014733107760548592,-0.0024693579180166125,2.7538708448410034,0.04834598768502474,0.0020921644754707813,0.0012446555483620614,RTL,300000.0,0.0,-0.25,-994.0,51.25,5.75,3.5,-35.36402795,149.165622025,57887.25,-5.75,-19.0,-54.0
04:40:07,0.011575249023735523,-0.0025783854071050882,2.754501700401306,0.08023843169212341,0.000385478837415576,0.0033033628715202212,RTL,300000.0,1.0,-10.5,-961.5,83.5,4.0,5.5,-35.3640281,149.16562145,58407.5,-3.5,-16.0,-16.0
04:40:09,-0.0016065639210864902,-0.004027892951853573,2.755009174346924,0.14171790331602097,-0.0018576625734567642,0.0005260076140984893,RTL,300000.0,0.5,18.5,-1033.0,146.0,2.5,3.0,-35.3640284,149.16562025000002,58421.0,-1.0,-8.5,-4.0
04:40:10,0.0016862717602634802,-0.0045961260329931974,2.7547338008880615,-0.013154834508895874,-0.0006370169576257467,-0.0012073234538547695,RTL,300000.0,0.0,-3.5,-1040.0,-9.75,3.5,1.25,-35.3640284,149.1656201,58561.75,-0.25,-5.25,-31.0
04:40:11,0.007341580465435982,-0.004444181453436613,2.754023790359497,0.1552452640607953,0.002751061925664544,0.0016869858372956514,RTL,300000.0,0.0,8.5,-992.0,159.0,6.5,4.0,-35.3640284,149.1656202,59176.0,-0.5,-4.0,-57.0
04:40:13,0.0029748931410722435,-0.0038462133379653096,2.754761219024658,0.19070318713784218,0.0034511899575591087,-0.0020841355435550213,RTL,300000.0,0.0,22.0,-1003.5,195.5,7.0,0.5,-35.3640284,149.1656203,59728.5,0.0,-5.5,2.0
04:40:14,0.002744736848399043,-0.0035085685667581856,2.7550783157348633,-0.011262945830821991,0.0037940936163067818,-9.553052950650454e-05,RTL,246058.0,-0.5,-5.0,-1015.5,-8.0,7.5,2.5,-35.364028425,149.16562015,59700.25,-0.25,-4.75,2.0
04:40:15,0.004339612030889839,-0.00424652686342597,2.754486322402954,-0.21959961112588644,-0.002169786486774683,0.001580877578817308,RTL,246058.0,-0.5,-12.5,-1034.5,-215.5,1.5,4.0,-35.3640285,149.1656203,59845.0,0.0,-3.5,-34.0
04:40:17,0.0012182859936729074,-0.002666459186002612,2.7538914680480957,-0.07609647512435913,-0.00032337545417249203,0.00042631191899999976,RTL,246058.0,-0.5,5.5,-952.0,-71.5,3.5,3.0,-35.3640284,149.1656208,60836.0,-1.0,-9.0,-32.0
04:40:18,0.00019393349066376686,-0.0029533262131735682,2.7547359466552734,-0.1866275854408741,-0.0004429808468557894,0.002215507556684315,RTL,51014.0,1.0,-11.75,-976.25,-182.5,3.25,4.75,-35.3640284,149.165620525,60964.25,-0.25,-7.5,-5.75
04:40:19,-0.00897022953722626,-0.0017658682772889733,2.754929542541504,-0.41873323917388916,-0.002032849472016096,0.00019038945902138948,RTL,51014.0,1.0,-25.5,-1001.0,-415.0,2.0,3.0,-35.364028649999995,149.16561975000002,60948.0,0.0,-3.5,2.0
04:40:21,-0.00975862261839211,-0.0035079707158729434,2.754606604576111,-0.15582985989749432,-0.0022584348917007446,-0.0005554365925490856,RTL,51014.0,0.5,-11.0,-1010.0,-152.0,1.5,2.0,-35.3640291,149.16561865,61491.0,4.5,6.0,-57.5
04:40:22,-0.005734800550271757,-0.00437688478268683,2.754163384437561,0.03173191286623478,-0.00252392707625404,0.0002913373173214495,RTL,13542.0,0.0,4.75,-974.25,35.75,1.75,2.75,-35.364029,149.165618675,61913.75,5.0,6.5,-49.25
04:40:23,-0.00628702063113451,-0.00594293256290257,2.7551320791244507,-0.5635793209075928,-0.0030406645964831114,-0.002158651885110885,RTL,13542.0,0.0,-25.5,-966.5,-559.5,0.5,0.5,-35.3640288,149.165619,62272.5,5.0,6.5,-4.0
04:40:25,0.009437800850719213,-0.004485581070184708,2.7545530796051025,0.33808089792728424,0.0016727070324122906,0.00029288954101502895,RTL,13542.0,-0.5,14.0,-1045.0,341.5,5.5,3.0,-35.3640285,149.1656199,62272.5,0.5,0.0,-15.0
04:40:26,0.004173565481323749,-0.004126932471990585,2.7545285820961,-0.033475049771368504,-0.000130536500364542,0.0002625809866003692,RTL,208315.0,0.0,-0.5,-1032.75,-29.75,3.75,2.75,-35.3640285,149.165620125,62505.75,0.0,-1.5,-42.25
04:40:27,0.0020341426134109497,-0.00385861424729228,2.7541762590408325,-0.16595996916294098,-0.0013045520754531026,0.0009431232465431094,RTL,208315.0,0.0,-9.0,-971.0,-162.5,2.5,3.5,-35.3640285,149.1656203,63167.0,0.0,-3.5,-49.5
04:40:29,0.00572575768455863,-0.002991334185935557,2.7547301054000854,0.11572237312793732,0.002870137570425868,0.003921752097085118,RTL,208315.0,0.5,-14.0,-993.5,118.5,7.0,6.5,-35.3640285,149.16561995,63501.5,0.0,-1.5,3.5
04:40:30,-0.00485295621183468,-0.003568921412806958,2.7549100518226624,-0.007802493870258331,-0.0008560114074498415,0.0006921156891621649,RTL,78053.0,0.0,5.25,-1022.25,-3.75,3.25,3.25,-35.3640286,149.1656196,63486.5,0.25,-1.25,-3.25
04:40:31,0.0035909097641706467,-0.00542660104110837,2.754230260848999,0.05521649867296219,-0.0022721500135958195,-0.0001713933888822794,RTL,78053.0,0.0,-7.0,-1035.0,58.0,2.0,3.0,-35.3640286,149.1656195,63758.0,2.0,1.0,-45.0
04:40:33,0.001714465208351612,-0.004409522050991654,2.754467725753784,-0.03882044553756714,0.0014369463315233588,0.00013310392387211323,RTL,78053.0,0.0,8.5,-963.5,-34.5,5.5,2.5,-35.36402855,149.16561995,64570.0,0.0,-1.0,-32.5
04:40:34,0.006292257632594556,-0.005197469610720873,2.7546854615211487,0.009497784078121185,-0.0007672222563996911,0.0021863447036594152,RTL,200.0,-0.75,-4.75,-976.25,13.25,3.25,4.75,-35.36402845,149.165620075,64745.5,0.0,-2.5,-1.25
04:40:35,0.004142967984080315,-0.005472476594150066,2.7548136711120605,-0.22572187334299088,-0.00045319588389247656,0.0009159317705780268,RTL,200.0,-0.5,-4.5,-1005.5,-221.5,3.5,3.0,-35.3640283,149.16562045,64724.5,0.0,-4.0,2.0
04:40:37,0.00786400136227409,-0.003114489372819662,2.754364093144735,-0.13031586011250815,-0.0014427732676267624,0.0006493201168874899,RTL,200.0,0.6666666666666666,-8.333333333333334,-1002.0,-126.33333333333333,3.0,3.0,-35.364028166666664,149.16562116666668,65297.333333333336,-3.0,-11.0,-50.666666666666664
04:40:38,0.002488686950528063,-0.0017690335225779563,2.7541441321372986,-0.03340143081732094,5.212496034801006e-06,0.0023193686502054334,RTL,46829.0,1.0,-8.5,-955.5,-29.5,3.75,5.25,-35.36402835,149.16562075000002,65757.25,-2.25,-10.5,-29.0
04:40:39,-0.007965764962136745,-0.002945208689197898,2.7552988529205322,-0.49073708057403564,-0.0052173384465277195,0.003469557501375675,RTL,46829.0,1.0,-36.0,-987.0,-487.0,0.0,6.0,-35.3640286,149.1656198,65895.0,0.0,-4.0,2.0
04:40:41,-0.008737126054863134,-0.0027443389408290386,2.7546733220418296,-0.01921135187149048,-0.0004371814429759979,0.0005624546514203151,RTL,46829.0,0.6666666666666666,-4.0,-1039.3333333333333,-15.333333333333334,3.6666666666666665,3.3333333333333335,-35.364028866666665,149.16561883333333,65987.66666666667,2.0,2.6666666666666665,-26.666666666666668
04:40:42,-0.011599531397223473,-0.003006153739988804,2.7545923590660095,-0.03489787504076958,-0.0012637473409995437,-0.0005252939299680293,RTL,261943.0,0.25,-3.75,-1008.0,-30.5,3.25,2.25,-35.364029025,149.165618425,66415.0,4.5,7.5,-53.25
04:40:43,-0.009029649198055267,-0.004429949447512627,2.7546133995056152,-0.5099518299102783,-0.006070836912840605,0.0038788444362580776,RTL,261943.0,0.0,-29.0,-954.0,-507.0,-1.0,7.0,-35.364029,149.1656185,67006.0,6.0,10.0,-27.0
04:40:45,0.001466256333515048,-0.00593540258705616,2.754648804664612,-0.04135635495185852,-0.0008206525817513466,-0.00047799822641536593,RTL,261943.0,-1.5,-3.0,-1009.5,-38.0,4.0,2.5,-35.364028649999995,149.1656193,67087.5,3.0,4.5,3.0
04:40:46,0.004903499691863544,-0.00446333596482873,2.7550954818725586,-0.07188058272004128,0.001058840425685048,0.0011580894351936877,RTL,143969.0,-1.25,-3.0,-1033.0,-68.25,5.0,4.0,-35.364028575,149.165619875,67124.25,1.5,1.5,-16.5
04:40:47,0.013239792082458735,-0.004033020813949406,2.754354238510132,0.2422618269920349,0.002266258466988802,-0.001581291202455759,RTL,143969.0,0.0,5.0,-1018.5,245.5,6.5,1.0,-35.364028450000006,149.1656205,67481.0,0.0,-2.5,-47.0
04:40:49,0.006450179498642683,-0.002938500139862299,2.7550101280212402,-0.21860651671886444,0.000760194263420999,0.0032077819341793656,RTL,143969.0,0.0,-14.0,-957.0,-214.5,5.0,6.0,-35.3640283,149.16562095,68273.5,-1.0,-8.5,-9.5
04:40:50,0.0010120311635546386,-0.003404556307941675,2.7549437880516052,0.03247983753681183,0.0009495328995399177,-0.000170562241692096,RTL,158481.0,0.5,7.25,-1001.25,36.75,5.0,2.75,-35.3640283,149.16562075,68290.5,-1.0,-8.75,3.25
04:40:51,0.0029567814199253917,-0.0030966612976044416,2.7544296979904175,0.09339557588100433,0.0024586443323642015,0.0006779475370422006,RTL,158481.0,1.0,-1.5,-1026.0,97.5,6.5,3.5,-35.3640285,149.16562019999998,68313.5,-1.0,-6.5,-12.5
04:40:53,-0.0027082859305664897,-0.0030480651184916496,2.754534125328064,0.09971159510314465,-0.0031549502164125443,0.001141832210123539,RTL,158481.0,0.0,-3.5,-976.5,103.5,1.5,4.0,-35.3640289,149.1656192,69120.0,2.5,2.0,-46.0
04:40:54,-0.0009848158224485815,-0.004795062239281833,2.754757583141327,0.021879181265830994,-0.0010905630770139396,0.0010962420492433012,RTL,13563.0,0.0,0.25,-962.75,25.75,3.25,4.0,-35.364028775,149.16561925000002,69454.0,3.25,2.75,-12.25
04:40:55,0.00566914991941303,-0.005095026455819607,2.755037307739258,0.09638124704360962,-0.00158010795712471,0.0007055018795654178,RTL,13563.0,0.0,3.0,-997.5,99.5,3.0,3.5,-35.364028649999995,149.16561955,69481.0,2.5,1.0,3.0
04:40:57,0.011845852714031935,-0.004527010954916477,2.754354476928711,0.3741181492805481,0.0029009690042585135,-4.583527334034443e-05,RTL,13563.0,-1.0,14.5,-1033.5,378.0,7.0,3.0,-35.3640284,149.1656205,69734.0,-0.5,-4.0,-42.0
04:40:58,0.00841813103761524,-0.002768940175883472,2.7544233798980713,0.08329739049077034,0.0034314055228605866,0.0022523655206896365,RTL,300000.0,0.25,0.5,-988.0,87.5,7.75,5.0,-35.364028325,149.165620775,70255.25,-1.0,-6.75,-53.75
04:40:59,0.004259263048879802,-0.0020543014397844672,2.754780888557434,-0.04339642822742462,0.0011052954941987991,0.0019247224554419518,RTL,300000.0,0.5,-14.5,-955.5,-40.5,5.5,5.0,-35.364028450000006,149.16562040000002,70663.5,-0.5,-6.5,-22.5
04:41:01,-0.003847678512101993,-0.0029861266957595944,2.7549402713775635,0.24563545733690262,0.004121633479371667,0.0005327706458047032,RTL,300000.0,1.0,10.0,-1016.5,249.0,8.5,3.5,-35.3640288,149.16561925,70741.0,1.5,0.0,-3.0
04:41:02,-0.007330036401981488,-0.0037449515657499433,2.754673719406128,-0.022993553429841995,-0.0030930014327168465,-0.00039109360659494996,RTL,241625.0,0.0,-0.75,-1038.25,-19.25,1.75,2.25,-35.3640289,149.165618825,70898.0,3.5,4.25,-34.25
04:41:03,0.0020633858803194016,-0.004679970908910036,2.754427671432495,0.3132384270429611,0.0009504910558462143,-0.00047113432083278894,RTL,241625.0,0.0,11.5,-1003.5,317.0,5.5,2.5,-35.36402885,149.165619,71390.5,3.5,5.0,-55.5
04:41:05,0.005481148778926581,-0.005071499617770314,2.7548996210098267,0.19511593878269196,0.0019154578913003206,-0.00246950623113662,RTL,241625.0,-1.5,0.5,-974.0,198.5,6.5,1.0,-35.364028649999995,149.16561955,72069.5,2.5,2.5,-2.5
04:41:06,0.006065141758881509,-0.006300077540799975,2.7555489540100098,-0.27360422909259796,-0.00019764481112360954,-0.0008953273063525558,RTL,282873.0,-1.75,-11.75,-1003.75,-269.5,4.25,2.0,-35.3640284,149.16562019999998,72053.25,1.25,-0.75,2.5
04:41:07,0.01254098117351532,-0.00516343885101378,2.754742383956909,0.15678157657384872,0.0017235188279300928,-0.0011763416696339846,RTL,282873.0,-1.5,16.0,-1038.0,161.5,6.5,2.5,-35.3640282,149.1656209,72141.0,-1.0,-6.5,-23.0
04:41:09,0.00809893710538745,-0.0018617812893353403,2.7543169260025024,0.2923291176557541,0.0017252922989428043,0.0018565752543509007,RTL,282873.0,0.5,11.5,-973.5,296.5,6.0,5.0,-35.36402835,149.165621,73026.0,-1.5,-10.5,-37.5
04:41:10,0.00016391162353102118,-0.002629827067721635,2.754685401916504,-0.16753571666777134,-0.0023395444732159376,-0.0004430084954947233,RTL,203646.0,1.25,-8.5,-977.5,-163.0,2.5,2.75,-35.3640284,149.165620575,73249.25,-0.5,-8.25,-4.0
04:41:11,-0.004627682035788894,-0.002858846914023161,2.754961133003235,-0.034627288579940796,-0.0009058739524334669,0.002390370238572359,RTL,203646.0,2.0,5.5,-1000.0,-30.0,3.5,5.5,-35.36402855,149.16561995,73238.5,0.0,-5.0,2.5
04:41:13,-0.015250969212502241,-0.0028938499744981527,2.7544347047805786,0.12940432503819466,0.0033182662446051836,0.0023655624827370048,RTL,203646.0,1.0,10.0,-1019.5,134.0,8.0,5.5,-35.36402905,149.1656184,73651.5,3.0,5.5,-48.0
04:41:14,-0.015150115825235844,-0.0034146138932555914,2.7544862627983093,0.10753634199500084,-0.0014379391795955598,0.000934644544031471,RTL,175578.0,0.25,4.25,-967.75,111.25,2.75,4.25,-35.3640292,149.16561775,74162.0,6.0,11.5,-41.75
04:41:15,-0.007965930155478418,-0.004854264669120312,2.754907011985779,0.2602347061038017,-0.00012297974899411201,0.0004840369801968336,RTL,175578.0,0.0,5.5,-976.0,263.5,4.5,4.0,-35.3640292,149.16561769999998,74407.5,7.0,15.0,-8.0
04:41:17,-0.007458735373802483,-0.0045049290638417006,2.7548893690109253,0.3400810328312218,0.002430686727166176,-0.0008866406278684735,RTL,175578.0,-0.5,21.0,-1041.0,343.5,7.0,2.5,-35.36402915,149.1656179,74444.5,6.5,14.5,-13.0
04:41:18,-0.00322753784712404,-0.0049155744491145015,2.7549439668655396,0.061943722888827324,0.0003036315320059657,-0.00042504252633079886,RTL,157888.0,-1.25,3.5,-1025.75,65.25,5.0,2.75,-35.36402905,149.16561842500002,74746.75,6.5,12.75,-47.25
04:41:19,0.007018800766672939,-0.005212150746956468,2.754772186279297,0.10233134031295776,-0.0014108014293015003,0.0005397564964368939,RTL,157888.0,-1.0,-2.0,-975.5,105.0,3.5,3.5,-35.3640288,149.16561925000002,75272.5,5.0,8.0,-47.5
04:41:21,0.013343468774110079,-0.005269980290904641,2.7551790475845337,0.13908890634775162,-0.0008692083647474647,0.0006214962340891361,RTL,157888.0,0.0,5.0,-998.5,142.5,4.0,4.0,-35.3640282,149.1656209,75647.0,-0.5,-5.5,2.5
04:41:22,0.010100631567183882,-0.003704274829942733,2.754433035850525,-0.07159177772700787,-0.00024535227566957474,0.0008445113780908287,RTL,300000.0,-0.5,-6.5,-1027.0,-68.0,4.75,4.0,-35.3640282,149.165621175,75648.0,-1.75,-9.25,-8.0
04:41:23,0.009683751035481691,-0.003255373681895435,2.7547165155410767,0.32698366045951843,0.0032750077079981565,0.0009155747247859836,RTL,300000.0,0.0,17.5,-1028.5,330.5,8.0,4.5,-35.364028250000004,149.16562105,75918.5,-2.0,-11.0,-41.5
04:41:25,0.006149568944238126,-0.0032460720976814628,2.7549816370010376,-0.07375454902648926,0.0002687455853447318,0.002063280902802944,RTL,300000.0,0.5,-11.0,-962.0,-70.5,5.0,5.5,-35.3640283,149.16562075000002,76804.5,-1.0,-9.0,-18.5
04:41:26,0.0024278582131955773,-0.004229256883263588,2.7547675371170044,-0.11630185320973396,-0.0013038200559094548,0.0013949326239526272,RTL,147239.0,0.75,-0.5,-994.5,-112.25,3.5,4.75,-35.3640283,149.165620625,76877.5,-0.75,-8.0,2.75
04:41:27,0.004904107772745192,-0.003674542880617082,2.75504207611084,0.1997416540980339,0.0016328503843396902,0.0011563998414203525,RTL,147239.0,1.0,6.0,-1022.5,203.5,6.0,4.5,-35.36402835,149.16562045,76863.5,-1.0,-7.0,-5.0
04:41:29,-0.0035546562958188588,-0.003990924567915499,2.754839301109314,0.24177808314561844,0.0028609540313482285,0.0007953426102176309,RTL,147239.0,0.0,10.5,-1001.0,245.5,7.5,4.0,-35.36402855,149.16561945,77554.0,0.0,-1.0,-54.0
04:41:30,-0.0059501583309611306,-0.003529591078404337,2.754356563091278,0.043435122817754745,0.0018360906396992505,-0.0001520640798844397,RTL,272920.0,0.25,2.0,-957.25,47.75,6.5,3.25,-35.3640287,149.16561912499998,78024.5,1.0,1.75,-29.0
04:41:31,-0.0070491049264092,-0.004528117482550442,2.755083918571472,0.11273016408085823,0.0011258672457188368,0.0038736615097150207,RTL,272920.0,0.5,6.0,-988.0,116.5,6.0,7.5,-35.36402875,149.16561885,78149.5,2.0,4.5,-0.5
04:41:33,-0.008560577873140574,-0.005529338261112571,2.755054473876953,-0.3076127618551254,-0.002482564188539982,0.0016090591670945287,RTL,272920.0,0.0,-8.0,-1036.5,-303.5,2.5,5.0,-35.3640288,149.1656186,78255.5,2.5,8.0,-28.5
04:41:34,-0.006999398348852992,-0.0051523150177672505,2.7548497319221497,-0.0024182843044400215,0.0004055481404066086,-0.0005090832710266113,RTL,300000.0,-0.25,2.25,-1007.0,1.5,5.25,3.0,-35.3640288,149.1656186,78690.5,2.5,7.5,-53.75
04:41:35,-0.0011860819868161343,-0.0055929264053702354,2.7547080516815186,0.3282397836446762,-0.00023900740779936314,0.0009256970370188355,RTL,300000.0,0.0,21.0,-968.5,331.5,4.5,4.5,-35.36402875,149.16561875000002,79171.0,3.0,7.5,-34.0
04:41:37,0.0025811548402998596,-0.006796546978875995,2.7554620504379272,0.024352580308914185,-0.0016939099878072739,-0.0007087842095643282,RTL,300000.0,0.0,-0.5,-1003.0,28.0,3.0,2.5,-35.3640285,149.16561940000003,79340.5,1.5,4.0,2.0
04:41:38,0.0050688334777078126,-0.005978932953439653,2.7549437880516052,-0.020941260736435652,0.00278198323212564,0.0010498428018763661,RTL,300000.0,-0.5,3.5,-1038.25,-17.5,7.5,4.75,-35.364028325,149.165619875,79413.0,-0.5,0.5,-22.75
04:41:39,0.0023491730680689216,-0.004455322516150773,2.7548558712005615,-0.2399042397737503,-0.00330425170250237,0.00033848779276013374,RTL,300000.0,-0.5,-13.5,-1011.0,-236.5,2.0,4.0,-35.3640283,149.16562015,79821.5,-1.0,-2.0,-50.5
04:41:41,0.0031484320643357933,-0.005350987194105983,2.7549737691879272,-0.2772060736315325,-0.00031206756830215454,-0.0010595460189506412,RTL,300000.0,-0.5,-11.5,-978.0,-274.0,4.5,2.5,-35.3640283,149.1656204,80570.5,-1.0,-4.0,-7.5
04:41:42,0.008108088746666908,-0.005759255262091756,2.7550485730171204,0.05112798325717449,0.001209996291436255,0.001527518907096237,RTL,3806.0,0.0,6.0,-1004.25,55.25,5.5,5.25,-35.3640282,149.16562065,80568.0,-2.0,-6.75,3.0
04:41:43,0.008194702677428722,-0.006273841019719839,2.754911184310913,-0.13180823624134064,-0.0037638205103576183,0.0017173872329294682,RTL,3806.0,0.0,-11.5,-1037.0,-128.5,1.5,5.0,-35.36402805,149.1656208,80611.5,-3.5,-8.0,-16.5
04:41:45,0.006063965614885092,-0.0049576484598219395,2.7546730041503906,-0.40454158186912537,-0.00046454137191176414,0.0003989323740825057,RTL,3806.0,0.5,-15.0,-970.5,-400.0,4.5,4.0,-35.3640279,149.16562115,81480.0,-5.0,-11.0,-46.5
04:41:46,0.008544961223378778,-0.004349872877355665,2.754776120185852,0.17679395899176598,0.0017216898268088698,0.000723344914149493,RTL,165475.0,1.5,4.0,-963.75,180.75,6.5,4.5,-35.364027975,149.165621,81804.0,-5.0,-12.25,-11.75
04:41:47,0.0008332321885973215,-0.005584227619692683,2.755202531814575,0.005451828241348267,-0.0010045140516012907,0.000244622933678329,RTL,165475.0,1.0,-4.0,-995.5,9.5,3.5,4.0,-35.36402805,149.16562040000002,81824.5,-4.0,-9.0,2.0
04:41:49,0.01478724554181099,-0.006826318800449371,2.755087733268738,0.3458491861820221,0.004472484812140465,-0.00083023717161268,RTL,165475.0,-1.0,17.5,-1027.5,349.5,9.5,3.0,-35.36402805,149.1656206,82127.0,-3.5,-6.0,-46.0
04:41:50,0.018833201145753264,-0.00604278699029237,2.7546924352645874,0.1251654550433159,0.0013830398675054312,4.3278036173433065e-05,RTL,270883.0,-1.0,3.5,-984.25,129.25,6.25,3.75,-35.364027825,149.1656213,82661.5,-4.75,-10.0,-53.0
04:41:51,0.017024255357682705,-0.005806902656331658,2.7548179626464844,0.23744698613882065,-0.0026864964747801423,-0.0007214966462925076,RTL,270883.0,0.0,3.5,-969.0,242.0,2.0,2.5,-35.3640278,149.1656216,83040.5,-6.5,-14.5,-20.0
04:41:53,0.009438489083549939,-0.004376975586637855,2.7548543214797974,0.1774595081806183,0.001629749545827508,0.0021626614034175873,RTL,270883.0,1.0,14.0,-1027.5,183.0,6.5,5.5,-35.3640278,149.1656213,83104.5,-7.5,-15.5,-6.0
04:41:54,0.0010185334831476212,-0.0034234728664159775,2.7548199892044067,0.0818922258913517,0.0006057536229491234,0.0006790559273213148,RTL,300000.0,0.75,3.5,-1036.5,87.0,5.5,4.5,-35.364028125000004,149.165620625,83307.25,-5.75,-11.75,-38.75
04:41:55,0.003539549303241074,-0.004186724312603474,2.7546225786209106,0.3030940294265747,0.0005098115652799606,-0.00037972908467054367,RTL,300000.0,0.0,10.0,-996.5,307.5,5.0,3.5,-35.3640283,149.1656201,83819.5,-3.0,-6.5,-53.5
04:41:57,-0.002417787443846464,-0.006050547352060676,2.7553292512893677,-0.20317327976226807,0.0014503239654004574,-0.0014304117066785693,RTL,300000.0,0.0,-8.0,-988.5,-198.5,6.0,2.5,-35.3640283,149.1656198,84382.5,-1.0,-2.5,0.0
04:41:58,0.0018592185879242606,-0.005859432392753661,2.755325734615326,0.21735622361302376,0.0006072383839637041,0.002015607082284987,RTL,178259.0,0.25,7.25,-1014.25,222.75,5.25,5.5,-35.3640283,149.165619525,84362.25,-1.0,-0.5,0.0
04:41:59,-0.0024791599134914577,-0.005896290298551321,2.7549883127212524,-0.36067989468574524,-0.0034878812730312347,-0.0005730639677494764,RTL,178259.0,-0.5,-16.5,-1041.5,-355.5,1.5,3.0,-35.3640283,149.1656195,84513.5,-1.0,0.5,-31.0
04:42:01,-0.006351621588692069,-0.004507343051955104,2.754876732826233,-0.3729005753993988,-0.0007148709846660495,0.0014677057042717934,RTL,178259.0,0.0,-10.5,-965.0,-367.0,4.0,5.0,-35.3640284,149.1656196,85427.5,-0.5,0.0,-31.0
04:42:02,-0.0030718970228917897,-0.004122763057239354,2.7551289796829224,0.026524579152464867,0.0006574889412149787,0.0011979801347479224,RTL,200.0,0.75,-4.5,-981.5,31.5,5.0,5.0,-35.3640285,149.165619375,85592.75,0.0,0.75,-1.0
04:42:03,-0.010036865656729788,-0.0040816988330334425,2.755175232887268,-0.0783088207244873,0.001062772935256362,0.0023203492164611816,RTL,200.0,0.0,-8.0,-1010.0,-73.5,5.5,6.0,-35.3640287,149.16561885,85574.0,1.0,4.0,1.5
04:42:05,-0.009200630709528923,-0.005584178725257516,2.754685401916504,-0.23422624915838242,-0.0035250552464276552,-0.0024681808426976204,RTL,200.0,0.0,-15.0,-1008.5,-229.5,1.5,1.5,-35.3640288,149.1656184,86107.5,3.0,9.5,-52.5
04:42:06,-0.007761956221656874,-0.005482809850946069,2.7546363472938538,-0.05829919874668121,2.7464469894766808e-05,0.0001957169733941555,RTL,235449.0,-0.25,-3.5,-962.75,-53.75,4.5,3.75,-35.3640288,149.1656184,86623.5,3.5,10.0,-38.75
04:42:07,-0.006635624100454152,-0.006177524104714394,2.755209445953369,-0.010135143995285034,-0.0008359712082892656,0.001978128682821989,RTL,235449.0,0.0,-3.5,-966.0,-6.0,3.5,6.0,-35.3640288,149.1656184,86829.5,3.0,10.0,-5.0
04:42:09,0.0035045593103859574,-0.007321656681597233,2.755323648452759,0.30759528279304504,0.0012027574703097343,0.00035021500661969185,RTL,235449.0,0.0,16.0,-1039.5,312.0,6.0,4.0,-35.3640286,149.1656189,86884.5,2.0,8.0,-19.5
04:42:10,0.003547571016497386,-0.007353029679507017,2.7549814581871033,0.015064969658851624,0.00028075347654521465,-0.0009487559436820447,RTL,224003.0,-0.25,-0.5,-1022.75,19.75,5.0,2.5,-35.364028425,149.16561935,87243.25,0.0,4.75,-52.0
04:42:11,0.004732734290882945,-0.006022498710080981,2.7547377347946167,0.3247005343437195,-0.0032176878303289413,-0.0011319424957036972,RTL,224003.0,0.0,7.0,-973.0,328.0,1.0,2.5,-35.3640284,149.1656194,87777.0,-1.0,2.5,-45.0
04:42:13,-0.001898474023619201,-0.00610340922139585,2.7553142309188843,0.19378265924751759,0.0011993383523076773,-0.0005207041976973414,RTL,224003.0,0.0,2.5,-989.0,197.5,5.5,3.0,-35.3640284,149.16561915,88096.0,0.0,4.0,3.0
04:42:14,-0.0005987650802126154,-0.006384938838891685,2.7552762627601624,-5.281716585159302e-05,0.0008515971130691469,-0.0020486789289861917,RTL,200.0,-0.5,-1.5,-1032.25,4.25,5.25,1.5,-35.3640284,149.16561917500002,88110.25,0.0,4.0,-12.0
04:42:15,0.003724861948285252,-0.005906186532229185,2.7548770904541016,0.30703745782375336,0.00260129664093256,-0.0016578977229073644,RTL,200.0,-0.5,11.0,-1027.0,311.0,7.0,2.0,-35.3640284,149.16561925000002,88422.0,0.0,3.5,-46.0
04:42:17,8.867960423231125e-05,-0.006056721322238445,2.755194306373596,0.10823839902877808,-0.0012427347246557474,-0.0007835860596969724,RTL,200.0,0.5,3.0,-967.5,112.5,3.5,2.5,-35.3640284,149.16561935,89318.0,0.0,2.0,-18.0
04:42:18,-0.0033493556547909975,-0.006196574424393475,2.7552122473716736,-0.16293446347117424,0.0014987064059823751,-0.0012444694293662906,RTL,200.0,-0.25,-7.0,-992.0,-158.75,5.75,2.5,-35.3640284,149.1656193,89380.25,-0.25,2.5,2.5
04:42:19,-0.0023515759967267513,-0.005005997838452458,2.755263924598694,0.2932418882846832,0.004237839952111244,0.00020653533283621073,RTL,200.0,0.0,12.0,-1025.0,297.5,8.5,4.0,-35.364028450000006,149.16561910000001,89371.5,0.0,3.5,-6.5
04:42:21,-0.009808925446122885,-0.004715995863080025,2.754743814468384,0.2908288389444351,0.0016345970798283815,-1.7364509403705597e-06,RTL,200.0,1.0,5.0,-994.0,294.0,6.0,3.5,-35.36402885,149.165618,90092.5,2.0,10.5,-53.5
04:42:22,-0.014791491557843983,-0.005572854541242123,2.7549529671669006,0.11815963685512543,-0.0033528938656672835,0.0016267168102785945,RTL,105817.0,0.25,5.25,-956.75,121.75,1.25,5.25,-35.364028975,149.16561760000002,90540.25,4.25,14.5,-25.75
04:42:23,-0.01095033111050725,-0.007427881471812725,2.755372166633606,0.0479554682970047,-0.0020578509429469705,-0.0029955398058518767,RTL,105817.0,-0.5,3.0,-973.5,51.5,2.5,1.0,-35.364028950000005,149.16561760000002,90644.0,5.0,17.0,0.5
04:42:25,-0.01019850792363286,-0.007279351120814681,2.7554078102111816,-0.1617619451135397,-0.0033671720884740353,-0.0009514080593362451,RTL,105817.0,0.0,-1.0,-1040.0,-158.0,1.5,2.5,-35.364028649999995,149.1656183,90785.5,1.5,12.5,-32.0
04:42:26,-0.006571693927980959,-0.006580869783647358,2.7548351883888245,-0.0585064385086298,-0.0001557650975883007,-0.0013366328785195947,RTL,96108.0,0.0,-0.5,-999.0,-54.75,4.25,2.5,-35.3640287,149.16561845,91238.0,1.0,11.25,-52.75
04:42:27,-0.0047584281346644275,-0.006588754011318088,2.7552074193954468,0.11496598273515701,-0.0028774066595360637,-0.0013974823523312807,RTL,96108.0,-0.5,14.5,-960.0,119.0,1.0,2.5,-35.364028649999995,149.16561875,91677.5,1.0,9.0,-28.0
04:42:29,0.0016768350615166128,-0.006696891039609909,2.7552828788757324,-0.1679878756403923,0.0023773815482854843,-0.0020878417417407036,RTL,96108.0,-0.5,-7.0,-1010.5,-164.0,6.5,1.5,-35.364028250000004,149.1656197,91796.5,-0.5,2.5,-0.5
04:42:30,-0.0015417809481732547,-0.00493021949660033,2.755145490169525,-0.09184332564473152,0.0006952830008231103,3.9239239413291216e-05,RTL,17123.0,0.5,-6.25,-1042.0,-88.5,4.75,3.75,-35.3640283,149.165619725,91907.75,-1.75,0.0,-28.0
04:42:31,-0.012111697811633348,-0.0039031243650242686,2.7549744844436646,-0.4058455675840378,-0.0017388435080647469,-0.0004591522738337517,RTL,17123.0,0.5,-17.0,-1008.5,-402.5,2.5,3.0,-35.36402855,149.16561915,92358.5,-0.5,2.0,-53.0
04:42:33,-0.014105288777500391,-0.005709967343136668,2.7555699348449707,-0.2702871412038803,-0.0043794261291623116,0.00016308855265378952,RTL,17123.0,0.0,-9.5,-974.0,-267.0,0.5,4.0,-35.3640289,149.16561804999998,93055.0,4.0,11.5,-4.5
04:42:34,-0.005130776378791779,-0.007667810539714992,2.75553297996521,0.10353174433112144,-0.0013523634988814592,-0.0009444360039196908,RTL,241058.0,-0.5,12.25,-1007.5,106.75,3.0,2.75,-35.3640288,149.16561827499999,93045.0,4.25,12.0,2.75
04:42:35,0.003345919874846004,-0.007766995811834931,2.7554863691329956,0.08749602735042572,0.0008351134601980448,0.0006768424063920975,RTL,241058.0,-1.0,3.5,-1040.0,89.5,5.0,4.5,-35.36402855,149.16561885,93117.0,2.0,9.0,-20.0
04:42:37,0.0040937577141448855,-0.006113456562161446,2.755309820175171,-0.40359005331993103,-0.0018020756542682648,0.0023146754829213023,RTL,241058.0,-1.0,-19.5,-965.0,-400.5,2.0,6.0,-35.3640282,149.16562019999998,93996.5,-1.0,0.0,-39.0
04:42:38,0.010573211533483118,-0.006681187893263996,2.755630314350128,0.184991461224854,0.00019321567378938198,-0.0006728703738190234,RTL,200.0,-0.5,9.75,-977.75,187.75,4.5,2.5,-35.364028049999995,149.1656206,94246.75,-2.75,-4.5,-5.25
04:42:39,0.01120821456424892,-0.007171508623287082,2.755631923675537,-0.03439068794250488,0.0015224319649860263,-0.0020076760556548834,RTL,200.0,0.0,-2.5,-1003.5,-31.5,6.0,1.0,-35.36402795,149.16562084999998,94241.5,-4.0,-7.0,2.0
04:42:41,0.011786370072513819,-0.005092226201668382,2.755255103111267,0.2456585094332695,0.0003186499234288931,8.483766578137875e-05,RTL,200.0,0.0,3.0,-1019.0,248.0,4.0,3.5,-35.36402795,149.1656209,94628.0,-5.0,-9.0,-47.5
04:42:42,0.0036926780976500595,-0.005021622870117426,2.7549291253089905,-0.02457953244447708,-0.0020278714364394546,-0.00016767712077125907,RTL,82859.0,0.25,-5.75,-969.0,-21.25,2.0,3.25,-35.364028075,149.165620625,95138.25,-4.5,-8.5,-43.75
04:42:43,-0.0009756968356668949,-0.004843489034101367,2.7552664279937744,-0.17652124166488647,-0.0002633769763633609,0.0009884167229756713,RTL,82859.0,0.5,-17.5,-975.5,-173.5,4.0,4.5,-35.3640282,149.16562015,95401.0,-2.5,-5.5,-9.5
04:42:45,-0.0006883972091600299,-0.005013194400817156,2.7557913064956665,0.3217494562268257,4.015793092548847e-05,-0.001191097719129175,RTL,82859.0,0.0,15.0,-1033.5,324.5,4.0,2.0,-35.36402855,149.16561919999998,95451.5,0.0,1.0,-14.0
04:42:46,0.0015871614656930433,-0.006205069832503796,2.755131959915161,0.08364495635032654,-0.0005381284281611443,-0.00046761229168623686,RTL,258217.0,0.0,3.75,-1025.25,87.0,3.75,3.0,-35.36402855,149.165619225,95762.0,0.25,3.0,-47.25
04:42:47,0.007380020106211305,-0.0063442999962717295,2.7552287578582764,0.1162538006901741,-0.0014617053093388677,-0.0012909680372104049,RTL,258217.0,0.0,-6.5,-973.5,119.0,2.5,2.0,-35.364028450000006,149.1656195,96278.0,0.0,2.5,-45.0
04:42:49,-0.0033303711097687483,-0.005663492251187563,2.7553313970565796,-0.049549758434295654,0.00037755141966044903,-8.34024976938963e-05,RTL,258217.0,0.0,-2.5,-989.5,-46.5,4.5,3.0,-35.3640284,149.1656195,96613.5,-1.0,0.0,3.0
04:42:50,-0.004725885286461562,-0.005821401719003916,2.7553433775901794,0.0034728925675153732,-0.0004352061660028994,-0.0003149415133520961,RTL,300000.0,0.5,-3.25,-1030.0,6.5,3.5,3.25,-35.364028425,149.16561910000001,96619.25,-0.25,2.25,-10.75
04:42:51,-0.0074663234408944845,-0.0057285744696855545,2.7551134824752808,0.28325342386960983,0.0021980335004627705,-0.0007850275142118335,RTL,300000.0,0.0,15.0,-1033.5,286.5,6.0,2.5,-35.3640286,149.16561860000002,96916.0,0.0,6.0,-44.5
04:42:53,-0.009779126849025488,-0.005876326467841864,2.7552167177200317,0.011743947863578796,-0.0008023818954825401,-0.0008312311256304383,RTL,300000.0,0.0,5.5,-973.5,15.0,3.5,2.5,-35.3640288,149.1656182,97776.5,2.5,10.5,-15.5
04:42:54,-0.00931873224908486,-0.006215513916686177,2.755385935306549,-0.12373125925660133,-0.000180915929377079,-0.0006228627171367407,RTL,273502.0,0.0,-11.0,-996.5,-121.0,4.0,2.75,-35.3640288,149.16561815,97828.5,2.75,11.75,2.75
04:42:55,-0.015228958800435066,-0.00518938316963613,2.7551605701446533,-0.07921658456325531,6.892392411828041e-05,-0.0009341863915324211,RTL,273502.0,0.0,-3.5,-1019.0,-76.5,4.0,2.5,-35.3640289,149.16561775,97825.0,3.0,14.0,-7.0
04:42:57,-0.024222723208367825,-0.005198965314775705,2.755240321159363,0.13216419145464897,0.0036513456143438816,-0.0016950364224612713,RTL,273502.0,0.0,13.0,-989.5,134.5,7.5,1.5,-35.364029349999996,149.1656165,98548.0,7.0,22.5,-49.5
04:42:58,-0.01925231097266078,-0.006162398378364742,2.755182683467865,0.04749118164181709,-0.0011450653546489775,2.428237348794937e-05,RTL,41843.0,0.0,5.25,-959.25,49.5,3.0,3.25,-35.364029375,149.165616475,98942.75,9.0,26.25,-18.25
04:42:59,-0.012585329823195934,-0.008053102064877748,2.755853772163391,0.09408073127269745,0.0008687303634360433,-0.003199885948561132,RTL,41843.0,-1.0,8.5,-991.5,96.0,4.5,0.5,-35.36402915,149.16561695000001,99003.0,8.5,25.0,2.0
04:43:01,-0.006775097921490669,-0.007733218604698777,2.755504846572876,-0.10864260047674179,-0.0022035763831809163,-0.0024024713784456253,RTL,41843.0,0.0,6.0,-1035.5,-107.0,1.5,0.5,-35.3640287,149.16561819999998,99189.5,3.0,16.0,-36.0
04:43:02,-0.0025148052045551594,-0.006571060279384255,2.7553285360336304,0.04439573606941849,3.38628888130188e-06,-0.0026676003471948206,RTL,232915.0,-2.25,2.5,-996.25,45.75,4.25,0.75,-35.364028649999995,149.165618675,99673.0,2.0,11.75,-53.25
04:43:03,0.0033918054832611233,-0.00715263350866735,2.7553681135177612,0.2267056235577911,0.000905017601326108,0.0037436593556776643,RTL,232915.0,0.0,20.5,-963.5,228.0,4.5,7.0,-35.3640285,149.16561925,100098.0,0.5,7.0,-25.5
04:43:05,0.005523555679246783,-0.006766923936083913,2.755890130996704,-0.17271675856318325,-0.0011533333454281092,-0.0032307368237525225,RTL,232915.0,0.0,-5.0,-1016.5,-171.5,2.5,0.0,-35.364028149999996,149.16562019999998,100194.0,-1.5,-0.5,-2.0
