time_stamp,MODE,lat,lon,relative_alt,roll,pitch,yaw,rollspeed,pitchspeed,yawspeed,xacc,yacc,zacc,xgyro,ygyro,zgyro,vx,vy,vz,RTL_ALT
15:25:05.104,STABILIZE,-35.3632621,149.1652374,0,1.610129061191401e-06,0.0015941123710945249,0.027768345549702644,0.00014332501450553536,0.00021280848886817694,0.0024097326677292585,0,1,-1000,0,0,0,-1,1,0,1500.0
15:25:05.305,STABILIZE,-35.3632621,149.1652374,0,1.610129061191401e-06,0.0015941123710945249,0.027768345549702644,0.00014332501450553536,0.00021280848886817694,0.0024097326677292585,0,1,-1000,0,0,0,-1,1,0,1500.0
15:25:05.508,STABILIZE,-35.3632621,149.1652374,0,1.610129061191401e-06,0.0015941123710945249,0.027768345549702644,0.00014332501450553536,0.00021280848886817694,0.0024097326677292585,0,1,-1000,0,0,0,-1,1,0,1500.0
15:25:05.717,STABILIZE,-35.3632621,149.1652374,0,1.610129061191401e-06,0.0015941123710945249,0.027768345549702644,0.00014332501450553536,0.00021280848886817694,0.0024097326677292585,0,1,-1000,0,0,0,-1,1,0,1500.0
15:25:05.918,STABILIZE,-35.3632621,149.1652374,0,1.610129061191401e-06,0.0015941123710945249,0.027768345549702644,0.00014332501450553536,0.00021280848886817694,0.0024097326677292585,0,1,-1000,0,0,0,-1,1,0,1500.0
15:25:06.119,STABILIZE,-35.3632621,149.1652375,0,2.8520849809865467e-05,0.001566764316521585,0.027107704430818558,0.00026226494810543954,0.000322844396578148,0.002247815951704979,0,1,-1000,0,0,0,-2,2,1,1500.0
15:25:06.320,STABILIZE,-35.3632621,149.1652375,0,-8.288798562716693e-05,0.0015175145817920566,0.026953620836138725,0.00026393684674985707,0.0003131279372610152,0.0023430874571204185,0,1,-1000,0,0,0,-2,2,1,1500.0
15:25:06.521,STABILIZE,-35.3632621,149.1652375,0,-8.288798562716693e-05,0.0015175145817920566,0.026953620836138725,0.00026393684674985707,0.0003131279372610152,0.0023430874571204185,0,1,-1000,0,0,0,-2,2,1,1500.0
15:25:06.722,STABILIZE,-35.3632622,149.1652375,0,-0.00019984001119155437,0.001473984564654529,0.026800066232681274,0.00022675577201880515,0.00043833369272761047,0.0023062434047460556,0,1,-1000,0,0,0,-2,2,1,1500.0
15:25:06.924,STABILIZE,-35.3632622,149.1652375,0,-0.00019984001119155437,0.001473984564654529,0.026800066232681274,0.00022675577201880515,0.00043833369272761047,0.0023062434047460556,0,1,-1000,0,0,0,-2,2,1,1500.0
15:25:07.125,STABILIZE,-35.3632622,149.1652375,0,-0.00040927898953668773,0.0013882200000807643,0.026560621336102486,0.0002235298161394894,0.0002483702264726162,0.002198396250605583,0,1,-1000,0,0,0,-2,2,1,1500.0
15:25:07.326,STABILIZE,-35.3632622,149.1652375,0,-0.00040927898953668773,0.0013882200000807643,0.026560621336102486,0.0002235298161394894,0.0002483702264726162,0.002198396250605583,0,1,-1000,0,0,0,-2,2,1,1500.0
15:25:07.528,STABILIZE,-35.3632622,149.1652375,0,-0.00040927898953668773,0.0013882200000807643,0.026560621336102486,0.0002235298161394894,0.0002483702264726162,0.002198396250605583,0,1,-1000,0,0,0,-2,2,1,1500.0
15:25:07.729,STABILIZE,-35.3632622,149.1652375,0,-0.00040927898953668773,0.0013882200000807643,0.026560621336102486,0.0002235298161394894,0.0002483702264726162,0.002198396250605583,0,1,-1000,0,0,0,-2,2,1,1500.0
15:25:07.930,STABILIZE,-35.3632622,149.1652375,0,-0.00040927898953668773,0.0013882200000807643,0.026560621336102486,0.0002235298161394894,0.0002483702264726162,0.002198396250605583,0,1,-1000,0,0,0,-2,2,1,1500.0
15:25:08.132,STABILIZE,-35.3632622,149.1652375,0,-0.0007590079330839217,0.0011858167126774788,0.026091137900948524,0.00015725177945569158,0.0003291567845735699,0.002154444344341755,0,1,-1000,0,1,0,-1,1,0,1500.0
15:25:08.334,STABILIZE,-35.3632622,149.1652375,0,-0.0007590079330839217,0.0011858167126774788,0.026091137900948524,0.00015725177945569158,0.0003291567845735699,0.002154444344341755,0,1,-1000,0,1,0,-1,1,0,1500.0
15:25:08.536,STABILIZE,-35.3632622,149.1652375,0,-0.0007590079330839217,0.0011858167126774788,0.026091137900948524,0.00015725177945569158,0.0003291567845735699,0.002154444344341755,0,1,-1000,0,1,0,-1,1,0,1500.0
15:25:08.737,STABILIZE,-35.3632622,149.1652375,0,-0.0007590079330839217,0.0011858167126774788,0.026091137900948524,0.00015725177945569158,0.0003291567845735699,0.002154444344341755,0,1,-1000,0,1,0,-1,1,0,1500.0
15:25:08.938,STABILIZE,-35.3632622,149.1652375,0,-0.0009383150027133524,0.0010756499832496047,0.025811832398176193,0.00015256402548402548,0.00025355376419611275,0.002139314077794552,0,1,-1000,0,0,0,-1,1,0,1500.0
15:25:09.139,STABILIZE,-35.3632622,149.1652375,0,-0.0009383150027133524,0.0010756499832496047,0.025811832398176193,0.00015256402548402548,0.00025355376419611275,0.002139314077794552,0,1,-1000,0,0,0,-1,1,0,1500.0
15:25:09.341,STABILIZE,-35.3632622,149.1652375,0,-0.0009383150027133524,0.0010756499832496047,0.025811832398176193,0.00015256402548402548,0.00025355376419611275,0.002139314077794552,0,1,-1000,0,0,0,-1,1,0,1500.0
15:25:09.542,STABILIZE,-35.3632622,149.1652375,0,-0.0009383150027133524,0.0010756499832496047,0.025811832398176193,0.00015256402548402548,0.00025355376419611275,0.002139314077794552,0,1,-1000,0,0,0,-1,1,0,1500.0
15:25:09.743,STABILIZE,-35.3632622,149.1652375,0,-0.0009383150027133524,0.0010756499832496047,0.025811832398176193,0.00015256402548402548,0.00025355376419611275,0.002139314077794552,0,1,-1000,0,0,0,-1,1,0,1500.0
15:25:09.945,STABILIZE,-35.3632621,149.1652375,0,-0.0010414031567052007,0.0009945206111297011,0.025461500510573387,6.711424794048071e-05,0.00026141302078031003,0.002063418971374631,0,1,-1000,0,1,0,-1,-1,-2,1500.0
15:25:10.146,STABILIZE,-35.3632621,149.1652375,0,-0.0009881320875138044,0.0009818833786994219,0.02540520578622818,0.00019931670976802707,0.0003243402752559632,0.002044928725808859,0,1,-1000,0,1,0,-1,-1,-2,1500.0
15:25:10.347,STABILIZE,-35.3632621,149.1652374,0,-0.0009266561828553677,0.0009729447774589062,0.025345243513584137,0.00025734968949109316,0.0001982786925509572,0.002034945646300912,0,1,-1000,1,1,0,-1,0,-2,1500.0
15:25:10.549,STABILIZE,-35.3632621,149.1652374,0,-0.0009266561828553677,0.0009729447774589062,0.025345243513584137,0.00025734968949109316,0.0001982786925509572,0.002034945646300912,0,1,-1000,1,1,0,-1,0,-2,1500.0
15:25:10.750,STABILIZE,-35.3632621,149.1652374,0,-0.0009266561828553677,0.0009729447774589062,0.025345243513584137,0.00025734968949109316,0.0001982786925509572,0.002034945646300912,0,1,-1000,1,1,0,-1,0,-2,1500.0
15:25:10.951,STABILIZE,-35.3632621,149.1652374,0,-0.0008151137735694647,0.0009522567270323634,0.025167269632220268,0.0003192169242538512,0.00015543150948360562,0.0020469564478844404,0,1,-1000,0,0,0,-1,0,-2,1500.0
15:25:11.153,STABILIZE,-35.3632621,149.1652374,0,-0.0007843034109100699,0.0009486538474448025,0.025111686438322067,0.00013907975517213345,0.00032482159440405667,0.0018596043810248375,0,1,-1000,0,0,0,-1,0,-2,1500.0
15:25:11.354,STABILIZE,-35.3632621,149.1652374,0,-0.0007843034109100699,0.0009486538474448025,0.025111686438322067,0.00013907975517213345,0.00032482159440405667,0.0018596043810248375,0,1,-1000,0,0,0,-1,0,-2,1500.0
15:25:11.556,STABILIZE,-35.3632621,149.1652374,0,-0.0007843034109100699,0.0009486538474448025,0.025111686438322067,0.00013907975517213345,0.00032482159440405667,0.0018596043810248375,0,1,-1000,0,0,0,-1,0,-2,1500.0
15:25:11.758,STABILIZE,-35.3632621,149.1652374,0,-0.0007843034109100699,0.0009486538474448025,0.025111686438322067,0.00013907975517213345,0.00032482159440405667,0.0018596043810248375,0,1,-1000,0,0,0,-1,0,-2,1500.0
15:25:11.959,STABILIZE,-35.3632621,149.1652374,0,-0.0007843034109100699,0.0009486538474448025,0.025111686438322067,0.00013907975517213345,0.00032482159440405667,0.0018596043810248375,0,1,-1000,0,0,0,-1,0,-2,1500.0
15:25:12.161,STABILIZE,-35.3632621,149.1652374,0,-0.0007843034109100699,0.0009486538474448025,0.025111686438322067,0.00013907975517213345,0.00032482159440405667,0.0018596043810248375,0,1,-1000,0,0,0,-1,0,-2,1500.0
15:25:12.362,STABILIZE,-35.3632621,149.1652374,0,-0.0007843034109100699,0.0009486538474448025,0.025111686438322067,0.00013907975517213345,0.00032482159440405667,0.0018596043810248375,0,1,-1000,0,0,0,-1,0,-2,1500.0
15:25:12.564,STABILIZE,-35.3632621,149.1652375,7,-0.0006930873496457934,0.0009276524651795626,0.024569030851125717,0.00026725587667897344,0.0002735111629590392,0.0019311062060296535,0,2,-1000,1,0,0,-1,1,-1,1500.0
15:25:12.766,STABILIZE,-35.3632621,149.1652375,7,-0.0006930873496457934,0.0009276524651795626,0.024569030851125717,0.00026725587667897344,0.0002735111629590392,0.0019311062060296535,0,2,-1000,1,0,0,-1,1,-1,1500.0
15:25:12.967,STABILIZE,-35.3632621,149.1652375,7,-0.0006930873496457934,0.0009276524651795626,0.024569030851125717,0.00026725587667897344,0.0002735111629590392,0.0019311062060296535,0,2,-1000,1,0,0,-1,1,-1,1500.0
15:25:13.169,STABILIZE,-35.3632621,149.1652375,7,-0.0006930873496457934,0.0009276524651795626,0.024569030851125717,0.00026725587667897344,0.0002735111629590392,0.0019311062060296535,0,2,-1000,1,0,0,-1,1,-1,1500.0
15:25:13.370,STABILIZE,-35.3632621,149.1652375,7,-0.0006930873496457934,0.0009276524651795626,0.024569030851125717,0.00026725587667897344,0.0002735111629590392,0.0019311062060296535,0,2,-1000,1,0,0,-1,1,-1,1500.0
15:25:13.571,STABILIZE,-35.3632621,149.1652375,7,-0.0006930873496457934,0.0009276524651795626,0.024569030851125717,0.00026725587667897344,0.0002735111629590392,0.0019311062060296535,0,2,-1000,1,0,0,-1,1,-1,1500.0
15:25:13.773,STABILIZE,-35.3632621,149.1652375,7,-0.0006930873496457934,0.0009276524651795626,0.024569030851125717,0.00026725587667897344,0.0002735111629590392,0.0019311062060296535,0,2,-1000,1,0,0,-1,1,-1,1500.0
15:25:13.974,STABILIZE,-35.3632621,149.1652375,1,-0.0006370164919644594,0.000929245026782155,0.02410099096596241,0.0003362743300385773,0.0002352093579247594,0.001786684151738882,0,1,-1000,0,0,0,-1,2,0,1500.0
15:25:14.176,STABILIZE,-35.3632621,149.1652375,0,-0.0006370164919644594,0.000929245026782155,0.02410099096596241,0.0003362743300385773,0.0002352093579247594,0.001786684151738882,0,2,-1000,0,1,0,-1,2,0,1500.0
15:25:14.377,STABILIZE,-35.3632621,149.1652375,0,-0.0007186360890045762,0.0009358754032291472,0.023921174928545952,0.00029393553268164396,0.0002539073466323316,0.0018620468908920884,0,2,-1000,0,1,0,-1,2,0,1500.0
15:25:14.578,STABILIZE,-35.3632621,149.1652375,0,-0.0007186360890045762,0.0009358754032291472,0.023921174928545952,0.00029393553268164396,0.0002539073466323316,0.0018620468908920884,0,2,-1000,0,1,0,-1,2,0,1500.0
15:25:14.780,STABILIZE,-35.3632621,149.1652375,0,-0.0007186360890045762,0.0009358754032291472,0.023921174928545952,0.00029393553268164396,0.0002539073466323316,0.0018620468908920884,0,2,-1000,0,1,0,-1,2,0,1500.0
15:25:14.981,STABILIZE,-35.3632621,149.1652375,0,-0.0007186360890045762,0.0009358754032291472,0.023921174928545952,0.00029393553268164396,0.0002539073466323316,0.0018620468908920884,0,2,-1000,0,1,0,-1,2,0,1500.0
15:25:15.182,STABILIZE,-35.3632621,149.1652375,0,-0.0008359208004549146,0.0009469817159697413,0.02366887405514717,7.986335549503565e-05,0.00025737955002114177,0.0017571025528013706,0,2,-1000,0,1,0,-1,2,0,1500.0
15:25:15.384,STABILIZE,-35.3632621,149.1652375,0,-0.0008359208004549146,0.0009469817159697413,0.02366887405514717,7.986335549503565e-05,0.00025737955002114177,0.0017571025528013706,0,2,-1000,0,1,0,-1,2,0,1500.0
15:25:15.585,STABILIZE,-35.3632621,149.1652375,0,-0.0008359208004549146,0.0009469817159697413,0.02366887405514717,7.986335549503565e-05,0.00025737955002114177,0.0017571025528013706,0,2,-1000,0,1,0,-1,2,0,1500.0
15:25:15.786,STABILIZE,-35.3632621,149.1652375,0,-0.0008359208004549146,0.0009469817159697413,0.02366887405514717,7.986335549503565e-05,0.00025737955002114177,0.0017571025528013706,0,2,-1000,0,1,0,-1,2,0,1500.0
15:25:15.987,STABILIZE,-35.3632621,149.1652375,0,-0.0008359208004549146,0.0009469817159697413,0.02366887405514717,7.986335549503565e-05,0.00025737955002114177,0.0017571025528013706,0,2,-1000,0,1,0,-1,2,0,1500.0
15:25:16.188,STABILIZE,-35.3632621,149.1652375,0,-0.000978844240307808,0.0009605252998881042,0.023384137079119682,0.00019205256830900908,0.00030653830617666245,0.0016928131226450205,0,2,-1000,0,0,0,-1,1,0,1500.0
15:25:16.390,STABILIZE,-35.3632621,149.1652375,0,-0.0010020615300163627,0.000961584853939712,0.023304132744669914,0.0002833796897903085,0.00020990311168134212,0.0016179513186216354,0,2,-1000,0,0,0,-1,1,0,1500.0
15:25:16.591,STABILIZE,-35.3632621,149.1652375,0,-0.0010020615300163627,0.000961584853939712,0.023304132744669914,0.0002833796897903085,0.00020990311168134212,0.0016179513186216354,0,1,-1000,1,1,0,-1,1,0,1500.0
15:25:16.792,STABILIZE,-35.3632621,149.1652375,0,-0.0010020615300163627,0.000961584853939712,0.023304132744669914,0.0002833796897903085,0.00020990311168134212,0.0016179513186216354,0,1,-1000,1,1,0,-1,1,0,1500.0
15:25:16.993,STABILIZE,-35.3632622,149.1652375,0,-0.000841899833176285,0.0009622407960705459,0.023175008594989777,0.0002191424136981368,0.00028071162523701787,0.0016492161666974425,0,1,-1000,0,0,0,-1,0,-1,1500.0
15:25:17.195,STABILIZE,-35.3632622,149.1652375,0,-0.000841899833176285,0.0009622407960705459,0.023175008594989777,0.0002191424136981368,0.00028071162523701787,0.0016492161666974425,0,1,-1000,1,1,0,-1,0,-1,1500.0
15:25:17.397,STABILIZE,-35.3632622,149.1652375,0,-0.000841899833176285,0.0009622407960705459,0.023175008594989777,0.0002191424136981368,0.00028071162523701787,0.0016492161666974425,0,1,-1000,1,1,0,-1,0,-1,1500.0
15:25:17.598,STABILIZE,-35.3632622,149.1652375,0,-0.000841899833176285,0.0009622407960705459,0.023175008594989777,0.0002191424136981368,0.00028071162523701787,0.0016492161666974425,0,1,-1000,1,1,0,-1,0,-1,1500.0
15:25:17.800,STABILIZE,-35.3632622,149.1652375,0,-0.000841899833176285,0.0009622407960705459,0.023175008594989777,0.0002191424136981368,0.00028071162523701787,0.0016492161666974425,0,1,-1000,1,1,0,-1,0,-1,1500.0
15:25:18.001,STABILIZE,-35.3632622,149.1652375,2,-0.0007847958477213979,0.0009683653479442,0.02292700484395027,0.0002510046469978988,0.00022767129121348262,0.0017380844801664352,0,1,-1000,0,1,1,-1,1,-1,1500.0
15:25:18.203,STABILIZE,-35.3632622,149.1652375,2,-0.0007847958477213979,0.0009683653479442,0.02292700484395027,0.0002510046469978988,0.00022767129121348262,0.0017380844801664352,0,1,-1000,0,1,1,-1,1,-1,1500.0
15:25:18.405,STABILIZE,-35.3632622,149.1652375,2,-0.0007846912485547364,0.000963871250860393,0.022777078673243523,0.0002723605139181018,0.0002765650860965252,0.0016076576430350542,0,2,-1000,0,0,0,-1,1,0,1500.0
15:25:18.607,STABILIZE,-35.3632622,149.1652375,2,-0.0007749867509119213,0.0009660593932494521,0.02272561937570572,0.0002666782238520682,0.0002793800667859614,0.0017004422843456268,0,2,-1000,1,0,0,-1,1,0,1500.0
15:25:18.810,STABILIZE,-35.3632622,149.1652375,2,-0.0007749867509119213,0.0009660593932494521,0.02272561937570572,0.0002666782238520682,0.0002793800667859614,0.0017004422843456268,0,2,-1000,1,0,0,-1,1,0,1500.0
15:25:19.012,STABILIZE,-35.3632622,149.1652375,2,-0.0007749867509119213,0.0009660593932494521,0.02272561937570572,0.0002666782238520682,0.0002793800667859614,0.0017004422843456268,0,2,-1000,1,0,0,-1,1,0,1500.0
15:25:19.214,STABILIZE,-35.3632622,149.1652375,2,-0.0007854799623601139,0.0009645347017794847,0.022580236196517944,0.00028615182964131236,0.00028827344067394733,0.001532652648165822,0,2,-1000,1,0,0,-1,1,0,1500.0
15:25:19.420,STABILIZE,-35.3632622,149.1652375,2,-0.0007854799623601139,0.0009645347017794847,0.022580236196517944,0.00028615182964131236,0.00028827344067394733,0.001532652648165822,0,2,-1000,1,0,0,-1,1,0,1500.0
15:25:19.622,STABILIZE,-35.3632622,149.1652375,2,-0.0007854799623601139,0.0009645347017794847,0.022580236196517944,0.00028615182964131236,0.00028827344067394733,0.001532652648165822,0,2,-1000,1,0,0,-1,1,0,1500.0
15:25:19.836,STABILIZE,-35.3632622,149.1652375,2,-0.0007854799623601139,0.0009645347017794847,0.022580236196517944,0.00028615182964131236,0.00028827344067394733,0.001532652648165822,0,2,-1000,1,0,0,-1,1,0,1500.0
15:25:20.038,STABILIZE,-35.3632622,149.1652375,2,-0.0007854799623601139,0.0009645347017794847,0.022580236196517944,0.00028615182964131236,0.00028827344067394733,0.001532652648165822,0,2,-1000,1,0,0,-1,1,0,1500.0
15:25:20.240,STABILIZE,-35.3632622,149.1652375,1,-0.0008190164808183908,0.0009868093766272068,0.022327613085508347,0.00031875475542619824,0.00030252826400101185,0.0016456436133012176,0,1,-1000,0,0,0,-1,1,0,1500.0
15:25:20.442,AUTO,-35.3632622,149.1652375,0,-0.0008319939370267093,0.0009903536411002278,0.02227390743792057,0.0002602712484076619,0.0002679199678823352,0.001528268912807107,0,1,-1000,0,0,0,-1,1,0,1500.0
15:25:20.644,AUTO,-35.3632622,149.1652375,0,-0.000843043380882591,0.0009901007870212197,0.022205164656043053,0.0003317381488159299,0.00026837363839149475,0.0014830661239102483,0,1,-1000,0,1,0,-1,1,0,1500.0
15:25:20.845,AUTO,-35.3632622,149.1652375,0,-0.0008533068466931581,0.0009850880596786737,0.02216007001698017,0.00034955190494656563,0.00013715459499508142,0.0014940632972866297,0,1,-1000,0,1,1,-1,1,0,1500.0
15:25:21.047,AUTO,-35.3632622,149.1652375,0,-0.0008533068466931581,0.0009850880596786737,0.02216007001698017,0.00034955190494656563,0.00013715459499508142,0.0014940632972866297,0,1,-1000,0,1,1,-1,1,0,1500.0
15:25:21.248,AUTO,-35.3632622,149.1652375,0,-0.000864264729898423,0.0009908416541293263,0.022116005420684814,0.00020450260490179062,0.00022049015387892723,0.0015002675354480743,0,2,-1000,0,0,1,-1,1,0,1500.0
15:25:21.450,AUTO,-35.3632622,149.1652375,0,-0.000864264729898423,0.0009908416541293263,0.022116005420684814,0.00020450260490179062,0.00022049015387892723,0.0015002675354480743,0,2,-1000,0,0,1,-1,1,0,1500.0
15:25:21.651,AUTO,-35.3632622,149.1652375,0,-0.000864264729898423,0.0009908416541293263,0.022116005420684814,0.00020450260490179062,0.00022049015387892723,0.0015002675354480743,0,2,-1000,0,0,1,-1,1,0,1500.0
15:25:21.853,AUTO,-35.3632621,149.1652375,0,-0.0007872217101976275,0.001104729250073433,0.021969899535179138,0.0002622420433908701,0.0002909721224568784,0.0014457558281719685,0,1,-1000,1,0,1,0,0,0,1500.0
15:25:22.054,AUTO,-35.3632621,149.1652375,0,-0.0007872217101976275,0.001104729250073433,0.021969899535179138,0.0002622420433908701,0.0002909721224568784,0.0014457558281719685,0,1,-1000,1,0,1,0,0,0,1500.0
15:25:22.256,AUTO,-35.3632621,149.1652375,0,-0.0007423342321999371,0.0011666198261082172,0.02190210297703743,0.00031788204796612263,0.0003138598403893411,0.0014399108476936817,0,2,-1000,0,1,1,0,0,0,1500.0
15:25:22.512,AUTO,-35.3632621,149.1652375,0,-0.0006907251081429422,0.0012284708209335804,0.02183380350470543,0.00028806086629629135,0.0002649404341354966,0.0015276158228516579,0,1,-1000,1,1,1,0,0,0,1500.0
15:25:22.727,AUTO,-35.3632621,149.1652375,0,-0.0006342149572446942,0.0012940221931785345,0.021776866167783737,0.0003268653526902199,0.00038205820601433516,0.0015083388425409794,0,1,-1000,0,0,1,0,0,0,1500.0
15:25:22.996,AUTO,-35.3632621,149.1652375,0,-0.0005799047066830099,0.0013667093589901924,0.021704139187932014,0.0002777244080789387,0.0002477491507306695,0.0014366288669407368,0,1,-1000,1,0,0,0,0,0,1500.0
15:25:23.204,AUTO,-35.3632621,149.1652375,0,-0.000520594883710146,0.001430968870408833,0.021633241325616837,0.0003128454554826021,0.0003357416717335582,0.0014228739310055971,0,2,-1000,0,0,0,0,0,0,1500.0
15:25:23.491,AUTO,-35.3632621,149.1652375,0,-0.000520594883710146,0.001430968870408833,0.021633241325616837,0.0003128454554826021,0.0003357416717335582,0.0014228739310055971,0,2,-1000,0,0,0,0,0,0,1500.0
15:25:23.693,AUTO,-35.3632621,149.1652375,0,-0.000520594883710146,0.001430968870408833,0.021633241325616837,0.0003128454554826021,0.0003357416717335582,0.0014228739310055971,0,2,-1000,0,0,0,0,0,0,1500.0
15:25:23.895,AUTO,-35.3632621,149.1652375,0,-4.539414294413291e-05,0.0016384812770411372,0.021410055458545685,0.0003009574138559401,0.0002990023931488395,0.0014563261065632105,0,1,-1000,0,0,0,0,1,2,1500.0
15:25:24.097,AUTO,-35.3632621,149.1652375,0,2.5718349206726998e-05,0.0017169276252388954,0.021337056532502174,0.0003648464335128665,0.00028292310889810324,0.0015080743469297886,0,1,-1000,1,1,0,0,1,2,1500.0
15:25:24.298,AUTO,-35.3632621,149.1652375,0,2.5718349206726998e-05,0.0017169276252388954,0.021337056532502174,0.0003648464335128665,0.00028292310889810324,0.0015080743469297886,0,1,-1000,1,1,0,0,1,2,1500.0
15:25:24.500,AUTO,-35.3632621,149.1652375,0,0.00012135951692471281,0.0006408037734217942,0.021302761510014534,0.0026637190021574497,-0.011324301362037659,0.0006978580495342612,0,0,-1117,3,-10,0,0,0,-6,4746.0
15:25:24.701,AUTO,-35.3632621,149.1652375,57,0.0013141717063263059,-0.0004860681074205786,0.021287264302372932,0.006258453242480755,0.001723602181300521,0.0005834104958921671,0,0,-1139,6,2,0,0,0,-40,4746.0
15:25:24.903,AUTO,-35.3632621,149.1652375,203,0.0017989443149417639,0.00038837557076476514,0.021206194534897804,0.0006456152186729014,0.0037228732835501432,0.0012995549477636814,0,0,-1127,1,4,0,0,0,-73,4746.0
15:25:25.105,AUTO,-35.3632621,149.1652374,428,0.001959154848009348,0.001145860063843429,0.02115289866924286,-0.0002586512127891183,0.002253555227071047,0.0017186119221150875,0,0,-1105,0,3,1,0,0,-101,4746.0
15:25:25.307,AUTO,-35.3632621,149.1652374,428,0.001959154848009348,0.001145860063843429,0.02115289866924286,-0.0002586512127891183,0.002253555227071047,0.0017186119221150875,0,0,-1105,0,3,1,0,0,-101,4746.0
15:25:25.511,AUTO,-35.3632621,149.1652374,428,0.001959154848009348,0.001145860063843429,0.02115289866924286,-0.0002586512127891183,0.002253555227071047,0.0017186119221150875,0,0,-1105,0,3,1,0,0,-101,4746.0
15:25:25.713,AUTO,-35.3632621,149.1652374,428,0.001959154848009348,0.001145860063843429,0.02115289866924286,-0.0002586512127891183,0.002253555227071047,0.0017186119221150875,0,0,-1105,0,3,1,0,0,-101,4746.0
15:25:25.915,AUTO,-35.3632621,149.1652375,1424,0.02419070340692997,-0.0009838882833719254,0.02092832326889038,0.04719895124435425,-0.0071286302991211414,0.0024464624002575874,0,0,-1016,47,-6,2,0,4,-143,4746.0
15:25:26.117,AUTO,-35.363262,149.1652376,1802,0.03566892817616463,-0.0028646118007600307,0.02107681892812252,0.045038703829050064,-0.007915218360722065,0.002824194496497512,0,-1,-1006,45,-7,2,1,11,-146,4746.0
15:25:26.318,AUTO,-35.3632619,149.165238,2184,0.046552304178476334,-0.005082693882286549,0.02128518559038639,0.04239419847726822,-0.008982136845588684,0.003390138503164053,0,-3,-1002,43,-8,3,3,20,-147,4746.0
15:25:26.520,AUTO,-35.3632619,149.165238,2184,0.046552304178476334,-0.005082693882286549,0.02128518559038639,0.04239419847726822,-0.008982136845588684,0.003390138503164053,0,-3,-1002,43,-8,3,3,20,-147,4746.0
15:25:26.721,AUTO,-35.3632618,149.1652386,2569,0.056646473705768585,-0.007768664509057999,0.021518941968679428,0.03912734612822533,-0.012009290046989918,0.0037025967612862587,1,-5,-1000,39,-11,3,5,31,-147,4746.0
15:25:26.924,AUTO,-35.3632616,149.1652396,2953,0.06345248222351074,-0.008974662981927395,-0.008220997639000416,-0.0153197031468153,0.024655479937791824,-0.04295329749584198,0,-7,-992,-14,25,-43,8,43,-146,4746.0
15:25:27.126,AUTO,-35.3632614,149.165241,3331,0.04148930311203003,0.013196904212236404,-0.03105858340859413,-0.1483031064271927,0.09439938515424728,-0.1011967658996582,2,-12,-990,-147,95,-101,9,54,-144,4746.0
15:25:27.329,AUTO,-35.3632614,149.165241,3331,0.04148930311203003,0.013196904212236404,-0.03105858340859413,-0.1483031064271927,0.09439938515424728,-0.1011967658996582,2,-12,-990,-147,95,-101,9,54,-144,4746.0
15:25:27.531,AUTO,-35.3632614,149.165241,3331,0.04148930311203003,0.013196904212236404,-0.03105858340859413,-0.1483031064271927,0.09439938515424728,-0.1011967658996582,2,-12,-990,-147,95,-101,9,54,-144,4746.0
15:25:27.734,AUTO,-35.3632614,149.165241,3331,0.04148930311203003,0.013196904212236404,-0.03105858340859413,-0.1483031064271927,0.09439938515424728,-0.1011967658996582,2,-12,-990,-147,95,-101,9,54,-144,4746.0
15:25:27.937,AUTO,-35.363261,149.1652449,4464,-0.03579188510775566,0.04146473482251167,-0.10838879644870758,-0.013331286609172821,0.02395755983889103,-0.1072143092751503,5,-7,-1007,-12,24,-107,-6,37,-148,4746.0
15:25:28.138,AUTO,-35.3632612,149.1652458,4849,-0.04239219054579735,0.0328458733856678,-0.12024177610874176,-0.044048599898815155,-0.08776424825191498,-0.003340229857712984,7,-6,-1000,-43,-86,-3,-15,26,-148,4746.0
15:25:28.415,AUTO,-35.3632615,149.1652464,5237,-0.056117188185453415,0.003167229937389493,-0.10878372192382812,-0.05489632859826088,-0.1302330493927002,0.0637885257601738,5,-3,-1001,-53,-129,63,-19,13,-148,4746.0
15:25:28.681,AUTO,-35.3632619,149.1652465,5621,-0.06739632040262222,-0.026652006432414055,-0.08556429296731949,-0.02980492264032364,-0.11510952562093735,0.08836426585912704,4,1,-1003,-29,-114,87,-15,-3,-148,4746.0
15:25:29.034,AUTO,-35.3632622,149.1652462,6004,-0.06630315631628036,-0.038416072726249695,-0.07214067131280899,0.02305295504629612,-0.0028401121962815523,0.029228575527668,1,3,-1002,23,-2,28,-7,-20,-148,4746.0
15:25:29.338,AUTO,-35.3632623,149.1652455,6388,-0.059195853769779205,-0.03449824079871178,-0.06976988911628723,0.03538954257965088,0.019899647682905197,0.010205485858023167,-1,6,-1000,35,20,9,0,-35,-148,4746.0
15:25:29.605,AUTO,-35.3632623,149.1652455,6388,-0.059195853769779205,-0.03449824079871178,-0.06976988911628723,0.03538954257965088,0.019899647682905197,0.010205485858023167,-1,6,-1000,35,20,9,0,-35,-148,4746.0
15:25:29.809,AUTO,-35.3632623,149.1652455,6388,-0.059195853769779205,-0.03449824079871178,-0.06976988911628723,0.03538954257965088,0.019899647682905197,0.010205485858023167,-1,6,-1000,35,20,9,0,-35,-148,4746.0
15:25:30.014,AUTO,-35.3632618,149.1652413,7535,-0.018548104912042618,-0.021505087614059448,-0.06788349896669388,0.060256246477365494,0.022438667714595795,0.004943206440657377,-10,9,-1002,61,23,4,14,-61,-149,4746.0
15:25:30.216,AUTO,-35.3632615,149.1652396,7920,-0.0033306304831057787,-0.01536193024367094,-0.06766469776630402,0.06197139620780945,0.02633911557495594,0.0020399768836796284,-10,11,-1003,62,27,1,17,-62,-150,4746.0
15:25:30.419,AUTO,-35.3632611,149.1652379,8308,0.011267978698015213,-0.007989051751792431,-0.06818179041147232,0.058153294026851654,0.03142353519797325,-0.0003481985186226666,-12,9,-1004,58,32,0,17,-59,-151,153262.0
15:25:30.621,AUTO,-35.3632607,149.1652363,8698,0.02517624758183956,0.00022374438412953168,-0.06975843012332916,0.049836963415145874,0.03767784312367439,-0.01043979823589325,-11,8,-1003,50,38,-10,16,-53,-152,153262.0
15:25:30.822,AUTO,-35.3632604,149.1652349,9090,0.03636965900659561,0.01053433958441019,-0.07392329722642899,0.04226628690958023,0.04269414022564888,-0.019624201580882072,-10,6,-1003,42,43,-19,14,-44,-152,153262.0
15:25:31.025,AUTO,-35.3632604,149.1652349,9090,0.03636965900659561,0.01053433958441019,-0.07392329722642899,0.04226628690958023,0.04269414022564888,-0.019624201580882072,-10,6,-1003,42,43,-19,14,-44,-152,153262.0
15:25:31.227,AUTO,-35.3632601,149.1652338,9482,0.04686104133725166,0.02057562582194805,-0.07963193207979202,0.04013286903500557,0.03817540034651756,-0.027543116360902786,-8,5,-1002,40,38,-27,9,-33,-153,153262.0
15:25:31.438,AUTO,-35.3632601,149.1652338,9482,0.04686104133725166,0.02057562582194805,-0.07963193207979202,0.04013286903500557,0.03817540034651756,-0.027543116360902786,-8,5,-1002,40,38,-27,9,-33,-153,153262.0
15:25:31.640,AUTO,-35.3632601,149.1652338,9482,0.04686104133725166,0.02057562582194805,-0.07963193207979202,0.04013286903500557,0.03817540034651756,-0.027543116360902786,-8,5,-1002,40,38,-27,9,-33,-153,153262.0
15:25:31.842,AUTO,-35.3632602,149.1652326,10661,0.06432577967643738,0.051009465008974075,-0.11365272104740143,0.01621386967599392,0.030557766556739807,-0.061196114867925644,1,1,-998,17,31,-61,-14,11,-151,153262.0
15:25:32.044,AUTO,-35.3632602,149.1652326,10661,0.06432577967643738,0.051009465008974075,-0.11365272104740143,0.01621386967599392,0.030557766556739807,-0.061196114867925644,1,1,-998,17,31,-61,-14,11,-151,153262.0
15:25:32.245,AUTO,-35.3632605,149.1652329,11047,0.06100543215870857,0.052263714373111725,-0.12326943129301071,-0.05441137030720711,-0.04154703766107559,-0.0035134099889546633,4,-1,-992,-53,-40,-3,-23,27,-149,153262.0
15:25:32.447,AUTO,-35.363261,149.1652338,11429,0.03938207030296326,0.03305641561746597,-0.11988122016191483,-0.10606268048286438,-0.09022422879934311,0.03368179500102997,8,-1,-995,-105,-89,33,-30,39,-147,153262.0
15:25:32.649,AUTO,-35.3632617,149.1652349,11808,0.01390235498547554,0.010586249642074108,-0.11072059720754623,-0.09657865762710571,-0.08183792233467102,0.03803053870797157,11,-2,-1003,-96,-81,37,-31,43,-147,153262.0
15:25:32.851,AUTO,-35.3632624,149.165236,12196,-0.008442162536084652,-0.006324002519249916,-0.1021629348397255,-0.07463838160037994,-0.053326673805713654,0.0266939215362072,11,-3,-1006,-73,-52,26,-28,42,-149,153262.0
15:25:33.053,AUTO,-35.3632624,149.165236,12196,-0.008442162536084652,-0.006324002519249916,-0.1021629348397255,-0.07463838160037994,-0.053326673805713654,0.0266939215362072,11,-3,-1006,-73,-52,26,-28,42,-149,153262.0
15:25:33.254,AUTO,-35.363263,149.1652371,12580,-0.02271740697324276,-0.016554104164242744,-0.09744751453399658,-0.04175003245472908,-0.03308349475264549,0.010181896388530731,10,-4,-1006,-40,-32,9,-23,35,-150,153262.0
15:25:33.456,AUTO,-35.363263,149.1652371,12580,-0.02271740697324276,-0.016554104164242744,-0.09744751453399658,-0.04175003245472908,-0.03308349475264549,0.010181896388530731,10,-4,-1006,-40,-32,9,-23,35,-150,153262.0
15:25:33.658,AUTO,-35.363263,149.1652371,12580,-0.02271740697324276,-0.016554104164242744,-0.09744751453399658,-0.04175003245472908,-0.03308349475264549,0.010181896388530731,10,-4,-1006,-40,-32,9,-23,35,-150,153262.0
15:25:33.860,AUTO,-35.3632638,149.1652388,13739,-0.030447473749518394,-0.02380734123289585,-0.10655383765697479,0.015746280550956726,0.00703945429995656,-0.027169175446033478,2,0,-1001,16,7,-27,-3,7,-152,153262.0
15:25:34.062,AUTO,-35.3632638,149.1652388,13739,-0.030447473749518394,-0.02380734123289585,-0.10655383765697479,0.015746280550956726,0.00703945429995656,-0.027169175446033478,2,0,-1001,16,7,-27,-3,7,-152,153262.0
15:25:34.263,AUTO,-35.3632638,149.1652388,14130,-0.02591843158006668,-0.021441051736474037,-0.11486262083053589,0.021033572033047676,0.012554075568914413,-0.032636016607284546,0,0,-1000,21,13,-32,2,-1,-152,153262.0
15:25:34.574,AUTO,-35.3632636,149.1652385,14911,-0.012524639256298542,-0.01373859029263258,-0.13320216536521912,0.0285414457321167,0.019341373816132545,-0.03653561323881149,-1,0,-1000,27,16,-35,9,-13,-152,153262.0
15:25:34.811,AUTO,-35.3632636,149.1652385,14911,-0.012524639256298542,-0.01373859029263258,-0.13320216536521912,0.0285414457321167,0.019341373816132545,-0.03653561323881149,-3,0,-1000,29,20,-36,9,-13,-152,153262.0
15:25:35.039,AUTO,-35.3632634,149.1652381,15302,-0.00500685628503561,-0.009086795151233673,-0.14213544130325317,0.02966935746371746,0.019775358960032463,-0.03407901152968407,-5,1,-1000,30,20,-34,11,-16,-153,153262.0
15:25:35.317,AUTO,-35.3632631,149.1652376,15693,0.0019889799878001213,-0.003968792501837015,-0.1506918966770172,0.023477137088775635,0.0214101430028677,-0.031162261962890625,-4,1,-1000,24,22,-31,12,-16,-153,153262.0
15:25:35.566,AUTO,-35.3632631,149.1652376,15693,0.0019889799878001213,-0.003968792501837015,-0.1506918966770172,0.023477137088775635,0.0214101430028677,-0.031162261962890625,-4,1,-1000,24,22,-31,12,-16,-153,153262.0
15:25:35.808,AUTO,-35.3632631,149.1652376,15693,0.0019889799878001213,-0.003968792501837015,-0.1506918966770172,0.023477137088775635,0.0214101430028677,-0.031162261962890625,-4,1,-1000,24,22,-31,12,-16,-153,153262.0
15:25:36.010,AUTO,-35.3632622,149.1652362,16866,0.013433247804641724,0.008137441240251064,-0.17043893039226532,0.0075435214675962925,0.012290343642234802,-0.019049668684601784,-4,1,-1000,8,13,-19,9,-11,-153,153262.0
15:25:36.215,AUTO,-35.363262,149.1652359,17257,0.014902840368449688,0.010451682843267918,-0.17491881549358368,0.006908759940415621,0.006166149862110615,-0.011340413242578506,-4,0,-1000,7,6,-11,7,-8,-153,153262.0
15:25:36.417,AUTO,-35.3632618,149.1652356,17646,0.015410250052809715,0.011102327145636082,-0.17799066007137299,0.003710406832396984,0.0017813716549426317,-0.010360615327954292,-3,0,-1000,4,2,-10,5,-4,-153,171007.0
15:25:36.620,AUTO,-35.3632616,149.1652355,18036,0.014555810950696468,0.011353104375302792,-0.18042519688606262,-0.004971400834619999,7.098773494362831e-05,-0.008157111704349518,-2,0,-999,-4,0,-8,3,-1,-153,171007.0
15:25:36.821,AUTO,-35.3632615,149.1652354,18426,0.013113428838551044,0.010820171795785427,-0.18215017020702362,-0.005284630227833986,-0.0028066763188689947,-0.0058633978478610516,-1,0,-1000,-4,-1,-6,1,1,-153,171007.0
15:25:37.023,AUTO,-35.3632615,149.1652354,18426,0.013113428838551044,0.010820171795785427,-0.18215017020702362,-0.005284630227833986,-0.0028066763188689947,-0.0058633978478610516,-1,0,-1000,-4,-1,-6,1,1,-153,171007.0
15:25:37.225,AUTO,-35.3632614,149.1652353,18816,0.011468755081295967,0.010383570566773415,-0.18411865830421448,-0.007100609131157398,-0.0005405757110565901,-0.006727405823767185,0,0,-999,-6,0,-7,0,3,-153,171007.0
15:25:37.429,AUTO,-35.3632614,149.1652353,18816,0.011468755081295967,0.010383570566773415,-0.18411865830421448,-0.007100609131157398,-0.0005405757110565901,-0.006727405823767185,0,0,-999,-6,0,-7,0,3,-153,171007.0
15:25:37.637,AUTO,-35.3632614,149.1652353,18816,0.011468755081295967,0.010383570566773415,-0.18411865830421448,-0.007100609131157398,-0.0005405757110565901,-0.006727405823767185,0,0,-999,-6,0,-7,0,3,-153,171007.0
15:25:37.840,AUTO,-35.3632614,149.1652356,19984,0.005993363913148642,0.007370422128587961,-0.190145805478096,-0.0073196678422391415,-0.00262174429371953,-0.0107803363353014,0,0,-1000,-6,-1,-11,-3,7,-153,171007.0
15:25:38.043,AUTO,-35.3632614,149.1652356,19984,0.005993363913148642,0.007370422128587961,-0.190145805478096,-0.0073196678422391415,-0.00262174429371953,-0.0107803363353014,0,0,-1000,-6,-1,-11,-3,7,-153,171007.0
15:25:38.244,AUTO,-35.3632614,149.1652357,20374,0.004542436450719833,0.006364061962813139,-0.19278210401535034,-0.0034787452314049006,-0.004363874904811382,-0.010309441015124321,1,-1,-1000,-2,-3,-10,-3,7,-153,171007.0
15:25:38.446,AUTO,-35.3632614,149.1652358,20764,0.003440857632085681,0.004837412387132645,-0.1952923983335495,-0.00374301103875041,-0.006319801788777113,-0.008368908427655697,0,-1,-1000,-2,-5,-8,-4,7,-153,171007.0
15:25:38.648,AUTO,-35.3632614,149.165236,21153,0.0025999892968684435,0.0037046647630631924,-0.19845108687877655,-0.002413058653473854,-0.0006331706536002457,-0.015416441485285759,1,0,-1000,-1,0,-15,-4,7,-153,171007.0
15:25:38.849,AUTO,-35.3632615,149.1652361,21550,0.0018637956818565726,0.003198342863470316,-0.20224522054195404,-0.00045708048855885863,-0.0009092615218833089,-0.01587006263434887,1,0,-1000,0,0,-16,-4,7,-153,171007.0
15:25:39.051,AUTO,-35.3632615,149.1652361,21550,0.0018637956818565726,0.003198342863470316,-0.20224522054195404,-0.00045708048855885863,-0.0009092615218833089,-0.01587006263434887,1,0,-1000,0,0,-16,-4,7,-153,171007.0
15:25:39.253,AUTO,-35.3632615,149.1652362,21940,0.0009150406694971025,0.002676705364137888,-0.20633387565612793,-0.00321464822627604,-0.0012753630289807916,-0.01678726263344288,1,0,-1000,-2,0,-17,-3,6,-153,171007.0
15:25:39.455,AUTO,-35.3632615,149.1652362,21940,0.0009150406694971025,0.002676705364137888,-0.20633387565612793,-0.00321464822627604,-0.0012753630289807916,-0.01678726263344288,1,0,-1000,-2,0,-17,-3,6,-153,171007.0
15:25:39.656,AUTO,-35.3632615,149.1652362,21940,0.0009150406694971025,0.002676705364137888,-0.20633387565612793,-0.00321464822627604,-0.0012753630289807916,-0.01678726263344288,1,0,-1000,-2,0,-17,-3,6,-153,171007.0
15:25:39.858,AUTO,-35.3632616,149.1652365,23110,0.0008978354162536561,0.0021771248430013657,-0.22050981223583221,0.0023323604837059975,-0.0004026633978355676,-0.0196656733751297,0,0,-1000,3,0,-20,-3,4,-153,171007.0
15:25:40.060,AUTO,-35.3632616,149.1652365,23110,0.0008978354162536561,0.0021771248430013657,-0.22050981223583221,0.0023323604837059975,-0.0004026633978355676,-0.0196656733751297,0,0,-1000,3,0,-20,-3,4,-153,171007.0
15:25:40.261,AUTO,-35.3632616,149.1652365,23500,0.0012248903512954712,0.002103519393131137,-0.22550171613693237,0.0023970564361661673,0.000333123782183975,-0.020095989108085632,0,0,-1000,3,1,-20,-3,3,-153,171007.0
15:25:40.584,AUTO,-35.3632617,149.1652366,24280,0.0018781785620376468,0.002158694202080369,-0.23566770553588867,0.0024945028126239777,-0.0001695936662144959,-0.020004259422421455,0,0,-1000,3,0,-20,-2,3,-153,171007.0
15:25:40.935,AUTO,-35.3632617,149.1652366,24670,0.0021772393956780434,0.0022733972873538733,-0.24078315496444702,0.002295252401381731,0.0006428507622331381,-0.020126063376665115,0,0,-1000,3,1,-20,-2,2,-153,171007.0
15:25:41.148,AUTO,-35.3632617,149.1652367,25059,-0.003210865193977952,0.0025370516814291477,-0.24604377150535583,-0.11738291382789612,0.00031517085153609514,-0.019532233476638794,1,0,-986,-116,1,-19,-2,2,-152,171007.0
15:25:41.351,AUTO,-35.3632617,149.1652367,25059,-0.003210865193977952,0.0025370516814291477,-0.24604377150535583,-0.11738291382789612,0.00031517085153609514,-0.019532233476638794,1,0,-986,-116,1,-19,-2,2,-152,171007.0
15:25:41.618,AUTO,-35.3632617,149.1652367,25059,-0.003210865193977952,0.0025370516814291477,-0.24604377150535583,-0.11738291382789612,0.00031517085153609514,-0.019532233476638794,1,0,-986,-116,1,-19,-2,2,-152,171007.0
15:25:41.823,AUTO,-35.3632617,149.1652367,25059,-0.003210865193977952,0.0025370516814291477,-0.24604377150535583,-0.11738291382789612,0.00031517085153609514,-0.019532233476638794,1,0,-986,-116,1,-19,-2,2,-152,171007.0
15:25:42.028,AUTO,-35.3632619,149.1652365,26224,0.004275820218026638,0.00526035251095891,-0.2502082288265228,0.03273133561015129,0.0013212952762842178,0.013216209597885609,0,1,-1000,33,2,13,-5,-3,-153,171007.0
15:25:42.231,AUTO,-35.3632619,149.1652363,26613,0.010325414128601551,0.0048645008355379105,-0.24593938887119293,0.01799854263663292,-0.0020756558515131474,0.019121496006846428,0,1,-999,18,-1,18,-5,-1,-153,171007.0
15:25:42.435,AUTO,-35.363262,149.1652363,27003,0.013282421976327896,0.0038072052411735058,-0.24039994180202484,0.004781248513609171,-0.005123305134475231,0.022543735802173615,0,1,-999,5,-4,22,-5,1,-153,171007.0
15:25:42.637,AUTO,-35.3632621,149.1652363,27392,0.013607058674097061,0.002907847287133336,-0.23425740003585815,-0.002839316613972187,-0.0026779649779200554,0.025554249063134193,0,0,-998,-1,-1,24,-4,3,-153,142658.0
15:25:42.839,AUTO,-35.3632622,149.1652364,27780,0.01250534225255251,0.002195796463638544,-0.22808249294757843,-0.0031579684000462294,-0.0010330621153116226,0.025663331151008606,0,0,-1000,-2,0,25,-3,6,-153,142658.0
15:25:43.043,AUTO,-35.3632622,149.1652364,27780,0.01250534225255251,0.002195796463638544,-0.22808249294757843,-0.0031579684000462294,-0.0010330621153116226,0.025663331151008606,0,0,-1000,-2,0,25,-3,6,-153,142658.0
15:25:43.244,AUTO,-35.3632622,149.1652364,28168,0.010541454888880253,0.0017197333509102464,-0.22190849483013153,-0.011124162003397942,-0.0036991061642766,0.025166915729641914,1,0,-1000,-10,-2,24,-3,8,-153,142658.0
15:25:43.446,AUTO,-35.3632622,149.1652364,28168,0.010541454888880253,0.0017197333509102464,-0.22190849483013153,-0.011124162003397942,-0.0036991061642766,0.025166915729641914,1,0,-1000,-10,-2,24,-3,8,-153,142658.0
15:25:43.648,AUTO,-35.3632622,149.1652364,28168,0.010541454888880253,0.0017197333509102464,-0.22190849483013153,-0.011124162003397942,-0.0036991061642766,0.025166915729641914,1,0,-1000,-10,-2,24,-3,8,-153,142658.0
15:25:43.850,AUTO,-35.3632623,149.165237,29330,0.003497097408398986,0.0017398945055902004,-0.20549389719963074,-0.003934798762202263,0.001143984729424119,0.021205153316259384,0,-1,-1001,-2,2,21,-1,9,-152,142658.0
15:25:44.052,AUTO,-35.3632623,149.165237,29330,0.003497097408398986,0.0017398945055902004,-0.20549389719963074,-0.003934798762202263,0.001143984729424119,0.021205153316259384,0,-1,-1001,-2,2,21,-1,9,-152,142658.0
15:25:44.254,AUTO,-35.3632623,149.1652372,29717,0.0018044706666842103,0.0019310368224978447,-0.2003685086965561,-0.007930776104331017,0.0019481700146570802,0.02170831523835659,1,-1,-1000,-6,3,21,0,9,-152,142658.0
15:25:44.456,AUTO,-35.3632623,149.1652374,30104,0.00033656132291071117,0.0020760400220751762,-0.19551117718219757,-0.003952990286052227,-0.0008890876197256148,0.018814703449606895,0,-1,-1001,-2,0,18,0,8,-153,142658.0
15:25:44.657,AUTO,-35.3632623,149.1652376,30496,-0.0004239330592099577,0.0021195756271481514,-0.19090814888477325,-0.0009150883997790515,0.0008510139305144548,0.01928704045712948,0,-1,-1000,0,1,19,0,7,-153,142658.0
15:25:44.860,AUTO,-35.3632623,149.1652378,30885,-0.001053102663718164,0.001898382673971355,-0.18628749251365662,-0.0029140827246010303,4.0860672015696764e-05,0.019849970936775208,0,-1,-1000,-1,1,19,0,6,-153,142658.0
15:25:45.062,AUTO,-35.3632623,149.1652378,30885,-0.001053102663718164,0.001898382673971355,-0.18628749251365662,-0.0029140827246010303,4.0860672015696764e-05,0.019849970936775208,0,-1,-1000,-1,1,19,0,6,-153,142658.0
15:25:45.264,AUTO,-35.3632623,149.1652379,31273,-0.001261168159544468,0.0017046903958544135,-0.1819532960653305,0.004025117494165897,-0.000545009330380708,0.01927875727415085,0,0,-1000,5,0,18,0,5,-153,142658.0
15:25:45.466,AUTO,-35.3632623,149.1652379,31273,-0.001261168159544468,0.0017046903958544135,-0.1819532960653305,0.004025117494165897,-0.000545009330380708,0.01927875727415085,0,0,-1000,5,0,18,0,5,-153,142658.0
15:25:45.668,AUTO,-35.3632623,149.1652379,31273,-0.001261168159544468,0.0017046903958544135,-0.1819532960653305,0.004025117494165897,-0.000545009330380708,0.01927875727415085,0,0,-1000,5,0,18,0,5,-153,142658.0
15:25:45.870,AUTO,-35.3632623,149.165238,32434,-0.000570368894841522,0.0013086036778986454,-0.16947057843208313,0.002646588021889329,0.0006930751260370016,0.014775714837014675,0,0,-1000,3,1,14,0,2,-153,142658.0
15:25:46.078,AUTO,-35.3632623,149.1652381,32823,-2.1595787984551862e-05,0.0013004103675484657,-0.16580736637115479,0.000660858815535903,-0.00025917484890669584,0.013777785003185272,0,0,-1000,1,0,13,0,1,-153,142658.0
15:25:46.383,AUTO,-35.3632623,149.165238,33211,0.0006412405637092888,0.001151799107901752,-0.16218097507953644,0.005008162930607796,-0.0011447136057540774,0.014588219113647938,0,0,-1001,6,0,14,0,1,-153,142658.0
15:25:46.626,AUTO,-35.3632623,149.165238,33596,-0.006876481231302023,0.008555878885090351,-0.14282819628715515,-0.07340670377016068,0.07351962476968765,0.1699339598417282,0,0,-974,-72,74,169,-1,0,-149,142658.0
15:25:46.946,AUTO,-35.3632623,149.165238,33967,-0.031186940148472786,0.035765018314123154,-0.06868567317724228,-0.12376768887042999,0.11820536106824875,0.4105014204978943,0,0,-974,-122,119,410,-6,-4,-143,142658.0
15:25:47.258,AUTO,-35.3632625,149.1652377,34322,-0.05876155197620392,0.06801536679267883,0.0631159320473671,-0.1006828248500824,0.04455668851733208,0.5476058721542358,3,2,-965,-99,45,547,-18,-15,-136,142658.0
15:25:47.496,AUTO,-35.3632625,149.1652377,34322,-0.05876155197620392,0.06801536679267883,0.0631159320473671,-0.1006828248500824,0.04455668851733208,0.5476058721542358,3,2,-965,-99,45,547,-18,-15,-136,142658.0
15:25:47.700,AUTO,-35.3632625,149.1652377,34322,-0.05876155197620392,0.06801536679267883,0.0631159320473671,-0.1006828248500824,0.04455668851733208,0.5476058721542358,3,2,-965,-99,45,547,-18,-15,-136,142658.0
15:25:47.903,AUTO,-35.3632644,149.1652351,35203,0.0044753761030733585,-0.03472266346216202,0.21113698184490204,0.10555954277515411,-0.09468495100736618,0.007801652420312166,3,10,-955,106,-93,7,-27,-35,-96,142658.0
15:25:48.105,AUTO,-35.3632649,149.1652342,35436,0.025287223979830742,-0.049362391233444214,0.20713871717453003,0.07157748937606812,-0.03461603820323944,-0.026987317949533463,2,10,-961,72,-33,-27,-17,-27,-86,142658.0
15:25:48.308,AUTO,-35.3632649,149.1652342,35436,0.025287223979830742,-0.049362391233444214,0.20713871717453003,0.07157748937606812,-0.03461603820323944,-0.026987317949533463,2,10,-961,72,-33,-27,-17,-27,-86,104277.0
15:25:48.509,AUTO,-35.3632651,149.1652335,35642,0.037283990532159805,-0.05196790024638176,0.19841480255126953,0.01398868951946497,0.005317790433764458,-0.03642531484365463,0,5,-966,15,6,-36,-6,-16,-76,104277.0
15:25:48.712,AUTO,-35.3632652,149.1652332,35825,0.04261402785778046,-0.047756705433130264,0.18908348679542542,0.021618496626615524,0.025470148772001266,-0.034298259764909744,-1,3,-971,22,26,-34,2,-5,-68,104277.0
15:25:48.914,AUTO,-35.363265,149.1652331,35989,0.04244896024465561,-0.03903425112366676,0.18091142177581787,0.006600575987249613,0.03833834454417229,-0.027870452031493187,-2,-1,-973,7,39,-27,10,6,-61,104277.0
15:25:49.116,AUTO,-35.3632647,149.1652333,36136,0.03655480965971947,-0.028632694855332375,0.17415252327919006,-0.10026493668556213,0.04213128238916397,-0.023254739120602608,-2,-6,-976,-99,43,-23,16,15,-55,104277.0
15:25:49.318,AUTO,-35.3632647,149.1652333,36136,0.03655480965971947,-0.028632694855332375,0.17415252327919006,-0.10026493668556213,0.04213128238916397,-0.023254739120602608,-2,-6,-976,-99,43,-23,16,15,-55,104277.0
15:25:49.520,AUTO,-35.3632647,149.1652333,36136,0.03655480965971947,-0.028632694855332375,0.17415252327919006,-0.10026493668556213,0.04213128238916397,-0.023254739120602608,-2,-6,-976,-99,43,-23,16,15,-55,104277.0
15:25:49.723,AUTO,-35.3632647,149.1652333,36136,0.03655480965971947,-0.028632694855332375,0.17415252327919006,-0.10026493668556213,0.04213128238916397,-0.023254739120602608,-2,-6,-976,-99,43,-23,16,15,-55,104277.0
15:25:49.929,AUTO,-35.3632633,149.165235,36484,0.012678192928433418,-0.0007723646122030914,0.15944425761699677,-0.5067299008369446,0.030021121725440025,-0.01576022431254387,-2,-31,-974,-505,31,-15,22,27,-37,104277.0
15:25:50.131,AUTO,-35.3632628,149.1652357,36568,0.006621142849326134,0.006042127497494221,0.15554727613925934,-0.17573410272598267,0.0258776918053627,-0.012812751345336437,-2,0,-983,-174,26,-12,21,29,-31,104277.0
15:25:50.333,AUTO,-35.3632623,149.1652364,36638,0.003997539170086384,0.01109878346323967,0.15172426402568817,0.46367552876472473,0.014671280980110168,-0.010651757940649986,-2,24,-975,465,15,-10,19,28,-25,104277.0
15:25:50.535,AUTO,-35.3632623,149.1652364,36638,0.003997539170086384,0.01109878346323967,0.15172426402568817,0.46367552876472473,0.014671280980110168,-0.010651757940649986,-2,24,-975,465,15,-10,19,28,-25,104277.0
15:25:50.736,AUTO,-35.3632619,149.1652371,36693,0.008333579637110233,0.014486744999885559,0.1484067142009735,0.5216895937919617,0.009580460377037525,-0.01450499426573515,0,8,-971,522,10,-14,16,25,-20,104277.0
15:25:50.938,AUTO,-35.3632615,149.1652377,36736,-0.001985061215236783,0.01619885116815567,0.14527051150798798,-0.3463173806667328,0.0020943726412951946,-0.017461566254496574,0,-33,-978,-346,3,-17,13,21,-15,104277.0
15:25:51.140,AUTO,-35.3632612,149.1652383,36763,-0.014566553756594658,0.016812682151794434,0.14170381426811218,-0.6612069606781006,0.00246895058080554,-0.01464803796261549,0,-32,-957,-659,3,-14,10,18,-8,104277.0
15:25:51.342,AUTO,-35.3632612,149.1652383,36763,-0.014566553756594658,0.016812682151794434,0.14170381426811218,-0.6612069606781006,0.00246895058080554,-0.01464803796261549,0,-32,-957,-659,3,-14,10,18,-8,104277.0
15:25:51.544,AUTO,-35.3632612,149.1652383,36763,-0.014566553756594658,0.016812682151794434,0.14170381426811218,-0.6612069606781006,0.00246895058080554,-0.01464803796261549,0,-32,-957,-659,3,-14,10,18,-8,104277.0
15:25:51.746,AUTO,-35.3632612,149.1652383,36763,-0.014566553756594658,0.016812682151794434,0.14170381426811218,-0.6612069606781006,0.00246895058080554,-0.01464803796261549,0,-32,-957,-659,3,-14,10,18,-8,104277.0
15:25:51.948,AUTO,-35.363261,149.1652392,36690,-0.010279214009642601,0.028695713728666306,0.12857823073863983,0.7463010549545288,-0.05753912404179573,-0.0023677279241383076,1,48,-1009,748,-56,-2,-8,0,15,104277.0
15:25:52.155,AUTO,-35.3632613,149.1652392,36654,0.019788967445492744,0.017243945971131325,0.12867256999015808,0.8297920823097229,-0.03560640662908554,-9.004477760754526e-06,2,31,-1033,830,-34,0,-13,-1,9,104277.0
15:25:52.368,AUTO,-35.3632615,149.1652392,36631,0.04053366184234619,0.011376971378922462,0.12712247669696808,0.1573847532272339,-0.01657138392329216,-0.009405328892171383,3,-16,-1013,157,-15,-9,-17,3,5,104277.0
15:25:52.703,AUTO,-35.363262,149.1652394,36619,0.049879029393196106,0.009216495789587498,0.1261320412158966,-0.5736380219459534,-0.0035459815990179777,-0.01006864570081234,4,-32,-1020,-573,-2,-10,-20,13,0,104277.0
15:25:53.086,AUTO,-35.363263,149.1652406,36629,0.09493440389633179,0.010291853919625282,0.12832316756248474,0.6291077733039856,0.01506346371024847,0.09064105898141861,9,24,-1023,630,15,90,-25,47,-8,104277.0
15:25:53.289,AUTO,-35.363263,149.1652406,36629,0.09493440389633179,0.010291853919625282,0.12832316756248474,0.6291077733039856,0.01506346371024847,0.09064105898141861,9,24,-1023,630,15,90,-25,47,-8,104277.0
15:25:53.492,AUTO,-35.363263,149.1652406,36629,0.09493440389633179,0.010291853919625282,0.12832316756248474,0.6291077733039856,0.01506346371024847,0.09064105898141861,9,24,-1023,630,15,90,-25,47,-8,104277.0
15:25:53.697,AUTO,-35.363263,149.1652406,36629,0.09493440389633179,0.010291853919625282,0.12832316756248474,0.6291077733039856,0.01506346371024847,0.09064105898141861,9,24,-1023,630,15,90,-25,47,-8,104277.0
15:25:53.900,AUTO,-35.3632651,149.165246,36724,0.11850739270448685,-0.038768328726291656,0.6307796239852905,-0.1815684288740158,-0.01627044938504696,0.8399300575256348,7,-22,-1012,-179,-15,840,-37,112,-18,104277.0
15:25:54.105,AUTO,-35.363266,149.165249,36775,0.12742021679878235,-0.06409987807273865,0.830202579498291,0.4322502911090851,0.014896740205585957,0.7753620743751526,4,-7,-1022,433,15,775,-43,138,-23,12737.0
15:25:54.308,AUTO,-35.363266,149.165249,36775,0.12742021679878235,-0.06409987807273865,0.830202579498291,0.4322502911090851,0.014896740205585957,0.7753620743751526,4,-7,-1022,433,15,775,-43,138,-23,12737.0
15:25:54.510,AUTO,-35.3632671,149.1652527,36838,0.12000790983438492,-0.08267726749181747,1.0167832374572754,0.22836154699325562,0.04035717993974686,0.7256736755371094,-4,-38,-1030,229,41,725,-49,163,-27,12737.0
15:25:54.712,AUTO,-35.3632683,149.165257,36914,0.09650888293981552,-0.09295381605625153,1.1963533163070679,-0.3435527980327606,0.030274318531155586,0.7095515727996826,-10,-54,-1020,-342,31,709,-56,185,-32,12737.0
15:25:54.915,AUTO,-35.3632696,149.165262,37003,0.07297077775001526,-0.09264256805181503,1.373147964477539,-0.05125076323747635,0.06061514467000961,0.7005928754806519,-18,-32,-1014,-49,61,700,-62,205,-36,12737.0
15:25:55.117,AUTO,-35.363271,149.1652674,37104,0.05985766276717186,-0.08630882948637009,1.5506681203842163,0.27571889758110046,0.06342136859893799,0.6977124810218811,-29,-32,-1018,276,64,697,-66,218,-41,12737.0
15:25:55.319,AUTO,-35.363271,149.1652674,37104,0.05985766276717186,-0.08630882948637009,1.5506681203842163,0.27571889758110046,0.06342136859893799,0.6977124810218811,-29,-32,-1018,276,64,697,-66,218,-41,12737.0
15:25:55.521,AUTO,-35.363271,149.1652674,37104,0.05985766276717186,-0.08630882948637009,1.5506681203842163,0.27571889758110046,0.06342136859893799,0.6977124810218811,-29,-32,-1018,276,64,697,-66,218,-41,12737.0
15:25:55.723,AUTO,-35.363271,149.1652674,37104,0.05985766276717186,-0.08630882948637009,1.5506681203842163,0.27571889758110046,0.06342136859893799,0.6977124810218811,-29,-32,-1018,276,64,697,-66,218,-41,12737.0
15:25:55.926,AUTO,-35.3632757,149.1652851,37452,0.02062065713107586,-0.08037245273590088,2.0409421920776367,0.2894863486289978,0.006951197516173124,0.3707691431045532,-55,-8,-1008,291,8,370,-73,237,-48,12737.0
15:25:56.128,AUTO,-35.3632775,149.1652914,37578,0.02223905362188816,-0.07275893539190292,2.0877091884613037,0.09126868098974228,0.029435930773615837,0.07308351993560791,-51,-26,-999,92,30,73,-75,240,-49,12737.0
15:25:56.329,AUTO,-35.3632792,149.1652978,37705,0.017942287027835846,-0.0646505206823349,2.0793046951293945,-0.34143292903900146,0.036460164934396744,-0.08178629726171494,-58,-32,-1002,-339,37,-81,-78,241,-50,12737.0
15:25:56.531,AUTO,-35.3632792,149.1652978,37705,0.017942287027835846,-0.0646505206823349,2.0793046951293945,-0.34143292903900146,0.036460164934396744,-0.08178629726171494,-58,-32,-1002,-339,37,-81,-78,241,-50,12737.0
15:25:56.733,AUTO,-35.3632811,149.1653042,37834,0.021067049354314804,-0.05854358896613121,2.0518455505371094,0.12815819680690765,0.021850910037755966,-0.1306532919406891,-52,-12,-1001,130,22,-130,-79,241,-50,12737.0
15:25:56.935,AUTO,-35.3632829,149.1653107,37962,0.027132032439112663,-0.05244171619415283,2.0258095264434814,0.2555466592311859,0.028807442635297775,-0.08921600878238678,-53,-24,-993,256,29,-88,-79,239,-49,12737.0
15:25:57.137,AUTO,-35.3632849,149.1653171,38090,0.01921319030225277,-0.042031560093164444,2.0096967220306396,-0.35978591442108154,0.03502284735441208,-0.034236591309309006,-52,-44,-993,-358,35,-34,-78,237,-49,12737.0
15:25:57.340,AUTO,-35.3632849,149.1653171,38090,0.01921319030225277,-0.042031560093164444,2.0096967220306396,-0.35978591442108154,0.03502284735441208,-0.034236591309309006,-52,-44,-993,-358,35,-34,-78,237,-49,12737.0
15:25:57.542,AUTO,-35.3632849,149.1653171,38090,0.01921319030225277,-0.042031560093164444,2.0096967220306396,-0.35978591442108154,0.03502284735441208,-0.034236591309309006,-52,-44,-993,-358,35,-34,-78,237,-49,12737.0
15:25:57.744,AUTO,-35.3632849,149.1653171,38090,0.01921319030225277,-0.042031560093164444,2.0096967220306396,-0.35978591442108154,0.03502284735441208,-0.034236591309309006,-52,-44,-993,-358,35,-34,-78,237,-49,12737.0
15:25:57.946,AUTO,-35.3632905,149.1653361,38452,0.019367389380931854,-0.0385076105594635,2.001436948776245,-0.3663908541202545,0.054558832198381424,0.012904520146548748,-49,-45,-997,-365,55,13,-75,229,-45,12737.0
15:25:58.153,AUTO,-35.3632924,149.1653424,38568,0.02098088338971138,-0.02188439853489399,2.001141309738159,0.12521007657051086,0.0644911378622055,-0.013635849580168724,-49,-16,-999,127,65,-13,-74,224,-45,12737.0
15:25:58.415,AUTO,-35.3632942,149.1653485,38680,0.027019517496228218,-0.007258292753249407,1.9999059438705444,0.4423019587993622,0.05471774563193321,-0.012200676836073399,-48,-7,-1003,444,55,-11,-72,216,-42,12737.0
15:25:58.696,AUTO,-35.363296,149.1653544,38788,0.028468037024140358,0.005616841372102499,1.9989473819732666,0.18220598995685577,0.05079808831214905,-0.0009464172180742025,-42,-36,-981,183,51,0,-67,206,-41,12737.0
15:25:59.017,AUTO,-35.3632976,149.16536,38890,0.022542886435985565,0.017244117334485054,1.9978121519088745,-0.43191397190093994,0.05711856111884117,0.005682742223143578,-52,-55,-997,-431,58,5,-63,193,-39,12737.0
15:25:59.328,AUTO,-35.3632991,149.1653652,38988,0.0188140831887722,0.027621235698461533,1.9963241815567017,-0.33888766169548035,0.040671031922101974,-0.0025842280592769384,-37,-22,-993,-336,41,-2,-59,178,-37,12737.0
15:25:59.548,AUTO,-35.3632991,149.1653652,38988,0.0188140831887722,0.027621235698461533,1.9963241815567017,-0.33888766169548035,0.040671031922101974,-0.0025842280592769384,-37,-22,-993,-336,41,-2,-59,178,-37,12737.0
15:25:59.751,AUTO,-35.3632991,149.1653652,38988,0.0188140831887722,0.027621235698461533,1.9963241815567017,-0.33888766169548035,0.040671031922101974,-0.0025842280592769384,-37,-22,-993,-336,41,-2,-59,178,-37,12737.0
15:25:59.954,AUTO,-35.3633031,149.1653795,39246,0.026838427409529686,0.06797050684690475,1.992790937423706,-0.3914506435394287,0.05982498824596405,-0.00048304256051778793,-30,-40,-1002,-391,60,0,-39,115,-22,12737.0
15:26:00.163,AUTO,-35.3633031,149.1653795,39246,0.026838427409529686,0.06797050684690475,1.992790937423706,-0.3914506435394287,0.05982498824596405,-0.00048304256051778793,-30,-40,-1002,-391,60,0,-39,115,-22,12737.0
15:26:00.365,AUTO,-35.3633039,149.1653826,39299,0.013899015262722969,0.07934185862541199,1.9921178817749023,-0.5288469195365906,0.03112291730940342,-0.004343496635556221,-23,-32,-1003,-527,32,-4,-33,92,-19,141693.0
15:26:00.567,AUTO,-35.3633045,149.1653851,39341,0.020548859611153603,0.08005646616220474,1.991548776626587,0.08882331848144531,-0.0062539721839129925,-0.019755685701966286,-20,12,-987,91,-5,-19,-26,70,-13,141693.0
15:26:00.769,AUTO,-35.3633049,149.165387,39371,0.034855883568525314,0.07279752194881439,1.9906187057495117,0.6311376690864563,-0.041662104427814484,-0.016066810116171837,-14,23,-996,633,-40,-15,-20,49,-8,141693.0
15:26:00.971,AUTO,-35.3633051,149.1653885,39390,0.03367818146944046,0.05740201845765114,1.9895548820495605,0.1974678486585617,-0.06602978706359863,0.0013789933873340487,-10,-16,-965,197,-65,1,-15,32,-4,141693.0
15:26:01.174,AUTO,-35.3633051,149.1653885,39390,0.03367818146944046,0.05740201845765114,1.9895548820495605,0.1974678486585617,-0.06602978706359863,0.0013789933873340487,-10,-16,-965,197,-65,1,-15,32,-4,141693.0
15:26:01.376,AUTO,-35.3633053,149.1653895,39398,0.016941605135798454,0.04313194751739502,1.9887045621871948,-0.6034693717956543,-0.05106131359934807,-0.007050960790365934,-9,-36,-1006,-602,-50,-6,-13,18,-2,141693.0
15:26:01.578,AUTO,-35.3633053,149.1653895,39398,0.016941605135798454,0.04313194751739502,1.9887045621871948,-0.6034693717956543,-0.05106131359934807,-0.007050960790365934,-9,-36,-1006,-602,-50,-6,-13,18,-2,141693.0
15:26:01.780,AUTO,-35.3633053,149.1653895,39398,0.016941605135798454,0.04313194751739502,1.9887045621871948,-0.6034693717956543,-0.05106131359934807,-0.007050960790365934,-9,-36,-1006,-602,-50,-6,-13,18,-2,141693.0
15:26:01.982,AUTO,-35.3633053,149.1653911,39395,0.02473684400320053,0.018547212705016136,1.9843493700027466,0.7212669849395752,-0.022043604403734207,-0.01599246636033058,-2,34,-998,723,-20,-16,-11,-3,2,141693.0
15:26:02.184,AUTO,-35.3633052,149.1653915,39389,0.02454783022403717,0.014921775087714195,1.9824081659317017,0.16882385313510895,-0.021998697891831398,-0.010585582815110683,-3,-7,-999,169,-20,-11,-11,-7,3,141693.0
15:26:02.386,AUTO,-35.3633052,149.1653915,39389,0.02454783022403717,0.014921775087714195,1.9824081659317017,0.16882385313510895,-0.021998697891831398,-0.010585582815110683,-3,-7,-999,169,-20,-11,-11,-7,3,141693.0
15:26:02.588,AUTO,-35.3633051,149.1653917,39381,0.0113785769790411,0.01015301700681448,1.9811396598815918,-0.7079147100448608,-0.013325387611985207,-0.011191481724381447,-2,-32,-995,-706,-12,-11,-11,-9,3,141693.0
15:26:02.790,AUTO,-35.363305,149.1653918,39372,0.006687880493700504,0.005860168021172285,1.9793833494186401,-0.4924240708351135,-0.016526339575648308,-0.011534461751580238,-2,-7,-1004,-489,-15,-11,-12,-11,3,141693.0
15:26:02.992,AUTO,-35.3633049,149.1653919,39364,0.014474112540483475,0.001541158533655107,1.9776654243469238,0.25458037853240967,-0.014365972019731998,-0.013150131329894066,0,30,-997,257,-13,-13,-14,-11,3,141693.0
15:26:03.194,AUTO,-35.3633048,149.1653923,39355,0.02364862523972988,-0.0023437472991645336,1.9763513803482056,0.6743895411491394,-0.01918247900903225,-0.0057764919474720955,-1,32,-1015,677,-18,-5,-15,-10,2,141693.0
15:26:03.396,AUTO,-35.3633048,149.1653923,39355,0.02364862523972988,-0.0023437472991645336,1.9763513803482056,0.6743895411491394,-0.01918247900903225,-0.0057764919474720955,-1,32,-1015,677,-18,-5,-15,-10,2,141693.0
15:26:03.598,RTL,-35.3633048,149.1653923,39355,0.02364862523972988,-0.0023437472991645336,1.9763513803482056,0.6743895411491394,-0.01918247900903225,-0.0057764919474720955,-1,32,-1015,677,-18,-5,-15,-10,2,141693.0
15:26:03.801,RTL,-35.3633048,149.1653923,39355,0.02364862523972988,-0.0023437472991645336,1.9763513803482056,0.6743895411491394,-0.01918247900903225,-0.0057764919474720955,-1,32,-1015,677,-18,-5,-15,-10,2,141693.0
15:26:04.003,RTL,-35.363305,149.1653928,39343,0.009179730899631977,0.012826499529182911,1.9719651937484741,-0.647860586643219,0.015272722579538822,-0.0024975650012493134,-1,-38,-1014,-646,16,-2,-17,-9,-1,141693.0
15:26:04.304,RTL,-35.3633051,149.165393,39349,0.0051931035704910755,0.014351964928209782,1.9701982736587524,-0.5105417370796204,0.011427592486143112,0.0008656774298287928,0,-8,-1013,-507,12,0,-17,-10,-4,141693.0
15:26:04.665,RTL,-35.3633052,149.1653932,39367,0.006339100655168295,0.014741390012204647,1.9694868326187134,0.18055036664009094,0.006088846828788519,0.0010091399308294058,0,22,-1029,183,7,0,-17,-12,-11,141693.0
