time_stamp,MODE,RTL_ALT,roll,pitch,yaw,rollspeed,pitchspeed,yawspeed,lat,lon,relative_alt,vx,vy,vz,xacc,yacc,zacc,xgyro,ygyro,zgyro
09:19:49,STABILIZE,205005.0,-0.0008171843946911395,0.00099897850304842,0.026457134634256363,0.0003024672041647136,0.00030219805194064975,0.0021084798499941826,-35.3632622,149.1652375,0.0,-1.0,1.0,0.0,0.0,1.0,-1000.0,0.0,0.0,1.0
09:19:53,STABILIZE,205005.0,-0.0008516118978150189,0.0009287831683953603,0.025044240057468414,0.0001742927124723792,0.0002709032269194722,0.0018707556494822104,-35.3632621,149.1652375,0.0,-1.0,1.3333333333333333,0.3333333333333333,0.0,1.0,-1000.0,0.0,0.3333333333333333,0.0
09:20:09,AUTO,205005.0,-0.0007541061107379695,0.0010841158218681812,0.020769516626993816,0.0003104718440833191,0.00022515088009337583,0.0013623560856406887,-35.3632621,149.1652375,0.0,0.0,0.0,0.0,0.0,1.6666666666666667,-1000.0,0.3333333333333333,0.0,0.0
09:20:10,AUTO,186502.0,-0.0005270121619105339,0.0014030672027729452,0.02056060452014208,0.00024100192240439355,0.0002695299917832017,0.0012642638175748289,-35.3632621,149.1652375,0.0,0.0,0.0,0.0,0.0,1.0,-1000.0,1.0,0.5,0.5
09:20:11,AUTO,186502.0,-0.0003467523420113139,0.0016299462004099041,0.020419453270733356,0.00035124263376928866,0.0003130058466922492,0.0013069476117379963,-35.3632621,149.1652375,0.0,0.0,0.0,0.0,0.0,1.0,-1000.0,0.75,0.25,0.25
09:20:14,AUTO,186502.0,0.043935393914580345,0.004700908903032541,-0.02294225726897518,-0.07323892166217168,0.04171763081103563,-0.06279130598219733,-35.363261466666664,149.16524053333333,3138.0,8.333333333333334,47.0,-146.0,3.0,-9.0,-995.0,-72.33333333333333,42.333333333333336,-62.666666666666664
09:20:15,AUTO,201328.0,-0.03319965799649557,0.046641044318675995,-0.10749691476424535,-0.05262062791734934,0.03917984167734782,-0.13143682479858398,-35.3632611,149.16524443333333,4273.0,-7.0,40.666666666666664,-147.0,6.0,-7.0,-1006.3333333333334,-51.666666666666664,39.666666666666664,-131.0
09:20:17,AUTO,201328.0,-0.010963174689095467,-0.032911466900259256,-0.07392678037285805,0.0620007049292326,0.006839771987870336,0.01989056309685111,-35.3632638,149.1652424,7309.25,3.0,-46.75,-150.0,-5.25,9.5,-1001.5,62.25,7.5,19.5
09:20:18,AUTO,248795.0,0.027138979484637577,-0.004248376004397869,-0.07439853499333064,-0.023770740255713463,0.04551175733407339,-0.026259437824289005,-35.363262033333335,149.16523673333333,9289.0,24.666666666666668,-21.666666666666668,-150.33333333333334,-8.666666666666666,1.0,-998.3333333333334,-22.333333333333332,45.666666666666664,-26.0
09:20:20,AUTO,248795.0,0.009805271867662668,0.016119339037686586,-0.11068848520517349,-0.0014104967995081097,-0.011493322439491749,0.0023628007620573044,-35.36326,149.16523465,12352.0,-6.5,2.0,-151.0,0.5,0.0,-1000.0,-0.5,-10.5,2.0
09:20:21,AUTO,98993.0,0.0065932777943089604,0.007134710089303553,-0.11124426312744617,-0.004395874682813883,-0.010799071751534939,-0.0033306908153463155,-35.36326055,149.16523485,13516.5,-11.0,6.25,-151.0,1.75,0.0,-1000.0,-3.0,-9.5,-3.0
09:20:22,AUTO,98993.0,0.0010663906577974558,-0.001482177001889795,-0.12537631392478943,-0.0016221565601881593,-0.0017956889932975173,-0.018959611654281616,-35.363261550000004,149.16523560000002,15459.5,-7.0,6.5,-151.5,1.0,0.0,-1000.0,-1.0,-0.5,-18.5
09:20:24,AUTO,98993.0,-0.0343592744320631,0.04231222718954086,-0.004385862499475479,0.06700036552501842,-0.026829048991203308,0.35353758931159973,-35.363262399999996,149.165234,18512.5,-20.5,-34.5,-135.5,0.0,7.5,-967.0,68.0,-25.5,352.5
09:20:25,AUTO,300000.0,0.04575781058520079,-0.025585919036529958,0.07490845210850239,0.07022834336385131,-0.05686757585499436,-0.006617881823331118,-35.363263925,149.165231275,19422.75,-20.0,-19.5,-103.5,1.25,7.25,-960.0,70.5,-56.0,-6.5
09:20:26,AUTO,300000.0,0.03292304463684559,-0.012779419776052237,0.05346200428903103,-0.04596829041838646,0.03248397260904312,0.0006550999241881073,-35.3632641,149.1652324,20483.0,12.5,38.5,-63.0,1.0,-8.0,-975.0,-44.5,33.0,0.5
09:20:28,AUTO,300000.0,-0.012870130594819784,0.01342389965429902,0.049078479409217834,0.003843146376311779,-0.003423118934733793,-0.0038654208183288574,-35.3632616,149.16523949999998,21283.0,5.5,16.5,-14.5,0.0,-4.0,-971.5,5.0,-2.5,-3.5
09:20:29,AUTO,219747.0,-0.02278061688411981,0.006498241564258933,0.046879046596586704,0.2671452001668513,-0.047813403070904315,-0.0030145772034302354,-35.363261325,149.16524005,21270.25,-1.0,-2.5,12.25,0.0,7.75,-976.25,268.0,-46.5,-2.75
09:20:30,AUTO,219747.0,0.019179775845259428,-0.07335175573825836,0.04088999330997467,0.13214458525180817,-0.04707753099501133,-0.010142445098608732,-35.36326015,149.1652385,21073.0,37.0,-6.0,4.0,-8.5,14.0,-1023.5,134.0,-46.0,-10.0
09:20:32,AUTO,219747.0,0.020656452514231205,-0.1647924780845642,0.22498638182878494,-0.09115982055664062,-0.04665829800069332,-0.023288695141673088,-35.363238949999996,149.16524149999998,21015.5,218.5,40.0,0.5,-45.0,-24.0,-1008.5,-90.0,-45.0,-23.0
09:20:33,AUTO,200.0,0.027295471634715796,-0.18415135890245438,0.2233646772801876,0.033140244195237756,-0.002789505058899522,-0.010259935283102095,-35.36322105,149.165245825,20990.5,309.0,55.5,1.25,-64.75,-38.0,-1007.25,34.25,-1.75,-10.0
09:20:34,AUTO,200.0,0.045205092057585716,-0.1506066396832466,0.21934569627046585,0.11652302742004395,0.022615056484937668,-0.018999499268829823,-35.363179849999995,149.1652556,20983.5,424.5,73.0,-2.0,-88.5,-48.0,-998.5,117.0,23.0,-18.5
09:20:36,AUTO,200.0,0.06005481444299221,-0.1128762997686863,0.21142054349184036,0.011273330077528954,0.029331753961741924,-0.0068725007004104555,-35.36309585,149.16527505,21005.0,497.0,88.0,0.0,-97.5,-66.0,-992.0,12.0,30.0,-6.5
09:20:37,AUTO,300000.0,0.06492865085601807,-0.09390289336442947,0.20951469615101814,0.00041331397369503975,0.013194769155234098,0.0028917722665937617,-35.363061975,149.165282975,21007.25,497.5,89.0,-0.5,-104.25,-66.5,-992.25,1.25,13.5,2.5
09:20:38,AUTO,300000.0,0.06415831670165062,-0.06055230647325516,0.20851017534732819,-0.04047252889722586,0.045329732820391655,0.0020635236287489533,-35.36300665,149.16529595,20991.0,480.5,88.0,-0.5,-97.5,-64.5,-995.5,-39.5,46.0,1.5
09:20:40,AUTO,300000.0,0.046214014291763306,0.03837691806256771,0.20784437656402588,-0.6291770935058594,0.052771689370274544,0.010343829053454101,-35.3629302,149.16531394999998,20964.5,338.5,65.5,3.5,-71.0,-72.0,-1001.0,-627.5,53.0,10.5
09:20:41,AUTO,237473.0,0.0447096461430192,0.07573895994573832,0.207035344094038,0.41055297310231254,0.03554060100577772,-0.006439681048505008,-35.36291035,149.1653191,20930.5,253.25,52.25,2.75,-49.75,-24.0,-1002.5,411.0,36.0,-6.0
09:20:42,AUTO,237473.0,0.007787274196743965,0.06858059391379356,0.20464424788951874,-0.19647502154111862,-0.04675007052719593,-0.003699751803651452,-35.362889749999994,149.16532504999998,20875.5,113.0,24.0,2.0,-21.5,-11.0,-1005.0,-195.0,-45.5,-3.0
09:20:44,AUTO,237473.0,-0.004819883150048554,0.020740262232720852,0.203729547560215,-0.4616222679615021,-0.021409759297966957,0.0022839026933070272,-35.3628805,149.1653278,20866.0,14.0,-6.0,-1.5,-3.5,-17.5,-1000.0,-461.0,-20.5,2.5
09:20:45,AUTO,240426.0,0.00965202011866495,0.0018304830300621688,0.20195312052965164,0.07415588479489088,-0.03096453845500946,0.0024220002815127373,-35.362880225000005,149.16532685,20872.0,3.25,-6.0,-0.5,-2.25,3.25,-996.0,74.5,-29.75,3.0
09:20:46,RTL,240426.0,0.026415753178298473,-0.00427612045314163,0.19931592047214508,-0.058113425970077515,0.009787034941837192,0.005884169018827379,-35.36288005,149.16532465,20881.5,5.0,4.5,-3.5,-2.5,-9.5,-1007.5,-58.0,10.0,6.5
09:20:48,RTL,240426.0,0.012159170117229223,0.0021195164881646633,0.19911063462495804,-0.07630113139748573,-0.0011267314839642495,0.006666283821687102,-35.3628796,149.16532365,21635.5,0.0,18.0,-84.0,0.5,-5.0,-1048.0,-74.5,0.0,7.0
09:20:49,RTL,180227.0,0.007005281397141516,0.0023533921339549124,0.19891135394573212,0.002923646883573383,-0.00025111448485404253,0.003529931724187918,-35.3628796,149.16532404999998,22428.75,0.0,16.5,-118.25,0.25,-1.0,-1045.75,4.25,0.25,3.75
09:20:50,RTL,180227.0,0.03724619373679161,-0.0036564612528309226,0.1978553682565689,0.04088176041841507,-0.009821120649576187,0.002535875071771443,-35.3628796,149.16532525,24195.5,0.0,24.5,-148.5,0.5,-3.5,-1002.0,42.0,-9.0,3.0
09:20:52,RTL,180227.0,-0.06090433895587921,-0.009280806872993708,0.13770249485969543,-0.04404006851837039,0.03128468990325928,-0.036676084622740746,-35.36287955,149.16533355,27242.5,4.0,7.0,-149.5,0.5,-3.0,-998.0,-42.5,32.0,-36.0
09:20:53,RTL,245165.0,-0.054454583674669266,0.015355149516835809,0.09893982484936714,0.0478517203591764,0.01884055370464921,-0.03572861244902015,-35.362878925000004,149.165332125,28395.25,5.75,-38.25,-149.0,-5.25,4.5,-1002.25,49.0,19.5,-34.25
09:20:54,RTL,245165.0,0.022743267938494682,0.02629890665411949,0.07967079058289528,0.06673449650406837,0.004463281948119402,-0.0030760096851736307,-35.36287875,149.165325,30330.5,-17.0,-51.0,-151.5,-2.5,12.0,-1003.5,67.5,4.5,-1.5
09:20:56,RTL,245165.0,-0.020648739766329527,-0.03939562197774649,0.14601223915815353,-0.08061162941157818,0.09919847920536995,-0.08409298583865166,-35.362881599999994,149.16532485,33433.5,19.0,32.0,-147.5,0.0,-8.5,-1004.0,-78.5,99.5,-82.5
09:20:57,RTL,119411.0,-0.03637884836643934,0.008137239841744304,0.07363619189709425,0.011070565553382039,0.04423075960949063,-0.08381323236972094,-35.3628795,149.165326325,34590.0,29.75,2.25,-151.25,-5.5,-4.5,-1004.5,12.25,44.25,-82.25
09:20:58,RTL,119411.0,0.010151698719710112,0.03297998942434788,0.011920203920453787,0.04343634285032749,0.008012545062229037,-0.017471746541559696,-35.3628768,149.16532460000002,36547.5,2.5,-20.5,-153.0,-4.5,3.0,-1000.0,44.5,8.5,-16.0
09:21:00,RTL,119411.0,-2.1453597582876682e-06,0.0013200684770708904,0.018074635416269302,-0.010989571921527386,-0.008140251506119967,-0.009673098335042596,-35.3628786,149.1653239,39663.5,-18.5,7.0,-151.5,3.0,0.0,-1000.5,-9.0,-7.0,-8.0
09:21:01,RTL,300000.0,-0.004201535484753549,-0.0021451501816045493,0.004321009095292538,-0.001438072999008,0.0006495983398053795,-0.02388657140545547,-35.362879299999996,149.16532435,40831.0,-11.0,4.0,-152.0,1.75,0.0,-1000.5,0.5,1.5,-22.25
09:21:02,RTL,300000.0,-0.0006698407933072303,0.0024408225435763597,-0.032817527651786804,0.005070314044132829,0.006157947704195976,-0.030753769911825657,-35.3628796,149.16532454999998,42789.5,-2.5,0.0,-152.0,0.0,0.0,-999.5,6.0,7.0,-29.5
09:21:04,RTL,300000.0,0.0019948077970184386,0.006714971736073494,-0.08102516829967499,-0.0017876896308735013,0.0011946475133299828,-0.019320490770041943,-35.3628795,149.16532454999998,45907.5,-3.0,1.0,-152.0,0.0,0.0,-999.5,-0.5,2.0,-17.5
09:21:05,RTL,268969.0,0.00185384092037566,0.006378641352057457,-0.09486635588109493,0.0018289850268047303,0.0017802749935071915,-0.015183511073701084,-35.3628795,149.16532467500002,47077.5,-3.5,1.75,-152.0,0.0,0.0,-999.75,3.0,2.75,-13.5
09:21:06,RTL,268969.0,0.0037569563137367368,0.00808243453502655,-0.08809934183955193,-0.0027853853534907103,-0.0007394441054202616,0.02485327422618866,-35.3628795,149.16532495,49017.5,-5.5,4.5,-152.0,0.0,0.0,-999.5,-0.5,0.0,25.5
09:21:08,RTL,268969.0,-0.0013012051349505782,0.003129101009108126,-0.037903349846601486,0.0004705632454715669,0.0011001580860465765,0.021470217034220695,-35.36287995,149.1653258,52121.5,-4.0,2.5,-152.0,0.0,0.0,-1000.0,1.5,2.0,22.5
09:21:09,RTL,300000.0,-0.0007211785341496579,0.003114227030891925,-0.023031756281852722,0.001609919680049643,0.0013423912168946117,0.018206408713012934,-35.36288,149.1653259,53286.0,-2.5,0.5,-152.0,0.0,0.0,-1000.0,2.75,2.0,19.0
09:21:10,RTL,300000.0,0.0007875649898778647,0.0036188452504575253,-0.0015468444034922868,0.002323858148884028,0.0019471794948913157,0.016101499553769827,-35.36288,149.1653259,55227.0,-1.0,0.0,-152.0,0.0,0.0,-1000.0,3.5,3.0,17.0
09:21:12,RTL,300000.0,0.001859953859820962,0.0035366711672395468,0.025328511372208595,0.001493871328420937,0.0024185540969483554,0.01230562198907137,-35.3628799,149.1653256,58334.0,-1.0,0.0,-152.0,0.0,0.0,-1000.5,2.5,3.5,13.0
09:21:13,RTL,22362.0,0.001797276025172323,0.00407997309230268,0.03361222939565778,0.001023239383357577,0.0015059280849527568,0.010997009696438909,-35.362879825,149.1653255,59499.75,-1.0,0.0,-152.0,0.0,0.0,-999.75,2.25,2.75,12.0
09:21:14,RTL,22362.0,0.0019476277520880103,0.0042798458598554134,0.045480839908123016,-0.0007316154660657048,0.0017956914380192757,0.00998280057683587,-35.3628797,149.1653254,61439.0,-1.0,1.0,-152.0,0.0,0.0,-999.5,1.0,3.0,10.5
09:21:16,RTL,22362.0,0.002248518052510917,0.0041077653877437115,0.06066838838160038,-0.00024397880770266056,0.000516740430612117,0.007466751150786877,-35.3628796,149.1653253,64548.5,-2.0,1.0,-152.0,0.0,0.0,-999.5,1.0,1.5,8.5
09:21:17,RTL,111700.0,0.0018063521420117468,0.004020472057163715,0.06557646207511425,0.001847701903898269,0.0009345026919618249,0.008243296178989112,-35.3628796,149.1653253,65715.25,-2.0,1.0,-152.0,0.0,0.0,-1000.0,3.25,2.0,9.25
09:21:18,RTL,111700.0,0.0017037257202900946,0.00393260782584548,0.07341529428958893,0.00028062216006219387,0.0006165083614178002,0.005189504474401474,-35.3628796,149.1653253,67654.0,-2.0,1.0,-152.0,0.0,0.0,-1000.0,2.0,1.5,6.0
09:21:20,RTL,111700.0,0.0013694915105588734,0.0037068898091092706,0.08422864601016045,0.0004265851457603276,0.0010938089108094573,0.00412448332644999,-35.3628796,149.1653253,70759.0,-2.0,0.0,-152.0,0.0,0.0,-1000.0,2.0,2.0,5.5
09:21:21,RTL,180524.0,0.0016441234620288014,0.0036450372426770627,0.08811064250767231,0.001393062440911308,0.0004895810852758586,0.006495947251096368,-35.3628796,149.1653253,71923.75,-2.0,0.0,-152.0,0.0,0.0,-1000.0,2.75,1.5,7.75
09:21:22,RTL,180524.0,0.0015419566771015525,0.003804437001235783,0.09364622458815575,-0.000993907160591334,0.00016821303870528936,0.00584211410023272,-35.3628796,149.1653253,73864.5,-2.0,0.0,-152.0,0.0,0.0,-999.5,0.5,1.5,6.5
09:21:24,RTL,180524.0,0.0022010826505720615,0.0030331409070640802,0.10285016149282455,-0.00014967191964387894,0.0010484641534276307,0.004113986622542143,-35.3628796,149.1653253,76978.0,-2.0,1.0,-152.0,0.0,0.0,-999.5,1.5,2.5,5.0
09:21:25,RTL,143157.0,0.001953290164237842,0.0033052749931812286,0.10574625805020332,0.0010805785132106394,0.0019218250818084925,0.004880897584371269,-35.3628796,149.1653253,78142.0,-1.25,1.0,-152.0,0.0,0.0,-999.75,2.5,2.75,5.75
09:21:26,RTL,143157.0,0.0017552438075654209,0.0035014842869713902,0.11013579741120338,-0.0009821789572015405,0.0005491013871505857,0.004089144058525562,-35.3628796,149.1653253,80083.0,-1.0,1.0,-152.0,0.0,0.0,-999.5,0.5,2.0,5.0
09:21:28,RTL,143157.0,0.0010176395298913121,0.003545260173268616,0.1162562407553196,-0.0003396187676116824,0.0010464029619470239,0.002789159130770713,-35.3628796,149.1653253,83190.0,-1.0,0.5,-152.0,0.0,0.0,-1000.0,1.5,2.5,4.0
09:21:29,RTL,200.0,0.001380811067065224,0.0034830067888833582,0.11840376257896423,0.0005054568173363805,0.0008755826274864376,0.0027397867233958095,-35.3628796,149.1653253,84356.5,-1.0,0.0,-152.0,0.0,0.0,-999.75,2.0,2.0,3.75
09:21:30,RTL,200.0,0.0017352747381664813,0.00378493033349514,0.12193059921264648,0.0003408906050026417,0.0009360864642076194,0.0021891110809519887,-35.3628796,149.1653253,86294.5,-2.0,0.0,-152.0,0.0,0.0,-999.5,2.0,2.5,3.0
09:21:32,RTL,200.0,0.001549532578792423,0.0034780852729454637,0.12681983411312103,0.0013828383525833488,0.00039097765693441033,0.003789728507399559,-35.3628796,149.1653253,89400.0,-2.0,0.0,-152.0,0.0,0.0,-1000.0,2.5,1.5,5.0
09:21:33,RTL,300000.0,0.0021129518281668425,0.0032808880205266178,0.12832528352737427,0.0003895800036843866,1.861166674643755e-05,0.0027994192205369473,-35.3628796,149.1653253,90565.25,-2.0,0.25,-152.0,0.0,0.0,-999.5,1.75,1.25,3.75
09:21:34,RTL,300000.0,0.0019775429973378778,0.003243441693484783,0.13070369511842728,0.00010869698598980904,0.0007784008630551398,0.0020486493594944477,-35.3628796,149.1653253,92506.0,-2.0,1.0,-152.0,0.0,0.0,-1000.0,1.5,2.0,3.5
09:21:36,RTL,300000.0,0.001561998389661312,0.0034036500146612525,0.1345374584197998,0.0003211278235539794,0.0011233622208237648,0.0017771066632121801,-35.3628796,149.1653253,95614.5,-1.0,1.0,-152.0,0.0,0.0,-999.5,2.0,2.5,2.5
09:21:37,RTL,161907.0,0.001018670474877581,0.003396182379219681,0.1358143799006939,0.0011409755679778755,0.0006882857996970415,0.0024431990750599653,-35.3628796,149.1653253,96781.0,-1.0,0.5,-152.0,0.0,0.0,-1000.0,3.0,2.0,3.75
09:21:38,RTL,161907.0,0.001499668345786631,0.0032979354728013277,0.13755054026842117,0.0011633533285930753,0.0003348817117512226,0.0013435854925774038,-35.3628796,149.1653253,98722.0,-1.0,0.0,-152.0,0.0,0.0,-1000.0,2.5,2.0,2.5
09:21:40,RTL,161907.0,0.001520665769930929,0.003162815817631781,0.14110451936721802,0.0012850010534748435,-9.452714584767818e-05,0.001041175506543368,-35.3628796,149.1653253,101833.0,-1.0,0.0,-152.0,0.0,0.0,-1000.5,3.0,1.5,2.5
09:21:41,RTL,163522.0,0.0018765545100905001,0.003126105759292841,0.14202628284692764,0.0018137298757210374,0.0006135909643489867,0.0018966217467095703,-35.3628796,149.1653253,103002.25,-1.0,0.0,-152.0,0.0,0.0,-1000.0,3.75,2.0,3.0
09:21:42,RTL,163522.0,0.002306044567376375,0.0031829390209168196,0.143301859498024,-0.0002974485978484154,0.000820379878859967,0.002446622180286795,-35.3628796,149.1653253,104936.0,-1.0,1.0,-152.0,0.0,0.0,-999.5,1.5,2.5,3.5
09:21:44,RTL,163522.0,0.0017677521682344377,0.003415594110265374,0.1454278826713562,0.001843330799601972,0.0017177807167172432,0.001631830702535808,-35.3628796,149.1653253,108051.0,-1.0,1.0,-152.0,0.0,0.0,-1000.0,3.5,3.0,3.0
09:21:45,RTL,136755.0,0.0014165356260491535,0.003366064454894513,0.1463017538189888,-0.00035869795829057693,-0.0007297631236724555,0.001168979739304632,-35.3628796,149.1653253,109215.75,-1.0,1.0,-152.0,0.0,0.0,-1000.25,1.5,1.0,2.5
09:21:46,RTL,136755.0,0.0011056229704990983,0.0033961470471695065,0.14721577614545822,0.0007848672103136778,-2.9278278816491365e-05,9.956868598237634e-05,-35.3628796,149.1653253,111156.5,-1.0,0.0,-152.0,0.0,0.0,-1000.0,2.0,1.5,1.5
09:21:48,RTL,136755.0,0.0015372634516097605,0.003188920207321644,0.14864613860845566,-0.0011288017267361283,0.0005321623757481575,0.0010163552360609174,-35.3628796,149.1653253,114263.5,-1.0,0.0,-152.0,0.0,0.0,-999.5,1.0,2.0,2.5
09:21:49,RTL,111504.0,0.001506874425103888,0.003169235948007554,0.1493334360420704,0.0004355827404651791,3.091862890869379e-05,0.0009161819471046329,-35.3628796,149.1653253,115432.5,-1.0,0.0,-152.0,0.0,0.0,-1000.0,2.25,2.0,2.5
09:21:50,RTL,111504.0,0.0016246580053120852,0.003203596919775009,0.15013998001813889,0.002275246544741094,9.846489410847425e-05,-0.0004516651970334351,-35.3628796,149.1653253,117370.0,-1.0,0.0,-152.0,0.0,0.0,-1000.5,4.0,1.5,1.0
09:21:52,RTL,111504.0,0.001970305689610541,0.0031400120351463556,0.151484876871109,-0.00099827820667997,0.0005244484636932611,0.0015138109447434545,-35.3628796,149.1653252,120476.0,-1.0,1.0,-152.0,0.0,0.0,-999.5,1.0,2.5,3.0
09:21:53,RTL,86856.0,0.0017847451090347022,0.003287560015451163,0.15177814662456512,6.782857235521078e-05,-0.0002295960148330778,0.0011606498737819493,-35.3628796,149.1653252,121641.25,-1.0,1.0,-152.0,0.0,0.0,-999.75,2.0,1.5,2.5
09:21:54,RTL,86856.0,0.0016466371016576886,0.003333511878736317,0.15240314602851868,0.0007079590577632189,-0.00034378544660285115,0.002436371927615255,-35.3628796,149.1653252,123583.0,-1.0,1.0,-152.0,0.0,0.0,-1000.5,2.5,1.5,3.5
09:21:56,RTL,86856.0,0.00126149709103629,0.003337815636768937,0.15400031954050064,0.0010419221362099051,0.0005331607535481453,0.000882302294485271,-35.3628796,149.1653253,126689.5,-1.0,0.0,-152.0,0.0,0.0,-1000.0,3.0,2.5,2.5
09:21:57,RTL,38494.0,0.0015528041403740644,0.003112463280558586,0.15438679978251457,-3.1526287784799933e-05,0.0002681607729755342,0.0003433209494687617,-35.3628796,149.1653253,127857.25,-1.0,0.0,-152.0,0.0,0.0,-1000.0,2.0,2.0,2.0
09:21:58,RTL,38494.0,0.0014420556835830212,0.003162912209518254,0.15462042391300201,0.0016651994083076715,0.0009995970758609474,0.0013289552298374474,-35.3628796,149.1653253,129800.0,-1.0,0.0,-152.0,0.0,0.0,-1000.0,3.5,2.5,2.5
09:22:00,RTL,38494.0,0.002000794280320406,0.0032168407924473286,0.15521792322397232,0.0028055739821866155,-0.0002652351395227015,0.0012186942622065544,-35.3628796,149.1653253,132906.5,-1.0,0.0,-152.0,0.0,0.0,-1000.0,4.5,1.5,2.5
09:22:01,RTL,233240.0,0.0023086798028089106,0.0030145684722810984,0.15546360239386559,0.00010018580360338092,-9.319162927567959e-06,0.0004910453862976283,-35.3628796,149.1653253,134077.25,-1.0,0.75,-152.0,0.0,0.0,-999.75,1.75,1.75,2.0
09:22:02,RTL,233240.0,0.001711056916974485,0.00324685696978122,0.15589667111635208,-0.0026378666516393423,-0.00023234292166307569,0.00030371075263246894,-35.3628796,149.1653253,136013.0,-1.0,1.0,-152.0,0.0,0.0,-1000.0,0.0,1.5,1.5
09:22:04,RTL,233240.0,0.0013774555991403759,0.003326658974401653,0.1560925394296646,-0.00040970224654302,0.0002613349352031946,0.0003329828614369035,-35.3628796,149.1653253,139127.0,-1.0,1.0,-152.0,0.0,0.0,-999.5,1.5,2.0,2.0
09:22:05,RTL,163205.0,0.0009209928830387071,0.0034007419599220157,0.15634898096323013,0.0007722931914031506,-0.0003903374308720231,0.0005281480262055993,-35.3628796,149.1653253,140291.5,-1.0,0.5,-152.0,0.0,0.0,-1000.25,2.5,1.5,2.0
09:22:06,RTL,163205.0,0.0014983537839725614,0.003226689761504531,0.15656452625989914,0.0015286787529475987,-0.0002690792316570878,0.0010196886723861098,-35.3628796,149.1653253,142235.0,-1.0,0.0,-152.0,0.0,0.0,-999.5,3.5,1.5,3.0
09:22:08,RTL,163205.0,0.0015207672258839011,0.0032244095345959067,0.15701980143785477,-0.0015233226586133242,-0.001739911618642509,0.0014479359379038215,-35.3628796,149.1653253,145340.0,-1.0,0.0,-152.0,0.0,0.0,-1000.0,0.5,0.0,3.0
09:22:09,RTL,238312.0,0.0014391756849363446,0.0031331279315054417,0.15719358250498772,2.9119313694536686e-05,2.083284198306501e-05,0.0009754243073984981,-35.3628796,149.1653253,146507.75,-1.0,0.0,-152.0,0.0,0.0,-1000.0,2.25,2.0,2.5
09:22:10,RTL,238312.0,0.001968468597624451,0.002956563257612288,0.15718384087085724,0.0003904051845893264,-0.0016293149092234671,-0.00046701024984940886,-35.3628796,149.1653253,148447.0,-1.0,0.0,-152.0,0.0,0.0,-1000.0,2.5,0.5,1.0
09:22:12,RTL,238312.0,0.0015958351432345808,0.0032640942372381687,0.15838535130023956,0.0006297134095802903,-0.00026795087615028024,0.0018761780811473727,-35.3628796,149.1653253,151552.5,-1.0,1.0,-152.0,0.0,0.0,-1000.0,2.5,1.5,4.0
09:22:13,RTL,92380.0,0.001736801554216072,0.00313967396505177,0.1583162397146225,-0.0001905206881929189,-0.0006756215589120984,0.00024119979934766889,-35.3628796,149.1653253,152717.5,-1.0,1.0,-152.0,0.0,0.0,-1000.0,1.75,1.5,2.0
09:22:14,RTL,92380.0,0.0012330536264926195,0.0036483092699199915,0.1586063802242279,-0.0004492023726925254,0.0004188037710264325,-0.0009726875578053296,-35.3628796,149.1653253,154660.5,-1.0,1.0,-152.0,0.0,0.0,-1000.0,1.5,2.5,0.5
09:22:16,RTL,92380.0,0.0014862236566841602,0.003285717684775591,0.15865157544612885,0.0005703135393559933,5.229783710092306e-05,-0.0008733958238735795,-35.3628796,149.1653253,157765.5,-1.0,0.0,-152.0,0.0,0.0,-1000.5,2.5,2.0,1.0
09:22:17,RTL,135958.0,0.001483877917053178,0.0031001463648863137,0.15858276560902596,0.0008367244154214859,0.0004342665779404342,0.00012000082642771304,-35.3628796,149.1653253,158933.0,-1.0,0.0,-152.0,0.0,0.0,-1000.25,3.0,2.25,2.0
09:22:18,RTL,135958.0,0.0014307191013358533,0.0030603951308876276,0.15880626440048218,1.791398972272873e-05,0.00012841465650126338,0.0013555780751630664,-35.3628796,149.1653253,160877.0,-1.0,0.0,-152.0,0.0,0.0,-1000.0,2.0,2.0,3.5
09:22:20,RTL,135958.0,0.0023268808145076036,0.0031636646017432213,0.15878140181303024,0.00162755255587399,-0.0009501632885076106,0.0009729114826768637,-35.3628796,149.1653253,163983.0,-1.0,0.0,-152.0,0.0,0.0,-1000.0,3.5,1.0,3.0
09:22:21,RTL,200.0,0.002149791456758976,0.0030101127340458333,0.15902851521968842,1.3110577128827572e-05,0.0003064273332711309,0.0006528919038828462,-35.3628796,149.1653253,165152.5,-1.0,1.0,-152.0,0.0,0.0,-1000.0,2.25,2.25,2.75
09:22:22,RTL,200.0,0.0017235457198694348,0.003434411366470158,0.15888381004333496,-0.0002184136537835002,0.00017610087525099516,0.0013650491600856185,-35.3628796,149.1653253,167090.0,-1.0,1.0,-152.0,0.0,0.0,-1000.0,2.5,2.5,3.5
09:22:24,RTL,200.0,0.0008988789340946823,0.0034021910978481174,0.15885630249977112,-8.53423262014985e-06,-0.0003044665209017694,0.0009186964016407728,-35.3628796,149.1653253,170205.0,-1.0,0.0,-152.0,0.0,0.0,-1000.0,2.0,2.0,3.0
09:22:25,RTL,300000.0,0.0012422027066349983,0.003257826203480363,0.1588428094983101,0.0007989228761289269,0.0003328983439132571,0.000318539678119123,-35.3628796,149.1653253,171369.75,-1.0,0.0,-152.0,0.0,0.0,-999.75,3.25,3.0,2.0
09:22:26,RTL,300000.0,0.00170288939261809,0.003181333187967539,0.1591780185699463,-0.0005133823724463582,0.00040686316788196564,0.000331189192365855,-35.3628796,149.1653253,173312.0,-1.0,0.0,-152.0,0.0,0.0,-999.5,1.5,2.5,2.0
09:22:28,RTL,300000.0,0.0014867198187857866,0.0030909691704437137,0.15968409925699234,0.0017992001958191395,0.00014133041258901358,0.0008992106886580586,-35.3628796,149.1653253,176417.5,-1.0,0.0,-152.0,0.0,0.0,-1000.5,4.5,2.5,3.0
09:22:29,RTL,200.0,0.002437543764244765,0.002892669814173132,0.15973305329680443,-0.0005551506765186787,-0.00044127568253315985,-0.0002968632907141,-35.3628796,149.1653253,177583.5,-1.0,0.5,-152.0,0.0,0.0,-1000.0,1.75,2.0,1.25
09:22:30,RTL,200.0,0.0019701438141055405,0.003382324008271098,0.1597052589058876,0.0010242165299132466,0.0011626975610852242,0.002035511191934347,-35.3628796,149.1653253,179525.5,-1.0,1.0,-152.0,0.0,0.0,-1000.0,3.5,3.5,4.0
09:22:32,RTL,200.0,0.0017464919365011156,0.0032282585743814707,0.15966513007879257,-0.0002267817035317421,0.00014388724230229855,-0.0005806515691801906,-35.3628796,149.1653253,182631.5,-1.0,1.0,-152.0,0.0,0.0,-1000.0,2.0,2.0,1.5
09:22:33,RTL,300000.0,0.0015217787004075944,0.003318669565487653,0.1596456654369831,-0.00021266640396788716,0.0007704781019128859,0.0004876120656263083,-35.3628796,149.1653253,183796.75,-1.0,1.0,-152.0,0.0,0.0,-999.75,2.25,3.0,2.5
09:22:34,RTL,300000.0,0.0011531267664395273,0.0033172155963256955,0.15953505039215088,0.000936908065341413,-2.1341955289244652e-05,0.0016571973101235926,-35.3628796,149.1653253,185738.0,-1.0,0.0,-152.0,0.0,0.0,-1000.0,3.0,2.0,3.5
09:22:36,RTL,300000.0,0.0014347961987368762,0.0030259485356509686,0.15962116420269012,0.00011849647853523493,0.0008965862216427922,0.0005344142555259168,-35.3628796,149.1653253,188845.0,-1.0,0.0,-152.0,0.0,0.0,-999.5,2.5,3.0,2.5
09:22:37,RTL,300000.0,0.001494134310632944,0.0032372886198572814,0.15945704653859138,0.00032789638498798013,0.0005549729685299098,-5.3919939091429114e-05,-35.3628796,149.1653253,190009.25,-1.0,0.0,-152.0,0.0,0.0,-1000.25,2.75,2.75,1.75
09:22:38,RTL,300000.0,0.0024586652871221304,0.0030518994899466634,0.15978210419416428,-0.0008505153236910701,-0.00017852208111435175,0.0017104290891438723,-35.3628796,149.1653253,191955.5,-1.0,1.0,-152.0,0.0,0.0,-999.5,1.5,2.5,4.0
09:22:40,RTL,300000.0,0.0015846459427848458,0.00348506192676723,0.15933829545974731,-0.0017896546050906181,-0.00040829123463481665,0.0008190528023988008,-35.3628796,149.1653253,195061.5,-1.0,1.0,-152.0,0.0,0.0,-999.5,1.0,2.0,2.5
09:22:41,RTL,23365.0,0.001413824371411465,0.003236881399061531,0.15952779352664948,-0.0007404872740153223,-0.00017650509835220873,0.00013045273954048753,-35.3628796,149.1653253,196226.0,-1.0,1.0,-152.0,0.0,0.0,-1000.0,1.75,2.25,2.0
09:22:42,RTL,23365.0,0.0011030278983525932,0.003380158916115761,0.15961579233407974,-0.0009479521540924907,-0.0013605781714431942,0.0007099126232787967,-35.3628796,149.1653253,198167.5,-1.0,0.0,-152.0,0.0,0.0,-1000.0,2.0,1.0,3.0
09:22:44,RTL,23365.0,0.0012801320990547538,0.0028892934788018465,0.16013231873512268,0.0022063583601266146,0.0015127628576010466,0.005754650104790926,-35.3628796,149.1653253,201240.0,-1.0,0.0,-152.0,0.0,0.0,-1000.0,5.0,4.0,8.0
09:22:45,RTL,169361.0,0.0014517049712594599,0.002894565579481423,0.16027866303920746,0.0002329770941287279,0.0005053531494922936,0.0003556760784704238,-35.3628796,149.1653253,202210.25,-1.0,0.0,-152.0,0.0,0.0,-1000.0,2.75,2.75,2.5
09:22:46,RTL,169361.0,0.0017918443772941828,0.002984812716022134,0.16019797821839651,0.0008562676763782898,0.0006536118841419617,-0.0007531164834896723,-35.3628796,149.1653253,203987.33333333334,-1.0,0.0,-152.0,0.0,0.0,-1000.0,3.3333333333333335,3.0,1.3333333333333333
09:22:48,RTL,169361.0,0.0019409496453590691,0.003421167260967195,0.16001860797405243,0.0022066949168220162,0.0005260753678157926,0.00150052341632545,-35.3628796,149.1653253,207496.0,-1.0,1.0,-152.0,0.0,0.0,-1000.0,4.5,3.0,3.5
09:22:49,RTL,150152.0,0.0016748786438256502,0.00325987720862031,0.15998614206910133,-0.0002502105780877173,0.0008394736214540899,0.000870594143634662,-35.3628796,149.1653253,208661.5,-1.0,1.0,-152.0,0.0,0.0,-999.25,2.25,3.5,3.0
09:22:50,RTL,150152.0,0.0009729434095788747,0.003331966232508421,0.15990454703569412,-0.0006042357999831438,0.00019159133080393076,0.0011131919454783201,-35.3628796,149.1653253,210603.0,-1.0,1.0,-152.0,0.0,0.0,-999.5,2.0,2.5,3.5
09:22:52,RTL,150152.0,0.001573310059029609,0.003118204651400447,0.15997424721717834,-0.000337197445333004,-0.0007788761286064982,-0.00011814245954155922,-35.3628796,149.1653253,213710.5,-1.0,0.0,-152.0,0.0,0.0,-1000.0,2.5,1.5,2.5
09:22:53,RTL,300000.0,0.0015640462806914002,0.0031022113980725408,0.15988143905997276,0.0003885272890329361,0.0005740605120081455,-0.00010206521255895495,-35.3628796,149.1653253,214878.0,-1.0,0.0,-152.0,0.0,0.0,-999.75,3.0,3.0,2.25
09:22:54,RTL,300000.0,0.0014300048351287842,0.0032896073535084724,0.15986879169940948,-0.0009784644935280085,-0.0014098011888563633,0.0006554387509822845,-35.3628796,149.1653253,216781.0,-1.0,0.0,-152.0,0.0,0.0,-1000.0,2.0,1.0,3.0
09:22:56,RTL,300000.0,0.0021989289671182632,0.0030510975047945976,0.16004130989313126,-0.0005205523921176791,-0.0003986466908827424,0.0004663423169404268,-35.3628796,149.1653253,219303.5,-1.0,1.0,-152.0,0.0,0.0,-1000.0,3.0,2.0,2.5
09:22:57,RTL,300000.0,0.0017345429223496467,0.0032127966987900436,0.159807026386261,0.0008267827797681093,0.0006052374374121428,0.00091139244614169,-35.3628796,149.1653253,220860.0,-1.0,1.0,-152.0,0.0,0.0,-999.75,3.75,3.5,3.25
09:22:58,RTL,300000.0,0.0015001018764451146,0.0032780456822365522,0.15964119136333466,0.00044668337795883417,0.0002794190077111125,0.00039150542579591274,-35.3628796,149.1653253,222411.0,-1.0,1.0,-152.0,0.0,0.0,-1000.0,3.5,3.0,2.5
09:23:00,RTL,300000.0,0.0011296284501440823,0.0027974811382591724,0.15996405482292175,-0.0017625943291932344,0.0011809413554146886,0.0026282976614311337,-35.3628796,149.1653253,225518.0,-1.0,0.0,-152.0,0.0,0.0,-998.5,1.0,4.0,5.0
09:23:01,RTL,200.0,0.0013410923129413277,0.003052079235203564,0.16027415171265602,-0.0002155654365196824,-0.0002724344958551228,2.570421202108264e-06,-35.3628796,149.1653253,227069.75,-1.0,0.0,-152.0,0.0,0.0,-1000.25,2.75,2.5,2.5
09:23:02,RTL,200.0,0.001672839222010225,0.002961933147162199,0.16043154895305634,1.4310586266219616e-05,-0.00019902235362678766,-6.615184247493744e-06,-35.3628796,149.1653253,228622.5,-1.0,0.0,-152.0,0.0,0.0,-1000.5,2.5,2.5,2.5
09:23:04,RTL,200.0,0.0018158331513404846,0.0034180679358541965,0.1600315272808075,0.001483329338952899,0.0015673377783969045,0.0010687514441087842,-35.3628796,149.1653253,231730.0,-1.0,0.0,-152.0,0.0,0.0,-1000.0,4.0,4.0,3.5
09:23:05,RTL,23792.0,0.0022704623406752944,0.0031368389609269798,0.1601112112402916,0.0005745359230786562,0.00015331112081184983,0.0010674279183149338,-35.3628796,149.1653253,233286.25,-1.0,0.75,-152.0,0.0,0.0,-999.5,3.25,3.0,3.75
09:23:06,RTL,23792.0,0.0018260586657561362,0.0031175209442153573,0.1600281372666359,0.0001935891341418028,0.00017084251157939434,0.00045664480421692133,-35.3628796,149.1653253,234840.5,-1.0,1.0,-152.0,0.0,0.0,-1000.0,3.5,3.0,3.0
09:23:08,RTL,23792.0,0.0009467509808018804,0.003426165785640478,0.1600079908967018,-0.0008072209311649203,-9.137659799307585e-05,-0.0001274388050660491,-35.3628796,149.1653253,237947.5,-1.0,0.5,-152.0,0.0,0.0,-999.5,2.0,3.0,2.5
09:23:09,RTL,200.0,0.0012529633240774274,0.0032253722310997546,0.15997188165783882,0.0018011871143244207,0.0003502800827845931,0.0007784427143633366,-35.3628796,149.1653253,239505.75,-1.0,0.0,-152.0,0.0,0.0,-1000.0,4.75,3.25,3.5
09:23:10,RTL,200.0,0.001594706845935434,0.0031395761761814356,0.16016221046447754,-0.0027893780497834086,0.0005624578334391117,0.0003538553137332201,-35.3628796,149.1653253,241057.0,-1.0,0.0,-152.0,0.0,0.0,-999.5,0.5,3.5,3.0
09:23:12,RTL,200.0,0.0014527977327816188,0.00323670357465744,0.1595676690340042,0.0018620677292346954,-0.00040943839121609926,0.0005849676672369242,-35.3628796,149.1653253,244168.0,-1.0,0.0,-152.0,0.0,0.0,-1000.5,4.5,2.5,3.0
09:23:13,RTL,184248.0,0.002197252440964803,0.0030527632334269583,0.15968848392367363,0.0003716382198035717,0.0003083535120822489,0.000702238641679287,-35.3628796,149.16532527500001,245722.25,-1.0,0.25,-152.0,0.0,0.0,-999.75,3.75,3.25,3.5
09:23:14,RTL,184248.0,0.0021280311048030853,0.00315675709862262,0.15974295884370804,-0.0003152959980070591,-5.08500961586833e-05,0.00354135746601969,-35.3628796,149.1653252,247275.5,-1.0,1.0,-152.0,0.0,0.0,-999.0,3.0,3.0,6.0
09:23:16,RTL,184248.0,0.0016312072984874249,0.0032710469095036387,0.15960226953029633,-0.0008491883054375648,0.0004847912350669503,0.001046754070557654,-35.3628796,149.1653252,250380.5,-1.0,1.0,-152.0,0.0,0.0,-999.5,2.0,3.5,3.5
09:23:17,RTL,225072.0,0.0013620992685901001,0.002965459192637354,0.1604255624115467,-0.0003282913821749389,0.0005828365101478994,0.0017004720866680145,-35.3628796,149.1653252,251937.5,-1.0,1.0,-152.0,0.0,0.0,-999.75,2.75,3.5,4.25
09:23:18,RTL,225072.0,0.001056728302501142,0.003008213359862566,0.16024149954319,-5.761685315519571e-05,-0.0003349548205733299,0.0007233310025185347,-35.3628796,149.1653253,253490.0,-1.0,0.5,-152.0,0.0,0.0,-1000.0,3.0,3.0,3.0
09:23:20,RTL,225072.0,0.0017209648503921926,0.003162006032653153,0.16039468348026276,0.004288600757718086,0.0012070939410477877,0.0016221392434090376,-35.3628796,149.1653253,256598.0,-1.0,0.0,-152.0,0.0,0.0,-1000.5,7.5,4.0,4.0
09:23:21,RTL,193168.0,0.0016130436561070383,0.0035597399109974504,0.16027496382594109,-0.0002749075065366924,0.000474278989713639,0.0009705365519039333,-35.3628796,149.1653253,258149.0,-1.0,0.0,-152.0,0.0,0.0,-999.75,2.75,3.5,3.5
09:23:22,RTL,193168.0,0.002148822764866054,0.003114469232968986,0.16028663516044617,0.002472118125297129,-0.0010836034780368209,-0.0007458857726305723,-35.3628796,149.1653253,259702.5,-1.0,0.5,-152.0,0.0,0.0,-1000.5,5.0,2.0,2.0
09:23:24,RTL,193168.0,0.0018523597391322255,0.0033369135344401,0.160055011510849,-0.0003655457985587418,-0.0009105565259233117,0.00013952364679425955,-35.3628796,149.1653253,262808.5,-1.0,1.0,-152.0,0.0,0.0,-1000.5,2.5,2.0,2.5
09:23:25,RTL,188938.0,0.0017097119707614183,0.0033238459727726877,0.16003422439098358,0.0005610450753010809,0.00047972891479730606,-0.00014915625797584653,-35.3628796,149.1653253,264365.25,-1.0,1.0,-152.0,0.0,0.0,-1000.25,4.0,3.25,2.25
09:23:26,RTL,188938.0,0.0013014887808822095,0.0033240020275115967,0.15983477979898453,0.00038404157385230064,-0.00047968869330361485,0.0017118565738201141,-35.3628796,149.1653253,265918.5,-1.0,1.0,-152.0,0.0,0.0,-1000.0,3.5,2.5,4.5
09:23:28,RTL,188938.0,0.00141034898115322,0.0031648833537474275,0.16001279652118683,4.8319692723453045e-05,-0.000925510423257947,0.00029083003755658865,-35.3628796,149.1653253,269025.5,-1.0,0.0,-152.0,0.0,0.0,-1000.0,3.5,2.0,3.0
09:23:29,RTL,234313.0,0.0014864356198813766,0.003222412837203592,0.15963517501950264,0.0005246750661171973,6.921408930793405e-05,-0.0005546823376789689,-35.3628796,149.1653253,270586.0,-1.0,0.0,-152.0,0.0,0.0,-1000.0,3.75,3.25,2.5
09:23:30,RTL,234313.0,0.001614257285837084,0.003093954292126,0.15993063896894455,0.002162571996450424,0.00033363793045282364,0.0020085624419152737,-35.3628796,149.1653253,272135.0,-1.0,0.0,-152.0,0.0,0.0,-1000.0,5.0,3.5,5.0
09:23:32,RTL,234313.0,0.0020072628394700587,0.003281646524555981,0.15974046289920807,-9.782135020941496e-05,0.0011546984314918518,0.0010784968035295606,-35.3628796,149.1653253,275245.5,-1.0,1.0,-152.0,0.0,0.0,-1000.0,3.0,4.5,4.0
09:23:33,RTL,35059.0,0.0015670910652261227,0.003352221567183733,0.16022541373968124,0.00049455591943115,-0.00021868158364668489,0.00201016990467906,-35.3628796,149.1653253,276799.25,-1.0,1.0,-152.0,0.0,0.0,-1000.0,3.75,3.0,5.0
09:23:34,RTL,35059.0,0.001601177325937897,0.002760337316431105,0.16034182161092758,0.0014375189784914255,-0.00010338914580643177,-0.00018173304852098227,-35.3628796,149.1653253,278352.0,-1.0,1.0,-152.0,0.0,0.0,-1000.5,4.5,2.5,2.5
09:23:36,RTL,35059.0,0.0012564227799884975,0.0032305833883583546,0.16031309962272644,0.0013951456639915705,-9.705917909741402e-05,0.0010001682676374912,-35.3628796,149.1653253,281458.0,-1.0,0.0,-152.0,0.0,0.0,-1000.0,4.5,3.0,4.0
09:23:37,RTL,78116.0,0.0015288603899534792,0.0029927067225798965,0.1601167470216751,0.00032743741758167744,0.0009607582469470799,-0.0003543579368852079,-35.3628796,149.1653253,283012.0,-1.0,0.0,-152.0,0.0,0.0,-1000.0,3.5,4.0,2.5
09:23:38,RTL,78116.0,0.001655671454500407,0.0035005155950784683,0.15996914356946945,0.001918153022415936,0.0006597015308216214,0.0012327980948612094,-35.3628796,149.1653253,284565.5,-1.0,0.0,-152.0,0.0,0.0,-1000.5,5.5,4.0,4.0
09:23:40,RTL,78116.0,0.0016854816931299865,0.003204717650078237,0.16004712134599686,0.002315942198038101,0.00031207455322146416,0.0024560069432482123,-35.3628796,149.1653253,287674.0,-1.0,0.0,-152.0,0.0,0.0,-999.5,5.5,3.5,5.5
09:23:41,RTL,81386.0,0.0022659561363980174,0.003109823155682534,0.1600215770304203,0.0005229680682532489,-0.00014874391490593553,0.0004649664042517543,-35.3628796,149.1653253,289225.75,-1.0,0.5,-152.0,0.0,0.0,-1000.0,3.75,3.25,3.5
09:23:42,RTL,81386.0,0.0019128095591440797,0.0031261180993169546,0.16019538044929504,-0.0011414496693760157,0.0007024701917544007,0.001596451853401959,-35.3628796,149.1653253,290781.0,-1.0,1.0,-152.0,0.0,0.0,-1000.0,2.5,4.0,4.5
09:23:44,RTL,81386.0,0.0012531147513072938,0.0033524438040331006,0.15987983345985413,-0.0011506922310218215,-0.0008117139805108309,1.834926661103964e-05,-35.3628796,149.1653253,293887.0,-1.0,1.0,-152.0,0.0,0.0,-1000.0,2.0,2.5,3.0
09:23:45,RTL,300000.0,0.001055899920174852,0.003314441128168255,0.15994339063763618,-0.0005559918354265392,0.0005850618472322822,0.00036297005135565996,-35.3628796,149.1653253,295441.5,-1.0,0.0,-152.0,0.0,0.0,-999.75,2.75,4.0,3.5
09:23:46,RTL,300000.0,0.0013059103512205184,0.0030989666702225804,0.15980089455842972,0.0010709024500101805,-5.135254468768835e-05,5.4466770961880684e-05,-35.3628796,149.1653253,296998.0,-1.0,0.0,-152.0,0.0,0.0,-1000.5,4.5,3.0,3.0
09:23:48,RTL,300000.0,0.001397513144183904,0.003045050660148263,0.15978892147541046,0.0003575105220079422,0.0009843369480222464,0.0011652199318632483,-35.3628796,149.1653253,300100.5,-1.0,0.0,-152.0,0.0,0.0,-1000.0,4.0,4.5,4.5
09:23:49,RTL,279277.0,0.00143129812204279,0.00285031134262681,0.160176619887352,0.0001916451146826148,0.00031072559067979455,0.0012942131143063307,-35.3628796,149.1653253,301653.5,-1.0,0.0,-152.0,0.0,0.0,-1000.0,3.5,3.75,4.25
09:23:50,RTL,279277.0,0.002240190631709993,0.0028331896755844355,0.16046853363513947,0.0007402030751109123,0.0007397688459604979,0.0005798061611130834,-35.3628796,149.1653253,303208.0,-1.0,0.5,-152.0,0.0,0.0,-1000.0,4.5,4.0,3.5
09:23:52,RTL,279277.0,0.001850212865974754,0.003385985386557877,0.16030997037887573,0.00012529641389846802,-0.00015842646826058626,0.0005114555824548006,-35.3628796,149.1653253,306322.5,-1.0,1.0,-152.0,0.0,0.0,-1000.0,3.5,3.5,4.0
09:23:53,RTL,112715.0,0.0017139338015113026,0.0035240589058957994,0.160199087113142,-0.00023354130098596215,-0.00020389456767588854,-0.00010081968503072858,-35.3628796,149.1653253,307877.75,-1.0,1.0,-152.0,0.0,0.0,-1000.0,3.5,3.25,3.0
09:23:54,RTL,112715.0,0.0009781518601812422,0.003464366658590734,0.16011346876621246,-0.0007773879915475845,0.00062409951351583,0.0009876106632873416,-35.3628796,149.1653253,309432.0,-1.0,0.5,-152.0,0.0,0.0,-999.5,3.0,4.0,4.0
09:23:56,RTL,112715.0,0.001567042141687125,0.0032497511710971594,0.1600440964102745,0.00026449677534401417,-0.0002763477386906743,-0.00029012211598455906,-35.3628796,149.1653253,312536.5,-1.0,0.0,-152.0,0.0,0.0,-1000.5,4.0,3.0,3.0
09:23:57,RTL,300000.0,0.001545486768009141,0.0030706693651154637,0.16012770682573318,-0.00015111296670511365,5.280919140204787e-05,0.0013756167027167976,-35.3628796,149.1653253,314090.0,-1.0,0.0,-152.0,0.0,0.0,-999.5,3.25,3.75,4.5
09:23:58,RTL,300000.0,0.001542567799333483,0.003246386186219752,0.16006701439619064,0.0007682896684855223,0.0009951870888471603,-5.0324248149991035e-05,-35.3628796,149.1653253,315643.0,-1.0,0.0,-152.0,0.0,0.0,-1000.5,4.0,4.5,3.0
09:24:00,RTL,300000.0,0.002023191482294351,0.0030456220265477896,0.1600431725382805,-0.0017545763403177261,0.0005079656839370728,0.0007799119921401143,-35.3628796,149.1653253,318751.5,-1.0,1.0,-152.0,0.0,0.0,-999.5,2.0,4.0,4.5
09:24:01,RTL,200.0,0.0015743690019007772,0.0031779073760844767,0.15990950912237167,-0.00032021442893892527,-3.965513315051794e-06,0.0004917599144391716,-35.3628796,149.1653253,320304.5,-1.0,1.0,-152.0,0.0,0.0,-1000.25,3.5,3.75,3.75
09:24:02,RTL,200.0,0.0013278076658025384,0.0033291822765022516,0.1597306728363037,0.0010713813826441765,-0.0001818118616938591,-0.0007719515124335885,-35.3628796,149.1653253,321858.0,-1.0,1.0,-152.0,0.0,0.0,-1000.5,4.5,3.0,3.0
09:24:04,RTL,200.0,0.0010972822783514857,0.002768303151242435,0.15991201251745224,-0.0009207332041114569,0.0010771246161311865,-0.0001232139766216278,-35.3628796,149.1653253,324964.0,-1.0,0.0,-152.0,0.0,0.0,-999.5,3.0,4.5,3.0
09:24:05,RTL,241663.0,0.0007530965449404903,0.0028490243130363524,0.1599915772676468,-0.0006639711791649461,-0.0005038706585764885,2.886576112359762e-06,-35.362879675,149.1653253,326523.25,-1.0,0.0,-152.0,0.0,0.0,-1000.25,3.0,3.25,3.25
09:24:06,RTL,241663.0,0.0007839178142603487,0.0023630650248378515,0.16038649529218674,-0.0004236912354826927,2.36238120123744e-05,0.0015968943480402231,-35.3628797,149.1653253,328075.5,-0.5,0.0,-152.0,0.0,0.0,-999.5,3.5,3.5,5.0
09:24:08,RTL,241663.0,0.0008548403857275844,0.0024430423509329557,0.16024689376354218,0.0021670733112841845,0.0011804336681962013,0.0018398123793303967,-35.3628797,149.1653253,331183.0,0.0,0.0,-152.0,0.0,0.0,-999.5,6.0,5.0,5.0
09:24:09,RTL,33717.0,0.0008376975019928068,0.0024771092575974762,0.1602819412946701,0.000414605310652405,-0.00028177956119179726,0.001248396234586835,-35.3628797,149.1653253,332731.75,0.0,0.0,-152.0,0.0,0.0,-1000.0,4.25,3.25,4.75
09:24:10,RTL,33717.0,0.0006668679707217962,0.0022150862496346235,0.16012831777334213,0.0010629405733197927,0.00019168085418641567,-0.0001315028639510274,-35.3628797,149.1653254,334289.5,0.0,0.0,-152.0,0.0,0.0,-1000.5,4.5,4.0,3.0
09:24:12,RTL,33717.0,0.000627526082098484,0.002060147642623633,0.16027136892080307,0.00047236320096999407,0.0007879214826971292,0.0012735131895169616,-35.3628798,149.1653254,337398.5,0.0,0.0,-152.0,0.0,0.0,-1000.0,4.0,4.5,5.0
09:24:13,RTL,245148.0,0.0005789037531940266,0.002209876023698598,0.16009379923343658,0.001257643336430192,0.000752363121137023,0.0014578894479200244,-35.3628798,149.1653254,338955.0,0.0,0.0,-152.0,0.0,0.0,-999.75,5.0,4.5,4.75
09:24:14,RTL,245148.0,0.00019590418014558963,0.0021608469542115927,0.15998271107673645,-0.0017281522741541266,-0.0005667433142662048,0.0006691898452118039,-35.3628798,149.1653254,340507.5,0.0,0.0,-152.0,0.0,0.0,-1000.0,2.0,3.0,4.0
09:24:16,RTL,245148.0,0.000211722421227023,0.001956693595275283,0.15990767627954483,-0.0012555309804156423,-0.002055335557088256,0.00027653947472572327,-35.3628798,149.1653254,343613.5,0.0,0.0,-152.0,0.0,0.0,-1000.0,2.5,1.5,4.0
09:24:17,RTL,238139.0,0.00019330558097863104,0.0012982022599317133,0.1600680947303772,0.0006406039465218782,0.00035123981069773436,0.001842646044678986,-35.3628798,149.1653254,345164.75,0.0,0.0,-152.0,0.0,0.0,-1000.0,4.5,4.0,5.25
09:24:18,RTL,238139.0,-0.0001849018080974929,0.0017683052574284375,0.15999271720647812,-0.001190011389553547,-0.00021713715977966785,-0.00015363434795290232,-35.3628798,149.16532545,346718.0,0.0,0.0,-152.0,0.0,0.0,-1000.0,3.0,3.5,3.0
09:24:20,RTL,238139.0,-1.1141855793539435e-05,0.001454571378417313,0.15982194989919662,0.0009424563031643629,-0.002406644285656512,0.0001082166563719511,-35.3628798,149.1653255,349825.0,0.0,0.0,-152.0,0.0,0.0,-1000.0,4.5,1.5,3.5
09:24:21,RTL,200.0,-0.00020484256674535573,0.000719677031156607,0.15987728908658028,-0.0005767152761109173,-0.00045179593143984675,0.0009604012593626976,-35.3628799,149.1653255,351382.25,0.5,0.0,-152.0,0.0,0.0,-999.75,3.0,3.0,4.75
09:24:22,RTL,200.0,1.1783238733187318e-05,0.0012603533104993403,0.16059573739767075,-0.0005150308134034276,0.0005041018594056368,0.0007044358644634485,-35.3628799,149.1653255,352932.5,1.0,-0.5,-152.0,0.0,0.0,-1000.0,3.0,4.5,4.0
09:24:24,RTL,200.0,0.00043802712025353685,0.0021213196450844407,0.16048936545848846,-0.001779636717401445,0.0018400575499981642,0.00018843228463083506,-35.3628799,149.1653255,356041.0,0.5,0.0,-152.0,0.0,0.0,-999.0,2.0,5.5,3.5
09:24:25,RTL,268504.0,0.00016921362112043425,0.001733341719955206,0.16034793481230736,-0.0001988422591239214,-0.0006521199247799814,0.0006975956493988633,-35.3628799,149.1653255,357602.25,0.0,0.0,-152.0,0.0,0.0,-999.75,3.5,2.75,4.0
09:24:26,RTL,268504.0,4.91907776449807e-05,0.0015239319764077663,0.16024116426706314,-0.0023350727278739214,-0.0004427594831213355,-0.0019074181327596307,-35.3628799,149.1653255,359151.5,0.0,0.0,-152.0,0.0,0.0,-1000.0,1.5,3.0,1.5
09:24:28,RTL,268504.0,-0.00030840359977446496,0.0015189425903372467,0.16014684736728668,-0.001176670310087502,-0.0004636149387806654,-0.002159381052479148,-35.3628799,149.1653255,362257.5,0.0,0.0,-152.0,0.0,0.0,-1000.0,2.5,3.0,1.5
09:24:29,RTL,19277.0,-0.00038756192952860147,0.001148827541328501,0.1602003127336502,7.228058530017734e-05,-0.001150605792645365,6.35277247056365e-05,-35.3628799,149.1653255,363807.25,0.25,-0.25,-152.0,0.0,0.0,-999.5,3.75,2.5,3.5
09:24:30,RTL,19277.0,-0.00032388517865911126,0.0005606300983345136,0.16020160168409348,0.0009907020721584558,0.0003630385035648942,-0.0006296262145042419,-35.3628799,149.1653255,365364.5,1.0,-1.0,-152.0,0.0,0.0,-1000.0,4.5,4.0,2.5
09:24:32,RTL,19277.0,-0.00025109895068453625,0.0012442469596862793,0.1600794494152069,0.0010578721994534135,-0.001100668334402144,-0.0011612310772761703,-35.3628799,149.1653255,368474.5,1.0,-0.5,-152.0,0.0,0.0,-1000.5,4.5,2.5,2.5
09:24:33,RTL,200.0,-0.00015807188174221665,0.0012184816878288984,0.15994300320744514,0.0004644629079848528,-0.00015791825717315078,0.00034332770155742764,-35.3628799,149.1653255,370028.25,1.0,-1.0,-152.0,0.0,0.0,-999.75,4.25,3.25,3.75
09:24:34,RTL,200.0,-1.0178639058722183e-05,0.0016262417193502188,0.1599576398730278,-0.0025048599345609546,0.0001681850990280509,-0.000798023073002696,-35.3628799,149.1653255,371582.0,1.0,-0.5,-152.0,0.0,0.0,-999.5,1.0,3.5,3.0
09:24:36,RTL,200.0,-0.00028589260182343423,0.0015454759122803807,0.15982933342456818,0.00041135866194963455,-0.0009236925980076194,-9.138067252933979e-05,-35.3628799,149.1653255,374688.5,0.0,-1.0,-152.0,0.0,0.0,-1000.5,4.0,2.5,3.5
09:24:37,RTL,229978.0,-0.00027732285889214836,0.0010951462900266051,0.15990066900849342,-7.965561235323548e-05,-0.0003349511534906924,-0.0003441443550400436,-35.3628799,149.1653255,376240.5,0.25,-1.0,-152.0,0.0,0.0,-999.75,3.25,3.0,3.25
09:24:38,RTL,229978.0,-0.00045931435306556523,0.0005542344151763245,0.1606736183166504,0.0006309866439551115,-0.0011089406907558441,9.971985127776861e-05,-35.36287995,149.1653255,377795.5,1.0,-1.0,-152.0,0.0,0.0,-1000.5,4.5,2.0,3.5
09:24:40,RTL,229978.0,-0.00019967996195191517,0.0011636633425951004,0.16046959906816483,-0.0009137659799307585,-0.0004935002652928233,-0.0007879412733018398,-35.36288,149.1653255,380900.5,1.0,-1.0,-152.0,0.0,0.0,-1000.0,2.5,3.0,2.5
09:24:41,RTL,300000.0,-0.0001615460805624025,0.0011429229198256508,0.16051804646849632,-0.00025210989406332374,0.0006690713344141841,-0.00023975921794772148,-35.36288,149.1653255,382453.75,1.0,-0.75,-152.0,0.0,0.0,-999.5,3.25,4.0,3.5
09:24:42,RTL,300000.0,-0.00024660710187163204,0.0009856168180704117,0.16036146879196167,0.00045857043005526066,-0.00047397008165717125,-0.00045540393330156803,-35.36288,149.1653255,384006.5,1.0,-1.0,-152.0,0.0,0.0,-1000.5,4.0,3.0,3.5
09:24:44,RTL,300000.0,-0.00018611591440276243,0.0014811077853664756,0.16020068526268005,-0.0009927580831572413,-2.9270420782268047e-05,-0.000819435459561646,-35.36288,149.1653255,387118.5,1.0,-1.0,-152.0,0.0,0.0,-1000.0,2.5,3.0,3.0
09:24:45,RTL,187773.0,-2.183104720643314e-05,0.0019514391606207937,0.16023991629481316,-0.0007561507518403232,-0.0005988390767015517,-0.0007664185832254589,-35.3628799,149.1653255,388672.0,1.0,-0.5,-152.0,0.0,0.0,-1000.0,2.75,2.75,2.75
09:24:46,RTL,187773.0,-0.0003347339516039938,0.0014329306432045996,0.16017299890518188,0.00026759435422718525,-0.00043593323789536953,-0.0024507741909474134,-35.3628799,149.1653255,390225.0,1.0,0.0,-152.0,0.0,0.0,-1000.0,3.5,3.0,1.0
09:24:48,RTL,187773.0,-0.0012239059433341026,0.0006000221328577027,0.16006523370742798,0.0007597784278914332,-0.0007203733548521996,0.0017694660928100348,-35.3628799,149.16532554999998,393335.0,1.0,-1.0,-152.0,0.0,0.0,-999.5,4.5,3.0,5.0
09:24:49,RTL,300000.0,-0.0007838660385459661,0.000956196483457461,0.16011383011937141,-0.0001461859210394323,-7.951632142066956e-06,-0.0003161682980135083,-35.36287995,149.1653256,394886.25,1.0,-1.0,-152.0,0.0,0.0,-1000.0,3.25,3.25,3.25
09:24:50,RTL,300000.0,-8.571677608415484e-05,0.0009156481246463954,0.1600620076060295,-0.0010017695603892207,-0.0007817319128662348,-0.001966135809198022,-35.36288,149.1653256,396445.5,1.0,-1.0,-152.0,0.0,0.0,-1000.0,2.5,2.5,1.5
09:24:52,RTL,300000.0,-0.0002136473085556645,0.0011080389376729727,0.1600743755698204,0.00032162026036530733,-0.0005102795548737049,-0.0007258127443492413,-35.36288,149.1653256,399551.5,1.0,-0.5,-152.0,0.0,0.0,-1000.0,3.5,3.0,2.5
09:24:53,RTL,13708.0,-0.0003241751983296126,0.001006695136311464,0.15998414531350136,-9.570911061018705e-06,0.0003468603827059269,-0.00040363625157624483,-35.36288,149.1653256,401104.75,1.0,-1.0,-152.0,0.0,0.0,-1000.0,3.25,3.5,3.25
09:24:54,RTL,13708.0,-0.0003293475601822138,0.0011541142594069242,0.16047263145446777,-0.0025808049831539392,0.00045914819929748774,0.00025452999398112297,-35.36288,149.1653256,402658.5,1.0,-1.0,-152.0,0.0,0.0,-999.5,1.5,4.0,4.0
09:24:56,RTL,13708.0,-0.00024939490685937926,0.0011132898507639766,0.1605408862233162,-7.794320117682219e-05,-0.0005843067774549127,-0.00021574972197413445,-35.36288,149.1653256,405767.0,1.0,-1.0,-152.0,0.0,0.0,-1000.5,3.0,3.0,3.0
09:24:57,RTL,207031.0,-0.0002511718194000423,0.0012699748913291842,0.16040847077965736,-0.0005712154670618474,0.00022879603784531355,-0.0003239260404370725,-35.36288,149.1653256,407320.75,1.0,-1.0,-152.0,0.0,0.0,-999.5,2.75,3.25,3.0
09:24:58,RTL,207031.0,-0.00021583175112027675,0.0019079289049841464,0.1604430079460144,0.0022049578838050365,-0.0009176202584058046,0.00014996540267020464,-35.36287995,149.1653256,408873.0,1.0,-1.0,-152.0,0.0,0.0,-1000.5,6.0,2.5,3.5
09:25:00,RTL,207031.0,-0.0006393650837708265,0.0006709525332553312,0.16024094074964523,-0.0002700312761589885,-0.001234997995197773,0.0003252688329666853,-35.3628799,149.1653256,411980.0,1.0,-1.0,-152.0,0.0,0.0,-1000.0,2.5,2.0,4.0
09:25:01,RTL,200.0,-0.00038410334673244506,0.0006547377997776493,0.16030311584472656,-0.0002125512110069394,0.0001284143072552979,-0.0010236965026706457,-35.3628799,149.1653256,413531.25,1.0,-1.0,-152.0,0.0,0.0,-1000.5,3.25,3.5,2.5
09:25:02,RTL,200.0,-0.0002877990991692059,0.0009543994383420795,0.16032634675502777,-0.0002089940244331956,0.00037050258833914995,-0.0008707317756488919,-35.3628799,149.1653256,415086.0,1.0,-1.0,-152.0,0.0,0.0,-1000.0,3.0,3.5,2.5
09:25:04,RTL,200.0,-0.00023778522881912068,0.001038808433804661,0.16012892872095108,-0.0007055544992908835,0.0008649283554404974,0.000547411385923624,-35.3628799,149.1653256,418199.0,1.0,-1.0,-152.0,0.0,0.0,-999.5,2.5,4.0,4.0
09:25:05,RTL,200.0,-0.00038113328628242016,0.0010599912784527987,0.15998909249901772,0.0006256753113120794,-0.0007972624734975398,-0.00048319087363779545,-35.3628799,149.1653256,419748.5,1.0,-1.0,-152.0,0.0,0.0,-1000.0,3.75,2.25,2.75
09:25:06,RTL,200.0,-0.00026864818937610835,0.0009695344779174775,0.16004934906959534,-2.3326370865106583e-05,0.00042312091682106256,0.00047307019121944904,-35.3628799,149.1653256,421301.0,1.0,-1.0,-152.0,0.0,0.0,-999.5,3.5,3.5,3.5
09:25:08,RTL,200.0,-0.00033542099117767066,0.00113162852358073,0.16002725809812546,0.0014588555786758661,-0.0001659163972362876,-0.0009719581576064229,-35.3628799,149.1653256,424407.5,1.0,-1.0,-152.0,0.0,0.0,-1000.5,4.5,2.5,2.5
09:25:09,RTL,215093.0,-0.0002625642136990791,0.0009919672884279862,0.16014854237437248,-0.00045768351992592216,0.0002151124062947929,-0.00031088292598724365,-35.3628799,149.1653256,425966.75,1.0,-1.0,-152.0,0.0,0.0,-1000.0,3.0,3.25,2.75
09:25:10,RTL,215093.0,-0.0003214670141460374,0.0010520847281441092,0.16039040684700012,0.002864215988665819,0.0009352787164971232,-0.00018572970293462276,-35.3628799,149.1653256,427522.5,1.0,-1.0,-152.0,0.0,0.0,-1000.0,6.0,4.0,3.5
09:25:12,RTL,215093.0,-0.0001955229527084157,0.0013202886038925499,0.16061971336603165,-0.0010672550415620208,0.0012757671065628529,-0.0005223070038482547,-35.3628799,149.1653256,430629.0,1.0,-0.5,-152.0,0.0,0.0,-999.5,2.5,4.0,2.5
09:25:13,RTL,300000.0,-0.000267694737203783,0.008942840329837054,0.16066453233361244,0.00013537559425458312,0.026355597423389554,0.0004347904468886554,-35.3628799,149.165325575,432179.5,0.0,-0.5,-151.5,0.0,0.0,-998.75,3.25,29.5,3.75
09:25:14,RTL,300000.0,-0.0027219937765039504,0.04942628554999828,0.16043561697006226,-0.005591371096670628,0.041507117450237274,-0.0007804666529409587,-35.362880849999996,149.16532535,433719.0,-25.0,-5.0,-149.0,3.5,1.5,-997.5,-2.0,44.5,2.5
09:25:16,RTL,300000.0,-0.03123372793197632,0.15493842586874962,0.2293379083275795,-0.08940740814432502,0.12501179240643978,0.27441741223447025,-35.36289605,149.16532205,436631.0,-158.5,-33.0,-122.5,27.0,10.0,-962.5,-85.0,128.0,278.0
09:25:17,RTL,300000.0,0.009943620068952441,0.18148424103856087,0.5555582940578461,0.06534261559136212,-0.10528034903109074,0.2760826349258423,-35.362915075,149.16531584999998,437605.0,-270.25,-83.75,-55.5,60.0,15.5,-930.75,68.25,-101.5,279.0
09:25:18,RTL,300000.0,0.0707823634147644,0.12479304522275925,0.6688617765903473,-0.11645563691854477,0.0191811416298151,0.00561952032148838,-35.36294355,149.1653068,437839.5,-352.0,-69.0,2.0,81.0,-5.5,-947.0,-113.5,22.0,9.0
09:25:20,RTL,300000.0,-0.003070066566579044,0.15435069054365158,0.6099933385848999,-0.08839621394872665,-0.0018342905677855015,-0.07919532433152199,-35.363018499999995,149.1652948,437450.5,-462.0,-59.0,9.5,110.5,-7.5,-1008.0,-85.0,1.5,-75.0
09:25:21,RTL,232611.0,-0.02799672307446599,0.13428880274295807,0.5656549483537674,-0.034783000126481056,-0.04191279783844948,-0.0551129172090441,-35.363061574999996,149.165286975,437388.5,-487.5,-82.0,-1.75,118.0,15.75,-1004.25,-31.25,-38.25,-51.0
09:25:22,RTL,232611.0,-0.03971558250486851,0.1080234982073307,0.5265190899372101,-0.35987488925457,-0.018383033573627472,-0.058797938749194145,-35.363105899999994,149.1652771,437398.0,-486.0,-95.0,-4.0,119.0,7.0,-1002.5,-356.5,-15.5,-54.5
09:25:24,RTL,232611.0,-0.060665326192975044,0.019861692853737622,0.46348632872104645,0.05597496032714844,-0.05979837849736214,-0.030204173759557307,-35.363189000000006,149.1652571,437442.5,-399.0,-87.0,-2.0,96.0,44.5,-1005.0,59.5,-56.5,-26.5
09:25:25,RTL,262778.0,-0.068708342500031,-0.035034086322411895,0.440383642911911,-0.466160885989666,-0.05352623946964741,-0.04953912552446127,-35.363222,149.1652489,437438.25,-306.5,-73.5,0.25,76.75,3.0,-994.75,-463.25,-50.0,-45.25
09:25:26,RTL,262778.0,-0.05733789876103401,-0.07394864037632942,0.4211553484201431,0.2789691868238151,-0.019479102222248912,-0.017021383508108556,-35.363245,149.16524295,437419.5,-190.0,-53.0,1.0,48.0,28.5,-1006.5,282.0,-16.5,-13.5
09:25:28,RTL,262778.0,-0.01803641952574253,-0.04010986164212227,0.3814419060945511,0.10368746519088745,0.009767294395714998,-0.020033620297908783,-35.36326435,149.1652373,437403.0,-31.5,-22.0,-0.5,8.5,6.5,-993.5,106.5,12.0,-16.0
09:25:29,RTL,300000.0,-0.00792789924889803,-0.02464189426973462,0.3652244582772255,0.027881838381290436,0.02239246154204011,-0.010566261131316423,-35.363266325,149.165236325,437413.0,1.0,-10.75,-0.5,0.5,9.5,-1006.25,31.0,25.0,-6.75
09:25:30,RTL,300000.0,-0.0015966654755175114,-0.003947346966015175,0.3524706959724426,-0.04276314377784729,0.0032902946695685387,-0.01258937455713749,-35.36326645,149.16523625000002,437418.5,7.5,-4.0,-0.5,-0.5,-9.0,-1005.5,-40.0,6.0,-8.5
09:25:32,RTL,300000.0,-0.0020882459357380867,-0.011583324056118727,0.3332366794347763,0.041865527629852295,0.0006625062087550759,-0.005894340109080076,-35.363265999999996,149.16523654999997,437421.0,14.5,-1.5,0.0,-2.0,-0.5,-998.5,44.5,3.0,-2.0
09:25:33,RTL,88692.0,0.008351737691555172,-0.007291049463674426,0.3255767375230789,-0.07583698630332947,5.2098650485277176e-05,-0.005730173841584474,-35.3632651,149.1652364,437419.75,15.75,0.5,0.5,-2.75,-11.75,-1001.0,-74.0,2.75,-2.25
09:25:34,RTL,88692.0,0.00599905417766422,-0.005369683960452676,0.3193804919719696,-0.5020414292812347,0.0022392950486391783,-0.008333520963788033,-35.363264099999995,149.16523585,437418.0,12.0,5.0,0.0,-3.0,-17.5,-1002.5,-498.5,5.0,-4.5
09:25:36,RTL,88692.0,0.03352866694331169,-0.0029182115686126053,0.30739904940128326,0.5635801926255226,0.0002865864662453532,-0.017868374474346638,-35.363262750000004,149.1652349,437177.0,4.0,15.0,52.0,0.0,-8.0,-908.5,564.5,2.5,-14.5
09:25:37,RTL,200.0,0.032847092021256685,-0.000357842522134888,0.3011689782142639,1.2460514158010483,-0.005120531364809722,-0.009159448207356036,-35.3632625,149.16523532500003,436425.75,1.0,18.75,104.0,0.75,20.5,-947.0,1247.75,-2.25,-6.0
09:25:38,RTL,200.0,0.0165586955845356,-0.001636059780139476,0.2959973067045212,1.3655185103416443,-0.0032157792011275887,-0.0047721510054543614,-35.3632625,149.16523605,435282.5,0.0,16.5,106.5,-0.5,69.0,-1104.0,1369.5,-0.5,-1.5
09:25:40,RTL,200.0,0.029034622013568878,-0.005677822045981884,0.28656336665153503,0.8180494010448456,0.0018218213226646185,0.0023798305774107575,-35.36326205,149.16523454999998,433183.0,-1.0,20.0,99.0,-1.5,71.0,-1016.0,823.0,4.5,5.5
09:25:41,RTL,73893.0,0.017928107641637325,-0.0011323680591885932,0.28260521590709686,0.5169698223471642,0.005033950204961002,-0.0030275520402938128,-35.363261875,149.16523397499998,432161.25,-2.5,28.75,99.0,0.25,57.25,-991.5,522.25,6.75,0.5
09:25:42,RTL,73893.0,0.009161614812910557,0.002206064760684967,0.27816125750541687,0.8761763274669647,0.005941704846918583,-0.001247983891516924,-35.3632619,149.16523510000002,431086.0,-2.5,27.0,99.5,2.0,60.0,-1020.0,881.5,8.0,2.5
09:25:44,RTL,73893.0,-0.019291586242616177,-0.002839587046764791,0.271642729640007,-0.14314353466033936,-0.009791139978915453,-0.004681362770497799,-35.3632626,149.16523765,429041.5,1.0,5.0,97.5,0.5,30.5,-1012.5,-137.5,-7.5,-2.0
09:25:45,RTL,96386.0,-0.014010571059770882,-0.005199812585487962,0.26754067093133926,-1.3782666623592377,-0.002542589820222929,-0.009832787880441174,-35.3632627,149.165237325,428058.25,3.5,0.0,97.5,-1.0,-45.0,-1033.75,-1373.75,-0.75,-6.25
09:25:46,RTL,96386.0,-0.006052257609553635,-0.005234482232481241,0.2646019756793976,-1.3991842865943909,0.002249545883387327,-0.0015676652546972036,-35.3632627,149.16523669999998,427044.5,3.5,4.0,95.0,1.0,-50.0,-963.5,-1395.0,4.5,2.0
09:25:48,RTL,96386.0,-0.02201366238296032,-0.0017233868420589715,0.2585827708244324,-1.2582691013813019,0.00792790949344635,-0.011667202226817608,-35.3632628,149.1652376,424962.5,5.5,2.5,100.0,0.5,-44.5,-975.0,-1254.0,9.5,-8.0
09:25:49,RTL,300000.0,-0.026265521068125963,-0.000842312081658747,0.2571941241621971,-0.742478683590889,-0.0030777461361140013,0.0050341878668405116,-35.3632628,149.165238225,423890.75,6.0,-1.75,97.0,-0.25,3.75,-986.75,-736.25,-1.5,7.75
