time_stamp,MODE,lat,lon,relative_alt,roll,pitch,yaw,rollspeed,pitchspeed,yawspeed,xacc,yacc,zacc,xgyro,ygyro,zgyro,vx,vy,vz,RTL_ALT
09:19:44.974,STABILIZE,-35.3632621,149.1652374,0,-0.00010551935702096671,0.0014272765256464481,0.02945404313504696,0.0002815454499796033,0.000316279852995649,0.002595511730760336,0,1,-1000,0,0,0,0,0,0,205005.0
09:19:45.175,STABILIZE,-35.3632621,149.1652374,0,-0.00010551935702096671,0.0014272765256464481,0.02945404313504696,0.0002815454499796033,0.000316279852995649,0.002595511730760336,0,1,-1000,0,0,0,0,0,0,205005.0
09:19:45.376,STABILIZE,-35.3632621,149.1652374,0,-0.00010551935702096671,0.0014272765256464481,0.02945404313504696,0.0002815454499796033,0.000316279852995649,0.002595511730760336,0,1,-1000,0,0,0,0,0,0,205005.0
09:19:45.576,STABILIZE,-35.3632621,149.1652374,0,-0.00010551935702096671,0.0014272765256464481,0.02945404313504696,0.0002815454499796033,0.000316279852995649,0.002595511730760336,0,1,-1000,0,0,0,0,0,0,205005.0
09:19:45.777,STABILIZE,-35.3632621,149.1652374,0,-0.00010551935702096671,0.0014272765256464481,0.02945404313504696,0.0002815454499796033,0.000316279852995649,0.002595511730760336,0,1,-1000,0,0,0,0,0,0,205005.0
09:19:45.978,STABILIZE,-35.3632621,149.1652374,0,-1.3943520571046975e-05,0.0015904682222753763,0.02876317873597145,0.00032049918081611395,0.000288210780126974,0.0024059477727860212,0,1,-1000,0,0,0,-1,1,0,205005.0
09:19:46.179,STABILIZE,-35.3632621,149.1652374,0,-1.3943520571046975e-05,0.0015904682222753763,0.02876317873597145,0.00032049918081611395,0.000288210780126974,0.0024059477727860212,0,1,-1000,0,0,0,-1,1,0,205005.0
09:19:46.380,STABILIZE,-35.3632621,149.1652374,0,-1.3943520571046975e-05,0.0015904682222753763,0.02876317873597145,0.00032049918081611395,0.000288210780126974,0.0024059477727860212,0,1,-1000,0,0,0,-1,1,0,205005.0
09:19:46.581,STABILIZE,-35.3632621,149.1652374,0,-1.3943520571046975e-05,0.0015904682222753763,0.02876317873597145,0.00032049918081611395,0.000288210780126974,0.0024059477727860212,0,1,-1000,0,0,0,-1,1,0,205005.0
09:19:46.783,STABILIZE,-35.3632621,149.1652374,0,-1.3943520571046975e-05,0.0015904682222753763,0.02876317873597145,0.00032049918081611395,0.000288210780126974,0.0024059477727860212,0,1,-1000,0,0,0,-1,1,0,205005.0
09:19:46.984,STABILIZE,-35.3632621,149.1652375,0,0.0002282734349137172,0.001554393209517002,0.02811335399746895,0.00040911833639256656,0.00025383246247656643,0.002316215541213751,0,1,-1001,0,0,1,-2,2,1,205005.0
09:19:47.185,STABILIZE,-35.3632621,149.1652375,0,0.0002282734349137172,0.001554393209517002,0.02811335399746895,0.00040911833639256656,0.00025383246247656643,0.002316215541213751,0,1,-1001,0,0,1,-2,2,1,205005.0
09:19:47.386,STABILIZE,-35.3632621,149.1652375,0,0.0002282734349137172,0.001554393209517002,0.02811335399746895,0.00040911833639256656,0.00025383246247656643,0.002316215541213751,0,1,-1001,0,0,1,-2,2,1,205005.0
09:19:47.587,STABILIZE,-35.3632621,149.1652375,0,0.0002282734349137172,0.001554393209517002,0.02811335399746895,0.00040911833639256656,0.00025383246247656643,0.002316215541213751,0,1,-1001,0,0,1,-2,2,1,205005.0
09:19:47.788,STABILIZE,-35.3632621,149.1652375,0,0.0002282734349137172,0.001554393209517002,0.02811335399746895,0.00040911833639256656,0.00025383246247656643,0.002316215541213751,0,1,-1001,0,0,1,-2,2,1,205005.0
09:19:47.990,STABILIZE,-35.3632621,149.1652375,0,0.0002282734349137172,0.001554393209517002,0.02811335399746895,0.00040911833639256656,0.00025383246247656643,0.002316215541213751,0,1,-1001,0,0,1,-2,2,1,205005.0
09:19:48.194,STABILIZE,-35.3632621,149.1652375,0,0.0002282734349137172,0.001554393209517002,0.02811335399746895,0.00040911833639256656,0.00025383246247656643,0.002316215541213751,0,1,-1001,0,0,1,-2,2,1,205005.0
09:19:48.399,STABILIZE,-35.3632621,149.1652375,0,0.0002282734349137172,0.001554393209517002,0.02811335399746895,0.00040911833639256656,0.00025383246247656643,0.002316215541213751,0,1,-1001,0,0,1,-2,2,1,205005.0
09:19:48.600,STABILIZE,-35.3632621,149.1652375,0,0.0002282734349137172,0.001554393209517002,0.02811335399746895,0.00040911833639256656,0.00025383246247656643,0.002316215541213751,0,1,-1001,0,0,1,-2,2,1,205005.0
09:19:48.801,STABILIZE,-35.3632622,149.1652375,0,-0.0005660605966113508,0.0011489074677228928,0.02691320702433586,0.00013798760483041406,0.0002068989269901067,0.002203247044235468,0,1,-1000,0,0,0,-1,1,0,205005.0
09:19:49.003,STABILIZE,-35.3632622,149.1652375,0,-0.0005660605966113508,0.0011489074677228928,0.02691320702433586,0.00013798760483041406,0.0002068989269901067,0.002203247044235468,0,1,-1000,0,0,0,-1,1,0,205005.0
09:19:49.204,STABILIZE,-35.3632622,149.1652375,0,-0.0005660605966113508,0.0011489074677228928,0.02691320702433586,0.00013798760483041406,0.0002068989269901067,0.002203247044235468,0,1,-1000,0,0,0,-1,1,0,205005.0
09:19:49.405,STABILIZE,-35.3632622,149.1652375,0,-0.0005660605966113508,0.0011489074677228928,0.02691320702433586,0.00013798760483041406,0.0002068989269901067,0.002203247044235468,0,1,-1000,0,0,0,-1,1,0,205005.0
09:19:49.606,STABILIZE,-35.3632622,149.1652375,0,-0.0005660605966113508,0.0011489074677228928,0.02691320702433586,0.00013798760483041406,0.0002068989269901067,0.002203247044235468,0,1,-1000,0,0,0,-1,1,0,205005.0
09:19:49.807,STABILIZE,-35.3632622,149.1652375,0,-0.0008171843946911395,0.00099897850304842,0.026457134634256363,0.0003024672041647136,0.00030219805194064975,0.0021084798499941826,0,1,-1000,0,0,1,-1,1,0,205005.0
09:19:50.009,STABILIZE,-35.3632622,149.1652375,0,-0.0008171843946911395,0.00099897850304842,0.026457134634256363,0.0003024672041647136,0.00030219805194064975,0.0021084798499941826,0,1,-1000,0,0,1,-1,1,0,205005.0
09:19:50.210,STABILIZE,-35.3632622,149.1652375,0,-0.0008171843946911395,0.00099897850304842,0.026457134634256363,0.0003024672041647136,0.00030219805194064975,0.0021084798499941826,0,1,-1000,0,0,1,-1,1,0,205005.0
09:19:50.412,STABILIZE,-35.3632622,149.1652375,0,-0.0008171843946911395,0.00099897850304842,0.026457134634256363,0.0003024672041647136,0.00030219805194064975,0.0021084798499941826,0,1,-1000,0,0,1,-1,1,0,205005.0
09:19:50.613,STABILIZE,-35.3632622,149.1652375,0,-0.0008171843946911395,0.00099897850304842,0.026457134634256363,0.0003024672041647136,0.00030219805194064975,0.0021084798499941826,0,1,-1000,0,0,1,-1,1,0,205005.0
09:19:50.814,STABILIZE,-35.3632621,149.1652375,0,-0.0008171843946911395,0.00099897850304842,0.026457134634256363,0.0003024672041647136,0.00030219805194064975,0.0021084798499941826,0,1,-1000,0,0,0,-1,1,0,205005.0
09:19:51.015,STABILIZE,-35.3632621,149.1652375,0,-0.0008171843946911395,0.00099897850304842,0.026457134634256363,0.0003024672041647136,0.00030219805194064975,0.0021084798499941826,0,1,-1000,0,0,0,-1,1,0,205005.0
09:19:51.217,STABILIZE,-35.3632621,149.1652375,0,-0.0008171843946911395,0.00099897850304842,0.026457134634256363,0.0003024672041647136,0.00030219805194064975,0.0021084798499941826,0,1,-1000,0,0,0,-1,1,0,205005.0
09:19:51.418,STABILIZE,-35.3632621,149.1652375,0,-0.0008171843946911395,0.00099897850304842,0.026457134634256363,0.0003024672041647136,0.00030219805194064975,0.0021084798499941826,0,1,-1000,0,0,0,-1,1,0,205005.0
09:19:51.619,STABILIZE,-35.3632621,149.1652375,0,-0.0008171843946911395,0.00099897850304842,0.026457134634256363,0.0003024672041647136,0.00030219805194064975,0.0021084798499941826,0,1,-1000,0,0,0,-1,1,0,205005.0
09:19:51.820,STABILIZE,-35.3632621,149.1652375,0,-0.0008555403328500688,0.0009072863031178713,0.025688664987683296,0.0001784994383342564,0.00023388327099382877,0.001899924362078309,0,1,-1000,0,0,0,-1,1,0,205005.0
09:19:52.021,STABILIZE,-35.3632621,149.1652375,0,-0.0008555403328500688,0.0009072863031178713,0.025688664987683296,0.0001784994383342564,0.00023388327099382877,0.001899924362078309,0,1,-1000,0,0,0,-1,1,0,205005.0
09:19:52.223,STABILIZE,-35.3632621,149.1652375,0,-0.0008555403328500688,0.0009072863031178713,0.025688664987683296,0.0001784994383342564,0.00023388327099382877,0.001899924362078309,0,1,-1000,0,0,0,-1,1,0,205005.0
09:19:52.424,STABILIZE,-35.3632621,149.1652375,0,-0.0008555403328500688,0.0009072863031178713,0.025688664987683296,0.0001784994383342564,0.00023388327099382877,0.001899924362078309,0,1,-1000,0,0,0,-1,1,0,205005.0
09:19:52.626,STABILIZE,-35.3632621,149.1652375,0,-0.0008555403328500688,0.0009072863031178713,0.025688664987683296,0.0001784994383342564,0.00023388327099382877,0.001899924362078309,0,1,-1000,0,0,0,-1,1,0,205005.0
09:19:52.828,STABILIZE,-35.3632621,149.1652375,0,-0.0009267825516872108,0.000903526961337775,0.02530570514500141,0.0001453427830711007,0.0002803831594064832,0.0018567985389381647,0,1,-1000,0,0,0,-1,1,0,205005.0
09:19:53.029,STABILIZE,-35.3632621,149.1652375,0,-0.0009267825516872108,0.000903526961337775,0.02530570514500141,0.0001453427830711007,0.0002803831594064832,0.0018567985389381647,0,1,-1000,0,0,0,-1,1,0,205005.0
09:19:53.231,STABILIZE,-35.3632621,149.1652375,0,-0.0009267825516872108,0.000903526961337775,0.02530570514500141,0.0001453427830711007,0.0002803831594064832,0.0018567985389381647,0,1,-1000,0,0,0,-1,1,0,205005.0
09:19:53.432,STABILIZE,-35.3632621,149.1652375,0,-0.0009511079406365752,0.000916010292712599,0.025117836892604828,0.0001833600690588355,0.0002864117850549519,0.001777465920895338,0,1,-1000,0,1,0,-1,1,0,205005.0
09:19:53.633,STABILIZE,-35.3632621,149.1652375,0,-0.0009594818111509085,0.0009288036380894482,0.02505287155508995,0.00014360120985656977,0.0002750294515863061,0.0019123952370136976,0,1,-1000,0,0,0,-1,1,0,205005.0
09:19:53.835,STABILIZE,-35.3632621,149.1652375,0,-0.000644245941657573,0.0009415355743840337,0.024962011724710464,0.00019591685850173235,0.00025126844411715865,0.0019224057905375957,0,1,-1000,0,0,0,-1,2,1,205005.0
09:19:54.036,STABILIZE,-35.3632621,149.1652375,0,-0.000644245941657573,0.0009415355743840337,0.024962011724710464,0.00019591685850173235,0.00025126844411715865,0.0019224057905375957,0,1,-1000,0,0,0,-1,2,1,205005.0
09:19:54.237,STABILIZE,-35.3632621,149.1652375,0,-0.000644245941657573,0.0009415355743840337,0.024962011724710464,0.00019591685850173235,0.00025126844411715865,0.0019224057905375957,0,1,-1000,0,0,0,-1,2,1,205005.0
09:19:54.439,STABILIZE,-35.3632621,149.1652375,0,-0.000644245941657573,0.0009415355743840337,0.024962011724710464,0.00019591685850173235,0.00025126844411715865,0.0019224057905375957,0,1,-1000,0,0,0,-1,2,1,205005.0
09:19:54.640,STABILIZE,-35.3632621,149.1652375,0,-0.0007675140514038503,0.0009597024763934314,0.024707837030291557,0.0003890830557793379,0.00031332240905612707,0.0020123699214309454,0,1,-1000,0,0,0,-1,1,0,205005.0
09:19:54.842,STABILIZE,-35.3632621,149.1652375,0,-0.0007675140514038503,0.0009597024763934314,0.024707837030291557,0.0003890830557793379,0.00031332240905612707,0.0020123699214309454,0,1,-1000,0,0,0,-1,1,0,205005.0
09:19:55.043,STABILIZE,-35.3632621,149.1652375,0,-0.0008508844766765833,0.0009727742290124297,0.02452847920358181,0.00014467962319031358,0.0003663746756501496,0.0017794875893741846,0,1,-1000,0,0,0,-1,1,0,205005.0
09:19:55.245,STABILIZE,-35.3632621,149.1652375,0,-0.0008508844766765833,0.0009727742290124297,0.02452847920358181,0.00014467962319031358,0.0003663746756501496,0.0017794875893741846,0,1,-1000,0,0,0,-1,1,0,205005.0
09:19:55.446,STABILIZE,-35.3632621,149.1652375,0,-0.0008508844766765833,0.0009727742290124297,0.02452847920358181,0.00014467962319031358,0.0003663746756501496,0.0017794875893741846,0,1,-1000,0,0,0,-1,1,0,205005.0
09:19:55.647,STABILIZE,-35.3632621,149.1652375,0,-0.0008508844766765833,0.0009727742290124297,0.02452847920358181,0.00014467962319031358,0.0003663746756501496,0.0017794875893741846,0,2,-1000,0,0,0,-1,1,0,205005.0
09:19:55.848,STABILIZE,-35.3632621,149.1652375,0,-0.0008508844766765833,0.0009727742290124297,0.02452847920358181,0.00014467962319031358,0.0003663746756501496,0.0017794875893741846,0,2,-1000,0,0,0,-1,1,0,205005.0
09:19:56.050,STABILIZE,-35.3632621,149.1652375,0,-0.0008508844766765833,0.0009727742290124297,0.02452847920358181,0.00014467962319031358,0.0003663746756501496,0.0017794875893741846,0,2,-1000,0,0,0,-1,1,0,205005.0
09:19:56.251,STABILIZE,-35.3632621,149.1652375,0,-0.0008508844766765833,0.0009727742290124297,0.02452847920358181,0.00014467962319031358,0.0003663746756501496,0.0017794875893741846,0,2,-1000,0,0,0,-1,1,0,205005.0
09:19:56.452,STABILIZE,-35.3632621,149.1652375,0,-0.0008508844766765833,0.0009727742290124297,0.02452847920358181,0.00014467962319031358,0.0003663746756501496,0.0017794875893741846,0,2,-1000,0,0,0,-1,1,0,205005.0
09:19:56.654,STABILIZE,-35.3632621,149.1652375,0,-0.0008508844766765833,0.0009727742290124297,0.02452847920358181,0.00014467962319031358,0.0003663746756501496,0.0017794875893741846,0,2,-1000,0,0,0,-1,1,0,205005.0
09:19:56.855,STABILIZE,-35.3632622,149.1652375,0,-0.001076944638043642,0.0009895657422021031,0.02398095279932022,0.00022565352264791727,0.0002859476371668279,0.0017584199085831642,0,2,-1000,1,0,0,-1,1,0,205005.0
09:19:57.056,STABILIZE,-35.3632622,149.1652375,0,-0.001096853637136519,0.000997726689092815,0.023907238617539406,0.0001558164949528873,0.00027667422546073794,0.0017544582951813936,0,2,-1000,0,0,0,-1,1,0,205005.0
09:19:57.257,STABILIZE,-35.3632622,149.1652375,0,-0.001123890746384859,0.0009914810070767999,0.023830972611904144,0.0001914864405989647,0.0002286946983076632,0.0017297369195148349,0,1,-1000,0,0,0,-1,0,-3,205005.0
09:19:57.459,STABILIZE,-35.3632622,149.1652375,0,-0.001123890746384859,0.0009914810070767999,0.023830972611904144,0.0001914864405989647,0.0002286946983076632,0.0017297369195148349,0,1,-1000,0,0,0,-1,0,-3,205005.0
09:19:57.660,STABILIZE,-35.3632622,149.1652375,0,-0.001123890746384859,0.0009914810070767999,0.023830972611904144,0.0001914864405989647,0.0002286946983076632,0.0017297369195148349,0,1,-1000,0,0,0,-1,0,-3,205005.0
09:19:57.862,STABILIZE,-35.3632622,149.1652375,0,-0.001123890746384859,0.0009914810070767999,0.023830972611904144,0.0001914864405989647,0.0002286946983076632,0.0017297369195148349,0,1,-1000,0,0,1,-1,0,-2,205005.0
09:19:58.063,STABILIZE,-35.3632622,149.1652375,0,-0.001123890746384859,0.0009914810070767999,0.023830972611904144,0.0001914864405989647,0.0002286946983076632,0.0017297369195148349,0,1,-1000,0,0,1,-1,0,-2,205005.0
09:19:58.265,STABILIZE,-35.3632622,149.1652375,0,-0.001123890746384859,0.0009914810070767999,0.023830972611904144,0.0001914864405989647,0.0002286946983076632,0.0017297369195148349,0,1,-1000,0,0,1,-1,0,-2,205005.0
09:19:58.466,STABILIZE,-35.3632622,149.1652375,0,-0.001123890746384859,0.0009914810070767999,0.023830972611904144,0.0001914864405989647,0.0002286946983076632,0.0017297369195148349,0,1,-1000,0,0,1,-1,0,-2,205005.0
09:19:58.668,STABILIZE,-35.3632622,149.1652375,0,-0.001123890746384859,0.0009914810070767999,0.023830972611904144,0.0001914864405989647,0.0002286946983076632,0.0017297369195148349,0,1,-1000,0,0,1,-1,0,-2,205005.0
09:19:58.869,STABILIZE,-35.3632622,149.1652375,0,-0.000827290874440223,0.000980124226771295,0.023426461964845657,0.0002901862026192248,0.00017523329006507993,0.0016176998615264893,0,1,-1000,1,0,0,-1,0,-2,205005.0
09:19:59.070,STABILIZE,-35.3632622,149.1652375,0,-0.000827290874440223,0.000980124226771295,0.023426461964845657,0.0002901862026192248,0.00017523329006507993,0.0016176998615264893,0,1,-1000,1,0,0,-1,0,-2,205005.0
09:19:59.272,STABILIZE,-35.3632622,149.1652375,0,-0.0007552172755822539,0.0009799239924177527,0.023279838263988495,0.00025559007190167904,0.0002376090851612389,0.001566632417961955,0,2,-1000,1,0,1,-1,0,-2,205005.0
09:19:59.473,STABILIZE,-35.3632622,149.1652375,0,-0.0007552172755822539,0.0009799239924177527,0.023279838263988495,0.00025559007190167904,0.0002376090851612389,0.001566632417961955,0,2,-1000,1,0,1,-1,0,-2,205005.0
09:19:59.674,STABILIZE,-35.3632622,149.1652375,0,-0.0007552172755822539,0.0009799239924177527,0.023279838263988495,0.00025559007190167904,0.0002376090851612389,0.001566632417961955,0,2,-1000,1,0,1,-1,0,-2,205005.0
09:19:59.875,STABILIZE,-35.3632622,149.1652375,0,-0.0007154906634241343,0.0009754536440595984,0.02313714660704136,0.0003144739312119782,0.00019574014004319906,0.0016677991952747107,0,1,-1000,1,1,0,-1,1,-1,205005.0
09:20:00.077,STABILIZE,-35.3632622,149.1652375,0,-0.0007154906634241343,0.0009754536440595984,0.02313714660704136,0.0003144739312119782,0.00019574014004319906,0.0016677991952747107,0,1,-1000,1,1,0,-1,1,-1,205005.0
09:20:00.278,STABILIZE,-35.3632622,149.1652375,0,-0.0007154906634241343,0.0009754536440595984,0.02313714660704136,0.0003144739312119782,0.00019574014004319906,0.0016677991952747107,0,1,-1000,1,1,0,-1,1,-1,205005.0
09:20:00.479,STABILIZE,-35.3632622,149.1652375,0,-0.0007154906634241343,0.0009754536440595984,0.02313714660704136,0.0003144739312119782,0.00019574014004319906,0.0016677991952747107,0,1,-1000,1,1,0,-1,1,-1,205005.0
09:20:00.681,STABILIZE,-35.3632622,149.1652375,0,-0.0007154906634241343,0.0009754536440595984,0.02313714660704136,0.0003144739312119782,0.00019574014004319906,0.0016677991952747107,0,1,-1000,1,1,0,-1,1,-1,205005.0
09:20:00.882,STABILIZE,-35.3632622,149.1652375,0,-0.0005315307644195855,0.0009704211261123419,0.022869402542710304,0.0003370280610397458,0.00040001689922064543,0.00150842044968158,0,1,-1000,0,0,1,-1,0,-2,205005.0
09:20:01.083,STABILIZE,-35.3632622,149.1652375,0,-0.0005134485545568168,0.0009658056078478694,0.022779155522584915,0.0002583145978860557,0.00034309009788557887,0.0015237820334732533,0,1,-1000,1,1,0,-1,0,-2,205005.0
09:20:01.285,STABILIZE,-35.3632622,149.1652375,0,-0.0004938849015161395,0.000959162600338459,0.022705940529704094,0.0002965190797112882,0.0003753704368136823,0.0015845962334424257,0,1,-1000,1,1,0,-1,0,-2,205005.0
09:20:01.486,STABILIZE,-35.3632622,149.1652375,0,-0.0004938849015161395,0.000959162600338459,0.022705940529704094,0.0002965190797112882,0.0003753704368136823,0.0015845962334424257,0,1,-1000,1,1,0,-1,0,-2,205005.0
09:20:01.687,STABILIZE,-35.3632622,149.1652375,0,-0.00046685023698955774,0.0009625355014577508,0.02263203077018261,0.0004680266138166189,0.00025242235278710723,0.0015859762206673622,0,1,-1000,1,1,0,-1,1,-2,205005.0
09:20:01.889,STABILIZE,-35.3632622,149.1652375,0,-0.00045200352906249464,0.0009591319249011576,0.022550923749804497,0.0003701013047248125,0.00031220505479723215,0.0015454094391316175,0,1,-1000,1,1,0,-1,1,-2,205005.0
09:20:02.100,STABILIZE,-35.3632622,149.1652375,0,-0.00045200352906249464,0.0009591319249011576,0.022550923749804497,0.0003701013047248125,0.00031220505479723215,0.0015454094391316175,0,1,-1000,1,1,0,-1,1,-2,205005.0
09:20:02.302,STABILIZE,-35.3632622,149.1652375,0,-0.00045200352906249464,0.0009591319249011576,0.022550923749804497,0.0003701013047248125,0.00031220505479723215,0.0015454094391316175,0,1,-1000,1,1,0,-1,1,-2,205005.0
09:20:02.504,STABILIZE,-35.3632622,149.1652375,0,-0.0004394315474200994,0.0009695673943497241,0.022345975041389465,0.00025675276992842555,0.000333648466039449,0.0015680836513638496,0,2,-1000,1,0,0,-1,1,-1,205005.0
09:20:02.705,STABILIZE,-35.3632622,149.1652375,0,-0.0004394315474200994,0.0009695673943497241,0.022345975041389465,0.00025675276992842555,0.000333648466039449,0.0015680836513638496,0,2,-1000,1,0,0,-1,1,-1,205005.0
09:20:02.906,STABILIZE,-35.3632622,149.1652375,0,-0.0004394315474200994,0.0009695673943497241,0.022345975041389465,0.00025675276992842555,0.000333648466039449,0.0015680836513638496,0,2,-1000,1,0,0,-1,1,-1,205005.0
09:20:03.108,STABILIZE,-35.3632622,149.1652375,0,-0.0004394315474200994,0.0009695673943497241,0.022345975041389465,0.00025675276992842555,0.000333648466039449,0.0015680836513638496,0,2,-1000,1,0,0,-1,1,-1,205005.0
09:20:03.309,STABILIZE,-35.3632622,149.1652375,0,-0.0004394315474200994,0.0009695673943497241,0.022345975041389465,0.00025675276992842555,0.000333648466039449,0.0015680836513638496,0,1,-1000,1,0,0,-1,1,-1,205005.0
09:20:03.511,STABILIZE,-35.3632622,149.1652375,0,-0.0004394315474200994,0.0009695673943497241,0.022345975041389465,0.00025675276992842555,0.000333648466039449,0.0015680836513638496,0,1,-1000,1,0,0,-1,1,-1,205005.0
09:20:03.712,STABILIZE,-35.3632622,149.1652375,0,-0.0004394315474200994,0.0009695673943497241,0.022345975041389465,0.00025675276992842555,0.000333648466039449,0.0015680836513638496,0,1,-1000,1,0,0,-1,1,-1,205005.0
09:20:03.913,STABILIZE,-35.3632622,149.1652375,0,-0.0004394315474200994,0.0009695673943497241,0.022345975041389465,0.00025675276992842555,0.000333648466039449,0.0015680836513638496,0,1,-1000,1,0,0,-1,1,-1,205005.0
09:20:04.114,STABILIZE,-35.3632622,149.1652375,0,-0.0004394315474200994,0.0009695673943497241,0.022345975041389465,0.00025675276992842555,0.000333648466039449,0.0015680836513638496,0,1,-1000,1,0,0,-1,1,-1,205005.0
09:20:04.315,STABILIZE,-35.3632622,149.1652375,0,-0.0004394315474200994,0.0009695673943497241,0.022345975041389465,0.00025675276992842555,0.000333648466039449,0.0015680836513638496,0,1,-1000,1,0,0,-1,1,-1,205005.0
09:20:04.517,STABILIZE,-35.3632622,149.1652375,0,-0.0004394315474200994,0.0009695673943497241,0.022345975041389465,0.00025675276992842555,0.000333648466039449,0.0015680836513638496,0,1,-1000,0,1,1,-1,1,-1,205005.0
09:20:04.718,STABILIZE,-35.3632622,149.1652375,0,-0.0004394315474200994,0.0009695673943497241,0.022345975041389465,0.00025675276992842555,0.000333648466039449,0.0015680836513638496,0,1,-1000,0,1,1,-1,1,-1,205005.0
09:20:04.919,STABILIZE,-35.3632622,149.1652375,0,-0.0004394315474200994,0.0009695673943497241,0.022345975041389465,0.00025675276992842555,0.000333648466039449,0.0015680836513638496,0,1,-1000,0,1,0,-1,1,-1,205005.0
09:20:05.120,STABILIZE,-35.3632622,149.1652376,0,-0.00041862440411932766,0.0009699566871859133,0.02159455232322216,0.00033173244446516037,0.0002781167277134955,0.0015139065217226744,0,1,-1000,0,1,0,-1,2,0,205005.0
09:20:05.321,STABILIZE,-35.3632622,149.1652376,0,-0.00041862440411932766,0.0009699566871859133,0.02159455232322216,0.00033173244446516037,0.0002781167277134955,0.0015139065217226744,0,1,-1000,0,1,0,-1,2,0,205005.0
09:20:05.522,STABILIZE,-35.3632622,149.1652376,0,-0.0005483345594257116,0.0009615888702683151,0.02145640179514885,0.00031809642678126693,0.00027740083169192076,0.0013825963251292706,0,1,-1000,0,1,0,-1,2,0,205005.0
09:20:05.723,STABILIZE,-35.3632622,149.1652376,0,-0.0005483345594257116,0.0009615888702683151,0.02145640179514885,0.00031809642678126693,0.00027740083169192076,0.0013825963251292706,0,1,-1000,0,1,0,-1,2,0,205005.0
09:20:05.925,STABILIZE,-35.3632622,149.1652376,0,-0.0005962575669400394,0.0009725040290504694,0.021407602354884148,0.00020310754189267755,0.0002532724174670875,0.0015284278197214007,0,1,-1000,1,0,0,-1,2,0,205005.0
09:20:06.126,STABILIZE,-35.3632622,149.1652376,0,-0.0005962575669400394,0.0009725040290504694,0.021407602354884148,0.00020310754189267755,0.0002532724174670875,0.0015284278197214007,0,1,-1000,1,0,0,-1,2,0,205005.0
09:20:06.327,STABILIZE,-35.3632622,149.1652376,0,-0.0005962575669400394,0.0009725040290504694,0.021407602354884148,0.00020310754189267755,0.0002532724174670875,0.0015284278197214007,0,1,-1000,1,0,0,-1,2,0,205005.0
09:20:06.528,STABILIZE,-35.3632622,149.1652376,0,-0.0005962575669400394,0.0009725040290504694,0.021407602354884148,0.00020310754189267755,0.0002532724174670875,0.0015284278197214007,0,1,-1000,1,0,0,-1,2,0,205005.0
09:20:06.730,STABILIZE,-35.3632622,149.1652376,0,-0.0005962575669400394,0.0009725040290504694,0.021407602354884148,0.00020310754189267755,0.0002532724174670875,0.0015284278197214007,0,1,-1000,1,0,0,-1,2,0,205005.0
09:20:06.932,STABILIZE,-35.3632622,149.1652376,0,-0.0005962575669400394,0.0009725040290504694,0.021407602354884148,0.00020310754189267755,0.0002532724174670875,0.0015284278197214007,0,1,-1000,1,0,0,-1,2,0,205005.0
09:20:07.134,STABILIZE,-35.3632622,149.1652376,0,-0.0005962575669400394,0.0009725040290504694,0.021407602354884148,0.00020310754189267755,0.0002532724174670875,0.0015284278197214007,0,1,-1000,1,0,0,-1,2,0,205005.0
09:20:07.336,STABILIZE,-35.3632622,149.1652376,0,-0.0005962575669400394,0.0009725040290504694,0.021407602354884148,0.00020310754189267755,0.0002532724174670875,0.0015284278197214007,0,1,-1000,1,0,0,-1,2,0,205005.0
09:20:07.537,STABILIZE,-35.3632622,149.1652376,0,-0.0005962575669400394,0.0009725040290504694,0.021407602354884148,0.00020310754189267755,0.0002532724174670875,0.0015284278197214007,0,1,-1000,1,0,0,-1,2,0,205005.0
09:20:07.738,STABILIZE,-35.3632622,149.1652376,0,-0.0005962575669400394,0.0009725040290504694,0.021407602354884148,0.00020310754189267755,0.0002532724174670875,0.0015284278197214007,0,1,-1000,1,0,0,-1,2,0,205005.0
09:20:07.940,STABILIZE,-35.3632622,149.1652375,0,-0.0007757222047075629,0.0009781339904293418,0.021012354642152786,0.00023169198539108038,0.0001445989473722875,0.0013708422193303704,0,1,-1000,1,0,0,-1,1,0,205005.0
09:20:08.141,AUTO,-35.3632622,149.1652375,0,-0.0007757222047075629,0.0009781339904293418,0.021012354642152786,0.00023169198539108038,0.0001445989473722875,0.0013708422193303704,0,1,-1000,1,0,0,-1,1,0,205005.0
09:20:08.343,AUTO,-35.3632622,149.1652375,0,-0.0007757222047075629,0.0009781339904293418,0.021012354642152786,0.00023169198539108038,0.0001445989473722875,0.0013708422193303704,0,1,-1000,1,0,0,-1,1,0,205005.0
09:20:08.544,AUTO,-35.3632622,149.1652375,0,-0.0008004975388757885,0.000981775694526732,0.0209199208766222,0.00021701015066355467,0.00026633183006197214,0.0013714078813791275,0,1,-1000,0,0,0,-1,1,0,205005.0
09:20:08.745,AUTO,-35.3632622,149.1652375,0,-0.0008050401811487973,0.0009916045237332582,0.020879000425338745,0.00031932623824104667,0.00028851471142843366,0.0013434157008305192,0,1,-1000,1,1,1,-1,1,0,205005.0
09:20:08.946,AUTO,-35.3632622,149.1652375,0,-0.0008050401811487973,0.0009916045237332582,0.020879000425338745,0.00031932623824104667,0.00028851471142843366,0.0013434157008305192,0,1,-1000,1,1,1,-1,1,0,205005.0
09:20:09.148,AUTO,-35.3632621,149.1652375,0,-0.0008012393373064697,0.0010107810376212,0.020848235115408897,0.00017427478451281786,0.0002902056439779699,0.0013550147414207458,0,2,-1000,0,0,0,-1,0,0,205005.0
09:20:09.349,AUTO,-35.3632621,149.1652375,0,-0.0007906618411652744,0.0010396870784461498,0.020805342122912407,0.0002516304375603795,0.00025034515419974923,0.0013680054107680917,0,1,-1000,0,0,0,0,0,0,205005.0
09:20:09.551,AUTO,-35.3632621,149.1652375,0,-0.0007566162967123091,0.0010799374431371689,0.020772596821188927,0.00032985745929181576,0.00021501409355551004,0.0014248096849769354,0,2,-1000,0,0,0,0,0,0,205005.0
09:20:09.752,AUTO,-35.3632621,149.1652375,0,-0.0007150401943363249,0.001132722944021225,0.02073061093688011,0.00034992763539776206,0.00021009339252486825,0.0012942531611770391,0,2,-1000,1,0,0,0,0,0,205005.0
09:20:09.954,AUTO,-35.3632621,149.1652375,0,-0.0007150401943363249,0.001132722944021225,0.02073061093688011,0.00034992763539776206,0.00021009339252486825,0.0012942531611770391,0,2,-1000,1,0,0,0,0,0,205005.0
09:20:10.159,AUTO,-35.3632621,149.1652375,0,-0.0007150401943363249,0.001132722944021225,0.02073061093688011,0.00034992763539776206,0.00021009339252486825,0.0012942531611770391,0,2,-1000,1,0,0,0,0,0,205005.0
09:20:10.361,AUTO,-35.3632621,149.1652375,0,-0.0007150401943363249,0.001132722944021225,0.02073061093688011,0.00034992763539776206,0.00021009339252486825,0.0012942531611770391,0,2,-1000,1,0,0,0,0,0,186502.0
09:20:10.563,AUTO,-35.3632621,149.1652375,0,-0.0007150401943363249,0.001132722944021225,0.02073061093688011,0.00034992763539776206,0.00021009339252486825,0.0012942531611770391,0,2,-1000,1,0,0,0,0,0,186502.0
09:20:10.765,AUTO,-35.3632621,149.1652375,0,-0.0005524424486793578,0.0013646648731082678,0.0205922182649374,0.00030939048156142235,0.00025021820329129696,0.0012985257199034095,0,1,-1000,1,0,0,0,0,0,186502.0
09:20:10.966,AUTO,-35.3632621,149.1652375,0,-0.00050158187514171,0.0014414695324376225,0.020528990775346756,0.00017261336324736476,0.00028884178027510643,0.0012300019152462482,0,1,-1000,1,1,1,0,0,0,186502.0
09:20:11.167,AUTO,-35.3632621,149.1652375,0,-0.0004441135097295046,0.0015134625136852264,0.020488500595092773,0.0003202305524609983,0.00031973375007510185,0.0013550828443840146,0,1,-1000,0,0,1,0,0,0,186502.0
09:20:11.369,AUTO,-35.3632621,149.1652375,0,-0.0003823757288046181,0.0015928188804537058,0.02044963277876377,0.00031765952007845044,0.0003342012641951442,0.0012562114279717207,0,1,-1000,1,0,0,0,0,0,186502.0
09:20:11.570,AUTO,-35.3632621,149.1652375,0,-0.0003823757288046181,0.0015928188804537058,0.02044963277876377,0.00031765952007845044,0.0003342012641951442,0.0012562114279717207,0,1,-1000,1,0,0,0,0,0,186502.0
09:20:11.772,AUTO,-35.3632621,149.1652375,0,-0.0003128137905150652,0.001667903270572424,0.02039370685815811,0.0004883655346930027,0.0001911320141516626,0.0013035228475928307,0,1,-1000,1,1,0,0,0,0,186502.0
09:20:11.973,AUTO,-35.3632621,149.1652375,0,-0.00024770633899606764,0.0017456001369282603,0.02034597285091877,0.0002787149278447032,0.0004069563583470881,0.0013129733270034194,0,1,-1000,1,0,0,0,0,0,186502.0
09:20:12.175,AUTO,-35.3632621,149.1652375,0,-0.00024770633899606764,0.0017456001369282603,0.02034597285091877,0.0002787149278447032,0.0004069563583470881,0.0013129733270034194,0,1,-1000,1,0,0,0,0,0,186502.0
09:20:12.376,AUTO,-35.3632621,149.1652375,0,-0.00024770633899606764,0.0017456001369282603,0.02034597285091877,0.0002787149278447032,0.0004069563583470881,0.0013129733270034194,0,1,-1000,1,0,0,0,0,0,186502.0
09:20:12.578,AUTO,-35.3632621,149.1652375,129,0.003317328402772546,-0.00025446232757531106,0.020341375842690468,-0.003719060216099024,0.003769915085285902,0.0018898987909778953,0,0,-1137,-2,4,1,0,0,-58,186502.0
09:20:12.779,AUTO,-35.3632621,149.1652375,314,0.0023477915674448013,0.000856276135891676,0.020277012139558792,0.0027268873527646065,0.00438394071534276,0.0016282161232084036,0,0,-1117,3,5,1,0,1,-88,186502.0
09:20:12.981,AUTO,-35.3632621,149.1652375,314,0.0023477915674448013,0.000856276135891676,0.020277012139558792,0.0027268873527646065,0.00438394071534276,0.0016282161232084036,0,0,-1117,3,5,1,0,1,-88,186502.0
09:20:13.183,AUTO,-35.3632621,149.1652375,567,0.0015034262323752046,0.0015077551361173391,0.02013985998928547,-0.004716656636446714,0.002652574796229601,0.001627448364160955,0,0,-1097,-3,3,1,0,0,-114,186502.0
09:20:13.385,AUTO,-35.3632621,149.1652375,879,0.005673045292496681,0.0014897669898346066,0.019763002172112465,0.04294505715370178,-0.003688385244458914,0.00039988014032132924,0,0,-1060,43,-3,0,0,1,-133,186502.0
09:20:13.586,AUTO,-35.3632621,149.1652375,1237,0.017541877925395966,-2.5296212697867304e-05,0.019589539617300034,0.047599636018276215,-0.00718573946505785,0.0014023765688762069,0,0,-1025,48,-6,1,0,3,-142,186502.0
09:20:13.788,AUTO,-35.363262,149.1652376,1611,0.029180388897657394,-0.0018961193272843957,0.019615592435002327,0.04595574736595154,-0.007659177761524916,0.0022066582459956408,0,-1,-1010,46,-7,2,1,8,-146,186502.0
09:20:13.990,AUTO,-35.363262,149.1652376,1611,0.029180388897657394,-0.0018961193272843957,0.019615592435002327,0.04595574736595154,-0.007659177761524916,0.0022066582459956408,0,-1,-1010,46,-7,2,1,8,-146,186502.0
09:20:14.192,AUTO,-35.363262,149.1652376,1611,0.029180388897657394,-0.0018961193272843957,0.019615592435002327,0.04595574736595154,-0.007659177761524916,0.0022066582459956408,0,-1,-1010,46,-7,2,1,8,-146,186502.0
09:20:14.400,AUTO,-35.363262,149.1652376,1611,0.029180388897657394,-0.0018961193272843957,0.019615592435002327,0.04595574736595154,-0.007659177761524916,0.0022066582459956408,0,-1,-1010,46,-7,2,1,8,-146,186502.0
09:20:14.602,AUTO,-35.3632617,149.1652393,2758,0.060301415622234344,-0.009197978302836418,-0.006214731838554144,0.036978162825107574,-0.011460368521511555,0.0037496292497962713,2,-6,-999,37,-10,3,7,37,-148,186502.0
09:20:14.803,AUTO,-35.3632615,149.1652404,3140,0.05398770794272423,0.0009846310131251812,-0.01966039650142193,-0.08180826902389526,0.09648819267749786,-0.10864129662513733,2,-10,-991,-81,97,-108,10,49,-146,186502.0
09:20:15.005,AUTO,-35.3632612,149.1652419,3516,0.017517058178782463,0.02231607399880886,-0.04295164346694946,-0.17488665878772736,0.04012506827712059,-0.08348225057125092,5,-11,-995,-173,40,-83,8,55,-144,186502.0
09:20:15.207,AUTO,-35.3632612,149.1652419,3516,0.017517058178782463,0.02231607399880886,-0.04295164346694946,-0.17488665878772736,0.04012506827712059,-0.08348225057125092,5,-11,-995,-173,40,-83,8,55,-144,201328.0
09:20:15.410,AUTO,-35.3632611,149.1652433,3892,-0.021812159568071365,0.03539228066802025,-0.07482363283634186,-0.10986121743917465,0.10271161049604416,-0.17665934562683105,4,-12,-1009,-109,103,-176,3,50,-145,201328.0
09:20:15.612,AUTO,-35.363261,149.1652445,4272,-0.036226026713848114,0.052870605140924454,-0.11135780066251755,-0.011083669029176235,0.03918801620602608,-0.13498297333717346,6,-5,-1010,-10,39,-135,-6,41,-148,201328.0
09:20:15.814,AUTO,-35.3632612,149.1652455,4655,-0.041560787707567215,0.05166024714708328,-0.13630931079387665,-0.03691699728369713,-0.02436010167002678,-0.08266815543174744,8,-4,-1000,-36,-23,-82,-18,31,-148,201328.0
09:20:16.016,AUTO,-35.3632612,149.1652455,4655,-0.041560787707567215,0.05166024714708328,-0.13630931079387665,-0.03691699728369713,-0.02436010167002678,-0.08266815543174744,8,-4,-1000,-36,-23,-82,-18,31,-148,201328.0
09:20:16.219,AUTO,-35.3632612,149.1652455,4655,-0.041560787707567215,0.05166024714708328,-0.13630931079387665,-0.03691699728369713,-0.02436010167002678,-0.08266815543174744,8,-4,-1000,-36,-23,-82,-18,31,-148,201328.0
09:20:16.421,AUTO,-35.3632612,149.1652455,4655,-0.041560787707567215,0.05166024714708328,-0.13630931079387665,-0.03691699728369713,-0.02436010167002678,-0.08266815543174744,8,-4,-1000,-36,-23,-82,-18,31,-148,201328.0
09:20:16.623,AUTO,-35.3632631,149.1652462,5958,-0.06253547966480255,-0.029294459149241447,-0.0943695604801178,0.05218818411231041,-0.03433513641357422,0.04317000135779381,5,5,-1004,52,-33,42,-21,-21,-149,201328.0
09:20:16.825,AUTO,-35.3632631,149.1652462,5958,-0.06253547966480255,-0.029294459149241447,-0.0943695604801178,0.05218818411231041,-0.03433513641357422,0.04317000135779381,5,5,-1004,52,-33,42,-21,-21,-149,201328.0
09:20:17.027,AUTO,-35.3632635,149.1652454,6344,-0.048607975244522095,-0.033782850950956345,-0.08540155738592148,0.05912397429347038,-0.013062860816717148,0.03422774001955986,0,8,-1002,59,-12,33,-14,-34,-149,201328.0
09:20:17.228,AUTO,-35.3632637,149.1652444,6730,-0.033828005194664,-0.035205937922000885,-0.079580157995224,0.0614372119307518,-0.0030851890332996845,0.0271091740578413,-2,10,-1001,62,-2,27,-7,-43,-149,201328.0
09:20:17.431,AUTO,-35.3632639,149.1652431,7115,-0.018618272617459297,-0.034644462168216705,-0.07523670792579651,0.06204715371131897,0.0047126649878919125,0.021431108936667442,-5,11,-1001,62,5,21,0,-48,-150,201328.0
09:20:17.634,AUTO,-35.3632639,149.1652417,7502,-0.0032625494059175253,-0.03257596865296364,-0.0718507245182991,0.06329388916492462,0.010562040843069553,0.01739533059298992,-6,10,-1002,64,11,17,6,-49,-150,201328.0
09:20:17.836,AUTO,-35.3632639,149.1652417,7502,-0.0032625494059175253,-0.03257596865296364,-0.0718507245182991,0.06329388916492462,0.010562040843069553,0.01739533059298992,-6,10,-1002,64,11,17,6,-49,-150,201328.0
09:20:18.038,AUTO,-35.3632637,149.1652404,7890,0.011856128461658955,-0.029219498857855797,-0.06903953105211258,0.061224564909935,0.015169571153819561,0.013626638799905777,-8,7,-1002,61,16,13,13,-47,-151,201328.0
09:20:18.240,AUTO,-35.3632637,149.1652404,7890,0.011856128461658955,-0.029219498857855797,-0.06903953105211258,0.061224564909935,0.015169571153819561,0.013626638799905777,-8,7,-1002,61,16,13,13,-47,-151,248795.0
09:20:18.442,AUTO,-35.3632637,149.1652404,7890,0.011856128461658955,-0.029219498857855797,-0.06903953105211258,0.061224564909935,0.015169571153819561,0.013626638799905777,-8,7,-1002,61,16,13,13,-47,-151,248795.0
09:20:18.644,AUTO,-35.3632626,149.1652374,8902,0.033393070101737976,-0.016658566892147064,-0.06626006215810776,-0.019901903346180916,0.042667992413043976,-0.012704586610198021,-10,1,-997,-19,43,-12,24,-28,-151,248795.0
09:20:18.846,AUTO,-35.363262,149.1652367,9289,0.027508385479450226,-0.004083283245563507,-0.07361435890197754,-0.029533566907048225,0.053225066512823105,-0.03207356110215187,-8,2,-998,-28,53,-32,26,-21,-150,248795.0
09:20:19.048,AUTO,-35.3632615,149.1652361,9676,0.020515482872724533,0.007996722124516964,-0.08332118391990662,-0.021876750513911247,0.04064221307635307,-0.03400016576051712,-8,0,-1000,-20,41,-34,24,-16,-150,248795.0
09:20:19.249,AUTO,-35.3632609,149.1652356,10063,0.015613974072039127,0.015829848125576973,-0.09220682829618454,-0.016414590179920197,0.023652711883187294,-0.028048545122146606,-6,0,-1001,-15,24,-28,20,-12,-150,248795.0
09:20:19.451,AUTO,-35.3632609,149.1652356,10063,0.015613974072039127,0.015829848125576973,-0.09220682829618454,-0.016414590179920197,0.023652711883187294,-0.028048545122146606,-6,0,-1001,-15,24,-28,20,-12,-150,248795.0
09:20:19.653,AUTO,-35.3632605,149.1652353,10455,0.01201725471764803,0.02052079513669014,-0.0998053327202797,-0.014439963735640049,0.013139814138412476,-0.0216903705149889,-5,0,-1000,-13,14,-21,15,-9,-150,248795.0
09:20:19.855,AUTO,-35.3632602,149.165235,10843,0.010713488794863224,0.022465597838163376,-0.1053013876080513,0.0019399271113798022,0.0034085032530128956,-0.01368513610213995,-3,0,-1001,2,4,-13,10,-6,-151,248795.0
09:20:20.057,AUTO,-35.3632602,149.165235,10843,0.010713488794863224,0.022465597838163376,-0.1053013876080513,0.0019399271113798022,0.0034085032530128956,-0.01368513610213995,-3,0,-1001,2,4,-13,10,-6,-151,248795.0
09:20:20.259,AUTO,-35.3632602,149.165235,10843,0.010713488794863224,0.022465597838163376,-0.1053013876080513,0.0019399271113798022,0.0034085032530128956,-0.01368513610213995,-3,0,-1001,2,4,-13,10,-6,-151,248795.0
09:20:20.461,AUTO,-35.3632602,149.165235,10843,0.010713488794863224,0.022465597838163376,-0.1053013876080513,0.0019399271113798022,0.0034085032530128956,-0.01368513610213995,-3,0,-1001,2,4,-13,10,-6,-151,248795.0
09:20:20.663,AUTO,-35.36326,149.1652347,12158,0.01005477737635374,0.01762976311147213,-0.11075284332036972,0.0005292579880915582,-0.011645911261439323,0.003553536720573902,0,0,-1000,1,-11,3,-5,1,-151,248795.0
09:20:20.865,AUTO,-35.36326,149.1652346,12546,0.009555766358971596,0.014608914963901043,-0.11062412708997726,-0.0033502515871077776,-0.011340733617544174,0.0011720648035407066,1,0,-1000,-2,-10,1,-8,3,-151,248795.0
09:20:21.067,AUTO,-35.36326,149.1652346,12546,0.009555766358971596,0.014608914963901043,-0.11062412708997726,-0.0033502515871077776,-0.011340733617544174,0.0011720648035407066,1,0,-1000,-2,-10,1,-8,3,-151,248795.0
09:20:21.269,AUTO,-35.3632602,149.1652346,12934,0.008533074520528316,0.011642181314527988,-0.11054061353206635,-0.0037572807632386684,-0.0121426060795784,0.0011188244679942727,1,0,-1000,-2,-11,1,-10,5,-151,98993.0
09:20:21.470,AUTO,-35.3632604,149.1652348,13322,0.007330181077122688,0.00842923205345869,-0.11058790981769562,-0.005715533159673214,-0.012173526920378208,-0.0024195502046495676,2,0,-1000,-4,-11,-2,-11,6,-151,98993.0
09:20:21.672,AUTO,-35.3632607,149.1652349,13711,0.005842528305947781,0.005513819865882397,-0.11122992634773254,-0.004860931541770697,-0.010415657423436642,-0.0047067985869944096,2,0,-1000,-4,-9,-4,-12,7,-151,98993.0
09:20:21.875,AUTO,-35.3632609,149.1652351,14099,0.004667327273637056,0.0029536071233451366,-0.11261860281229019,-0.0032497532665729523,-0.008464496582746506,-0.0073152389377355576,2,0,-1000,-2,-7,-7,-11,7,-151,98993.0
09:20:22.077,AUTO,-35.3632609,149.1652351,14099,0.004667327273637056,0.0029536071233451366,-0.11261860281229019,-0.0032497532665729523,-0.008464496582746506,-0.0073152389377355576,2,0,-1000,-2,-7,-7,-11,7,-151,98993.0
09:20:22.279,AUTO,-35.3632609,149.1652351,14099,0.004667327273637056,0.0029536071233451366,-0.11261860281229019,-0.0032497532665729523,-0.008464496582746506,-0.0073152389377355576,2,0,-1000,-2,-7,-7,-11,7,-151,98993.0
09:20:22.481,AUTO,-35.3632609,149.1652351,14099,0.004667327273637056,0.0029536071233451366,-0.11261860281229019,-0.0032497532665729523,-0.008464496582746506,-0.0073152389377355576,2,0,-1000,-2,-7,-7,-11,7,-151,98993.0
09:20:22.683,AUTO,-35.3632615,149.1652355,15265,0.001321480143815279,-0.0012078426079824567,-0.12290628254413605,0.00034733727807179093,-0.00251230550929904,-0.017572276294231415,1,0,-1000,0,-1,-17,-8,7,-151,98993.0
09:20:22.885,AUTO,-35.3632616,149.1652357,15654,0.0008113011717796326,-0.0017565113957971334,-0.1278463453054428,-0.0035916503984481096,-0.0010790724772959948,-0.020346947014331818,1,0,-1000,-2,0,-20,-6,6,-152,98993.0
09:20:23.086,AUTO,-35.3632616,149.1652357,15654,0.0008113011717796326,-0.0017565113957971334,-0.1278463453054428,-0.0035916503984481096,-0.0010790724772959948,-0.020346947014331818,1,0,-1000,-2,0,-20,-6,6,-152,98993.0
09:20:23.288,AUTO,-35.3632617,149.1652358,16042,0.00037093725404702127,-0.0016463927458971739,-0.13371405005455017,-0.0017550941556692123,0.0018538956064730883,-0.023154007270932198,1,0,-1000,-1,2,-23,-5,5,-152,98993.0
09:20:23.489,AUTO,-35.3632618,149.1652358,16431,0.00033632948179729283,-0.001274957787245512,-0.13998711109161377,0.004747460130602121,0.003100041067227721,-0.02524644508957863,0,0,-1001,5,3,-25,-4,4,-152,98993.0
09:20:23.691,AUTO,-35.3632619,149.1652359,16820,-0.005183597095310688,-0.0006057836581021547,-0.1466611623764038,-0.0508543960750103,0.004091449081897736,-0.027146030217409134,0,0,-996,-49,4,-27,-3,3,-151,98993.0
09:20:23.893,AUTO,-35.3632619,149.1652359,17207,-0.022465629503130913,0.0003089530218858272,-0.15383389592170715,-0.0790993869304657,0.003755901474505663,-0.02733352966606617,0,0,-997,-78,4,-27,-3,-1,-150,98993.0
09:20:24.095,AUTO,-35.3632619,149.1652359,17207,-0.022465629503130913,0.0003089530218858272,-0.15383389592170715,-0.0790993869304657,0.003755901474505663,-0.02733352966606617,0,0,-997,-78,4,-27,-3,-1,-150,98993.0
09:20:24.297,AUTO,-35.3632619,149.1652359,17207,-0.022465629503130913,0.0003089530218858272,-0.15383389592170715,-0.0790993869304657,0.003755901474505663,-0.02733352966606617,0,0,-997,-78,4,-27,-3,-1,-150,98993.0
09:20:24.512,AUTO,-35.3632619,149.1652359,17207,-0.022465629503130913,0.0003089530218858272,-0.15383389592170715,-0.0790993869304657,0.003755901474505663,-0.02733352966606617,0,0,-997,-78,4,-27,-3,-1,-150,98993.0
09:20:24.714,AUTO,-35.3632622,149.1652345,18338,-0.04657619819045067,0.04671226441860199,-0.04878104850649834,-0.0016248399624601007,0.08423006534576416,0.45093587040901184,-1,5,-979,0,85,450,-15,-31,-141,98993.0
09:20:24.916,AUTO,-35.3632626,149.1652335,18687,-0.022142350673675537,0.037912189960479736,0.04000932350754738,0.13562557101249695,-0.13788816332817078,0.2561393082141876,1,10,-955,136,-136,255,-26,-38,-130,98993.0
09:20:25.118,AUTO,-35.3632632,149.1652324,19008,0.014215696603059769,-0.0011276504956185818,0.07870867848396301,0.1384713053703308,-0.1459924727678299,0.07348475605249405,0,10,-955,139,-145,73,-29,-37,-119,98993.0
09:20:25.320,AUTO,-35.3632632,149.1652324,19008,0.014215696603059769,-0.0011276504956185818,0.07870867848396301,0.1384713053703308,-0.1459924727678299,0.07348475605249405,0,10,-955,139,-145,73,-29,-37,-119,300000.0
09:20:25.522,AUTO,-35.3632638,149.1652314,19304,0.04350117966532707,-0.027499519288539886,0.0830044150352478,0.09813730418682098,-0.06949080526828766,-0.020436203107237816,2,10,-959,98,-68,-20,-25,-28,-108,300000.0
09:20:25.724,AUTO,-35.3632642,149.1652308,19569,0.06000842526555061,-0.0366622619330883,0.0739525705575943,0.04162295535206795,-0.01975288800895214,-0.04507584869861603,2,7,-961,42,-19,-45,-17,-14,-98,300000.0
09:20:25.926,AUTO,-35.3632645,149.1652305,19810,0.06530594080686569,-0.03705424442887306,0.06396814435720444,0.0026818085461854935,0.007765862625092268,-0.034444231539964676,1,2,-965,3,8,-34,-9,1,-89,300000.0
09:20:26.128,AUTO,-35.3632645,149.1652305,19810,0.06530594080686569,-0.03705424442887306,0.06396814435720444,0.0026818085461854935,0.007765862625092268,-0.034444231539964676,1,2,-965,3,8,-34,-9,1,-89,300000.0
09:20:26.330,AUTO,-35.3632645,149.1652305,19810,0.06530594080686569,-0.03705424442887306,0.06396814435720444,0.0026818085461854935,0.007765862625092268,-0.034444231539964676,1,2,-965,3,8,-34,-9,1,-89,300000.0
09:20:26.532,AUTO,-35.3632645,149.1652305,19810,0.06530594080686569,-0.03705424442887306,0.06396814435720444,0.0026818085461854935,0.007765862625092268,-0.034444231539964676,1,2,-965,3,8,-34,-9,1,-89,300000.0
09:20:26.734,AUTO,-35.3632642,149.1652319,20401,0.03887645900249481,-0.016662808135151863,0.05354404076933861,-0.04526180773973465,0.03314585238695145,-0.0011894082417711616,1,-7,-975,-44,34,-1,11,36,-66,300000.0
09:20:26.936,AUTO,-35.363264,149.1652329,20565,0.026969630271196365,-0.00889603141695261,0.05337996780872345,-0.04667477309703827,0.031822092831134796,0.002499608090147376,1,-9,-975,-45,32,2,14,41,-60,300000.0
09:20:27.138,AUTO,-35.3632637,149.165234,20710,0.016452038660645485,-0.0012807531747967005,0.053040146827697754,-0.038875315338373184,0.02948692813515663,0.002062615007162094,1,-10,-976,-37,30,1,16,43,-54,300000.0
09:20:27.339,AUTO,-35.3632637,149.165234,20710,0.016452038660645485,-0.0012807531747967005,0.053040146827697754,-0.038875315338373184,0.02948692813515663,0.002062615007162094,1,-10,-976,-37,30,1,16,43,-54,300000.0
09:20:27.541,AUTO,-35.3632633,149.1652351,20840,0.00655306875705719,0.005245737265795469,0.05254959687590599,-0.03371546044945717,0.02372627705335617,0.004743711091578007,0,-10,-977,-33,24,4,17,42,-48,300000.0
09:20:27.744,AUTO,-35.3632629,149.1652362,20956,-0.001363137038424611,0.009675499051809311,0.05183841660618782,-0.027399078011512756,0.013745876960456371,0.001879810355603695,1,-10,-978,-26,14,1,16,39,-43,300000.0
09:20:27.946,AUTO,-35.3632625,149.1652371,21057,-0.007047113962471485,0.012326644733548164,0.05137517303228378,-0.017866620793938637,0.009661620482802391,0.0013184784911572933,0,-9,-977,-16,10,1,14,35,-37,300000.0
09:20:28.148,AUTO,-35.3632625,149.1652371,21057,-0.007047113962471485,0.012326644733548164,0.05137517303228378,-0.017866620793938637,0.009661620482802391,0.0013184784911572933,0,-9,-977,-16,10,1,14,35,-37,300000.0
09:20:28.350,AUTO,-35.3632625,149.1652371,21057,-0.007047113962471485,0.012326644733548164,0.05137517303228378,-0.017866620793938637,0.009661620482802391,0.0013184784911572933,0,-9,-977,-16,10,1,14,35,-37,300000.0
09:20:28.551,AUTO,-35.3632625,149.1652371,21057,-0.007047113962471485,0.012326644733548164,0.05137517303228378,-0.017866620793938637,0.009661620482802391,0.0013184784911572933,0,-9,-977,-16,10,1,14,35,-37,300000.0
09:20:28.753,AUTO,-35.3632617,149.1652393,21265,-0.013181526213884354,0.013989176601171494,0.049290891736745834,-0.009303459897637367,-0.0009065735503099859,-0.004431313835084438,0,-5,-973,-8,0,-4,7,19,-18,300000.0
09:20:28.955,AUTO,-35.3632615,149.1652397,21301,-0.012558734975755215,0.012858622707426548,0.048866067081689835,0.016989752650260925,-0.0059396643191576,-0.0032995278015732765,0,-3,-970,18,-5,-3,4,14,-11,300000.0
09:20:29.157,AUTO,-35.3632614,149.1652401,21318,-0.011234033852815628,0.011544005014002323,0.04818016290664673,0.023998776450753212,-0.005657953210175037,-0.003543534781783819,0,-2,-965,25,-4,-3,2,10,-3,300000.0
09:20:29.359,AUTO,-35.3632613,149.1652402,21303,-0.04908039793372154,0.02364989183843136,0.04661497101187706,-0.12617264688014984,0.0048698135651648045,-0.007209618575870991,0,7,-950,-124,5,-7,0,2,12,219747.0
09:20:29.561,AUTO,-35.3632613,149.1652402,21303,-0.04908039793372154,0.02364989183843136,0.04661497101187706,-0.12617264688014984,0.0048698135651648045,-0.007209618575870991,0,7,-950,-124,5,-7,0,2,12,219747.0
09:20:29.763,AUTO,-35.3632613,149.1652401,21259,-0.024856753647327423,0.007923414930701256,0.04634661227464676,0.8446272015571594,-0.0955050066113472,-0.0055044861510396,0,36,-976,845,-94,-5,-4,-8,19,219747.0
09:20:29.965,AUTO,-35.3632613,149.1652398,21201,-0.005951282102614641,-0.017124345526099205,0.04637444019317627,0.32612746953964233,-0.09496046602725983,0.004199330694973469,0,-10,-1014,326,-93,4,-2,-14,21,219747.0
09:20:30.167,AUTO,-35.3632613,149.1652398,21201,-0.005951282102614641,-0.017124345526099205,0.04637444019317627,0.32612746953964233,-0.09496046602725983,0.004199330694973469,0,-10,-1014,326,-93,4,-2,-14,21,219747.0
09:20:30.369,AUTO,-35.3632613,149.1652398,21201,-0.005951282102614641,-0.017124345526099205,0.04637444019317627,0.32612746953964233,-0.09496046602725983,0.004199330694973469,0,-10,-1014,326,-93,4,-2,-14,21,219747.0
09:20:30.571,AUTO,-35.3632613,149.1652398,21201,-0.005951282102614641,-0.017124345526099205,0.04637444019317627,0.32612746953964233,-0.09496046602725983,0.004199330694973469,0,-10,-1014,326,-93,4,-2,-14,21,219747.0
09:20:30.773,AUTO,-35.3632606,149.1652386,21081,0.010729030705988407,-0.06753155589103699,0.042001087218523026,-0.2922268211841583,-0.051225125789642334,-0.010027460753917694,-7,-2,-1033,-290,-50,-10,29,-8,6,219747.0
09:20:30.975,AUTO,-35.3632597,149.1652384,21065,0.02763052098453045,-0.07917195558547974,0.039778899401426315,0.5565159916877747,-0.042929936200380325,-0.01025742944329977,-10,30,-1014,558,-42,-10,45,-4,2,219747.0
09:20:31.177,AUTO,-35.3632585,149.1652383,21055,0.032073941081762314,-0.09171125292778015,0.07953688502311707,0.2670372724533081,-0.04362291470170021,0.38202965259552,-14,-10,-1008,267,-42,382,63,0,0,219747.0
09:20:31.379,AUTO,-35.3632569,149.1652383,21047,0.018412677571177483,-0.10529082268476486,0.1848374605178833,-0.5162501335144043,-0.03661016374826431,0.3644145727157593,-16,-36,-1005,-516,-35,364,83,5,0,219747.0
09:20:31.581,AUTO,-35.3632569,149.1652383,21047,0.018412677571177483,-0.10529082268476486,0.1848374605178833,-0.5162501335144043,-0.03661016374826431,0.3644145727157593,-16,-36,-1005,-516,-35,364,83,5,0,219747.0
09:20:31.783,AUTO,-35.3632548,149.1652384,21041,0.009429286234080791,-0.11479590833187103,0.2415260523557663,-0.37749606370925903,-0.02669372223317623,0.12649911642074585,-21,-23,-1014,-375,-25,126,104,12,0,219747.0
09:20:31.985,AUTO,-35.3632523,149.1652387,21037,0.020606689155101776,-0.12516726553440094,0.2527537941932678,0.32153287529945374,-0.04472372680902481,-0.014871351420879364,-28,9,-1014,323,-43,-14,126,19,0,219747.0
09:20:32.187,AUTO,-35.3632523,149.1652387,21037,0.020606689155101776,-0.12516726553440094,0.2527537941932678,0.32153287529945374,-0.04472372680902481,-0.014871351420879364,-28,9,-1014,323,-43,-14,126,19,0,219747.0
09:20:32.389,AUTO,-35.3632523,149.1652387,21037,0.020606689155101776,-0.12516726553440094,0.2527537941932678,0.32153287529945374,-0.04472372680902481,-0.014871351420879364,-28,9,-1014,323,-43,-14,126,19,0,219747.0
09:20:32.591,AUTO,-35.3632523,149.1652387,21037,0.020606689155101776,-0.12516726553440094,0.2527537941932678,0.32153287529945374,-0.04472372680902481,-0.014871351420879364,-28,9,-1014,323,-43,-14,126,19,0,219747.0
09:20:32.793,AUTO,-35.3632414,149.1652409,21019,0.017367469146847725,-0.15902315080165863,0.2268844097852707,-0.44936585426330566,-0.042540475726127625,-0.018239330500364304,-41,-40,-1013,-448,-41,-18,204,37,0,219747.0
09:20:32.995,AUTO,-35.3632365,149.1652421,21012,0.023945435881614685,-0.1705618053674698,0.2230883538722992,0.2670462131500244,-0.05077612027525902,-0.028338059782981873,-49,-8,-1004,268,-49,-28,233,43,1,219747.0
09:20:33.196,AUTO,-35.363231,149.1652434,21004,0.028615545481443405,-0.18406790494918823,0.22299472987651825,0.24051770567893982,-0.04591698199510574,-0.0017025837441906333,-55,-32,-1003,241,-44,-1,263,48,2,219747.0
09:20:33.399,AUTO,-35.3632248,149.1652449,20994,0.02280677668750286,-0.18713603913784027,0.22359929978847504,-0.3644270598888397,0.008140131831169128,0.0010244649602100253,-59,-52,-1004,-363,9,1,295,53,2,200.0
09:20:33.601,AUTO,-35.363218,149.1652466,20985,0.023777633905410767,-0.18498730659484863,0.22383445501327515,-0.005752137862145901,0.00921418983489275,-0.02112131379544735,-67,-35,-1012,-4,10,-21,325,59,1,200.0
09:20:33.804,AUTO,-35.363218,149.1652466,20985,0.023777633905410767,-0.18498730659484863,0.22383445501327515,-0.005752137862145901,0.00921418983489275,-0.02112131379544735,-67,-35,-1012,-4,10,-21,325,59,1,200.0
09:20:34.006,AUTO,-35.3632104,149.1652484,20979,0.03398193046450615,-0.18041418492794037,0.223030224442482,0.2622224688529968,0.017404640093445778,-0.019240308552980423,-78,-33,-1010,263,18,-19,353,62,0,200.0
09:20:34.211,AUTO,-35.3632104,149.1652484,20979,0.03398193046450615,-0.18041418492794037,0.223030224442482,0.2622224688529968,0.017404640093445778,-0.019240308552980423,-78,-33,-1010,263,18,-19,353,62,0,200.0
09:20:34.413,AUTO,-35.3632104,149.1652484,20979,0.03398193046450615,-0.18041418492794037,0.223030224442482,0.2622224688529968,0.017404640093445778,-0.019240308552980423,-78,-33,-1010,263,18,-19,353,62,0,200.0
09:20:34.617,AUTO,-35.3631846,149.1652545,20981,0.04336588829755783,-0.15326862037181854,0.22007016837596893,0.1574220508337021,0.03238499164581299,-0.018692512065172195,-84,-48,-1002,158,33,-18,417,72,-2,200.0
09:20:34.819,AUTO,-35.3631846,149.1652545,20981,0.04336588829755783,-0.15326862037181854,0.22007016837596893,0.1574220508337021,0.03238499164581299,-0.018692512065172195,-84,-48,-1002,158,33,-18,417,72,-2,200.0
09:20:35.020,AUTO,-35.3631751,149.1652567,20986,0.0470442958176136,-0.14794465899467468,0.21862122416496277,0.0756240040063858,0.012845121324062347,-0.01930648647248745,-93,-48,-995,76,13,-19,432,74,-2,200.0
09:20:35.222,AUTO,-35.3631653,149.1652589,20992,0.04905245453119278,-0.14422094821929932,0.21778836846351624,-0.06190440058708191,0.006058535538613796,-0.014687597751617432,-90,-58,-992,-60,6,-14,446,76,-2,200.0
09:20:35.424,AUTO,-35.3631552,149.1652612,20996,0.05377717316150665,-0.1401928812265396,0.21650134027004242,0.055613961070775986,0.01010056957602501,-0.018295995891094208,-92,-55,-993,56,10,-18,458,78,-2,200.0
09:20:35.626,AUTO,-35.3631448,149.1652636,20999,0.05614307150244713,-0.13521747291088104,0.21562975645065308,0.007568876259028912,0.030862940475344658,-0.007463485933840275,-100,-66,-997,8,31,-7,469,81,-1,200.0
09:20:35.829,AUTO,-35.3631448,149.1652636,20999,0.05614307150244713,-0.13521747291088104,0.21562975645065308,0.007568876259028912,0.030862940475344658,-0.007463485933840275,-100,-66,-997,8,31,-7,469,81,-1,200.0
09:20:36.031,AUTO,-35.3631342,149.165266,21002,0.06016379967331886,-0.13100239634513855,0.21468718349933624,-0.011066052131354809,0.022824591025710106,-0.009445098228752613,-93,-60,-991,-10,23,-9,477,82,-1,200.0
09:20:36.233,AUTO,-35.3631342,149.165266,21002,0.06016379967331886,-0.13100239634513855,0.21468718349933624,-0.011066052131354809,0.022824591025710106,-0.009445098228752613,-93,-60,-991,-10,23,-9,477,82,-1,200.0
09:20:36.435,AUTO,-35.3631342,149.165266,21002,0.06016379967331886,-0.13100239634513855,0.21468718349933624,-0.011066052131354809,0.022824591025710106,-0.009445098228752613,-93,-60,-991,-10,23,-9,477,82,-1,200.0
09:20:36.637,AUTO,-35.3631014,149.1652737,21005,0.05917150899767876,-0.11623973399400711,0.21182125806808472,-0.03011958673596382,0.01858317293226719,-0.0123780257999897,-100,-61,-991,-29,19,-12,495,88,0,200.0
09:20:36.839,AUTO,-35.3631014,149.1652737,21005,0.05917150899767876,-0.11623973399400711,0.21182125806808472,-0.03011958673596382,0.01858317293226719,-0.0123780257999897,-100,-61,-991,-29,19,-12,495,88,0,200.0
09:20:37.041,AUTO,-35.3630903,149.1652764,21005,0.060938119888305664,-0.10951286554336548,0.211019828915596,0.05266624689102173,0.04008033499121666,-0.0013669756008312106,-95,-71,-993,53,41,-1,499,88,0,200.0
09:20:37.243,AUTO,-35.363079,149.165279,21005,0.06356945633888245,-0.10019494593143463,0.2102678418159485,0.021108178421854973,0.030221393331885338,0.000601288687903434,-106,-68,-1000,22,30,0,500,89,-1,200.0
09:20:37.445,AUTO,-35.3630675,149.1652817,21008,0.06558854877948761,-0.0926455557346344,0.2097325176000595,-0.03649924695491791,0.03369682654738426,0.002339028986170888,-104,-68,-994,-35,34,2,499,89,-1,300000.0
09:20:37.647,AUTO,-35.3630563,149.1652843,21009,0.06619545072317123,-0.088131383061409,0.2091771364212036,0.051919907331466675,-0.013237005099654198,-0.0020495501812547445,-106,-62,-991,52,-12,-2,496,89,-1,300000.0
09:20:37.849,AUTO,-35.3630563,149.1652843,21009,0.06619545072317123,-0.088131383061409,0.2091771364212036,0.051919907331466675,-0.013237005099654198,-0.0020495501812547445,-106,-62,-991,52,-12,-2,496,89,-1,300000.0
09:20:38.051,AUTO,-35.3630451,149.1652869,21007,0.06436114758253098,-0.09463968873023987,0.20888128876686096,-0.03487558290362358,0.0020978618413209915,0.01067632157355547,-101,-68,-984,-34,2,10,495,89,1,300000.0
09:20:38.253,AUTO,-35.3630451,149.1652869,21007,0.06436114758253098,-0.09463968873023987,0.20888128876686096,-0.03487558290362358,0.0020978618413209915,0.01067632157355547,-101,-68,-984,-34,2,10,495,89,1,300000.0
09:20:38.455,AUTO,-35.3630451,149.1652869,21007,0.06436114758253098,-0.09463968873023987,0.20888128876686096,-0.03487558290362358,0.0020978618413209915,0.01067632157355547,-101,-68,-984,-34,2,10,495,89,1,300000.0
09:20:38.657,AUTO,-35.3630121,149.1652947,20991,0.06461994349956512,-0.06676328927278519,0.2084014117717743,0.02150949276983738,0.04072089493274689,0.0016176800709217787,-96,-60,-996,22,41,1,485,89,0,300000.0
09:20:38.859,AUTO,-35.3630012,149.1652972,20991,0.06369668990373611,-0.05434132367372513,0.20861893892288208,-0.10245455056428909,0.04993857070803642,0.002509367186576128,-99,-69,-995,-101,51,2,476,87,-1,300000.0
09:20:39.061,AUTO,-35.3630012,149.1652972,20991,0.06369668990373611,-0.05434132367372513,0.20861893892288208,-0.10245455056428909,0.04993857070803642,0.002509367186576128,-99,-69,-995,-101,51,2,476,87,-1,300000.0
09:20:39.263,AUTO,-35.3629905,149.1652997,20992,0.06528212130069733,-0.04187462106347084,0.20858429372310638,0.048546597361564636,0.04729263111948967,-0.004843437112867832,-97,-56,-997,49,48,-4,465,85,-1,300000.0
09:20:39.465,AUTO,-35.3629801,149.1653021,20993,0.06800557672977448,-0.02677868865430355,0.20870797336101532,0.11558546125888824,0.05680821090936661,-0.0034892691764980555,-84,-60,-996,116,57,-3,452,83,-1,300000.0
09:20:39.667,AUTO,-35.3629701,149.1653045,20995,0.06268364936113358,-0.01644890382885933,0.20885102450847626,-0.2743445634841919,0.029231807217001915,0.011753784492611885,-87,-77,-990,-274,30,12,435,81,-1,300000.0
09:20:39.869,AUTO,-35.3629605,149.1653067,20994,0.060030803084373474,-0.007360189221799374,0.20926335453987122,-0.06949211657047272,0.04465881735086441,-0.0054321251809597015,-77,-48,-992,-68,45,-5,417,78,0,300000.0
09:20:40.071,AUTO,-35.3629605,149.1653067,20994,0.060030803084373474,-0.007360189221799374,0.20926335453987122,-0.06949211657047272,0.04465881735086441,-0.0054321251809597015,-77,-48,-992,-68,45,-5,417,78,0,300000.0
09:20:40.273,AUTO,-35.3629605,149.1653067,20994,0.060030803084373474,-0.007360189221799374,0.20926335453987122,-0.06949211657047272,0.04465881735086441,-0.0054321251809597015,-77,-48,-992,-68,45,-5,417,78,0,300000.0
09:20:40.475,AUTO,-35.3629605,149.1653067,20994,0.060030803084373474,-0.007360189221799374,0.20926335453987122,-0.06949211657047272,0.04465881735086441,-0.0054321251809597015,-77,-48,-992,-68,45,-5,417,78,0,300000.0
09:20:40.677,AUTO,-35.362934,149.165313,20970,0.050643809139728546,0.032836850732564926,0.20863157510757446,-0.6772204637527466,0.06292038410902023,0.023322107270359993,-72,-84,-1002,-676,63,23,352,67,3,300000.0
09:20:40.879,AUTO,-35.3629264,149.1653149,20959,0.041784219443798065,0.043916985392570496,0.2070571780204773,-0.5811337232589722,0.042622994631528854,-0.002634449163451791,-70,-60,-1000,-579,43,-2,325,64,4,300000.0
09:20:41.081,AUTO,-35.3629264,149.1653149,20959,0.041784219443798065,0.043916985392570496,0.2070571780204773,-0.5811337232589722,0.042622994631528854,-0.002634449163451791,-70,-60,-1000,-579,43,-2,325,64,4,300000.0
09:20:41.283,AUTO,-35.3629193,149.1653167,20947,0.04564924165606499,0.057612840086221695,0.2069033831357956,0.2823579013347626,0.05982862412929535,-0.0300016887485981,-60,-14,-1001,284,60,-29,298,61,3,300000.0
09:20:41.485,AUTO,-35.3629129,149.1653184,20935,0.0524122416973114,0.07188290357589722,0.207648366689682,0.7761237621307373,0.0449775792658329,-0.016733866184949875,-53,-4,-1022,777,45,-16,269,55,3,237473.0
