time_stamp,MODE,lat,lon,relative_alt,roll,pitch,yaw,rollspeed,pitchspeed,yawspeed,xacc,yacc,zacc,xgyro,ygyro,zgyro,vx,vy,vz,RTL_ALT
01:07:17.613,STABILIZE,-35.3632622,149.1652375,0,0.0005098399706184864,0.0015024237800389528,0.027099816128611565,0.0003501038299873471,0.0002645339409355074,0.0022476210724562407,0,1,-1000,0,0,0,-1,2,1,52625.0
01:07:17.814,STABILIZE,-35.3632622,149.1652375,0,-0.0005774496821686625,0.0010753062088042498,0.02585817314684391,0.0002591483062133193,0.0002810171863529831,0.002119712997227907,0,1,-1000,0,0,0,-1,1,1,52625.0
01:07:18.015,STABILIZE,-35.3632622,149.1652375,0,-0.0005774496821686625,0.0010753062088042498,0.02585817314684391,0.0002591483062133193,0.0002810171863529831,0.002119712997227907,0,1,-1000,0,0,0,-1,1,1,52625.0
01:07:18.216,STABILIZE,-35.3632622,149.1652375,0,-0.0005774496821686625,0.0010753062088042498,0.02585817314684391,0.0002591483062133193,0.0002810171863529831,0.002119712997227907,0,1,-1000,0,0,0,-1,1,1,52625.0
01:07:18.418,STABILIZE,-35.3632622,149.1652375,0,-0.0005774496821686625,0.0010753062088042498,0.02585817314684391,0.0002591483062133193,0.0002810171863529831,0.002119712997227907,0,1,-1000,0,0,0,-1,1,1,52625.0
01:07:18.619,STABILIZE,-35.3632622,149.1652375,0,-0.0005774496821686625,0.0010753062088042498,0.02585817314684391,0.0002591483062133193,0.0002810171863529831,0.002119712997227907,0,1,-1000,0,0,0,-1,1,1,52625.0
01:07:18.820,STABILIZE,-35.3632622,149.1652375,0,-0.0005774496821686625,0.0010753062088042498,0.02585817314684391,0.0002591483062133193,0.0002810171863529831,0.002119712997227907,0,1,-1000,0,0,0,-1,1,1,52625.0
01:07:19.021,STABILIZE,-35.3632622,149.1652375,0,-0.0008568383054807782,0.0009617148898541927,0.025398632511496544,0.00014397589256986976,0.00027091940864920616,0.0020262449979782104,0,1,-1000,0,0,0,-1,1,1,52625.0
01:07:19.222,STABILIZE,-35.3632622,149.1652375,0,-0.0008568383054807782,0.0009617148898541927,0.025398632511496544,0.00014397589256986976,0.00027091940864920616,0.0020262449979782104,0,1,-1000,0,0,0,-1,1,1,52625.0
01:07:19.424,STABILIZE,-35.3632622,149.1652375,0,-0.0008568383054807782,0.0009617148898541927,0.025398632511496544,0.00014397589256986976,0.00027091940864920616,0.0020262449979782104,0,1,-1000,0,0,0,-1,1,1,52625.0
01:07:19.625,STABILIZE,-35.3632622,149.1652375,0,-0.0008568383054807782,0.0009617148898541927,0.025398632511496544,0.00014397589256986976,0.00027091940864920616,0.0020262449979782104,0,1,-1000,0,0,0,-1,1,1,52625.0
01:07:19.827,STABILIZE,-35.3632621,149.1652375,0,-0.0007356635760515928,0.0009303190163336694,0.025150611996650696,0.00021198485046625137,0.00028094922890886664,0.0021136589348316193,0,1,-1000,0,1,0,-1,0,-1,52625.0
01:07:20.028,STABILIZE,-35.3632621,149.1652375,0,-0.0007356635760515928,0.0009303190163336694,0.025150611996650696,0.00021198485046625137,0.00028094922890886664,0.0021136589348316193,0,1,-1000,0,1,0,-1,0,-1,52625.0
01:07:20.230,STABILIZE,-35.3632621,149.1652375,0,-0.0007356635760515928,0.0009303190163336694,0.025150611996650696,0.00021198485046625137,0.00028094922890886664,0.0021136589348316193,0,1,-1000,0,1,0,-1,0,-1,52625.0
01:07:20.431,STABILIZE,-35.3632621,149.1652375,0,-0.0007356635760515928,0.0009303190163336694,0.025150611996650696,0.00021198485046625137,0.00028094922890886664,0.0021136589348316193,0,1,-1000,0,1,0,-1,0,-1,52625.0
01:07:20.641,STABILIZE,-35.3632621,149.1652375,0,-0.0007356635760515928,0.0009303190163336694,0.025150611996650696,0.00021198485046625137,0.00028094922890886664,0.0021136589348316193,0,1,-1000,0,1,0,-1,0,-1,52625.0
01:07:20.846,STABILIZE,-35.3632621,149.1652375,0,-0.0007356635760515928,0.0009303190163336694,0.025150611996650696,0.00021198485046625137,0.00028094922890886664,0.0021136589348316193,0,1,-1000,0,1,0,-1,0,-1,52625.0
01:07:21.046,STABILIZE,-35.3632621,149.1652375,0,-0.0006285252748057246,0.0009188837721012533,0.02473502792418003,0.0001334050903096795,0.00020616466645151377,0.0019502585055306554,0,1,-1000,0,0,0,-1,0,0,52625.0
01:07:21.248,STABILIZE,-35.3632621,149.1652375,0,-0.0006292210309766233,0.0009200327331200242,0.024628136307001114,7.329037180170417e-05,0.0002481960109435022,0.0018679654458537698,0,1,-1000,0,0,0,-1,1,0,52625.0
01:07:21.450,STABILIZE,-35.3632621,149.1652375,0,-0.0006296322681009769,0.0009217672632075846,0.02455514296889305,0.00028336438117548823,0.0002657262375578284,0.0018251793226227164,0,1,-1000,0,0,0,-1,1,0,52625.0
01:07:21.651,STABILIZE,-35.3632621,149.1652375,0,-0.0006296322681009769,0.0009217672632075846,0.02455514296889305,0.00028336438117548823,0.0002657262375578284,0.0018251793226227164,0,1,-1000,0,0,0,-1,1,0,52625.0
01:07:21.852,STABILIZE,-35.3632621,149.1652375,0,-0.0006325404974631965,0.0009239747887477279,0.02446310967206955,0.00019679078832268715,0.00029348157113417983,0.0018527397187426686,0,1,-1000,0,0,0,-1,1,0,52625.0
01:07:22.053,STABILIZE,-35.3632621,149.1652375,0,-0.0006318254745565355,0.0009232445736415684,0.024360116571187973,0.00030833034543320537,0.0003241135273128748,0.0018435597885400057,0,1,-1000,0,0,0,-1,1,0,52625.0
01:07:22.255,STABILIZE,-35.3632621,149.1652375,0,-0.0006318254745565355,0.0009232445736415684,0.024360116571187973,0.00030833034543320537,0.0003241135273128748,0.0018435597885400057,0,1,-1000,0,0,0,-1,1,0,52625.0
01:07:22.457,STABILIZE,-35.3632621,149.1652375,0,-0.0006318254745565355,0.0009232445736415684,0.024360116571187973,0.00030833034543320537,0.0003241135273128748,0.0018435597885400057,0,1,-1000,0,0,0,-1,1,0,52625.0
01:07:22.658,STABILIZE,-35.3632621,149.1652375,0,-0.0006318254745565355,0.0009232445736415684,0.024360116571187973,0.00030833034543320537,0.0003241135273128748,0.0018435597885400057,0,1,-1000,0,0,0,-1,1,0,52625.0
01:07:22.860,STABILIZE,-35.3632621,149.1652375,0,-0.0006318254745565355,0.0009232445736415684,0.024360116571187973,0.00030833034543320537,0.0003241135273128748,0.0018435597885400057,0,1,-1000,0,0,0,-1,1,0,52625.0
01:07:23.061,STABILIZE,-35.3632621,149.1652375,0,-0.00025676595396362245,0.0009510665549896657,0.023965520784258842,0.000305924448184669,0.0003399563720449805,0.0018002550350502133,0,2,-1000,1,1,0,-1,2,0,52625.0
01:07:23.262,STABILIZE,-35.3632621,149.1652375,0,-0.00030247666290961206,0.0009583591017872095,0.023883262649178505,0.00016394216800108552,0.00023752206470817327,0.001766931265592575,0,1,-1000,0,0,0,-1,2,0,52625.0
01:07:23.464,STABILIZE,-35.3632621,149.1652375,0,-0.00030247666290961206,0.0009583591017872095,0.023883262649178505,0.00016394216800108552,0.00023752206470817327,0.001766931265592575,0,2,-1000,0,0,1,-1,2,0,52625.0
01:07:23.665,STABILIZE,-35.3632621,149.1652375,0,-0.00030247666290961206,0.0009583591017872095,0.023883262649178505,0.00016394216800108552,0.00023752206470817327,0.001766931265592575,0,2,-1000,0,0,1,-1,2,0,52625.0
01:07:23.866,STABILIZE,-35.3632622,149.1652375,0,-0.000390632136259228,0.0009704172261990607,0.023671820759773254,0.00020447024144232273,0.0002457587397657335,0.0018427221802994609,0,1,-1000,0,0,0,-1,2,0,52625.0
01:07:24.067,STABILIZE,-35.3632621,149.1652375,0,-0.0004439900803845376,0.0009678096394054592,0.023591456934809685,0.0002896122168749571,0.00020773638971149921,0.001855670241639018,0,2,-1000,0,0,0,-1,2,0,52625.0
01:07:24.269,STABILIZE,-35.3632621,149.1652375,0,-0.0004439900803845376,0.0009678096394054592,0.023591456934809685,0.0002896122168749571,0.00020773638971149921,0.001855670241639018,0,2,-1000,0,0,0,-1,2,0,52625.0
01:07:24.470,STABILIZE,-35.3632621,149.1652375,0,-0.0004439900803845376,0.0009678096394054592,0.023591456934809685,0.0002896122168749571,0.00020773638971149921,0.001855670241639018,0,2,-1000,0,0,0,-1,2,0,52625.0
01:07:24.671,STABILIZE,-35.3632621,149.1652375,0,-0.0004439900803845376,0.0009678096394054592,0.023591456934809685,0.0002896122168749571,0.00020773638971149921,0.001855670241639018,0,2,-1000,0,0,0,-1,2,0,52625.0
01:07:24.873,STABILIZE,-35.3632621,149.1652375,0,-0.0004439900803845376,0.0009678096394054592,0.023591456934809685,0.0002896122168749571,0.00020773638971149921,0.001855670241639018,0,2,-1000,0,0,0,-1,2,0,52625.0
01:07:25.074,STABILIZE,-35.3632621,149.1652375,0,-0.0004439900803845376,0.0009678096394054592,0.023591456934809685,0.0002896122168749571,0.00020773638971149921,0.001855670241639018,0,2,-1000,0,0,0,-1,2,0,52625.0
01:07:25.275,STABILIZE,-35.3632621,149.1652375,0,-0.0004439900803845376,0.0009678096394054592,0.023591456934809685,0.0002896122168749571,0.00020773638971149921,0.001855670241639018,0,2,-1000,0,0,0,-1,2,0,52625.0
01:07:25.477,STABILIZE,-35.3632621,149.1652375,0,-0.0004439900803845376,0.0009678096394054592,0.023591456934809685,0.0002896122168749571,0.00020773638971149921,0.001855670241639018,0,2,-1000,0,0,0,-1,2,0,52625.0
01:07:25.678,STABILIZE,-35.3632621,149.1652375,0,-0.0004439900803845376,0.0009678096394054592,0.023591456934809685,0.0002896122168749571,0.00020773638971149921,0.001855670241639018,0,2,-1000,0,0,0,-1,2,0,52625.0
01:07:25.879,STABILIZE,-35.3632621,149.1652375,0,-0.0004439900803845376,0.0009678096394054592,0.023591456934809685,0.0002896122168749571,0.00020773638971149921,0.001855670241639018,0,2,-1000,0,0,0,-1,2,0,52625.0
01:07:26.081,STABILIZE,-35.3632621,149.1652375,0,-0.0004439900803845376,0.0009678096394054592,0.023591456934809685,0.0002896122168749571,0.00020773638971149921,0.001855670241639018,0,2,-1000,0,0,0,-1,2,0,52625.0
01:07:26.282,STABILIZE,-35.3632622,149.1652375,0,-0.0004839767934754491,0.0009755928185768425,0.022845732048153877,0.0003076842403970659,0.0002513641957193613,0.0017435543704777956,0,1,-1000,0,0,0,-1,1,0,52625.0
01:07:26.483,STABILIZE,-35.3632622,149.1652375,0,-0.0004839767934754491,0.0009755928185768425,0.022845732048153877,0.0003076842403970659,0.0002513641957193613,0.0017435543704777956,0,1,-1000,0,0,0,-1,1,0,52625.0
01:07:26.684,STABILIZE,-35.3632622,149.1652375,0,-0.0004839767934754491,0.0009755928185768425,0.022845732048153877,0.0003076842403970659,0.0002513641957193613,0.0017435543704777956,0,1,-1000,0,0,0,-1,1,0,52625.0
01:07:26.885,STABILIZE,-35.3632622,149.1652375,0,-0.0004839767934754491,0.0009755928185768425,0.022845732048153877,0.0003076842403970659,0.0002513641957193613,0.0017435543704777956,0,1,-1000,0,0,0,-1,1,0,52625.0
01:07:27.086,STABILIZE,-35.3632622,149.1652375,0,-0.0004839767934754491,0.0009755928185768425,0.022845732048153877,0.0003076842403970659,0.0002513641957193613,0.0017435543704777956,0,1,-1000,0,0,0,-1,1,0,52625.0
01:07:27.287,STABILIZE,-35.3632622,149.1652375,0,-0.0005176399135962129,0.0009659351781010628,0.022542087361216545,0.00024641852360218763,0.0002888607559725642,0.0015423080185428262,0,1,-1000,1,0,0,-1,1,0,52625.0
01:07:27.488,STABILIZE,-35.3632622,149.1652375,0,-0.0005262993508949876,0.0009659408824518323,0.02248283103108406,0.00020017632050439715,0.0002574474783614278,0.001632158295251429,0,1,-1000,0,0,0,-1,1,0,52625.0
01:07:27.690,STABILIZE,-35.3632622,149.1652375,0,-0.0005434334743767977,0.0009744453127495944,0.02239721268415451,0.0002867146395146847,0.0004017940955236554,0.001628467463888228,0,1,-1000,0,0,0,-1,1,0,52625.0
01:07:27.891,STABILIZE,-35.3632622,149.1652375,0,-0.0005434334743767977,0.0009744453127495944,0.02239721268415451,0.0002867146395146847,0.0004017940955236554,0.001628467463888228,0,1,-1000,0,0,0,-1,1,0,52625.0
01:07:28.092,STABILIZE,-35.3632622,149.1652375,0,-0.0005691265105269849,0.0009726447751745582,0.022322911769151688,0.0002078136894851923,0.0003418553387746215,0.0016821224708110094,0,1,-1000,0,0,0,-1,1,0,52625.0
01:07:28.293,STABILIZE,-35.3632622,149.1652375,0,-0.0005918358801864088,0.0009627639083191752,0.02226640284061432,0.00016523816157132387,0.00026157917454838753,0.00156305986456573,0,2,-1000,0,0,0,-1,1,0,52625.0
01:07:28.494,STABILIZE,-35.3632622,149.1652375,0,-0.0005918358801864088,0.0009627639083191752,0.02226640284061432,0.00016523816157132387,0.00026157917454838753,0.00156305986456573,0,2,-1000,0,0,0,-1,1,0,52625.0
01:07:28.696,STABILIZE,-35.3632622,149.1652375,0,-0.0005918358801864088,0.0009627639083191752,0.02226640284061432,0.00016523816157132387,0.00026157917454838753,0.00156305986456573,0,2,-1000,0,0,0,-1,1,0,52625.0
01:07:28.898,STABILIZE,-35.3632622,149.1652375,0,-0.0005918358801864088,0.0009627639083191752,0.02226640284061432,0.00016523816157132387,0.00026157917454838753,0.00156305986456573,0,2,-1000,0,0,0,-1,1,0,52625.0
01:07:29.099,STABILIZE,-35.3632622,149.1652375,0,-0.0005918358801864088,0.0009627639083191752,0.02226640284061432,0.00016523816157132387,0.00026157917454838753,0.00156305986456573,0,2,-1000,0,0,0,-1,1,0,52625.0
01:07:29.300,STABILIZE,-35.3632622,149.1652375,0,-0.00038135380600579083,0.0009581436170265079,0.022029267624020576,0.0002228144439868629,0.00012665282702073455,0.001526291249319911,0,1,-1000,0,0,1,-1,2,1,52625.0
01:07:29.505,AUTO,-35.3632622,149.1652375,0,-0.0004411976260598749,0.0009729667217470706,0.021953709423542023,7.278722478076816e-05,0.00026527384761720896,0.0016176521312445402,0,1,-1000,0,0,1,-1,2,1,52625.0
01:07:29.706,AUTO,-35.3632622,149.1652375,1,-0.0004984696279279888,0.0009749899036251009,0.021895546466112137,0.0001957402564585209,0.00022776133846491575,0.0015378168318420649,0,1,-1000,1,0,1,-1,2,1,52625.0
01:07:29.907,AUTO,-35.3632622,149.1652375,1,-0.0004984696279279888,0.0009749899036251009,0.021895546466112137,0.0001957402564585209,0.00022776133846491575,0.0015378168318420649,0,1,-1000,1,0,1,-1,2,1,52625.0
01:07:30.109,AUTO,-35.3632622,149.1652375,0,-0.0005698738386854529,0.00097451958572492,0.02183300256729126,0.00037619489012286067,0.0002349059795960784,0.0014978325925767422,0,1,-1000,0,0,1,-1,2,1,52625.0
01:07:30.310,AUTO,-35.3632622,149.1652375,0,-0.0006079915910959244,0.0009795577498152852,0.021759670227766037,0.0003818871919065714,0.0003062354517169297,0.0014894320629537106,0,1,-1000,1,1,0,-1,1,1,52625.0
01:07:30.512,AUTO,-35.3632622,149.1652375,0,-0.0006079915910959244,0.0009795577498152852,0.021759670227766037,0.0003818871919065714,0.0003062354517169297,0.0014894320629537106,0,1,-1000,1,1,0,-1,1,1,52625.0
01:07:30.714,AUTO,-35.3632622,149.1652375,0,-0.0006079915910959244,0.0009795577498152852,0.021759670227766037,0.0003818871919065714,0.0003062354517169297,0.0014894320629537106,0,1,-1000,1,1,0,-1,1,1,52625.0
01:07:30.915,AUTO,-35.3632622,149.1652375,0,-0.0006079915910959244,0.0009795577498152852,0.021759670227766037,0.0003818871919065714,0.0003062354517169297,0.0014894320629537106,0,1,-1000,1,1,0,-1,1,1,52625.0
01:07:31.140,AUTO,-35.3632621,149.1652375,0,-0.0006051197997294366,0.0010859464528039098,0.02159346453845501,0.0003201791550964117,0.000288082635961473,0.0014118617400527,0,2,-1000,1,1,0,0,0,1,52625.0
01:07:31.370,AUTO,-35.3632621,149.1652375,0,-0.0005766444955952466,0.0011419981019571424,0.021524783223867416,0.0003347501624375582,0.00022855179850012064,0.0014852118911221623,0,2,-1000,0,0,0,0,0,1,52625.0
01:07:31.606,AUTO,-35.3632621,149.1652375,0,-0.0005414920160546899,0.0012031336082145572,0.021486474201083183,0.0002344301319681108,0.00028031785041093826,0.0015453991945832968,0,1,-1000,0,0,0,0,0,1,52625.0
01:07:31.814,AUTO,-35.3632621,149.1652375,0,-0.0004948581336066127,0.001276654307730496,0.02141823060810566,0.00015152565902099013,0.00033335218904539943,0.0015174152795225382,0,1,-1000,0,0,0,0,0,1,52625.0
01:07:32.016,AUTO,-35.3632621,149.1652375,0,-0.00044771816465072334,0.0013476251624524593,0.021346626803278923,0.00022486841771751642,0.00019498419715091586,0.0015513964463025331,0,2,-1000,0,1,1,0,0,1,52625.0
01:07:32.218,AUTO,-35.3632621,149.1652375,0,-0.0003951091493945569,0.0014152778312563896,0.021290648728609085,0.00034035975113511086,0.0003017759881913662,0.0014540371485054493,0,1,-1000,1,1,0,0,0,1,52625.0
01:07:32.419,AUTO,-35.3632621,149.1652375,0,-0.0003951091493945569,0.0014152778312563896,0.021290648728609085,0.00034035975113511086,0.0003017759881913662,0.0014540371485054493,0,1,-1000,1,1,0,0,0,1,52625.0
01:07:32.620,AUTO,-35.3632621,149.1652375,0,-0.0003951091493945569,0.0014152778312563896,0.021290648728609085,0.00034035975113511086,0.0003017759881913662,0.0014540371485054493,0,1,-1000,1,1,0,0,0,1,63929.0
01:07:32.822,AUTO,-35.3632621,149.1652375,0,-0.0003951091493945569,0.0014152778312563896,0.021290648728609085,0.00034035975113511086,0.0003017759881913662,0.0014540371485054493,0,1,-1000,1,1,0,0,0,1,63929.0
01:07:33.023,AUTO,-35.3632621,149.1652374,0,-0.00021857327374164015,0.0016248098108917475,0.02107199653983116,0.0003520646132528782,0.00029269623337313533,0.0014440807281062007,0,1,-1000,1,1,1,0,0,0,63929.0
01:07:33.224,AUTO,-35.3632621,149.1652374,0,-0.00014833726163487881,0.0017010245937854052,0.02100980095565319,0.00039266166277229786,0.00033062847796827555,0.0014445260167121887,0,1,-1000,0,0,1,0,0,0,63929.0
01:07:33.426,AUTO,-35.3632621,149.1652374,0,-0.00014833726163487881,0.0017010245937854052,0.02100980095565319,0.00039266166277229786,0.00033062847796827555,0.0014445260167121887,0,1,-1000,0,0,1,0,0,0,63929.0
01:07:33.627,AUTO,-35.3632621,149.1652374,0,0.0012565483339130878,0.001131055993027985,0.02098942920565605,0.011804210022091866,-0.00952220894396305,0.002024443354457617,0,0,-1088,12,-8,1,0,0,-4,63929.0
01:07:33.829,AUTO,-35.3632621,149.1652374,51,0.004369921050965786,-0.0005587354535236955,0.020954357460141182,0.005240938160568476,-0.0010287781478837132,0.0014250518288463354,0,0,-1140,6,0,0,0,0,-38,63929.0
01:07:34.031,AUTO,-35.3632621,149.1652375,190,0.003677453612908721,0.0001801437174435705,0.02078377828001976,0.002730687614530325,0.005143760237842798,0.0018456047400832176,0,0,-1129,3,5,1,0,0,-71,63929.0
01:07:34.232,AUTO,-35.3632621,149.1652375,405,0.0020300503820180893,0.0011732252314686775,0.020757026970386505,-0.011198318563401699,0.0026797596365213394,0.000743998447433114,0,0,-1108,-10,3,0,0,0,-99,63929.0
01:07:34.435,AUTO,-35.3632621,149.1652375,405,0.0020300503820180893,0.0011732252314686775,0.020757026970386505,-0.011198318563401699,0.0026797596365213394,0.000743998447433114,0,0,-1108,-10,3,0,0,0,-99,63929.0
01:07:34.637,AUTO,-35.3632621,149.1652375,405,0.0020300503820180893,0.0011732252314686775,0.020757026970386505,-0.011198318563401699,0.0026797596365213394,0.000743998447433114,0,0,-1108,-10,3,0,0,0,-99,63929.0
01:07:34.838,AUTO,-35.3632621,149.1652375,405,0.0020300503820180893,0.0011732252314686775,0.020757026970386505,-0.011198318563401699,0.0026797596365213394,0.000743998447433114,0,0,-1108,-10,3,0,0,0,-99,63929.0
01:07:35.040,AUTO,-35.363262,149.1652375,1392,0.02204224094748497,-0.0008900007233023643,0.02028539590537548,0.046291571110486984,-0.007430057041347027,0.0020009796135127544,0,-1,-1017,47,-6,1,1,5,-144,63929.0
01:07:35.241,AUTO,-35.363262,149.1652377,1771,0.033397335559129715,-0.0028468810487538576,0.020381415262818336,0.044393960386514664,-0.008060159161686897,0.00279108714312315,0,-1,-1007,44,-7,2,1,11,-147,63929.0
01:07:35.443,AUTO,-35.3632619,149.1652381,2155,0.04429207742214203,-0.0050849285908043385,0.02059437893331051,0.042886167764663696,-0.009315438568592072,0.003335821907967329,0,-2,-1002,43,-8,2,3,19,-148,63929.0
01:07:35.658,AUTO,-35.3632619,149.1652381,2155,0.04429207742214203,-0.0050849285908043385,0.02059437893331051,0.042886167764663696,-0.009315438568592072,0.003335821907967329,0,-2,-1002,43,-8,2,3,19,-148,63929.0
01:07:35.882,AUTO,-35.3632618,149.1652388,2540,0.0544605515897274,-0.007725412491708994,0.020913107320666313,0.03918217122554779,-0.01112148817628622,0.0038187350146472454,1,-4,-1000,39,-10,3,5,30,-148,63929.0
01:07:36.244,AUTO,-35.3632614,149.165241,3306,0.0428721159696579,0.012141086161136627,-0.030420847237110138,-0.13486367464065552,0.10355547815561295,-0.10372431576251984,2,-10,-990,-134,104,-104,10,52,-145,63929.0
01:07:36.524,AUTO,-35.3632614,149.165241,3306,0.0428721159696579,0.012141086161136627,-0.030420847237110138,-0.13486367464065552,0.10355547815561295,-0.10372431576251984,2,-10,-990,-134,104,-104,10,52,-145,63929.0
01:07:36.726,AUTO,-35.3632614,149.165241,3306,0.0428721159696579,0.012141086161136627,-0.030420847237110138,-0.13486367464065552,0.10355547815561295,-0.10372431576251984,2,-10,-990,-134,104,-104,10,52,-145,63929.0
01:07:36.929,AUTO,-35.3632614,149.165241,3306,0.0428721159696579,0.012141086161136627,-0.030420847237110138,-0.13486367464065552,0.10355547815561295,-0.10372431576251984,2,-10,-990,-134,104,-104,10,52,-145,63929.0
01:07:37.133,AUTO,-35.3632609,149.1652453,4594,-0.036141667515039444,0.014453048817813396,-0.08163619786500931,-0.022579431533813477,-0.01724514551460743,-0.03969787061214447,4,-8,-1003,-22,-16,-39,-1,32,-149,63929.0
01:07:37.335,AUTO,-35.3632609,149.1652461,4980,-0.04647590219974518,0.007913379929959774,-0.08839413523674011,-0.059361692517995834,-0.03165234625339508,-0.01766342483460903,4,-5,-999,-58,-30,-17,-3,20,-149,63686.0
01:07:37.537,AUTO,-35.3632609,149.1652461,4980,-0.04647590219974518,0.007913379929959774,-0.08839413523674011,-0.059361692517995834,-0.03165234625339508,-0.01766342483460903,4,-5,-999,-58,-30,-17,-3,20,-149,63686.0
01:07:37.739,AUTO,-35.3632609,149.1652464,5369,-0.06482552736997604,-0.0015606426168233156,-0.08929009735584259,-0.07982242107391357,-0.04153531789779663,0.0039549595676362514,3,-2,-998,-79,-41,3,-4,5,-148,63686.0
01:07:37.942,AUTO,-35.363261,149.1652463,5752,-0.07582678645849228,-0.008981330320239067,-0.08895670622587204,0.01096529420465231,-0.012162070721387863,-0.006427316926419735,0,1,-1005,11,-11,-6,-3,-13,-148,63686.0
01:07:38.144,AUTO,-35.3632611,149.1652457,6136,-0.0660744309425354,-0.009931836277246475,-0.09097296744585037,0.050685521215200424,-0.0015616185264661908,-0.00401367386803031,-2,4,-1002,51,0,-4,-2,-30,-148,63686.0
01:07:38.346,AUTO,-35.3632611,149.1652448,6519,-0.05223839730024338,-0.0098018329590559,-0.09280769526958466,0.05860678106546402,0.0026762017514556646,-0.0015363189158961177,-3,5,-1001,59,3,-1,-2,-44,-148,63686.0
01:07:38.554,AUTO,-35.3632611,149.1652448,6519,-0.05223839730024338,-0.0098018329590559,-0.09280769526958466,0.05860678106546402,0.0026762017514556646,-0.0015363189158961177,-3,5,-1001,59,3,-1,-2,-44,-148,63686.0
01:07:38.760,AUTO,-35.3632611,149.1652448,6519,-0.05223839730024338,-0.0098018329590559,-0.09280769526958466,0.05860678106546402,0.0026762017514556646,-0.0015363189158961177,-3,5,-1001,59,3,-1,-2,-44,-148,63686.0
01:07:38.966,AUTO,-35.3632611,149.1652448,6519,-0.05223839730024338,-0.0098018329590559,-0.09280769526958466,0.05860678106546402,0.0026762017514556646,-0.0015363189158961177,-3,5,-1001,59,3,-1,-2,-44,-148,63686.0
01:07:39.168,AUTO,-35.3632613,149.1652402,7671,-0.0054886541329324245,-0.0022254616487771273,-0.09361837059259415,0.06565869599580765,0.014093891717493534,0.0027938219718635082,-7,9,-1003,66,14,2,-2,-60,-150,63686.0
01:07:39.370,AUTO,-35.3632613,149.1652386,8060,0.01099389884620905,0.0014907487202435732,-0.09304940700531006,0.06523819267749786,0.014842194505035877,0.00292696594260633,-9,15,-1004,65,15,2,-3,-56,-151,63686.0
01:07:39.572,AUTO,-35.3632614,149.165237,8450,0.02737145870923996,0.004946770146489143,-0.09210380911827087,0.06618788838386536,0.01303264033049345,0.003942247945815325,-5,8,-1004,66,13,3,-5,-49,-152,63686.0
01:07:39.773,AUTO,-35.3632614,149.165237,8450,0.02737145870923996,0.004946770146489143,-0.09210380911827087,0.06618788838386536,0.01303264033049345,0.003942247945815325,-5,8,-1004,66,13,3,-5,-49,-152,63686.0
01:07:39.975,AUTO,-35.3632615,149.1652357,8842,0.04337936267256737,0.007755854167044163,-0.09100546687841415,0.06242476776242256,0.009436441585421562,0.004236206877976656,-5,9,-1003,63,9,3,-6,-39,-153,63686.0
01:07:40.177,AUTO,-35.3632617,149.1652348,9236,0.0586208812892437,0.009431169368326664,-0.08981557935476303,0.060082465410232544,0.004718146752566099,0.00432195421308279,-4,8,-1002,60,5,3,-8,-25,-153,63686.0
01:07:40.379,AUTO,-35.3632619,149.1652342,9630,0.07093041390180588,0.008756699971854687,-0.08753260225057602,0.014468261040747166,-0.015780936926603317,0.017625093460083008,0,4,-995,15,-14,17,-9,-8,-152,63686.0
01:07:40.581,AUTO,-35.3632619,149.1652342,9630,0.07093041390180588,0.008756699971854687,-0.08753260225057602,0.014468261040747166,-0.015780936926603317,0.017625093460083008,0,4,-995,15,-14,17,-9,-8,-152,63686.0
01:07:40.784,AUTO,-35.3632619,149.1652342,9630,0.07093041390180588,0.008756699971854687,-0.08753260225057602,0.014468261040747166,-0.015780936926603317,0.017625093460083008,0,4,-995,15,-14,17,-9,-8,-152,63686.0
01:07:40.986,AUTO,-35.3632619,149.1652342,9630,0.07093041390180588,0.008756699971854687,-0.08753260225057602,0.014468261040747166,-0.015780936926603317,0.017625093460083008,0,4,-995,15,-14,17,-9,-8,-152,63686.0
01:07:41.188,AUTO,-35.3632624,149.1652348,10787,0.01468467153608799,-0.0032931447494775057,-0.08241814374923706,-0.07392887771129608,-0.0075511871837079525,-0.007381542585790157,3,-3,-1001,-73,-6,-7,-4,22,-148,63686.0
01:07:41.411,AUTO,-35.3632625,149.1652353,11169,-0.00068635493516922,-0.0046417126432061195,-0.08541611582040787,-0.04969530552625656,-0.0037911823019385338,-0.015621227212250233,3,-4,-1003,-49,-3,-15,-2,21,-149,63686.0
01:07:41.658,AUTO,-35.3632625,149.1652358,11553,-0.010132758878171444,-0.005125703290104866,-0.09049119800329208,-0.030030541121959686,9.072234388440847e-05,-0.02232404612004757,3,-4,-1003,-29,0,-22,0,18,-150,63686.0
01:07:41.888,AUTO,-35.3632625,149.1652362,11940,-0.0150449825450778,-0.004817302338778973,-0.09698363393545151,-0.010809219442307949,0.002779800910502672,-0.025439223274588585,1,-2,-1003,-10,3,-25,1,13,-151,63686.0
01:07:42.090,AUTO,-35.3632624,149.1652365,12328,-0.016141770407557487,-0.004274522885680199,-0.10389913618564606,0.002914140233770013,0.0033104736357927322,-0.027798565104603767,0,-2,-1002,3,4,-28,3,7,-151,63686.0
01:07:42.293,AUTO,-35.3632624,149.1652366,12716,-0.014483816921710968,-0.0030030019115656614,-0.11128868162631989,0.007378746755421162,0.005758441518992186,-0.026143332943320274,0,-2,-1002,3,4,-28,4,2,-151,63686.0
01:07:42.496,AUTO,-35.3632624,149.1652366,12716,-0.014483816921710968,-0.0030030019115656614,-0.11128868162631989,0.007378746755421162,0.005758441518992186,-0.026143332943320274,0,-1,-1000,8,6,-26,4,2,-151,63686.0
01:07:42.698,AUTO,-35.3632624,149.1652366,12716,-0.014483816921710968,-0.0030030019115656614,-0.11128868162631989,0.007378746755421162,0.005758441518992186,-0.026143332943320274,0,-1,-1000,8,6,-26,4,2,-151,63686.0
01:07:42.901,AUTO,-35.3632624,149.1652366,12716,-0.014483816921710968,-0.0030030019115656614,-0.11128868162631989,0.007378746755421162,0.005758441518992186,-0.026143332943320274,0,-1,-1000,8,6,-26,4,2,-151,115562.0
01:07:43.102,AUTO,-35.3632621,149.1652365,13886,-0.002226412994787097,0.0013271613279357553,-0.1309352070093155,0.017237437888979912,0.007289119064807892,-0.022607609629631042,-1,0,-1000,18,8,-22,4,-6,-152,115562.0
01:07:43.304,AUTO,-35.363262,149.1652363,14275,0.0017265720525756478,0.003335276385769248,-0.13689495623111725,0.014511995017528534,0.008275652304291725,-0.020225342363119125,-2,0,-1000,14,8,-20,3,-6,-152,115562.0
01:07:43.506,AUTO,-35.363262,149.1652363,14275,0.0017265720525756478,0.003335276385769248,-0.13689495623111725,0.014511995017528534,0.008275652304291725,-0.020225342363119125,-2,0,-1000,14,8,-20,3,-6,-152,115562.0
01:07:43.707,AUTO,-35.3632619,149.1652361,14670,0.00452837161719799,0.005156639497727156,-0.14253178238868713,0.009595535695552826,0.006361701991409063,-0.02038791961967945,-2,0,-1000,10,7,-20,3,-6,-152,115562.0
01:07:43.909,AUTO,-35.3632618,149.1652359,15060,0.007097986992448568,0.006398909725248814,-0.14743024110794067,0.0102925980463624,0.004880624823272228,-0.017854485660791397,-2,1,-1000,11,5,-18,1,-5,-152,115562.0
01:07:44.110,AUTO,-35.3632617,149.1652357,15449,0.008791759610176086,0.006953716743737459,-0.15148362517356873,0.007149842567741871,0.001288571860641241,-0.012799824588000774,-1,0,-1000,8,2,-13,0,-3,-152,115562.0
01:07:44.313,AUTO,-35.3632616,149.1652356,15839,0.009585315361618996,0.006904332432895899,-0.15485483407974243,0.0010943782981485128,-0.001233743387274444,-0.011747469194233418,-1,0,-1000,1,0,-11,0,-1,-152,115562.0
01:07:44.515,AUTO,-35.3632616,149.1652356,15839,0.009585315361618996,0.006904332432895899,-0.15485483407974243,0.0010943782981485128,-0.001233743387274444,-0.011747469194233418,-1,0,-1000,1,0,-11,0,-1,-152,115562.0
01:07:44.716,AUTO,-35.3632616,149.1652356,15839,0.009585315361618996,0.006904332432895899,-0.15485483407974243,0.0010943782981485128,-0.001233743387274444,-0.011747469194233418,-1,0,-1000,1,0,-11,0,-1,-152,115562.0
01:07:44.918,AUTO,-35.3632616,149.1652356,15839,0.009585315361618996,0.006904332432895899,-0.15485483407974243,0.0010943782981485128,-0.001233743387274444,-0.011747469194233418,-1,0,-1000,1,0,-11,0,-1,-152,115562.0
01:07:45.119,AUTO,-35.3632616,149.1652355,17003,0.008345137350261211,0.005795128643512726,-0.16395346820354462,-0.0054428232833743095,-0.002276265062391758,-0.010023208335042,0,0,-999,-4,-1,-10,-2,3,-152,115562.0
01:07:45.321,AUTO,-35.3632616,149.1652355,17393,0.007092779967933893,0.005217635538429022,-0.16697965562343597,-0.0034932084381580353,-0.0019163149408996105,-0.011416660621762276,0,0,-1000,-2,-1,-11,-2,4,-152,115562.0
01:07:45.522,AUTO,-35.3632616,149.1652355,17393,0.007092779967933893,0.005217635538429022,-0.16697965562343597,-0.0034932084381580353,-0.0019163149408996105,-0.011416660621762276,0,0,-1000,-2,-1,-11,-2,4,-152,115562.0
01:07:45.724,AUTO,-35.3632616,149.1652356,17782,0.005891439039260149,0.004675211850553751,-0.17025312781333923,-0.005461364518851042,-0.002128028078004718,-0.014173370786011219,0,0,-1000,-4,-1,-14,-3,5,-152,115562.0
01:07:45.942,AUTO,-35.3632616,149.1652357,18171,0.0050337668508291245,0.004310631658881903,-0.17395417392253876,-0.0004889136762358248,0.0007894877926446497,-0.01559585053473711,0,0,-1000,0,1,-15,-3,5,-152,115562.0
01:07:46.159,AUTO,-35.3632616,149.1652357,18561,0.004484969191253185,0.004034124780446291,-0.17787115275859833,-0.003882897086441517,-5.879258969798684e-05,-0.016423994675278664,0,0,-1000,-3,0,-16,-3,5,-152,115562.0
01:07:46.445,AUTO,-35.3632616,149.1652358,18950,0.003883344354107976,0.003907436970621347,-0.1821497231721878,-0.002536898711696267,-0.0008629183284938335,-0.017256807535886765,0,0,-1000,-1,0,-17,-3,5,-152,115562.0
01:07:46.672,AUTO,-35.3632616,149.1652358,18950,0.003883344354107976,0.003907436970621347,-0.1821497231721878,-0.002536898711696267,-0.0008629183284938335,-0.017256807535886765,0,0,-1000,-1,0,-17,-3,5,-152,115562.0
01:07:46.893,AUTO,-35.3632616,149.1652358,18950,0.003883344354107976,0.003907436970621347,-0.1821497231721878,-0.002536898711696267,-0.0008629183284938335,-0.017256807535886765,0,0,-1000,-1,0,-17,-3,5,-152,115562.0
01:07:47.120,AUTO,-35.3632617,149.1652361,20122,0.0023348010145127773,0.00369236059486866,-0.19649972021579742,0.0015785644063726068,0.0006453371606767178,-0.019995806738734245,0,0,-1000,2,1,-20,-3,5,-152,115562.0
01:07:47.322,AUTO,-35.3632617,149.1652362,20512,0.002260331530123949,0.0033937208354473114,-0.20124468207359314,-0.0010228098835796118,-0.0023456981871277094,-0.018469251692295074,0,0,-1000,0,-1,-18,-3,4,-152,115562.0
01:07:47.523,AUTO,-35.3632617,149.1652362,20512,0.002260331530123949,0.0033937208354473114,-0.20124468207359314,-0.0010228098835796118,-0.0023456981871277094,-0.018469251692295074,0,0,-1000,0,-1,-18,-3,4,-152,115562.0
01:07:47.729,AUTO,-35.3632617,149.1652363,20902,0.0019471455598250031,0.0032516128849238157,-0.20623493194580078,-0.001554930699057877,-0.0003530241665430367,-0.02171264961361885,0,0,-999,0,0,-21,-3,4,-152,14921.0
01:07:47.931,AUTO,-35.3632617,149.1652363,21292,0.0021631347481161356,0.003108000149950385,-0.21112528443336487,0.001323588890954852,0.00046053918777033687,-0.02002776972949505,0,0,-1000,2,1,-20,-3,4,-153,14921.0
01:07:48.133,AUTO,-35.3632617,149.1652364,21690,0.0022404592018574476,0.0030987209174782038,-0.2161676287651062,0.0012740336824208498,0.00018218328477814794,-0.01990530453622341,0,0,-1000,2,1,-20,-2,4,-153,14921.0
01:07:48.335,AUTO,-35.3632618,149.1652364,22079,0.0020877805072814226,0.0031001369934529066,-0.22117672860622406,-0.00095846236217767,0.00024792185286059976,-0.02068781666457653,0,0,-1000,0,1,-21,-2,3,-153,14921.0
01:07:48.536,AUTO,-35.3632618,149.1652364,22079,0.0020877805072814226,0.0031001369934529066,-0.22117672860622406,-0.00095846236217767,0.00024792185286059976,-0.02068781666457653,0,0,-1000,0,1,-21,-2,3,-153,14921.0
01:07:48.738,AUTO,-35.3632618,149.1652364,22079,0.0020877805072814226,0.0031001369934529066,-0.22117672860622406,-0.00095846236217767,0.00024792185286059976,-0.02068781666457653,0,0,-1000,0,1,-21,-2,3,-153,14921.0
01:07:48.940,AUTO,-35.3632618,149.1652364,22079,0.0020877805072814226,0.0031001369934529066,-0.22117672860622406,-0.00095846236217767,0.00024792185286059976,-0.02068781666457653,0,0,-1000,0,1,-21,-2,3,-153,14921.0
01:07:49.141,AUTO,-35.3632618,149.1652366,23240,0.0021569773089140654,0.003225389402359724,-0.23615320026874542,-0.000688758329488337,0.0008748241816647351,-0.02051173523068428,0,0,-1000,0,1,-20,-2,3,-153,14921.0
01:07:49.343,AUTO,-35.3632618,149.1652366,23630,0.002433429704979062,0.003116484498605132,-0.24104179441928864,-0.00010312243830412626,-0.0015442495932802558,-0.01874954253435135,0,0,-999,0,0,-19,-2,3,-153,14921.0
01:07:49.545,AUTO,-35.3632618,149.1652366,24020,0.0026140278205275536,0.0026690925005823374,-0.24563108384609222,0.0008735209121368825,-0.002086508786305785,-0.018724054098129272,0,0,-1000,1,-1,-19,-2,3,-153,14921.0
01:07:49.748,AUTO,-35.3632618,149.1652366,24020,0.0026140278205275536,0.0026690925005823374,-0.24563108384609222,0.0008735209121368825,-0.002086508786305785,-0.018724054098129272,0,0,-1000,1,-1,-19,-2,3,-153,14921.0
01:07:49.949,AUTO,-35.3632618,149.1652367,24409,0.0024773580953478813,0.0024423087015748024,-0.2503245174884796,0.00246715871617198,0.00039953459054231644,-0.019466836005449295,0,0,-1000,3,1,-19,-2,3,-153,14921.0
01:07:50.152,AUTO,-35.3632619,149.1652367,24799,0.002614809898659587,0.0024082886520773172,-0.25506648421287537,0.002152091823518276,0.0004082201630808413,-0.020289555191993713,0,0,-1000,3,1,-20,-2,2,-153,14921.0
01:07:50.354,AUTO,-35.3632619,149.1652367,25187,-0.005141827277839184,0.0033441658597439528,-0.258434534072876,-0.06798242032527924,0.008964925073087215,-0.0008018993539735675,0,0,-995,-67,9,-1,-2,2,-152,14921.0
01:07:50.555,AUTO,-35.3632619,149.1652367,25187,-0.005141827277839184,0.0033441658597439528,-0.258434534072876,-0.06798242032527924,0.008964925073087215,-0.0008018993539735675,0,0,-995,-67,9,-1,-2,2,-152,14921.0
01:07:50.762,AUTO,-35.3632619,149.1652367,25187,-0.005141827277839184,0.0033441658597439528,-0.258434534072876,-0.06798242032527924,0.008964925073087215,-0.0008018993539735675,0,0,-995,-67,9,-1,-2,2,-152,14921.0
01:07:50.964,AUTO,-35.3632619,149.1652367,25187,-0.005141827277839184,0.0033441658597439528,-0.258434534072876,-0.06798242032527924,0.008964925073087215,-0.0008018993539735675,0,0,-995,-67,9,-1,-2,2,-152,14921.0
01:07:51.200,AUTO,-35.3632621,149.1652366,26352,0.005500387866050005,0.004177252762019634,-0.24818862974643707,0.02632622979581356,-0.0020901986863464117,0.02521437220275402,0,1,-1000,27,-1,25,-5,-1,-153,14921.0
01:07:51.410,AUTO,-35.3632622,149.1652365,26741,0.010014772415161133,0.0032711494714021683,-0.241560161113739,0.011861574836075306,-0.004962245002388954,0.027422966435551643,0,1,-1000,12,-4,27,-5,0,-153,14921.0
01:07:51.617,AUTO,-35.3632622,149.1652365,27129,0.011670387350022793,0.0021349249873310328,-0.23476848006248474,0.002243136055767536,-0.0027140039019286633,0.027159936726093292,0,0,-999,3,-1,26,-4,2,-153,14921.0
01:07:51.855,AUTO,-35.3632623,149.1652366,27518,0.011531232856214046,0.0013996314955875278,-0.2283480316400528,-0.000983152654953301,2.2055639419704676e-05,0.026001177728176117,0,0,-999,0,0,25,-3,4,-152,14921.0
01:07:52.094,AUTO,-35.3632624,149.1652366,27907,0.010247488506138325,0.001171401934698224,-0.22233866155147552,-0.004329887684434652,0.001172501128166914,0.024397756904363632,1,0,-1000,-3,1,24,-3,6,-152,14921.0
01:07:52.295,AUTO,-35.3632624,149.1652367,28294,0.008382218889892101,0.001253020018339157,-0.21657061576843262,-0.011360368691384792,-0.0001687257899902761,0.023906981572508812,0,0,-999,-10,0,23,-2,7,-152,14921.0
01:07:52.497,AUTO,-35.3632624,149.1652367,28294,0.008382218889892101,0.001253020018339157,-0.21657061576843262,-0.011360368691384792,-0.0001687257899902761,0.023906981572508812,0,0,-999,-10,0,23,-2,7,-152,14921.0
01:07:52.699,AUTO,-35.3632624,149.1652367,28294,0.008382218889892101,0.001253020018339157,-0.21657061576843262,-0.011360368691384792,-0.0001687257899902761,0.023906981572508812,0,0,-999,-10,0,23,-2,7,-152,20101.0
01:07:52.901,AUTO,-35.3632624,149.1652367,28294,0.008382218889892101,0.001253020018339157,-0.21657061576843262,-0.011360368691384792,-0.0001687257899902761,0.023906981572508812,0,0,-999,-10,0,23,-2,7,-152,20101.0
01:07:53.103,AUTO,-35.3632624,149.1652372,29458,0.0026461647357791662,0.0017522103153169155,-0.20091770589351654,-0.007398331072181463,0.0013322486774995923,0.021790621802210808,0,-1,-1000,-6,2,21,0,8,-152,20101.0
01:07:53.304,AUTO,-35.3632624,149.1652374,29845,0.001181859988719225,0.001765000051818788,-0.1960119754076004,-0.004114902578294277,0.0005492983036674559,0.020366771146655083,0,-1,-1001,-3,1,20,0,8,-152,20101.0
01:07:53.506,AUTO,-35.3632624,149.1652374,29845,0.001181859988719225,0.001765000051818788,-0.1960119754076004,-0.004114902578294277,0.0005492983036674559,0.020366771146655083,0,-1,-1001,-3,1,20,0,8,-152,20101.0
01:07:53.707,AUTO,-35.3632624,149.1652376,30233,0.0005543226725421846,0.002053052419796586,-0.1915498673915863,-0.0012688965070992708,0.0008229909581132233,0.018525781109929085,0,-1,-1000,0,1,18,0,7,-152,20101.0
01:07:53.909,AUTO,-35.3632624,149.1652377,30628,-0.00021107862994540483,0.0019344579195603728,-0.18694669008255005,-0.005255014635622501,0.00011352344881743193,0.018073320388793945,0,-1,-1000,-4,0,18,0,6,-152,20101.0
01:07:54.110,AUTO,-35.3632624,149.1652378,31016,-0.0007158633088693023,0.0015552464174106717,-0.182526633143425,0.002366640605032444,-0.0004642629064619541,0.01884504407644272,0,0,-1000,3,0,18,0,5,-152,20101.0
01:07:54.312,AUTO,-35.3632624,149.1652379,31405,-0.0009105831850320101,0.0012852114159613848,-0.17825275659561157,-0.0016777710989117622,-0.0010041085770353675,0.017261173576116562,0,0,-1000,0,0,16,0,4,-152,20101.0
01:07:54.514,AUTO,-35.3632624,149.1652379,31405,-0.0009105831850320101,0.0012852114159613848,-0.17825275659561157,-0.0016777710989117622,-0.0010041085770353675,0.017261173576116562,0,0,-1000,0,0,16,0,4,-152,20101.0
01:07:54.716,AUTO,-35.3632624,149.1652379,31405,-0.0009105831850320101,0.0012852114159613848,-0.17825275659561157,-0.0016777710989117622,-0.0010041085770353675,0.017261173576116562,0,0,-1000,0,0,16,0,4,-152,20101.0
01:07:54.917,AUTO,-35.3632624,149.1652379,31405,-0.0009105831850320101,0.0012852114159613848,-0.17825275659561157,-0.0016777710989117622,-0.0010041085770353675,0.017261173576116562,0,0,-1000,0,0,16,0,4,-152,20101.0
01:07:55.119,AUTO,-35.3632623,149.165238,32569,7.745660695945844e-05,0.0011778471525758505,-0.16637814044952393,0.0008773209992796183,0.0017384481616318226,0.015229327604174614,0,0,-999,1,2,15,0,1,-152,20101.0
01:07:55.320,AUTO,-35.3632623,149.165238,32958,0.00047743722097948194,0.0010343942558392882,-0.16277076303958893,0.0013679602416232228,-0.0009947960497811437,0.015396282076835632,0,0,-1000,2,0,15,0,1,-152,20101.0
01:07:55.522,AUTO,-35.3632623,149.165238,32958,0.00047743722097948194,0.0010343942558392882,-0.16277076303958893,0.0013679602416232228,-0.0009947960497811437,0.015396282076835632,0,0,-1000,2,0,15,0,1,-152,20101.0
01:07:55.769,AUTO,-35.3632623,149.165238,33346,0.00099792645778507,0.0011333947768434882,-0.15929916501045227,0.004171812441200018,0.0003821704303845763,0.012856300920248032,0,0,-1001,5,1,12,0,0,-152,20101.0
01:07:56.015,AUTO,-35.3632623,149.165238,33733,-0.002455325098708272,0.004449325613677502,-0.1488446146249771,-0.05411346256732941,0.04992218688130379,0.11441156268119812,0,0,-976,-53,51,114,0,0,-150,20101.0
01:07:56.229,AUTO,-35.3632623,149.165238,34108,-0.025478439405560493,0.029574092477560043,-0.0867815911769867,-0.12303319573402405,0.12019383907318115,0.3610069751739502,0,0,-972,-121,121,361,-4,-2,-143,20101.0
01:07:56.461,AUTO,-35.3632624,149.1652377,34464,-0.05594855546951294,0.06482446938753128,0.03850853443145752,-0.15679244697093964,0.10595447570085526,0.6033661365509033,0,1,-975,-155,106,603,-15,-12,-137,20101.0
01:07:56.669,AUTO,-35.3632624,149.1652377,34464,-0.05594855546951294,0.06482446938753128,0.03850853443145752,-0.15679244697093964,0.10595447570085526,0.6033661365509033,0,1,-975,-155,106,603,-15,-12,-137,20101.0
01:07:56.872,AUTO,-35.3632624,149.1652377,34464,-0.05594855546951294,0.06482446938753128,0.03850853443145752,-0.15679244697093964,0.10595447570085526,0.6033661365509033,0,1,-975,-155,106,603,-15,-12,-137,20101.0
01:07:57.074,AUTO,-35.3632642,149.1652352,35355,-0.0002890850882977247,-0.030112460255622864,0.21437855064868927,0.08694416284561157,-0.11128793656826019,0.022696197032928467,3,10,-953,88,-110,22,-28,-36,-97,20101.0
01:07:57.276,AUTO,-35.3632642,149.1652352,35355,-0.0002890850882977247,-0.030112460255622864,0.21437855064868927,0.08694416284561157,-0.11128793656826019,0.022696197032928467,3,10,-953,88,-110,22,-28,-36,-97,20101.0
01:07:57.478,AUTO,-35.3632648,149.1652342,35589,0.02149227447807789,-0.04819434508681297,0.2122281938791275,0.08552221953868866,-0.04398058354854584,-0.020142821595072746,2,10,-959,86,-42,-20,-19,-29,-86,37620.0
01:07:57.679,AUTO,-35.3632651,149.1652335,35797,0.036737941205501556,-0.053186867386102676,0.2039751410484314,0.09382272511720657,-0.003964073956012726,-0.03570247069001198,0,6,-965,94,-2,-35,-9,-19,-76,37620.0
01:07:57.881,AUTO,-35.3632652,149.1652331,35981,0.041646890342235565,-0.04989372566342354,0.19478613138198853,-0.11511372774839401,0.023420043289661407,-0.03504413738846779,-1,-4,-969,-114,24,-35,1,-7,-68,37620.0
01:07:58.083,AUTO,-35.3632651,149.165233,36144,0.042174071073532104,-0.041628316044807434,0.18628902733325958,0.06777220964431763,0.03681187704205513,-0.03130403906106949,-1,7,-973,69,37,-31,9,4,-60,37620.0
01:07:58.285,AUTO,-35.3632651,149.165233,36144,0.042174071073532104,-0.041628316044807434,0.18628902733325958,0.06777220964431763,0.03681187704205513,-0.03130403906106949,-1,7,-973,69,37,-31,9,4,-60,37620.0
01:07:58.487,AUTO,-35.3632649,149.1652331,36289,0.04381735622882843,-0.031496256589889526,0.17915885150432587,0.3474429249763489,0.040806494653224945,-0.02759469859302044,-3,5,-972,348,41,-27,16,13,-53,37620.0
01:07:58.689,AUTO,-35.3632649,149.1652331,36289,0.04381735622882843,-0.031496256589889526,0.17915885150432587,0.3474429249763489,0.040806494653224945,-0.02759469859302044,-3,5,-972,348,41,-27,16,13,-53,37620.0
01:07:58.890,AUTO,-35.3632649,149.1652331,36289,0.04381735622882843,-0.031496256589889526,0.17915885150432587,0.3474429249763489,0.040806494653224945,-0.02759469859302044,-3,5,-972,348,41,-27,16,13,-53,37620.0
01:07:59.092,AUTO,-35.3632634,149.1652348,36624,0.012637341395020485,-0.001171525800600648,0.16393634676933289,-0.08279803395271301,0.03389091417193413,-0.015761086717247963,-2,3,-977,-80,34,-15,23,29,-37,37620.0
01:07:59.294,AUTO,-35.3632634,149.1652348,36624,0.012637341395020485,-0.001171525800600648,0.16393634676933289,-0.08279803395271301,0.03389091417193413,-0.015761086717247963,-2,3,-977,-80,34,-15,23,29,-37,37620.0
01:07:59.495,AUTO,-35.3632629,149.1652356,36711,0.013924460858106613,0.006077844183892012,0.1599721908569336,0.48034852743148804,0.024377131834626198,-0.011733156628906727,-2,20,-985,482,25,-11,22,30,-32,37620.0
01:07:59.697,AUTO,-35.3632624,149.1652364,36786,0.003931841347366571,0.010854937136173248,0.1560831218957901,0.39920902252197266,0.012630680575966835,-0.015644386410713196,-2,2,-980,399,13,-15,20,27,-28,37620.0
01:07:59.899,AUTO,-35.363262,149.1652371,36848,-0.0046361293643713,0.014841767027974129,0.15211361646652222,-0.4581298530101776,0.017414510250091553,-0.011422918178141117,-1,-36,-971,-457,18,-11,17,23,-21,37620.0
01:08:00.100,AUTO,-35.3632616,149.1652378,36893,-0.011847245506942272,0.016382722184062004,0.1487848311662674,-0.4907267689704895,0.0030251836869865656,-0.010657049715518951,0,-21,-959,-489,4,-10,14,20,-15,37620.0
01:08:00.303,AUTO,-35.3632613,149.1652383,36919,-0.010352013632655144,0.01633245311677456,0.14573606848716736,0.10995865613222122,-0.0038984576240181923,-0.01005837693810463,1,18,-953,112,-2,-10,11,18,-6,37620.0
01:08:00.505,AUTO,-35.3632613,149.1652383,36919,-0.010352013632655144,0.01633245311677456,0.14573606848716736,0.10995865613222122,-0.0038984576240181923,-0.01005837693810463,1,18,-953,112,-2,-10,11,18,-6,37620.0
01:08:00.706,AUTO,-35.3632613,149.1652383,36919,-0.010352013632655144,0.01633245311677456,0.14573606848716736,0.10995865613222122,-0.0038984576240181923,-0.01005837693810463,1,18,-953,112,-2,-10,11,18,-6,37620.0
01:08:00.908,AUTO,-35.3632613,149.1652383,36919,-0.010352013632655144,0.01633245311677456,0.14573606848716736,0.10995865613222122,-0.0038984576240181923,-0.01005837693810463,1,18,-953,112,-2,-10,11,18,-6,37620.0
01:08:01.110,AUTO,-35.3632611,149.1652393,36840,-0.03494533151388168,0.023251008242368698,0.13500669598579407,0.7631200551986694,-0.08734332770109177,-0.01750051975250244,1,29,-1068,764,-86,-17,-5,-6,16,37620.0
01:08:01.325,AUTO,-35.3632613,149.1652391,36801,-0.031054047867655754,0.0054051680490374565,0.13134954869747162,0.4324856400489807,-0.05873775854706764,-0.00956641510128975,1,7,-1016,432,-57,-9,-7,-17,13,37620.0
01:08:01.559,AUTO,-35.3632614,149.1652388,36769,-0.04471251368522644,-0.004753556568175554,0.12740275263786316,-0.4340621829032898,-0.03590811789035797,-0.005259787663817406,0,-29,-999,-434,-35,-5,-5,-27,9,37620.0
01:08:01.831,AUTO,-35.3632616,149.1652382,36737,-0.057142436504364014,-0.013049199245870113,0.12352113425731659,-0.761841356754303,-0.0336376391351223,-0.0053123668767511845,0,-35,-1008,-761,-32,-5,-2,-36,11,37620.0
01:08:02.076,AUTO,-35.3632617,149.1652373,36706,-0.06746035069227219,-0.0189195703715086,0.12133130431175232,-0.7378334999084473,-0.019952310249209404,-0.002073634648695588,-3,-22,-1015,-736,-19,-1,1,-46,9,37620.0
01:08:02.308,AUTO,-35.3632617,149.1652362,36674,-0.0700145959854126,-0.024388950318098068,0.11868765205144882,-0.5271382331848145,-0.018399903550744057,-0.0015662519726902246,-3,5,-1001,-525,-17,-1,6,-55,12,37620.0
01:08:02.510,AUTO,-35.3632617,149.1652362,36674,-0.0700145959854126,-0.024388950318098068,0.11868765205144882,-0.5271382331848145,-0.018399903550744057,-0.0015662519726902246,-3,5,-1001,-525,-17,-1,6,-55,12,37620.0
01:08:02.711,AUTO,-35.3632617,149.1652362,36674,-0.0700145959854126,-0.024388950318098068,0.11868765205144882,-0.5271382331848145,-0.018399903550744057,-0.0015662519726902246,-3,5,-1001,-525,-17,-1,6,-55,12,37620.0
01:08:02.913,AUTO,-35.3632617,149.1652362,36674,-0.0700145959854126,-0.024388950318098068,0.11868765205144882,-0.5271382331848145,-0.018399903550744057,-0.0015662519726902246,-3,5,-1001,-525,-17,-1,6,-55,12,37620.0
01:08:03.117,AUTO,-35.3632611,149.1652312,36559,-0.06143082305788994,-0.057326700538396835,-0.1631721705198288,0.719934344291687,-0.05421162024140358,-0.8420342206954956,-14,40,-1015,720,-53,-841,24,-91,17,14638.0
01:08:03.320,AUTO,-35.3632606,149.1652288,36509,-0.05302387475967407,-0.07741115242242813,-0.3781983256340027,0.24990588426589966,-0.03433158993721008,-0.8552528619766235,-20,0,-983,249,-33,-855,30,-107,20,14638.0
01:08:03.522,AUTO,-35.3632606,149.1652288,36509,-0.05302387475967407,-0.07741115242242813,-0.3781983256340027,0.24990588426589966,-0.03433158993721008,-0.8552528619766235,-20,0,-983,249,-33,-855,30,-107,20,14638.0
01:08:03.724,AUTO,-35.36326,149.165226,36448,-0.04975549131631851,-0.09718488901853561,-0.588846743106842,-0.42261794209480286,-0.021852239966392517,-0.7924860715866089,-29,-38,-970,-423,-20,-792,36,-124,25,14638.0
01:08:03.926,AUTO,-35.3632592,149.1652227,36375,-0.04045902565121651,-0.11603297293186188,-0.7861123085021973,-0.8376719355583191,-0.04338017851114273,-0.7452675700187683,-36,-50,-980,-837,-42,-745,42,-142,30,14638.0
01:08:04.128,AUTO,-35.3632582,149.1652189,36289,-0.023162228986620903,-0.13293345272541046,-0.9722759127616882,-0.6495068669319153,-0.04282037168741226,-0.7340672612190247,-38,-18,-979,-648,-41,-733,50,-161,35,14638.0
01:08:04.330,AUTO,-35.3632571,149.1652146,36187,0.0018714790930971503,-0.14361974596977234,-1.1409531831741333,0.01795186661183834,-0.023758577182888985,-0.5583494305610657,-41,1,-981,20,-22,-558,58,-182,40,14638.0
01:08:04.532,AUTO,-35.3632571,149.1652146,36187,0.0018714790930971503,-0.14361974596977234,-1.1409531831741333,0.01795186661183834,-0.023758577182888985,-0.5583494305610657,-41,1,-981,20,-22,-558,58,-182,40,14638.0
01:08:04.734,AUTO,-35.3632571,149.1652146,36187,0.0018714790930971503,-0.14361974596977234,-1.1409531831741333,0.01795186661183834,-0.023758577182888985,-0.5583494305610657,-41,1,-981,20,-22,-558,58,-182,40,14638.0
01:08:04.937,AUTO,-35.3632571,149.1652146,36187,0.0018714790930971503,-0.14361974596977234,-1.1409531831741333,0.01795186661183834,-0.023758577182888985,-0.5583494305610657,-41,1,-981,20,-22,-558,58,-182,40,14638.0
01:08:05.139,AUTO,-35.3632529,149.165198,35801,0.039865028113126755,-0.13568085432052612,-1.189846396446228,0.9115393161773682,0.049340084195137024,0.065621018409729,-53,-4,-1008,911,50,65,76,-243,55,14638.0
01:08:05.341,AUTO,-35.3632512,149.1651914,35653,0.04610273241996765,-0.12253796309232712,-1.1733241081237793,0.4490726590156555,0.05743509158492088,0.06264463812112808,-55,-26,-986,447,58,62,80,-258,57,14638.0
01:08:05.543,AUTO,-35.3632512,149.1651914,35653,0.04610273241996765,-0.12253796309232712,-1.1733241081237793,0.4490726590156555,0.05743509158492088,0.06264463812112808,-55,-26,-986,447,58,62,80,-258,57,14638.0
01:08:05.744,AUTO,-35.3632493,149.1651845,35497,0.04077960550785065,-0.11399691551923752,-1.1648824214935303,-0.12058912962675095,0.02929600141942501,0.0522654764354229,-57,-72,-966,-121,30,52,84,-269,62,14638.0
01:08:05.946,AUTO,-35.3632474,149.1651772,35330,0.03326224908232689,-0.1105232834815979,-1.1651170253753662,-0.8231863379478455,0.01330976840108633,0.03843305632472038,-56,-88,-989,-823,14,38,88,-278,64,14638.0
01:08:06.148,AUTO,-35.3632454,149.1651697,35159,0.02622404135763645,-0.10568705946207047,-1.167737364768982,-1.0851389169692993,0.028573710471391678,0.024272259324789047,-71,-74,-1000,-1084,29,24,92,-286,66,14638.0
01:08:06.350,AUTO,-35.3632433,149.1651619,34978,0.027006806805729866,-0.10096298903226852,-1.1702078580856323,-0.5890882015228271,0.021601440384984016,-0.011419934220612049,-66,-43,-998,-587,22,-11,96,-292,70,14638.0
01:08:06.560,AUTO,-35.3632433,149.1651619,34978,0.027006806805729866,-0.10096298903226852,-1.1702078580856323,-0.5890882015228271,0.021601440384984016,-0.011419934220612049,-66,-43,-998,-587,22,-11,96,-292,70,14638.0
01:08:06.762,AUTO,-35.3632433,149.1651619,34978,0.027006806805729866,-0.10096298903226852,-1.1702078580856323,-0.5890882015228271,0.021601440384984016,-0.011419934220612049,-66,-43,-998,-587,22,-11,96,-292,70,14638.0
01:08:06.963,AUTO,-35.3632433,149.1651619,34978,0.027006806805729866,-0.10096298903226852,-1.1702078580856323,-0.5890882015228271,0.021601440384984016,-0.011419934220612049,-66,-43,-998,-587,22,-11,96,-292,70,14638.0
01:08:07.180,AUTO,-35.3632368,149.1651377,34400,0.03867495432496071,-0.08609405905008316,-1.1768256425857544,0.3481921851634979,0.030597569420933723,-0.050618916749954224,-68,1,-987,350,31,-50,103,-306,74,14638.0
01:08:07.415,AUTO,-35.3632345,149.1651293,34203,0.03820290416479111,-0.08091559261083603,-1.1794860363006592,0.28940916061401367,0.019803829491138458,-0.06706172227859497,-71,14,-981,292,20,-66,103,-307,74,14638.0
01:08:07.629,AUTO,-35.3632322,149.1651209,33998,0.034490372985601425,-0.07498874515295029,-1.1820005178451538,-0.08174961060285568,0.037285324186086655,-0.0033426748123019934,-73,-15,-1057,-79,38,-3,104,-308,75,14638.0
01:08:07.929,AUTO,-35.3632299,149.1651125,33798,0.035101406276226044,-0.06716422736644745,-1.1810009479522705,-0.5864288806915283,0.022142956033349037,-0.017268819734454155,-71,-38,-1029,-584,22,-17,105,-307,75,14638.0
01:08:08.163,AUTO,-35.3632275,149.1651042,33602,0.028423786163330078,-0.06566795706748962,-1.1817656755447388,-0.37508484721183777,0.0028851048555225134,-0.032598625868558884,-64,-26,-1009,-372,3,-32,104,-305,72,14638.0
01:08:08.367,AUTO,-35.3632251,149.1650959,33406,0.030434872955083847,-0.07019438594579697,-1.1811938285827637,-0.21173691749572754,-0.02159210480749607,-0.016382019966840744,-66,-7,-1006,-209,-20,-16,105,-304,74,14638.0
01:08:08.574,AUTO,-35.3632251,149.1650959,33406,0.030434872955083847,-0.07019438594579697,-1.1811938285827637,-0.21173691749572754,-0.02159210480749607,-0.016382019966840744,-66,-7,-1006,-209,-20,-16,105,-304,74,14638.0
01:08:08.777,AUTO,-35.3632251,149.1650959,33406,0.030434872955083847,-0.07019438594579697,-1.1811938285827637,-0.21173691749572754,-0.02159210480749607,-0.016382019966840744,-66,-7,-1006,-209,-20,-16,105,-304,74,14638.0
01:08:08.978,AUTO,-35.3632251,149.1650959,33406,0.030434872955083847,-0.07019438594579697,-1.1811938285827637,-0.21173691749572754,-0.02159210480749607,-0.016382019966840744,-66,-7,-1006,-209,-20,-16,105,-304,74,816.0
01:08:09.180,AUTO,-35.3632182,149.165071,32827,0.04739716276526451,-0.04994389787316322,-1.1847530603408813,0.7852318286895752,0.0416751429438591,-0.039991576224565506,-67,21,-1031,787,42,-39,100,-300,69,816.0
01:08:09.382,AUTO,-35.3632161,149.165063,32645,0.05238254740834236,-0.04017315432429314,-1.1859710216522217,1.1208343505859375,0.03647078573703766,-0.040983863174915314,-67,10,-1013,1122,37,-40,98,-293,66,816.0
01:08:09.583,AUTO,-35.363214,149.1650551,32468,0.06174397096037865,-0.029153404757380486,-1.1867679357528687,1.0704474449157715,0.04495774954557419,-0.01642189547419548,-68,9,-1011,1070,45,-16,94,-285,64,816.0
01:08:09.785,AUTO,-35.363214,149.1650551,32468,0.06174397096037865,-0.029153404757380486,-1.1867679357528687,1.0704474449157715,0.04495774954557419,-0.01642189547419548,-68,9,-1011,1070,45,-16,94,-285,64,816.0
01:08:09.987,AUTO,-35.363212,149.1650474,32299,0.0647033080458641,-0.01874656416475773,-1.1880263090133667,0.9495201706886292,0.04678019881248474,-0.0038814879953861237,-64,-17,-1000,949,47,-3,91,-275,64,816.0
01:08:10.189,AUTO,-35.3632101,149.1650401,32136,0.06553854793310165,-0.007186110131442547,-1.1882613897323608,0.5846068859100342,0.048131026327610016,0.004149861168116331,-57,-37,-1022,583,48,4,87,-262,57,816.0
01:08:10.391,AUTO,-35.3632082,149.1650331,31978,0.05619505047798157,0.005654605571180582,-1.1891733407974243,-0.10959240794181824,0.05063999444246292,0.013450282625854015,-54,-68,-1003,-111,51,13,83,-248,57,816.0
01:08:10.593,AUTO,-35.3632082,149.1650331,31978,0.05619505047798157,0.005654605571180582,-1.1891733407974243,-0.10959240794181824,0.05063999444246292,0.013450282625854015,-54,-68,-1003,-111,51,13,83,-248,57,816.0
01:08:10.794,AUTO,-35.3632082,149.1650331,31978,0.05619505047798157,0.005654605571180582,-1.1891733407974243,-0.10959240794181824,0.05063999444246292,0.013450282625854015,-54,-68,-1003,-111,51,13,83,-248,57,816.0
01:08:10.996,AUTO,-35.3632082,149.1650331,31978,0.05619505047798157,0.005654605571180582,-1.1891733407974243,-0.10959240794181824,0.05063999444246292,0.013450282625854015,-54,-68,-1003,-111,51,13,83,-248,57,816.0
01:08:11.198,AUTO,-35.363203,149.1650154,31571,0.03780855983495712,0.0395854189991951,-1.1930075883865356,-0.7314843535423279,0.04279307276010513,0.024223214015364647,-39,-79,-1004,-732,43,24,69,-192,44,816.0
01:08:11.400,AUTO,-35.3632016,149.1650105,31459,0.02378648892045021,0.05129621922969818,-1.1927597522735596,-0.9958993196487427,0.03120114468038082,0.020233161747455597,-34,-82,-995,-996,31,20,61,-171,38,816.0
01:08:11.601,AUTO,-35.3632003,149.1650063,31360,0.016402866691350937,0.06294894963502884,-1.191701889038086,-0.8895975947380066,0.04417114332318306,-0.003620424773544073,-32,-46,-1051,-889,44,-3,53,-147,28,816.0
01:08:11.803,AUTO,-35.3631993,149.1650027,31279,0.01691223494708538,0.0681704729795456,-1.1927955150604248,-0.4354757070541382,0.01752231828868389,-0.017798880115151405,-24,-16,-1027,-433,18,-17,46,-123,25,816.0
01:08:12.027,AUTO,-35.3631993,149.1650027,31279,0.01691223494708538,0.0681704729795456,-1.1927955150604248,-0.4354757070541382,0.01752231828868389,-0.017798880115151405,-24,-16,-1027,-433,18,-17,46,-123,25,816.0
01:08:12.302,AUTO,-35.3631984,149.1649997,31214,0.019143231213092804,0.06503491848707199,-1.1935278177261353,0.05766110494732857,-0.026548108085989952,-0.02352813258767128,-24,9,-1044,59,-25,-23,38,-99,18,816.0
01:08:12.555,AUTO,-35.3631978,149.1649974,31158,0.02036088891327381,0.05503149330615997,-1.1945384740829468,0.40795794129371643,-0.04586055874824524,-0.018747977912425995,-16,33,-1050,409,-45,-18,33,-79,14,816.0
01:08:12.763,AUTO,-35.3631978,149.1649974,31158,0.02036088891327381,0.05503149330615997,-1.1945384740829468,0.40795794129371643,-0.04586055874824524,-0.018747977912425995,-16,33,-1050,409,-45,-18,33,-79,14,816.0
01:08:13.006,AUTO,-35.3631978,149.1649974,31158,0.02036088891327381,0.05503149330615997,-1.1945384740829468,0.40795794129371643,-0.04586055874824524,-0.018747977912425995,-16,33,-1050,409,-45,-18,33,-79,14,816.0
01:08:13.210,AUTO,-35.3631967,149.1649929,31077,0.02392166666686535,0.023539602756500244,-1.1969659328460693,0.30811619758605957,-0.02852598764002323,-0.006082973442971706,-8,-3,-1020,307,-28,-5,19,-39,2,816.0
01:08:13.413,AUTO,-35.3631966,149.164992,31067,0.014064474031329155,0.017914680764079094,-1.198510766029358,-0.5492680072784424,-0.01617412269115448,-0.0071410080417990685,-6,-41,-1008,-549,-15,-7,15,-31,0,816.0
01:08:13.620,AUTO,-35.3631965,149.1649913,31063,0.007922196760773659,0.013872492127120495,-1.199380874633789,-0.704966127872467,-0.014911912381649017,-0.008599463850259781,-5,-25,-1000,-704,-14,-8,14,-23,-1,13216.0
01:08:13.822,AUTO,-35.3631965,149.1649908,31064,0.011109061539173126,0.010188748128712177,-1.2004626989364624,-0.0037612419109791517,-0.017388014122843742,-0.005868906155228615,-3,12,-1009,-1,-16,-5,13,-17,-3,13216.0
01:08:14.024,AUTO,-35.3631965,149.1649908,31064,0.011109061539173126,0.010188748128712177,-1.2004626989364624,-0.0037612419109791517,-0.017388014122843742,-0.005868906155228615,-3,12,-1009,-1,-16,-5,13,-17,-3,13216.0
01:08:14.226,AUTO,-35.3631964,149.1649905,31071,0.019532667472958565,0.007123549468815327,-1.2016146183013916,0.6064128279685974,-0.01384730450809002,-0.006507743615657091,-2,35,-1003,607,-13,-6,13,-13,-5,13216.0
01:08:14.428,AUTO,-35.3631964,149.1649902,31078,0.01954660192131996,0.0043163904920220375,-1.2030967473983765,0.6680317521095276,-0.015140731818974018,-0.005647437646985054,-1,15,-1000,668,-14,-5,11,-9,-4,13216.0
01:08:14.630,AUTO,-35.3631964,149.1649902,31078,0.01954660192131996,0.0043163904920220375,-1.2030967473983765,0.6680317521095276,-0.015140731818974018,-0.005647437646985054,-1,15,-1000,668,-14,-5,11,-9,-4,13216.0
01:08:14.832,AUTO,-35.3631964,149.1649902,31078,0.01954660192131996,0.0043163904920220375,-1.2030967473983765,0.6680317521095276,-0.015140731818974018,-0.005647437646985054,-1,15,-1000,668,-14,-5,11,-9,-4,13216.0
01:08:15.034,AUTO,-35.3631964,149.1649902,31078,0.01954660192131996,0.0043163904920220375,-1.2030967473983765,0.6680317521095276,-0.015140731818974018,-0.005647437646985054,-1,15,-1000,668,-14,-5,11,-9,-4,13216.0
01:08:15.236,AUTO,-35.3631965,149.1649899,31110,0.0042177122086286545,-0.010440805926918983,-1.2061976194381714,-0.654403805732727,-0.021200397983193398,-0.004902431275695562,-2,-29,-995,-654,-20,-4,8,-5,-5,13216.0
01:08:15.438,AUTO,-35.3631965,149.1649897,31118,0.0032393340952694416,-0.01524096168577671,-1.2075471878051758,-0.5728648900985718,-0.006858523469418287,0.001278620446100831,-2,-16,-1016,-571,-6,1,9,-7,-4,13216.0
01:08:15.640,RTL,-35.3631965,149.1649895,31127,0.008581669069826603,-0.013533595949411392,-1.2085323333740234,0.16296464204788208,0.012921098619699478,-0.0017854225588962436,-2,23,-1001,165,13,-1,10,-8,-5,13216.0
