time_stamp,MODE,roll,pitch,yaw,rollspeed,pitchspeed,yawspeed,lat,lon,relative_alt,vx,vy,vz,xacc,yacc,zacc,xgyro,ygyro,zgyro,RTL_ALT
04:22:51,STABILIZE,-0.0006748198065906763,0.0009489610674791038,0.023826995864510536,0.0002804389223456383,0.00037637888453900814,0.0018250008579343557,-35.3632621,149.1652375,0.0,-1.0,0.0,-1.0,0.0,1.0,-1000.0,0.0,0.0,0.0,1500.0
04:22:55,STABILIZE,-0.0007270949136000127,0.0009591063717380166,0.02254336327314377,0.00026617254479788244,0.0002403784019406885,0.0015943224425427616,-35.3632622,149.1652375,0.0,-1.0,1.0,0.0,0.0,1.5,-1000.0,0.0,0.5,0.0,1500.0
04:22:56,AUTO,-0.0007030509101847807,0.0009821507652911048,0.022190513089299202,0.0003027181567934652,0.00034425950919588405,0.0015187336442371209,-35.3632622,149.1652375,1.3333333333333333,-1.0,1.0,0.0,0.0,1.5,-1000.0,0.5,0.25,0.25,167891.0
04:22:57,AUTO,-0.0006964128115214407,0.0009838558034971356,0.02203647792339325,0.00031862419564276934,0.00023699994198977947,0.0016293312073685229,-35.3632622,149.1652375,3.5,-1.0,1.0,0.0,0.0,1.5,-1000.0,0.0,0.0,0.0,167891.0
04:22:59,AUTO,-0.0003748546587303281,0.0014001831877976656,0.021510309539735317,0.00024192617274820805,0.00034030911047011614,0.0014248571824282408,-35.3632621,149.1652375,1.0,0.0,0.0,0.0,0.0,1.5,-1000.0,0.5,0.5,1.0,167891.0
04:23:00,AUTO,0.0008981148434941133,0.0009436797772650607,0.02111276611685753,0.004343137348769233,-0.002222646537120454,0.0012925956980325282,-35.3632621,149.1652375,14.0,0.0,0.0,-10.25,0.0,0.5,-1059.5,4.25,-2.0,0.0,200.0
04:23:01,AUTO,0.002265201765112579,0.0007103985699359328,0.021037091501057148,-0.003390191064681858,0.0028799495194107294,0.0020746788941323757,-35.3632621,149.1652375,306.0,0.0,0.0,-85.5,0.0,0.0,-1117.5,-3.0,2.5,1.0,200.0
04:23:03,AUTO,0.048339987794558205,0.0025716287394364676,-0.010650490100185076,-0.06904529531796773,0.04209903193016847,-0.05882925920498868,-35.363261533333336,149.16524026666664,3085.0,8.0,45.666666666666664,-145.66666666666666,1.0,-8.0,-994.0,-68.66666666666667,42.666666666666664,-59.333333333333336,200.0
04:23:04,AUTO,-0.04759682590762774,0.014284157659858465,-0.09942082315683365,-0.04077660602827867,-0.059680914816757046,-0.003169532399624586,-35.36326116666667,149.16524596666667,4987.0,-9.666666666666666,20.0,-148.0,5.0,-4.666666666666667,-1001.0,-40.0,-58.333333333333336,-3.6666666666666665,200.0
04:23:05,AUTO,-0.06329447527726491,-0.023763203993439674,-0.0782943790157636,0.027698342843602102,-0.007000948612888654,0.012818796249727408,-35.3632617,149.1652458,6141.666666666667,-3.6666666666666665,-26.0,-148.0,-0.3333333333333333,3.6666666666666665,-1002.3333333333334,28.0,-6.666666666666667,12.0,200.0
04:23:07,AUTO,0.045415339370568596,0.013870369332532087,-0.082754651705424,0.0345012949158748,0.03988846018910408,-0.02705303207039833,-35.36326086666667,149.16523493333332,9233.333333333334,4.0,-31.666666666666668,-152.0,-6.333333333333333,6.666666666666667,-1001.0,34.666666666666664,40.333333333333336,-27.0,200.0
04:23:08,AUTO,0.021310982139160235,0.01284482528474958,-0.10404814779758453,-0.07149907325704892,-0.05131188531716665,0.021119104077418644,-35.3632617,149.16523456666667,11173.0,-18.666666666666668,25.333333333333332,-148.33333333333334,5.666666666666667,-1.3333333333333333,-999.3333333333334,-70.33333333333333,-50.0,20.333333333333332,64636.0
04:23:09,AUTO,-0.014004234224557877,-0.01094052583600084,-0.0972392310698827,-0.021502860821783543,-0.014054580824449658,-0.003989428980275989,-35.363262666666664,149.16523643333332,12326.0,-11.0,20.0,-150.33333333333334,5.0,-2.6666666666666665,-1003.0,-20.333333333333332,-13.0,-4.333333333333333,64636.0
04:23:11,AUTO,0.004444818070624024,0.0005181586214651664,-0.14628742635250092,0.013472343174119791,0.012266360533734163,-0.025155679633220036,-35.3632625,149.16523653333334,15446.0,7.0,-7.666666666666667,-152.0,-2.6666666666666665,0.0,-1000.0,13.666666666666666,12.666666666666666,-25.0,64636.0
04:23:12,AUTO,0.011064754178126654,0.00873594575872024,-0.17069140076637268,-0.0021513183407175043,0.00046161579666659236,-0.011992362327873707,-35.3632617,149.1652356,17392.666666666668,1.6666666666666667,-0.3333333333333333,-152.0,-1.3333333333333333,0.0,-999.6666666666666,-1.3333333333333333,1.0,-11.666666666666666,60132.0
04:23:13,AUTO,0.008096524669478336,0.0077178385108709335,-0.17948606113592783,-0.004256900865584612,-0.0016375418830042083,-0.010679916478693485,-35.3632615,149.16523556666664,18560.666666666668,-1.0,4.0,-152.0,0.0,0.0,-1000.0,-3.0,-0.6666666666666666,-10.333333333333334,60132.0
04:23:15,AUTO,0.0018491732965533931,0.003454740159213543,-0.20852344234784445,-0.00012869878749673566,-0.000503213300059239,-0.017996118714412052,-35.3632616,149.16523630000003,21685.333333333332,-3.0,5.333333333333333,-152.0,0.0,0.0,-1000.0,0.3333333333333333,0.3333333333333333,-17.666666666666668,60132.0
04:23:16,AUTO,0.0017671013871828716,0.0026885574528326592,-0.23278453946113586,0.0009188490997379025,-0.00043946671454856795,-0.019335939238468807,-35.3632617,149.1652366333333,23628.0,-3.0,3.0,-153.0,0.0,0.0,-1000.0,1.6666666666666667,0.0,-19.0,200.0
04:23:17,AUTO,-0.00042579307531317073,0.0025253507774323225,-0.247190793355306,-0.02296687464695424,0.0014721076392258208,-0.018812927107016247,-35.3632618,149.1652367,24797.0,-2.0,2.0,-152.66666666666666,0.0,0.0,-998.6666666666666,-22.333333333333332,1.6666666666666667,-18.666666666666668,200.0
04:23:19,AUTO,0.0109880855306983,0.0015548498680194218,-0.22567043701807657,-0.006404693083216746,-0.0008595513451534013,0.023427226891120274,-35.36326226666667,149.1652365333333,27907.333333333332,-3.0,6.0,-152.0,0.3333333333333333,0.0,-999.3333333333334,-5.0,0.3333333333333333,23.0,200.0
04:23:20,AUTO,0.0017207424195172887,0.0014997320249676704,-0.19834775229295096,-0.004480157280340791,0.0013017053909910221,0.021170233686765034,-35.3632623,149.16523736666667,29844.333333333332,0.0,8.0,-152.0,0.6666666666666666,-1.0,-1000.0,-3.0,1.6666666666666667,20.666666666666668,200.0
04:23:21,AUTO,-0.0008151143071396897,0.0018295490105325978,-0.18446741004784903,-0.0002667375956661999,0.0007954484511477252,0.019060680642724037,-35.3632623,149.1652378,31013.333333333332,0.0,5.333333333333333,-152.0,0.0,-0.6666666666666666,-1000.0,0.6666666666666666,1.3333333333333333,18.666666666666668,200.0
04:23:23,AUTO,0.0016050346506138642,0.0011077906625966232,-0.15372907121976218,-0.0035829151359697184,0.0025021583617975316,0.021300056328376133,-35.3632623,149.16523806666666,34123.0,0.0,0.0,-152.33333333333334,0.0,0.0,-997.6666666666666,-3.0,3.3333333333333335,20.666666666666668,200.0
04:23:24,AUTO,-0.03788685860733191,0.0268288254737854,0.1735275536775589,0.06597228720784187,-0.14211136351029077,0.2222114515801271,-35.36326323333333,149.1652365333333,35907.0,-28.333333333333332,-30.666666666666668,-116.33333333333333,2.6666666666666665,7.666666666666667,-947.3333333333334,67.0,-140.33333333333334,221.66666666666666,217203.0
04:23:25,AUTO,0.028510969132184982,-0.048729063322146736,0.2141106774409612,0.051690474152565,-0.02612786740064621,-0.022787642820427816,-35.36326483333334,149.16523383333333,36663.333333333336,-13.0,-23.0,-82.33333333333333,1.3333333333333333,6.333333333333333,-963.0,52.0,-25.0,-22.333333333333332,217203.0
04:23:27,AUTO,0.010194238275289536,0.008097226615063846,0.163247878352801,0.1518982152144114,0.02289575586716334,-0.013463259985049566,-35.3632626,149.16523586666665,37755.0,20.666666666666668,28.333333333333332,-28.666666666666668,-1.6666666666666667,1.3333333333333333,-977.3333333333334,152.66666666666666,23.666666666666668,-13.0,217203.0
04:23:28,AUTO,-0.020697361168762047,0.031530290842056274,0.1403153936068217,0.4406185696522395,0.015057538209172586,0.010263280011713505,-35.363260966666665,149.16523896666666,37904.666666666664,3.0,9.666666666666666,6.0,0.0,25.333333333333332,-976.0,442.3333333333333,15.666666666666666,10.0,300000.0
04:23:29,AUTO,0.017776242612550657,0.016091774838666122,0.13438202440738678,-0.1517272194226583,-0.029491194834311802,-0.0012389345405002434,-35.3632613,149.16523943333334,37808.666666666664,-13.666666666666666,0.6666666666666666,7.333333333333333,2.3333333333333335,-18.0,-1019.6666666666666,-151.33333333333334,-28.0,-1.0,300000.0
04:23:31,AUTO,0.11582074811061223,-0.06906899685660998,0.8835338354110718,0.09847762032101552,-0.012701753992587328,0.7681389252344767,-35.36326603333333,149.1652513,38059.333333333336,-39.666666666666664,138.0,-36.666666666666664,-2.0,-30.666666666666668,-1027.3333333333333,99.33333333333333,-11.333333333333334,768.0,300000.0
04:23:32,AUTO,0.04368948688109716,-0.1751561015844345,1.7704004844029744,-0.030244949584205944,-0.007778745144605637,0.6565238038698832,-35.36327266666667,149.1652785,38724.333333333336,-77.33333333333333,279.0,-71.33333333333333,-52.333333333333336,-44.666666666666664,-1040.3333333333333,-29.333333333333332,-7.0,656.0,300000.0
04:23:33,AUTO,0.016821701700488727,-0.1395230988661448,2.113590399424235,0.05307506831983725,0.10079898685216904,0.2407021919886271,-35.3632789,149.16530393333335,39366.333333333336,-102.0,346.0,-96.66666666666667,-76.0,-21.0,-1030.3333333333333,54.0,101.33333333333333,240.33333333333334,300000.0
04:23:35,AUTO,-0.03704787231981754,-0.18448163072268167,2.420520861943563,0.02416783943772316,0.015131691470742226,0.05624338611960411,-35.363300433333336,149.16538673333335,41401.0,-138.0,433.0,-75.66666666666667,-96.33333333333333,1.6666666666666667,-974.6666666666666,25.0,16.333333333333332,56.666666666666664,300000.0
04:23:36,AUTO,-0.00892927567474544,-0.08734047412872314,2.3964460690816245,0.03882106766104698,0.026306578889489174,-0.029413277904192608,-35.363317466666665,149.16545066666666,42463.0,-145.0,471.3333333333333,-102.33333333333333,-112.33333333333333,-5.666666666666667,-1024.0,39.666666666666664,26.666666666666668,-29.0,286341.0
04:23:37,AUTO,0.015708216776450474,-0.0786965290705363,2.3817121982574463,0.020392547904824216,0.017117012292146683,-0.010767613848050436,-35.36332676666667,149.16548939999998,43305.333333333336,-133.33333333333334,455.0,-116.33333333333333,-111.33333333333333,6.0,-1010.0,21.0,17.666666666666668,-10.0,286341.0
04:23:39,AUTO,0.04596095159649849,-0.008347957789131518,2.3519578774770102,0.008223319426178932,0.04130403387049834,-0.015463058526317278,-35.36334886666666,149.16557916666667,46028.0,-105.66666666666667,336.3333333333333,-148.66666666666666,-90.0,-5.666666666666667,-1013.3333333333334,9.0,41.666666666666664,-14.666666666666666,286341.0
04:23:40,AUTO,-0.01762931126480301,0.03822769286731879,1.9008104801177979,0.026381365954875946,0.20233791321516037,-0.41426076491673786,-35.3633591,149.1656204,47782.333333333336,-58.666666666666664,261.6666666666667,-107.66666666666667,-55.333333333333336,-26.666666666666668,-940.0,27.333333333333332,202.66666666666666,-413.6666666666667,124610.0
04:23:41,AUTO,0.04517120557526747,0.1423297425111135,1.8236675262451172,0.05807887390255928,0.013955484221999844,0.05216666062672933,-35.36336206666667,149.1656388,48427.333333333336,-24.0,163.33333333333334,-54.666666666666664,-35.0,-19.333333333333332,-936.0,59.0,15.0,52.0,124610.0
04:23:43,AUTO,-0.006277191918343306,0.033083438873291016,1.840381423632304,-0.006567371388276418,-0.0393336129685243,0.0031857041952510676,-35.36336756666666,149.16564996666668,48618.0,-22.333333333333332,-16.333333333333332,6.666666666666667,6.333333333333333,-12.0,-1009.3333333333334,-6.0,-37.666666666666664,3.0,124610.0
04:23:44,AUTO,-0.01848182299484809,-0.003947950666770339,1.843916694323222,-0.18734811743100485,-0.02645380049943924,0.003810136540172001,-35.3633694,149.16564733333334,48534.0,-0.3333333333333333,-16.666666666666668,4.0,2.6666666666666665,-18.333333333333332,-1000.3333333333334,-186.66666666666666,-25.0,3.6666666666666665,70931.0
04:23:45,RTL,-0.009088501334190369,-0.012113315984606743,1.8448764085769653,0.2119589944680532,0.006524030041570465,0.00033041797966385883,-35.3633695,149.16564663333332,48501.666666666664,4.333333333333333,-4.333333333333333,1.0,-0.6666666666666666,20.0,-1009.6666666666666,213.66666666666666,7.333333333333333,0.6666666666666666,70931.0
04:23:47,RTL,0.0021229744306765497,0.010363500565290451,1.848221739133199,-0.07133663694063823,0.0016105261941750844,0.0027373624810328088,-35.363369666666664,149.16564760000003,48618.0,-2.6666666666666665,-4.666666666666667,-29.0,-0.6666666666666666,-7.0,-1040.3333333333333,-70.33333333333333,3.0,2.6666666666666665,70931.0
04:23:48,RTL,0.000934117396051685,0.008702589975049099,1.851546088854472,0.0026844305296738944,-0.0034082685597240925,0.004517786825696628,-35.36336963333333,149.16564793333336,49328.0,0.0,-9.0,-83.66666666666667,0.0,-0.3333333333333333,-1043.3333333333333,4.333333333333333,-1.6666666666666667,4.333333333333333,200.0
04:23:49,RTL,0.00028820419296001393,0.007217887944231431,1.8529123067855835,-0.02273589714119832,0.00029461147884527844,0.0027537005953490734,-35.3633696,149.16564796666668,50090.333333333336,0.0,-10.0,-116.0,0.0,-0.3333333333333333,-1043.0,-21.0,1.6666666666666667,2.6666666666666665,200.0
04:23:51,RTL,0.04323373672862848,0.0017452967974046867,1.8403866291046143,-0.05882087225715319,0.043714456570645176,-0.06070681971808275,-35.36337173333334,149.16564739999998,52984.0,-41.666666666666664,-10.333333333333334,-147.0,3.0,-8.333333333333334,-993.6666666666666,-57.333333333333336,45.333333333333336,-60.0,200.0
04:23:52,RTL,-0.08274369935194652,0.004288641677703708,1.7728747924168904,-0.0004192374957104524,-0.015718397684395313,-0.026224858437975247,-35.363375733333335,149.16564639999999,54876.666666666664,2.6666666666666665,-6.666666666666667,-148.66666666666666,2.3333333333333335,-2.0,-1005.3333333333334,0.6666666666666666,-13.666666666666666,-25.0,210799.0
04:23:53,RTL,-0.05126628279685974,-0.0019070126969988148,1.7604861656824748,0.059597654889027275,0.0006339276830355326,-0.00856551481410861,-35.363374099999994,149.16564633333334,56030.333333333336,48.0,2.3333333333333335,-149.0,-3.6666666666666665,7.666666666666667,-1000.6666666666666,60.333333333333336,2.3333333333333335,-7.333333333333333,210799.0
04:23:55,RTL,0.044958364218473434,-0.022242578794248402,1.7853305339813232,-0.03919270091379682,-0.05865844618529081,0.06719726075728734,-35.3633663,149.16564603333333,59141.333333333336,6.0,-9.0,-150.66666666666666,0.6666666666666666,3.6666666666666665,-996.3333333333334,-37.333333333333336,-56.333333333333336,67.66666666666667,210799.0
04:23:56,RTL,-0.012163531656066576,-0.0026250899148484073,1.7662612597147624,-0.008262339048087597,0.028315402567386627,-0.052988393853108086,-35.3633671,149.1656468,61068.0,-10.666666666666666,15.333333333333334,-150.33333333333334,-2.0,-3.3333333333333335,-1002.3333333333334,-6.666666666666667,29.666666666666668,-52.0,200.0
04:23:57,RTL,-0.006451165148367484,0.01041456280897061,1.7314083973566692,0.018032565712928772,0.01043216697871685,-0.03550301678478718,-35.363367366666665,149.16564806666668,62235.333333333336,-0.6666666666666666,11.333333333333334,-151.66666666666666,-2.6666666666666665,-1.0,-1001.0,19.0,11.666666666666666,-34.0,200.0
04:23:59,RTL,0.0037521147169172764,0.0038382590282708406,1.7000610033671062,-0.0039267276879400015,-0.007401699665933847,-0.009735852479934692,-35.363367266666664,149.16564836666666,65359.0,-5.0,-7.666666666666667,-152.0,1.0,0.0,-1000.0,-2.0,-5.0,-8.333333333333334,200.0
04:24:00,RTL,-0.0013446888187900186,-0.0017088096356019378,1.679829518000285,-0.0018309379423347611,-0.0014167303452268243,-0.020736390103896458,-35.3633677,149.16564743333333,67304.33333333333,-6.0,-5.0,-152.0,1.0,0.0,-1000.0,-0.3333333333333333,0.3333333333333333,-19.333333333333332,200.0
04:24:01,RTL,-0.0017749082762748003,-0.001673070713877678,1.6618287165959675,0.0011359068642680843,2.5743618607521057e-05,-0.024100208654999733,-35.363367966666665,149.1656471,68474.0,-5.0,-2.6666666666666665,-152.0,0.3333333333333333,0.0,-1000.0,2.3333333333333335,1.3333333333333333,-22.666666666666668,200.0
04:24:03,RTL,0.0005778445823428532,0.0011526319237115483,1.6119261582692463,0.000609206462589403,0.0014610695652663708,-0.02256853257616361,-35.36336826666666,149.1656469,71599.0,-3.6666666666666665,0.0,-152.0,0.0,0.0,-1000.0,1.6666666666666667,3.0,-21.0,200.0
04:24:04,RTL,-0.00018294815405776413,0.0009976427536457777,1.5858555634816487,0.0015434490439171593,0.0005317990047236284,-0.01471174197892348,-35.363368466666664,149.16564686666666,73539.33333333333,-4.0,-1.0,-152.0,0.0,0.0,-999.6666666666666,2.6666666666666665,2.0,-13.0,263242.0
04:24:05,RTL,0.002129107170427839,0.0032972583236793676,1.5849061806996663,0.0016779068779821198,0.001923451821009318,0.014584349623570839,-35.36336863333333,149.16564676666667,74708.33333333333,-4.333333333333333,-1.3333333333333333,-152.0,0.0,0.0,-999.0,3.0,3.3333333333333335,15.0,263242.0
04:24:07,RTL,-0.0022302298651387296,0.00015574184241510616,1.640057365099589,-0.0014250102685764432,-0.0012897299990678828,0.028829118857781093,-35.36336926666667,149.16564626666664,77816.0,-4.666666666666667,-2.6666666666666665,-152.0,0.3333333333333333,0.0,-1000.0,0.3333333333333333,0.3333333333333333,29.333333333333332,263242.0
04:24:08,RTL,-0.0018253655871376395,0.00019021901365097923,1.6702304283777873,0.0013837276492267847,0.0009482663978512088,0.022171558812260628,-35.3633694,149.1656462,79756.0,-1.6666666666666667,-0.3333333333333333,-152.0,0.0,0.0,-1000.3333333333334,2.3333333333333335,2.0,23.0,286651.0
04:24:09,RTL,-0.0013414525504534442,0.0003200291733567913,1.6851309537887573,0.000988407797800998,-0.00039182184264063835,0.019534879674514134,-35.3633694,149.1656462,80921.0,-1.0,0.0,-152.0,0.0,0.0,-1000.0,2.3333333333333335,1.0,20.0,286651.0
04:24:11,RTL,-0.0006078542986263832,0.0007018751639407128,1.7184172074000041,0.001157469969863693,0.002178598389339944,0.015369848969082037,-35.36336936666667,149.16564636666666,84030.33333333333,0.0,0.0,-152.0,0.0,0.0,-999.6666666666666,2.6666666666666665,3.6666666666666665,16.0,286651.0
04:24:12,RTL,-0.0001847291350713931,0.0017250719635436933,1.7349919080734253,-0.00023379677440971136,0.0007948536658659577,0.013238422262171904,-35.3633693,149.16564663333335,85968.33333333333,0.0,0.0,-152.0,0.0,0.0,-1000.0,1.0,2.0,14.0,129584.0
04:24:13,RTL,-0.000364876138822486,0.0014410059666261077,1.7432799736658733,-0.0001382243741924564,-0.0003497945920874675,0.010766373947262764,-35.36336923333334,149.1656467,87133.0,-0.6666666666666666,-1.0,-152.0,0.0,0.0,-999.6666666666666,1.3333333333333333,1.3333333333333333,11.333333333333334,129584.0
04:24:15,RTL,-4.6460217769587565e-05,0.0011053518392145634,1.7622569402058919,0.0004542618601893385,-0.0006005631682152549,0.010119960643351078,-35.3633691,149.1656468,90237.66666666667,-1.0,-1.0,-152.0,0.0,0.0,-1000.0,2.0,1.0,11.0,129584.0
04:24:16,RTL,9.221354806262147e-06,0.001292302234408756,1.7714526653289795,0.0005481343250721693,-0.0004378892481327057,0.007551576321323712,-35.3633691,149.1656469,92178.66666666667,-1.0,-1.0,-152.0,0.0,0.0,-1000.0,2.0,0.6666666666666666,8.333333333333334,107210.0
04:24:17,RTL,-5.7869972200326934e-05,0.0012791917348901431,1.7763772408167522,0.00021843530703336,0.00016345762802908817,0.0065191287236909074,-35.3633691,149.1656469,93343.33333333333,-1.0,-1.0,-152.0,0.0,0.0,-1000.0,1.3333333333333333,1.3333333333333333,7.333333333333333,107210.0
04:24:19,RTL,-0.00042444469484811026,0.0012968591957663496,1.7887386878331502,0.00034890358801931143,0.0007075874212508401,0.007040134475876887,-35.3633691,149.1656469,96452.0,-1.0,-1.0,-152.0,0.0,0.0,-1000.0,1.6666666666666667,2.3333333333333335,8.0,107210.0
04:24:20,RTL,-0.0002609663739955674,0.0012879077888404329,1.7956050237019856,0.0009010334421570102,3.075611311942339e-05,0.007168754935264587,-35.3633691,149.1656469,98397.33333333333,-1.0,-1.0,-152.0,0.0,0.0,-1000.0,2.3333333333333335,1.6666666666666667,8.0,200.0
04:24:21,RTL,-0.00042331770722133416,0.0013033765135332942,1.7993533213933308,0.0005529484090705713,0.0016969999996945262,0.005321563376734654,-35.3633691,149.1656469,99565.0,-1.0,-1.0,-152.0,0.0,0.0,-1000.0,2.0,3.3333333333333335,6.333333333333333,200.0
04:24:23,RTL,-0.0005827929805188129,0.00090086116688326,1.8093117078145344,0.0007407296216115355,0.0006704316086446246,0.005257618458320697,-35.3633691,149.1656469,102669.33333333333,-1.0,-1.3333333333333333,-152.0,0.0,0.0,-999.3333333333334,2.0,2.3333333333333335,6.0,200.0
04:24:24,RTL,-0.0004942723026033491,0.0008665282706109186,1.814429799715678,0.00021635624580085278,0.000914386473596096,0.0052571224514395,-35.3633691,149.1656469,104604.0,-1.0,-1.0,-152.0,0.0,0.0,-1000.0,1.6666666666666667,2.6666666666666665,6.333333333333333,247349.0
04:24:25,RTL,-0.0005487709034544727,0.001121196507786711,1.8170148134231567,-0.0004327860660851002,0.0002905135042965412,0.005640353697041671,-35.3633691,149.1656469,105768.66666666667,-1.0,-1.0,-152.0,0.0,0.0,-1000.0,1.0,2.0,6.666666666666667,247349.0
04:24:27,RTL,-0.0004301399264174203,0.0014617764779056113,1.8240729173024495,-0.0005551162951936325,0.00028020570365091163,0.003460370237007737,-35.3633691,149.1656469,108881.66666666667,-1.0,-1.0,-152.0,0.0,0.0,-1000.0,1.0,2.0,4.666666666666667,247349.0
04:24:28,RTL,-0.0005008204898331314,0.001200912947145601,1.8279769817988079,0.0019866181537508965,0.00025092406819264096,0.004085786989890039,-35.3633691,149.1656469,110825.0,-1.0,-2.0,-152.0,0.0,0.0,-1000.0,3.3333333333333335,1.6666666666666667,5.0,200.0
04:24:29,RTL,-0.0009329773796101412,0.010520458803512156,1.8304586013158162,-0.0015558019901315372,0.03697969919691483,0.004036553980161746,-35.3633691,149.1656469,111990.33333333333,-0.6666666666666666,-3.3333333333333335,-151.33333333333334,0.0,0.0,-998.0,0.3333333333333333,38.666666666666664,5.0,200.0
04:24:31,RTL,-0.012401880696415901,0.08797465761502583,1.835228443145752,-0.009311437606811523,0.03400198804835478,0.002595057555784782,-35.363367333333336,149.16563936666668,115030.0,24.0,-88.33333333333333,-144.0,15.333333333333334,9.333333333333334,-993.6666666666666,-7.0,36.0,3.6666666666666665,200.0
04:24:32,RTL,-0.03951423428952694,0.1945770631233851,2.1116804281870523,-0.012481323288132748,-0.02155507728457451,0.4178255597750346,-35.36336203333334,149.16562066666665,116648.66666666667,87.0,-199.0,-95.33333333333333,40.333333333333336,11.666666666666666,-941.6666666666666,-10.0,-19.0,418.6666666666667,180076.0
04:24:33,RTL,0.047507477303346,0.1326465979218483,2.3004888693491616,0.06532296972970168,-0.0636499027411143,0.10165545965234439,-35.3633548,149.1656014,117198.33333333333,118.33333333333333,-270.0,-47.0,64.0,18.666666666666668,-940.6666666666666,67.33333333333333,-61.0,103.0,180076.0
04:24:35,RTL,0.001345738225306074,0.14728459219137827,2.2530782222747803,-0.24834622939427695,0.014983141794800758,-0.04659871896728873,-35.36333713333334,149.1655266,117217.0,92.33333333333333,-399.3333333333333,22.666666666666668,93.66666666666667,6.0,-998.3333333333334,-246.0,16.333333333333332,-44.666666666666664,180076.0
04:24:36,RTL,-0.03933204710483551,0.136727437376976,2.199927647908529,-0.04187838236490885,-0.03409222265084585,-0.037276508597036205,-35.36332516666666,149.1654684,117029.33333333333,125.0,-441.6666666666667,3.3333333333333335,116.0,21.0,-1011.6666666666666,-39.666666666666664,-31.0,-35.333333333333336,250719.0
04:24:37,RTL,-0.05084163323044777,0.11560760190089543,2.1741999785105386,0.052164748311042786,-0.01701720051156978,-0.027923084407423932,-35.363316466666674,149.16543156666665,117017.0,141.66666666666666,-445.6666666666667,-1.0,108.33333333333333,33.0,-999.6666666666666,54.0,-14.666666666666666,-26.0,250719.0
04:24:39,RTL,-0.054367873817682266,0.03540260282655557,2.117498795191447,0.16058377424875894,-0.046444823344548546,-0.027598411155243713,-35.3632907,149.16533636666668,117056.0,142.0,-397.3333333333333,-2.6666666666666665,94.33333333333333,43.333333333333336,-997.3333333333334,162.33333333333334,-43.666666666666664,-25.666666666666668,250719.0
04:24:40,RTL,-0.041665700574715935,-0.02361235364029805,2.086427370707194,0.24261168638865152,-0.056150585412979126,-0.02664083739121755,-35.36327633333334,149.16528773333334,117059.0,108.33333333333333,-303.3333333333333,0.6666666666666666,74.0,34.333333333333336,-996.6666666666666,244.33333333333334,-53.666666666666664,-25.0,189077.0
04:24:41,RTL,-0.04777209833264351,-0.0655587762594223,2.070629278818766,-0.21061977744102478,-0.05147605761885643,-0.012953310273587704,-35.363269566666666,149.16526593333333,117042.0,80.0,-227.33333333333334,0.0,53.0,28.333333333333332,-1006.0,-207.66666666666666,-48.666666666666664,-11.0,189077.0
04:24:43,RTL,-0.008099561557173729,-0.03166066544751326,2.03900416692098,0.4560749956096212,0.017380908131599426,-0.008970548864454031,-35.363261400000006,149.16523876666668,116992.0,17.666666666666668,-57.0,-0.6666666666666666,11.333333333333334,21.666666666666668,-1015.0,458.0,19.666666666666668,-6.666666666666667,189077.0
04:24:44,RTL,-0.00020071732190748057,-0.012964640278369188,2.0218331813812256,0.3150077561537425,0.016800389625132084,-0.006400780674691002,-35.36326063333333,149.16523513333334,116995.66666666667,3.6666666666666665,-16.666666666666668,-2.0,2.0,14.0,-1001.3333333333334,316.6666666666667,18.666666666666668,-4.333333333333333,51889.0
04:24:45,RTL,-0.005828136733422677,0.003870554889241854,2.013305425643921,-0.2825941542784373,0.027603216469287872,-0.007740442951520284,-35.3632607,149.1652349,117001.33333333333,1.0,-8.333333333333334,-1.3333333333333333,-0.6666666666666666,-6.0,-994.3333333333334,-280.0,30.0,-5.666666666666667,51889.0
04:24:47,RTL,-0.001992016836690406,-0.0014254693718006213,1.9954723517100017,-0.23112058639526367,0.0029198504829158387,-0.007921315574397644,-35.363261066666674,149.16523483333333,117013.33333333333,0.0,-4.0,-1.0,-1.0,-17.666666666666668,-993.3333333333334,-229.33333333333334,5.666666666666667,-6.0,51889.0
04:24:48,RTL,-0.0012469710782170296,0.0035706523340195417,1.9868139425913494,-0.1957641343275706,0.005360368949671586,-0.006732185060779254,-35.3632614,149.16523576666665,117015.33333333333,-0.3333333333333333,0.0,-1.0,-1.3333333333333333,-13.0,-998.0,-194.0,8.0,-4.333333333333333,200.0
04:24:49,RTL,0.007350321315849821,0.005675376237680514,1.981732169787089,0.4376877397298813,0.0008341180315862099,-0.007103295686344306,-35.3632615,149.1652365,117016.66666666667,-1.0,-0.6666666666666666,-0.6666666666666666,-1.6666666666666667,18.333333333333332,-999.6666666666666,439.6666666666667,3.6666666666666665,-5.0,200.0
04:24:51,RTL,0.0009397114821088811,0.00496206060051918,1.9697967767715454,-0.6880917350451151,-0.0003556245161841313,-0.0036842146267493567,-35.3632614,149.16523776666668,116947.0,-2.0,-5.0,28.0,-0.6666666666666666,-28.0,-919.6666666666666,-685.3333333333334,2.3333333333333335,-1.3333333333333333,200.0
04:24:52,RTL,-0.004012212157249451,0.006189231450359027,1.9636803070704143,0.409284974137942,0.0065435779591401415,-0.004427250901547571,-35.3632615,149.165238,116093.66666666667,-7.0,-7.0,101.33333333333333,0.0,53.666666666666664,-964.0,413.3333333333333,9.333333333333334,-2.3333333333333335,203443.0
04:24:53,RTL,-0.008412218342224756,0.005577518759916226,1.9596858819325764,0.4390612741311391,0.004599727767830093,-0.008746094536036253,-35.3632617,149.165238,115231.66666666667,-6.333333333333333,-7.333333333333333,114.66666666666667,-0.3333333333333333,61.666666666666664,-982.0,443.0,7.333333333333333,-6.666666666666667,203443.0
04:24:55,RTL,0.013796049791077772,0.002189258191113671,1.950051744778951,0.9609913428624471,0.00033238887165983516,-0.004751502419821918,-35.3632612,149.1652384,113097.33333333333,-7.0,-8.666666666666666,98.0,-1.3333333333333333,73.33333333333333,-984.6666666666666,965.0,3.6666666666666665,-2.3333333333333335,203443.0
04:24:56,RTL,0.02529347687959671,0.006622056787212689,1.9450326760609944,1.37823220094045,0.004505914247905214,-0.005319673296374579,-35.363260966666665,149.1652387,111820.66666666667,-12.666666666666666,-10.0,100.33333333333333,0.0,57.0,-1035.3333333333333,1380.6666666666667,7.666666666666667,-3.0,283305.0
04:24:57,RTL,0.01929413837691148,0.008301395767678818,1.9417624870936077,1.1955291032791138,0.0007065953686833382,-0.0043030969488124056,-35.3632614,149.16523873333335,111051.33333333333,-10.666666666666666,-10.0,99.33333333333333,0.6666666666666666,24.666666666666668,-1018.3333333333334,1197.3333333333333,3.6666666666666665,-2.3333333333333335,283305.0
04:24:59,RTL,0.008555228666712841,0.004201238897318642,1.9348461230595906,0.02672625589184463,-0.008648000657558441,-0.00536423921585083,-35.36326246666667,149.16523826666665,109023.0,1.0,-7.666666666666667,100.66666666666667,-0.3333333333333333,-38.0,-985.6666666666666,27.333333333333332,-4.666666666666667,-3.0,283305.0
04:25:00,RTL,0.010866266985734304,0.00031081696700615186,1.931333343187968,-0.9159807364145914,0.0014201106193164985,0.0003288766990105311,-35.3632617,149.16523833333335,107745.66666666667,0.3333333333333333,-7.0,100.0,-1.0,-70.33333333333333,-964.6666666666666,-914.3333333333334,5.333333333333333,2.3333333333333335,118360.0
04:25:01,RTL,0.009930671891197562,0.001185130657783399,1.928580602010091,-1.0690067410469055,-0.006744740530848503,-0.0030319745807598033,-35.36326116666667,149.16523850000002,106984.33333333333,-5.333333333333333,-7.666666666666667,100.0,0.3333333333333333,-71.33333333333333,-986.3333333333334,-1067.0,-2.6666666666666665,-1.0,118360.0
04:25:03,RTL,0.003944125259295106,0.003053427441045642,1.9237473408381145,-1.160212755203247,0.001898221904411912,0.0018902737647294998,-35.36325993333333,149.16523906666666,104969.66666666667,-18.666666666666668,-11.333333333333334,102.33333333333333,-1.0,-29.0,-989.0,-1155.3333333333333,5.333333333333333,3.6666666666666665,118360.0
04:25:04,RTL,0.0025351290435840688,0.00506370064492027,1.92080024878184,-0.29864993691444397,0.0013841151958331466,0.006671682000160217,-35.36325983333334,149.1652393,103685.33333333333,-24.666666666666668,-13.666666666666666,103.33333333333333,0.0,23.666666666666668,-993.6666666666666,-292.3333333333333,5.0,8.333333333333334,300000.0
04:25:05,RTL,0.007811412680894136,0.00615471787750721,1.9194517930348713,0.6213121116161346,0.0022080186754465103,0.004731953454514344,-35.3632601,149.16523923333332,102922.0,-24.666666666666668,-14.0,101.0,0.6666666666666666,61.666666666666664,-970.0,626.3333333333334,6.0,6.666666666666667,300000.0
04:25:07,RTL,-0.009168434432164455,0.010552622998754183,1.9148658116658528,0.059657154604792595,-0.0016363974039753277,-0.0037021697886909046,-35.3632627,149.16523826666665,100879.0,-6.333333333333333,-8.333333333333334,101.66666666666667,5.0,-40.0,-973.0,61.666666666666664,2.0,-1.6666666666666667,300000.0
04:25:08,RTL,-0.03125491552054882,0.006994111152986686,1.913594166437785,-0.7626377443472544,-0.002959825641786059,0.001563876944904526,-35.3632648,149.1652372,99592.66666666667,15.333333333333334,-1.3333333333333333,101.66666666666667,1.6666666666666667,-67.66666666666667,-991.0,-760.6666666666666,0.6666666666666666,3.6666666666666665,134160.0
04:25:09,RTL,-0.03377089152733485,0.004859702351192634,1.9125259319941204,-0.856256902217865,-0.001975599443539977,-0.007308689101288716,-35.36326533333333,149.16523676666668,98831.66666666667,24.666666666666668,1.0,100.0,1.0,-68.33333333333333,-986.3333333333334,-853.6666666666666,1.6666666666666667,-5.0,134160.0
04:25:11,RTL,-0.03845601032177607,0.0023308826300005117,1.9091209173202515,-0.3994484009842078,0.003251368645578623,-0.00650096374253432,-35.36326533333334,149.1652365,96788.0,32.0,5.333333333333333,101.33333333333333,-0.6666666666666666,19.666666666666668,-994.3333333333334,-394.0,7.0,-4.333333333333333,134160.0
04:25:12,RTL,-0.028732364997267723,0.0015521087528516848,1.9076423645019531,0.21932430068651834,0.005087915031860272,-0.0007655678782612085,-35.36326503333333,149.1652366,95502.0,29.333333333333332,6.0,101.0,-2.3333333333333335,48.333333333333336,-994.3333333333334,224.0,8.666666666666666,1.3333333333333333,224402.0
04:25:13,RTL,-0.009593533972899118,0.001500644759895901,1.9061765273412068,1.246058742205302,-0.0015505705960094929,-0.002821567429540058,-35.363264666666666,149.16523676666668,94737.33333333333,28.0,5.0,99.66666666666667,-1.0,75.66666666666667,-1000.3333333333334,1249.6666666666667,2.0,-0.6666666666666666,224402.0
04:25:15,RTL,0.0006352318523568101,0.002552981022745371,1.9043835401535034,-0.029181102911631267,-0.0011643515899777412,-0.003106558113358915,-35.36326366666666,149.16523723333333,92685.33333333333,19.333333333333332,3.0,98.0,0.3333333333333333,-38.666666666666664,-983.6666666666666,-29.0,2.6666666666666665,-1.0,224402.0
04:25:16,RTL,-0.02423889624575774,0.0037797725138564906,1.9027057488759358,-1.2088521321614583,-0.0013638818636536598,0.004778301304516693,-35.3632638,149.1652373,91409.33333333333,18.0,2.0,99.33333333333333,1.0,-71.66666666666667,-996.3333333333334,-1208.0,2.3333333333333335,6.333333333333333,105423.0
04:25:17,RTL,-0.0306600679953893,0.0032969738822430372,1.9022143681844075,-1.3366703987121582,8.151835451523463e-05,-0.004845118654581408,-35.3632639,149.1652373,90645.0,18.666666666666668,2.0,98.0,0.6666666666666666,-52.666666666666664,-1001.0,-1334.6666666666667,4.0,-2.3333333333333335,105423.0
04:25:19,RTL,-0.03840376312534014,0.00027402437505467486,1.9001973470052083,-0.8296171625455221,-0.002079375476265947,0.0010125068947672844,-35.3632643,149.1652369,88603.33333333333,21.0,3.3333333333333335,101.66666666666667,-1.6666666666666667,1.3333333333333333,-995.0,-826.3333333333334,1.6666666666666667,3.0,105423.0
04:25:20,RTL,-0.010306316505496701,-0.004187043523415923,1.8988037109375,-0.2877509569128354,0.002190962123374144,-0.0034890693301955857,-35.36326293333334,149.1652372,87331.66666666667,16.0,1.6666666666666667,97.0,-6.0,31.666666666666668,-1005.6666666666666,-284.0,6.0,-1.3333333333333333,127096.0
04:25:21,RTL,0.006144627463072538,-0.0036438110594948134,1.8991111914316814,-0.16401670376459757,0.006686929302910964,-0.005886978314568599,-35.3632615,149.16523773333333,86553.33333333333,6.333333333333333,0.0,99.33333333333333,-3.6666666666666665,36.666666666666664,-974.6666666666666,-160.66666666666666,10.333333333333334,-3.0,127096.0
04:25:23,RTL,0.011865668774892887,0.005977336162080367,1.8977876901626587,1.3242512146631877,-0.0020471945560226836,0.005395487726976474,-35.36326103333333,149.16523846666666,84515.66666666667,-12.333333333333334,-5.0,99.0,1.0,72.0,-960.6666666666666,1326.6666666666667,2.0,7.333333333333333,127096.0
04:25:24,RTL,-0.0017975020843247573,0.0071207559667527676,1.8973969618479412,0.355667178829511,-7.682060822844505e-05,0.00013231105792025724,-35.36326236666667,149.16523809999998,83259.66666666667,-4.0,-4.333333333333333,101.66666666666667,2.6666666666666665,-22.333333333333332,-965.6666666666666,355.0,3.6666666666666665,2.3333333333333335,78449.0
04:25:25,RTL,-0.007808889417598645,0.005628200092663367,1.89645254611969,0.030885693927605946,-0.0034457705914974213,-0.005709876694406073,-35.363263233333335,149.16523773333333,82487.33333333333,4.333333333333333,-2.0,100.33333333333333,2.3333333333333335,-40.666666666666664,-988.0,30.333333333333332,1.0,-3.0,78449.0
04:25:27,RTL,-0.03484118108948072,0.0013805415946990252,1.8957715431849163,-1.151654044787089,-0.0010523208572218816,0.0027253242830435434,-35.3632639,149.16523713333333,80463.66666666667,15.666666666666666,0.6666666666666666,102.33333333333333,0.0,-27.0,-986.6666666666666,-1149.3333333333333,3.0,4.666666666666667,78449.0
04:25:28,RTL,-0.02080488142867883,0.00015714957438225005,1.8951106071472168,-0.12206415211160977,0.003035204950720072,-8.426125471790631e-05,-35.3632634,149.16523716666666,79180.66666666667,13.666666666666666,1.0,103.33333333333333,-1.3333333333333333,38.0,-1003.0,-119.0,7.0,2.0,200.0
04:25:29,RTL,-0.010532801349957785,4.291797449695878e-05,1.8948802947998047,0.3057069977124532,0.001760609292735656,0.0037755869949857392,-35.36326303333333,149.16523733333335,78408.0,10.0,0.0,99.33333333333333,-2.0,52.333333333333336,-985.3333333333334,308.3333333333333,5.666666666666667,6.333333333333333,200.0
04:25:31,RTL,0.021338196471333504,-2.8621929232031107e-05,1.8947637875874836,1.4142016172409058,-0.0033336224344869456,0.00205080754434069,-35.36326176666667,149.16523793333332,76362.66666666667,0.3333333333333333,-2.3333333333333335,98.66666666666667,-2.6666666666666665,74.33333333333333,-1017.6666666666666,1416.0,1.6666666666666667,4.666666666666667,200.0
04:25:32,RTL,0.03714410091439883,-0.0012584034120664,1.8938192923863728,1.1633505821228027,0.0012235369843741257,0.0029536841126779714,-35.36326053333334,149.16523836666667,75095.66666666667,-9.333333333333334,-5.333333333333333,97.66666666666667,-1.0,39.333333333333336,-1022.3333333333334,1164.0,5.333333333333333,5.0,239931.0
04:25:33,RTL,0.03669526427984238,-0.00023852485658911368,1.8943372170130413,0.7100006639957428,0.0026706831995397806,0.003747339593246579,-35.36326,149.16523863333336,74328.0,-16.0,-7.0,101.66666666666667,-1.0,-1.0,-979.3333333333334,709.3333333333334,7.0,5.666666666666667,239931.0
04:25:35,RTL,0.013967077558239302,0.001519189487832288,1.892693281173706,-1.2481942574183147,-0.0012065254462261994,-0.0036130447406321764,-35.36325933333333,149.1652389666667,72274.33333333333,-25.0,-10.333333333333334,97.66666666666667,0.3333333333333333,-72.66666666666667,-987.6666666666666,-1247.0,3.0,-1.3333333333333333,239931.0
04:25:36,RTL,0.0021815396224459014,0.0028623048371324935,1.8927897612253826,-1.3729433218638103,0.005105174146592617,-0.004797486200307806,-35.36325943333333,149.1652389333333,70996.0,-27.0,-10.333333333333334,98.33333333333333,2.0,-64.33333333333333,-1014.6666666666666,-1370.6666666666667,9.0,-2.3333333333333335,226677.0
04:25:37,RTL,-0.01180304951655368,0.0062451606305936975,1.8924897114435832,-1.035771369934082,0.006606368503222863,-0.003499832237139344,-35.36326019999999,149.1652387,70234.33333333333,-27.0,-9.666666666666666,100.0,3.3333333333333335,-21.333333333333332,-983.6666666666666,-1031.6666666666667,10.333333333333334,-1.3333333333333333,226677.0
04:25:39,RTL,-0.030952124545971554,0.005635488157471021,1.8915187915166218,-0.09640918175379436,0.0026228668478628,-0.0038020224310457706,-35.3632633,149.16523743333335,68185.66666666667,0.0,-2.0,98.0,3.0,26.666666666666668,-992.0,-92.33333333333333,6.666666666666667,-1.0,226677.0
04:25:40,RTL,-0.03169839332501093,0.004085287141303222,1.8919093608856201,0.8317766785621643,-0.005672521113107602,0.001543644970903794,-35.36326486666667,149.1652367,66928.33333333333,15.333333333333334,2.0,100.0,1.3333333333333333,63.0,-1012.6666666666666,835.3333333333334,-0.6666666666666666,4.0,61893.0
04:25:41,RTL,-0.022404536604881287,0.001818945553774635,1.8909822702407837,1.1140570441881816,0.0004200623370707035,0.0006044927674035231,-35.36326523333333,149.1652365,66167.0,23.0,4.333333333333333,98.66666666666667,-0.6666666666666666,70.0,-999.3333333333334,1117.0,5.0,3.0,61893.0
04:25:43,RTL,0.0022530927575038127,-0.0026510263172288737,1.8915533622105916,1.3150296608606975,-0.005310806756218274,-0.0018883445300161839,-35.363263999999994,149.1652367,64133.0,23.0,4.666666666666667,99.66666666666667,-3.3333333333333335,72.33333333333333,-1033.3333333333333,1317.3333333333333,-0.6666666666666666,0.6666666666666666,61893.0
04:25:44,RTL,0.02756711219747861,-0.0024272401351481676,1.8912067810694377,1.2403892278671265,0.0005425622997184595,0.0058181313797831535,-35.36326233333333,149.16523736666667,62850.333333333336,10.666666666666666,1.6666666666666667,98.66666666666667,-2.6666666666666665,40.333333333333336,-998.3333333333334,1241.3333333333333,4.666666666666667,8.0,300000.0
04:25:45,RTL,0.02933473140001297,-0.002709545117492477,1.891122579574585,0.14506799976030985,-0.001893715001642704,0.0019684485935916505,-35.36326123333333,149.1652379,62079.666666666664,2.3333333333333335,-0.3333333333333333,99.0,-3.0,-25.333333333333332,-986.6666666666666,145.0,2.3333333333333335,4.666666666666667,300000.0
04:25:47,RTL,0.012841608064870039,-0.0009921724170756836,1.8904818296432495,-1.3320827881495159,0.00016628454128901163,0.002297028278311094,-35.363259166666666,149.16523886666667,60040.333333333336,-23.0,-8.333333333333334,99.66666666666667,-1.6666666666666667,-47.333333333333336,-1000.0,-1329.3333333333333,4.666666666666667,4.666666666666667,300000.0
04:25:48,RTL,0.015547978691756725,0.002365249519546827,1.8907033602396648,-0.35683581233024597,0.007750078880538543,-0.003054061516498526,-35.3632586,149.1652392,58761.666666666664,-34.333333333333336,-11.333333333333334,98.66666666666667,1.0,12.666666666666666,-1032.0,-352.6666666666667,12.333333333333334,-0.3333333333333333,297703.0
04:25:49,RTL,0.01439739235987266,0.00546356833850344,1.8903920650482178,0.8137778639793396,0.005188049438099067,0.0034298141254112124,-35.363259199999995,149.1652391,58000.0,-36.333333333333336,-11.666666666666666,99.0,3.3333333333333335,64.66666666666667,-991.0,817.6666666666666,9.666666666666666,5.666666666666667,297703.0
04:25:51,RTL,-0.01523501519113779,0.005527807865291834,1.8906131585439045,0.885723332564036,-0.0029045972041785717,-0.001217414081717531,-35.36326243333334,149.1652378,55949.0,-11.0,-5.333333333333333,98.33333333333333,3.6666666666666665,62.0,-1007.0,889.6666666666666,2.0,1.6666666666666667,297703.0
04:25:52,RTL,-0.0036817549650246897,0.0021888483315706253,1.8905422290166218,1.3402504920959473,-0.008390313712880015,0.0012601534835994244,-35.36326366666666,149.16523706666666,54686.333333333336,6.666666666666667,-0.3333333333333333,98.0,2.3333333333333335,55.333333333333336,-1025.3333333333333,1343.0,-3.0,4.0,146792.0
04:25:53,RTL,-0.000215810335551699,0.00046605572182064253,1.890661636988322,1.402204116185506,-0.002782038568208615,0.00745156267657876,-35.36326396666667,149.16523686666667,53917.333333333336,10.666666666666666,1.3333333333333333,99.66666666666667,0.0,53.0,-1014.0,1404.0,1.3333333333333333,9.666666666666666,146792.0
04:25:55,RTL,0.009136089123785496,-0.0031089833161483207,1.8908379872639973,-1.0414939324061077,0.002730866273244222,0.0009810971872260172,-35.363262,149.16523736666667,51877.333333333336,7.0,1.6666666666666667,99.66666666666667,-2.3333333333333335,-71.0,-992.0,-1040.0,7.0,3.6666666666666665,146792.0
04:25:56,RTL,-0.0018881817037860553,-0.000159370742039755,1.890310009320577,-1.3845384915669758,0.0013837842270731926,0.0035928644550343356,-35.36326076666666,149.16523806666666,50596.333333333336,-6.333333333333333,-2.0,100.66666666666667,-1.6666666666666667,-42.666666666666664,-979.6666666666666,-1381.3333333333333,6.0,6.0,300000.0
04:25:57,RTL,0.001805024240942051,0.0005098776649295663,1.8906848430633545,-1.00978285074234,0.0025750482454895973,-0.0026112228321532407,-35.363260266666664,149.16523843333331,49826.666666666664,-13.0,-5.0,97.66666666666667,-1.6666666666666667,-18.333333333333332,-1005.3333333333334,-1005.0,6.666666666666667,0.0,300000.0
04:25:59,RTL,0.028394899641474087,0.003670988759646813,1.891017198562622,1.000952382882436,-0.003078970592468977,0.0050124425906687975,-35.36326,149.1652388,47700.0,-23.666666666666668,-9.0,100.33333333333333,2.3333333333333335,18.333333333333332,-1018.6666666666666,1003.0,1.0,7.666666666666667,300000.0
04:26:00,RTL,-0.005265545255194108,0.007046585436910391,1.8906411329905193,-0.7164789040883383,0.0012040984195967515,-0.00453254006182154,-35.3632614,149.16523833333335,46435.666666666664,-15.0,-6.0,100.66666666666667,5.0,-67.0,-1003.0,-714.6666666666666,6.0,-1.3333333333333333,107626.0
04:26:01,RTL,-0.025497181961933773,0.007674100808799267,1.8907243808110554,-1.1366527875264485,-0.002281416207551956,-0.007850015070289373,-35.3632628,149.1652378,45666.0,-5.0,-3.6666666666666665,101.66666666666667,3.6666666666666665,-80.66666666666667,-994.0,-1134.6666666666667,2.3333333333333335,-4.333333333333333,107626.0
04:26:03,RTL,-0.03664330765604973,0.0015142798074521124,1.8903997739156086,-1.386630376180013,-0.004161692534883817,-0.002662754151970148,-35.36326476666667,149.16523673333333,43636.0,22.333333333333332,3.0,104.33333333333333,0.0,-65.33333333333333,-990.3333333333334,-1383.6666666666667,0.6666666666666666,0.3333333333333333,107626.0
04:26:04,RTL,-0.024882482985655468,-0.0028187510712693133,1.8905460039774578,-0.47684739033381146,0.00017116467157999674,-0.005772783886641264,-35.363263999999994,149.16523673333333,42363.666666666664,20.666666666666668,3.6666666666666665,104.0,-3.3333333333333335,18.0,-977.6666666666666,-472.0,4.666666666666667,-2.6666666666666665,234644.0
04:26:05,RTL,-0.003800648897595238,-0.004438767364869515,1.8904479344685872,0.35454702874024707,0.00157241802662611,-0.0004196521670867999,-35.363263,149.16523700000002,41586.333333333336,15.333333333333334,2.6666666666666665,103.0,-3.3333333333333335,57.666666666666664,-981.3333333333334,359.0,6.0,2.0,234644.0
04:26:07,RTL,0.0215347105016311,0.0013709792013590534,1.8902577956517537,1.4230368534723918,-0.0015820184101661046,-0.0018477203169216712,-35.3632612,149.16523800000002,39540.333333333336,-6.666666666666667,-1.6666666666666667,100.0,-0.6666666666666666,69.66666666666667,-1010.3333333333334,1426.3333333333333,3.0,1.0,234644.0
04:26:08,RTL,0.019922195002436638,0.004368879987547795,1.890722115834554,1.0622074405352275,8.471341182788213e-05,-0.0017962719624241192,-35.3632614,149.16523813333333,38258.666666666664,-8.666666666666666,-3.0,99.66666666666667,1.3333333333333333,18.0,-1017.3333333333334,1063.3333333333333,4.666666666666667,1.0,253851.0
04:26:09,RTL,0.014077687946458658,0.004106263707702358,1.890820026397705,0.38322936991850537,-0.0018965288375814755,-0.0025705115403980017,-35.36326183333333,149.16523803333334,37488.333333333336,-4.666666666666667,-3.0,100.33333333333333,2.0,-28.666666666666668,-987.3333333333334,384.0,3.0,0.3333333333333333,253851.0
04:26:11,RTL,0.0017445169699688752,0.00042366616738339263,1.890748381614685,-0.18633287431051335,-0.002738621939594547,0.003713044182707866,-35.3632626,149.16523753333334,35454.333333333336,4.0,-0.3333333333333333,97.0,0.3333333333333333,-40.666666666666664,-1003.3333333333334,-185.0,2.0,6.333333333333333,253851.0
04:26:12,RTL,-0.008258088259026408,0.000716940761776641,1.8908152182896931,-1.030915896097819,0.003074331053843101,0.0006254188095529875,-35.3632625,149.1652375,34180.333333333336,5.0,0.3333333333333333,102.0,0.3333333333333333,-78.33333333333333,-959.6666666666666,-1029.6666666666667,7.666666666666667,3.6666666666666665,263347.0
04:26:13,RTL,-0.014263893167177836,0.0028809777771433196,1.8903631766637166,-1.3196135361989338,0.002700303836415211,-0.002760521601885557,-35.363262633333335,149.16523746666667,33413.0,3.6666666666666665,0.6666666666666666,98.0,1.3333333333333333,-73.33333333333333,-1000.0,-1317.3333333333333,7.333333333333333,0.3333333333333333,263347.0
04:26:15,RTL,-0.03966636210680008,0.002918225092192491,1.8903539578119914,-0.49440886576970416,-0.0015002323780208826,-2.1780763442317646e-05,-35.3632642,149.16523700000002,31383.666666666668,15.666666666666666,2.3333333333333335,101.0,0.0,5.333333333333333,-967.6666666666666,-490.0,3.0,2.3333333333333335,263347.0
04:26:16,RTL,-0.020198182202875614,-0.0006225239048944786,1.891170620918274,0.32199331155667704,-0.00030025063703457516,-0.004046535585075617,-35.3632639,149.16523693333332,30099.333333333332,17.0,2.0,99.33333333333333,-3.0,47.333333333333336,-1026.3333333333333,326.0,4.0,-0.6666666666666666,173595.0
04:26:17,RTL,-0.0007312771243353685,-0.0024526181320349374,1.8908576965332031,0.8227104743321737,-0.004006478159377973,-0.012337512026230494,-35.363263,149.16523723333333,29335.333333333332,14.333333333333334,1.6666666666666667,100.0,-4.333333333333333,74.66666666666667,-1013.3333333333334,826.3333333333334,1.3333333333333333,-8.333333333333334,173595.0
04:26:19,RTL,0.04595451677838961,-0.0007043857573686788,1.8908075491587322,1.0164560675621033,0.00012461096048355103,-0.0014449563653518756,-35.36326016666667,149.1652384,27287.666666666668,-11.0,-4.333333333333333,103.33333333333333,-3.0,13.0,-1040.6666666666667,1017.6666666666666,5.0,1.3333333333333333,173595.0
04:26:20,RTL,0.03061447913448016,8.295615937943997e-05,1.8906472126642864,-0.3323482424020767,4.835892468690872e-06,-0.00036150387798746425,-35.36325943333333,149.16523876666668,26018.666666666668,-21.333333333333332,-7.666666666666667,102.0,-0.3333333333333333,-50.0,-970.0,-331.0,4.666666666666667,2.3333333333333335,175044.0
04:26:21,RTL,0.028446077058712643,0.0017494162311777472,1.8907362620035808,-0.5900954802831014,-0.0011468934826552868,-0.0022269357771923146,-35.36325933333333,149.16523883333332,25248.0,-26.333333333333332,-9.0,99.33333333333333,0.6666666666666666,-58.333333333333336,-975.3333333333334,-588.3333333333334,4.0,1.0,175044.0
04:26:23,RTL,-0.005926026914191122,0.005310298564533393,1.890969196955363,-1.3298304080963135,-0.0025358167476952076,0.004411455864707629,-35.36326056666667,149.16523859999998,23213.333333333332,-21.333333333333332,-9.0,99.66666666666667,2.3333333333333335,-74.0,-994.0,-1327.0,2.6666666666666665,7.0,175044.0
04:26:24,RTL,-0.01985683913032214,0.002660154093367358,1.8910526037216187,-1.0576293468475342,0.0014697507334252198,-0.0024413676001131535,-35.3632614,149.16523823333333,21934.333333333332,-12.333333333333334,-7.0,99.33333333333333,-0.3333333333333333,-23.333333333333332,-1039.0,-1053.0,6.333333333333333,0.3333333333333333,300000.0
04:26:25,RTL,-0.01132776883120338,0.002241379814222455,1.8904389142990112,-0.17705635726451874,0.003082359985758861,0.001292093734567364,-35.363261466666664,149.16523813333333,21169.333333333332,-10.0,-6.0,100.0,0.3333333333333333,31.0,-985.3333333333334,-171.0,7.666666666666667,4.333333333333333,300000.0
04:26:27,RTL,0.008205041677380601,0.003322787427653869,1.8904226223627727,0.909966915845871,0.0038414588198065758,0.0023076836951076984,-35.36326136666667,149.16523816666668,19129.333333333332,-10.333333333333334,-5.333333333333333,97.0,1.0,60.666666666666664,-1024.3333333333333,915.0,8.666666666666666,5.0,300000.0
04:26:28,RTL,0.007807779125869274,0.004636301503827174,1.8905593156814575,1.256123145421346,-0.004362495460857947,-0.0031278786094238362,-35.3632624,149.16523776666668,17851.333333333332,-4.0,-3.3333333333333335,98.33333333333333,1.0,40.666666666666664,-1015.0,1259.3333333333333,1.3333333333333333,0.3333333333333333,200.0
04:26:29,RTL,-0.0017408689794441063,0.004151933438455065,1.8905877272288005,0.4341412515689929,-0.0019409339874982834,0.003325840380663673,-35.36326303333333,149.1652375,17088.333333333332,2.3333333333333335,-1.0,100.33333333333333,2.0,-17.666666666666668,-985.6666666666666,436.3333333333333,3.0,6.333333333333333,200.0
04:26:31,RTL,-0.00478403518597285,-0.000811899546533823,1.8907878398895264,-0.8890347878138224,-0.0032837403317292533,0.0008251332522680362,-35.363263100000005,149.16523723333333,15038.666666666666,11.333333333333334,0.0,99.0,-2.3333333333333335,-61.0,-997.3333333333334,-887.0,1.6666666666666667,3.6666666666666665,200.0
04:26:32,RTL,0.008825964294373989,-0.001112169586122036,1.89057453473409,-1.1182804902394612,0.0018844474107027054,0.003503981667260329,-35.36326193333333,149.16523759999998,13774.666666666666,4.333333333333333,0.0,97.66666666666667,-1.3333333333333333,-71.0,-970.0,-1115.6666666666667,7.0,6.333333333333333,300000.0
04:26:33,RTL,-0.001993626356124878,0.0007222668646136299,1.890405495961507,-1.323159098625183,0.0020373702670137086,0.003049217707787951,-35.363261599999994,149.1652378,13002.333333333334,-1.6666666666666667,-1.3333333333333333,99.33333333333333,-0.6666666666666666,-67.33333333333333,-1017.0,-1320.0,7.0,6.0,300000.0
04:26:35,RTL,0.01436433227111896,0.0025734261920054755,1.890851338704427,0.5981254478295644,-0.0015552352803448837,0.0017889976346244414,-35.363260966666665,149.16523823333333,11298.333333333334,-11.666666666666666,-5.0,38.666666666666664,0.3333333333333333,31.666666666666668,-1057.0,602.0,3.6666666666666665,5.0,300000.0
04:26:36,RTL,0.010496006851705411,0.000924839968016992,1.890653411547343,0.39774711430072784,-0.003105479758232832,0.0019271187484264374,-35.36326086666667,149.1652383,10991.333333333334,-13.0,-6.0,25.333333333333332,0.0,27.333333333333332,-987.3333333333334,402.3333333333333,2.3333333333333335,5.0,196402.0
04:26:37,RTL,0.013092062591264645,0.0007832817209418863,1.8906792402267456,-0.3146570424238841,0.0014372925894955795,0.0022340703289955854,-35.36326076666666,149.1652383,10782.666666666666,-12.0,-5.0,32.666666666666664,0.0,-31.666666666666668,-983.6666666666666,-311.0,6.333333333333333,5.333333333333333,196402.0
04:26:39,RTL,0.007441212733586629,-0.0006931295793037862,1.8907617330551147,-0.6053154716889063,0.0012158858589828014,0.0004371031342695157,-35.36326053333334,149.1652382,10116.0,-15.333333333333334,-5.333333333333333,35.666666666666664,-0.6666666666666666,-22.333333333333332,-1003.0,-600.3333333333334,6.333333333333333,3.3333333333333335,196402.0
04:26:40,RTL,0.020367796222368877,-0.0006893378837654988,1.8904787302017212,0.011224960287412008,-0.0010274292435497046,0.00033902361368139583,-35.363260133333334,149.16523833333335,9689.0,-18.333333333333332,-6.0,35.333333333333336,-0.3333333333333333,-14.333333333333334,-992.3333333333334,15.0,4.0,3.6666666666666665,200.0
04:26:41,RTL,0.009906347996244827,0.0011752943585937221,1.8907030820846558,-0.20507662494977316,0.004447161220014095,0.00035860599018633366,-35.363260033333326,149.1652384,9431.666666666666,-21.333333333333332,-6.333333333333333,34.333333333333336,0.0,4.0,-1011.6666666666666,-199.33333333333334,9.333333333333334,3.6666666666666665,200.0
04:26:43,RTL,-0.00042630933846036595,0.005519686732441187,1.890553633371989,0.25529944896698,0.0016513636025289695,-0.0009365893589953581,-35.36326116666667,149.16523833333332,8762.0,-16.0,-6.0,23.333333333333332,2.6666666666666665,23.333333333333332,-1044.0,261.3333333333333,6.333333333333333,2.3333333333333335,200.0
04:26:44,RTL,-0.013934942272802195,0.004730656975880265,1.8907798131306965,0.1612587571144104,-0.0024895252039035163,0.0012840192454556625,-35.36326243333334,149.16523783333332,8742.0,-5.666666666666667,-4.0,-6.666666666666667,2.0,14.0,-1006.6666666666666,167.0,2.6666666666666665,4.666666666666667,154273.0
04:26:45,RTL,-0.01748570054769516,0.0028215161679933467,1.8909765879313152,-0.26791980986793834,-0.0024659684859216213,0.000466442434117198,-35.36326293333334,149.1652375,8785.666666666666,1.6666666666666667,-1.3333333333333333,-3.6666666666666665,1.0,-12.0,-990.0,-262.3333333333333,2.3333333333333335,4.0,154273.0
04:26:47,RTL,-0.010033546636501947,0.00019071491745611033,1.8913869857788086,-0.12569435934225717,0.0008583134040236473,0.0008677615939329068,-35.3632633,149.165237,8808.666666666666,9.666666666666666,2.0,5.333333333333333,-1.0,-13.0,-977.6666666666666,-120.66666666666667,6.0,4.0,154273.0
04:26:48,RTL,-0.004749267168032627,0.0005272920595113343,1.891125758488973,0.1838994026184082,0.0009470186196267605,0.0007698847136149803,-35.36326326666667,149.165237,8698.0,10.0,3.0,0.6666666666666666,0.6666666666666666,-0.6666666666666666,-1013.0,188.33333333333334,5.666666666666667,4.0,300000.0
04:26:49,RTL,-0.018622044784327347,0.0018564073058466117,1.8913346529006958,-0.05679205805063248,0.00030331445547441643,0.0005567481275647879,-35.36326350000001,149.16523696666664,8705.666666666666,10.666666666666666,4.0,0.0,1.0,5.333333333333333,-998.0,-51.333333333333336,5.333333333333333,3.6666666666666665,300000.0
04:26:51,RTL,-0.023566074669361115,0.0014058574646090467,1.8909555673599243,-0.3437028390665849,-0.0014315331354737282,0.0002418056440850099,-35.3632645,149.1652366,8726.333333333334,21.666666666666668,6.0,1.0,0.0,-17.666666666666668,-994.0,-339.6666666666667,4.0,3.6666666666666665,300000.0
04:26:52,RTL,-0.014443347230553627,-0.00035701344919895445,1.8908319075902302,-0.2992568910121918,-0.000979967104891936,4.387608108421167e-05,-35.3632642,149.1652366666667,8725.0,22.666666666666668,6.0,1.0,-0.3333333333333333,-19.0,-994.3333333333334,-295.3333333333333,3.6666666666666665,3.3333333333333335,190362.0
04:26:53,RTL,-0.007376176537945867,-0.0006785289054581275,1.8909802039464314,0.4340887653330962,2.836288573841254e-05,0.0011119997749725978,-35.36326383333333,149.16523676666668,8723.0,20.333333333333332,5.666666666666667,0.6666666666666666,-0.6666666666666666,25.0,-1001.3333333333334,438.3333333333333,5.0,4.333333333333333,190362.0
04:26:55,RTL,-0.017805624442795914,0.0013511897219965856,1.8904744386672974,-0.8045162359873453,0.000846532949556907,0.0007692726018528143,-35.363263366666665,149.1652371,8557.0,14.333333333333334,3.6666666666666665,38.0,0.0,-36.333333333333336,-958.3333333333334,-800.6666666666666,6.0,4.0,190362.0
04:26:56,RTL,0.003146587453860169,0.00019151156690592566,1.8905274073282878,0.7041277686754862,-0.003245847998186946,0.0016708961532761653,-35.36326306666667,149.1652372,8047.666666666667,11.0,2.0,38.0,0.0,21.666666666666668,-1004.3333333333334,707.0,2.0,5.0,280189.0
04:26:57,RTL,-0.01598963172485431,0.0008097494040460637,1.8905688126881917,-0.6793030500411987,0.0030650049448013306,0.00024079616802434126,-35.363263,149.1652372,7764.333333333333,9.666666666666666,2.0,35.333333333333336,-0.3333333333333333,-22.666666666666668,-1002.3333333333334,-675.0,8.333333333333334,3.3333333333333335,280189.0
04:26:59,RTL,-0.01690423038477699,0.0021000317065045238,1.8903969923655193,-0.6099370718002319,-0.0016221749441077311,0.0012489273212850094,-35.363263133333334,149.1652373,7072.666666666667,10.333333333333334,1.6666666666666667,32.0,0.0,-29.0,-998.0,-606.3333333333334,3.3333333333333335,4.666666666666667,280189.0
04:27:00,RTL,-0.0005992306008314093,0.0032408878517647586,1.8899909655253093,0.5999136529862881,-0.004307176374519865,-0.0012426491205890973,-35.363263466666666,149.1652373,6640.0,12.0,2.0,33.0,2.0,7.666666666666667,-1016.6666666666666,602.0,1.0,2.0,200.0
04:27:01,RTL,-0.02663199044764042,0.003982679607967536,1.8905253807703655,-0.6464914083480835,0.001893653068691492,0.0007798380684107542,-35.3632638,149.16523723333333,6386.0,13.666666666666666,2.0,32.0,1.6666666666666667,-24.333333333333332,-997.6666666666666,-643.0,7.0,4.0,200.0
04:27:03,RTL,-0.036338804910580315,0.0017465835650606702,1.8912084102630615,-0.6501506666342417,-0.0027359887026250362,7.101257021228473e-06,-35.3632651,149.1652366,5711.666666666667,27.0,5.666666666666667,32.0,0.0,-21.333333333333332,-1006.3333333333334,-647.0,2.6666666666666665,3.6666666666666665,200.0
04:27:04,RTL,-0.003325115772895515,-0.003237764040629069,1.8910953998565674,0.2523975471655528,-0.006687349872663617,0.0028852433897554874,-35.36326423333333,149.1652366333333,5290.666666666667,27.333333333333332,6.0,32.666666666666664,-2.6666666666666665,-2.0,-999.0,253.33333333333334,-0.6666666666666666,6.333333333333333,171682.0
04:27:05,RTL,-0.0027083405293524265,-0.005059206237395604,1.8911374807357788,-0.2638091842333476,0.0013386653736233711,-0.0005207447490344445,-35.36326306666667,149.16523696666667,5039.0,19.0,4.0,33.333333333333336,-4.666666666666667,13.666666666666666,-997.6666666666666,-260.3333333333333,6.666666666666667,3.3333333333333335,171682.0
04:27:07,RTL,0.012557979517926773,0.00011465171701274812,1.8909931182861328,0.15161154170831045,0.0053351325914263725,-0.000508998055011034,-35.3632608,149.16523803333334,4352.333333333333,-7.0,-1.3333333333333333,33.666666666666664,-0.6666666666666666,23.666666666666668,-1007.3333333333334,155.0,10.666666666666666,2.6666666666666665,171682.0
04:27:08,RTL,-0.002979609261577328,0.0020097270607948303,1.8910009860992432,-0.6785055001576742,0.0022412907953063646,0.0003669102831433217,-35.36326086666667,149.16523823333333,3926.0,-12.0,-3.6666666666666665,32.333333333333336,0.0,-28.0,-994.3333333333334,-675.3333333333334,7.333333333333333,3.6666666666666665,58222.0
04:27:09,RTL,0.009522426718225082,0.0025045532577981553,1.891208529472351,0.6235613624254862,-0.0005741439138849577,0.002350918482989073,-35.3632611,149.1652382,3671.6666666666665,-12.333333333333334,-4.0,32.333333333333336,0.6666666666666666,25.333333333333332,-1004.3333333333334,626.0,4.333333333333333,5.666666666666667,58222.0
