time_stamp,MODE,lat,lon,relative_alt,roll,pitch,yaw,rollspeed,pitchspeed,yawspeed,xacc,yacc,zacc,xgyro,ygyro,zgyro,vx,vy,vz,LAND_SPEED_HIGH,WPNAV_SPEED_DN,RTL_ALT
13:13:47.690,GUIDED,-35.3632621,149.1652373,0,-0.0003665928961709142,0.0014332957798615098,0.028496207669377327,0.0003456192498560995,0.00023448377032764256,0.002413343172520399,0,1,-1000,0,0,0,0,0,-1,330.0,90.0,1500.0
13:13:47.895,GUIDED,-35.3632621,149.1652374,0,-0.0002388594875810668,0.0016075032763183117,0.027803728356957436,0.0002946610620710999,0.00034499619505368173,0.002365725114941597,0,1,-1000,0,0,0,-1,1,-1,330.0,90.0,1500.0
13:13:48.103,GUIDED,-35.3632621,149.1652374,0,-0.0003035624395124614,0.0015849957708269358,0.027134496718645096,0.0003185874375049025,0.0002579864230938256,0.0021560601890087128,0,2,-1000,0,0,0,-2,1,-1,330.0,90.0,1500.0
13:13:48.308,GUIDED,-35.3632621,149.1652374,0,-0.00035820112680085003,0.0015351171605288982,0.02697415091097355,0.0002495021908544004,0.0002798830682877451,0.002243678318336606,0,2,-1000,0,1,0,-2,1,-1,330.0,90.0,1500.0
13:13:48.517,GUIDED,-35.3632621,149.1652374,0,-0.00035820112680085003,0.0015351171605288982,0.02697415091097355,0.0002495021908544004,0.0002798830682877451,0.002243678318336606,0,2,-1000,0,1,0,-2,1,-1,330.0,90.0,1500.0
13:13:48.728,GUIDED,-35.3632621,149.1652374,0,-0.00035820112680085003,0.0015351171605288982,0.02697415091097355,0.0002495021908544004,0.0002798830682877451,0.002243678318336606,0,2,-1000,0,1,0,-2,1,-1,330.0,90.0,1500.0
13:13:50.849,GUIDED,-35.3632621,149.1652374,0,-0.00035820112680085003,0.0015351171605288982,0.02697415091097355,0.0002495021908544004,0.0002798830682877451,0.002243678318336606,0,2,-1000,0,1,0,-2,1,-1,330.0,90.0,1500.0
13:13:51.053,GUIDED,-35.3632621,149.1652374,0,-0.00035820112680085003,0.0015351171605288982,0.02697415091097355,0.0002495021908544004,0.0002798830682877451,0.002243678318336606,0,2,-1000,0,1,0,-2,1,-1,330.0,90.0,1500.0
13:13:51.256,GUIDED,-35.3632621,149.1652374,0,-0.00035820112680085003,0.0015351171605288982,0.02697415091097355,0.0002495021908544004,0.0002798830682877451,0.002243678318336606,0,2,-1000,0,1,0,-2,1,-1,330.0,90.0,1500.0
13:13:51.458,GUIDED,-35.3632621,149.1652374,0,-0.00035820112680085003,0.0015351171605288982,0.02697415091097355,0.0002495021908544004,0.0002798830682877451,0.002243678318336606,0,2,-1000,0,1,0,-2,1,-1,330.0,90.0,1500.0
13:13:51.661,GUIDED,-35.3632621,149.1652374,0,-0.00035820112680085003,0.0015351171605288982,0.02697415091097355,0.0002495021908544004,0.0002798830682877451,0.002243678318336606,0,2,-1000,0,1,0,-2,1,-1,330.0,90.0,1500.0
13:13:51.864,GUIDED,-35.3632621,149.1652374,0,-0.00035820112680085003,0.0015351171605288982,0.02697415091097355,0.0002495021908544004,0.0002798830682877451,0.002243678318336606,0,2,-1000,0,1,0,-2,1,-1,330.0,90.0,1500.0
13:13:52.068,GUIDED,-35.3632621,149.1652374,0,-0.00035820112680085003,0.0015351171605288982,0.02697415091097355,0.0002495021908544004,0.0002798830682877451,0.002243678318336606,0,2,-1000,0,1,0,-2,1,-1,330.0,90.0,1500.0
13:13:52.271,GUIDED,-35.3632621,149.1652374,0,-0.00035820112680085003,0.0015351171605288982,0.02697415091097355,0.0002495021908544004,0.0002798830682877451,0.002243678318336606,0,2,-1000,0,1,0,-2,1,-1,330.0,90.0,1500.0
13:13:52.474,GUIDED,-35.3632621,149.1652374,0,-0.00035820112680085003,0.0015351171605288982,0.02697415091097355,0.0002495021908544004,0.0002798830682877451,0.002243678318336606,0,2,-1000,0,1,0,-2,1,-1,330.0,90.0,1500.0
13:13:52.679,GUIDED,-35.3632621,149.1652374,0,-0.00035820112680085003,0.0015351171605288982,0.02697415091097355,0.0002495021908544004,0.0002798830682877451,0.002243678318336606,0,2,-1000,0,1,0,-2,1,-1,330.0,90.0,1500.0
13:13:52.881,GUIDED,-35.3632622,149.1652375,6,-0.0004882562789134681,0.0014335267478600144,0.026620127260684967,0.00016003302880562842,0.00023465362028218806,0.002178736962378025,0,1,-1000,0,0,0,-2,1,0,330.0,90.0,1500.0
13:13:53.087,GUIDED,-35.3632621,149.1652374,8,-0.0005895092617720366,0.0013499332126230001,0.026180801913142204,0.00021685127285309136,0.00041008726111613214,0.0020126868039369583,0,2,-1000,0,0,0,-1,0,0,330.0,90.0,1500.0
13:13:53.295,GUIDED,-35.3632621,149.1652374,9,-0.0005487817106768489,0.0014024657430127263,0.02593989484012127,0.00036139183794148266,0.00023052821052260697,0.002113423077389598,0,2,-1000,0,0,0,0,0,0,330.0,90.0,1500.0
13:13:53.500,GUIDED,-35.3632621,149.1652374,9,-0.0005487817106768489,0.0014024657430127263,0.02593989484012127,0.00036139183794148266,0.00023052821052260697,0.002113423077389598,0,2,-1000,0,0,0,0,0,0,330.0,90.0,1500.0
13:13:53.709,GUIDED,-35.3632621,149.1652374,9,-0.0005487817106768489,0.0014024657430127263,0.02593989484012127,0.00036139183794148266,0.00023052821052260697,0.002113423077389598,0,2,-1000,0,0,0,0,0,0,330.0,90.0,1500.0
13:13:53.912,GUIDED,-35.3632621,149.1652374,9,-0.0005487817106768489,0.0014024657430127263,0.02593989484012127,0.00036139183794148266,0.00023052821052260697,0.002113423077389598,0,2,-1000,0,0,0,0,0,0,330.0,90.0,1500.0
13:13:54.114,GUIDED,-35.3632621,149.1652374,9,-0.0005487817106768489,0.0014024657430127263,0.02593989484012127,0.00036139183794148266,0.00023052821052260697,0.002113423077389598,0,2,-1000,0,0,0,0,0,0,330.0,90.0,1500.0
13:13:54.324,GUIDED,-35.3632621,149.1652374,9,-0.0005487817106768489,0.0014024657430127263,0.02593989484012127,0.00036139183794148266,0.00023052821052260697,0.002113423077389598,0,2,-1000,0,0,0,0,0,0,330.0,90.0,1500.0
13:13:54.526,GUIDED,-35.3632621,149.1652374,9,-0.0005487817106768489,0.0014024657430127263,0.02593989484012127,0.00036139183794148266,0.00023052821052260697,0.002113423077389598,0,2,-1000,0,0,0,0,0,0,330.0,90.0,1500.0
13:13:54.728,GUIDED,-35.3632621,149.1652374,9,-0.0005487817106768489,0.0014024657430127263,0.02593989484012127,0.00036139183794148266,0.00023052821052260697,0.002113423077389598,0,2,-1000,0,0,0,0,0,0,330.0,90.0,1500.0
13:13:54.936,GUIDED,-35.3632621,149.1652374,9,-0.0005487817106768489,0.0014024657430127263,0.02593989484012127,0.00036139183794148266,0.00023052821052260697,0.002113423077389598,0,2,-1000,0,0,0,0,0,0,330.0,90.0,1500.0
13:13:55.141,GUIDED,-35.3632621,149.1652374,9,-0.0005487817106768489,0.0014024657430127263,0.02593989484012127,0.00036139183794148266,0.00023052821052260697,0.002113423077389598,0,2,-1000,0,0,0,0,0,0,330.0,90.0,1500.0
13:13:55.351,GUIDED,-35.3632621,149.1652374,9,-0.0005487817106768489,0.0014024657430127263,0.02593989484012127,0.00036139183794148266,0.00023052821052260697,0.002113423077389598,0,2,-1000,0,0,0,0,0,0,330.0,90.0,1500.0
13:13:55.554,GUIDED,-35.3632621,149.1652374,9,-0.0005487817106768489,0.0014024657430127263,0.02593989484012127,0.00036139183794148266,0.00023052821052260697,0.002113423077389598,0,2,-1000,0,0,0,0,0,0,330.0,90.0,1500.0
13:13:55.757,GUIDED,-35.3632621,149.1652374,9,-0.0005487817106768489,0.0014024657430127263,0.02593989484012127,0.00036139183794148266,0.00023052821052260697,0.002113423077389598,0,2,-1000,0,0,0,0,0,0,330.0,90.0,1500.0
13:13:55.961,GUIDED,-35.3632621,149.1652374,9,-0.0005487817106768489,0.0014024657430127263,0.02593989484012127,0.00036139183794148266,0.00023052821052260697,0.002113423077389598,0,2,-1000,0,0,0,0,0,0,330.0,90.0,1500.0
13:13:56.166,GUIDED,-35.3632621,149.1652374,9,-0.0005487817106768489,0.0014024657430127263,0.02593989484012127,0.00036139183794148266,0.00023052821052260697,0.002113423077389598,0,2,-1000,0,0,0,0,0,0,330.0,90.0,1500.0
13:13:56.370,GUIDED,-35.3632621,149.1652374,10,-0.00028844084590673447,0.0017338034231215715,0.025254542008042336,0.0003478413273114711,0.00020038423826918006,0.0019100261852145195,0,1,-1000,0,0,0,0,0,0,330.0,90.0,1500.0
13:13:56.572,GUIDED,-35.3632621,149.1652374,10,-5.0825372454710305e-05,0.0020364841911941767,0.024682460352778435,0.0003429197531659156,0.00043614290188997984,0.0018460105638951063,0,2,-1000,0,0,0,0,0,0,330.0,90.0,1500.0
13:13:56.775,GUIDED,-35.3632621,149.1652374,11,0.00014155145618133247,0.0022653075866401196,0.024256521835923195,0.000287292234133929,0.0003136922314297408,0.00201896158978343,0,1,-1000,0,1,0,0,0,0,330.0,90.0,1500.0
13:13:56.979,GUIDED,-35.3632621,149.1652374,11,0.00020542934362310916,0.0023409889545291662,0.024114923551678658,0.0002982713922392577,0.00027473425143398345,0.0017690029926598072,0,2,-1000,0,0,0,0,0,0,330.0,90.0,1500.0
13:13:57.182,GUIDED,-35.3632621,149.1652374,11,0.00020542934362310916,0.0023409889545291662,0.024114923551678658,0.0002982713922392577,0.00027473425143398345,0.0017690029926598072,0,2,-1000,0,0,0,0,0,0,330.0,90.0,1500.0
13:13:57.389,GUIDED,-35.3632621,149.1652374,11,0.00020542934362310916,0.0023409889545291662,0.024114923551678658,0.0002982713922392577,0.00027473425143398345,0.0017690029926598072,0,2,-1000,0,0,0,0,0,0,330.0,90.0,1500.0
13:13:57.592,GUIDED,-35.3632621,149.1652374,11,0.00020542934362310916,0.0023409889545291662,0.024114923551678658,0.0002982713922392577,0.00027473425143398345,0.0017690029926598072,0,2,-1000,0,0,0,0,0,0,330.0,90.0,1500.0
13:13:57.793,GUIDED,-35.3632621,149.1652374,11,0.00020542934362310916,0.0023409889545291662,0.024114923551678658,0.0002982713922392577,0.00027473425143398345,0.0017690029926598072,0,2,-1000,0,0,0,0,0,0,330.0,90.0,1500.0
13:13:57.997,GUIDED,-35.3632621,149.1652374,11,0.00020542934362310916,0.0023409889545291662,0.024114923551678658,0.0002982713922392577,0.00027473425143398345,0.0017690029926598072,0,2,-1000,0,0,0,0,0,0,330.0,90.0,1500.0
13:13:58.199,GUIDED,-35.3632621,149.1652374,11,0.00020542934362310916,0.0023409889545291662,0.024114923551678658,0.0002982713922392577,0.00027473425143398345,0.0017690029926598072,0,2,-1000,0,0,0,0,0,0,330.0,90.0,1500.0
13:13:58.402,GUIDED,-35.3632621,149.1652374,11,0.00020542934362310916,0.0023409889545291662,0.024114923551678658,0.0002982713922392577,0.00027473425143398345,0.0017690029926598072,0,2,-1000,0,0,0,0,0,0,330.0,90.0,1500.0
13:13:58.604,GUIDED,-35.3632621,149.1652374,11,0.00020542934362310916,0.0023409889545291662,0.024114923551678658,0.0002982713922392577,0.00027473425143398345,0.0017690029926598072,0,2,-1000,0,0,0,0,0,0,330.0,90.0,1500.0
13:13:58.808,GUIDED,-35.3632621,149.1652374,11,0.00020542934362310916,0.0023409889545291662,0.024114923551678658,0.0002982713922392577,0.00027473425143398345,0.0017690029926598072,0,2,-1000,0,0,0,0,0,0,330.0,90.0,1500.0
13:13:59.015,GUIDED,-35.3632621,149.1652374,11,0.00020542934362310916,0.0023409889545291662,0.024114923551678658,0.0002982713922392577,0.00027473425143398345,0.0017690029926598072,0,2,-1000,0,0,0,0,0,0,330.0,90.0,1500.0
13:13:59.219,GUIDED,-35.3632621,149.1652374,11,0.00020542934362310916,0.0023409889545291662,0.024114923551678658,0.0002982713922392577,0.00027473425143398345,0.0017690029926598072,0,2,-1000,0,0,0,0,0,0,330.0,90.0,1500.0
13:13:59.422,GUIDED,-35.3632621,149.1652374,11,0.00020542934362310916,0.0023409889545291662,0.024114923551678658,0.0002982713922392577,0.00027473425143398345,0.0017690029926598072,0,2,-1000,0,0,0,0,0,0,330.0,90.0,1500.0
13:13:59.628,GUIDED,-35.3632621,149.1652374,11,0.0005028824089094996,0.0026493414770811796,0.02343255840241909,0.00029776946757920086,0.00034608502755872905,0.001747490488924086,0,1,-1000,0,0,0,0,0,0,330.0,90.0,1500.0
13:13:59.833,GUIDED,-35.3632621,149.1652374,11,0.0006371763302013278,0.0027820307295769453,0.0231277197599411,0.0003415622632019222,0.0003333836211822927,0.0017222828464582562,0,2,-1000,0,0,0,-1,0,0,330.0,90.0,1500.0
13:14:00.035,GUIDED,-35.3632621,149.1652374,11,0.0006371763302013278,0.0027820307295769453,0.0231277197599411,0.0003415622632019222,0.0003333836211822927,0.0017222828464582562,0,2,-1000,0,0,0,-1,0,0,330.0,90.0,1500.0
13:14:00.245,GUIDED,-35.3632621,149.1652374,11,0.0006371763302013278,0.0027820307295769453,0.0231277197599411,0.0003415622632019222,0.0003333836211822927,0.0017222828464582562,0,2,-1000,0,0,0,-1,0,0,330.0,90.0,1500.0
13:14:00.450,GUIDED,-35.3632621,149.1652374,11,0.0006371763302013278,0.0027820307295769453,0.0231277197599411,0.0003415622632019222,0.0003333836211822927,0.0017222828464582562,0,2,-1000,0,0,0,-1,0,0,330.0,90.0,1500.0
13:14:00.655,GUIDED,-35.3632621,149.1652374,11,0.0006371763302013278,0.0027820307295769453,0.0231277197599411,0.0003415622632019222,0.0003333836211822927,0.0017222828464582562,0,2,-1000,0,0,0,-1,0,0,330.0,90.0,1500.0
13:14:00.859,GUIDED,-35.3632621,149.1652374,11,0.0006371763302013278,0.0027820307295769453,0.0231277197599411,0.0003415622632019222,0.0003333836211822927,0.0017222828464582562,0,2,-1000,0,0,0,-1,0,0,330.0,90.0,1500.0
13:14:01.060,GUIDED,-35.3632621,149.1652374,11,0.0006371763302013278,0.0027820307295769453,0.0231277197599411,0.0003415622632019222,0.0003333836211822927,0.0017222828464582562,0,2,-1000,0,0,0,-1,0,0,330.0,90.0,1500.0
13:14:01.266,GUIDED,-35.3632621,149.1652374,11,0.0006371763302013278,0.0027820307295769453,0.0231277197599411,0.0003415622632019222,0.0003333836211822927,0.0017222828464582562,0,2,-1000,0,0,0,-1,0,0,330.0,90.0,1500.0
13:14:01.470,GUIDED,-35.3632621,149.1652374,11,0.0006371763302013278,0.0027820307295769453,0.0231277197599411,0.0003415622632019222,0.0003333836211822927,0.0017222828464582562,0,2,-1000,0,0,0,-1,0,0,330.0,90.0,1500.0
13:14:01.672,GUIDED,-35.3632621,149.1652374,11,0.0006371763302013278,0.0027820307295769453,0.0231277197599411,0.0003415622632019222,0.0003333836211822927,0.0017222828464582562,0,2,-1000,0,0,0,-1,0,0,330.0,90.0,1500.0
13:14:01.875,GUIDED,-35.3632621,149.1652374,11,0.0006371763302013278,0.0027820307295769453,0.0231277197599411,0.0003415622632019222,0.0003333836211822927,0.0017222828464582562,0,2,-1000,0,0,0,-1,0,0,330.0,90.0,1500.0
13:14:02.076,GUIDED,-35.3632621,149.1652374,11,0.0006371763302013278,0.0027820307295769453,0.0231277197599411,0.0003415622632019222,0.0003333836211822927,0.0017222828464582562,0,2,-1000,0,0,0,-1,0,0,330.0,90.0,1500.0
13:14:02.280,GUIDED,-35.3632621,149.1652374,11,0.0006371763302013278,0.0027820307295769453,0.0231277197599411,0.0003415622632019222,0.0003333836211822927,0.0017222828464582562,0,2,-1000,0,0,0,-1,0,0,330.0,90.0,1500.0
13:14:02.483,GUIDED,-35.3632621,149.1652374,12,0.0007473114528693259,0.0012560373870655894,0.02274995483458042,0.0007139003137126565,-0.028920069336891174,0.0027149596717208624,0,0,-1072,1,-28,1,-1,1,-4,330.0,90.0,1500.0
13:14:02.686,GUIDED,-35.3632621,149.1652374,12,0.0007473114528693259,0.0012560373870655894,0.02274995483458042,0.0007139003137126565,-0.028920069336891174,0.0027149596717208624,0,0,-1072,1,-28,1,-1,1,-4,330.0,90.0,1500.0
13:14:02.891,GUIDED,-35.3632621,149.1652374,12,0.0007473114528693259,0.0012560373870655894,0.02274995483458042,0.0007139003137126565,-0.028920069336891174,0.0027149596717208624,0,0,-1072,1,-28,1,-1,1,-4,330.0,90.0,1500.0
13:14:03.094,GUIDED,-35.3632621,149.1652374,12,0.0007473114528693259,0.0012560373870655894,0.02274995483458042,0.0007139003137126565,-0.028920069336891174,0.0027149596717208624,0,0,-1072,1,-28,1,-1,1,-4,330.0,90.0,1500.0
13:14:03.297,GUIDED,-35.3632621,149.1652374,12,0.0007473114528693259,0.0012560373870655894,0.02274995483458042,0.0007139003137126565,-0.028920069336891174,0.0027149596717208624,0,0,-1072,1,-28,1,-1,1,-4,330.0,90.0,1500.0
13:14:03.501,GUIDED,-35.3632621,149.1652374,12,0.0007473114528693259,0.0012560373870655894,0.02274995483458042,0.0007139003137126565,-0.028920069336891174,0.0027149596717208624,0,0,-1072,1,-28,1,-1,1,-4,330.0,90.0,1500.0
13:14:03.705,GUIDED,-35.3632621,149.1652374,12,0.0007473114528693259,0.0012560373870655894,0.02274995483458042,0.0007139003137126565,-0.028920069336891174,0.0027149596717208624,0,0,-1072,1,-28,1,-1,1,-4,330.0,90.0,1500.0
13:14:03.909,GUIDED,-35.3632621,149.1652374,12,0.0007473114528693259,0.0012560373870655894,0.02274995483458042,0.0007139003137126565,-0.028920069336891174,0.0027149596717208624,0,0,-1072,1,-28,1,-1,1,-4,330.0,90.0,1500.0
13:14:04.113,GUIDED,-35.3632621,149.1652374,12,0.0007473114528693259,0.0012560373870655894,0.02274995483458042,0.0007139003137126565,-0.028920069336891174,0.0027149596717208624,0,0,-1072,1,-28,1,-1,1,-4,330.0,90.0,1500.0
13:14:04.320,GUIDED,-35.3632621,149.1652374,12,0.0007473114528693259,0.0012560373870655894,0.02274995483458042,0.0007139003137126565,-0.028920069336891174,0.0027149596717208624,0,0,-1072,1,-28,1,-1,1,-4,330.0,90.0,1500.0
13:14:04.522,GUIDED,-35.3632621,149.1652374,12,0.0007473114528693259,0.0012560373870655894,0.02274995483458042,0.0007139003137126565,-0.028920069336891174,0.0027149596717208624,0,0,-1072,1,-28,1,-1,1,-4,330.0,90.0,1500.0
13:14:04.724,GUIDED,-35.3632621,149.1652374,12,0.0007473114528693259,0.0012560373870655894,0.02274995483458042,0.0007139003137126565,-0.028920069336891174,0.0027149596717208624,0,0,-1072,1,-28,1,-1,1,-4,330.0,90.0,1500.0
13:14:04.929,GUIDED,-35.3632621,149.1652374,12,0.0007473114528693259,0.0012560373870655894,0.02274995483458042,0.0007139003137126565,-0.028920069336891174,0.0027149596717208624,0,0,-1072,1,-28,1,-1,1,-4,330.0,90.0,1500.0
13:14:05.136,GUIDED,-35.363262,149.1652374,1309,0.02019374817609787,0.0015362619888037443,0.022316034883260727,0.04821421578526497,-0.0056588901206851006,0.0021939892321825027,0,0,-1053,45,-2,0,0,3,-143,330.0,90.0,1500.0
13:14:05.339,GUIDED,-35.3632617,149.1652383,2455,0.053139470517635345,-0.004556502681225538,0.02260112389922142,0.04004795849323273,-0.009881244972348213,0.0038235196843743324,0,-2,-1004,44,-7,2,3,27,-148,330.0,90.0,1500.0
13:14:05.545,GUIDED,-35.3632611,149.1652418,3602,0.02231758087873459,0.024910977110266685,-0.0445222333073616,-0.16513775289058685,0.08103522658348083,-0.14690221846103668,3,-11,-998,-164,81,-147,7,58,-144,330.0,90.0,1500.0
13:14:05.748,GUIDED,-35.3632611,149.1652418,3602,0.02231758087873459,0.024910977110266685,-0.0445222333073616,-0.16513775289058685,0.08103522658348083,-0.14690221846103668,3,-11,-998,-164,81,-147,7,58,-144,330.0,90.0,1500.0
13:14:05.951,GUIDED,-35.3632611,149.1652418,3602,0.02231758087873459,0.024910977110266685,-0.0445222333073616,-0.16513775289058685,0.08103522658348083,-0.14690221846103668,3,-11,-998,-164,81,-147,7,58,-144,330.0,90.0,1500.0
13:14:06.153,GUIDED,-35.3632611,149.1652418,3602,0.02231758087873459,0.024910977110266685,-0.0445222333073616,-0.16513775289058685,0.08103522658348083,-0.14690221846103668,3,-11,-998,-164,81,-147,7,58,-144,330.0,90.0,1500.0
13:14:06.355,GUIDED,-35.3632611,149.1652418,3602,0.02231758087873459,0.024910977110266685,-0.0445222333073616,-0.16513775289058685,0.08103522658348083,-0.14690221846103668,3,-11,-998,-164,81,-147,7,58,-144,330.0,90.0,1500.0
13:14:06.559,GUIDED,-35.3632611,149.1652418,3602,0.02231758087873459,0.024910977110266685,-0.0445222333073616,-0.16513775289058685,0.08103522658348083,-0.14690221846103668,3,-11,-998,-164,81,-147,7,58,-144,330.0,90.0,1500.0
13:14:06.769,GUIDED,-35.3632611,149.1652418,3602,0.02231758087873459,0.024910977110266685,-0.0445222333073616,-0.16513775289058685,0.08103522658348083,-0.14690221846103668,3,-11,-998,-164,81,-147,7,58,-144,330.0,90.0,1500.0
13:14:06.981,GUIDED,-35.3632611,149.1652418,3602,0.02231758087873459,0.024910977110266685,-0.0445222333073616,-0.16513775289058685,0.08103522658348083,-0.14690221846103668,3,-11,-998,-164,81,-147,7,58,-144,330.0,90.0,1500.0
13:14:07.184,GUIDED,-35.3632611,149.1652418,3602,0.02231758087873459,0.024910977110266685,-0.0445222333073616,-0.16513775289058685,0.08103522658348083,-0.14690221846103668,3,-11,-998,-164,81,-147,7,58,-144,330.0,90.0,1500.0
13:14:07.387,GUIDED,-35.3632611,149.1652418,3602,0.02231758087873459,0.024910977110266685,-0.0445222333073616,-0.16513775289058685,0.08103522658348083,-0.14690221846103668,3,-11,-998,-164,81,-147,7,58,-144,330.0,90.0,1500.0
13:14:07.592,GUIDED,-35.3632611,149.1652418,3602,0.02231758087873459,0.024910977110266685,-0.0445222333073616,-0.16513775289058685,0.08103522658348083,-0.14690221846103668,3,-11,-998,-164,81,-147,7,58,-144,330.0,90.0,1500.0
13:14:07.796,GUIDED,-35.3632611,149.1652418,3602,0.02231758087873459,0.024910977110266685,-0.0445222333073616,-0.16513775289058685,0.08103522658348083,-0.14690221846103668,3,-11,-998,-164,81,-147,7,58,-144,330.0,90.0,1500.0
13:14:07.998,GUIDED,-35.3632611,149.1652418,3602,0.02231758087873459,0.024910977110266685,-0.0445222333073616,-0.16513775289058685,0.08103522658348083,-0.14690221846103668,3,-11,-998,-164,81,-147,7,58,-144,330.0,90.0,1500.0
13:14:08.204,GUIDED,-35.3632617,149.165248,5356,-0.04410340264439583,-0.008275202475488186,-0.09311483055353165,-0.08455312997102737,-0.0695258378982544,0.027490755543112755,9,-7,-1000,-71,-103,27,-16,33,-148,330.0,90.0,1500.0
13:14:08.408,GUIDED,-35.3632622,149.1652489,6134,-0.08267541229724884,-0.026863574981689453,-0.08415435254573822,-0.06621299684047699,-0.018811943009495735,0.0074392701499164104,3,0,-1000,-65,-18,6,-5,-2,-148,330.0,90.0,1500.0
13:14:08.610,GUIDED,-35.3632622,149.1652489,6134,-0.08267541229724884,-0.026863574981689453,-0.08415435254573822,-0.06621299684047699,-0.018811943009495735,0.0074392701499164104,3,0,-1000,-65,-18,6,-5,-2,-148,330.0,90.0,1500.0
13:14:08.812,GUIDED,-35.3632622,149.1652489,6134,-0.08267541229724884,-0.026863574981689453,-0.08415435254573822,-0.06621299684047699,-0.018811943009495735,0.0074392701499164104,3,0,-1000,-65,-18,6,-5,-2,-148,330.0,90.0,1500.0
13:14:09.013,GUIDED,-35.3632622,149.1652489,6134,-0.08267541229724884,-0.026863574981689453,-0.08415435254573822,-0.06621299684047699,-0.018811943009495735,0.0074392701499164104,3,0,-1000,-65,-18,6,-5,-2,-148,330.0,90.0,1500.0
13:14:09.216,GUIDED,-35.3632622,149.1652489,6134,-0.08267541229724884,-0.026863574981689453,-0.08415435254573822,-0.06621299684047699,-0.018811943009495735,0.0074392701499164104,3,0,-1000,-65,-18,6,-5,-2,-148,330.0,90.0,1500.0
13:14:09.419,GUIDED,-35.3632622,149.1652489,6134,-0.08267541229724884,-0.026863574981689453,-0.08415435254573822,-0.06621299684047699,-0.018811943009495735,0.0074392701499164104,3,0,-1000,-65,-18,6,-5,-2,-148,330.0,90.0,1500.0
13:14:09.623,GUIDED,-35.3632622,149.1652489,6134,-0.08267541229724884,-0.026863574981689453,-0.08415435254573822,-0.06621299684047699,-0.018811943009495735,0.0074392701499164104,3,0,-1000,-65,-18,6,-5,-2,-148,330.0,90.0,1500.0
13:14:09.825,GUIDED,-35.3632622,149.1652489,6134,-0.08267541229724884,-0.026863574981689453,-0.08415435254573822,-0.06621299684047699,-0.018811943009495735,0.0074392701499164104,3,0,-1000,-65,-18,6,-5,-2,-148,330.0,90.0,1500.0
13:14:10.028,GUIDED,-35.3632622,149.1652489,6134,-0.08267541229724884,-0.026863574981689453,-0.08415435254573822,-0.06621299684047699,-0.018811943009495735,0.0074392701499164104,3,0,-1000,-65,-18,6,-5,-2,-148,330.0,90.0,1500.0
13:14:10.231,GUIDED,-35.3632622,149.1652489,6134,-0.08267541229724884,-0.026863574981689453,-0.08415435254573822,-0.06621299684047699,-0.018811943009495735,0.0074392701499164104,3,0,-1000,-65,-18,6,-5,-2,-148,330.0,90.0,1500.0
13:14:10.437,GUIDED,-35.3632622,149.1652489,6134,-0.08267541229724884,-0.026863574981689453,-0.08415435254573822,-0.06621299684047699,-0.018811943009495735,0.0074392701499164104,3,0,-1000,-65,-18,6,-5,-2,-148,330.0,90.0,1500.0
13:14:10.639,GUIDED,-35.3632622,149.1652489,6134,-0.08267541229724884,-0.026863574981689453,-0.08415435254573822,-0.06621299684047699,-0.018811943009495735,0.0074392701499164104,3,0,-1000,-65,-18,6,-5,-2,-148,330.0,90.0,1500.0
13:14:10.841,GUIDED,-35.3632622,149.1652489,6134,-0.08267541229724884,-0.026863574981689453,-0.08415435254573822,-0.06621299684047699,-0.018811943009495735,0.0074392701499164104,3,0,-1000,-65,-18,6,-5,-2,-148,330.0,90.0,1500.0
13:14:11.043,GUIDED,-35.363262,149.1652436,7805,-0.0428788848221302,-0.019562456756830215,-0.0908859521150589,0.06673557311296463,0.02292880229651928,0.003049663733690977,-8,11,-1001,63,15,1,10,-77,-147,330.0,90.0,1500.0
13:14:11.247,GUIDED,-35.3632616,149.165239,8571,-0.008454656228423119,-0.005467122886329889,-0.09093572199344635,0.07105845957994461,0.03128669038414955,0.004383170045912266,-13,14,-1005,71,31,3,10,-84,-149,330.0,90.0,1500.0
13:14:11.450,GUIDED,-35.3632616,149.165239,8571,-0.008454656228423119,-0.005467122886329889,-0.09093572199344635,0.07105845957994461,0.03128669038414955,0.004383170045912266,-13,14,-1005,71,31,3,10,-84,-149,330.0,90.0,1500.0
13:14:11.653,GUIDED,-35.3632616,149.165239,8571,-0.008454656228423119,-0.005467122886329889,-0.09093572199344635,0.07105845957994461,0.03128669038414955,0.004383170045912266,-13,14,-1005,71,31,3,10,-84,-149,330.0,90.0,1500.0
13:14:11.858,GUIDED,-35.3632616,149.165239,8571,-0.008454656228423119,-0.005467122886329889,-0.09093572199344635,0.07105845957994461,0.03128669038414955,0.004383170045912266,-13,14,-1005,71,31,3,10,-84,-149,330.0,90.0,1500.0
13:14:12.060,GUIDED,-35.3632616,149.165239,8571,-0.008454656228423119,-0.005467122886329889,-0.09093572199344635,0.07105845957994461,0.03128669038414955,0.004383170045912266,-13,14,-1005,71,31,3,10,-84,-149,330.0,90.0,1500.0
13:14:12.266,GUIDED,-35.3632616,149.165239,8571,-0.008454656228423119,-0.005467122886329889,-0.09093572199344635,0.07105845957994461,0.03128669038414955,0.004383170045912266,-13,14,-1005,71,31,3,10,-84,-149,330.0,90.0,1500.0
13:14:12.469,GUIDED,-35.3632616,149.165239,8571,-0.008454656228423119,-0.005467122886329889,-0.09093572199344635,0.07105845957994461,0.03128669038414955,0.004383170045912266,-13,14,-1005,71,31,3,10,-84,-149,330.0,90.0,1500.0
13:14:12.672,GUIDED,-35.3632616,149.165239,8571,-0.008454656228423119,-0.005467122886329889,-0.09093572199344635,0.07105845957994461,0.03128669038414955,0.004383170045912266,-13,14,-1005,71,31,3,10,-84,-149,330.0,90.0,1500.0
13:14:12.874,GUIDED,-35.3632616,149.165239,8571,-0.008454656228423119,-0.005467122886329889,-0.09093572199344635,0.07105845957994461,0.03128669038414955,0.004383170045912266,-13,14,-1005,71,31,3,10,-84,-149,330.0,90.0,1500.0
13:14:13.078,GUIDED,-35.3632616,149.165239,8571,-0.008454656228423119,-0.005467122886329889,-0.09093572199344635,0.07105845957994461,0.03128669038414955,0.004383170045912266,-13,14,-1005,71,31,3,10,-84,-149,330.0,90.0,1500.0
13:14:13.283,GUIDED,-35.3632616,149.165239,8571,-0.008454656228423119,-0.005467122886329889,-0.09093572199344635,0.07105845957994461,0.03128669038414955,0.004383170045912266,-13,14,-1005,71,31,3,10,-84,-149,330.0,90.0,1500.0
13:14:13.485,GUIDED,-35.3632616,149.165239,8571,-0.008454656228423119,-0.005467122886329889,-0.09093572199344635,0.07105845957994461,0.03128669038414955,0.004383170045912266,-13,14,-1005,71,31,3,10,-84,-149,330.0,90.0,1500.0
13:14:13.689,GUIDED,-35.3632612,149.1652312,10064,0.05756356939673424,0.02073749713599682,-0.08689942955970764,0.06666494160890579,0.018976423889398575,0.0056301504373550415,-8,12,-1004,67,19,4,-3,-49,-154,330.0,90.0,1500.0
13:14:13.893,GUIDED,-35.3632617,149.1652292,11254,0.11405026912689209,0.019847184419631958,-0.08217769861221313,0.045486919581890106,-0.020263617858290672,0.006453005131334066,1,2,-998,52,-9,5,-16,13,-152,330.0,90.0,1500.0
13:14:14.096,GUIDED,-35.3632628,149.1652332,12404,0.08166868984699249,-0.012749169953167439,-0.06923168152570724,-0.22796879708766937,-0.06758635491132736,0.022703684866428375,11,-13,-986,-227,-66,21,-11,87,-141,330.0,90.0,1500.0
13:14:14.300,GUIDED,-35.3632628,149.1652332,12404,0.08166868984699249,-0.012749169953167439,-0.06923168152570724,-0.22796879708766937,-0.06758635491132736,0.022703684866428375,11,-13,-986,-227,-66,21,-11,87,-141,330.0,90.0,1500.0
13:14:14.502,GUIDED,-35.3632628,149.1652332,12404,0.08166868984699249,-0.012749169953167439,-0.06923168152570724,-0.22796879708766937,-0.06758635491132736,0.022703684866428375,11,-13,-986,-227,-66,21,-11,87,-141,330.0,90.0,1500.0
13:14:14.704,GUIDED,-35.3632628,149.1652332,12404,0.08166868984699249,-0.012749169953167439,-0.06923168152570724,-0.22796879708766937,-0.06758635491132736,0.022703684866428375,11,-13,-986,-227,-66,21,-11,87,-141,330.0,90.0,1500.0
13:14:14.908,GUIDED,-35.3632628,149.1652332,12404,0.08166868984699249,-0.012749169953167439,-0.06923168152570724,-0.22796879708766937,-0.06758635491132736,0.022703684866428375,11,-13,-986,-227,-66,21,-11,87,-141,330.0,90.0,1500.0
13:14:15.115,GUIDED,-35.3632628,149.1652332,12404,0.08166868984699249,-0.012749169953167439,-0.06923168152570724,-0.22796879708766937,-0.06758635491132736,0.022703684866428375,11,-13,-986,-227,-66,21,-11,87,-141,330.0,90.0,1500.0
13:14:15.320,GUIDED,-35.3632628,149.1652332,12404,0.08166868984699249,-0.012749169953167439,-0.06923168152570724,-0.22796879708766937,-0.06758635491132736,0.022703684866428375,11,-13,-986,-227,-66,21,-11,87,-141,330.0,90.0,1500.0
13:14:15.525,GUIDED,-35.3632628,149.1652332,12404,0.08166868984699249,-0.012749169953167439,-0.06923168152570724,-0.22796879708766937,-0.06758635491132736,0.022703684866428375,11,-13,-986,-227,-66,21,-11,87,-141,330.0,90.0,1500.0
13:14:15.728,GUIDED,-35.3632628,149.1652332,12404,0.08166868984699249,-0.012749169953167439,-0.06923168152570724,-0.22796879708766937,-0.06758635491132736,0.022703684866428375,11,-13,-986,-227,-66,21,-11,87,-141,330.0,90.0,1500.0
13:14:15.936,GUIDED,-35.3632628,149.1652332,12404,0.08166868984699249,-0.012749169953167439,-0.06923168152570724,-0.22796879708766937,-0.06758635491132736,0.022703684866428375,11,-13,-986,-227,-66,21,-11,87,-141,330.0,90.0,1500.0
13:14:16.138,GUIDED,-35.3632628,149.1652332,12404,0.08166868984699249,-0.012749169953167439,-0.06923168152570724,-0.22796879708766937,-0.06758635491132736,0.022703684866428375,11,-13,-986,-227,-66,21,-11,87,-141,330.0,90.0,1500.0
13:14:16.344,GUIDED,-35.3632628,149.1652332,12404,0.08166868984699249,-0.012749169953167439,-0.06923168152570724,-0.22796879708766937,-0.06758635491132736,0.022703684866428375,11,-13,-986,-227,-66,21,-11,87,-141,330.0,90.0,1500.0
13:14:16.549,GUIDED,-35.3632627,149.1652409,13666,-0.07719478756189346,-0.014099142514169216,-0.11282860487699509,-0.1284611076116562,-0.00011198752326890826,-0.06739400327205658,8,-15,-1015,-127,0,-68,11,60,-150,330.0,90.0,1500.0
13:14:16.751,GUIDED,-35.3632618,149.1652427,14844,-0.0835799053311348,-0.017486680299043655,-0.1558271050453186,0.04206172376871109,-0.0016679535619914532,-0.03639376536011696,-3,-2,-1000,42,-1,-37,15,-15,-152,330.0,90.0,1500.0
13:14:16.956,GUIDED,-35.3632615,149.1652421,15235,-0.07196690887212753,-0.017293686047196388,-0.1634748876094818,0.049078017473220825,0.007279634475708008,-0.02612663246691227,-5,2,-998,49,7,-26,15,-35,-151,330.0,90.0,1500.0
13:14:17.159,GUIDED,-35.3632615,149.1652421,15235,-0.07196690887212753,-0.017293686047196388,-0.1634748876094818,0.049078017473220825,0.007279634475708008,-0.02612663246691227,-5,2,-998,49,7,-26,15,-35,-151,330.0,90.0,1500.0
13:14:17.365,GUIDED,-35.3632615,149.1652421,15235,-0.07196690887212753,-0.017293686047196388,-0.1634748876094818,0.049078017473220825,0.007279634475708008,-0.02612663246691227,-5,2,-998,49,7,-26,15,-35,-151,330.0,90.0,1500.0
13:14:17.570,GUIDED,-35.3632615,149.1652421,15235,-0.07196690887212753,-0.017293686047196388,-0.1634748876094818,0.049078017473220825,0.007279634475708008,-0.02612663246691227,-5,2,-998,49,7,-26,15,-35,-151,330.0,90.0,1500.0
13:14:17.771,GUIDED,-35.3632615,149.1652421,15235,-0.07196690887212753,-0.017293686047196388,-0.1634748876094818,0.049078017473220825,0.007279634475708008,-0.02612663246691227,-5,2,-998,49,7,-26,15,-35,-151,330.0,90.0,1500.0
13:14:17.975,GUIDED,-35.3632615,149.1652421,15235,-0.07196690887212753,-0.017293686047196388,-0.1634748876094818,0.049078017473220825,0.007279634475708008,-0.02612663246691227,-5,2,-998,49,7,-26,15,-35,-151,330.0,90.0,1500.0
13:14:18.179,GUIDED,-35.3632615,149.1652421,15235,-0.07196690887212753,-0.017293686047196388,-0.1634748876094818,0.049078017473220825,0.007279634475708008,-0.02612663246691227,-5,2,-998,49,7,-26,15,-35,-151,330.0,90.0,1500.0
13:14:18.384,GUIDED,-35.3632615,149.1652421,15235,-0.07196690887212753,-0.017293686047196388,-0.1634748876094818,0.049078017473220825,0.007279634475708008,-0.02612663246691227,-5,2,-998,49,7,-26,15,-35,-151,330.0,90.0,1500.0
13:14:18.586,GUIDED,-35.3632615,149.1652421,15235,-0.07196690887212753,-0.017293686047196388,-0.1634748876094818,0.049078017473220825,0.007279634475708008,-0.02612663246691227,-5,2,-998,49,7,-26,15,-35,-151,330.0,90.0,1500.0
13:14:18.790,GUIDED,-35.3632615,149.1652421,15235,-0.07196690887212753,-0.017293686047196388,-0.1634748876094818,0.049078017473220825,0.007279634475708008,-0.02612663246691227,-5,2,-998,49,7,-26,15,-35,-151,330.0,90.0,1500.0
13:14:18.992,GUIDED,-35.3632615,149.1652421,15235,-0.07196690887212753,-0.017293686047196388,-0.1634748876094818,0.049078017473220825,0.007279634475708008,-0.02612663246691227,-5,2,-998,49,7,-26,15,-35,-151,330.0,90.0,1500.0
13:14:19.194,GUIDED,-35.3632606,149.1652379,16320,-0.0327223502099514,-0.004821496549993753,-0.17556804418563843,0.060605473816394806,0.027484672144055367,-0.009945089928805828,-5,2,-998,49,7,-26,12,-68,-151,330.0,90.0,1500.0
13:14:19.397,GUIDED,-35.36326,149.1652301,17894,0.032237984240055084,0.02366023324429989,-0.17885220050811768,0.06519048660993576,0.023968862369656563,-0.0001215646043419838,-9,15,-1005,66,29,-2,-4,-57,-155,330.0,90.0,1500.0
13:14:19.599,GUIDED,-35.36326,149.1652301,17894,0.032237984240055084,0.02366023324429989,-0.17885220050811768,0.06519048660993576,0.023968862369656563,-0.0001215646043419838,-10,11,-1004,65,24,0,-4,-57,-155,330.0,90.0,1500.0
13:14:19.802,GUIDED,-35.36326,149.1652301,17894,0.032237984240055084,0.02366023324429989,-0.17885220050811768,0.06519048660993576,0.023968862369656563,-0.0001215646043419838,-10,11,-1004,65,24,0,-4,-57,-155,330.0,90.0,1500.0
13:14:20.005,GUIDED,-35.36326,149.1652301,17894,0.032237984240055084,0.02366023324429989,-0.17885220050811768,0.06519048660993576,0.023968862369656563,-0.0001215646043419838,-10,11,-1004,65,24,0,-4,-57,-155,330.0,90.0,1500.0
13:14:20.214,GUIDED,-35.36326,149.1652301,17894,0.032237984240055084,0.02366023324429989,-0.17885220050811768,0.06519048660993576,0.023968862369656563,-0.0001215646043419838,-10,11,-1004,65,24,0,-4,-57,-155,330.0,90.0,1500.0
13:14:20.416,GUIDED,-35.36326,149.1652301,17894,0.032237984240055084,0.02366023324429989,-0.17885220050811768,0.06519048660993576,0.023968862369656563,-0.0001215646043419838,-10,11,-1004,65,24,0,-4,-57,-155,330.0,90.0,1500.0
13:14:20.622,GUIDED,-35.36326,149.1652301,17894,0.032237984240055084,0.02366023324429989,-0.17885220050811768,0.06519048660993576,0.023968862369656563,-0.0001215646043419838,-10,11,-1004,65,24,0,-4,-57,-155,330.0,90.0,1500.0
13:14:20.824,GUIDED,-35.36326,149.1652301,17894,0.032237984240055084,0.02366023324429989,-0.17885220050811768,0.06519048660993576,0.023968862369656563,-0.0001215646043419838,-10,11,-1004,65,24,0,-4,-57,-155,330.0,90.0,1500.0
13:14:21.026,GUIDED,-35.36326,149.1652301,17894,0.032237984240055084,0.02366023324429989,-0.17885220050811768,0.06519048660993576,0.023968862369656563,-0.0001215646043419838,-10,11,-1004,65,24,0,-4,-57,-155,330.0,90.0,1500.0
13:14:21.229,GUIDED,-35.36326,149.1652301,17894,0.032237984240055084,0.02366023324429989,-0.17885220050811768,0.06519048660993576,0.023968862369656563,-0.0001215646043419838,-10,11,-1004,65,24,0,-4,-57,-155,330.0,90.0,1500.0
13:14:21.434,GUIDED,-35.36326,149.1652301,17894,0.032237984240055084,0.02366023324429989,-0.17885220050811768,0.06519048660993576,0.023968862369656563,-0.0001215646043419838,-10,11,-1004,65,24,0,-4,-57,-155,330.0,90.0,1500.0
13:14:21.637,GUIDED,-35.36326,149.1652301,17894,0.032237984240055084,0.02366023324429989,-0.17885220050811768,0.06519048660993576,0.023968862369656563,-0.0001215646043419838,-10,11,-1004,65,24,0,-4,-57,-155,330.0,90.0,1500.0
13:14:21.842,GUIDED,-35.36326,149.1652301,17894,0.032237984240055084,0.02366023324429989,-0.17885220050811768,0.06519048660993576,0.023968862369656563,-0.0001215646043419838,-10,11,-1004,65,24,0,-4,-57,-155,330.0,90.0,1500.0
13:14:22.044,GUIDED,-35.36326,149.1652301,17894,0.032237984240055084,0.02366023324429989,-0.17885220050811768,0.06519048660993576,0.023968862369656563,-0.0001215646043419838,-10,11,-1004,65,24,0,-4,-57,-155,330.0,90.0,1500.0
13:14:22.247,GUIDED,-35.36326,149.1652301,17894,0.032237984240055084,0.02366023324429989,-0.17885220050811768,0.06519048660993576,0.023968862369656563,-0.0001215646043419838,-10,11,-1004,65,24,0,-4,-57,-155,330.0,90.0,1500.0
13:14:22.451,GUIDED,-35.3632617,149.1652275,19945,0.10689924657344818,0.02448844164609909,-0.17438112199306488,0.046752188354730606,-0.02445164881646633,0.005249377805739641,5,0,-996,47,-23,4,-23,42,-151,330.0,90.0,1500.0
13:14:22.659,GUIDED,-35.3632627,149.1652337,21074,0.04990672320127487,-0.018935108557343483,-0.16504032909870148,-0.23436862230300903,-0.029943987727165222,-0.01358814723789692,15,-17,-1001,-233,-29,-14,-5,105,-141,330.0,90.0,1500.0
13:14:22.862,GUIDED,-35.3632624,149.1652391,21819,-0.042865581810474396,-0.018503660336136818,-0.193205326795578,-0.1532610058784485,0.0018755049677565694,-0.06931895762681961,13,-20,-1020,-152,2,-70,11,91,-149,330.0,90.0,1500.0
13:14:25.250,GUIDED,-35.3632624,149.1652391,21819,-0.042865581810474396,-0.018503660336136818,-0.193205326795578,-0.1532610058784485,0.0018755049677565694,-0.06931895762681961,13,-20,-1020,-152,2,-70,11,91,-149,330.0,90.0,1500.0
13:14:25.452,GUIDED,-35.3632624,149.1652391,21819,-0.042865581810474396,-0.018503660336136818,-0.193205326795578,-0.1532610058784485,0.0018755049677565694,-0.06931895762681961,13,-20,-1020,-152,2,-70,11,91,-149,330.0,90.0,1500.0
13:14:25.655,GUIDED,-35.3632624,149.1652391,21819,-0.042865581810474396,-0.018503660336136818,-0.193205326795578,-0.1532610058784485,0.0018755049677565694,-0.06931895762681961,13,-20,-1020,-152,2,-70,11,91,-149,330.0,90.0,1500.0
13:14:25.861,GUIDED,-35.3632624,149.1652391,21819,-0.042865581810474396,-0.018503660336136818,-0.193205326795578,-0.1532610058784485,0.0018755049677565694,-0.06931895762681961,13,-20,-1020,-152,2,-70,11,91,-149,330.0,90.0,1500.0
13:14:26.064,GUIDED,-35.3632624,149.1652391,21819,-0.042865581810474396,-0.018503660336136818,-0.193205326795578,-0.1532610058784485,0.0018755049677565694,-0.06931895762681961,13,-20,-1020,-152,2,-70,11,91,-149,330.0,90.0,1500.0
13:14:26.268,GUIDED,-35.3632624,149.1652391,21819,-0.042865581810474396,-0.018503660336136818,-0.193205326795578,-0.1532610058784485,0.0018755049677565694,-0.06931895762681961,13,-20,-1020,-152,2,-70,11,91,-149,330.0,90.0,1500.0
13:14:26.475,GUIDED,-35.3632624,149.1652391,21819,-0.042865581810474396,-0.018503660336136818,-0.193205326795578,-0.1532610058784485,0.0018755049677565694,-0.06931895762681961,13,-20,-1020,-152,2,-70,11,91,-149,330.0,90.0,1500.0
13:14:26.677,GUIDED,-35.3632624,149.1652391,21819,-0.042865581810474396,-0.018503660336136818,-0.193205326795578,-0.1532610058784485,0.0018755049677565694,-0.06931895762681961,13,-20,-1020,-152,2,-70,11,91,-149,330.0,90.0,1500.0
13:14:26.883,GUIDED,-35.3632624,149.1652391,21819,-0.042865581810474396,-0.018503660336136818,-0.193205326795578,-0.1532610058784485,0.0018755049677565694,-0.06931895762681961,13,-20,-1020,-152,2,-70,11,91,-149,330.0,90.0,1500.0
13:14:27.086,GUIDED,-35.3632624,149.1652391,21819,-0.042865581810474396,-0.018503660336136818,-0.193205326795578,-0.1532610058784485,0.0018755049677565694,-0.06931895762681961,13,-20,-1020,-152,2,-70,11,91,-149,330.0,90.0,1500.0
13:14:27.288,GUIDED,-35.3632624,149.1652391,21819,-0.042865581810474396,-0.018503660336136818,-0.193205326795578,-0.1532610058784485,0.0018755049677565694,-0.06931895762681961,13,-20,-1020,-152,2,-70,11,91,-149,330.0,90.0,1500.0
13:14:27.490,GUIDED,-35.3632613,149.1652435,23226,-0.10714426636695862,-0.017313247546553612,-0.26443958282470703,0.03832324221730232,-0.005796285346150398,-0.053128961473703384,4,-8,-1012,-3,16,-80,12,-7,-154,330.0,90.0,1500.0
13:14:27.694,GUIDED,-35.3632607,149.1652401,24397,-0.06597526371479034,-0.010452763177454472,-0.28694334626197815,0.08660359680652618,0.04787933826446533,0.006525922100991011,-10,9,-998,87,48,6,3,-71,-149,330.0,90.0,1500.0
13:14:27.896,GUIDED,-35.3632607,149.1652401,24397,-0.06597526371479034,-0.010452763177454472,-0.28694334626197815,0.08660359680652618,0.04787933826446533,0.006525922100991011,-10,9,-998,87,48,6,3,-71,-149,330.0,90.0,1500.0
13:14:28.109,GUIDED,-35.3632607,149.1652401,24397,-0.06597526371479034,-0.010452763177454472,-0.28694334626197815,0.08660359680652618,0.04787933826446533,0.006525922100991011,-10,9,-998,87,48,6,3,-71,-149,330.0,90.0,1500.0
13:14:28.316,GUIDED,-35.3632607,149.1652401,24397,-0.06597526371479034,-0.010452763177454472,-0.28694334626197815,0.08660359680652618,0.04787933826446533,0.006525922100991011,-10,9,-998,87,48,6,3,-71,-149,330.0,90.0,1500.0
13:14:28.522,GUIDED,-35.3632607,149.1652401,24397,-0.06597526371479034,-0.010452763177454472,-0.28694334626197815,0.08660359680652618,0.04787933826446533,0.006525922100991011,-10,9,-998,87,48,6,3,-71,-149,330.0,90.0,1500.0
13:14:28.729,GUIDED,-35.3632607,149.1652401,24397,-0.06597526371479034,-0.010452763177454472,-0.28694334626197815,0.08660359680652618,0.04787933826446533,0.006525922100991011,-10,9,-998,87,48,6,3,-71,-149,330.0,90.0,1500.0
13:14:28.933,GUIDED,-35.3632607,149.1652401,24397,-0.06597526371479034,-0.010452763177454472,-0.28694334626197815,0.08660359680652618,0.04787933826446533,0.006525922100991011,-10,9,-998,87,48,6,3,-71,-149,330.0,90.0,1500.0
13:14:29.136,GUIDED,-35.3632607,149.1652401,24397,-0.06597526371479034,-0.010452763177454472,-0.28694334626197815,0.08660359680652618,0.04787933826446533,0.006525922100991011,-10,9,-998,87,48,6,3,-71,-149,330.0,90.0,1500.0
13:14:29.341,GUIDED,-35.3632607,149.1652401,24397,-0.06597526371479034,-0.010452763177454472,-0.28694334626197815,0.08660359680652618,0.04787933826446533,0.006525922100991011,-10,9,-998,87,48,6,3,-71,-149,330.0,90.0,1500.0
13:14:29.544,GUIDED,-35.3632607,149.1652401,24397,-0.06597526371479034,-0.010452763177454472,-0.28694334626197815,0.08660359680652618,0.04787933826446533,0.006525922100991011,-10,9,-998,87,48,6,3,-71,-149,330.0,90.0,1500.0
13:14:29.750,GUIDED,-35.3632607,149.1652401,24397,-0.06597526371479034,-0.010452763177454472,-0.28694334626197815,0.08660359680652618,0.04787933826446533,0.006525922100991011,-10,9,-998,87,48,6,3,-71,-149,330.0,90.0,1500.0
13:14:29.954,GUIDED,-35.3632607,149.1652401,24397,-0.06597526371479034,-0.010452763177454472,-0.28694334626197815,0.08660359680652618,0.04787933826446533,0.006525922100991011,-10,9,-998,87,48,6,3,-71,-149,330.0,90.0,1500.0
13:14:30.160,GUIDED,-35.3632607,149.1652401,24397,-0.06597526371479034,-0.010452763177454472,-0.28694334626197815,0.08660359680652618,0.04787933826446533,0.006525922100991011,-10,9,-998,87,48,6,3,-71,-149,330.0,90.0,1500.0
13:14:30.363,GUIDED,-35.3632611,149.1652314,25855,0.0077192047610878944,0.031143110245466232,-0.2758743464946747,0.07255683094263077,0.03002197854220867,0.010660577565431595,-13,14,-1006,73,30,10,-21,-79,-153,330.0,90.0,1500.0
13:14:30.565,GUIDED,-35.3632632,149.165226,27042,0.06207377091050148,0.043814271688461304,-0.2672577500343323,0.07068193703889847,0.003706906223669648,0.008779901079833508,-4,12,-1003,71,4,8,-42,-36,-156,330.0,90.0,1500.0
13:14:30.769,GUIDED,-35.3632632,149.165226,27042,0.06207377091050148,0.043814271688461304,-0.2672577500343323,0.07068193703889847,0.003706906223669648,0.008779901079833508,-4,12,-1003,71,4,8,-42,-36,-156,330.0,90.0,1500.0
13:14:30.979,GUIDED,-35.3632632,149.165226,27042,0.06207377091050148,0.043814271688461304,-0.2672577500343323,0.07068193703889847,0.003706906223669648,0.008779901079833508,-4,12,-1003,71,4,8,-42,-36,-156,330.0,90.0,1500.0
13:14:31.182,GUIDED,-35.3632632,149.165226,27042,0.06207377091050148,0.043814271688461304,-0.2672577500343323,0.07068193703889847,0.003706906223669648,0.008779901079833508,-4,12,-1003,71,4,8,-42,-36,-156,330.0,90.0,1500.0
13:14:31.386,GUIDED,-35.3632632,149.165226,27042,0.06207377091050148,0.043814271688461304,-0.2672577500343323,0.07068193703889847,0.003706906223669648,0.008779901079833508,-4,12,-1003,71,4,8,-42,-36,-156,330.0,90.0,1500.0
13:14:31.587,GUIDED,-35.3632632,149.165226,27042,0.06207377091050148,0.043814271688461304,-0.2672577500343323,0.07068193703889847,0.003706906223669648,0.008779901079833508,-4,12,-1003,71,4,8,-42,-36,-156,330.0,90.0,1500.0
13:14:31.789,GUIDED,-35.3632632,149.165226,27042,0.06207377091050148,0.043814271688461304,-0.2672577500343323,0.07068193703889847,0.003706906223669648,0.008779901079833508,-4,12,-1003,71,4,8,-42,-36,-156,330.0,90.0,1500.0
13:14:31.992,GUIDED,-35.3632632,149.165226,27042,0.06207377091050148,0.043814271688461304,-0.2672577500343323,0.07068193703889847,0.003706906223669648,0.008779901079833508,-4,12,-1003,71,4,8,-42,-36,-156,330.0,90.0,1500.0
13:14:32.197,GUIDED,-35.3632632,149.165226,27042,0.06207377091050148,0.043814271688461304,-0.2672577500343323,0.07068193703889847,0.003706906223669648,0.008779901079833508,-4,12,-1003,71,4,8,-42,-36,-156,330.0,90.0,1500.0
13:14:32.401,GUIDED,-35.3632632,149.165226,27042,0.06207377091050148,0.043814271688461304,-0.2672577500343323,0.07068193703889847,0.003706906223669648,0.008779901079833508,-4,12,-1003,71,4,8,-42,-36,-156,330.0,90.0,1500.0
13:14:32.603,GUIDED,-35.3632632,149.165226,27042,0.06207377091050148,0.043814271688461304,-0.2672577500343323,0.07068193703889847,0.003706906223669648,0.008779901079833508,-4,12,-1003,71,4,8,-42,-36,-156,330.0,90.0,1500.0
13:14:32.806,GUIDED,-35.3632632,149.165226,27042,0.06207377091050148,0.043814271688461304,-0.2672577500343323,0.07068193703889847,0.003706906223669648,0.008779901079833508,-4,12,-1003,71,4,8,-42,-36,-156,330.0,90.0,1500.0
13:14:33.010,GUIDED,-35.3632661,149.1652254,28151,0.10708457976579666,0.03334609791636467,-0.26145631074905396,0.05665149167180061,-0.030693968757987022,0.009791293181478977,10,5,-998,57,-30,9,-47,31,-153,330.0,90.0,1500.0
13:14:33.213,GUIDED,-35.3632688,149.1652342,29655,0.08209013193845749,-0.08250965178012848,-0.20376960933208466,-0.16215306520462036,-0.20059457421302795,0.1650795191526413,21,-19,-1000,-161,-199,164,1,127,-141,330.0,90.0,1500.0
13:14:33.415,GUIDED,-35.3632658,149.1652439,30753,-0.06164627894759178,-0.06784656643867493,-0.22702676057815552,-0.16583125293254852,0.09857543557882309,-0.12811638414859772,6,-26,-1024,-164,99,-128,77,94,-147,330.0,90.0,1500.0
13:14:33.620,GUIDED,-35.3632658,149.1652439,30753,-0.06164627894759178,-0.06784656643867493,-0.22702676057815552,-0.16583125293254852,0.09857543557882309,-0.12811638414859772,6,-26,-1024,-164,99,-128,77,94,-147,330.0,90.0,1500.0
13:14:33.825,GUIDED,-35.3632658,149.1652439,30753,-0.06164627894759178,-0.06784656643867493,-0.22702676057815552,-0.16583125293254852,0.09857543557882309,-0.12811638414859772,6,-26,-1024,-164,99,-128,77,94,-147,330.0,90.0,1500.0
13:14:34.028,GUIDED,-35.3632658,149.1652439,30753,-0.06164627894759178,-0.06784656643867493,-0.22702676057815552,-0.16583125293254852,0.09857543557882309,-0.12811638414859772,6,-26,-1024,-164,99,-128,77,94,-147,330.0,90.0,1500.0
13:14:34.232,GUIDED,-35.3632658,149.1652439,30753,-0.06164627894759178,-0.06784656643867493,-0.22702676057815552,-0.16583125293254852,0.09857543557882309,-0.12811638414859772,6,-26,-1024,-164,99,-128,77,94,-147,330.0,90.0,1500.0
13:14:34.435,GUIDED,-35.3632658,149.1652439,30753,-0.06164627894759178,-0.06784656643867493,-0.22702676057815552,-0.16583125293254852,0.09857543557882309,-0.12811638414859772,6,-26,-1024,-164,99,-128,77,94,-147,330.0,90.0,1500.0
13:14:34.637,GUIDED,-35.3632658,149.1652439,30753,-0.06164627894759178,-0.06784656643867493,-0.22702676057815552,-0.16583125293254852,0.09857543557882309,-0.12811638414859772,6,-26,-1024,-164,99,-128,77,94,-147,330.0,90.0,1500.0
13:14:34.844,GUIDED,-35.3632658,149.1652439,30753,-0.06164627894759178,-0.06784656643867493,-0.22702676057815552,-0.16583125293254852,0.09857543557882309,-0.12811638414859772,6,-26,-1024,-164,99,-128,77,94,-147,330.0,90.0,1500.0
13:14:35.046,GUIDED,-35.3632658,149.1652439,30753,-0.06164627894759178,-0.06784656643867493,-0.22702676057815552,-0.16583125293254852,0.09857543557882309,-0.12811638414859772,6,-26,-1024,-164,99,-128,77,94,-147,330.0,90.0,1500.0
13:14:35.249,GUIDED,-35.3632658,149.1652439,30753,-0.06164627894759178,-0.06784656643867493,-0.22702676057815552,-0.16583125293254852,0.09857543557882309,-0.12811638414859772,6,-26,-1024,-164,99,-128,77,94,-147,330.0,90.0,1500.0
13:14:35.454,GUIDED,-35.3632658,149.1652439,30753,-0.06164627894759178,-0.06784656643867493,-0.22702676057815552,-0.16583125293254852,0.09857543557882309,-0.12811638414859772,6,-26,-1024,-164,99,-128,77,94,-147,330.0,90.0,1500.0
13:14:35.657,GUIDED,-35.3632658,149.1652439,30753,-0.06164627894759178,-0.06784656643867493,-0.22702676057815552,-0.16583125293254852,0.09857543557882309,-0.12811638414859772,6,-26,-1024,-164,99,-128,77,94,-147,330.0,90.0,1500.0
13:14:35.862,GUIDED,-35.3632658,149.1652439,30753,-0.06164627894759178,-0.06784656643867493,-0.22702676057815552,-0.16583125293254852,0.09857543557882309,-0.12811638414859772,6,-26,-1024,-164,99,-128,77,94,-147,330.0,90.0,1500.0
13:14:36.066,GUIDED,-35.3632588,149.1652473,32294,-0.11600775271654129,0.048303697258234024,-0.3517807424068451,0.07131544500589371,0.16374154388904572,-0.01965515688061714,-10,-19,-1008,11,168,-71,53,-32,-152,330.0,90.0,1500.0
13:14:36.268,GUIDED,-35.3632576,149.1652447,33070,-0.0870528295636177,0.08860848844051361,-0.3631519377231598,0.054094694554805756,0.034104760736227036,-0.013258294202387333,-13,5,-1002,55,35,-13,-3,-64,-151,330.0,90.0,1500.0
13:14:36.471,GUIDED,-35.3632576,149.1652447,33070,-0.0870528295636177,0.08860848844051361,-0.3631519377231598,0.054094694554805756,0.034104760736227036,-0.013258294202387333,-13,5,-1002,55,35,-13,-3,-64,-151,330.0,90.0,1500.0
13:14:36.674,GUIDED,-35.3632576,149.1652447,33070,-0.0870528295636177,0.08860848844051361,-0.3631519377231598,0.054094694554805756,0.034104760736227036,-0.013258294202387333,-13,5,-1002,55,35,-13,-3,-64,-151,330.0,90.0,1500.0
13:14:36.879,GUIDED,-35.3632576,149.1652447,33070,-0.0870528295636177,0.08860848844051361,-0.3631519377231598,0.054094694554805756,0.034104760736227036,-0.013258294202387333,-13,5,-1002,55,35,-13,-3,-64,-151,330.0,90.0,1500.0
13:14:37.081,GUIDED,-35.3632576,149.1652447,33070,-0.0870528295636177,0.08860848844051361,-0.3631519377231598,0.054094694554805756,0.034104760736227036,-0.013258294202387333,-13,5,-1002,55,35,-13,-3,-64,-151,330.0,90.0,1500.0
13:14:37.283,GUIDED,-35.3632576,149.1652447,33070,-0.0870528295636177,0.08860848844051361,-0.3631519377231598,0.054094694554805756,0.034104760736227036,-0.013258294202387333,-13,5,-1002,55,35,-13,-3,-64,-151,330.0,90.0,1500.0
13:14:37.488,GUIDED,-35.3632576,149.1652447,33070,-0.0870528295636177,0.08860848844051361,-0.3631519377231598,0.054094694554805756,0.034104760736227036,-0.013258294202387333,-13,5,-1002,55,35,-13,-3,-64,-151,330.0,90.0,1500.0
13:14:37.691,GUIDED,-35.3632576,149.1652447,33070,-0.0870528295636177,0.08860848844051361,-0.3631519377231598,0.054094694554805756,0.034104760736227036,-0.013258294202387333,-13,5,-1002,55,35,-13,-3,-64,-151,330.0,90.0,1500.0
13:14:37.895,GUIDED,-35.3632576,149.1652447,33070,-0.0870528295636177,0.08860848844051361,-0.3631519377231598,0.054094694554805756,0.034104760736227036,-0.013258294202387333,-13,5,-1002,55,35,-13,-3,-64,-151,330.0,90.0,1500.0
13:14:38.099,GUIDED,-35.3632576,149.1652447,33070,-0.0870528295636177,0.08860848844051361,-0.3631519377231598,0.054094694554805756,0.034104760736227036,-0.013258294202387333,-13,5,-1002,55,35,-13,-3,-64,-151,330.0,90.0,1500.0
13:14:38.303,GUIDED,-35.3632576,149.1652447,33070,-0.0870528295636177,0.08860848844051361,-0.3631519377231598,0.054094694554805756,0.034104760736227036,-0.013258294202387333,-13,5,-1002,55,35,-13,-3,-64,-151,330.0,90.0,1500.0
13:14:38.507,GUIDED,-35.3632576,149.1652447,33070,-0.0870528295636177,0.08860848844051361,-0.3631519377231598,0.054094694554805756,0.034104760736227036,-0.013258294202387333,-13,5,-1002,55,35,-13,-3,-64,-151,330.0,90.0,1500.0
13:14:38.712,GUIDED,-35.3632576,149.1652447,33070,-0.0870528295636177,0.08860848844051361,-0.3631519377231598,0.054094694554805756,0.034104760736227036,-0.013258294202387333,-13,5,-1002,55,35,-13,-3,-64,-151,330.0,90.0,1500.0
13:14:38.916,GUIDED,-35.3632576,149.1652447,33070,-0.0870528295636177,0.08860848844051361,-0.3631519377231598,0.054094694554805756,0.034104760736227036,-0.013258294202387333,-13,5,-1002,55,35,-13,-3,-64,-151,330.0,90.0,1500.0
13:14:39.119,GUIDED,-35.3632685,149.1652343,35326,0.026789098978042603,0.08580736815929413,-0.3601750135421753,0.045742809772491455,-0.08128944039344788,0.052496399730443954,11,30,-1003,46,-80,51,-144,-29,-145,330.0,90.0,1500.0
13:14:39.323,GUIDED,-35.3632814,149.1652349,36843,0.07755577564239502,-0.029434064403176308,-0.2866801619529724,0.06627725064754486,-0.09901387989521027,0.07059860229492188,27,22,-1017,56,-113,84,-125,43,-154,330.0,90.0,1500.0
13:14:39.527,GUIDED,-35.3632859,149.1652382,37638,0.10275383293628693,-0.08125799894332886,-0.2576598823070526,0.01097534317523241,-0.11920077353715897,0.0853150486946106,28,5,-1004,11,-118,85,-72,80,-155,330.0,90.0,1500.0
13:14:39.730,GUIDED,-35.3632859,149.1652382,37638,0.10275383293628693,-0.08125799894332886,-0.2576598823070526,0.01097534317523241,-0.11920077353715897,0.0853150486946106,28,5,-1004,11,-118,85,-72,80,-155,330.0,90.0,1500.0
13:14:39.940,GUIDED,-35.3632859,149.1652382,37638,0.10275383293628693,-0.08125799894332886,-0.2576598823070526,0.01097534317523241,-0.11920077353715897,0.0853150486946106,28,5,-1004,11,-118,85,-72,80,-155,330.0,90.0,1500.0
13:14:40.144,GUIDED,-35.3632859,149.1652382,37638,0.10275383293628693,-0.08125799894332886,-0.2576598823070526,0.01097534317523241,-0.11920077353715897,0.0853150486946106,28,5,-1004,11,-118,85,-72,80,-155,330.0,90.0,1500.0
13:14:40.353,GUIDED,-35.3632859,149.1652382,37638,0.10275383293628693,-0.08125799894332886,-0.2576598823070526,0.01097534317523241,-0.11920077353715897,0.0853150486946106,28,5,-1004,11,-118,85,-72,80,-155,330.0,90.0,1500.0
13:14:40.556,GUIDED,-35.3632859,149.1652382,37638,0.10275383293628693,-0.08125799894332886,-0.2576598823070526,0.01097534317523241,-0.11920077353715897,0.0853150486946106,28,5,-1004,11,-118,85,-72,80,-155,330.0,90.0,1500.0
13:14:40.766,GUIDED,-35.3632859,149.1652382,37638,0.10275383293628693,-0.08125799894332886,-0.2576598823070526,0.01097534317523241,-0.11920077353715897,0.0853150486946106,28,5,-1004,11,-118,85,-72,80,-155,330.0,90.0,1500.0
13:14:40.967,GUIDED,-35.3632859,149.1652382,37638,0.10275383293628693,-0.08125799894332886,-0.2576598823070526,0.01097534317523241,-0.11920077353715897,0.0853150486946106,28,5,-1004,11,-118,85,-72,80,-155,330.0,90.0,1500.0
13:14:41.171,GUIDED,-35.3632859,149.1652382,37638,0.10275383293628693,-0.08125799894332886,-0.2576598823070526,0.01097534317523241,-0.11920077353715897,0.0853150486946106,28,5,-1004,11,-118,85,-72,80,-155,330.0,90.0,1500.0
13:14:41.373,GUIDED,-35.3632859,149.1652382,37638,0.10275383293628693,-0.08125799894332886,-0.2576598823070526,0.01097534317523241,-0.11920077353715897,0.0853150486946106,28,5,-1004,11,-118,85,-72,80,-155,330.0,90.0,1500.0
13:14:41.575,GUIDED,-35.3632859,149.1652382,37638,0.10275383293628693,-0.08125799894332886,-0.2576598823070526,0.01097534317523241,-0.11920077353715897,0.0853150486946106,28,5,-1004,11,-118,85,-72,80,-155,330.0,90.0,1500.0
13:14:41.778,GUIDED,-35.3632859,149.1652382,37638,0.10275383293628693,-0.08125799894332886,-0.2576598823070526,0.01097534317523241,-0.11920077353715897,0.0853150486946106,28,5,-1004,11,-118,85,-72,80,-155,330.0,90.0,1500.0
13:14:41.982,GUIDED,-35.3632859,149.1652382,37638,0.10275383293628693,-0.08125799894332886,-0.2576598823070526,0.01097534317523241,-0.11920077353715897,0.0853150486946106,28,5,-1004,11,-118,85,-72,80,-155,330.0,90.0,1500.0
13:14:42.186,GUIDED,-35.3632859,149.1652382,37638,0.10275383293628693,-0.08125799894332886,-0.2576598823070526,0.01097534317523241,-0.11920077353715897,0.0853150486946106,28,5,-1004,11,-118,85,-72,80,-155,330.0,90.0,1500.0
13:14:42.391,GUIDED,-35.3632846,149.1652495,39209,0.011432213708758354,-0.24161091446876526,-0.11875354498624802,-0.1595924347639084,-0.03745824843645096,0.10194677859544754,-5,-31,-980,-158,-36,101,120,101,-131,330.0,90.0,1500.0
13:14:42.594,GUIDED,-35.3632769,149.1652537,39847,-0.10616324096918106,-0.13245883584022522,-0.20604445040225983,-0.12766781449317932,0.16455671191215515,-0.18330934643745422,-18,-42,-1016,-176,188,-161,212,51,-119,330.0,90.0,1500.0
13:14:42.796,GUIDED,-35.3632609,149.1652529,40800,-0.11980478465557098,-0.055313460528850555,-0.28193771839141846,0.03749280422925949,0.187979593873024,-0.058339156210422516,-40,-34,-1032,38,188,-58,243,-72,-131,330.0,90.0,1500.0
13:14:43.001,GUIDED,-35.3632609,149.1652529,40800,-0.11980478465557098,-0.055313460528850555,-0.28193771839141846,0.03749280422925949,0.187979593873024,-0.058339156210422516,-40,-34,-1032,38,188,-58,243,-72,-131,330.0,90.0,1500.0
13:14:43.204,GUIDED,-35.3632609,149.1652529,40800,-0.11980478465557098,-0.055313460528850555,-0.28193771839141846,0.03749280422925949,0.187979593873024,-0.058339156210422516,-40,-34,-1032,38,188,-58,243,-72,-131,330.0,90.0,1500.0
13:14:43.408,GUIDED,-35.3632609,149.1652529,40800,-0.11980478465557098,-0.055313460528850555,-0.28193771839141846,0.03749280422925949,0.187979593873024,-0.058339156210422516,-40,-34,-1032,38,188,-58,243,-72,-131,330.0,90.0,1500.0
13:14:43.610,GUIDED,-35.3632609,149.1652529,40800,-0.11980478465557098,-0.055313460528850555,-0.28193771839141846,0.03749280422925949,0.187979593873024,-0.058339156210422516,-40,-34,-1032,38,188,-58,243,-72,-131,330.0,90.0,1500.0
13:14:43.813,GUIDED,-35.3632609,149.1652529,40800,-0.11980478465557098,-0.055313460528850555,-0.28193771839141846,0.03749280422925949,0.187979593873024,-0.058339156210422516,-40,-34,-1032,38,188,-58,243,-72,-131,330.0,90.0,1500.0
13:14:44.023,GUIDED,-35.3632609,149.1652529,40800,-0.11980478465557098,-0.055313460528850555,-0.28193771839141846,0.03749280422925949,0.187979593873024,-0.058339156210422516,-40,-34,-1032,38,188,-58,243,-72,-131,330.0,90.0,1500.0
13:14:44.226,GUIDED,-35.3632609,149.1652529,40800,-0.11980478465557098,-0.055313460528850555,-0.28193771839141846,0.03749280422925949,0.187979593873024,-0.058339156210422516,-40,-34,-1032,38,188,-58,243,-72,-131,330.0,90.0,1500.0
13:14:44.430,GUIDED,-35.3632609,149.1652529,40800,-0.11980478465557098,-0.055313460528850555,-0.28193771839141846,0.03749280422925949,0.187979593873024,-0.058339156210422516,-40,-34,-1032,38,188,-58,243,-72,-131,330.0,90.0,1500.0
13:14:44.631,GUIDED,-35.3632609,149.1652529,40800,-0.11980478465557098,-0.055313460528850555,-0.28193771839141846,0.03749280422925949,0.187979593873024,-0.058339156210422516,-40,-34,-1032,38,188,-58,243,-72,-131,330.0,90.0,1500.0
13:14:44.839,GUIDED,-35.3632464,149.1652432,41874,-0.10075444728136063,0.06833264976739883,-0.3235176205635071,0.028869638219475746,0.1539333164691925,-0.027039580047130585,-52,-19,-1035,29,154,-27,171,-153,-152,330.0,90.0,1500.0
13:14:45.044,GUIDED,-35.3632464,149.1652432,41874,-0.10075444728136063,0.06833264976739883,-0.3235176205635071,0.028869638219475746,0.1539333164691925,-0.027039580047130585,-52,-19,-1035,29,154,-27,171,-153,-152,330.0,90.0,1500.0
13:14:45.248,LAND,-35.3632464,149.1652432,41874,-0.10075444728136063,0.06833264976739883,-0.3235176205635071,0.028869638219475746,0.1539333164691925,-0.027039580047130585,-52,-19,-1035,29,154,-27,171,-153,-152,330.0,90.0,1500.0
13:14:45.452,LAND,-35.3632464,149.1652432,41874,-0.10075444728136063,0.06833264976739883,-0.3235176205635071,0.028869638219475746,0.1539333164691925,-0.027039580047130585,-52,-19,-1035,29,154,-27,171,-153,-152,330.0,90.0,1500.0
13:14:45.656,LAND,-35.3632464,149.1652432,41874,-0.10075444728136063,0.06833264976739883,-0.3235176205635071,0.028869638219475746,0.1539333164691925,-0.027039580047130585,-52,-19,-1035,29,154,-27,171,-153,-152,330.0,90.0,1500.0
13:14:45.863,LAND,-35.3632464,149.1652432,41874,-0.10075444728136063,0.06833264976739883,-0.3235176205635071,0.028869638219475746,0.1539333164691925,-0.027039580047130585,-52,-19,-1035,29,154,-27,171,-153,-152,330.0,90.0,1500.0
13:14:46.064,LAND,-35.3632464,149.1652432,41874,-0.10075444728136063,0.06833264976739883,-0.3235176205635071,0.028869638219475746,0.1539333164691925,-0.027039580047130585,-52,-19,-1035,29,154,-27,171,-153,-152,330.0,90.0,1500.0
