time_stamp,MODE,lat,lon,relative_alt,roll,pitch,yaw,rollspeed,pitchspeed,yawspeed,xacc,yacc,zacc,xgyro,ygyro,zgyro,vx,vy,vz,LAND_SPEED_HIGH,WPNAV_SPEED_DN,RTL_ALT
13:02:13.308,GUIDED,-35.3632621,149.1652374,0,-0.0004547218850348145,0.0013666823506355286,0.027850061655044556,0.000208270299481228,0.00033635779982432723,0.0023687821812927723,0,1,-1000,0,0,0,0,0,1,500.0,90.0,1500.0
13:02:13.510,GUIDED,-35.3632621,149.1652374,0,-0.0003336026275064796,0.0016009369865059853,0.027051368728280067,0.00017391779692843556,0.0003842146252281964,0.002375497482717037,0,1,-1000,0,0,0,-1,1,0,500.0,90.0,1500.0
13:02:13.713,GUIDED,-35.3632621,149.1652374,0,-0.000363374623702839,0.0016038251342251897,0.02676151879131794,0.00026981913833878934,0.00036473001819103956,0.00231634802184999,0,1,-1000,0,0,0,-1,1,0,500.0,90.0,1500.0
13:02:13.918,GUIDED,-35.3632621,149.1652374,0,-0.000363374623702839,0.0016038251342251897,0.02676151879131794,0.00026981913833878934,0.00036473001819103956,0.00231634802184999,0,1,-1000,0,0,0,-1,1,0,500.0,90.0,1500.0
13:02:14.120,GUIDED,-35.3632621,149.1652374,0,-0.000363374623702839,0.0016038251342251897,0.02676151879131794,0.00026981913833878934,0.00036473001819103956,0.00231634802184999,0,1,-1000,0,0,0,-1,1,0,500.0,90.0,1500.0
13:02:14.322,GUIDED,-35.3632621,149.1652374,0,-0.000363374623702839,0.0016038251342251897,0.02676151879131794,0.00026981913833878934,0.00036473001819103956,0.00231634802184999,0,1,-1000,0,0,0,-1,1,0,500.0,90.0,1500.0
13:02:14.525,GUIDED,-35.3632621,149.1652374,0,-0.000363374623702839,0.0016038251342251897,0.02676151879131794,0.00026981913833878934,0.00036473001819103956,0.00231634802184999,0,1,-1000,0,0,0,-1,1,0,500.0,90.0,1500.0
13:02:14.730,GUIDED,-35.3632621,149.1652374,0,-0.000363374623702839,0.0016038251342251897,0.02676151879131794,0.00026981913833878934,0.00036473001819103956,0.00231634802184999,0,1,-1000,0,0,0,-1,1,0,500.0,90.0,1500.0
13:02:14.934,GUIDED,-35.3632621,149.1652374,0,-0.000363374623702839,0.0016038251342251897,0.02676151879131794,0.00026981913833878934,0.00036473001819103956,0.00231634802184999,0,1,-1000,0,0,0,-1,1,0,500.0,90.0,1500.0
13:02:15.137,GUIDED,-35.3632621,149.1652374,0,-0.000363374623702839,0.0016038251342251897,0.02676151879131794,0.00026981913833878934,0.00036473001819103956,0.00231634802184999,0,1,-1000,0,0,0,-1,1,0,500.0,90.0,1500.0
13:02:15.341,GUIDED,-35.3632621,149.1652374,0,-0.000363374623702839,0.0016038251342251897,0.02676151879131794,0.00026981913833878934,0.00036473001819103956,0.00231634802184999,0,1,-1000,0,0,0,-1,1,0,500.0,90.0,1500.0
13:02:15.546,GUIDED,-35.3632622,149.1652375,0,-0.0005431116442196071,0.0014394160825759172,0.02611730620265007,0.00028365961043164134,0.0002609040529932827,0.002162025775760412,0,1,-1000,0,0,0,-2,1,0,500.0,90.0,1500.0
13:02:15.749,GUIDED,-35.3632622,149.1652375,9,-0.0007212456548586488,0.0012799941468983889,0.02578224055469036,0.00022816567798145115,0.00027647605747915804,0.0020931423641741276,0,2,-1000,0,1,0,-1,1,0,500.0,90.0,1500.0
13:02:15.951,GUIDED,-35.3632622,149.1652375,10,-0.0007800409803166986,0.0012282741954550147,0.02565116062760353,0.00030453031649813056,0.00018256090697832406,0.002132151974365115,0,1,-1000,0,0,1,-1,1,0,500.0,90.0,1500.0
13:02:16.155,GUIDED,-35.3632622,149.1652375,10,-0.0007800409803166986,0.0012282741954550147,0.02565116062760353,0.00030453031649813056,0.00018256090697832406,0.002132151974365115,0,1,-1000,0,0,1,-1,1,0,500.0,90.0,1500.0
13:02:16.363,GUIDED,-35.3632622,149.1652375,10,-0.0007800409803166986,0.0012282741954550147,0.02565116062760353,0.00030453031649813056,0.00018256090697832406,0.002132151974365115,0,1,-1000,0,0,1,-1,1,0,500.0,90.0,1500.0
13:02:16.568,GUIDED,-35.3632622,149.1652375,10,-0.0007800409803166986,0.0012282741954550147,0.02565116062760353,0.00030453031649813056,0.00018256090697832406,0.002132151974365115,0,1,-1000,0,0,1,-1,1,0,500.0,90.0,1500.0
13:02:16.783,GUIDED,-35.3632622,149.1652375,10,-0.0007800409803166986,0.0012282741954550147,0.02565116062760353,0.00030453031649813056,0.00018256090697832406,0.002132151974365115,0,1,-1000,0,0,1,-1,1,0,500.0,90.0,1500.0
13:02:16.986,GUIDED,-35.3632622,149.1652375,10,-0.0007800409803166986,0.0012282741954550147,0.02565116062760353,0.00030453031649813056,0.00018256090697832406,0.002132151974365115,0,1,-1000,0,0,1,-1,1,0,500.0,90.0,1500.0
13:02:17.187,GUIDED,-35.3632622,149.1652375,10,-0.0007800409803166986,0.0012282741954550147,0.02565116062760353,0.00030453031649813056,0.00018256090697832406,0.002132151974365115,0,1,-1000,0,0,1,-1,1,0,500.0,90.0,1500.0
13:02:17.389,GUIDED,-35.3632622,149.1652375,10,-0.0007800409803166986,0.0012282741954550147,0.02565116062760353,0.00030453031649813056,0.00018256090697832406,0.002132151974365115,0,1,-1000,0,0,1,-1,1,0,500.0,90.0,1500.0
13:02:17.594,GUIDED,-35.3632622,149.1652375,10,-0.0007800409803166986,0.0012282741954550147,0.02565116062760353,0.00030453031649813056,0.00018256090697832406,0.002132151974365115,0,1,-1000,0,0,1,-1,1,0,500.0,90.0,1500.0
13:02:17.796,GUIDED,-35.3632622,149.1652375,10,-0.0007800409803166986,0.0012282741954550147,0.02565116062760353,0.00030453031649813056,0.00018256090697832406,0.002132151974365115,0,1,-1000,0,0,1,-1,1,0,500.0,90.0,1500.0
13:02:18.002,GUIDED,-35.3632621,149.1652374,12,-0.0008098172256723046,0.0012805440928786993,0.02514023706316948,0.0001119595835916698,0.00022828622604720294,0.0021260473877191544,0,1,-1000,0,0,0,0,0,0,500.0,90.0,1500.0
13:02:18.208,GUIDED,-35.3632621,149.1652374,15,-0.0006010817596688867,0.0015281219966709614,0.024702878668904305,0.00026034953771159053,0.0003741876862477511,0.001931140897795558,0,1,-1000,0,0,0,0,0,0,500.0,90.0,1500.0
13:02:18.411,GUIDED,-35.3632621,149.1652374,15,-0.0006010817596688867,0.0015281219966709614,0.024702878668904305,0.00026034953771159053,0.0003741876862477511,0.001931140897795558,0,1,-1000,0,0,0,0,0,0,500.0,90.0,1500.0
13:02:18.614,GUIDED,-35.3632621,149.1652374,15,-0.0006010817596688867,0.0015281219966709614,0.024702878668904305,0.00026034953771159053,0.0003741876862477511,0.001931140897795558,0,1,-1000,0,0,0,0,0,0,500.0,90.0,1500.0
13:02:18.815,GUIDED,-35.3632621,149.1652374,15,-0.0006010817596688867,0.0015281219966709614,0.024702878668904305,0.00026034953771159053,0.0003741876862477511,0.001931140897795558,0,1,-1000,0,0,0,0,0,0,500.0,90.0,1500.0
13:02:19.016,GUIDED,-35.3632621,149.1652374,15,-0.0006010817596688867,0.0015281219966709614,0.024702878668904305,0.00026034953771159053,0.0003741876862477511,0.001931140897795558,0,1,-1000,0,0,0,0,0,0,500.0,90.0,1500.0
13:02:19.223,GUIDED,-35.3632621,149.1652374,15,-0.0006010817596688867,0.0015281219966709614,0.024702878668904305,0.00026034953771159053,0.0003741876862477511,0.001931140897795558,0,1,-1000,0,0,0,0,0,0,500.0,90.0,1500.0
13:02:19.428,GUIDED,-35.3632621,149.1652374,15,-0.0006010817596688867,0.0015281219966709614,0.024702878668904305,0.00026034953771159053,0.0003741876862477511,0.001931140897795558,0,1,-1000,0,0,0,0,0,0,500.0,90.0,1500.0
13:02:19.632,GUIDED,-35.3632621,149.1652374,15,-0.0006010817596688867,0.0015281219966709614,0.024702878668904305,0.00026034953771159053,0.0003741876862477511,0.001931140897795558,0,1,-1000,0,0,0,0,0,0,500.0,90.0,1500.0
13:02:19.836,GUIDED,-35.3632621,149.1652374,15,-0.0006010817596688867,0.0015281219966709614,0.024702878668904305,0.00026034953771159053,0.0003741876862477511,0.001931140897795558,0,1,-1000,0,0,0,0,0,0,500.0,90.0,1500.0
13:02:20.037,GUIDED,-35.3632621,149.1652374,15,-0.0006010817596688867,0.0015281219966709614,0.024702878668904305,0.00026034953771159053,0.0003741876862477511,0.001931140897795558,0,1,-1000,0,0,0,0,0,0,500.0,90.0,1500.0
13:02:20.240,GUIDED,-35.3632621,149.1652374,16,-0.0004172999761067331,0.0017404898535460234,0.024369781836867332,0.00035169540205970407,0.0002574281534180045,0.001904224744066596,0,1,-1000,0,0,1,0,0,0,500.0,90.0,1500.0
13:02:20.445,GUIDED,-35.3632621,149.1652374,19,0.0005013865302316844,0.0014491371111944318,0.023844758048653603,0.014442035928368568,-0.015062619000673294,0.000846666400320828,0,0,-1054,14,-14,0,0,0,-3,500.0,90.0,1500.0
13:02:20.651,GUIDED,-35.3632621,149.1652374,19,0.0005013865302316844,0.0014491371111944318,0.023844758048653603,0.014442035928368568,-0.015062619000673294,0.000846666400320828,0,0,-1054,14,-14,0,0,0,-3,500.0,90.0,1500.0
13:02:20.854,GUIDED,-35.3632621,149.1652374,19,0.0005013865302316844,0.0014491371111944318,0.023844758048653603,0.014442035928368568,-0.015062619000673294,0.000846666400320828,0,0,-1054,14,-14,0,0,0,-3,500.0,90.0,1500.0
13:02:21.059,GUIDED,-35.3632621,149.1652374,19,0.0005013865302316844,0.0014491371111944318,0.023844758048653603,0.014442035928368568,-0.015062619000673294,0.000846666400320828,0,0,-1054,14,-14,0,0,0,-3,500.0,90.0,1500.0
13:02:21.263,GUIDED,-35.3632621,149.1652374,19,0.0005013865302316844,0.0014491371111944318,0.023844758048653603,0.014442035928368568,-0.015062619000673294,0.000846666400320828,0,0,-1054,14,-14,0,0,0,-3,500.0,90.0,1500.0
13:02:21.473,GUIDED,-35.3632621,149.1652374,19,0.0005013865302316844,0.0014491371111944318,0.023844758048653603,0.014442035928368568,-0.015062619000673294,0.000846666400320828,0,0,-1054,14,-14,0,0,0,-3,500.0,90.0,1500.0
13:02:21.677,GUIDED,-35.3632621,149.1652374,19,0.0005013865302316844,0.0014491371111944318,0.023844758048653603,0.014442035928368568,-0.015062619000673294,0.000846666400320828,0,0,-1054,14,-14,0,0,0,-3,500.0,90.0,1500.0
13:02:21.882,GUIDED,-35.3632621,149.1652374,19,0.0005013865302316844,0.0014491371111944318,0.023844758048653603,0.014442035928368568,-0.015062619000673294,0.000846666400320828,0,0,-1054,14,-14,0,0,0,-3,500.0,90.0,1500.0
13:02:22.084,GUIDED,-35.3632621,149.1652374,19,0.0005013865302316844,0.0014491371111944318,0.023844758048653603,0.014442035928368568,-0.015062619000673294,0.000846666400320828,0,0,-1054,14,-14,0,0,0,-3,500.0,90.0,1500.0
13:02:22.287,GUIDED,-35.3632621,149.1652374,19,0.0005013865302316844,0.0014491371111944318,0.023844758048653603,0.014442035928368568,-0.015062619000673294,0.000846666400320828,0,0,-1054,14,-14,0,0,0,-3,500.0,90.0,1500.0
13:02:22.489,GUIDED,-35.3632621,149.1652374,19,0.0005013865302316844,0.0014491371111944318,0.023844758048653603,0.014442035928368568,-0.015062619000673294,0.000846666400320828,0,0,-1054,14,-14,0,0,0,-3,500.0,90.0,1500.0
13:02:22.692,GUIDED,-35.363262,149.1652377,1840,0.035233024507761,-0.002633563242852688,0.023783734068274498,0.044802483171224594,-0.008162681944668293,0.0033813007175922394,0,0,-1016,47,-6,1,1,12,-148,500.0,90.0,1500.0
13:02:22.893,GUIDED,-35.3632613,149.1652412,3379,0.03880719095468521,0.015034635551273823,-0.03146599233150482,-0.1505214124917984,0.09358789771795273,-0.10189753025770187,3,-11,-991,-149,94,-102,9,54,-146,500.0,90.0,1500.0
13:02:23.103,GUIDED,-35.3632613,149.1652412,3379,0.03880719095468521,0.015034635551273823,-0.03146599233150482,-0.1505214124917984,0.09358789771795273,-0.10189753025770187,3,-11,-991,-149,94,-102,9,54,-146,500.0,90.0,1500.0
13:02:23.306,GUIDED,-35.3632613,149.1652412,3379,0.03880719095468521,0.015034635551273823,-0.03146599233150482,-0.1505214124917984,0.09358789771795273,-0.10189753025770187,3,-11,-991,-149,94,-102,9,54,-146,500.0,90.0,1500.0
13:02:23.508,GUIDED,-35.3632613,149.1652412,3379,0.03880719095468521,0.015034635551273823,-0.03146599233150482,-0.1505214124917984,0.09358789771795273,-0.10189753025770187,3,-11,-991,-149,94,-102,9,54,-146,500.0,90.0,1500.0
13:02:23.711,GUIDED,-35.3632613,149.1652412,3379,0.03880719095468521,0.015034635551273823,-0.03146599233150482,-0.1505214124917984,0.09358789771795273,-0.10189753025770187,3,-11,-991,-149,94,-102,9,54,-146,500.0,90.0,1500.0
13:02:23.918,GUIDED,-35.3632613,149.1652412,3379,0.03880719095468521,0.015034635551273823,-0.03146599233150482,-0.1505214124917984,0.09358789771795273,-0.10189753025770187,3,-11,-991,-149,94,-102,9,54,-146,500.0,90.0,1500.0
13:02:24.126,GUIDED,-35.3632613,149.1652412,3379,0.03880719095468521,0.015034635551273823,-0.03146599233150482,-0.1505214124917984,0.09358789771795273,-0.10189753025770187,3,-11,-991,-149,94,-102,9,54,-146,500.0,90.0,1500.0
13:02:24.328,GUIDED,-35.363261,149.1652445,4286,-0.02843538112938404,0.032947368919849396,-0.08550672978162766,-0.02950979396700859,0.015423627570271492,-0.09174568951129913,3,-11,-991,-149,94,-102,-1,44,-149,500.0,90.0,1500.0
13:02:24.532,GUIDED,-35.3632614,149.1652468,5449,-0.0602121539413929,-0.005079282447695732,-0.0965939536690712,-0.06079456955194473,-0.1031380370259285,0.05596664920449257,5,-2,-1001,-60,-102,55,-14,9,-149,500.0,90.0,1500.0
13:02:24.738,GUIDED,-35.3632614,149.1652468,5449,-0.0602121539413929,-0.005079282447695732,-0.0965939536690712,-0.06079456955194473,-0.1031380370259285,0.05596664920449257,5,-2,-1001,-60,-102,55,-14,9,-149,500.0,90.0,1500.0
13:02:24.943,GUIDED,-35.3632614,149.1652468,5449,-0.0602121539413929,-0.005079282447695732,-0.0965939536690712,-0.06079456955194473,-0.1031380370259285,0.05596664920449257,5,-2,-1001,-60,-102,55,-14,9,-149,500.0,90.0,1500.0
13:02:25.146,GUIDED,-35.3632614,149.1652468,5449,-0.0602121539413929,-0.005079282447695732,-0.0965939536690712,-0.06079456955194473,-0.1031380370259285,0.05596664920449257,5,-2,-1001,-60,-102,55,-14,9,-149,500.0,90.0,1500.0
13:02:25.357,GUIDED,-35.3632614,149.1652468,5449,-0.0602121539413929,-0.005079282447695732,-0.0965939536690712,-0.06079456955194473,-0.1031380370259285,0.05596664920449257,5,-2,-1001,-60,-102,55,-14,9,-149,500.0,90.0,1500.0
13:02:25.562,GUIDED,-35.3632614,149.1652468,5449,-0.0602121539413929,-0.005079282447695732,-0.0965939536690712,-0.06079456955194473,-0.1031380370259285,0.05596664920449257,5,-2,-1001,-60,-102,55,-14,9,-149,500.0,90.0,1500.0
13:02:25.763,GUIDED,-35.3632614,149.1652468,5449,-0.0602121539413929,-0.005079282447695732,-0.0965939536690712,-0.06079456955194473,-0.1031380370259285,0.05596664920449257,5,-2,-1001,-60,-102,55,-14,9,-149,500.0,90.0,1500.0
13:02:25.969,GUIDED,-35.3632614,149.1652468,5449,-0.0602121539413929,-0.005079282447695732,-0.0965939536690712,-0.06079456955194473,-0.1031380370259285,0.05596664920449257,5,-2,-1001,-60,-102,55,-14,9,-149,500.0,90.0,1500.0
13:02:26.171,GUIDED,-35.363262,149.165244,7061,-0.041741177439689636,-0.024942073971033096,-0.07251227647066116,0.06069168448448181,0.009800571016967297,0.010220225900411606,-4,6,-1001,54,7,10,6,-54,-149,500.0,90.0,1500.0
13:02:26.377,GUIDED,-35.363261,149.1652372,8609,0.02158852480351925,-0.005290181841701269,-0.06721018999814987,0.06369838118553162,0.0236092247068882,0.006251601967960596,-9,11,-1004,64,24,5,13,-57,-152,500.0,90.0,1500.0
13:02:26.579,GUIDED,-35.363261,149.1652372,8609,0.02158852480351925,-0.005290181841701269,-0.06721018999814987,0.06369838118553162,0.0236092247068882,0.006251601967960596,-9,11,-1004,64,24,5,13,-57,-152,500.0,90.0,1500.0
13:02:26.788,GUIDED,-35.363261,149.1652372,8609,0.02158852480351925,-0.005290181841701269,-0.06721018999814987,0.06369838118553162,0.0236092247068882,0.006251601967960596,-9,11,-1004,64,24,5,13,-57,-152,500.0,90.0,1500.0
13:02:26.990,GUIDED,-35.363261,149.1652372,8609,0.02158852480351925,-0.005290181841701269,-0.06721018999814987,0.06369838118553162,0.0236092247068882,0.006251601967960596,-9,11,-1004,64,24,5,13,-57,-152,500.0,90.0,1500.0
13:02:27.196,GUIDED,-35.363261,149.1652372,8609,0.02158852480351925,-0.005290181841701269,-0.06721018999814987,0.06369838118553162,0.0236092247068882,0.006251601967960596,-9,11,-1004,64,24,5,13,-57,-152,500.0,90.0,1500.0
13:02:27.400,GUIDED,-35.363261,149.1652372,8609,0.02158852480351925,-0.005290181841701269,-0.06721018999814987,0.06369838118553162,0.0236092247068882,0.006251601967960596,-9,11,-1004,64,24,5,13,-57,-152,500.0,90.0,1500.0
13:02:27.604,GUIDED,-35.363261,149.1652372,8609,0.02158852480351925,-0.005290181841701269,-0.06721018999814987,0.06369838118553162,0.0236092247068882,0.006251601967960596,-9,11,-1004,64,24,5,13,-57,-152,500.0,90.0,1500.0
13:02:27.807,GUIDED,-35.363261,149.1652372,8609,0.02158852480351925,-0.005290181841701269,-0.06721018999814987,0.06369838118553162,0.0236092247068882,0.006251601967960596,-9,11,-1004,64,24,5,13,-57,-152,500.0,90.0,1500.0
13:02:28.013,GUIDED,-35.3632603,149.165233,10341,0.059984806925058365,0.04016675055027008,-0.09645724296569824,0.019225940108299255,0.0390242300927639,-0.055052489042282104,-5,4,-1000,25,44,-42,-4,-3,-153,500.0,90.0,1500.0
13:02:28.223,GUIDED,-35.3632613,149.1652343,11501,0.029671892523765564,0.02442522905766964,-0.11071188002824783,-0.10000818222761154,-0.08391622453927994,0.03471985459327698,8,-4,-998,-99,-83,33,-27,36,-148,500.0,90.0,1500.0
13:02:28.427,GUIDED,-35.3632613,149.1652343,11501,0.029671892523765564,0.02442522905766964,-0.11071188002824783,-0.10000818222761154,-0.08391622453927994,0.03471985459327698,8,-4,-998,-99,-83,33,-27,36,-148,500.0,90.0,1500.0
13:02:28.638,GUIDED,-35.3632613,149.1652343,11501,0.029671892523765564,0.02442522905766964,-0.11071188002824783,-0.10000818222761154,-0.08391622453927994,0.03471985459327698,8,-4,-998,-99,-83,33,-27,36,-148,500.0,90.0,1500.0
13:02:28.843,GUIDED,-35.3632613,149.1652343,11501,0.029671892523765564,0.02442522905766964,-0.11071188002824783,-0.10000818222761154,-0.08391622453927994,0.03471985459327698,8,-4,-998,-99,-83,33,-27,36,-148,500.0,90.0,1500.0
13:02:29.046,GUIDED,-35.3632613,149.1652343,11501,0.029671892523765564,0.02442522905766964,-0.11071188002824783,-0.10000818222761154,-0.08391622453927994,0.03471985459327698,8,-4,-998,-99,-83,33,-27,36,-148,500.0,90.0,1500.0
13:02:29.248,GUIDED,-35.3632613,149.1652343,11501,0.029671892523765564,0.02442522905766964,-0.11071188002824783,-0.10000818222761154,-0.08391622453927994,0.03471985459327698,8,-4,-998,-99,-83,33,-27,36,-148,500.0,90.0,1500.0
13:02:29.450,GUIDED,-35.3632613,149.1652343,11501,0.029671892523765564,0.02442522905766964,-0.11071188002824783,-0.10000818222761154,-0.08391622453927994,0.03471985459327698,8,-4,-998,-99,-83,33,-27,36,-148,500.0,90.0,1500.0
13:02:29.654,GUIDED,-35.3632635,149.1652384,13665,-0.027884023264050484,-0.020521553233265877,-0.10243318229913712,0.012843199074268341,0.002933993935585022,-0.025861434638500214,2,-1,-1001,13,3,-26,-3,7,-153,500.0,90.0,1500.0
13:02:29.857,GUIDED,-35.3632636,149.1652385,14065,-0.02311384491622448,-0.018645044416189194,-0.10997337102890015,0.021916156634688377,0.00964193046092987,-0.02899438515305519,0,0,-1000,22,10,-29,1,0,-153,500.0,90.0,1500.0
13:02:30.062,GUIDED,-35.3632636,149.1652385,14065,-0.02311384491622448,-0.018645044416189194,-0.10997337102890015,0.021916156634688377,0.00964193046092987,-0.02899438515305519,0,0,-1000,22,10,-29,1,0,-153,500.0,90.0,1500.0
13:02:30.266,GUIDED,-35.3632636,149.1652385,14065,-0.02311384491622448,-0.018645044416189194,-0.10997337102890015,0.021916156634688377,0.00964193046092987,-0.02899438515305519,0,0,-1000,22,10,-29,1,0,-153,500.0,90.0,1500.0
13:02:30.467,GUIDED,-35.3632636,149.1652385,14065,-0.02311384491622448,-0.018645044416189194,-0.10997337102890015,0.021916156634688377,0.00964193046092987,-0.02899438515305519,0,0,-1000,22,10,-29,1,0,-153,500.0,90.0,1500.0
13:02:30.673,GUIDED,-35.3632636,149.1652385,14065,-0.02311384491622448,-0.018645044416189194,-0.10997337102890015,0.021916156634688377,0.00964193046092987,-0.02899438515305519,0,0,-1000,22,10,-29,1,0,-153,500.0,90.0,1500.0
13:02:30.877,GUIDED,-35.3632636,149.1652385,14065,-0.02311384491622448,-0.018645044416189194,-0.10997337102890015,0.021916156634688377,0.00964193046092987,-0.02899438515305519,0,0,-1000,22,10,-29,1,0,-153,500.0,90.0,1500.0
13:02:31.084,GUIDED,-35.3632636,149.1652385,14065,-0.02311384491622448,-0.018645044416189194,-0.10997337102890015,0.021916156634688377,0.00964193046092987,-0.02899438515305519,0,0,-1000,22,10,-29,1,0,-153,500.0,90.0,1500.0
13:02:31.287,GUIDED,-35.3632623,149.1652362,16732,0.011573360301554203,0.006018433719873428,-0.15998731553554535,0.01048724353313446,0.010920070111751556,-0.019889740273356438,-4,0,-1000,10,11,-20,9,-10,-153,500.0,90.0,1500.0
13:02:31.489,GUIDED,-35.3632623,149.1652362,16732,0.011573360301554203,0.006018433719873428,-0.15998731553554535,0.01048724353313446,0.010920070111751556,-0.019889740273356438,-4,0,-1000,10,11,-20,9,-10,-153,500.0,90.0,1500.0
13:02:31.694,GUIDED,-35.3632623,149.1652362,16732,0.011573360301554203,0.006018433719873428,-0.15998731553554535,0.01048724353313446,0.010920070111751556,-0.019889740273356438,-4,0,-1000,10,11,-20,9,-10,-153,500.0,90.0,1500.0
13:02:31.900,GUIDED,-35.3632623,149.1652362,16732,0.011573360301554203,0.006018433719873428,-0.15998731553554535,0.01048724353313446,0.010920070111751556,-0.019889740273356438,-4,0,-1000,10,11,-20,9,-10,-153,500.0,90.0,1500.0
13:02:32.103,GUIDED,-35.3632623,149.1652362,16732,0.011573360301554203,0.006018433719873428,-0.15998731553554535,0.01048724353313446,0.010920070111751556,-0.019889740273356438,-4,0,-1000,10,11,-20,9,-10,-153,500.0,90.0,1500.0
13:02:32.306,GUIDED,-35.3632623,149.1652362,16732,0.011573360301554203,0.006018433719873428,-0.15998731553554535,0.01048724353313446,0.010920070111751556,-0.019889740273356438,-4,0,-1000,10,11,-20,9,-10,-153,500.0,90.0,1500.0
13:02:32.508,GUIDED,-35.3632623,149.1652362,16732,0.011573360301554203,0.006018433719873428,-0.15998731553554535,0.01048724353313446,0.010920070111751556,-0.019889740273356438,-4,0,-1000,10,11,-20,9,-10,-153,500.0,90.0,1500.0
13:02:32.715,GUIDED,-35.3632623,149.1652362,16732,0.011573360301554203,0.006018433719873428,-0.15998731553554535,0.01048724353313446,0.010920070111751556,-0.019889740273356438,-4,0,-1000,10,11,-20,9,-10,-153,500.0,90.0,1500.0
13:02:32.925,GUIDED,-35.3632614,149.1652355,19229,0.008266394026577473,0.008941488340497017,-0.17883455753326416,-0.006274351384490728,-0.003524486441165209,-0.006825665943324566,0,0,-1000,-5,-3,-7,-1,5,-153,500.0,90.0,1500.0
13:02:33.128,GUIDED,-35.3632614,149.1652355,19618,0.0069217015989124775,0.007916667498648167,-0.18105565011501312,-0.0026155919767916203,-0.0030082091689109802,-0.009435788728296757,0,0,-1000,-1,-2,-10,-2,6,-153,500.0,90.0,1500.0
13:02:33.330,GUIDED,-35.3632614,149.1652355,19618,0.0069217015989124775,0.007916667498648167,-0.18105565011501312,-0.0026155919767916203,-0.0030082091689109802,-0.009435788728296757,0,0,-1000,-1,-2,-10,-2,6,-153,500.0,90.0,1500.0
13:02:33.534,GUIDED,-35.3632614,149.1652355,19618,0.0069217015989124775,0.007916667498648167,-0.18105565011501312,-0.0026155919767916203,-0.0030082091689109802,-0.009435788728296757,0,0,-1000,-1,-2,-10,-2,6,-153,500.0,90.0,1500.0
13:02:33.736,GUIDED,-35.3632614,149.1652355,19618,0.0069217015989124775,0.007916667498648167,-0.18105565011501312,-0.0026155919767916203,-0.0030082091689109802,-0.009435788728296757,0,0,-1000,-1,-2,-10,-2,6,-153,500.0,90.0,1500.0
13:02:33.944,GUIDED,-35.3632614,149.1652355,19618,0.0069217015989124775,0.007916667498648167,-0.18105565011501312,-0.0026155919767916203,-0.0030082091689109802,-0.009435788728296757,0,0,-1000,-1,-2,-10,-2,6,-153,500.0,90.0,1500.0
13:02:34.150,GUIDED,-35.3632614,149.1652355,19618,0.0069217015989124775,0.007916667498648167,-0.18105565011501312,-0.0026155919767916203,-0.0030082091689109802,-0.009435788728296757,0,0,-1000,-1,-2,-10,-2,6,-153,500.0,90.0,1500.0
13:02:34.360,GUIDED,-35.3632614,149.1652355,19618,0.0069217015989124775,0.007916667498648167,-0.18105565011501312,-0.0026155919767916203,-0.0030082091689109802,-0.009435788728296757,0,0,-1000,-1,-2,-10,-2,6,-153,500.0,90.0,1500.0
13:02:34.562,GUIDED,-35.3632614,149.1652359,20791,0.0026878826320171356,0.004944234620779753,-0.18922366201877594,-0.0028256233781576157,-0.0038468085695058107,-0.010651202872395515,0,0,-1000,-1,-2,-10,-3,7,-153,500.0,90.0,1500.0
13:02:34.767,GUIDED,-35.3632615,149.1652363,21968,0.00039817809010855854,0.0033072426449507475,-0.20089758932590485,-0.00041244839667342603,0.0003003557794727385,-0.01845344714820385,0,0,-1000,0,0,-19,-3,6,-153,500.0,90.0,1500.0
13:02:34.969,GUIDED,-35.3632615,149.1652364,22358,3.3506687032058835e-05,0.0031714264769107103,-0.20548608899116516,-0.0009974049171432853,-0.0016284787561744452,-0.017048437148332596,0,0,-1000,0,0,-17,-3,5,-153,500.0,90.0,1500.0
13:02:35.172,GUIDED,-35.3632616,149.1652364,22750,0.0001898510818136856,0.002829886507242918,-0.21016809344291687,0.0022449640091508627,-0.0009834023658186197,-0.01882426254451275,0,0,-1000,3,0,-19,-3,4,-153,500.0,90.0,1500.0
13:02:35.374,GUIDED,-35.3632616,149.1652364,22750,0.0001898510818136856,0.002829886507242918,-0.21016809344291687,0.0022449640091508627,-0.0009834023658186197,-0.01882426254451275,0,0,-1000,3,0,-19,-3,4,-153,500.0,90.0,1500.0
13:02:35.575,GUIDED,-35.3632616,149.1652364,22750,0.0001898510818136856,0.002829886507242918,-0.21016809344291687,0.0022449640091508627,-0.0009834023658186197,-0.01882426254451275,0,0,-1000,3,0,-19,-3,4,-153,500.0,90.0,1500.0
13:02:35.777,GUIDED,-35.3632616,149.1652364,22750,0.0001898510818136856,0.002829886507242918,-0.21016809344291687,0.0022449640091508627,-0.0009834023658186197,-0.01882426254451275,0,0,-1000,3,0,-19,-3,4,-153,500.0,90.0,1500.0
13:02:35.981,GUIDED,-35.3632616,149.1652364,22750,0.0001898510818136856,0.002829886507242918,-0.21016809344291687,0.0022449640091508627,-0.0009834023658186197,-0.01882426254451275,0,0,-1000,3,0,-19,-3,4,-153,500.0,90.0,1500.0
13:02:36.183,GUIDED,-35.3632616,149.1652364,22750,0.0001898510818136856,0.002829886507242918,-0.21016809344291687,0.0022449640091508627,-0.0009834023658186197,-0.01882426254451275,0,0,-1000,3,0,-19,-3,4,-153,500.0,90.0,1500.0
13:02:36.386,GUIDED,-35.3632616,149.1652364,22750,0.0001898510818136856,0.002829886507242918,-0.21016809344291687,0.0022449640091508627,-0.0009834023658186197,-0.01882426254451275,0,0,-1000,3,0,-19,-3,4,-153,500.0,90.0,1500.0
13:02:36.600,GUIDED,-35.3632616,149.1652364,22750,0.0001898510818136856,0.002829886507242918,-0.21016809344291687,0.0022449640091508627,-0.0009834023658186197,-0.01882426254451275,0,0,-1000,3,0,-19,-3,4,-153,500.0,90.0,1500.0
13:02:36.805,GUIDED,-35.3632616,149.1652364,22750,0.0001898510818136856,0.002829886507242918,-0.21016809344291687,0.0022449640091508627,-0.0009834023658186197,-0.01882426254451275,0,0,-1000,3,0,-19,-3,4,-153,500.0,90.0,1500.0
13:02:37.011,GUIDED,-35.3632617,149.1652366,24310,0.0013623086269944906,0.0024267062544822693,-0.22993203997612,-0.0010440240148454905,-0.002048054477199912,-0.021669870242476463,0,0,-1000,0,-1,-22,-3,3,-153,500.0,90.0,1500.0
13:02:37.220,GUIDED,-35.3632618,149.1652367,25876,-0.009844803251326084,0.0024495068937540054,-0.24943289160728455,0.04224956035614014,0.004574943799525499,-0.01347305066883564,0,1,-1002,43,5,-14,-4,-3,-154,500.0,90.0,1500.0
13:02:37.423,GUIDED,-35.3632618,149.1652367,25876,-0.009844803251326084,0.0024495068937540054,-0.24943289160728455,0.04224956035614014,0.004574943799525499,-0.01347305066883564,0,1,-1002,43,5,-14,-4,-3,-154,500.0,90.0,1500.0
13:02:37.632,GUIDED,-35.3632618,149.1652367,25876,-0.009844803251326084,0.0024495068937540054,-0.24943289160728455,0.04224956035614014,0.004574943799525499,-0.01347305066883564,0,1,-1002,43,5,-14,-4,-3,-154,500.0,90.0,1500.0
13:02:37.834,GUIDED,-35.3632618,149.1652367,25876,-0.009844803251326084,0.0024495068937540054,-0.24943289160728455,0.04224956035614014,0.004574943799525499,-0.01347305066883564,0,1,-1002,43,5,-14,-4,-3,-154,500.0,90.0,1500.0
13:02:38.037,GUIDED,-35.3632618,149.1652367,25876,-0.009844803251326084,0.0024495068937540054,-0.24943289160728455,0.04224956035614014,0.004574943799525499,-0.01347305066883564,0,1,-1002,43,5,-14,-4,-3,-154,500.0,90.0,1500.0
13:02:38.241,GUIDED,-35.3632618,149.1652367,25876,-0.009844803251326084,0.0024495068937540054,-0.24943289160728455,0.04224956035614014,0.004574943799525499,-0.01347305066883564,0,1,-1002,43,5,-14,-4,-3,-154,500.0,90.0,1500.0
13:02:38.451,GUIDED,-35.3632618,149.1652367,25876,-0.009844803251326084,0.0024495068937540054,-0.24943289160728455,0.04224956035614014,0.004574943799525499,-0.01347305066883564,0,1,-1002,43,5,-14,-4,-3,-154,500.0,90.0,1500.0
13:02:38.654,GUIDED,-35.3632618,149.1652367,25876,-0.009844803251326084,0.0024495068937540054,-0.24943289160728455,0.04224956035614014,0.004574943799525499,-0.01347305066883564,0,1,-1002,43,5,-14,-4,-3,-154,500.0,90.0,1500.0
13:02:38.857,GUIDED,-35.3632618,149.1652367,25876,-0.009844803251326084,0.0024495068937540054,-0.24943289160728455,0.04224956035614014,0.004574943799525499,-0.01347305066883564,0,1,-1002,43,5,-14,-4,-3,-154,500.0,90.0,1500.0
13:02:39.059,GUIDED,-35.3632622,149.1652365,28618,0.008701950311660767,0.002051721327006817,-0.22082097828388214,-0.011021328158676624,-0.0003813770308624953,0.025397397577762604,1,0,-1000,-10,0,25,-2,9,-153,500.0,90.0,1500.0
13:02:39.261,GUIDED,-35.3632623,149.1652367,29006,0.00597476726397872,0.001965815434232354,-0.21501706540584564,-0.009222705848515034,0.0008017588988877833,0.022554762661457062,1,-1,-1000,-8,1,22,-1,10,-153,500.0,90.0,1500.0
13:02:39.462,GUIDED,-35.3632623,149.1652367,29006,0.00597476726397872,0.001965815434232354,-0.21501706540584564,-0.009222705848515034,0.0008017588988877833,0.022554762661457062,1,-1,-1000,-8,1,22,-1,10,-153,500.0,90.0,1500.0
13:02:39.672,GUIDED,-35.3632623,149.1652367,29006,0.00597476726397872,0.001965815434232354,-0.21501706540584564,-0.009222705848515034,0.0008017588988877833,0.022554762661457062,1,-1,-1000,-8,1,22,-1,10,-153,500.0,90.0,1500.0
13:02:39.874,GUIDED,-35.3632623,149.1652367,29006,0.00597476726397872,0.001965815434232354,-0.21501706540584564,-0.009222705848515034,0.0008017588988877833,0.022554762661457062,1,-1,-1000,-8,1,22,-1,10,-153,500.0,90.0,1500.0
13:02:40.080,GUIDED,-35.3632623,149.1652367,29006,0.00597476726397872,0.001965815434232354,-0.21501706540584564,-0.009222705848515034,0.0008017588988877833,0.022554762661457062,1,-1,-1000,-8,1,22,-1,10,-153,500.0,90.0,1500.0
13:02:40.284,GUIDED,-35.3632623,149.1652367,29006,0.00597476726397872,0.001965815434232354,-0.21501706540584564,-0.009222705848515034,0.0008017588988877833,0.022554762661457062,1,-1,-1000,-8,1,22,-1,10,-153,500.0,90.0,1500.0
13:02:40.485,GUIDED,-35.3632623,149.1652367,29006,0.00597476726397872,0.001965815434232354,-0.21501706540584564,-0.009222705848515034,0.0008017588988877833,0.022554762661457062,1,-1,-1000,-8,1,22,-1,10,-153,500.0,90.0,1500.0
13:02:40.691,GUIDED,-35.3632623,149.1652373,30015,0.0009178306791000068,0.002225811593234539,-0.20105020701885223,-0.004410627763718367,0.0012461221776902676,0.022392429411411285,1,-1,-1000,-3,2,21,0,9,-153,500.0,90.0,1500.0
13:02:40.894,GUIDED,-35.3632622,149.1652379,31577,-0.0020511795300990343,0.0016420887550339103,-0.18199647963047028,0.0024204242508858442,-0.0002644705818966031,0.020302699878811836,0,-1,-1000,3,0,19,0,5,-153,500.0,90.0,1500.0
13:02:41.097,GUIDED,-35.3632622,149.165238,31967,-0.0017223131144419312,0.0014943877467885613,-0.17724277079105377,-0.0001145658316090703,-0.0012508078943938017,0.019397692754864693,0,0,-1000,0,0,18,0,4,-153,500.0,90.0,1500.0
13:02:41.299,GUIDED,-35.3632622,149.165238,31967,-0.0017223131144419312,0.0014943877467885613,-0.17724277079105377,-0.0001145658316090703,-0.0012508078943938017,0.019397692754864693,0,0,-1000,0,0,18,0,4,-153,500.0,90.0,1500.0
13:02:41.504,GUIDED,-35.3632622,149.165238,31967,-0.0017223131144419312,0.0014943877467885613,-0.17724277079105377,-0.0001145658316090703,-0.0012508078943938017,0.019397692754864693,0,0,-1000,0,0,18,0,4,-153,500.0,90.0,1500.0
13:02:41.708,GUIDED,-35.3632622,149.165238,31967,-0.0017223131144419312,0.0014943877467885613,-0.17724277079105377,-0.0001145658316090703,-0.0012508078943938017,0.019397692754864693,0,0,-1000,0,0,18,0,4,-153,500.0,90.0,1500.0
13:02:41.911,GUIDED,-35.3632622,149.165238,31967,-0.0017223131144419312,0.0014943877467885613,-0.17724277079105377,-0.0001145658316090703,-0.0012508078943938017,0.019397692754864693,0,0,-1000,0,0,18,0,4,-153,500.0,90.0,1500.0
13:02:42.116,GUIDED,-35.3632622,149.165238,31967,-0.0017223131144419312,0.0014943877467885613,-0.17724277079105377,-0.0001145658316090703,-0.0012508078943938017,0.019397692754864693,0,0,-1000,0,0,18,0,4,-153,500.0,90.0,1500.0
13:02:42.322,GUIDED,-35.3632622,149.165238,31967,-0.0017223131144419312,0.0014943877467885613,-0.17724277079105377,-0.0001145658316090703,-0.0012508078943938017,0.019397692754864693,0,0,-1000,0,0,18,0,4,-153,500.0,90.0,1500.0
13:02:42.527,GUIDED,-35.3632622,149.165238,31967,-0.0017223131144419312,0.0014943877467885613,-0.17724277079105377,-0.0001145658316090703,-0.0012508078943938017,0.019397692754864693,0,0,-1000,0,0,18,0,4,-153,500.0,90.0,1500.0
13:02:42.730,GUIDED,-35.3632622,149.165238,31967,-0.0017223131144419312,0.0014943877467885613,-0.17724277079105377,-0.0001145658316090703,-0.0012508078943938017,0.019397692754864693,0,0,-1000,0,0,18,0,4,-153,500.0,90.0,1500.0
13:02:42.934,GUIDED,-35.3632622,149.165238,31967,-0.0017223131144419312,0.0014943877467885613,-0.17724277079105377,-0.0001145658316090703,-0.0012508078943938017,0.019397692754864693,0,0,-1000,0,0,18,0,4,-153,500.0,90.0,1500.0
13:02:43.136,GUIDED,-35.3632622,149.165238,31967,-0.0017223131144419312,0.0014943877467885613,-0.17724277079105377,-0.0001145658316090703,-0.0012508078943938017,0.019397692754864693,0,0,-1000,0,0,18,0,4,-153,500.0,90.0,1500.0
13:02:43.341,GUIDED,-35.3632622,149.1652381,33133,-0.000654034607578069,0.0013194524217396975,-0.16583801805973053,0.0013980797957628965,0.0009322978439740837,0.01574122905731201,0,0,-999,2,1,15,0,1,-153,500.0,90.0,1500.0
13:02:43.544,GUIDED,-35.3632622,149.165238,35087,0.0012461633887141943,0.0009915673872455955,-0.14832639694213867,0.0034331148490309715,0.001499741803854704,0.014388653449714184,0,0,-1000,4,2,13,0,0,-153,500.0,90.0,1500.0
13:02:43.748,GUIDED,-35.3632622,149.1652379,35866,0.0011235792189836502,0.0008831972954794765,-0.14211858808994293,-0.0009203945519402623,-0.0013918011682108045,0.014259986579418182,0,0,-1000,0,0,14,0,0,-153,500.0,90.0,1500.0
13:02:43.952,GUIDED,-35.3632622,149.1652379,35866,0.0011235792189836502,0.0008831972954794765,-0.14211858808994293,-0.0009203945519402623,-0.0013918011682108045,0.014259986579418182,0,0,-1000,0,0,14,0,0,-153,500.0,90.0,1500.0
13:02:44.154,GUIDED,-35.3632622,149.1652379,35866,0.0011235792189836502,0.0008831972954794765,-0.14211858808994293,-0.0009203945519402623,-0.0013918011682108045,0.014259986579418182,0,0,-1000,0,0,14,0,0,-153,500.0,90.0,1500.0
13:02:44.357,GUIDED,-35.3632622,149.1652379,35866,0.0011235792189836502,0.0008831972954794765,-0.14211858808994293,-0.0009203945519402623,-0.0013918011682108045,0.014259986579418182,0,0,-1000,0,0,14,0,0,-153,500.0,90.0,1500.0
13:02:44.565,GUIDED,-35.3632622,149.1652379,35866,0.0011235792189836502,0.0008831972954794765,-0.14211858808994293,-0.0009203945519402623,-0.0013918011682108045,0.014259986579418182,0,0,-1000,0,0,14,0,0,-153,500.0,90.0,1500.0
13:02:44.769,GUIDED,-35.3632622,149.1652379,35866,0.0011235792189836502,0.0008831972954794765,-0.14211858808994293,-0.0009203945519402623,-0.0013918011682108045,0.014259986579418182,0,0,-1000,0,0,14,0,0,-153,500.0,90.0,1500.0
13:02:44.970,GUIDED,-35.3632622,149.1652379,35866,0.0011235792189836502,0.0008831972954794765,-0.14211858808994293,-0.0009203945519402623,-0.0013918011682108045,0.014259986579418182,0,0,-1000,0,0,14,0,0,-153,500.0,90.0,1500.0
13:02:45.175,GUIDED,-35.3632622,149.1652379,35866,0.0011235792189836502,0.0008831972954794765,-0.14211858808994293,-0.0009203945519402623,-0.0013918011682108045,0.014259986579418182,0,0,-1000,0,0,14,0,0,-153,500.0,90.0,1500.0
13:02:45.385,GUIDED,-35.3632622,149.1652379,35866,0.0011235792189836502,0.0008831972954794765,-0.14211858808994293,-0.0009203945519402623,-0.0013918011682108045,0.014259986579418182,0,0,-1000,0,0,14,0,0,-153,500.0,90.0,1500.0
13:02:45.596,GUIDED,-35.3632622,149.1652379,35866,0.0011235792189836502,0.0008831972954794765,-0.14211858808994293,-0.0009203945519402623,-0.0013918011682108045,0.014259986579418182,0,0,-1000,0,0,14,0,0,-153,500.0,90.0,1500.0
13:02:45.801,GUIDED,-35.3632622,149.1652379,35866,0.0011235792189836502,0.0008831972954794765,-0.14211858808994293,-0.0009203945519402623,-0.0013918011682108045,0.014259986579418182,0,0,-1000,0,0,14,0,0,-153,500.0,90.0,1500.0
13:02:46.005,GUIDED,-35.3632622,149.1652378,37656,0.0013822164619341493,0.0015166901284828782,-0.12990403175354004,0.003671230049803853,-0.0008227478247135878,0.00959702767431736,0,0,-1001,4,0,9,0,0,-153,500.0,90.0,1500.0
13:02:46.208,GUIDED,-35.3632621,149.1652376,39608,0.0020553255453705788,0.001690625911578536,-0.11835677921772003,-0.002896913792937994,-0.0011422145180404186,0.00922592543065548,0,0,-1000,-1,0,9,0,0,-153,500.0,90.0,1500.0
13:02:46.415,GUIDED,-35.3632621,149.1652376,39608,0.0020553255453705788,0.001690625911578536,-0.11835677921772003,-0.002896913792937994,-0.0011422145180404186,0.00922592543065548,0,0,-1000,-1,0,9,0,0,-153,500.0,90.0,1500.0
13:02:46.627,GUIDED,-35.3632621,149.1652376,39608,0.0020553255453705788,0.001690625911578536,-0.11835677921772003,-0.002896913792937994,-0.0011422145180404186,0.00922592543065548,0,0,-1000,-1,0,9,0,0,-153,500.0,90.0,1500.0
13:02:46.852,GUIDED,-35.3632621,149.1652376,39608,0.0020553255453705788,0.001690625911578536,-0.11835677921772003,-0.002896913792937994,-0.0011422145180404186,0.00922592543065548,0,0,-1000,-1,0,9,0,0,-153,500.0,90.0,1500.0
13:02:47.055,GUIDED,-35.3632621,149.1652376,39608,0.0020553255453705788,0.001690625911578536,-0.11835677921772003,-0.002896913792937994,-0.0011422145180404186,0.00922592543065548,0,0,-1000,-1,0,9,0,0,-153,500.0,90.0,1500.0
13:02:47.263,GUIDED,-35.3632621,149.1652376,39608,0.0020553255453705788,0.001690625911578536,-0.11835677921772003,-0.002896913792937994,-0.0011422145180404186,0.00922592543065548,0,0,-1000,-1,0,9,0,0,-153,500.0,90.0,1500.0
13:02:47.469,GUIDED,-35.3632621,149.1652376,39608,0.0020553255453705788,0.001690625911578536,-0.11835677921772003,-0.002896913792937994,-0.0011422145180404186,0.00922592543065548,0,0,-1000,-1,0,9,0,0,-153,500.0,90.0,1500.0
13:02:47.671,GUIDED,-35.3632621,149.1652376,39608,0.0020553255453705788,0.001690625911578536,-0.11835677921772003,-0.002896913792937994,-0.0011422145180404186,0.00922592543065548,0,0,-1000,-1,0,9,0,0,-153,500.0,90.0,1500.0
13:02:47.874,GUIDED,-35.3632621,149.1652376,39608,0.0020553255453705788,0.001690625911578536,-0.11835677921772003,-0.002896913792937994,-0.0011422145180404186,0.00922592543065548,0,0,-1000,-1,0,9,0,0,-153,500.0,90.0,1500.0
13:02:48.078,GUIDED,-35.3632621,149.1652375,40617,0.0020864170510321856,0.001236924435943365,-0.11316132545471191,0.0040769996121525764,0.0009134834981523454,0.008406280539929867,0,0,-1000,-1,0,9,-1,0,-153,500.0,90.0,1500.0
13:02:48.287,GUIDED,-35.363262,149.1652374,42956,0.0014624197501689196,0.0014482970582321286,-0.10297199338674545,-0.0010249060578644276,-0.0014534913934767246,0.006502889562398195,0,0,-1000,-1,1,4,-1,0,-153,500.0,90.0,1500.0
13:02:48.495,GUIDED,-35.363262,149.1652374,42956,0.0014624197501689196,0.0014482970582321286,-0.10297199338674545,-0.0010249060578644276,-0.0014534913934767246,0.006502889562398195,0,0,-1000,0,0,6,-1,0,-153,500.0,90.0,1500.0
13:02:48.698,GUIDED,-35.363262,149.1652374,42956,0.0014624197501689196,0.0014482970582321286,-0.10297199338674545,-0.0010249060578644276,-0.0014534913934767246,0.006502889562398195,0,0,-1000,0,0,6,-1,0,-153,500.0,90.0,1500.0
13:02:48.905,GUIDED,-35.363262,149.1652374,42956,0.0014624197501689196,0.0014482970582321286,-0.10297199338674545,-0.0010249060578644276,-0.0014534913934767246,0.006502889562398195,0,0,-1000,0,0,6,-1,0,-153,500.0,90.0,1500.0
13:02:49.115,GUIDED,-35.363262,149.1652374,42956,0.0014624197501689196,0.0014482970582321286,-0.10297199338674545,-0.0010249060578644276,-0.0014534913934767246,0.006502889562398195,0,0,-1000,0,0,6,-1,0,-153,500.0,90.0,1500.0
13:02:49.317,GUIDED,-35.363262,149.1652374,42956,0.0014624197501689196,0.0014482970582321286,-0.10297199338674545,-0.0010249060578644276,-0.0014534913934767246,0.006502889562398195,0,0,-1000,0,0,6,-1,0,-153,500.0,90.0,1500.0
13:02:49.521,GUIDED,-35.363262,149.1652374,42956,0.0014624197501689196,0.0014482970582321286,-0.10297199338674545,-0.0010249060578644276,-0.0014534913934767246,0.006502889562398195,0,0,-1000,0,0,6,-1,0,-153,500.0,90.0,1500.0
13:02:49.726,GUIDED,-35.363262,149.1652374,42956,0.0014624197501689196,0.0014482970582321286,-0.10297199338674545,-0.0010249060578644276,-0.0014534913934767246,0.006502889562398195,0,0,-1000,0,0,6,-1,0,-153,500.0,90.0,1500.0
13:02:49.928,GUIDED,-35.363262,149.1652374,44597,0.0011998271802440286,0.0011162561131641269,-0.09625086933374405,-0.002590898424386978,-4.647474270313978e-06,0.006652093026787043,0,0,-1000,-1,1,6,-1,0,-153,500.0,90.0,1500.0
13:02:50.131,GUIDED,-35.363262,149.1652374,45766,0.001600011601112783,0.0012489170767366886,-0.09143766760826111,-0.0005758297629654408,-0.0008503955905325711,0.006107398308813572,0,0,-1000,0,0,6,-1,1,-153,500.0,90.0,1500.0
13:02:50.336,GUIDED,-35.363262,149.1652374,45766,0.001600011601112783,0.0012489170767366886,-0.09143766760826111,-0.0005758297629654408,-0.0008503955905325711,0.006107398308813572,0,0,-1000,0,0,6,-1,1,-153,500.0,90.0,1500.0
13:02:50.539,GUIDED,-35.363262,149.1652374,45766,0.001600011601112783,0.0012489170767366886,-0.09143766760826111,-0.0005758297629654408,-0.0008503955905325711,0.006107398308813572,0,0,-1000,0,0,6,-1,1,-153,500.0,90.0,1500.0
13:02:50.748,GUIDED,-35.363262,149.1652374,45766,0.001600011601112783,0.0012489170767366886,-0.09143766760826111,-0.0005758297629654408,-0.0008503955905325711,0.006107398308813572,0,0,-1000,0,0,6,-1,1,-153,500.0,90.0,1500.0
13:02:50.953,GUIDED,-35.363262,149.1652374,45766,0.001600011601112783,0.0012489170767366886,-0.09143766760826111,-0.0005758297629654408,-0.0008503955905325711,0.006107398308813572,0,0,-1000,0,0,6,-1,1,-153,500.0,90.0,1500.0
13:02:51.155,GUIDED,-35.363262,149.1652374,45766,0.001600011601112783,0.0012489170767366886,-0.09143766760826111,-0.0005758297629654408,-0.0008503955905325711,0.006107398308813572,0,0,-1000,0,0,6,-1,1,-153,500.0,90.0,1500.0
13:02:51.362,GUIDED,-35.363262,149.1652374,45766,0.001600011601112783,0.0012489170767366886,-0.09143766760826111,-0.0005758297629654408,-0.0008503955905325711,0.006107398308813572,0,0,-1000,0,0,6,-1,1,-153,500.0,90.0,1500.0
13:02:51.567,GUIDED,-35.363262,149.1652374,45766,0.001600011601112783,0.0012489170767366886,-0.09143766760826111,-0.0005758297629654408,-0.0008503955905325711,0.006107398308813572,0,0,-1000,0,0,6,-1,1,-153,500.0,90.0,1500.0
13:02:51.769,GUIDED,-35.363262,149.1652374,45766,0.001600011601112783,0.0012489170767366886,-0.09143766760826111,-0.0005758297629654408,-0.0008503955905325711,0.006107398308813572,0,0,-1000,0,0,6,-1,1,-153,500.0,90.0,1500.0
13:02:51.976,GUIDED,-35.363262,149.1652373,47867,0.0013429897371679544,0.0009189414558932185,-0.08421777188777924,-0.00041336403228342533,-0.0004718884010799229,0.007417435757815838,0,0,-1000,0,0,7,-1,1,-153,90.0,90.0,1500.0
13:02:52.178,GUIDED,-35.363262,149.1652373,48646,0.0014402024680748582,0.001104926341213286,-0.08139931410551071,-0.0008191032102331519,-0.0011453223414719105,0.006539418362081051,0,0,-1000,0,0,6,-1,1,-153,90.0,90.0,1500.0
13:02:52.380,GUIDED,-35.363262,149.1652373,48646,0.0014402024680748582,0.001104926341213286,-0.08139931410551071,-0.0008191032102331519,-0.0011453223414719105,0.006539418362081051,0,0,-1000,0,0,6,-1,1,-153,90.0,90.0,1500.0
13:02:52.585,GUIDED,-35.363262,149.1652373,48646,0.0014402024680748582,0.001104926341213286,-0.08139931410551071,-0.0008191032102331519,-0.0011453223414719105,0.006539418362081051,0,0,-1000,0,0,6,-1,1,-153,90.0,90.0,1500.0
13:02:52.790,GUIDED,-35.363262,149.1652373,48646,0.0014402024680748582,0.001104926341213286,-0.08139931410551071,-0.0008191032102331519,-0.0011453223414719105,0.006539418362081051,0,0,-1000,0,0,6,-1,1,-153,90.0,90.0,1500.0
13:02:52.993,GUIDED,-35.363262,149.1652373,48646,0.0014402024680748582,0.001104926341213286,-0.08139931410551071,-0.0008191032102331519,-0.0011453223414719105,0.006539418362081051,0,0,-1000,0,0,6,-1,1,-153,90.0,90.0,1500.0
13:02:53.196,GUIDED,-35.363262,149.1652373,48646,0.0014402024680748582,0.001104926341213286,-0.08139931410551071,-0.0008191032102331519,-0.0011453223414719105,0.006539418362081051,0,0,-1000,0,0,6,-1,1,-153,90.0,90.0,1500.0
13:02:53.401,GUIDED,-35.363262,149.1652373,48646,0.0014402024680748582,0.001104926341213286,-0.08139931410551071,-0.0008191032102331519,-0.0011453223414719105,0.006539418362081051,0,0,-1000,0,0,6,-1,1,-153,90.0,90.0,1500.0
13:02:53.603,GUIDED,-35.363262,149.1652373,48646,0.0014402024680748582,0.001104926341213286,-0.08139931410551071,-0.0008191032102331519,-0.0011453223414719105,0.006539418362081051,0,0,-1000,0,0,6,-1,1,-153,90.0,90.0,1500.0
13:02:53.805,GUIDED,-35.363262,149.1652373,50602,0.001195390010252595,0.001384119619615376,-0.07492507249116898,-0.0008754318114370108,0.0009455839172005653,0.005384799093008041,0,0,-1000,0,0,3,-1,1,-153,90.0,90.0,1500.0
13:02:54.010,GUIDED,-35.363262,149.1652373,51771,0.0012918519787490368,0.0010027645621448755,-0.07122674584388733,-0.0028756572864949703,0.00017851428128778934,0.001933361985720694,0,0,-999,-1,1,1,-1,0,-153,90.0,90.0,1500.0
13:02:54.222,GUIDED,-35.363262,149.1652373,51771,0.0012918519787490368,0.0010027645621448755,-0.07122674584388733,-0.0028756572864949703,0.00017851428128778934,0.001933361985720694,0,0,-999,-1,1,1,-1,0,-153,90.0,90.0,1500.0
13:02:54.426,LAND,-35.363262,149.1652373,51771,0.0012918519787490368,0.0010027645621448755,-0.07122674584388733,-0.0028756572864949703,0.00017851428128778934,0.001933361985720694,0,0,-999,-1,1,1,-1,0,-153,90.0,90.0,1500.0
13:02:54.638,LAND,-35.363262,149.1652373,51771,0.0012918519787490368,0.0010027645621448755,-0.07122674584388733,-0.0028756572864949703,0.00017851428128778934,0.001933361985720694,0,0,-999,-1,1,1,-1,0,-153,90.0,90.0,1500.0
13:02:54.840,LAND,-35.363262,149.1652373,51771,0.0012918519787490368,0.0010027645621448755,-0.07122674584388733,-0.0028756572864949703,0.00017851428128778934,0.001933361985720694,0,0,-999,-1,1,1,-1,0,-153,90.0,90.0,1500.0
13:02:55.045,LAND,-35.363262,149.1652373,51771,0.0012918519787490368,0.0010027645621448755,-0.07122674584388733,-0.0028756572864949703,0.00017851428128778934,0.001933361985720694,0,0,-999,-1,1,1,-1,0,-153,90.0,90.0,1500.0
13:02:55.252,LAND,-35.363262,149.1652373,51771,0.0012918519787490368,0.0010027645621448755,-0.07122674584388733,-0.0028756572864949703,0.00017851428128778934,0.001933361985720694,0,0,-999,-1,1,1,-1,0,-153,90.0,90.0,1500.0
13:02:55.455,LAND,-35.363262,149.1652373,51771,0.0012918519787490368,0.0010027645621448755,-0.07122674584388733,-0.0028756572864949703,0.00017851428128778934,0.001933361985720694,0,0,-999,-1,1,1,-1,0,-153,90.0,90.0,1500.0
13:02:55.660,LAND,-35.363262,149.1652373,51771,0.0012918519787490368,0.0010027645621448755,-0.07122674584388733,-0.0028756572864949703,0.00017851428128778934,0.001933361985720694,0,0,-999,-1,1,1,-1,0,-153,90.0,90.0,1500.0
13:02:55.879,LAND,-35.363262,149.1652373,53404,-0.0011996792163699865,0.0029374361038208008,-0.06206357479095459,-0.05409790948033333,0.04695633426308632,0.10698875039815903,0,0,-973,-53,47,107,-1,0,-151,90.0,90.0,1500.0
13:02:56.083,LAND,-35.3632633,149.1652353,54649,-0.0249471515417099,-0.0026536015793681145,0.3139727711677551,0.09006354957818985,-0.18760286271572113,0.15277370810508728,4,8,-913,90,-186,153,-30,-39,-81,90.0,90.0,1500.0
13:02:56.286,LAND,-35.3632633,149.1652353,54649,-0.0249471515417099,-0.0026536015793681145,0.3139727711677551,0.09006354957818985,-0.18760286271572113,0.15277370810508728,4,8,-913,90,-186,153,-30,-39,-81,90.0,90.0,1500.0
13:02:56.494,LAND,-35.3632633,149.1652353,54649,-0.0249471515417099,-0.0026536015793681145,0.3139727711677551,0.09006354957818985,-0.18760286271572113,0.15277370810508728,4,8,-913,90,-186,153,-30,-39,-81,90.0,90.0,1500.0
13:02:56.695,LAND,-35.3632633,149.1652353,54649,-0.0249471515417099,-0.0026536015793681145,0.3139727711677551,0.09006354957818985,-0.18760286271572113,0.15277370810508728,4,8,-913,90,-186,153,-30,-39,-81,90.0,90.0,1500.0
13:02:56.900,LAND,-35.3632633,149.1652353,54649,-0.0249471515417099,-0.0026536015793681145,0.3139727711677551,0.09006354957818985,-0.18760286271572113,0.15277370810508728,4,8,-913,90,-186,153,-30,-39,-81,90.0,90.0,1500.0
13:02:57.104,LAND,-35.3632633,149.1652353,54649,-0.0249471515417099,-0.0026536015793681145,0.3139727711677551,0.09006354957818985,-0.18760286271572113,0.15277370810508728,4,8,-913,90,-186,153,-30,-39,-81,90.0,90.0,1500.0
13:02:57.309,LAND,-35.3632633,149.1652353,54649,-0.0249471515417099,-0.0026536015793681145,0.3139727711677551,0.09006354957818985,-0.18760286271572113,0.15277370810508728,4,8,-913,90,-186,153,-30,-39,-81,90.0,90.0,1500.0
13:02:57.513,LAND,-35.3632633,149.1652353,54649,-0.0249471515417099,-0.0026536015793681145,0.3139727711677551,0.09006354957818985,-0.18760286271572113,0.15277370810508728,4,8,-913,90,-186,153,-30,-39,-81,90.0,90.0,1500.0
13:02:57.721,LAND,-35.3632645,149.165233,55003,0.026662858203053474,-0.057424746453762054,0.3470345735549927,-0.0893099308013916,-0.018983621150255203,-0.0005798024358227849,1,-4,-931,-90,-17,0,-11,-24,-35,90.0,90.0,1500.0
13:02:57.926,LAND,-35.3632637,149.1652331,54935,0.02398213930428028,-0.015734849497675896,0.3031686544418335,0.4751017987728119,0.04445246607065201,-0.03455546498298645,-4,39,-970,487,45,-34,18,28,35,90.0,90.0,1500.0
13:02:58.130,LAND,-35.3632637,149.1652331,54935,0.02398213930428028,-0.015734849497675896,0.3031686544418335,0.4751017987728119,0.04445246607065201,-0.03455546498298645,-4,39,-970,487,45,-34,18,28,35,90.0,90.0,1500.0
13:02:58.334,LAND,-35.3632637,149.1652331,54935,0.02398213930428028,-0.015734849497675896,0.3031686544418335,0.4751017987728119,0.04445246607065201,-0.03455546498298645,-4,39,-970,487,45,-34,18,28,35,90.0,90.0,1500.0
13:02:58.541,LAND,-35.3632637,149.1652331,54935,0.02398213930428028,-0.015734849497675896,0.3031686544418335,0.4751017987728119,0.04445246607065201,-0.03455546498298645,-4,39,-970,487,45,-34,18,28,35,90.0,90.0,1500.0
13:02:58.745,LAND,-35.3632637,149.1652331,54935,0.02398213930428028,-0.015734849497675896,0.3031686544418335,0.4751017987728119,0.04445246607065201,-0.03455546498298645,-4,39,-970,487,45,-34,18,28,35,90.0,90.0,1500.0
13:02:58.948,LAND,-35.3632637,149.1652331,54935,0.02398213930428028,-0.015734849497675896,0.3031686544418335,0.4751017987728119,0.04445246607065201,-0.03455546498298645,-4,39,-970,487,45,-34,18,28,35,90.0,90.0,1500.0
13:02:59.151,LAND,-35.3632637,149.1652331,54935,0.02398213930428028,-0.015734849497675896,0.3031686544418335,0.4751017987728119,0.04445246607065201,-0.03455546498298645,-4,39,-970,487,45,-34,18,28,35,90.0,90.0,1500.0
13:02:59.354,LAND,-35.3632637,149.1652331,54935,0.02398213930428028,-0.015734849497675896,0.3031686544418335,0.4751017987728119,0.04445246607065201,-0.03455546498298645,-4,39,-970,487,45,-34,18,28,35,90.0,90.0,1500.0
13:02:59.557,LAND,-35.3632637,149.1652331,54935,0.02398213930428028,-0.015734849497675896,0.3031686544418335,0.4751017987728119,0.04445246607065201,-0.03455546498298645,-4,39,-970,487,45,-34,18,28,35,90.0,90.0,1500.0
13:02:59.760,LAND,-35.363262,149.1652358,54462,-0.007670356892049313,0.01098357979208231,0.26983022689819336,-0.9533127546310425,0.008001386187970638,-0.017572743818163872,0,-29,-968,-947,9,-17,15,31,63,90.0,90.0,1500.0
13:02:59.962,LAND,-35.363261,149.1652381,53673,-0.023391935974359512,0.011283932253718376,0.24226287007331848,-1.183349370956421,-0.007031328044831753,-0.023585330694913864,-2,-54,-1048,-1209,0,-23,3,18,69,90.0,90.0,1500.0
13:03:00.166,LAND,-35.363261,149.1652381,53673,-0.023391935974359512,0.011283932253718376,0.24226287007331848,-1.183349370956421,-0.007031328044831753,-0.023585330694913864,0,-29,-985,-1178,-6,-23,3,18,69,90.0,90.0,1500.0
13:03:00.370,LAND,-35.363261,149.1652381,53673,-0.023391935974359512,0.011283932253718376,0.24226287007331848,-1.183349370956421,-0.007031328044831753,-0.023585330694913864,0,-29,-985,-1178,-6,-23,3,18,69,90.0,90.0,1500.0
13:03:00.576,LAND,-35.363261,149.1652381,53673,-0.023391935974359512,0.011283932253718376,0.24226287007331848,-1.183349370956421,-0.007031328044831753,-0.023585330694913864,0,-29,-985,-1178,-6,-23,3,18,69,90.0,90.0,1500.0
13:03:00.782,LAND,-35.363261,149.1652381,53673,-0.023391935974359512,0.011283932253718376,0.24226287007331848,-1.183349370956421,-0.007031328044831753,-0.023585330694913864,0,-29,-985,-1178,-6,-23,3,18,69,90.0,90.0,1500.0
13:03:00.989,LAND,-35.363261,149.1652381,53673,-0.023391935974359512,0.011283932253718376,0.24226287007331848,-1.183349370956421,-0.007031328044831753,-0.023585330694913864,0,-29,-985,-1178,-6,-23,3,18,69,90.0,90.0,1500.0
13:03:01.193,LAND,-35.363261,149.1652381,53673,-0.023391935974359512,0.011283932253718376,0.24226287007331848,-1.183349370956421,-0.007031328044831753,-0.023585330694913864,0,-29,-985,-1178,-6,-23,3,18,69,90.0,90.0,1500.0
13:03:01.402,LAND,-35.363261,149.1652381,53673,-0.023391935974359512,0.011283932253718376,0.24226287007331848,-1.183349370956421,-0.007031328044831753,-0.023585330694913864,0,-29,-985,-1178,-6,-23,3,18,69,90.0,90.0,1500.0
13:03:01.618,LAND,-35.363261,149.1652381,53673,-0.023391935974359512,0.011283932253718376,0.24226287007331848,-1.183349370956421,-0.007031328044831753,-0.023585330694913864,0,-29,-985,-1178,-6,-23,3,18,69,90.0,90.0,1500.0
13:03:01.827,LAND,-35.3632609,149.1652383,52819,-0.006348908878862858,0.0008978588157333434,0.21217197179794312,-1.0038366317749023,-0.0012982541229575872,-0.027919171378016472,-2,-53,-1049,-1007,0,-27,-3,7,55,90.0,90.0,1500.0
13:03:02.035,LAND,-35.3632611,149.1652378,52355,0.0007248197216540575,-0.0033501035068184137,0.1972215622663498,-1.199243187904358,-0.0043503157794475555,-0.025935625657439232,0,-47,-1018,-1200,-3,-25,-3,6,54,90.0,90.0,1500.0
13:03:02.243,LAND,-35.3632611,149.1652378,52355,0.0007248197216540575,-0.0033501035068184137,0.1972215622663498,-1.199243187904358,-0.0043503157794475555,-0.025935625657439232,0,-47,-1018,-1200,-3,-25,-3,6,54,90.0,90.0,1500.0
13:03:02.445,LAND,-35.3632611,149.1652378,52355,0.0007248197216540575,-0.0033501035068184137,0.1972215622663498,-1.199243187904358,-0.0043503157794475555,-0.025935625657439232,0,-47,-1018,-1200,-3,-25,-3,6,54,90.0,90.0,1500.0
13:03:02.647,LAND,-35.3632611,149.1652378,52355,0.0007248197216540575,-0.0033501035068184137,0.1972215622663498,-1.199243187904358,-0.0043503157794475555,-0.025935625657439232,0,-47,-1018,-1200,-3,-25,-3,6,54,90.0,90.0,1500.0
13:03:02.851,LAND,-35.3632611,149.1652378,52355,0.0007248197216540575,-0.0033501035068184137,0.1972215622663498,-1.199243187904358,-0.0043503157794475555,-0.025935625657439232,0,-47,-1018,-1200,-3,-25,-3,6,54,90.0,90.0,1500.0
13:03:03.058,LAND,-35.3632611,149.1652378,52355,0.0007248197216540575,-0.0033501035068184137,0.1972215622663498,-1.199243187904358,-0.0043503157794475555,-0.025935625657439232,0,-47,-1018,-1200,-3,-25,-3,6,54,90.0,90.0,1500.0
13:03:03.262,LAND,-35.3632611,149.1652378,52355,0.0007248197216540575,-0.0033501035068184137,0.1972215622663498,-1.199243187904358,-0.0043503157794475555,-0.025935625657439232,0,-47,-1018,-1200,-3,-25,-3,6,54,90.0,90.0,1500.0
13:03:03.467,LAND,-35.3632611,149.1652378,52355,0.0007248197216540575,-0.0033501035068184137,0.1972215622663498,-1.199243187904358,-0.0043503157794475555,-0.025935625657439232,0,-47,-1018,-1200,-3,-25,-3,6,54,90.0,90.0,1500.0
13:03:03.670,LAND,-35.3632613,149.1652373,51891,-0.008152409456670284,-0.003354105167090893,0.1828327476978302,-0.9768418669700623,-0.004772958345711231,-0.01553815882652998,0,-47,-1018,-1200,-3,-25,-3,9,58,90.0,90.0,1500.0
13:03:03.881,LAND,-35.3632618,149.1652381,51118,-0.022743023931980133,-0.0030288563575595617,0.16112938523292542,-0.8274420499801636,0.009716780856251717,-0.01789005845785141,2,-18,-1000,-820,10,-17,0,6,55,90.0,90.0,1500.0
13:03:04.091,LAND,-35.3632618,149.1652381,51118,-0.022743023931980133,-0.0030288563575595617,0.16112938523292542,-0.8274420499801636,0.009716780856251717,-0.01789005845785141,2,-18,-1000,-820,10,-17,0,6,55,90.0,90.0,1500.0
13:03:04.301,LAND,-35.3632618,149.1652381,51118,-0.022743023931980133,-0.0030288563575595617,0.16112938523292542,-0.8274420499801636,0.009716780856251717,-0.01789005845785141,2,-18,-1000,-820,10,-17,0,6,55,90.0,90.0,1500.0
13:03:04.506,LAND,-35.3632618,149.1652381,51118,-0.022743023931980133,-0.0030288563575595617,0.16112938523292542,-0.8274420499801636,0.009716780856251717,-0.01789005845785141,2,-18,-1000,-820,10,-17,0,6,55,90.0,90.0,1500.0
13:03:04.716,LAND,-35.3632618,149.1652381,51118,-0.022743023931980133,-0.0030288563575595617,0.16112938523292542,-0.8274420499801636,0.009716780856251717,-0.01789005845785141,2,-18,-1000,-820,10,-17,0,6,55,90.0,90.0,1500.0
13:03:04.925,LAND,-35.3632618,149.1652381,51118,-0.022743023931980133,-0.0030288563575595617,0.16112938523292542,-0.8274420499801636,0.009716780856251717,-0.01789005845785141,2,-18,-1000,-820,10,-17,0,6,55,90.0,90.0,1500.0
13:03:05.131,LAND,-35.3632618,149.1652381,51118,-0.022743023931980133,-0.0030288563575595617,0.16112938523292542,-0.8274420499801636,0.009716780856251717,-0.01789005845785141,2,-18,-1000,-820,10,-17,0,6,55,90.0,90.0,1500.0
13:03:05.337,LAND,-35.3632618,149.1652381,51118,-0.022743023931980133,-0.0030288563575595617,0.16112938523292542,-0.8274420499801636,0.009716780856251717,-0.01789005845785141,2,-18,-1000,-820,10,-17,0,6,55,90.0,90.0,1500.0
13:03:05.539,LAND,-35.3632618,149.1652381,51118,-0.022743023931980133,-0.0030288563575595617,0.16112938523292542,-0.8274420499801636,0.009716780856251717,-0.01789005845785141,2,-18,-1000,-820,10,-17,0,6,55,90.0,90.0,1500.0
13:03:05.741,LAND,-35.3632618,149.1652381,51118,-0.022743023931980133,-0.0030288563575595617,0.16112938523292542,-0.8274420499801636,0.009716780856251717,-0.01789005845785141,2,-18,-1000,-820,10,-17,0,6,55,90.0,90.0,1500.0
13:03:05.948,LAND,-35.3632626,149.1652398,49955,-0.02689596265554428,-0.0072271497920155525,0.1321326047182083,-1.0957409143447876,0.00010133208706974983,-0.011430294252932072,0,-47,-1014,-1032,-9,-3,4,-11,54,90.0,90.0,1500.0
13:03:06.172,LAND,-35.3632626,149.1652397,49806,-0.02689596265554428,-0.0072271497920155525,0.1321326047182083,-1.0957409143447876,0.00010133208706974983,-0.011430294252932072,1,-44,-982,-1095,0,-10,4,-13,56,90.0,90.0,1500.0
13:03:06.388,LAND,-35.3632626,149.1652397,49806,-0.02689596265554428,-0.0072271497920155525,0.1321326047182083,-1.0957409143447876,0.00010133208706974983,-0.011430294252932072,1,-44,-982,-1095,0,-10,4,-13,56,90.0,90.0,1500.0
13:03:06.601,LAND,-35.3632626,149.1652397,49806,-0.02689596265554428,-0.0072271497920155525,0.1321326047182083,-1.0957409143447876,0.00010133208706974983,-0.011430294252932072,1,-44,-982,-1095,0,-10,4,-13,56,90.0,90.0,1500.0
13:03:06.807,LAND,-35.3632626,149.1652397,49806,-0.02689596265554428,-0.0072271497920155525,0.1321326047182083,-1.0957409143447876,0.00010133208706974983,-0.011430294252932072,1,-44,-982,-1095,0,-10,4,-13,56,90.0,90.0,1500.0
13:03:07.011,LAND,-35.3632626,149.1652397,49806,-0.02689596265554428,-0.0072271497920155525,0.1321326047182083,-1.0957409143447876,0.00010133208706974983,-0.011430294252932072,1,-44,-982,-1095,0,-10,4,-13,56,90.0,90.0,1500.0
13:03:07.217,LAND,-35.3632626,149.1652397,49806,-0.02689596265554428,-0.0072271497920155525,0.1321326047182083,-1.0957409143447876,0.00010133208706974983,-0.011430294252932072,1,-44,-982,-1095,0,-10,4,-13,56,90.0,90.0,1500.0
13:03:07.420,LAND,-35.3632626,149.1652397,49806,-0.02689596265554428,-0.0072271497920155525,0.1321326047182083,-1.0957409143447876,0.00010133208706974983,-0.011430294252932072,1,-44,-982,-1095,0,-10,4,-13,56,90.0,90.0,1500.0
13:03:07.631,LAND,-35.3632626,149.1652397,49806,-0.02689596265554428,-0.0072271497920155525,0.1321326047182083,-1.0957409143447876,0.00010133208706974983,-0.011430294252932072,1,-44,-982,-1095,0,-10,4,-13,56,90.0,90.0,1500.0
13:03:07.836,LAND,-35.3632626,149.1652397,49806,-0.02689596265554428,-0.0072271497920155525,0.1321326047182083,-1.0957409143447876,0.00010133208706974983,-0.011430294252932072,1,-44,-982,-1095,0,-10,4,-13,56,90.0,90.0,1500.0
13:03:08.041,LAND,-35.3632628,149.1652387,48837,-0.010197194293141365,-0.0097760409116745,0.11458204686641693,0.3241943120956421,-0.004750939551740885,-0.008427394554018974,-2,20,-1014,-209,-1,-1,6,-10,56,90.0,90.0,1500.0
