time_stamp,MODE,lat,lon,relative_alt,roll,pitch,yaw,rollspeed,pitchspeed,yawspeed,xacc,yacc,zacc,xgyro,ygyro,zgyro,vx,vy,vz,RTL_ALT
02:04:48.341,STABILIZE,-35.3632621,149.1652374,0,0.0006315386272035539,0.0015785113209858537,0.027677495032548904,0.00037857829011045396,0.0002650939568411559,0.0023391051217913628,0,1,-1000,0,0,0,-1,1,0,73271.0
02:04:48.543,STABILIZE,-35.3632621,149.1652374,0,0.0006315386272035539,0.0015785113209858537,0.027677495032548904,0.00037857829011045396,0.0002650939568411559,0.0023391051217913628,0,1,-1000,0,0,0,-1,1,0,73271.0
02:04:48.744,STABILIZE,-35.3632621,149.1652374,0,0.0006315386272035539,0.0015785113209858537,0.027677495032548904,0.00037857829011045396,0.0002650939568411559,0.0023391051217913628,0,1,-1000,0,0,0,-1,1,0,73271.0
02:04:48.945,STABILIZE,-35.3632621,149.1652374,0,0.0006315386272035539,0.0015785113209858537,0.027677495032548904,0.00037857829011045396,0.0002650939568411559,0.0023391051217913628,0,1,-1000,0,0,0,-1,1,0,73271.0
02:04:49.146,STABILIZE,-35.3632621,149.1652374,0,0.0006315386272035539,0.0015785113209858537,0.027677495032548904,0.00037857829011045396,0.0002650939568411559,0.0023391051217913628,0,1,-1000,0,0,0,-1,1,0,73271.0
02:04:49.348,STABILIZE,-35.3632621,149.1652374,0,0.0006315386272035539,0.0015785113209858537,0.027677495032548904,0.00037857829011045396,0.0002650939568411559,0.0023391051217913628,0,1,-1000,0,0,0,-1,1,0,73271.0
02:04:49.550,STABILIZE,-35.3632621,149.1652374,0,0.0006315386272035539,0.0015785113209858537,0.027677495032548904,0.00037857829011045396,0.0002650939568411559,0.0023391051217913628,0,1,-1000,0,0,0,-1,1,0,73271.0
02:04:49.751,STABILIZE,-35.3632622,149.1652375,0,0.0003055781708098948,0.0014171965885907412,0.026467543095350266,0.0002951041969936341,0.0003024469187948853,0.0022385576739907265,0,1,-1000,0,1,1,-2,2,1,73271.0
02:04:49.953,STABILIZE,-35.3632622,149.1652375,0,0.0003055781708098948,0.0014171965885907412,0.026467543095350266,0.0002951041969936341,0.0003024469187948853,0.0022385576739907265,0,1,-1000,0,0,0,-2,2,1,73271.0
02:04:50.154,STABILIZE,-35.3632622,149.1652375,0,0.0003055781708098948,0.0014171965885907412,0.026467543095350266,0.0002951041969936341,0.0003024469187948853,0.0022385576739907265,0,1,-1000,0,0,0,-2,2,1,73271.0
02:04:50.355,STABILIZE,-35.3632622,149.1652375,0,0.0003055781708098948,0.0014171965885907412,0.026467543095350266,0.0002951041969936341,0.0003024469187948853,0.0022385576739907265,0,1,-1000,0,0,0,-2,2,1,73271.0
02:04:50.557,STABILIZE,-35.3632622,149.1652375,0,0.0003055781708098948,0.0014171965885907412,0.026467543095350266,0.0002951041969936341,0.0003024469187948853,0.0022385576739907265,0,1,-1000,0,0,0,-2,2,1,73271.0
02:04:50.759,STABILIZE,-35.3632622,149.1652375,0,-0.0001348803489236161,0.001208277652040124,0.02591557614505291,0.0003681687521748245,0.00024217081954702735,0.0022174755576997995,0,1,-1000,0,0,0,-1,2,1,73271.0
02:04:50.960,STABILIZE,-35.3632622,149.1652375,0,-0.0001348803489236161,0.001208277652040124,0.02591557614505291,0.0003681687521748245,0.00024217081954702735,0.0022174755576997995,0,1,-1000,0,0,0,-1,2,1,73271.0
02:04:51.162,STABILIZE,-35.3632622,149.1652375,0,-0.0001348803489236161,0.001208277652040124,0.02591557614505291,0.0003681687521748245,0.00024217081954702735,0.0022174755576997995,0,1,-1000,0,0,0,-1,2,1,73271.0
02:04:51.363,STABILIZE,-35.3632622,149.1652375,0,-0.0001348803489236161,0.001208277652040124,0.02591557614505291,0.0003681687521748245,0.00024217081954702735,0.0022174755576997995,0,1,-1000,0,0,0,-1,2,1,73271.0
02:04:51.564,STABILIZE,-35.3632622,149.1652375,0,-0.0001348803489236161,0.001208277652040124,0.02591557614505291,0.0003681687521748245,0.00024217081954702735,0.0022174755576997995,0,1,-1000,0,0,0,-1,2,1,73271.0
02:04:51.766,STABILIZE,-35.3632622,149.1652375,0,-0.0001348803489236161,0.001208277652040124,0.02591557614505291,0.0003681687521748245,0.00024217081954702735,0.0022174755576997995,0,1,-1000,0,0,0,-1,2,1,73271.0
02:04:51.967,STABILIZE,-35.3632622,149.1652375,0,-0.0005670798127539456,0.0010128261055797338,0.025351498275995255,0.000298891041893512,0.0003738921950571239,0.0021733692847192287,0,1,-1000,0,0,0,-1,1,1,73271.0
02:04:52.186,STABILIZE,-35.3632622,149.1652375,0,-0.0005670798127539456,0.0010128261055797338,0.025351498275995255,0.000298891041893512,0.0003738921950571239,0.0021733692847192287,0,1,-1000,0,0,0,-1,1,1,73271.0
02:04:52.387,STABILIZE,-35.3632622,149.1652375,0,-0.0005670798127539456,0.0010128261055797338,0.025351498275995255,0.000298891041893512,0.0003738921950571239,0.0021733692847192287,0,1,-1000,0,0,0,-1,1,1,73271.0
02:04:52.588,STABILIZE,-35.3632622,149.1652375,0,-0.0005670798127539456,0.0010128261055797338,0.025351498275995255,0.000298891041893512,0.0003738921950571239,0.0021733692847192287,0,1,-1000,0,0,0,-1,1,1,73271.0
02:04:52.790,STABILIZE,-35.3632621,149.1652375,0,-0.0005598704447038472,0.0009571949485689402,0.025068659335374832,0.00018350069876760244,0.00021880801068618894,0.001979927998036146,0,1,-1000,0,0,0,-1,0,0,73271.0
02:04:52.991,STABILIZE,-35.3632621,149.1652375,0,-0.0005762120708823204,0.0009376537636853755,0.024976558983325958,0.00022443709895014763,0.0002546394243836403,0.002060113474726677,0,1,-1000,0,0,0,-1,0,0,73271.0
02:04:53.192,STABILIZE,-35.3632621,149.1652375,0,-0.0005762120708823204,0.0009376537636853755,0.024976558983325958,0.00022443709895014763,0.0002546394243836403,0.002060113474726677,0,1,-1000,0,0,0,-1,0,0,73271.0
02:04:53.393,STABILIZE,-35.3632621,149.1652375,0,-0.0005762120708823204,0.0009376537636853755,0.024976558983325958,0.00022443709895014763,0.0002546394243836403,0.002060113474726677,0,1,-1000,0,0,0,-1,0,0,73271.0
02:04:53.594,STABILIZE,-35.3632621,149.1652375,0,-0.0005762120708823204,0.0009376537636853755,0.024976558983325958,0.00022443709895014763,0.0002546394243836403,0.002060113474726677,0,1,-1000,0,0,0,-1,0,0,73271.0
02:04:53.796,STABILIZE,-35.3632621,149.1652375,0,-0.0005762120708823204,0.0009376537636853755,0.024976558983325958,0.00022443709895014763,0.0002546394243836403,0.002060113474726677,0,1,-1000,0,0,0,-1,0,0,73271.0
02:04:53.997,STABILIZE,-35.3632621,149.1652375,0,-0.0005762120708823204,0.0009376537636853755,0.024976558983325958,0.00022443709895014763,0.0002546394243836403,0.002060113474726677,0,1,-1000,0,0,0,-1,0,0,73271.0
02:04:54.198,STABILIZE,-35.3632621,149.1652375,0,-0.0005762120708823204,0.0009376537636853755,0.024976558983325958,0.00022443709895014763,0.0002546394243836403,0.002060113474726677,0,1,-1000,0,0,0,-1,0,0,73271.0
02:04:54.399,STABILIZE,-35.3632621,149.1652375,0,-0.0005762120708823204,0.0009376537636853755,0.024976558983325958,0.00022443709895014763,0.0002546394243836403,0.002060113474726677,0,1,-1000,0,0,0,-1,0,0,73271.0
02:04:54.600,STABILIZE,-35.3632621,149.1652375,0,-0.0005762120708823204,0.0009376537636853755,0.024976558983325958,0.00022443709895014763,0.0002546394243836403,0.002060113474726677,0,1,-1000,0,0,0,-1,0,0,73271.0
02:04:54.801,STABILIZE,-35.3632621,149.1652375,0,-0.0005762120708823204,0.0009376537636853755,0.024976558983325958,0.00022443709895014763,0.0002546394243836403,0.002060113474726677,0,1,-1000,0,0,0,-1,0,0,73271.0
02:04:55.003,STABILIZE,-35.3632621,149.1652375,0,-0.0006864755996502936,0.0009072404936887324,0.02430715411901474,0.00013940787175670266,0.00024264957755804062,0.0018610300030559301,0,1,-1000,0,0,0,-1,1,0,73271.0
02:04:55.204,STABILIZE,-35.3632621,149.1652375,0,-0.0007049273117445409,0.0009109230595640838,0.02420267090201378,0.00017037522047758102,0.00033517915289849043,0.0018553698901087046,0,2,-1000,0,0,0,-1,1,0,73271.0
02:04:55.406,STABILIZE,-35.3632621,149.1652375,0,-0.0007049273117445409,0.0009109230595640838,0.02420267090201378,0.00017037522047758102,0.00033517915289849043,0.0018553698901087046,0,2,-1000,0,0,0,-1,1,0,73271.0
02:04:55.607,STABILIZE,-35.3632621,149.1652375,0,-0.0007049273117445409,0.0009109230595640838,0.02420267090201378,0.00017037522047758102,0.00033517915289849043,0.0018553698901087046,0,2,-1000,0,0,0,-1,1,0,73271.0
02:04:55.808,STABILIZE,-35.3632621,149.1652375,0,-0.0007049273117445409,0.0009109230595640838,0.02420267090201378,0.00017037522047758102,0.00033517915289849043,0.0018553698901087046,0,2,-1000,0,0,0,-1,1,0,73271.0
02:04:56.009,STABILIZE,-35.3632621,149.1652375,0,-0.0007049273117445409,0.0009109230595640838,0.02420267090201378,0.00017037522047758102,0.00033517915289849043,0.0018553698901087046,0,2,-1000,0,0,0,-1,3,3,73271.0
02:04:56.211,STABILIZE,-35.3632621,149.1652375,0,-0.0007049273117445409,0.0009109230595640838,0.02420267090201378,0.00017037522047758102,0.00033517915289849043,0.0018553698901087046,0,2,-1000,0,0,0,-1,3,3,73271.0
02:04:56.412,STABILIZE,-35.3632621,149.1652375,0,-0.0007049273117445409,0.0009109230595640838,0.02420267090201378,0.00017037522047758102,0.00033517915289849043,0.0018553698901087046,0,2,-1000,0,0,0,-1,3,3,73271.0
02:04:56.613,STABILIZE,-35.3632621,149.1652375,0,-0.0007049273117445409,0.0009109230595640838,0.02420267090201378,0.00017037522047758102,0.00033517915289849043,0.0018553698901087046,0,2,-1000,0,0,0,-1,3,3,73271.0
02:04:56.815,STABILIZE,-35.3632622,149.1652376,0,-0.0006554253050126135,0.0009588351822458208,0.023717427626252174,0.0002665364881977439,7.347576320171356e-05,0.001883694319985807,0,2,-1000,0,0,0,-1,3,3,73271.0
02:04:57.016,STABILIZE,-35.3632622,149.1652376,0,-0.000750865088775754,0.0009544614586047828,0.023619819432497025,0.00032080902019515634,0.0002069314941763878,0.0018936062697321177,0,2,-1000,0,0,0,-1,3,3,73271.0
02:04:57.218,STABILIZE,-35.3632621,149.1652376,0,-0.0008349210256710649,0.0009630910353735089,0.023535508662462234,0.00018011953216046095,0.00032802839996293187,0.0016605770215392113,0,1,-1000,0,0,1,-1,2,2,73271.0
02:04:57.419,STABILIZE,-35.3632622,149.1652376,0,-0.000908905640244484,0.0009696882916614413,0.023487476631999016,0.0002708676620386541,0.00027942925225943327,0.001701917382888496,0,1,-1000,0,0,1,-1,2,2,73271.0
02:04:57.620,STABILIZE,-35.3632622,149.1652376,0,-0.000908905640244484,0.0009696882916614413,0.023487476631999016,0.0002708676620386541,0.00027942925225943327,0.001701917382888496,0,1,-1000,0,0,1,-1,2,2,73271.0
02:04:57.821,STABILIZE,-35.3632622,149.1652376,0,-0.000908905640244484,0.0009696882916614413,0.023487476631999016,0.0002708676620386541,0.00027942925225943327,0.001701917382888496,0,1,-1000,0,0,1,-1,2,2,73271.0
02:04:58.023,STABILIZE,-35.3632622,149.1652375,0,-0.0010492997244000435,0.000978938303887844,0.023332972079515457,0.00023848790442571044,0.00031224399572238326,0.0017053111223503947,0,1,-1000,0,0,0,-1,1,2,73271.0
02:04:58.224,STABILIZE,-35.3632622,149.1652375,0,-0.0010492997244000435,0.000978938303887844,0.023332972079515457,0.00023848790442571044,0.00031224399572238326,0.0017053111223503947,0,1,-1000,0,0,0,-1,1,2,73271.0
02:04:58.426,STABILIZE,-35.3632622,149.1652375,0,-0.0010492997244000435,0.000978938303887844,0.023332972079515457,0.00023848790442571044,0.00031224399572238326,0.0017053111223503947,0,1,-1000,0,0,0,-1,1,2,73271.0
02:04:58.627,STABILIZE,-35.3632622,149.1652375,0,-0.0010492997244000435,0.000978938303887844,0.023332972079515457,0.00023848790442571044,0.00031224399572238326,0.0017053111223503947,0,1,-1000,0,0,0,-1,1,2,73271.0
02:04:58.828,STABILIZE,-35.3632622,149.1652375,0,-0.0010492997244000435,0.000978938303887844,0.023332972079515457,0.00023848790442571044,0.00031224399572238326,0.0017053111223503947,0,1,-1000,0,0,0,-1,1,2,73271.0
02:04:59.029,STABILIZE,-35.3632622,149.1652375,0,-0.0012300845701247454,0.000982113415375352,0.02310260385274887,0.00017478805966675282,0.0002804091200232506,0.0015840446576476097,0,1,-1000,0,0,0,-1,1,1,73271.0
02:04:59.231,STABILIZE,-35.3632622,149.1652375,0,-0.0012300845701247454,0.000982113415375352,0.02310260385274887,0.00017478805966675282,0.0002804091200232506,0.0015840446576476097,0,1,-1000,0,0,0,-1,1,1,73271.0
02:04:59.432,STABILIZE,-35.3632622,149.1652375,0,-0.0009851133218035102,0.000984466401860118,0.023005366325378418,0.0003304224810563028,0.00027731555746868253,0.0016990710282698274,0,1,-1000,0,0,1,-1,2,3,73271.0
02:04:59.633,STABILIZE,-35.3632622,149.1652375,0,-0.0009851133218035102,0.000984466401860118,0.023005366325378418,0.0003304224810563028,0.00027731555746868253,0.0016990710282698274,0,1,-1000,0,0,1,-1,2,3,73271.0
02:04:59.834,STABILIZE,-35.3632622,149.1652375,0,-0.0009851133218035102,0.000984466401860118,0.023005366325378418,0.0003304224810563028,0.00027731555746868253,0.0016990710282698274,0,1,-1000,1,0,1,-1,2,2,73271.0
02:05:00.036,STABILIZE,-35.3632622,149.1652375,0,-0.0009851133218035102,0.000984466401860118,0.023005366325378418,0.0003304224810563028,0.00027731555746868253,0.0016990710282698274,0,2,-1000,0,0,0,-1,2,2,73271.0
02:05:00.237,STABILIZE,-35.3632622,149.1652375,0,-0.0009851133218035102,0.000984466401860118,0.023005366325378418,0.0003304224810563028,0.00027731555746868253,0.0016990710282698274,0,2,-1000,0,0,0,-1,2,2,73271.0
02:05:00.438,STABILIZE,-35.3632622,149.1652375,0,-0.0009851133218035102,0.000984466401860118,0.023005366325378418,0.0003304224810563028,0.00027731555746868253,0.0016990710282698274,0,2,-1000,0,0,0,-1,2,2,73271.0
02:05:00.639,STABILIZE,-35.3632622,149.1652375,0,-0.0009851133218035102,0.000984466401860118,0.023005366325378418,0.0003304224810563028,0.00027731555746868253,0.0016990710282698274,0,2,-1000,0,0,0,-1,2,2,73271.0
02:05:00.841,STABILIZE,-35.3632622,149.1652375,0,-0.00117693399079144,0.0009850485948845744,0.022733526304364204,0.0002247858210466802,0.00021583487978205085,0.0015406389720737934,0,1,-1000,1,1,0,-1,1,2,73271.0
02:05:01.042,STABILIZE,-35.3632622,149.1652375,0,-0.00117693399079144,0.0009850485948845744,0.022733526304364204,0.0002247858210466802,0.00021583487978205085,0.0015406389720737934,0,1,-1000,1,0,0,-1,1,1,73271.0
02:05:01.243,STABILIZE,-35.3632622,149.1652375,0,-0.0012418115511536598,0.0009781623957678676,0.0226316899061203,0.0002513271174393594,0.00026241911109536886,0.0016198568046092987,0,1,-1000,1,0,0,-1,1,1,73271.0
02:05:01.444,STABILIZE,-35.3632622,149.1652375,0,-0.0012418115511536598,0.0009781623957678676,0.0226316899061203,0.0002513271174393594,0.00026241911109536886,0.0016198568046092987,0,1,-1000,1,0,0,-1,1,1,73271.0
02:05:01.646,STABILIZE,-35.3632622,149.1652375,0,-0.0012418115511536598,0.0009781623957678676,0.0226316899061203,0.0002513271174393594,0.00026241911109536886,0.0016198568046092987,0,1,-1000,1,0,0,-1,1,1,73271.0
02:05:01.847,STABILIZE,-35.3632622,149.1652375,0,-0.0012763460399582982,0.0009761374676600099,0.02255672588944435,0.00023748015519231558,0.00028870173264294863,0.0016593963373452425,0,1,-1000,1,0,0,-1,1,1,73271.0
02:05:02.048,STABILIZE,-35.3632622,149.1652375,0,-0.0012899948051199317,0.0009746180148795247,0.022503504529595375,0.00018561823526397347,0.0001440772321075201,0.0016239492688328028,0,1,-1000,1,0,0,-1,1,1,73271.0
02:05:02.250,STABILIZE,-35.3632622,149.1652375,0,-0.0012899948051199317,0.0009746180148795247,0.022503504529595375,0.00018561823526397347,0.0001440772321075201,0.0016239492688328028,0,1,-1000,1,0,0,-1,1,1,73271.0
02:05:02.451,STABILIZE,-35.3632622,149.1652375,0,-0.0012899948051199317,0.0009746180148795247,0.022503504529595375,0.00018561823526397347,0.0001440772321075201,0.0016239492688328028,0,1,-1000,1,0,0,-1,1,1,73271.0
02:05:02.652,STABILIZE,-35.3632622,149.1652375,0,-0.0012899948051199317,0.0009746180148795247,0.022503504529595375,0.00018561823526397347,0.0001440772321075201,0.0016239492688328028,0,1,-1000,1,0,0,-1,1,1,73271.0
02:05:02.854,STABILIZE,-35.3632622,149.1652375,0,-0.0012899948051199317,0.0009746180148795247,0.022503504529595375,0.00018561823526397347,0.0001440772321075201,0.0016239492688328028,0,1,-1000,1,0,0,-1,1,1,73271.0
02:05:03.055,STABILIZE,-35.3632622,149.1652375,0,-0.000984376179985702,0.000961229729000479,0.02235434390604496,0.0002629507798701525,0.00012233428424224257,0.0015842416323721409,0,1,-1000,1,0,0,-1,1,1,73271.0
02:05:03.257,STABILIZE,-35.3632622,149.1652375,0,-0.0010503492085263133,0.0009534526034258306,0.022309541702270508,0.0002684208448044956,0.000375130504835397,0.0015685709659010172,0,1,-1000,0,1,1,-1,2,3,73271.0
02:05:03.458,STABILIZE,-35.3632622,149.1652375,0,-0.0010503492085263133,0.0009534526034258306,0.022309541702270508,0.0002684208448044956,0.000375130504835397,0.0015685709659010172,0,1,-1000,0,1,0,-1,2,3,73271.0
02:05:03.659,STABILIZE,-35.3632622,149.1652375,0,-0.0010503492085263133,0.0009534526034258306,0.022309541702270508,0.0002684208448044956,0.000375130504835397,0.0015685709659010172,0,1,-1000,0,1,0,-1,2,3,73271.0
02:05:03.860,STABILIZE,-35.3632622,149.1652375,0,-0.0011808228446170688,0.0009556547738611698,0.02220335602760315,0.0001548487925902009,0.00018723361426964402,0.0014880297239869833,0,2,-1000,1,0,0,-1,2,2,73271.0
02:05:04.061,STABILIZE,-35.3632622,149.1652375,0,-0.0012320984387770295,0.0009583159117028117,0.022165820002555847,0.00035116932122036815,0.0002348066191188991,0.0015525089111179113,0,1,-1000,1,1,1,-1,2,2,73271.0
02:05:04.264,AUTO,-35.3632622,149.1652375,0,-0.0012320984387770295,0.0009583159117028117,0.022165820002555847,0.00035116932122036815,0.0002348066191188991,0.0015525089111179113,0,1,-1000,1,1,1,-1,2,2,73271.0
02:05:04.466,AUTO,-35.3632622,149.1652375,0,-0.0012320984387770295,0.0009583159117028117,0.022165820002555847,0.00035116932122036815,0.0002348066191188991,0.0015525089111179113,0,1,-1000,1,1,1,-1,2,2,73271.0
02:05:04.668,AUTO,-35.3632622,149.1652375,0,-0.0012320984387770295,0.0009583159117028117,0.022165820002555847,0.00035116932122036815,0.0002348066191188991,0.0015525089111179113,0,1,-1000,1,1,1,-1,2,2,73271.0
02:05:04.870,AUTO,-35.3632622,149.1652375,9,-0.0013630306348204613,0.0009610194829292595,0.022079503163695335,0.00027766491984948516,0.00026013440219685435,0.001566449529491365,0,1,-1000,0,0,0,-1,1,1,73271.0
02:05:05.071,AUTO,-35.3632621,149.1652375,8,-0.0013919738121330738,0.0009742574184201658,0.022057492285966873,0.0002495156950317323,0.0003082787152379751,0.001561144134029746,0,2,-1000,1,0,0,-1,0,1,73271.0
02:05:05.277,AUTO,-35.3632621,149.1652375,8,-0.0013981536030769348,0.0009967179503291845,0.022017858922481537,0.0003086260403506458,0.00032759178429841995,0.0014545070007443428,0,2,-1000,1,0,0,0,0,1,73271.0
02:05:05.486,AUTO,-35.3632621,149.1652375,8,-0.0013915719464421272,0.0010352723766118288,0.02198348194360733,0.00027900905115529895,0.0002952049835585058,0.0015034049283713102,0,2,-1000,0,0,0,0,0,1,73271.0
02:05:05.694,AUTO,-35.3632621,149.1652375,7,-0.0013647651067003608,0.001079150359146297,0.02196509763598442,0.0001931193983182311,0.00015093758702278137,0.0015249538701027632,0,1,-1000,0,1,1,0,0,1,73271.0
02:05:05.906,AUTO,-35.3632621,149.1652375,7,-0.0013647651067003608,0.001079150359146297,0.02196509763598442,0.0001931193983182311,0.00015093758702278137,0.0015249538701027632,0,1,-1000,0,1,1,0,0,1,73271.0
02:05:06.153,AUTO,-35.3632621,149.1652375,8,-0.0013386317295953631,0.0011339825578033924,0.02191963978111744,0.0003014341928064823,0.00019094522576779127,0.0014468091540038586,0,1,-1000,1,0,0,0,0,0,73271.0
02:05:06.382,AUTO,-35.3632621,149.1652375,8,-0.0013386317295953631,0.0011339825578033924,0.02191963978111744,0.0003014341928064823,0.00019094522576779127,0.0014468091540038586,0,1,-1000,1,0,0,0,0,0,73271.0
02:05:06.610,AUTO,-35.3632621,149.1652375,8,-0.0013386317295953631,0.0011339825578033924,0.02191963978111744,0.0003014341928064823,0.00019094522576779127,0.0014468091540038586,0,1,-1000,1,0,0,0,0,0,73271.0
02:05:06.812,AUTO,-35.3632621,149.1652374,11,-0.0009066369966603816,0.0013253835495561361,0.02179132029414177,0.00023327633971348405,0.0002536004758439958,0.0014436200726777315,0,1,-1000,0,0,1,0,0,0,73271.0
02:05:07.015,AUTO,-35.3632621,149.1652374,12,-0.0008589833742007613,0.0013947341358289123,0.02173081412911415,0.0002637400757521391,0.0003475091070868075,0.0014909151941537857,0,1,-1000,0,0,0,0,0,0,73271.0
02:05:07.217,AUTO,-35.3632621,149.1652374,13,-0.0008165641920641065,0.001463968539610505,0.021682657301425934,0.00024509377544745803,0.0002890729228965938,0.0014743129722774029,0,2,-1000,1,1,0,0,0,0,43584.0
02:05:07.419,AUTO,-35.3632621,149.1652374,13,-0.0008165641920641065,0.001463968539610505,0.021682657301425934,0.00024509377544745803,0.0002890729228965938,0.0014743129722774029,0,2,-1000,1,1,0,0,0,0,43584.0
02:05:07.620,AUTO,-35.3632621,149.1652374,14,-0.0007715994142927229,0.0015384344151243567,0.02163790352642536,0.0003694230690598488,0.0003080684691667557,0.0014472267357632518,0,1,-1000,1,0,0,0,0,0,43584.0
02:05:07.822,AUTO,-35.3632621,149.1652374,15,-0.0007161585963331163,0.0016129524447023869,0.021579185500741005,0.0002932045026682317,0.00031422183383256197,0.0014798658667132258,0,2,-1000,0,0,0,0,0,0,43584.0
02:05:08.024,AUTO,-35.3632621,149.1652374,16,-0.0006571634439751506,0.0016930792480707169,0.021520502865314484,0.00030206493102014065,0.00025090714916586876,0.0014143018051981926,0,1,-1000,0,0,1,0,0,0,43584.0
02:05:08.225,AUTO,-35.3632621,149.1652374,16,-0.0006571634439751506,0.0016930792480707169,0.021520502865314484,0.00030206493102014065,0.00025090714916586876,0.0014143018051981926,0,1,-1000,0,0,1,0,0,0,43584.0
02:05:08.427,AUTO,-35.3632621,149.1652374,16,-0.0006571634439751506,0.0016930792480707169,0.021520502865314484,0.00030206493102014065,0.00025090714916586876,0.0014143018051981926,0,1,-1000,0,0,1,0,0,0,43584.0
02:05:08.629,AUTO,-35.3632621,149.1652374,16,-0.0006571634439751506,0.0016930792480707169,0.021520502865314484,0.00030206493102014065,0.00025090714916586876,0.0014143018051981926,0,1,-1000,0,0,1,0,0,0,43584.0
02:05:08.831,AUTO,-35.3632621,149.1652375,210,0.0026873047463595867,0.00011889341112691909,0.02124142460525036,0.0062363543547689915,0.005233247298747301,0.0009483208414167166,0,0,-1130,6,6,0,0,0,-70,43584.0
02:05:09.032,AUTO,-35.3632621,149.1652375,422,0.001427510636858642,0.0010569531004875898,0.021124539896845818,-0.004482172895222902,0.0033185607753694057,0.002140308730304241,0,0,-1109,-3,3,1,0,0,-99,43584.0
02:05:09.234,AUTO,-35.3632621,149.1652375,698,0.0008841491071507335,0.0016548994462937117,0.021036535501480103,-0.0021270564757287502,0.001446157693862915,-0.00043916591675952077,0,0,-1088,-1,1,-1,0,0,-123,43584.0
02:05:09.435,AUTO,-35.3632621,149.1652375,1035,0.009645357728004456,0.0008652876713313162,0.020650094375014305,0.047442901879549026,-0.005880505777895451,0.0009697303175926208,0,0,-1043,48,-5,0,0,1,-138,43584.0
02:05:09.638,AUTO,-35.3632621,149.1652375,1035,0.009645357728004456,0.0008652876713313162,0.020650094375014305,0.047442901879549026,-0.005880505777895451,0.0009697303175926208,0,0,-1043,48,-5,0,0,1,-138,43584.0
02:05:09.840,AUTO,-35.363262,149.1652375,1402,0.02150717005133629,-0.0008361904183402658,0.020585380494594574,0.04737936332821846,-0.007092453073710203,0.001925791148096323,0,0,-1018,48,-6,1,0,5,-145,43584.0
02:05:10.042,AUTO,-35.363262,149.1652377,1782,0.032933782786130905,-0.002739198738709092,0.020688047632575035,0.04463042691349983,-0.008074157871305943,0.0026103141717612743,0,-1,-1007,45,-7,2,1,11,-148,43584.0
02:05:10.244,AUTO,-35.363262,149.1652377,1782,0.032933782786130905,-0.002739198738709092,0.020688047632575035,0.04463042691349983,-0.008074157871305943,0.0026103141717612743,0,-1,-1007,45,-7,2,1,11,-148,43584.0
02:05:10.447,AUTO,-35.363262,149.1652377,1782,0.032933782786130905,-0.002739198738709092,0.020688047632575035,0.04463042691349983,-0.008074157871305943,0.0026103141717612743,0,-1,-1007,45,-7,2,1,11,-148,43584.0
02:05:10.649,AUTO,-35.363262,149.1652377,1782,0.032933782786130905,-0.002739198738709092,0.020688047632575035,0.04463042691349983,-0.008074157871305943,0.0026103141717612743,0,-1,-1007,45,-7,2,1,11,-148,43584.0
02:05:10.851,AUTO,-35.3632616,149.1652396,2943,0.06199204921722412,-0.009454809129238129,-0.0075173145160079,-0.00012339453678578138,0.011607279069721699,-0.0368044339120388,0,-8,-992,0,12,-37,8,42,-148,43584.0
02:05:11.057,AUTO,-35.3632614,149.1652409,3325,0.04303155466914177,0.011591827496886253,-0.028973570093512535,-0.13225683569908142,0.10192479193210602,-0.10262124240398407,3,-11,-990,-131,102,-103,9,53,-146,43584.0
02:05:11.300,AUTO,-35.3632612,149.1652423,3707,-0.0008038374944590032,0.023739933967590332,-0.04997128248214722,-0.16922016441822052,0.004262816160917282,-0.07506626844406128,6,-12,-1001,-168,4,-75,7,54,-145,43584.0
02:05:11.514,AUTO,-35.363261,149.1652437,4086,-0.025735417380928993,0.020964395254850388,-0.06483656167984009,-0.05696409195661545,-0.01646997407078743,-0.056590043008327484,4,-10,-1011,-56,-16,-57,2,47,-148,43584.0
02:05:11.746,AUTO,-35.3632609,149.1652449,4471,-0.03480663523077965,0.01597771979868412,-0.0758669376373291,-0.033774483948946,-0.016909146681427956,-0.042920880019664764,5,-9,-1005,-33,-16,-43,0,37,-150,43584.0
02:05:12.035,AUTO,-35.3632609,149.1652457,4858,-0.04729714244604111,0.00978739745914936,-0.08295787125825882,-0.06431342661380768,-0.02868497371673584,-0.02259264886379242,4,-6,-1001,-63,-27,-23,-2,25,-150,43584.0
02:05:12.294,AUTO,-35.3632609,149.1652457,4858,-0.04729714244604111,0.00978739745914936,-0.08295787125825882,-0.06431342661380768,-0.02868497371673584,-0.02259264886379242,4,-6,-1001,-63,-27,-23,-2,25,-150,43584.0
02:05:12.503,AUTO,-35.3632609,149.1652457,4858,-0.04729714244604111,0.00978739745914936,-0.08295787125825882,-0.06431342661380768,-0.02868497371673584,-0.02259264886379242,4,-6,-1001,-63,-27,-23,-2,25,-150,43584.0
02:05:12.705,AUTO,-35.363261,149.1652457,6010,-0.06808479875326157,-0.007393721956759691,-0.08819907903671265,0.05029621347784996,-0.0031107193790376186,-0.007487569935619831,-1,3,-1002,51,-2,-7,-2,-27,-150,43584.0
02:05:12.906,AUTO,-35.363261,149.1652457,6010,-0.06808479875326157,-0.007393721956759691,-0.08819907903671265,0.05029621347784996,-0.0031107193790376186,-0.007487569935619831,-1,3,-1002,51,-2,-7,-2,-27,-150,56065.0
02:05:13.108,AUTO,-35.3632611,149.1652448,6395,-0.054527174681425095,-0.007635535206645727,-0.09008576720952988,0.056328482925891876,0.001325505319982767,-0.004049843177199364,-3,5,-1000,57,2,-4,-2,-41,-150,56065.0
02:05:13.309,AUTO,-35.3632611,149.1652435,6780,-0.03975346311926842,-0.006497249007225037,-0.09151111543178558,0.060299985110759735,0.007095675449818373,-0.001575283706188202,-6,10,-1001,61,7,-2,-2,-51,-150,56065.0
02:05:13.511,AUTO,-35.3632612,149.165242,7165,-0.02406170777976513,-0.004146077204495668,-0.09231262654066086,0.06374527513980865,0.01100328378379345,0.0002712809364311397,-6,9,-1002,64,11,0,-2,-58,-151,56065.0
02:05:13.713,AUTO,-35.3632613,149.1652403,7553,-0.007702108472585678,-0.000989985535852611,-0.09251352399587631,0.06553208827972412,0.013148915022611618,0.00163836102001369,-7,11,-1003,66,13,1,-3,-59,-151,56065.0
02:05:13.915,AUTO,-35.3632613,149.1652403,7553,-0.007702108472585678,-0.000989985535852611,-0.09251352399587631,0.06553208827972412,0.013148915022611618,0.00163836102001369,-7,11,-1003,66,13,1,-3,-59,-151,56065.0
02:05:14.117,AUTO,-35.3632614,149.1652387,7942,0.008649817667901516,0.0023781885392963886,-0.0922250971198082,0.06666295975446701,0.01343037560582161,0.002801273949444294,-6,9,-1004,67,13,2,-5,-56,-152,56065.0
02:05:14.319,AUTO,-35.3632614,149.1652387,7942,0.008649817667901516,0.0023781885392963886,-0.0922250971198082,0.06666295975446701,0.01343037560582161,0.002801273949444294,-6,9,-1004,67,13,2,-5,-56,-152,56065.0
02:05:14.521,AUTO,-35.3632614,149.1652387,7942,0.008649817667901516,0.0023781885392963886,-0.0922250971198082,0.06666295975446701,0.01343037560582161,0.002801273949444294,-6,9,-1004,67,13,2,-5,-56,-152,56065.0
02:05:14.723,AUTO,-35.3632619,149.1652349,9120,0.056665778160095215,0.009536085650324821,-0.08915328979492188,0.060173701494932175,0.0037042819894850254,0.0043203881941735744,-4,9,-1002,61,4,4,-9,-26,-154,56065.0
02:05:14.924,AUTO,-35.3632619,149.1652349,9120,0.056665778160095215,0.009536085650324821,-0.08915328979492188,0.060173701494932175,0.0037042819894850254,0.0043203881941735744,-4,9,-1002,61,4,4,-9,-26,-154,56065.0
02:05:15.126,AUTO,-35.3632621,149.1652343,9514,0.06872305274009705,0.007789172697812319,-0.08568218350410461,0.017653372138738632,-0.030379002913832664,0.039988212287425995,0,4,-997,18,-29,39,-10,-9,-154,56065.0
02:05:15.327,AUTO,-35.3632623,149.1652342,9904,0.05904882773756981,-0.004315427970141172,-0.07673412561416626,-0.07892095297574997,-0.037513889372348785,0.031771399080753326,1,2,-992,-77,-36,31,-9,6,-152,56065.0
02:05:15.529,AUTO,-35.3632625,149.1652345,10288,0.03552911803126335,-0.00883367657661438,-0.07354019582271576,-0.09655016660690308,-0.001953002531081438,0.004889377858489752,2,0,-996,-95,-1,4,-5,16,-150,56065.0
02:05:15.731,AUTO,-35.3632626,149.1652349,10671,0.013471259735524654,-0.008011836558580399,-0.07545655220746994,-0.07356953620910645,0.005678356625139713,-0.011311396956443787,2,-2,-1001,-72,6,-11,-1,21,-150,56065.0
02:05:15.952,AUTO,-35.3632626,149.1652353,11054,-0.0020214689429849386,-0.006537394132465124,-0.08056893944740295,-0.05039229616522789,0.005227251444011927,-0.023890860378742218,2,-5,-1003,-49,5,-24,1,20,-150,56065.0
02:05:16.200,AUTO,-35.3632626,149.1652353,11054,-0.0020214689429849386,-0.006537394132465124,-0.08056893944740295,-0.05039229616522789,0.005227251444011927,-0.023890860378742218,2,-5,-1003,-49,5,-24,1,20,-150,56065.0
02:05:16.502,AUTO,-35.3632626,149.1652353,11054,-0.0020214689429849386,-0.006537394132465124,-0.08056893944740295,-0.05039229616522789,0.005227251444011927,-0.023890860378742218,2,-5,-1003,-49,5,-24,1,20,-150,56065.0
02:05:16.735,AUTO,-35.3632624,149.1652363,12214,-0.01597488299012184,-0.0022752133663743734,-0.10397189110517502,0.005890980828553438,0.0070598674938082695,-0.03187117353081703,0,-2,-1002,6,7,-32,5,6,-152,56065.0
02:05:16.942,AUTO,-35.3632623,149.1652364,12604,-0.01349385641515255,-0.000516762025654316,-0.11214938759803772,0.013152044266462326,0.006717761047184467,-0.02767486497759819,0,-2,-1002,6,7,-32,5,1,-153,56065.0
02:05:17.144,AUTO,-35.3632623,149.1652364,12604,-0.01349385641515255,-0.000516762025654316,-0.11214938759803772,0.013152044266462326,0.006717761047184467,-0.02767486497759819,0,-1,-1001,13,7,-28,5,1,-153,56065.0
02:05:17.346,AUTO,-35.3632621,149.1652364,12997,-0.009828642010688782,0.000784078030847013,-0.11947930604219437,0.015978269279003143,0.005304607562720776,-0.02544739469885826,-1,0,-1000,16,5,-25,5,-2,-153,56065.0
02:05:17.548,AUTO,-35.363262,149.1652363,13387,-0.0057712122797966,0.002138027921319008,-0.12612631916999817,0.018541863188147545,0.007289641071110964,-0.02568705566227436,-2,0,-1000,19,7,-25,5,-4,-153,56065.0
02:05:17.749,AUTO,-35.3632618,149.1652362,13777,-0.001488200738094747,0.0038509403821080923,-0.13230203092098236,0.017419740557670593,0.007239225786179304,-0.022298820316791534,-2,0,-1000,18,7,-22,4,-6,-153,26862.0
02:05:17.951,AUTO,-35.3632617,149.165236,14167,0.0027421985287219286,0.005558772478252649,-0.13791467249393463,0.015493341721594334,0.005933820270001888,-0.01730668544769287,-1,0,-1000,16,6,-17,3,-6,-153,26862.0
02:05:18.153,AUTO,-35.3632617,149.165236,14167,0.0027421985287219286,0.005558772478252649,-0.13791467249393463,0.015493341721594334,0.005933820270001888,-0.01730668544769287,-1,0,-1000,16,6,-17,3,-6,-153,26862.0
02:05:18.355,AUTO,-35.3632617,149.165236,14167,0.0027421985287219286,0.005558772478252649,-0.13791467249393463,0.015493341721594334,0.005933820270001888,-0.01730668544769287,-1,0,-1000,16,6,-17,3,-6,-153,26862.0
02:05:18.557,AUTO,-35.3632617,149.165236,14167,0.0027421985287219286,0.005558772478252649,-0.13791467249393463,0.015493341721594334,0.005933820270001888,-0.01730668544769287,-1,0,-1000,16,6,-17,3,-6,-153,26862.0
02:05:18.759,AUTO,-35.3632616,149.1652355,15333,0.008954552002251148,0.007298529613763094,-0.1503198742866516,0.0018939292058348656,-0.0006701272213831544,-0.012491614557802677,-1,0,-999,2,0,-12,0,-2,-153,26862.0
02:05:18.961,AUTO,-35.3632616,149.1652354,15723,0.00930094625800848,0.007039748132228851,-0.15334424376487732,0.000490758684463799,-0.0010186118306592107,-0.010263974778354168,0,0,-1000,1,0,-10,-1,0,-153,26862.0
02:05:19.162,AUTO,-35.3632616,149.1652354,15723,0.00930094625800848,0.007039748132228851,-0.15334424376487732,0.000490758684463799,-0.0010186118306592107,-0.010263974778354168,0,0,-1000,1,0,-10,-1,0,-153,26862.0
02:05:19.364,AUTO,-35.3632616,149.1652354,16113,0.009013394825160503,0.006402242928743362,-0.1560700684785843,-0.0020817704498767853,-0.0033111886586993933,-0.011519487015902996,0,0,-999,-1,-2,-11,-2,1,-153,26862.0
02:05:19.566,AUTO,-35.3632616,149.1652354,16503,0.008186512626707554,0.00588983716443181,-0.15903986990451813,-0.0026605138555169106,-0.002267110161483288,-0.013134701177477837,0,0,-1000,-1,-1,-13,-2,3,-153,26862.0
02:05:19.769,AUTO,-35.3632616,149.1652354,16892,0.007229435723274946,0.005573328118771315,-0.1623806208372116,-0.004492730833590031,-9.350426262244582e-05,-0.013842342421412468,0,0,-1000,-3,0,-13,-3,4,-153,26862.0
02:05:19.970,AUTO,-35.3632616,149.1652354,17281,0.006304226350039244,0.005254068411886692,-0.1659436970949173,-0.0015498788561671972,-0.0012042979942634702,-0.013664060272276402,0,0,-1000,0,0,-13,-3,5,-153,26862.0
02:05:20.172,AUTO,-35.3632616,149.1652354,17281,0.006304226350039244,0.005254068411886692,-0.1659436970949173,-0.0015498788561671972,-0.0012042979942634702,-0.013664060272276402,0,0,-1000,0,0,-13,-3,5,-153,26862.0
02:05:20.374,AUTO,-35.3632616,149.1652354,17281,0.006304226350039244,0.005254068411886692,-0.1659436970949173,-0.0015498788561671972,-0.0012042979942634702,-0.013664060272276402,0,0,-1000,0,0,-13,-3,5,-153,26862.0
02:05:20.575,AUTO,-35.3632616,149.1652354,17281,0.006304226350039244,0.005254068411886692,-0.1659436970949173,-0.0015498788561671972,-0.0012042979942634702,-0.013664060272276402,0,0,-1000,0,0,-13,-3,5,-153,26862.0
02:05:20.777,AUTO,-35.3632616,149.1652357,18451,0.0031768353655934334,0.003998968750238419,-0.17825697362422943,-0.00039933453081175685,0.00027002772549167275,-0.01786945015192032,0,0,-1000,0,0,-18,-3,6,-153,26862.0
02:05:20.978,AUTO,-35.3632617,149.1652358,18840,0.002761175623163581,0.0036487861070781946,-0.18268243968486786,0.0005836653290316463,-0.001489852205850184,-0.015459119342267513,0,0,-1001,1,0,-15,-3,6,-153,26862.0
02:05:21.196,AUTO,-35.3632617,149.1652358,18840,0.002761175623163581,0.0036487861070781946,-0.18268243968486786,0.0005836653290316463,-0.001489852205850184,-0.015459119342267513,0,0,-1001,1,0,-15,-3,6,-153,26862.0
02:05:21.441,AUTO,-35.3632617,149.165236,19617,-0.01743706315755844,0.0029549552127718925,-0.19233793020248413,-0.09425555914640427,0.00021281931549310684,-0.021148497238755226,0,0,-995,-93,0,-21,-3,3,-152,26862.0
02:05:21.676,AUTO,-35.3632617,149.165236,19617,-0.01743706315755844,0.0029549552127718925,-0.19233793020248413,-0.09425555914640427,0.00021281931549310684,-0.021148497238755226,0,0,-995,-93,0,-21,-3,3,-152,26862.0
02:05:21.894,AUTO,-35.3632618,149.1652359,20009,-0.042885057628154755,0.004245066083967686,-0.19419167935848236,-0.08216246962547302,0.031017407774925232,0.04426850751042366,0,0,-987,-81,31,44,-5,-4,-150,26862.0
02:05:22.106,AUTO,-35.3632619,149.1652357,20385,-0.051599930971860886,0.02650505118072033,-0.15132805705070496,-0.016593322157859802,0.10476981848478317,0.2894916534423828,0,2,-981,-15,105,289,-10,-16,-145,26862.0
02:05:22.308,AUTO,-35.3632619,149.1652357,20385,-0.051599930971860886,0.02650505118072033,-0.15132805705070496,-0.016593322157859802,0.10476981848478317,0.2894916534423828,0,2,-981,-15,105,289,-10,-16,-145,26862.0
02:05:22.513,AUTO,-35.3632619,149.1652357,20385,-0.051599930971860886,0.02650505118072033,-0.15132805705070496,-0.016593322157859802,0.10476981848478317,0.2894916534423828,0,2,-981,-15,105,289,-10,-16,-145,26862.0
02:05:22.715,AUTO,-35.3632634,149.1652332,21398,0.006598607171326876,-0.005412665195763111,0.08360818773508072,0.13313327729701996,-0.15388208627700806,0.06567099690437317,2,11,-955,133,-153,65,-33,-35,-118,26862.0
02:05:22.917,AUTO,-35.3632634,149.1652332,21398,0.006598607171326876,-0.005412665195763111,0.08360818773508072,0.13313327729701996,-0.15388208627700806,0.06567099690437317,2,11,-955,133,-153,65,-33,-35,-118,82087.0
02:05:23.119,AUTO,-35.363264,149.1652322,21684,0.03475102409720421,-0.03271887078881264,0.08568452298641205,0.09329569339752197,-0.07071088254451752,-0.030993904918432236,2,10,-959,94,-70,-31,-28,-28,-107,82087.0
02:05:23.321,AUTO,-35.3632645,149.1652316,21944,0.052189238369464874,-0.04212053492665291,0.07497424632310867,0.04990720748901367,-0.01879415661096573,-0.0503874197602272,1,7,-962,50,-18,-50,-18,-15,-97,82087.0
02:05:23.522,AUTO,-35.3632648,149.1652313,22178,0.05846310779452324,-0.04153040423989296,0.06443391740322113,0.005281215533614159,0.011527327820658684,-0.037185732275247574,1,2,-966,6,12,-37,-9,-1,-88,82087.0
02:05:23.724,AUTO,-35.3632648,149.1652314,22390,0.056031521409749985,-0.03632916137576103,0.0577736459672451,-0.018806830048561096,0.02654474973678589,-0.019259337335824966,0,0,-969,-17,27,-19,0,12,-79,82087.0
02:05:23.926,AUTO,-35.3632648,149.1652314,22390,0.056031521409749985,-0.03632916137576103,0.0577736459672451,-0.018806830048561096,0.02654474973678589,-0.019259337335824966,0,0,-969,-17,27,-19,0,12,-79,82087.0
02:05:24.128,AUTO,-35.3632648,149.1652317,22582,0.04841522127389908,-0.028544466942548752,0.05493975803256035,-0.03155868873000145,0.033567532896995544,-0.004812194500118494,0,-4,-972,-30,34,-5,7,23,-72,82087.0
02:05:24.330,AUTO,-35.3632648,149.1652317,22582,0.04841522127389908,-0.028544466942548752,0.05493975803256035,-0.03155868873000145,0.033567532896995544,-0.004812194500118494,0,-4,-972,-30,34,-5,7,23,-72,82087.0
02:05:24.532,AUTO,-35.3632648,149.1652317,22582,0.04841522127389908,-0.028544466942548752,0.05493975803256035,-0.03155868873000145,0.033567532896995544,-0.004812194500118494,0,-4,-972,-30,34,-5,7,23,-72,82087.0
02:05:24.734,AUTO,-35.3632638,149.1652342,23050,0.01660902611911297,-0.0022375944536179304,0.05307363346219063,-0.03472213074564934,0.03116416558623314,0.0028304627630859613,0,-10,-977,-33,31,2,19,39,-53,82087.0
02:05:24.935,AUTO,-35.3632633,149.1652352,23177,0.007663518190383911,0.004780334886163473,0.05255589261651039,-0.032765086740255356,0.025265078991651535,0.0010511415312066674,1,-11,-978,-31,26,0,19,38,-48,82087.0
02:05:25.137,AUTO,-35.3632633,149.1652352,23177,0.007663518190383911,0.004780334886163473,0.05255589261651039,-0.032765086740255356,0.025265078991651535,0.0010511415312066674,1,-11,-978,-31,26,0,19,38,-48,82087.0
02:05:25.339,AUTO,-35.3632628,149.1652362,23287,0.00022814275871496648,0.009887512773275375,0.051545388996601105,-0.032815705984830856,0.017853835597634315,0.0015487028285861015,0,-10,-978,-31,18,1,18,36,-42,82087.0
02:05:25.541,AUTO,-35.3632624,149.1652371,23384,-0.005602893885225058,0.013246207498013973,0.05092974379658699,-0.015248079784214497,0.01131930947303772,0.0005480622639879584,0,-8,-977,-14,12,0,16,32,-37,82087.0
02:05:25.744,AUTO,-35.363262,149.1652379,23466,-0.009006877429783344,0.014823058620095253,0.0502714179456234,0.0020915756467729807,0.004687997978180647,0.0007992093451321125,0,-7,-976,3,5,0,13,28,-31,82087.0
02:05:25.964,AUTO,-35.3632617,149.1652386,23534,-0.011474618688225746,0.01544314157217741,0.049450669437646866,-0.031541816890239716,0.0018659215420484543,-0.0023062778636813164,0,-7,-974,-30,2,-2,10,23,-24,82087.0
02:05:26.200,AUTO,-35.3632617,149.1652386,23534,-0.011474618688225746,0.01544314157217741,0.049450669437646866,-0.031541816890239716,0.0018659215420484543,-0.0023062778636813164,0,-7,-974,-30,2,-2,10,23,-24,82087.0
02:05:26.428,AUTO,-35.3632617,149.1652386,23534,-0.011474618688225746,0.01544314157217741,0.049450669437646866,-0.031541816890239716,0.0018659215420484543,-0.0023062778636813164,0,-7,-974,-30,2,-2,10,23,-24,82087.0
02:05:26.654,AUTO,-35.3632617,149.1652386,23534,-0.011474618688225746,0.01544314157217741,0.049450669437646866,-0.031541816890239716,0.0018659215420484543,-0.0023062778636813164,0,-7,-974,-30,2,-2,10,23,-24,82087.0
02:05:26.910,AUTO,-35.3632611,149.16524,23622,-0.049883220344781876,0.02450677566230297,0.04445342719554901,-0.8208411931991577,0.06783362478017807,-0.011521953158080578,0,-32,-911,-820,68,-11,0,5,6,82087.0
02:05:27.113,AUTO,-35.3632611,149.16524,23577,-0.045019134879112244,0.022798828780651093,0.04499765858054161,-0.5745348930358887,-0.061467740684747696,-0.015461470931768417,0,-15,-991,-573,-60,-15,-4,-3,21,82087.0
02:05:27.315,AUTO,-35.3632611,149.1652399,23523,-0.017775647342205048,0.0010542541276663542,0.04500240460038185,0.3542821407318115,-0.0828913077712059,-0.012648661620914936,0,37,-991,356,-81,-12,-6,-7,18,82087.0
02:05:27.524,AUTO,-35.3632611,149.1652399,23523,-0.017775647342205048,0.0010542541276663542,0.04500240460038185,0.3542821407318115,-0.0828913077712059,-0.012648661620914936,0,37,-991,356,-81,-12,-6,-7,18,82087.0
02:05:27.726,AUTO,-35.3632612,149.1652397,23468,0.017300503328442574,-0.017120711505413055,0.04367896169424057,0.5392118096351624,-0.05616702884435654,-0.016736965626478195,-3,40,-1016,541,-55,-16,-4,-6,17,51714.0
02:05:27.928,AUTO,-35.3632612,149.1652395,23427,0.045112717896699905,-0.03033670224249363,0.04209692403674126,0.810069739818573,-0.04557246342301369,-0.006584574468433857,-1,35,-1035,811,-44,-6,1,0,9,51714.0
02:05:28.130,AUTO,-35.3632612,149.1652395,23401,0.05941416323184967,-0.039109013974666595,0.04137669876217842,0.16870996356010437,-0.03005949780344963,-0.0014976055826991796,-1,-16,-1008,168,-29,-1,10,9,5,51714.0
02:05:28.331,AUTO,-35.3632612,149.1652395,23401,0.05941416323184967,-0.039109013974666595,0.04137669876217842,0.16870996356010437,-0.03005949780344963,-0.0014976055826991796,-1,-16,-1008,168,-29,-1,10,9,5,51714.0
02:05:28.533,AUTO,-35.3632612,149.1652395,23401,0.05941416323184967,-0.039109013974666595,0.04137669876217842,0.16870996356010437,-0.03005949780344963,-0.0014976055826991796,-1,-16,-1008,168,-29,-1,10,9,5,51714.0
02:05:28.736,AUTO,-35.3632612,149.1652395,23401,0.05941416323184967,-0.039109013974666595,0.04137669876217842,0.16870996356010437,-0.03005949780344963,-0.0014976055826991796,-1,-16,-1008,168,-29,-1,10,9,5,51714.0
02:05:28.938,AUTO,-35.3632594,149.1652415,23371,0.09493115544319153,-0.060241010040044785,0.0791887417435646,0.31293413043022156,-0.01849956251680851,0.15400701761245728,-4,6,-1017,314,-17,153,42,58,-2,51714.0
02:05:29.141,AUTO,-35.3632583,149.165243,23371,0.11180673539638519,-0.06936443597078323,0.11727003008127213,0.4174310863018036,-0.01495013665407896,0.15970413386821747,-4,-14,-1013,417,-14,159,56,77,-3,51714.0
02:05:29.343,AUTO,-35.3632569,149.1652451,23372,0.11285701394081116,-0.07795004546642303,0.15305200219154358,-0.21960648894309998,-0.01541377604007721,0.15546342730522156,-5,-46,-1004,-219,-14,155,70,98,-2,51714.0
02:05:29.546,AUTO,-35.3632552,149.1652478,23374,0.11713133752346039,-0.08541261404752731,0.18620505928993225,-0.24778249859809875,-0.015649573877453804,0.14117014408111572,-6,-34,-1010,-246,-14,140,84,121,-3,51714.0
02:05:29.749,AUTO,-35.3632552,149.1652478,23374,0.11713133752346039,-0.08541261404752731,0.18620505928993225,-0.24778249859809875,-0.015649573877453804,0.14117014408111572,-6,-34,-1010,-246,-14,140,84,121,-3,51714.0
02:05:29.951,AUTO,-35.3632531,149.1652511,23377,0.12413196265697479,-0.09273206442594528,0.2188653200864792,0.2314593493938446,-0.01633431576192379,0.14271272718906403,-8,-11,-1007,233,-15,142,100,145,-3,51714.0
02:05:30.154,AUTO,-35.3632507,149.1652552,23379,0.13486169278621674,-0.10218255966901779,0.25104278326034546,0.5756428241729736,-0.0340670607984066,0.13180698454380035,-13,-30,-1015,577,-33,132,115,168,-3,51714.0
02:05:30.357,AUTO,-35.3632507,149.1652552,23379,0.13486169278621674,-0.10218255966901779,0.25104278326034546,0.5756428241729736,-0.0340670607984066,0.13180698454380035,-13,-30,-1015,577,-33,132,115,168,-3,51714.0
02:05:30.559,AUTO,-35.3632507,149.1652552,23379,0.13486169278621674,-0.10218255966901779,0.25104278326034546,0.5756428241729736,-0.0340670607984066,0.13180698454380035,-13,-30,-1015,577,-33,132,115,168,-3,51714.0
02:05:30.761,AUTO,-35.3632507,149.1652552,23379,0.13486169278621674,-0.10218255966901779,0.25104278326034546,0.5756428241729736,-0.0340670607984066,0.13180698454380035,-13,-30,-1015,577,-33,132,115,168,-3,51714.0
02:05:30.964,AUTO,-35.3632415,149.1652716,23384,0.13121145963668823,-0.1315585970878601,0.3465367555618286,-0.2868327796459198,0.015128783881664276,0.12660644948482513,-26,-71,-1012,-285,15,126,166,243,-3,51714.0
02:05:31.180,AUTO,-35.3632377,149.1652786,23388,0.13131077587604523,-0.1323392540216446,0.3795869052410126,0.19283267855644226,0.013173017650842667,0.11563818901777267,-28,-59,-1012,194,13,115,183,268,-4,51714.0
02:05:31.491,AUTO,-35.3632335,149.1652863,23397,0.12762130796909332,-0.13270065188407898,0.41287821531295776,0.16000361740589142,0.01505985762923956,0.12082543969154358,-37,-71,-1011,160,15,120,200,290,-6,51714.0
02:05:31.733,AUTO,-35.3632288,149.1652947,23408,0.12306792289018631,-0.13477548956871033,0.4456388056278229,-0.13082414865493774,0.0011386056430637836,0.12316726893186569,-54,-92,-1008,-129,1,122,216,311,-7,51714.0
02:05:32.092,AUTO,-35.3632185,149.1653133,23435,0.12126597762107849,-0.14781594276428223,0.5100246667861938,0.13351328670978546,-0.009806609712541103,0.12073032557964325,-48,-74,-1004,135,-9,120,247,353,-7,51714.0
02:05:32.299,AUTO,-35.3632185,149.1653133,23435,0.12126597762107849,-0.14781594276428223,0.5100246667861938,0.13351328670978546,-0.009806609712541103,0.12073032557964325,-48,-74,-1004,135,-9,120,247,353,-7,51714.0
02:05:32.507,AUTO,-35.3632185,149.1653133,23435,0.12126597762107849,-0.14781594276428223,0.5100246667861938,0.13351328670978546,-0.009806609712541103,0.12073032557964325,-48,-74,-1004,135,-9,120,247,353,-7,51714.0
02:05:32.709,AUTO,-35.3632185,149.1653133,23435,0.12126597762107849,-0.14781594276428223,0.5100246667861938,0.13351328670978546,-0.009806609712541103,0.12073032557964325,-48,-74,-1004,135,-9,120,247,353,-7,51714.0
02:05:32.912,AUTO,-35.3632005,149.1653453,23475,0.12266136705875397,-0.16904620826244354,0.601845920085907,0.002931442577391863,-0.0055924709886312485,0.12016163021326065,-73,-85,-999,4,-4,120,293,414,-7,69402.0
02:05:33.114,AUTO,-35.3631938,149.1653572,23489,0.11546531319618225,-0.17544379830360413,0.6566882133483887,0.02075767144560814,-0.0019926319364458323,0.3806055188179016,-90,-72,-1001,22,-1,380,307,435,-8,69402.0
02:05:33.316,AUTO,-35.3631868,149.1653695,23507,0.08848147839307785,-0.18744517862796783,0.8233826160430908,0.05746931582689285,0.022782357409596443,0.7850478291511536,-103,-86,-1012,58,23,784,323,453,-10,69402.0
02:05:33.517,AUTO,-35.3631868,149.1653695,23507,0.08848147839307785,-0.18744517862796783,0.8233826160430908,0.05746931582689285,0.022782357409596443,0.7850478291511536,-103,-86,-1012,58,23,784,323,453,-10,69402.0
02:05:33.720,AUTO,-35.3631794,149.1653824,23532,0.06619319319725037,-0.18708300590515137,0.9872238636016846,0.01009662076830864,0.07284898310899734,0.46458154916763306,-106,-65,-1002,11,73,464,335,471,-12,69402.0
02:05:33.922,AUTO,-35.3631718,149.1653958,23565,0.05780632421374321,-0.18078888952732086,1.0534650087356567,0.025750836357474327,0.03433949500322342,0.10130918771028519,-114,-55,-1000,26,35,100,342,486,-16,69402.0
02:05:34.124,AUTO,-35.363164,149.1654095,23602,0.055978186428546906,-0.18093863129615784,1.0538203716278076,-0.01501631923019886,-0.0295037180185318,-0.05553608760237694,-124,-46,-986,-13,-28,-55,348,499,-16,69402.0
02:05:34.326,AUTO,-35.363164,149.1654095,23602,0.055978186428546906,-0.18093863129615784,1.0538203716278076,-0.01501631923019886,-0.0295037180185318,-0.05553608760237694,-124,-46,-986,-13,-28,-55,348,499,-16,69402.0
02:05:34.528,AUTO,-35.363164,149.1654095,23602,0.055978186428546906,-0.18093863129615784,1.0538203716278076,-0.01501631923019886,-0.0295037180185318,-0.05553608760237694,-124,-46,-986,-13,-28,-55,348,499,-16,69402.0
02:05:34.729,AUTO,-35.363164,149.1654095,23602,0.055978186428546906,-0.18093863129615784,1.0538203716278076,-0.01501631923019886,-0.0295037180185318,-0.05553608760237694,-124,-46,-986,-13,-28,-55,348,499,-16,69402.0
02:05:34.932,AUTO,-35.3631398,149.1654527,23704,0.06796228140592575,-0.1731177717447281,0.9974727034568787,0.017537452280521393,0.012806951068341732,-0.032113686203956604,-140,-73,-992,18,13,-32,372,532,-15,69402.0
02:05:35.134,AUTO,-35.3631312,149.1654679,23739,0.07063515484333038,-0.17008760571479797,0.9931299686431885,0.005359680391848087,0.02142038196325302,-0.009075756184756756,-140,-60,-988,6,22,-9,377,540,-15,69402.0
02:05:35.336,AUTO,-35.3631226,149.1654831,23773,0.06921219080686569,-0.16289952397346497,0.9934300184249878,0.00675374548882246,0.028789279982447624,0.007550022564828396,-144,-88,-998,8,29,7,382,548,-16,69402.0
02:05:35.539,AUTO,-35.363114,149.1654983,23811,0.07401511073112488,-0.15680482983589172,0.9946590662002563,-0.0026772543787956238,0.021226294338703156,0.004881769884377718,-136,-74,-991,-1,22,4,386,553,-16,69402.0
02:05:35.741,AUTO,-35.363114,149.1654983,23811,0.07401511073112488,-0.15680482983589172,0.9946590662002563,-0.0026772543787956238,0.021226294338703156,0.004881769884377718,-136,-74,-991,-1,22,4,386,553,-16,69402.0
02:05:35.960,AUTO,-35.3631053,149.1655139,23849,0.07692184299230576,-0.14838160574436188,0.9955915808677673,-0.012256985530257225,0.04165387526154518,0.0011078666429966688,-135,-74,-992,-11,42,0,389,558,-17,69402.0
02:05:36.190,AUTO,-35.3630965,149.1655295,23890,0.07765340805053711,-0.1378590315580368,0.9955642819404602,0.012221607379615307,0.057491838932037354,0.0028748351614922285,-132,-76,-993,13,58,2,391,561,-18,69402.0
02:05:36.417,AUTO,-35.3630965,149.1655295,23890,0.07765340805053711,-0.1378590315580368,0.9955642819404602,0.012221607379615307,0.057491838932037354,0.0028748351614922285,-132,-76,-993,13,58,2,391,561,-18,69402.0
02:05:36.624,AUTO,-35.3630965,149.1655295,23890,0.07765340805053711,-0.1378590315580368,0.9955642819404602,0.012221607379615307,0.057491838932037354,0.0028748351614922285,-132,-76,-993,13,58,2,391,561,-18,69402.0
02:05:36.875,AUTO,-35.3630701,149.1655762,24019,0.08044936507940292,-0.12275953590869904,0.9939173460006714,0.011288223788142204,-0.04877534136176109,-0.0011306351516395807,-131,-71,-966,12,-47,-1,387,558,-16,69402.0
02:05:37.077,AUTO,-35.3630614,149.1655917,24050,0.08312330394983292,-0.1327669769525528,0.9931356310844421,0.03060733526945114,-0.023346975445747375,-0.004844711162149906,-152,-106,-984,32,-22,-4,386,557,-11,69402.0
02:05:37.279,AUTO,-35.3630614,149.1655917,24050,0.08312330394983292,-0.1327669769525528,0.9931356310844421,0.03060733526945114,-0.023346975445747375,-0.004844711162149906,-152,-106,-984,32,-22,-4,386,557,-11,69402.0
02:05:37.482,AUTO,-35.3630527,149.1656072,24071,0.08216425031423569,-0.13810284435749054,0.9922803044319153,-0.024782130494713783,-0.019413815811276436,0.0054038651287555695,-136,-79,-979,-23,-18,5,385,558,-8,1992.0
02:05:37.684,AUTO,-35.363044,149.1656227,24086,0.07693430781364441,-0.14007680118083954,0.9921925663948059,-0.03679638355970383,-0.019624898210167885,0.0034707454033195972,-151,-66,-991,-36,-19,3,384,560,-7,1992.0
02:05:37.886,AUTO,-35.3630354,149.1656382,24098,0.07667226344347,-0.14354683458805084,0.9916647672653198,0.029648413881659508,-0.009582407772541046,-0.008674224838614464,-158,-59,-995,30,-8,-8,386,562,-6,1992.0
02:05:38.088,AUTO,-35.3630266,149.165654,24110,0.07594537734985352,-0.14135901629924774,0.9910721778869629,0.0034170332364737988,0.023102397099137306,0.005225372035056353,-122,-79,-994,4,24,4,388,565,-6,1992.0
02:05:38.290,AUTO,-35.3630266,149.165654,24110,0.07594537734985352,-0.14135901629924774,0.9910721778869629,0.0034170332364737988,0.023102397099137306,0.005225372035056353,-122,-79,-994,4,24,4,388,565,-6,1992.0
02:05:38.492,AUTO,-35.3630266,149.165654,24110,0.07594537734985352,-0.14135901629924774,0.9910721778869629,0.0034170332364737988,0.023102397099137306,0.005225372035056353,-122,-79,-994,4,24,4,388,565,-6,1992.0
02:05:38.694,AUTO,-35.3630266,149.165654,24110,0.07594537734985352,-0.14135901629924774,0.9910721778869629,0.0034170332364737988,0.023102397099137306,0.005225372035056353,-122,-79,-994,4,24,4,388,565,-6,1992.0
02:05:38.905,AUTO,-35.3630003,149.1657007,24169,0.08486370742321014,-0.13609753549098969,0.9894379377365112,0.04513698071241379,-0.015475325286388397,-0.0039009179454296827,-133,-78,-983,45,-14,-4,391,565,-10,1992.0
02:05:39.106,AUTO,-35.3629914,149.1657164,24191,0.08369139581918716,-0.1342206597328186,0.9889745712280273,-0.04335553199052811,0.009194992482662201,-0.002504679374396801,-140,-74,-990,-42,9,-2,391,567,-10,1992.0
02:05:39.308,AUTO,-35.3629826,149.1657321,24214,0.08383512496948242,-0.12780269980430603,0.9882386326789856,-0.010491570457816124,0.008186022751033306,-0.0019661090336740017,-135,-73,-997,-9,9,-2,390,568,-12,1992.0
02:05:39.510,AUTO,-35.3629826,149.1657321,24214,0.08383512496948242,-0.12780269980430603,0.9882386326789856,-0.010491570457816124,0.008186022751033306,-0.0019661090336740017,-135,-73,-997,-9,9,-2,390,568,-12,1992.0
02:05:39.712,AUTO,-35.3629737,149.1657478,24242,0.08416102826595306,-0.12788984179496765,0.9883093237876892,0.025829823687672615,0.004719506483525038,-7.987946446519345e-05,-148,-90,-996,26,5,0,391,566,-12,1992.0
02:05:39.913,AUTO,-35.3629649,149.1657635,24269,0.08319339901208878,-0.12858662009239197,0.9880691170692444,-0.01070650015026331,-0.007770022377371788,0.008107788860797882,-134,-74,-986,-9,-6,7,389,566,-12,1992.0
02:05:40.116,AUTO,-35.3629562,149.165779,24296,0.08353035897016525,-0.1241183876991272,0.9879729747772217,0.0797339454293251,0.02585475891828537,-0.006571205798536539,-131,-82,-989,80,26,-6,388,565,-12,1992.0
02:05:40.318,AUTO,-35.3629562,149.165779,24296,0.08353035897016525,-0.1241183876991272,0.9879729747772217,0.0797339454293251,0.02585475891828537,-0.006571205798536539,-131,-82,-989,80,26,-6,388,565,-12,1992.0
02:05:40.520,AUTO,-35.3629562,149.165779,24296,0.08353035897016525,-0.1241183876991272,0.9879729747772217,0.0797339454293251,0.02585475891828537,-0.006571205798536539,-131,-82,-989,80,26,-6,388,565,-12,1992.0
02:05:40.722,AUTO,-35.3629562,149.165779,24296,0.08353035897016525,-0.1241183876991272,0.9879729747772217,0.0797339454293251,0.02585475891828537,-0.006571205798536539,-131,-82,-989,80,26,-6,388,565,-12,1992.0
02:05:40.924,AUTO,-35.3629304,149.1658252,24410,0.08040141314268112,-0.07720710337162018,0.9881188869476318,0.055791255086660385,0.07080528140068054,-0.013095804490149021,-138,-83,-997,56,71,-13,374,545,-19,1992.0
02:05:41.125,AUTO,-35.3629219,149.1658402,24454,0.0831020250916481,-0.06472987681627274,0.9875408411026001,0.006598133593797684,0.062150899320840836,-0.005508982576429844,-119,-70,-985,7,63,-5,366,534,-18,1992.0
02:05:41.327,AUTO,-35.3629136,149.1658549,24495,0.08069553971290588,-0.04581127688288689,0.9887017011642456,-0.03342672437429428,0.06663278490304947,-0.00412956764921546,-126,-82,-997,-32,67,-4,357,522,-18,1992.0
02:05:41.588,AUTO,-35.3629056,149.1658691,24538,0.08351518958806992,-0.03364408761262894,0.9888352155685425,0.009038690477609634,0.046273887157440186,-0.007585744373500347,-120,-81,-985,9,46,-7,346,506,-17,1992.0
02:05:41.808,AUTO,-35.3628979,149.1658828,24576,0.08235776424407959,-0.026916012167930603,0.9879752397537231,0.04991091042757034,0.024930594488978386,-0.008389129303395748,-115,-74,-981,51,25,-8,333,489,-14,1992.0
02:05:42.033,AUTO,-35.3628979,149.1658828,24576,0.08235776424407959,-0.026916012167930603,0.9879752397537231,0.04991091042757034,0.024930594488978386,-0.008389129303395748,-115,-74,-981,51,25,-8,333,489,-14,1992.0
02:05:42.268,AUTO,-35.3628904,149.165896,24607,0.08409864455461502,-0.01660589687526226,0.9878105521202087,0.05451851710677147,0.054306600242853165,-0.0016606118297204375,-115,-72,-986,55,55,-1,321,471,-11,1992.0
02:05:42.484,AUTO,-35.3628904,149.165896,24607,0.08409864455461502,-0.01660589687526226,0.9878105521202087,0.05451851710677147,0.054306600242853165,-0.0016606118297204375,-115,-72,-986,55,55,-1,321,471,-11,1992.0
02:05:42.694,AUTO,-35.3628904,149.165896,24607,0.08409864455461502,-0.01660589687526226,0.9878105521202087,0.05451851710677147,0.054306600242853165,-0.0016606118297204375,-115,-72,-986,55,55,-1,321,471,-11,1992.0
02:05:42.897,AUTO,-35.3628701,149.1659324,24665,0.0793403834104538,0.01748971827328205,0.987084686756134,0.560418963432312,0.046080004423856735,-0.035457491874694824,-87,-39,-994,562,46,-35,276,411,-4,1992.0
02:05:43.099,AUTO,-35.362864,149.1659434,24672,0.0762520581483841,0.029344335198402405,0.9877342581748962,0.8033831715583801,0.046227507293224335,-0.03335412219166756,-87,-10,-984,804,47,-33,258,388,0,1992.0
02:05:43.302,AUTO,-35.3628583,149.1659537,24673,0.07378339767456055,0.04111562669277191,0.9880816340446472,0.6132768392562866,0.03378268703818321,-0.005953609943389893,-88,-54,-1023,613,34,-6,242,363,-1,165308.0
02:05:43.503,AUTO,-35.3628583,149.1659537,24673,0.07378339767456055,0.04111562669277191,0.9880816340446472,0.6132768392562866,0.03378268703818321,-0.005953609943389893,-88,-54,-1023,613,34,-6,242,363,-1,165308.0
02:05:43.705,AUTO,-35.3628529,149.1659633,24679,0.06831219792366028,0.04825868457555771,0.9897162318229675,-0.2610497772693634,0.03264773637056351,0.03191749006509781,-81,-87,-994,-261,33,31,225,337,-1,165308.0
02:05:43.907,AUTO,-35.362848,149.1659722,24682,0.05341951176524162,0.04914438724517822,0.9905288219451904,-0.7830166816711426,-0.00610201945528388,0.014099201187491417,-79,-90,-998,-781,-5,13,206,312,-1,165308.0
02:05:44.109,AUTO,-35.3628434,149.1659805,24685,0.054623134434223175,0.047235313802957535,0.9891040325164795,-0.0892801582813263,-0.009402665309607983,-0.02588377706706524,-73,-36,-1004,-87,-8,-26,188,288,0,165308.0
02:05:44.311,AUTO,-35.3628434,149.1659805,24685,0.054623134434223175,0.047235313802957535,0.9891040325164795,-0.0892801582813263,-0.009402665309607983,-0.02588377706706524,-73,-36,-1004,-87,-8,-26,188,288,0,165308.0
02:05:44.513,AUTO,-35.3628434,149.1659805,24685,0.054623134434223175,0.047235313802957535,0.9891040325164795,-0.0892801582813263,-0.009402665309607983,-0.02588377706706524,-73,-36,-1004,-87,-8,-26,188,288,0,165308.0
02:05:44.715,AUTO,-35.3628434,149.1659805,24685,0.054623134434223175,0.047235313802957535,0.9891040325164795,-0.0892801582813263,-0.009402665309607983,-0.02588377706706524,-73,-36,-1004,-87,-8,-26,188,288,0,165308.0
02:05:44.917,AUTO,-35.3628318,149.1660015,24687,0.0505484864115715,0.06224167346954346,0.988912045955658,-0.07320093363523483,0.019786763936281204,0.011824755929410458,-56,-70,-1003,-73,20,11,142,222,0,165308.0
02:05:45.118,AUTO,-35.3628286,149.1660072,24688,0.03841782361268997,0.06704151630401611,0.9885783195495605,-0.7103677988052368,0.017644837498664856,0.008721967227756977,-51,-63,-1004,-709,18,8,126,199,0,165308.0
02:05:45.320,AUTO,-35.3628256,149.1660122,24691,0.03940044716000557,0.07307983189821243,0.9881764650344849,-0.05688166990876198,0.03752541169524193,-0.016779670491814613,-48,-14,-1001,-54,38,-17,110,177,-1,165308.0
02:05:45.522,AUTO,-35.3628256,149.1660122,24691,0.03940044716000557,0.07307983189821243,0.9881764650344849,-0.05688166990876198,0.03752541169524193,-0.016779670491814613,-48,-14,-1001,-54,38,-17,110,177,-1,165308.0
02:05:45.723,AUTO,-35.362823,149.1660167,24694,0.04794280230998993,0.08212938159704208,0.9881080389022827,0.6360755562782288,0.03847358748316765,-0.01963922567665577,-39,10,-1009,638,39,-20,93,155,0,165308.0
02:05:45.925,AUTO,-35.3628208,149.1660205,24696,0.05045931786298752,0.08902633935213089,0.9875646233558655,0.5689569711685181,0.0014009530423209071,-0.0040153213776648045,-32,-11,-1008,570,2,-4,77,132,0,165308.0
02:05:46.128,AUTO,-35.3628189,149.1660237,24698,0.0432187058031559,0.08307366073131561,0.9871639609336853,-0.1676289588212967,-0.040719520300626755,0.010939951054751873,-27,-45,-995,-167,-39,10,61,110,0,165308.0
02:05:46.329,AUTO,-35.3628189,149.1660237,24698,0.0432187058031559,0.08307366073131561,0.9871639609336853,-0.1676289588212967,-0.040719520300626755,0.010939951054751873,-27,-45,-995,-167,-39,10,61,110,0,165308.0
02:05:46.531,AUTO,-35.3628189,149.1660237,24698,0.0432187058031559,0.08307366073131561,0.9871639609336853,-0.1676289588212967,-0.040719520300626755,0.010939951054751873,-27,-45,-995,-167,-39,10,61,110,0,165308.0
