time_stamp,MODE,lat,lon,relative_alt,roll,pitch,yaw,rollspeed,pitchspeed,yawspeed,xacc,yacc,zacc,xgyro,ygyro,zgyro,vx,vy,vz,RTL_ALT
18:01:42.983,STABILIZE,-35.3632622,149.1652375,24,-0.0007131532765924931,0.0009668273269198835,0.022832347080111504,0.00022841087775304914,0.0002091474598273635,0.0015599748585373163,0,1,-1000,0,0,1,-1,1,-2,18418.0
18:01:43.185,STABILIZE,-35.3632622,149.1652375,24,-0.0007131532765924931,0.0009668273269198835,0.022832347080111504,0.00022841087775304914,0.0002091474598273635,0.0015599748585373163,0,1,-1000,0,0,1,-1,1,-2,18418.0
18:01:43.387,STABILIZE,-35.3632622,149.1652375,25,-0.0005327325779944658,0.0009669024730101228,0.02261413261294365,0.003964317496865988,0.0002192431129515171,0.0016730307834222913,0,-28,-1045,4,1,0,-1,0,-3,18418.0
18:01:43.588,STABILIZE,-35.3632622,149.1652375,25,-0.0005327325779944658,0.0009669024730101228,0.02261413261294365,0.003964317496865988,0.0002192431129515171,0.0016730307834222913,0,-28,-1045,4,1,0,-1,0,-3,18418.0
18:01:43.790,STABILIZE,-35.3632622,149.1652375,25,-0.0005327325779944658,0.0009669024730101228,0.02261413261294365,0.003964317496865988,0.0002192431129515171,0.0016730307834222913,0,-28,-1045,4,1,0,-1,0,-3,18418.0
18:01:43.992,STABILIZE,-35.3632622,149.1652375,25,-0.0005327325779944658,0.0009669024730101228,0.02261413261294365,0.003964317496865988,0.0002192431129515171,0.0016730307834222913,0,-28,-1045,4,1,0,-1,0,-3,18418.0
18:01:44.193,STABILIZE,-35.3632622,149.1652375,25,-0.0005327325779944658,0.0009669024730101228,0.02261413261294365,0.003964317496865988,0.0002192431129515171,0.0016730307834222913,0,-28,-1045,4,1,0,-1,0,-3,18418.0
18:01:44.395,STABILIZE,-35.3632622,149.1652375,32,-0.0004695212410297245,0.0009590604458935559,0.02229931578040123,0.0003294892958365381,0.000306200934574008,0.0014602984301745892,0,1,-1000,1,0,1,-1,1,-3,18418.0
18:01:44.596,STABILIZE,-35.3632622,149.1652375,32,-0.0004695212410297245,0.0009590604458935559,0.02229931578040123,0.0003294892958365381,0.000306200934574008,0.0014602984301745892,0,1,-1000,1,0,1,-1,1,-3,18418.0
18:01:44.798,STABILIZE,-35.3632622,149.1652375,32,-0.0004695212410297245,0.0009590604458935559,0.02229931578040123,0.0003294892958365381,0.000306200934574008,0.0014602984301745892,0,1,-1000,1,0,1,-1,1,-3,18418.0
18:01:45.000,STABILIZE,-35.3632622,149.1652375,32,-0.0004695212410297245,0.0009590604458935559,0.02229931578040123,0.0003294892958365381,0.000306200934574008,0.0014602984301745892,0,1,-1000,1,0,1,-1,1,-3,18418.0
18:01:45.201,STABILIZE,-35.3632622,149.1652375,32,-0.0004695212410297245,0.0009590604458935559,0.02229931578040123,0.0003294892958365381,0.000306200934574008,0.0014602984301745892,0,1,-1000,1,0,1,-1,1,-3,18418.0
18:01:45.403,STABILIZE,-35.3632622,149.1652375,32,-0.0004695212410297245,0.0009590604458935559,0.02229931578040123,0.0003294892958365381,0.000306200934574008,0.0014602984301745892,0,1,-1000,1,0,1,-1,1,-3,18418.0
18:01:45.604,STABILIZE,-35.3632622,149.1652375,32,-0.00044005189556628466,0.0009641348151490092,0.021913766860961914,0.00021186762023717165,0.000346873770467937,0.001414296100847423,0,1,-1000,1,0,1,-1,1,-3,18418.0
18:01:45.806,STABILIZE,-35.3632622,149.1652375,32,-0.00044005189556628466,0.0009641348151490092,0.021913766860961914,0.00021186762023717165,0.000346873770467937,0.001414296100847423,0,1,-1000,1,0,1,-1,1,-3,18418.0
18:01:46.008,STABILIZE,-35.3632622,149.1652375,32,-0.00044005189556628466,0.0009641348151490092,0.021913766860961914,0.00021186762023717165,0.000346873770467937,0.001414296100847423,0,1,-1000,1,0,1,-1,1,-3,18418.0
18:01:46.210,STABILIZE,-35.3632622,149.1652375,32,-0.00044005189556628466,0.0009641348151490092,0.021913766860961914,0.00021186762023717165,0.000346873770467937,0.001414296100847423,0,1,-1000,1,0,1,-1,1,-3,18418.0
18:01:46.412,STABILIZE,-35.3632622,149.1652375,27,-0.00044005189556628466,0.0009641348151490092,0.021913766860961914,0.00021186762023717165,0.000346873770467937,0.001414296100847423,0,1,-1000,1,0,1,-1,2,-1,18418.0
18:01:46.614,STABILIZE,-35.3632622,149.1652375,26,-0.0005250843241810799,0.0009736504289321601,0.02161881886422634,0.00024349294835701585,0.00020347227109596133,0.0013500249478965998,0,1,-1000,1,0,1,-1,2,-1,18418.0
18:01:46.815,STABILIZE,-35.3632622,149.1652375,26,-0.0005250843241810799,0.0009736504289321601,0.02161881886422634,0.00024349294835701585,0.00020347227109596133,0.0013500249478965998,0,1,-1000,1,0,1,-1,2,-1,18418.0
18:01:47.018,AUTO,-35.3632622,149.1652375,26,-0.0005250843241810799,0.0009736504289321601,0.02161881886422634,0.00024349294835701585,0.00020347227109596133,0.0013500249478965998,0,1,-1000,1,0,1,-1,2,-1,18418.0
18:01:47.220,AUTO,-35.3632622,149.1652375,26,-0.0005250843241810799,0.0009736504289321601,0.02161881886422634,0.00024349294835701585,0.00020347227109596133,0.0013500249478965998,0,1,-1000,1,0,1,-1,2,-1,18418.0
18:01:47.422,AUTO,-35.3632622,149.1652375,4,-0.0006015048711560667,0.0009677927591837943,0.021393489092588425,0.00021938543068245053,0.0003809325862675905,0.0014233537949621677,0,1,-1000,1,0,1,-1,1,0,18418.0
18:01:47.623,AUTO,-35.3632622,149.1652375,4,-0.000617294863332063,0.0009775211801752448,0.021332209929823875,0.00035277026472613215,0.00030289182905107737,0.0013106479309499264,0,1,-1000,1,0,0,-1,1,0,18418.0
18:01:47.825,AUTO,-35.3632622,149.1652375,4,-0.000617294863332063,0.0009775211801752448,0.021332209929823875,0.00035277026472613215,0.00030289182905107737,0.0013106479309499264,0,1,-1000,1,0,0,-1,1,0,18418.0
18:01:48.026,AUTO,-35.3632621,149.1652375,4,-0.0006178495241329074,0.0009921991731971502,0.02126869186758995,0.00033238850301131606,0.0002812606398947537,0.0014610907528549433,0,1,-1000,0,0,1,-1,1,0,18418.0
18:01:48.229,AUTO,-35.3632621,149.1652375,4,-0.0006114402203820646,0.0010227968450635672,0.021204175427556038,0.00031107617542147636,0.00032177194952964783,0.0013412656262516975,0,2,-1000,0,0,0,0,0,0,18418.0
18:01:48.430,AUTO,-35.3632621,149.1652375,4,-0.0005843440303578973,0.0010611809557303786,0.021158838644623756,0.0004099473007954657,0.0003391332575120032,0.0014397085178643465,0,1,-1000,0,0,1,0,0,0,18418.0
18:01:48.632,AUTO,-35.3632621,149.1652375,4,-0.0005383802927099168,0.001116022001951933,0.021096134558320045,0.0002999396529048681,0.0003718132502399385,0.001482032472267747,0,1,-1000,0,0,1,0,0,0,18418.0
18:01:48.834,AUTO,-35.3632621,149.1652375,4,-0.0005383802927099168,0.001116022001951933,0.021096134558320045,0.0002999396529048681,0.0003718132502399385,0.001482032472267747,0,1,-1000,0,0,1,0,0,0,18418.0
18:01:49.056,AUTO,-35.3632621,149.1652375,4,-0.0005383802927099168,0.001116022001951933,0.021096134558320045,0.0002999396529048681,0.0003718132502399385,0.001482032472267747,0,1,-1000,0,0,1,0,0,0,18418.0
18:01:49.264,AUTO,-35.3632621,149.1652375,4,-0.0005383802927099168,0.001116022001951933,0.021096134558320045,0.0002999396529048681,0.0003718132502399385,0.001482032472267747,0,1,-1000,0,0,1,0,0,0,18418.0
18:01:49.489,AUTO,-35.3632621,149.1652375,2,-0.0003546992957126349,0.0013288665795698762,0.020914603024721146,0.000420332420617342,0.00022277003154158592,0.0014466836582869291,0,1,-1000,0,1,0,0,0,0,18418.0
18:01:49.715,AUTO,-35.3632621,149.1652375,2,-0.00030139111913740635,0.0014015717897564173,0.02083592861890793,0.00034418568247929215,0.0002776706242002547,0.0013551393058151007,0,1,-1000,1,1,0,0,0,0,18418.0
18:01:49.937,AUTO,-35.3632621,149.1652375,1,-0.0002387639251537621,0.0014645798364654183,0.020768161863088608,0.0003201320068910718,0.00016496540047228336,0.001360060996375978,0,1,-1000,0,1,0,0,0,0,18418.0
18:01:50.149,AUTO,-35.3632621,149.1652375,0,-0.00017518158711027354,0.0015345864230766892,0.020708072930574417,0.0002515357919037342,0.0002331265714019537,0.0013263500295579433,0,2,-1000,0,0,0,0,0,0,18418.0
18:01:50.377,AUTO,-35.3632621,149.1652375,0,-0.00010712365474319085,0.001607623416930437,0.02063072845339775,0.0004231106722727418,0.00034502928610891104,0.0013369297375902534,0,1,-1000,1,1,1,0,0,0,18418.0
18:01:50.591,AUTO,-35.3632621,149.1652375,0,-3.3217966119991615e-05,0.0016865862999111414,0.020558752119541168,0.0003260378143750131,0.0002706018858589232,0.0013054119190201163,0,1,-1000,1,0,1,0,0,0,18418.0
18:01:50.792,AUTO,-35.3632621,149.1652375,0,-3.3217966119991615e-05,0.0016865862999111414,0.020558752119541168,0.0003260378143750131,0.0002706018858589232,0.0013054119190201163,0,1,-1000,1,0,1,0,0,0,18418.0
18:01:50.995,AUTO,-35.3632621,149.1652375,0,-3.3217966119991615e-05,0.0016865862999111414,0.020558752119541168,0.0003260378143750131,0.0002706018858589232,0.0013054119190201163,0,1,-1000,1,0,1,0,0,0,18418.0
18:01:51.196,AUTO,-35.3632621,149.1652375,0,-3.3217966119991615e-05,0.0016865862999111414,0.020558752119541168,0.0003260378143750131,0.0002706018858589232,0.0013054119190201163,0,1,-1000,1,0,1,0,0,0,55991.0
18:01:51.398,AUTO,-35.3632621,149.1652375,0,-3.3217966119991615e-05,0.0016865862999111414,0.020558752119541168,0.0003260378143750131,0.0002706018858589232,0.0013054119190201163,0,1,-1000,1,0,1,0,0,0,55991.0
18:01:51.599,AUTO,-35.3632621,149.1652375,195,0.0031209862791001797,0.00015485010226257145,0.020292989909648895,-0.00313910492695868,0.0043630776926875114,0.001646252116188407,0,0,-1129,-2,4,1,0,0,-72,55991.0
18:01:51.801,AUTO,-35.3632621,149.1652375,413,0.0020471562165766954,0.001189875416457653,0.020242201164364815,-0.006480887532234192,0.0031803168822079897,0.0023011991288512945,0,0,-1108,-5,3,1,0,0,-100,55991.0
18:01:52.003,AUTO,-35.3632621,149.1652375,700,0.0017296153819188476,0.0016131550073623657,0.020182546228170395,0.005067500285804272,0.0007105297991074622,-0.0002070888876914978,0,0,-1087,5,1,0,0,0,-124,55991.0
18:01:52.204,AUTO,-35.3632621,149.1652375,1035,0.01103987731039524,0.0007723838207311928,0.019929977133870125,0.04745864123106003,-0.006115701515227556,0.001352026709355414,0,0,-1040,48,-5,1,0,1,-138,55991.0
18:01:52.406,AUTO,-35.3632621,149.1652375,1035,0.01103987731039524,0.0007723838207311928,0.019929977133870125,0.04745864123106003,-0.006115701515227556,0.001352026709355414,0,0,-1040,48,-5,1,0,1,-138,55991.0
18:01:52.608,AUTO,-35.3632621,149.1652375,1397,0.022912509739398956,-0.0009711770107969642,0.01994211971759796,0.04706411063671112,-0.007383141200989485,0.00218403828330338,0,0,-1017,47,-6,1,0,5,-144,55991.0
18:01:52.810,AUTO,-35.363262,149.1652377,1772,0.034342944622039795,-0.0028494566213339567,0.02009025774896145,0.04467668756842613,-0.007627946324646473,0.0028615763876587152,0,-1,-1007,45,-6,2,1,11,-147,55991.0
18:01:53.012,AUTO,-35.363262,149.1652377,1772,0.034342944622039795,-0.0028494566213339567,0.02009025774896145,0.04467668756842613,-0.007627946324646473,0.0028615763876587152,0,-1,-1007,45,-6,2,1,11,-147,55991.0
18:01:53.214,AUTO,-35.363262,149.1652377,1772,0.034342944622039795,-0.0028494566213339567,0.02009025774896145,0.04467668756842613,-0.007627946324646473,0.0028615763876587152,0,-1,-1007,45,-6,2,1,11,-147,55991.0
18:01:53.416,AUTO,-35.363262,149.1652377,1772,0.034342944622039795,-0.0028494566213339567,0.02009025774896145,0.04467668756842613,-0.007627946324646473,0.0028615763876587152,0,-1,-1007,45,-6,2,1,11,-147,55991.0
18:01:53.617,AUTO,-35.3632616,149.1652397,2913,0.0626300573348999,-0.009264856576919556,-0.009164197370409966,-0.009852948598563671,0.019421476870775223,-0.042412664741277695,1,-7,-992,-9,20,-42,8,43,-147,55991.0
18:01:53.819,AUTO,-35.3632614,149.165241,3291,0.04227741062641144,0.012445169501006603,-0.03131551295518875,-0.136916384100914,0.09927038848400116,-0.10327056050300598,2,-11,-991,-136,99,-103,10,53,-145,55991.0
18:01:54.021,AUTO,-35.3632611,149.1652424,3664,-0.0009950929088518023,0.02447028085589409,-0.05226324126124382,-0.1562660038471222,0.0116727938875556,-0.084166519343853,4,-11,-1004,-155,12,-84,7,54,-144,55991.0
18:01:54.224,AUTO,-35.363261,149.1652438,4039,-0.02420324645936489,0.023910079151391983,-0.06899559497833252,-0.05338045582175255,-0.006674317643046379,-0.06652720272541046,4,-10,-1010,-52,-6,-66,2,47,-146,55991.0
18:01:54.426,AUTO,-35.363261,149.1652438,4039,-0.02420324645936489,0.023910079151391983,-0.06899559497833252,-0.05338045582175255,-0.006674317643046379,-0.06652720272541046,4,-10,-1010,-52,-6,-66,2,47,-146,55991.0
18:01:54.628,AUTO,-35.3632609,149.165245,4422,-0.0325305201113224,0.02064906246960163,-0.08253969997167587,-0.021499935537576675,-0.01175495982170105,-0.05360064283013344,4,-9,-1006,-20,-11,-53,-1,37,-148,55991.0
18:01:54.830,AUTO,-35.3632609,149.1652459,4805,-0.04272907227277756,0.014178778976202011,-0.09065564721822739,-0.0564536452293396,-0.033156536519527435,-0.02217850461602211,4,-4,-1000,-55,-32,-22,-4,26,-148,55991.0
18:01:55.033,AUTO,-35.3632609,149.1652459,4805,-0.04272907227277756,0.014178778976202011,-0.09065564721822739,-0.0564536452293396,-0.033156536519527435,-0.02217850461602211,4,-4,-1000,-55,-32,-22,-4,26,-148,55991.0
18:01:55.294,AUTO,-35.3632609,149.1652459,4805,-0.04272907227277756,0.014178778976202011,-0.09065564721822739,-0.0564536452293396,-0.033156536519527435,-0.02217850461602211,4,-4,-1000,-55,-32,-22,-4,26,-148,55991.0
18:01:55.633,AUTO,-35.3632612,149.1652456,6190,-0.06385959684848785,-0.013286029919981956,-0.08623997867107391,0.053449925035238266,-0.00017414154717698693,0.00021564660710282624,-2,5,-1001,54,0,0,-2,-34,-148,55991.0
18:01:55.879,AUTO,-35.3632613,149.1652445,6573,-0.04980343580245972,-0.01273939199745655,-0.08671052753925323,0.05882423743605614,0.004564165603369474,0.0014947146410122514,-5,8,-1001,59,5,1,0,-47,-148,55991.0
18:01:56.104,AUTO,-35.3632613,149.1652431,6955,-0.03456321731209755,-0.0107871750369668,-0.08699877560138702,0.06283733248710632,0.01033194549381733,0.0026196883991360664,-6,10,-1001,63,11,2,0,-56,-148,55991.0
18:01:56.348,AUTO,-35.3632613,149.1652414,7339,-0.018821129575371742,-0.007622485049068928,-0.08686082065105438,0.065152607858181,0.014268648810684681,0.003302200697362423,-6,10,-1001,63,11,2,0,-61,-149,55991.0
18:01:56.550,AUTO,-35.3632613,149.1652414,7339,-0.018821129575371742,-0.007622485049068928,-0.08686082065105438,0.065152607858181,0.014268648810684681,0.003302200697362423,-8,13,-1003,65,15,3,0,-61,-149,55991.0
18:01:56.753,AUTO,-35.3632613,149.1652397,7724,-0.0026149761397391558,-0.0037553247530013323,-0.08632920682430267,0.06470143795013428,0.016083167865872383,0.004028804134577513,-8,9,-1003,65,16,3,0,-61,-150,55991.0
18:01:56.958,AUTO,-35.3632613,149.165238,8111,0.014000179246068,0.0003523148479871452,-0.08549568802118301,0.067833311855793,0.016636934131383896,0.00432262709364295,-8,13,-1003,68,17,4,0,-58,-151,55991.0
18:01:57.160,AUTO,-35.3632613,149.165238,8111,0.014000179246068,0.0003523148479871452,-0.08549568802118301,0.067833311855793,0.016636934131383896,0.00432262709364295,-8,13,-1003,68,17,4,0,-58,-151,55991.0
18:01:57.362,AUTO,-35.3632613,149.165238,8111,0.014000179246068,0.0003523148479871452,-0.08549568802118301,0.067833311855793,0.016636934131383896,0.00432262709364295,-8,13,-1003,68,17,4,0,-58,-151,61050.0
18:01:57.564,AUTO,-35.3632614,149.1652348,9045,0.052049171179533005,0.008201487362384796,-0.08263736218214035,0.06040985882282257,0.009019114077091217,0.0050386181101202965,-5,9,-1003,61,9,5,-4,-33,-152,61050.0
18:01:57.766,AUTO,-35.3632615,149.165234,9438,0.06684071570634842,0.009580595418810844,-0.08152014762163162,0.0584176741540432,0.003394922474399209,0.004992626141756773,-2,4,-1001,59,4,4,-5,-18,-152,61050.0
18:01:57.968,AUTO,-35.3632616,149.1652337,9831,0.07467175275087357,0.013903532177209854,-0.08485275506973267,-0.007176599465310574,0.03108401782810688,-0.02197723276913166,0,2,-994,-6,31,-22,-6,0,-151,61050.0
18:01:58.170,AUTO,-35.3632616,149.1652337,9831,0.07467175275087357,0.013903532177209854,-0.08485275506973267,-0.007176599465310574,0.03108401782810688,-0.02197723276913166,0,2,-994,-6,31,-22,-6,0,-151,61050.0
18:01:58.372,AUTO,-35.3632618,149.1652338,10218,0.058892861008644104,0.01602356880903244,-0.08771220594644547,-0.0945901945233345,-0.014070472680032253,-0.00182588049210608,2,0,-991,-94,-13,-2,-8,15,-149,61050.0
18:01:58.574,AUTO,-35.363262,149.1652344,10599,0.032818809151649475,0.009335160255432129,-0.08768127113580704,-0.1053159087896347,-0.03146097809076309,0.004508702550083399,4,-3,-997,-104,-31,4,-9,25,-147,61050.0
18:01:58.776,AUTO,-35.3632622,149.165235,10980,0.009727387689054012,0.0021247726399451494,-0.08774068206548691,-0.08219266682863235,-0.025810593739151955,0.0005613660905510187,4,-3,-1002,-81,-25,0,-8,28,-148,61050.0
18:01:58.978,AUTO,-35.3632622,149.165235,10980,0.009727387689054012,0.0021247726399451494,-0.08774068206548691,-0.08219266682863235,-0.025810593739151955,0.0005613660905510187,4,-3,-1002,-81,-25,0,-8,28,-148,61050.0
18:01:59.180,AUTO,-35.3632622,149.165235,10980,0.009727387689054012,0.0021247726399451494,-0.08774068206548691,-0.08219266682863235,-0.025810593739151955,0.0005613660905510187,4,-3,-1002,-81,-25,0,-8,28,-148,61050.0
18:01:59.381,AUTO,-35.3632622,149.165235,10980,0.009727387689054012,0.0021247726399451494,-0.08774068206548691,-0.08219266682863235,-0.025810593739151955,0.0005613660905510187,4,-3,-1002,-81,-25,0,-8,28,-148,61050.0
18:01:59.583,AUTO,-35.3632625,149.1652369,12133,-0.021390164270997047,-0.00720572005957365,-0.09792371839284897,-0.008349821902811527,-0.0022147546987980604,-0.021848788484930992,3,-3,-1002,-7,-1,-22,-1,15,-150,61050.0
18:01:59.785,AUTO,-35.3632626,149.1652372,12522,-0.021761370822787285,-0.0074272905476391315,-0.1039452999830246,0.0030373684130609035,0.00040755828376859426,-0.023629752919077873,1,-2,-1002,3,1,-23,0,8,-151,61050.0
18:01:59.986,AUTO,-35.3632626,149.1652373,12909,-0.018899064511060715,-0.006750069092959166,-0.11058319360017776,0.016943782567977905,0.005385631695389748,-0.026510294526815414,0,-1,-1001,17,5,-26,2,2,-151,61050.0
18:02:00.189,AUTO,-35.3632626,149.1652373,13299,-0.01419057510793209,-0.00536168972030282,-0.11743603646755219,0.022039152681827545,0.00797394197434187,-0.025873299688100815,0,0,-1001,22,8,-26,3,-3,-151,61050.0
18:02:00.391,AUTO,-35.3632626,149.1652373,13299,-0.01419057510793209,-0.00536168972030282,-0.11743603646755219,0.022039152681827545,0.00797394197434187,-0.025873299688100815,0,0,-1001,22,8,-26,3,-3,-151,61050.0
18:02:00.592,AUTO,-35.3632625,149.1652371,13689,-0.008681281469762325,-0.00354712619446218,-0.12399908900260925,0.022195668891072273,0.006947532296180725,-0.024170441552996635,-2,0,-1000,22,7,-24,4,-6,-151,61050.0
18:02:00.794,AUTO,-35.3632624,149.165237,14079,-0.0029744592029601336,-0.00162059988360852,-0.1301693618297577,0.019062351435422897,0.009061679244041443,-0.022936614230275154,-2,1,-1000,19,9,-23,4,-8,-152,61050.0
18:02:00.996,AUTO,-35.3632624,149.165237,14079,-0.0029744592029601336,-0.00162059988360852,-0.1301693618297577,0.019062351435422897,0.009061679244041443,-0.022936614230275154,-2,1,-1000,19,9,-23,4,-8,-152,61050.0
18:02:01.261,AUTO,-35.3632624,149.165237,14079,-0.0029744592029601336,-0.00162059988360852,-0.1301693618297577,0.019062351435422897,0.009061679244041443,-0.022936614230275154,-2,1,-1000,19,9,-23,4,-8,-152,61050.0
18:02:01.567,AUTO,-35.363262,149.1652362,15249,0.008578237146139145,0.004212243482470512,-0.14582262933254242,0.00818241760134697,0.00708205159753561,-0.017306070774793625,-2,0,-999,9,7,-17,3,-7,-152,61050.0
18:02:01.889,AUTO,-35.3632619,149.1652359,15638,0.010129241272807121,0.0054063014686107635,-0.14990663528442383,0.0043494245037436485,0.0045165447518229485,-0.01463958527892828,-2,0,-999,5,4,-14,2,-5,-152,61050.0
18:02:02.108,AUTO,-35.3632618,149.1652357,16029,0.010918457992374897,0.006558049004524946,-0.1538654863834381,0.001087690470740199,0.0024026765022426844,-0.01394243910908699,-1,0,-999,2,2,-14,1,-3,-152,61050.0
18:02:02.446,AUTO,-35.3632617,149.1652356,16427,0.011360753327608109,0.0071888030506670475,-0.1576055884361267,0.0013420432806015015,0.0021292604506015778,-0.012993662618100643,-1,0,-999,1,2,-13,0,-1,-152,61050.0
18:02:02.679,AUTO,-35.3632617,149.1652355,16815,0.010852030478417873,0.007247905246913433,-0.16084030270576477,-0.005098169669508934,0.000684113590978086,-0.011545607820153236,0,0,-999,-4,1,-11,0,0,-152,61050.0
18:02:02.881,AUTO,-35.3632616,149.1652355,17204,0.009601643308997154,0.00674484483897686,-0.16364257037639618,-0.005590973887592554,-0.001103817718103528,-0.011417565867304802,0,0,-999,-4,0,-11,0,2,-152,61050.0
18:02:03.084,AUTO,-35.3632616,149.1652355,17204,0.009601643308997154,0.00674484483897686,-0.16364257037639618,-0.005590973887592554,-0.001103817718103528,-0.011417565867304802,0,0,-999,-4,0,-11,0,2,-152,61050.0
18:02:03.286,AUTO,-35.3632616,149.1652355,17204,0.009601643308997154,0.00674484483897686,-0.16364257037639618,-0.005590973887592554,-0.001103817718103528,-0.011417565867304802,0,0,-999,-4,0,-11,0,2,-152,77096.0
18:02:03.488,AUTO,-35.3632616,149.1652356,18372,0.006267101503908634,0.005439272616058588,-0.17310400307178497,-0.005329415202140808,-0.0022285927552729845,-0.012469706125557423,0,0,-1000,-4,-1,-12,-2,5,-152,77096.0
18:02:03.690,AUTO,-35.3632616,149.1652356,18372,0.006267101503908634,0.005439272616058588,-0.17310400307178497,-0.005329415202140808,-0.0022285927552729845,-0.012469706125557423,0,0,-1000,-4,-1,-12,-2,5,-152,77096.0
18:02:03.892,AUTO,-35.3632616,149.1652357,18761,0.005315000656992197,0.0048076254315674305,-0.1764908879995346,-0.001974541461095214,-0.00208220724016428,-0.013609766028821468,0,0,-1000,0,-1,-13,-2,6,-152,77096.0
18:02:04.093,AUTO,-35.3632616,149.1652358,19151,0.004413952585309744,0.004341031890362501,-0.18020378053188324,-0.00437317555770278,-0.001764501677826047,-0.016009218990802765,0,0,-1000,-3,0,-15,-3,6,-152,77096.0
18:02:04.295,AUTO,-35.3632616,149.1652359,19540,0.0036124796606600285,0.0039620050229132175,-0.1841888725757599,-0.0015871593495830894,-0.0001268807682208717,-0.016819091513752937,0,0,-1000,0,0,-16,-3,6,-152,77096.0
18:02:04.497,AUTO,-35.3632616,149.1652359,19930,0.0034271986223757267,0.003841142635792494,-0.18853740394115448,-0.0019372492097318172,0.0008007735596038401,-0.017816537991166115,0,0,-1000,0,1,-18,-3,6,-152,77096.0
18:02:04.699,AUTO,-35.3632616,149.165236,20320,0.0030095395632088184,0.0038111284375190735,-0.19309276342391968,-0.0032367210369557142,-0.0017048614099621773,-0.017353929579257965,0,0,-1000,-2,0,-17,-3,5,-152,77096.0
18:02:04.901,AUTO,-35.3632616,149.165236,20320,0.0030095395632088184,0.0038111284375190735,-0.19309276342391968,-0.0032367210369557142,-0.0017048614099621773,-0.017353929579257965,0,0,-1000,-2,0,-17,-3,5,-152,77096.0
18:02:05.103,AUTO,-35.3632616,149.165236,20320,0.0030095395632088184,0.0038111284375190735,-0.19309276342391968,-0.0032367210369557142,-0.0017048614099621773,-0.017353929579257965,0,0,-1000,-2,0,-17,-3,5,-152,77096.0
18:02:05.304,AUTO,-35.3632616,149.165236,20320,0.0030095395632088184,0.0038111284375190735,-0.19309276342391968,-0.0032367210369557142,-0.0017048614099621773,-0.017353929579257965,0,0,-1000,-2,0,-17,-3,5,-152,77096.0
18:02:05.506,AUTO,-35.3632617,149.1652363,21487,0.0018700199434533715,0.0033856406807899475,-0.20746585726737976,0.0015329464804381132,0.00031306291930377483,-0.019893065094947815,0,0,-1000,2,1,-19,-3,4,-152,77096.0
18:02:05.708,AUTO,-35.3632617,149.1652363,21876,0.0018661398207768798,0.003428461728617549,-0.2124752700328827,-0.0007450890843756497,0.00010246707824990153,-0.01883106864988804,0,0,-1000,0,0,-18,-2,4,-152,77096.0
18:02:05.909,AUTO,-35.3632617,149.1652363,21876,0.0018661398207768798,0.003428461728617549,-0.2124752700328827,-0.0007450890843756497,0.00010246707824990153,-0.01883106864988804,0,0,-1000,0,0,-18,-2,4,-152,77096.0
18:02:06.111,AUTO,-35.3632617,149.1652364,22266,0.002167054684832692,0.0032672651577740908,-0.21738994121551514,0.0023409193381667137,-0.00029335293220356107,-0.02000679075717926,0,0,-1000,3,0,-20,-2,4,-152,77096.0
18:02:06.313,AUTO,-35.3632617,149.1652365,22656,0.0024922227021306753,0.003127326490357518,-0.22230657935142517,0.00023735093418508768,0.00083740777336061,-0.021144496276974678,0,0,-1000,1,1,-21,-2,4,-152,77096.0
18:02:06.515,AUTO,-35.3632617,149.1652365,23046,0.0024673512671142817,0.003295017872005701,-0.22735925018787384,0.0019354482647031546,0.0007427411619573832,-0.019212422892451286,0,0,-1000,2,1,-19,-2,3,-152,77096.0
18:02:06.717,AUTO,-35.3632618,149.1652365,23435,0.002469801576808095,0.0030176485888659954,-0.2320873886346817,-0.0032359387259930372,-0.0012955226702615619,-0.0195305235683918,0,0,-999,-2,0,-19,-2,3,-152,77096.0
18:02:06.918,AUTO,-35.3632618,149.1652365,23435,0.002469801576808095,0.0030176485888659954,-0.2320873886346817,-0.0032359387259930372,-0.0012955226702615619,-0.0195305235683918,0,0,-999,-2,0,-19,-2,3,-152,77096.0
18:02:07.120,AUTO,-35.3632618,149.1652365,23435,0.002469801576808095,0.0030176485888659954,-0.2320873886346817,-0.0032359387259930372,-0.0012955226702615619,-0.0195305235683918,0,0,-999,-2,0,-19,-2,3,-152,77096.0
18:02:07.345,AUTO,-35.3632618,149.1652365,23435,0.002469801576808095,0.0030176485888659954,-0.2320873886346817,-0.0032359387259930372,-0.0012955226702615619,-0.0195305235683918,0,0,-999,-2,0,-19,-2,3,-152,77096.0
18:02:07.667,AUTO,-35.3632618,149.1652367,24604,0.002164610894396901,0.002820543246343732,-0.24680034816265106,-0.0002761554787866771,0.0009048720239661634,-0.02030721865594387,0,0,-1000,0,1,-20,-2,3,-152,77096.0
18:02:07.873,AUTO,-35.3632618,149.1652367,24993,0.0024139455053955317,0.002822824288159609,-0.25166434049606323,0.002366249915212393,-0.0006533777341246605,-0.018818140029907227,0,0,-999,2,0,-18,-2,3,-152,77096.0
18:02:08.117,AUTO,-35.3632618,149.1652367,25380,-0.012475799769163132,0.0032767807133495808,-0.255137175321579,-0.0060453880578279495,0.0038198214024305344,-0.00912898126989603,0,0,-1003,-5,4,-9,-3,0,-151,77096.0
18:02:08.482,AUTO,-35.363262,149.1652366,26163,0.0029254755936563015,0.005096082109957933,-0.2532079219818115,0.03528521582484245,0.0007119405781850219,0.01462072879076004,0,1,-1001,36,1,14,-5,-2,-153,77096.0
18:02:08.735,AUTO,-35.363262,149.1652364,26553,0.009349565953016281,0.004354659002274275,-0.2483314424753189,0.021519875153899193,-0.0032500934321433306,0.022037044167518616,0,1,-1000,22,-2,21,-5,-1,-153,77096.0
18:02:08.939,AUTO,-35.363262,149.1652364,26553,0.009349565953016281,0.004354659002274275,-0.2483314424753189,0.021519875153899193,-0.0032500934321433306,0.022037044167518616,0,1,-1000,22,-2,21,-5,-1,-153,77096.0
18:02:09.145,AUTO,-35.363262,149.1652364,26553,0.009349565953016281,0.004354659002274275,-0.2483314424753189,0.021519875153899193,-0.0032500934321433306,0.022037044167518616,0,1,-1000,22,-2,21,-5,-1,-153,77096.0
18:02:09.360,AUTO,-35.363262,149.1652364,26553,0.009349565953016281,0.004354659002274275,-0.2483314424753189,0.021519875153899193,-0.0032500934321433306,0.022037044167518616,0,1,-1000,22,-2,21,-5,-1,-153,93050.0
18:02:09.562,AUTO,-35.3632623,149.1652365,27716,0.011820301413536072,0.0017419473733752966,-0.2300540655851364,-0.006143286824226379,-9.624409722164273e-05,0.024466484785079956,0,0,-999,-5,0,24,-3,5,-152,93050.0
18:02:09.763,AUTO,-35.3632623,149.1652365,28104,0.009911986067891121,0.0014882716350257397,-0.22406746447086334,-0.009596562944352627,-0.0026253913529217243,0.02535044215619564,1,0,-1000,-8,-1,25,-2,7,-152,93050.0
18:02:09.965,AUTO,-35.3632623,149.1652367,28491,0.007423927541822195,0.001362649374641478,-0.2183448076248169,-0.0072074271738529205,0.0024659992195665836,0.022652143612504005,1,0,-1000,-6,3,22,-2,8,-152,93050.0
18:02:10.166,AUTO,-35.3632623,149.1652367,28491,0.007423927541822195,0.001362649374641478,-0.2183448076248169,-0.0072074271738529205,0.0024659992195665836,0.022652143612504005,1,0,-1000,-6,3,22,-2,8,-152,93050.0
18:02:10.368,AUTO,-35.3632624,149.1652369,28878,0.005547406617552042,0.0014958850806578994,-0.21281221508979797,-0.007448930758982897,0.0006834482774138451,0.022025519981980324,1,-1,-1000,-6,1,21,-1,9,-152,93050.0
18:02:10.570,AUTO,-35.3632624,149.1652371,29266,0.0038554135244339705,0.0015487244818359613,-0.20745374262332916,-0.005916292779147625,0.0011550465133041143,0.02231477200984955,0,-1,-1000,-4,2,22,-1,9,-152,93050.0
18:02:10.772,AUTO,-35.3632623,149.1652373,29653,0.002123084617778659,0.0016239408869296312,-0.2023288905620575,-0.003913194872438908,0.0017688632942736149,0.021692341193556786,0,-1,-1000,-3,2,21,0,9,-152,93050.0
18:02:10.973,AUTO,-35.3632623,149.1652373,29653,0.002123084617778659,0.0016239408869296312,-0.2023288905620575,-0.003913194872438908,0.0017688632942736149,0.021692341193556786,0,-1,-1000,-3,2,21,0,9,-152,93050.0
18:02:11.175,AUTO,-35.3632623,149.1652373,29653,0.002123084617778659,0.0016239408869296312,-0.2023288905620575,-0.003913194872438908,0.0017688632942736149,0.021692341193556786,0,-1,-1000,-3,2,21,0,9,-152,93050.0
18:02:11.377,AUTO,-35.3632623,149.1652373,29653,0.002123084617778659,0.0016239408869296312,-0.2023288905620575,-0.003913194872438908,0.0017688632942736149,0.021692341193556786,0,-1,-1000,-3,2,21,0,9,-152,93050.0
18:02:11.579,AUTO,-35.3632623,149.1652377,30818,-0.0004222065908834338,0.0016934036975726485,-0.18817248940467834,-0.0007505983812734485,0.001102736685425043,0.01857461966574192,0,-1,-1000,0,2,18,0,6,-152,93050.0
18:02:11.780,AUTO,-35.3632623,149.1652379,31205,-0.0008810785366222262,0.001428001094609499,-0.18382413685321808,-0.0038407547399401665,-0.0015888295602053404,0.017546486109495163,0,0,-1000,-2,0,17,0,5,-152,93050.0
18:02:11.982,AUTO,-35.3632623,149.1652379,31594,-0.0007858340395614505,0.0013786363415420055,-0.17948681116104126,0.0030012258794158697,-0.0017000173684209585,0.017713459208607674,0,0,-1001,4,0,17,0,4,-152,93050.0
18:02:12.184,AUTO,-35.3632623,149.1652379,31594,-0.0007858340395614505,0.0013786363415420055,-0.17948681116104126,0.0030012258794158697,-0.0017000173684209585,0.017713459208607674,0,0,-1001,4,0,17,0,4,-152,93050.0
18:02:12.385,AUTO,-35.3632623,149.165238,31982,-0.0006385146989487112,0.0012221651850268245,-0.1753324717283249,0.0011030593886971474,0.001571464235894382,0.0181144829839468,0,0,-999,2,2,17,0,3,-152,93050.0
18:02:12.587,AUTO,-35.3632623,149.165238,32370,-0.00023609348863828927,0.001252074260264635,-0.17142458260059357,0.0017765803495422006,0.0012274155160412192,0.015705091878771782,0,0,-1000,2,2,15,0,2,-152,93050.0
18:02:12.789,AUTO,-35.3632623,149.165238,32758,0.00023943251289892942,0.0011664264602586627,-0.16762438416481018,0.003013638313859701,-0.001226463238708675,0.014626240357756615,0,0,-1001,3,0,14,0,1,-152,93050.0
18:02:12.991,AUTO,-35.3632623,149.165238,32758,0.00023943251289892942,0.0011664264602586627,-0.16762438416481018,0.003013638313859701,-0.001226463238708675,0.014626240357756615,0,0,-1001,3,0,14,0,1,-152,93050.0
18:02:13.193,AUTO,-35.3632623,149.165238,32758,0.00023943251289892942,0.0011664264602586627,-0.16762438416481018,0.003013638313859701,-0.001226463238708675,0.014626240357756615,0,0,-1001,3,0,14,0,1,-152,93050.0
18:02:13.501,AUTO,-35.3632623,149.165238,33924,0.0013691347558051348,0.0010929761920124292,-0.1566944122314453,0.001990476157516241,0.0012175054289400578,0.015700343996286392,0,0,-1000,3,2,15,0,0,-152,93050.0
18:02:13.776,AUTO,-35.3632623,149.165238,34313,0.0013912933645769954,0.0013304543681442738,-0.15353813767433167,0.0019004794303327799,0.0013724718010053039,0.011999094858765602,0,0,-1001,2,2,12,0,0,-152,93050.0
18:02:14.007,AUTO,-35.3632623,149.165238,34701,0.001769539900124073,0.001569110550917685,-0.1503528356552124,0.0009466689079999924,0.000278388150036335,0.012971723452210426,0,0,-1000,2,1,13,0,0,-152,93050.0
18:02:14.240,AUTO,-35.3632623,149.165238,35094,0.001722987275570631,0.0013125472469255328,-0.14736154675483704,0.001495811273343861,-0.00011373311281204224,0.012600221671164036,0,0,-1000,2,0,12,0,0,-152,93050.0
18:02:14.500,AUTO,-35.3632622,149.1652379,35483,0.0019274778896942735,0.0012173809809610248,-0.1443152129650116,0.0033797691576182842,0.0005148188211023808,0.013173189014196396,0,0,-1000,4,1,13,0,0,-152,93050.0
18:02:14.702,AUTO,-35.3632622,149.1652379,35871,0.0018429202027618885,0.0011500926921144128,-0.14150284230709076,-0.0033991909585893154,-0.0003256350173614919,0.011524343863129616,0,0,-999,-2,0,11,0,0,-152,93050.0
18:02:14.905,AUTO,-35.3632622,149.1652379,35871,0.0018429202027618885,0.0011500926921144128,-0.14150284230709076,-0.0033991909585893154,-0.0003256350173614919,0.011524343863129616,0,0,-999,-2,0,11,0,0,-152,93050.0
18:02:15.109,AUTO,-35.3632622,149.1652379,35871,0.0018429202027618885,0.0011500926921144128,-0.14150284230709076,-0.0033991909585893154,-0.0003256350173614919,0.011524343863129616,0,0,-999,-2,0,11,0,0,-152,249563.0
18:02:15.311,AUTO,-35.3632622,149.1652379,35871,0.0018429202027618885,0.0011500926921144128,-0.14150284230709076,-0.0033991909585893154,-0.0003256350173614919,0.011524343863129616,0,0,-999,-2,0,11,0,0,-152,249563.0
18:02:15.514,AUTO,-35.3632622,149.1652378,37032,0.0024138980079442263,0.0012526200152933598,-0.1336389183998108,-0.0033378563821315765,0.0031529986299574375,0.010789899155497551,0,0,-998,-2,3,10,0,0,-152,249563.0
18:02:15.715,AUTO,-35.3632622,149.1652377,37420,0.0024981454480439425,0.0014111599884927273,-0.1310442090034485,0.0031690504401922226,-0.0003695341292768717,0.011303161270916462,0,0,-1001,4,0,11,0,0,-152,249563.0
18:02:15.917,AUTO,-35.3632622,149.1652377,37420,0.0024981454480439425,0.0014111599884927273,-0.1310442090034485,0.0031690504401922226,-0.0003695341292768717,0.011303161270916462,0,0,-1001,4,0,11,0,0,-152,249563.0
18:02:16.118,AUTO,-35.3632622,149.1652377,37808,0.002774598775431514,0.0014569892082363367,-0.1285991668701172,0.004674742929637432,0.002082088030874729,0.011068174615502357,0,0,-1000,6,2,10,0,0,-152,249563.0
18:02:16.321,AUTO,-35.3632622,149.1652376,38197,0.0028008478693664074,0.0014809559797868133,-0.12648800015449524,-0.0010061912471428514,0.0013643217971548438,0.009586880914866924,0,0,-999,0,2,9,0,0,-152,249563.0
18:02:16.523,AUTO,-35.3632621,149.1652376,38586,0.0029172739014029503,0.0015201393980532885,-0.12431706488132477,0.0029644789174199104,-0.0005980661371722817,0.009027255699038506,0,0,-1001,4,0,9,0,0,-152,249563.0
18:02:16.726,AUTO,-35.3632621,149.1652376,38974,0.0027938091661781073,0.0015947626670822501,-0.12203652411699295,-0.0014120396226644516,-0.0008763590012677014,0.008945317938923836,0,0,-1000,0,0,9,0,0,-152,249563.0
18:02:16.928,AUTO,-35.3632621,149.1652376,38974,0.0027938091661781073,0.0015947626670822501,-0.12203652411699295,-0.0014120396226644516,-0.0008763590012677014,0.008945317938923836,0,0,-1000,0,0,9,0,0,-152,249563.0
18:02:17.129,AUTO,-35.3632621,149.1652376,38974,0.0027938091661781073,0.0015947626670822501,-0.12203652411699295,-0.0014120396226644516,-0.0008763590012677014,0.008945317938923836,0,0,-1000,0,0,9,0,0,-152,249563.0
18:02:17.331,AUTO,-35.3632621,149.1652376,38974,0.0027938091661781073,0.0015947626670822501,-0.12203652411699295,-0.0014120396226644516,-0.0008763590012677014,0.008945317938923836,0,0,-1000,0,0,9,0,0,-152,249563.0
18:02:17.533,AUTO,-35.3632621,149.1652375,40142,0.0023289406672120094,0.0015215534949675202,-0.11595864593982697,0.0016849766252562404,0.0001976687926799059,0.0071914768777787685,0,0,-1000,2,1,7,0,0,-152,249563.0
18:02:17.735,AUTO,-35.3632621,149.1652375,40527,-0.005646775476634502,0.009022502228617668,-0.09840389341115952,-0.07443377375602722,0.07826701551675797,0.1693819761276245,0,0,-972,-73,79,169,-1,0,-149,249563.0
18:02:17.936,AUTO,-35.3632621,149.1652375,40527,-0.005646775476634502,0.009022502228617668,-0.09840389341115952,-0.07443377375602722,0.07826701551675797,0.1693819761276245,0,0,-972,-73,79,169,-1,0,-149,249563.0
18:02:18.138,AUTO,-35.3632621,149.1652374,40897,-0.03230767324566841,0.0383046418428421,-0.023964235559105873,-0.13971319794654846,0.12706321477890015,0.4209814667701721,0,0,-972,-138,128,421,-6,-4,-141,249563.0
18:02:18.340,AUTO,-35.3632623,149.1652371,41250,-0.060038838535547256,0.07106782495975494,0.10799018293619156,-0.09229032695293427,0.0259524118155241,0.5179789066314697,2,3,-956,-91,26,518,-19,-16,-133,249563.0
18:02:18.542,AUTO,-35.3632628,149.1652364,41572,-0.048950713127851486,0.045364782214164734,0.20151688158512115,0.08762547373771667,-0.20166361331939697,0.26102304458618164,4,7,-942,88,-200,261,-30,-30,-119,249563.0
18:02:18.744,AUTO,-35.3632635,149.1652354,41864,-0.02011507749557495,-0.004243165720254183,0.2468467801809311,0.1128627210855484,-0.1752520501613617,0.11291785538196564,4,10,-947,114,-174,113,-32,-37,-105,249563.0
18:02:18.946,AUTO,-35.3632635,149.1652354,41864,-0.02011507749557495,-0.004243165720254183,0.2468467801809311,0.1128627210855484,-0.1752520501613617,0.11291785538196564,4,10,-947,114,-174,113,-32,-37,-105,249563.0
18:02:19.301,AUTO,-35.3632635,149.1652354,41864,-0.02011507749557495,-0.004243165720254183,0.2468467801809311,0.1128627210855484,-0.1752520501613617,0.11291785538196564,4,10,-947,114,-174,113,-32,-37,-105,249563.0
18:02:19.572,AUTO,-35.3632648,149.1652328,42536,0.03741465508937836,-0.05414776876568794,0.25723782181739807,0.05847660452127457,0.0062393806874752045,-0.02767481468617916,0,5,-966,59,7,-27,-6,-15,-73,249563.0
18:02:19.876,AUTO,-35.3632649,149.1652325,42712,0.041345369070768356,-0.048771172761917114,0.24891266226768494,-0.04031440615653992,0.03012414276599884,-0.03378600999712944,-1,-1,-970,-39,31,-33,2,-2,-65,249563.0
18:02:20.168,AUTO,-35.3632648,149.1652325,42867,0.040181055665016174,-0.039493128657341,0.2400827556848526,-0.013694366440176964,0.0403156578540802,-0.03609339892864227,-2,1,-974,-12,41,-35,10,8,-57,249563.0
18:02:20.443,AUTO,-35.3632645,149.1652327,43006,0.03930100426077843,-0.02877301350235939,0.23168079555034637,0.1473463922739029,0.041779689490795135,-0.03295302018523216,-2,0,-977,148,42,-32,16,17,-51,249563.0
18:02:20.655,AUTO,-35.3632641,149.1652332,43129,0.03012421354651451,-0.018579890951514244,0.22351360321044922,-0.3411838710308075,0.0443328432738781,-0.03135303035378456,-3,-31,-970,-340,45,-31,19,23,-45,249563.0
18:02:20.857,AUTO,-35.3632636,149.1652339,43233,0.016630103811621666,-0.008568630553781986,0.21573880314826965,-0.36314645409584045,0.04197094962000847,-0.024535296484827995,-2,-15,-984,-361,43,-24,21,29,-38,249563.0
18:02:21.069,AUTO,-35.3632636,149.1652339,43233,0.016630103811621666,-0.008568630553781986,0.21573880314826965,-0.36314645409584045,0.04197094962000847,-0.024535296484827995,-2,-15,-984,-361,43,-24,21,29,-38,249563.0
18:02:21.271,AUTO,-35.3632636,149.1652339,43233,0.016630103811621666,-0.008568630553781986,0.21573880314826965,-0.36314645409584045,0.04197094962000847,-0.024535296484827995,-2,-15,-984,-361,43,-24,21,29,-38,106540.0
18:02:21.474,AUTO,-35.3632621,149.1652362,43464,0.012679276056587696,0.012024232186377048,0.1969810426235199,0.19435091316699982,0.01675317995250225,-0.019760537892580032,-1,-11,-988,194,17,-19,17,29,-23,106540.0
18:02:21.675,AUTO,-35.3632621,149.1652362,43464,0.012679276056587696,0.012024232186377048,0.1969810426235199,0.19435091316699982,0.01675317995250225,-0.019760537892580032,-1,-11,-988,194,17,-19,17,29,-23,106540.0
18:02:21.877,AUTO,-35.3632617,149.1652369,43518,-0.006141697987914085,0.015134051442146301,0.19176295399665833,-0.5724427103996277,0.011366046965122223,-0.018391380086541176,0,-42,-970,-571,12,-17,15,25,-19,106540.0
18:02:22.079,AUTO,-35.3632614,149.1652376,43554,-0.01304976362735033,0.01625302992761135,0.18712513148784637,-0.43273529410362244,0.0024698039051145315,-0.013492771424353123,0,-9,-957,-430,3,-13,11,23,-11,106540.0
18:02:22.281,AUTO,-35.3632612,149.1652382,43571,-0.007265909109264612,0.01630866900086403,0.18253454566001892,0.39550796151161194,0.0020296811126172543,-0.016615595668554306,0,31,-971,398,2,-16,8,20,-3,106540.0
18:02:22.482,AUTO,-35.363261,149.1652387,43560,-0.024300595745444298,0.03953635320067406,0.169224813580513,0.8235703110694885,0.09949876368045807,0.01757979765534401,1,44,-938,825,100,17,3,14,12,106540.0
18:02:22.684,AUTO,-35.363261,149.1652387,43560,-0.024300595745444298,0.03953635320067406,0.169224813580513,0.8235703110694885,0.09949876368045807,0.01757979765534401,1,44,-938,825,100,17,3,14,12,106540.0
18:02:22.886,AUTO,-35.363261,149.1652389,43517,-0.012701970525085926,0.036544863134622574,0.16854643821716309,0.8453304171562195,-0.07279837876558304,-3.886094782501459e-05,2,20,-998,846,-71,0,-3,3,15,106540.0
18:02:23.089,AUTO,-35.363261,149.1652389,43517,-0.012701970525085926,0.036544863134622574,0.16854643821716309,0.8453304171562195,-0.07279837876558304,-3.886094782501459e-05,2,20,-998,846,-71,0,-3,3,15,106540.0
18:02:23.291,AUTO,-35.363261,149.1652389,43517,-0.012701970525085926,0.036544863134622574,0.16854643821716309,0.8453304171562195,-0.07279837876558304,-3.886094782501459e-05,2,20,-998,846,-71,0,-3,3,15,106540.0
18:02:23.493,AUTO,-35.3632616,149.1652392,43390,0.021817803382873535,0.0011616941774263978,0.16110163927078247,-0.5072408318519592,-0.024747949093580246,-0.013833492062985897,3,-43,-992,-507,-23,-13,-12,3,14,106540.0
18:02:23.695,AUTO,-35.3632616,149.1652392,43390,0.021817803382873535,0.0011616941774263978,0.16110163927078247,-0.5072408318519592,-0.024747949093580246,-0.013833492062985897,3,-43,-992,-507,-23,-13,-12,3,14,106540.0
18:02:23.896,AUTO,-35.363262,149.1652395,43352,0.029856044799089432,-0.0029903154354542494,0.15695859491825104,-0.7486340403556824,-0.01223142072558403,-0.01352518517524004,4,-39,-1003,-748,-11,-13,-12,11,12,106540.0
18:02:24.098,AUTO,-35.3632623,149.1652399,43314,0.03416695445775986,-0.005058734677731991,0.15350274741649628,-0.6660937666893005,-0.0024995855055749416,-0.01187178585678339,5,-19,-995,-664,-1,-11,-12,21,13,106540.0
18:02:24.299,AUTO,-35.3632626,149.1652407,43273,0.053436364978551865,-0.005043982528150082,0.150515615940094,0.00957528967410326,0.0021294625476002693,-0.010057884268462658,5,16,-991,12,3,-9,-11,34,15,106540.0
18:02:24.502,AUTO,-35.3632629,149.1652418,43226,0.07827799022197723,-0.004729470703750849,0.15560325980186462,0.6831401586532593,0.022723253816366196,0.13172559440135956,7,37,-984,685,24,132,-11,49,18,106540.0
18:02:24.705,AUTO,-35.3632629,149.1652418,43226,0.07827799022197723,-0.004729470703750849,0.15560325980186462,0.6831401586532593,0.022723253816366196,0.13172559440135956,7,37,-984,685,24,132,-11,49,18,106540.0
18:02:24.909,AUTO,-35.3632632,149.1652434,43166,0.09581584483385086,-0.011286958120763302,0.2674444019794464,0.8501310348510742,0.052877604961395264,0.7048015594482422,7,9,-1000,851,53,705,-11,65,24,106540.0
18:02:25.112,AUTO,-35.3632632,149.1652434,43166,0.09581584483385086,-0.011286958120763302,0.2674444019794464,0.8501310348510742,0.052877604961395264,0.7048015594482422,7,9,-1000,851,53,705,-11,65,24,106540.0
18:02:25.344,AUTO,-35.3632632,149.1652434,43166,0.09581584483385086,-0.011286958120763302,0.2674444019794464,0.8501310348510742,0.052877604961395264,0.7048015594482422,7,9,-1000,851,53,705,-11,65,24,106540.0
18:02:25.617,AUTO,-35.3632642,149.1652504,42915,0.06336497515439987,-0.04311847314238548,0.8849879503250122,-0.6787062287330627,0.052777037024497986,0.7811979651451111,-2,-79,-927,-679,53,781,-10,110,41,106540.0
18:02:25.951,AUTO,-35.3632645,149.1652535,42803,0.041731081902980804,-0.03822427615523338,1.0749398469924927,-0.9459102153778076,0.048901043832302094,0.7339882850646973,-7,-76,-990,-946,49,734,-11,121,41,106540.0
18:02:26.170,AUTO,-35.3632649,149.1652568,42688,0.021385433152318,-0.03085136227309704,1.2575933933258057,-1.0338066816329956,0.039723172783851624,0.7146028876304626,-11,-71,-1006,-1033,40,714,-12,126,44,106540.0
18:02:26.376,AUTO,-35.3632653,149.1652602,42569,0.008923481218516827,-0.02127915620803833,1.4346671104431152,-0.8213950395584106,0.03379911556839943,0.7090355753898621,-18,-51,-1015,-819,34,709,-13,128,45,106540.0
18:02:26.577,AUTO,-35.3632657,149.1652636,42447,0.005571452900767326,-0.011435378342866898,1.6095890998840332,-0.29956984519958496,0.04206918552517891,0.7057567238807678,-21,-3,-981,-296,43,706,-14,126,45,106540.0
18:02:26.782,AUTO,-35.3632662,149.165267,42322,0.0071133761666715145,-0.0005762213259004056,1.7837791442871094,0.20197471976280212,0.05079526826739311,0.6954240798950195,-25,28,-968,205,51,695,-14,121,46,106540.0
18:02:26.984,AUTO,-35.3632662,149.165267,42322,0.0071133761666715145,-0.0005762213259004056,1.7837791442871094,0.20197471976280212,0.05079526826739311,0.6954240798950195,-25,28,-968,205,51,695,-14,121,46,106540.0
18:02:27.188,AUTO,-35.3632662,149.165267,42322,0.0071133761666715145,-0.0005762213259004056,1.7837791442871094,0.20197471976280212,0.05079526826739311,0.6954240798950195,-25,28,-968,205,51,695,-14,121,46,50593.0
18:02:27.391,AUTO,-35.3632662,149.165267,42322,0.0071133761666715145,-0.0005762213259004056,1.7837791442871094,0.20197471976280212,0.05079526826739311,0.6954240798950195,-25,28,-968,205,51,695,-14,121,46,50593.0
18:02:27.593,AUTO,-35.3632676,149.1652762,41986,0.02714069001376629,0.016678892076015472,1.9195499420166016,0.9428876042366028,-0.004648625385016203,-0.10415017604827881,-23,27,-1033,944,-3,-103,-11,97,36,50593.0
18:02:27.795,AUTO,-35.3632681,149.1652788,41890,0.022229716181755066,0.020098155364394188,1.8904153108596802,0.6006425619125366,0.008658555336296558,-0.11026469618082047,-19,-9,-1016,600,9,-109,-9,88,34,50593.0
18:02:27.997,AUTO,-35.3632685,149.1652812,41802,0.013055224902927876,0.024506734684109688,1.8668696880340576,-0.14100909233093262,0.003780668368563056,-0.0705309733748436,-18,-41,-1023,-141,4,-70,-6,80,30,50593.0
18:02:28.199,AUTO,-35.3632685,149.1652812,41802,0.013055224902927876,0.024506734684109688,1.8668696880340576,-0.14100909233093262,0.003780668368563056,-0.0705309733748436,-18,-41,-1023,-141,4,-70,-6,80,30,50593.0
18:02:28.404,AUTO,-35.3632687,149.1652835,41723,0.005330878309905529,0.027730222791433334,1.8525551557540894,-0.6389060020446777,0.022683776915073395,-0.039123259484767914,-20,-56,-1000,-638,23,-38,-4,71,28,50593.0
18:02:28.607,AUTO,-35.363269,149.1652854,41652,0.0015758696245029569,0.03088046796619892,1.84495210647583,-0.8355878591537476,0.012583237141370773,-0.01461787149310112,-15,-47,-1007,-834,13,-14,-3,61,24,50593.0
18:02:28.809,AUTO,-35.3632691,149.1652872,41592,0.0015483619645237923,0.03423254191875458,1.8417402505874634,-0.4928998649120331,0.014470640569925308,-0.015008829534053802,-13,-8,-1017,-490,15,-14,-3,51,19,50593.0
18:02:29.012,AUTO,-35.3632691,149.1652872,41592,0.0015483619645237923,0.03423254191875458,1.8417402505874634,-0.4928998649120331,0.014470640569925308,-0.015008829534053802,-13,-8,-1017,-490,15,-14,-3,51,19,50593.0
18:02:29.215,AUTO,-35.3632691,149.1652872,41592,0.0015483619645237923,0.03423254191875458,1.8417402505874634,-0.4928998649120331,0.014470640569925308,-0.015008829534053802,-13,-8,-1017,-490,15,-14,-3,51,19,50593.0
18:02:29.419,AUTO,-35.3632691,149.1652872,41592,0.0015483619645237923,0.03423254191875458,1.8417402505874634,-0.4928998649120331,0.014470640569925308,-0.015008829534053802,-13,-8,-1017,-490,15,-14,-3,51,19,50593.0
18:02:29.622,AUTO,-35.3632694,149.1652909,41473,0.02196577750146389,0.0432787649333477,1.8374745845794678,0.6220461130142212,0.015707051381468773,-0.004614900331944227,-6,9,-1029,622,16,-3,-1,21,8,50593.0
18:02:29.825,AUTO,-35.3632695,149.1652915,41454,0.01689496636390686,0.04640692472457886,1.835943579673767,0.04480653256177902,0.014359809458255768,-0.005094969645142555,-3,-22,-1008,44,15,-4,0,11,4,50593.0
18:02:30.027,AUTO,-35.3632695,149.1652919,41446,0.004496964160352945,0.035979993641376495,1.8342764377593994,-0.5804538726806641,-0.08865990489721298,0.004477864131331444,-2,-35,-997,-580,-87,4,0,1,1,50593.0
18:02:30.229,AUTO,-35.3632695,149.1652922,41444,-0.005537587217986584,0.015618296340107918,1.8331916332244873,-0.6008716225624084,-0.061979543417692184,-0.00889718346297741,-1,-16,-1009,-599,-60,-8,0,-2,-1,50593.0
18:02:30.431,AUTO,-35.3632695,149.1652922,41444,-0.005537587217986584,0.015618296340107918,1.8331916332244873,-0.6008716225624084,-0.061979543417692184,-0.00889718346297741,-1,-16,-1009,-599,-60,-8,0,-2,-1,50593.0
18:02:30.634,AUTO,-35.3632695,149.1652923,41447,-0.0015396889066323638,0.003149895928800106,1.8313039541244507,0.05997670441865921,-0.047316838055849075,-0.020444978028535843,-1,22,-1000,62,-46,-20,0,-3,-2,50593.0
18:02:30.836,AUTO,-35.3632695,149.1652925,41450,0.006243497598916292,-0.016360623762011528,1.8296600580215454,0.6591514348983765,-0.08853661268949509,-0.013962836936116219,-4,35,-1005,661,-87,-13,0,0,-2,50593.0
18:02:31.038,AUTO,-35.3632695,149.1652925,41450,0.006243497598916292,-0.016360623762011528,1.8296600580215454,0.6591514348983765,-0.08853661268949509,-0.013962836936116219,-4,35,-1005,661,-87,-13,0,0,-2,50593.0
18:02:31.277,AUTO,-35.3632695,149.1652925,41450,0.006243497598916292,-0.016360623762011528,1.8296600580215454,0.6591514348983765,-0.08853661268949509,-0.013962836936116219,-4,35,-1005,661,-87,-13,0,0,-2,50593.0
18:02:31.518,AUTO,-35.3632694,149.1652946,41418,0.003032561158761382,-0.07932741940021515,1.8244400024414062,-0.5619708895683289,-0.05294907093048096,-0.007846713066101074,-13,-35,-981,-561,-51,-7,-5,37,9,50593.0
18:02:31.755,AUTO,-35.3632694,149.1652962,41382,-0.0026485868729650974,-0.07687767595052719,1.8224319219589233,-0.7172557711601257,0.04613032937049866,-0.0031652068719267845,-16,-32,-988,-715,47,-2,-8,55,15,50593.0
18:02:32.170,AUTO,-35.3632693,149.1652982,41331,0.006200414150953293,-0.06472501903772354,1.820386290550232,-0.326590895652771,0.04597138613462448,-0.0025422468315809965,-22,0,-968,-323,46,-2,-11,69,23,50593.0
18:02:32.379,AUTO,-35.3632693,149.1653007,41266,0.02123122289776802,-0.05635477975010872,1.8178809881210327,0.2343597412109375,0.03385020047426224,-0.014337535947561264,-25,24,-984,237,34,-13,-14,80,26,50593.0
18:02:32.582,AUTO,-35.3632693,149.1653034,41191,0.03852607309818268,-0.03383779525756836,1.8156154155731201,0.8202130198478699,0.14047960937023163,-0.0002200117742177099,-23,38,-989,822,141,0,-17,88,30,50593.0
18:02:32.789,AUTO,-35.3632695,149.1653062,41108,0.05107532814145088,0.0012216888135299087,1.8148514032363892,0.9127056002616882,0.12611721456050873,-0.012267769314348698,-24,14,-998,913,127,-11,-19,88,32,50593.0
18:02:32.991,AUTO,-35.3632695,149.1653062,41108,0.05107532814145088,0.0012216888135299087,1.8148514032363892,0.9127056002616882,0.12611721456050873,-0.012267769314348698,-24,14,-998,913,127,-11,-19,88,32,50593.0
18:02:33.194,AUTO,-35.3632695,149.1653062,41108,0.05107532814145088,0.0012216888135299087,1.8148514032363892,0.9127056002616882,0.12611721456050873,-0.012267769314348698,-24,14,-998,913,127,-11,-19,88,32,78540.0
18:02:33.397,AUTO,-35.3632695,149.1653062,41108,0.05107532814145088,0.0012216888135299087,1.8148514032363892,0.9127056002616882,0.12611721456050873,-0.012267769314348698,-24,14,-998,913,127,-11,-19,88,32,78540.0
18:02:33.599,AUTO,-35.36327,149.1653135,40871,0.03784894198179245,0.07561249285936356,1.8122481107711792,-0.6711498498916626,0.0847875103354454,0.0015177363529801369,-15,-47,-1018,-671,85,1,-22,49,26,78540.0
18:02:33.801,AUTO,-35.3632702,149.165315,40809,0.025543779134750366,0.09342485666275024,1.8115830421447754,-0.8377278447151184,0.05272962525486946,-0.0019251347985118628,-8,-35,-1039,-836,53,-1,-22,28,20,78540.0
18:02:34.003,AUTO,-35.3632704,149.165316,40762,0.02245819754898548,0.08890190720558167,1.8104839324951172,-0.34546518325805664,-0.05985100939869881,-0.010822879150509834,-5,0,-1036,-342,-58,-10,-21,6,14,78540.0
18:02:34.205,AUTO,-35.3632704,149.165316,40762,0.02245819754898548,0.08890190720558167,1.8104839324951172,-0.34546518325805664,-0.05985100939869881,-0.010822879150509834,-5,0,-1036,-342,-58,-10,-21,6,14,78540.0
18:02:34.409,AUTO,-35.3632706,149.1653164,40730,0.023503025993704796,0.07267405092716217,1.8090248107910156,0.26304003596305847,-0.04886419326066971,-0.0018714496400207281,-2,24,-1016,265,-47,-1,-19,-11,11,78540.0
18:02:34.611,AUTO,-35.3632707,149.1653164,40710,0.0298834890127182,0.05682458356022835,1.8078498840332031,0.6571532487869263,-0.09065794199705124,-0.002884308807551861,2,28,-1020,659,-89,-2,-18,-24,5,78540.0
18:02:34.814,AUTO,-35.3632708,149.165316,40701,0.02159353345632553,0.026743562892079353,1.8072612285614014,0.16003650426864624,-0.11317586898803711,0.006026613526046276,3,-8,-1021,160,-112,6,-16,-30,1,78540.0
18:02:35.017,AUTO,-35.3632708,149.165316,40701,0.02159353345632553,0.026743562892079353,1.8072612285614014,0.16003650426864624,-0.11317586898803711,0.006026613526046276,3,-8,-1021,160,-112,6,-16,-30,1,78540.0
18:02:35.220,AUTO,-35.3632708,149.165316,40701,0.02159353345632553,0.026743562892079353,1.8072612285614014,0.16003650426864624,-0.11317586898803711,0.006026613526046276,3,-8,-1021,160,-112,6,-16,-30,1,78540.0
18:02:35.422,AUTO,-35.3632708,149.165316,40701,0.02159353345632553,0.026743562892079353,1.8072612285614014,0.16003650426864624,-0.11317586898803711,0.006026613526046276,3,-8,-1021,160,-112,6,-16,-30,1,78540.0
18:02:35.626,AUTO,-35.363271,149.1653155,40699,0.001161755295470357,-0.04847169294953346,1.8036082983016968,0.1523854285478592,-0.07441482692956924,-0.023149292916059494,-2,26,-996,155,-73,-22,-18,-10,2,78540.0
18:02:35.828,AUTO,-35.3632711,149.1653159,40688,0.012502333149313927,-0.06974703818559647,1.8020248413085938,0.7287228107452393,-0.0733611136674881,-0.0076040709391236305,-5,30,-983,731,-71,-7,-19,6,7,78540.0
18:02:36.030,AUTO,-35.3632711,149.1653167,40664,0.022157413884997368,-0.08859795331954956,1.799994945526123,0.6308048367500305,-0.06728380918502808,-0.01166744064539671,-8,9,-981,632,-65,-11,-20,27,12,78540.0
18:02:36.232,AUTO,-35.3632713,149.1653181,40625,0.020358391106128693,-0.084471195936203,1.7979322671890259,-0.03742450475692749,0.0714723989367485,-0.019483447074890137,-13,-35,-965,-36,73,-18,-21,49,18,78540.0
18:02:36.434,AUTO,-35.3632713,149.1653181,40625,0.020358391106128693,-0.084471195936203,1.7979322671890259,-0.03742450475692749,0.0714723989367485,-0.019483447074890137,-13,-35,-965,-36,73,-18,-21,49,18,78540.0
18:02:36.636,AUTO,-35.3632714,149.1653201,40572,0.012214569374918938,-0.06740128993988037,1.7957464456558228,-0.7380168437957764,0.0633753091096878,0.0029708247166126966,-15,-53,-987,-736,64,3,-23,66,24,78540.0
18:02:36.838,AUTO,-35.3632717,149.1653225,40505,0.011653102934360504,-0.048534899950027466,1.7937556505203247,-0.7688146233558655,0.11743929237127304,0.006451368797570467,-19,-35,-988,-766,118,7,-25,78,29,78540.0
18:02:37.040,AUTO,-35.3632717,149.1653225,40505,0.011653102934360504,-0.048534899950027466,1.7937556505203247,-0.7688146233558655,0.11743929237127304,0.006451368797570467,-19,-35,-988,-766,118,7,-25,78,29,78540.0
18:02:37.265,AUTO,-35.3632717,149.1653225,40505,0.011653102934360504,-0.048534899950027466,1.7937556505203247,-0.7688146233558655,0.11743929237127304,0.006451368797570467,-19,-35,-988,-766,118,7,-25,78,29,78540.0
18:02:37.502,AUTO,-35.3632717,149.1653225,40505,0.011653102934360504,-0.048534899950027466,1.7937556505203247,-0.7688146233558655,0.11743929237127304,0.006451368797570467,-19,-35,-988,-766,118,7,-25,78,29,78540.0
18:02:37.848,AUTO,-35.3632725,149.1653323,40207,0.04788073152303696,0.07360358536243439,1.791849970817566,0.8405575156211853,0.07529828697443008,-0.0052403295412659645,-14,24,-1037,843,77,-4,-25,50,25,78540.0
18:02:38.156,AUTO,-35.3632727,149.1653339,40149,0.04893104359507561,0.09238588064908981,1.7914236783981323,0.48549583554267883,0.07035907357931137,-0.004879827611148357,-10,-7,-1031,487,72,-4,-23,30,21,78540.0
18:02:38.358,AUTO,-35.3632729,149.1653348,40101,0.03304396569728851,0.09841533750295639,1.7909213304519653,-0.2936444580554962,-0.040304336696863174,0.0033745544496923685,-1,-37,-1029,-292,-38,3,-21,7,15,78540.0
18:02:38.561,AUTO,-35.3632731,149.1653352,40071,0.01656961813569069,0.0823332890868187,1.789696455001831,-0.7459807395935059,-0.06756801158189774,0.0014061765978112817,0,-39,-1012,-744,-65,1,-20,-11,9,78540.0
18:02:38.764,AUTO,-35.3632733,149.1653351,40052,0.005065552424639463,0.06198388338088989,1.788904070854187,-0.4454993009567261,-0.11064530909061432,-0.01728406362235546,3,-5,-1030,-442,-108,-16,-19,-26,3,78540.0
18:02:38.979,AUTO,-35.3632733,149.1653351,40052,0.005065552424639463,0.06198388338088989,1.788904070854187,-0.4454993009567261,-0.11064530909061432,-0.01728406362235546,3,-5,-1030,-442,-108,-16,-19,-26,3,159050.0
18:02:39.181,AUTO,-35.3632733,149.1653351,40052,0.005065552424639463,0.06198388338088989,1.788904070854187,-0.4454993009567261,-0.11064530909061432,-0.01728406362235546,3,-5,-1030,-442,-108,-16,-19,-26,3,159050.0
18:02:39.384,AUTO,-35.3632733,149.1653351,40052,0.005065552424639463,0.06198388338088989,1.788904070854187,-0.4454993009567261,-0.11064530909061432,-0.01728406362235546,3,-5,-1030,-442,-108,-16,-19,-26,3,159050.0
18:02:39.586,AUTO,-35.3632741,149.1653338,40050,-0.0022684463765472174,-0.016170887276530266,1.786399245262146,-0.2330249696969986,-0.10118956118822098,0.004881900269538164,5,-30,-994,-231,-99,5,-14,-24,0,159050.0
18:02:39.788,AUTO,-35.3632743,149.1653336,40050,-0.01643875241279602,-0.04279104992747307,1.7850139141082764,-0.7068580985069275,-0.10359246283769608,-0.003308295039460063,4,-36,-997,-704,-101,-2,-13,-12,0,159050.0
18:02:39.991,AUTO,-35.3632746,149.1653336,40045,-0.020343974232673645,-0.06535884737968445,1.784245491027832,-0.3610762357711792,-0.08564811944961548,-0.013288957066833973,0,-1,-982,-357,-84,-12,-13,4,4,159050.0
18:02:40.193,AUTO,-35.3632746,149.1653336,40045,-0.020343974232673645,-0.06535884737968445,1.784245491027832,-0.3610762357711792,-0.08564811944961548,-0.013288957066833973,0,-1,-982,-357,-84,-12,-13,4,4,159050.0
18:02:40.395,AUTO,-35.3632749,149.1653343,40029,-0.014789002947509289,-0.08479593694210052,1.7831348180770874,0.19790756702423096,-0.07522348314523697,-0.015674591064453125,-5,25,-972,202,-73,-15,-13,25,10,159050.0
18:02:40.598,AUTO,-35.3632753,149.1653355,39995,-0.0007934830500744283,-0.0864921435713768,1.782016396522522,0.7854430079460144,0.0611882247030735,-0.0018626970704644918,-10,21,-998,788,63,-1,-12,48,16,159050.0
18:02:40.800,AUTO,-35.3632756,149.1653372,39947,0.009351138025522232,-0.069120854139328,1.7806867361068726,0.44637760519981384,0.06779789179563522,-0.01148831658065319,-13,-14,-971,447,69,-10,-11,66,23,159050.0
18:02:41.002,AUTO,-35.3632756,149.1653372,39947,0.009351138025522232,-0.069120854139328,1.7806867361068726,0.44637760519981384,0.06779789179563522,-0.01148831658065319,-13,-14,-971,447,69,-10,-11,66,23,159050.0
18:02:41.205,AUTO,-35.3632756,149.1653372,39947,0.009351138025522232,-0.069120854139328,1.7806867361068726,0.44637760519981384,0.06779789179563522,-0.01148831658065319,-13,-14,-971,447,69,-10,-11,66,23,159050.0
18:02:41.408,AUTO,-35.3632756,149.1653372,39947,0.009351138025522232,-0.069120854139328,1.7806867361068726,0.44637760519981384,0.06779789179563522,-0.01148831658065319,-13,-14,-971,447,69,-10,-11,66,23,159050.0
18:02:41.610,AUTO,-35.3632769,149.1653444,39735,-0.005209091119468212,0.020344017073512077,1.7794991731643677,-0.9935486912727356,0.1398613303899765,-0.009657854214310646,-15,-60,-1002,-991,141,-9,-8,85,29,159050.0
18:02:41.812,AUTO,-35.3632773,149.1653467,39657,-0.006613462697714567,0.04952414706349373,1.7785024642944336,-0.7555125951766968,0.10322465002536774,-0.006525244098156691,-17,-33,-1037,-752,104,-6,-5,75,29,159050.0
18:02:42.124,AUTO,-35.3632778,149.1653487,39591,-0.004647775553166866,0.0707138404250145,1.7777736186981201,-0.23829762637615204,0.07456948608160019,-0.0053490144200623035,-12,0,-1013,-234,76,-4,-2,59,25,159050.0
18:02:42.431,AUTO,-35.3632779,149.1653503,39532,0.006137878634035587,0.0882711336016655,1.7763501405715942,0.5121699571609497,0.06268429011106491,-0.0021147537045180798,-8,28,-1031,516,65,-1,0,40,20,159050.0
18:02:42.714,AUTO,-35.3632783,149.1653516,39458,0.0081816166639328,0.0832865834236145,1.773459792137146,0.300193190574646,-0.07588067650794983,0.009810609742999077,0,-5,-1018,301,-73,10,8,-2,9,159050.0
18:02:43.059,AUTO,-35.3632783,149.1653516,39458,0.0081816166639328,0.0832865834236145,1.773459792137146,0.300193190574646,-0.07588067650794983,0.009810609742999077,0,-5,-1018,301,-73,10,8,-2,9,159050.0
18:02:43.273,AUTO,-35.3632783,149.1653516,39458,0.0081816166639328,0.0832865834236145,1.773459792137146,0.300193190574646,-0.07588067650794983,0.009810609742999077,0,-5,-1018,301,-73,10,8,-2,9,159050.0
