time_stamp,MODE,lat,lon,alt,relative_alt,roll,pitch,yaw,rollspeed,pitchspeed,yawspeed,xacc,yacc,zacc,xgyro,ygyro,zgyro,vx,vy,vz
18:35:30.264,STABILIZE,-35.3632621,149.1652374,583930,0,-0.00020287888764869422,0.001514992443844676,0.02804957516491413,0.0002872892946470529,0.00017072309856303036,0.0023192591033875942,0,1,-1000,0,0,0,-1,1,0
18:35:30.465,STABILIZE,-35.3632621,149.1652374,583930,0,-0.00020287888764869422,0.001514992443844676,0.02804957516491413,0.0002872892946470529,0.00017072309856303036,0.0023192591033875942,0,1,-1000,0,0,0,-1,1,0
18:35:30.666,STABILIZE,-35.3632621,149.1652374,583930,0,-0.00020287888764869422,0.001514992443844676,0.02804957516491413,0.0002872892946470529,0.00017072309856303036,0.0023192591033875942,0,1,-1000,0,0,0,-1,1,0
18:35:30.867,STABILIZE,-35.3632621,149.1652374,583930,0,-0.00020287888764869422,0.001514992443844676,0.02804957516491413,0.0002872892946470529,0.00017072309856303036,0.0023192591033875942,0,1,-1000,0,0,0,-1,0,0
18:35:31.068,STABILIZE,-35.3632621,149.1652374,583930,0,-0.00020287888764869422,0.001514992443844676,0.02804957516491413,0.0002872892946470529,0.00017072309856303036,0.0023192591033875942,0,1,-1000,0,0,0,-1,0,0
18:35:31.268,STABILIZE,-35.3632621,149.1652374,583940,0,-0.00020287888764869422,0.001514992443844676,0.02804957516491413,0.0002872892946470529,0.00017072309856303036,0.0023192591033875942,0,1,-1000,0,1,0,-2,1,0
18:35:31.469,STABILIZE,-35.3632622,149.1652374,583940,0,-0.00023116840748116374,0.0014650000957772136,0.026782184839248657,0.00012656752369366586,0.00022033584536984563,0.0022233102936297655,0,2,-1000,1,0,0,-2,1,0
18:35:31.671,STABILIZE,-35.3632622,149.1652374,583940,0,-0.00023116840748116374,0.0014650000957772136,0.026782184839248657,0.00012656752369366586,0.00022033584536984563,0.0022233102936297655,0,2,-1000,1,0,0,-2,1,0
18:35:31.872,STABILIZE,-35.3632622,149.1652374,583940,0,-0.00025390874361619353,0.0014250901294872165,0.02663937397301197,0.00023313183919526637,0.0003195719327777624,0.0022304533049464226,0,2,-1000,1,0,0,-2,1,0
18:35:32.073,STABILIZE,-35.3632622,149.1652374,583940,0,-0.00028739473782479763,0.0013683306751772761,0.02652117609977722,0.00020947298617102206,0.0002448169107083231,0.002338326768949628,0,1,-1000,0,0,0,-2,1,0
18:35:32.274,STABILIZE,-35.3632622,149.1652374,583940,0,-0.00028739473782479763,0.0013683306751772761,0.02652117609977722,0.00020947298617102206,0.0002448169107083231,0.002338326768949628,0,1,-1000,0,0,0,-2,1,0
18:35:32.475,STABILIZE,-35.3632622,149.1652374,583940,0,-0.00028739473782479763,0.0013683306751772761,0.02652117609977722,0.00020947298617102206,0.0002448169107083231,0.002338326768949628,0,1,-1000,0,0,0,-2,1,0
18:35:32.676,STABILIZE,-35.3632622,149.1652374,583940,0,-0.00028739473782479763,0.0013683306751772761,0.02652117609977722,0.00020947298617102206,0.0002448169107083231,0.002338326768949628,0,1,-1000,0,0,0,-2,1,0
18:35:32.878,STABILIZE,-35.3632622,149.1652375,583940,0,-0.0004103670653421432,0.0012183821527287364,0.02610679715871811,0.0001994700578507036,0.00019459344912320375,0.0021094228141009808,0,1,-1000,0,0,0,-1,1,0
18:35:33.079,STABILIZE,-35.3632622,149.1652375,583940,0,-0.00045896979281678796,0.0011689478997141123,0.025956491008400917,0.00025810475926846266,0.000240177265368402,0.0021219190675765276,0,1,-1000,0,0,0,-1,1,0
18:35:33.281,STABILIZE,-35.3632622,149.1652375,583950,0,-0.0005030948086641729,0.001126384362578392,0.025814378634095192,0.00028715093503706157,0.0003494373522698879,0.002030298812314868,0,1,-1000,0,0,0,-1,1,0
18:35:33.482,STABILIZE,-35.3632622,149.1652375,583950,0,-0.0005030948086641729,0.001126384362578392,0.025814378634095192,0.00028715093503706157,0.0003494373522698879,0.002030298812314868,0,1,-1000,0,1,0,-1,1,0
18:35:33.683,STABILIZE,-35.3632622,149.1652375,583950,0,-0.0005030948086641729,0.001126384362578392,0.025814378634095192,0.00028715093503706157,0.0003494373522698879,0.002030298812314868,0,1,-1000,0,1,0,-1,1,0
18:35:33.885,STABILIZE,-35.3632622,149.1652375,583950,0,-0.0005030948086641729,0.001126384362578392,0.025814378634095192,0.00028715093503706157,0.0003494373522698879,0.002030298812314868,0,1,-1000,0,1,0,-1,1,0
18:35:34.086,STABILIZE,-35.3632622,149.1652375,583950,0,-0.0006433305097743869,0.0010453241411596537,0.025453489273786545,0.00022698624525219202,0.00019854307174682617,0.0020547339227050543,0,1,-1000,0,0,0,-1,1,0
18:35:34.287,STABILIZE,-35.3632622,149.1652375,583950,0,-0.0006433305097743869,0.0010453241411596537,0.025453489273786545,0.00022698624525219202,0.00019854307174682617,0.0020547339227050543,0,1,-1000,0,0,0,-1,1,0
18:35:34.490,STABILIZE,-35.3632622,149.1652375,583950,0,-0.0006433305097743869,0.0010453241411596537,0.025453489273786545,0.00022698624525219202,0.00019854307174682617,0.0020547339227050543,0,1,-1000,0,0,0,-1,1,0
18:35:34.693,STABILIZE,-35.3632622,149.1652375,583950,0,-0.0006433305097743869,0.0010453241411596537,0.025453489273786545,0.00022698624525219202,0.00019854307174682617,0.0020547339227050543,0,1,-1000,0,0,0,-1,1,0
18:35:34.896,STABILIZE,-35.3632622,149.1652375,583950,0,-0.0006433305097743869,0.0010453241411596537,0.025453489273786545,0.00022698624525219202,0.00019854307174682617,0.0020547339227050543,0,1,-1000,0,0,0,-1,1,0
18:35:35.097,STABILIZE,-35.3632622,149.1652375,583940,0,-0.0005913899512961507,0.0009862291626632214,0.02497215010225773,0.0001434142468497157,0.0002673501439858228,0.001975398976355791,0,1,-1000,0,1,0,-1,2,0
18:35:35.298,STABILIZE,-35.3632622,149.1652375,583940,0,-0.0005913899512961507,0.0009862291626632214,0.02497215010225773,0.0001434142468497157,0.0002673501439858228,0.001975398976355791,0,1,-1000,0,1,0,-1,2,0
18:35:35.499,STABILIZE,-35.3632622,149.1652375,583940,0,-0.0005913899512961507,0.0009862291626632214,0.02497215010225773,0.0001434142468497157,0.0002673501439858228,0.001975398976355791,0,1,-1000,0,0,0,-1,1,0
18:35:35.700,STABILIZE,-35.3632622,149.1652375,583940,0,-0.0007641109405085444,0.0009674598695710301,0.02465326152741909,0.00023450033040717244,0.00027794818743132055,0.0020095964428037405,0,1,-1000,0,0,0,-1,1,0
18:35:35.902,STABILIZE,-35.3632622,149.1652375,583940,0,-0.0007641109405085444,0.0009674598695710301,0.02465326152741909,0.00023450033040717244,0.00027794818743132055,0.0020095964428037405,0,1,-1000,0,0,0,-1,1,0
18:35:36.103,STABILIZE,-35.3632622,149.1652375,583940,0,-0.0008206332568079233,0.0009647676488384604,0.024559929966926575,0.00020710693206638098,0.0001881672942545265,0.001965457107871771,0,1,-1000,0,0,0,-1,1,0
18:35:36.305,STABILIZE,-35.3632622,149.1652375,583940,0,-0.0008206332568079233,0.0009647676488384604,0.024559929966926575,0.00020710693206638098,0.0001881672942545265,0.001965457107871771,0,1,-1000,0,0,0,-1,1,0
18:35:36.507,STABILIZE,-35.3632622,149.1652375,583940,0,-0.0008206332568079233,0.0009647676488384604,0.024559929966926575,0.00020710693206638098,0.0001881672942545265,0.001965457107871771,0,1,-1000,0,0,0,-1,1,0
18:35:36.709,STABILIZE,-35.3632622,149.1652375,583940,0,-0.0008206332568079233,0.0009647676488384604,0.024559929966926575,0.00020710693206638098,0.0001881672942545265,0.001965457107871771,0,1,-1000,0,0,0,-1,1,0
18:35:36.912,STABILIZE,-35.3632622,149.1652375,583940,0,-0.0009453910170122981,0.0009386410820297897,0.024283217266201973,0.00022456335136666894,8.495437214151025e-05,0.0017595598474144936,0,2,-1000,1,0,0,-1,1,0
18:35:37.113,STABILIZE,-35.3632622,149.1652375,583940,0,-0.0009777951054275036,0.0009396878303959966,0.02420792169868946,0.00020455720368772745,0.00026867614360526204,0.0018762706313282251,0,2,-1000,1,0,0,-1,1,0
18:35:37.314,STABILIZE,-35.3632622,149.1652375,583940,0,-0.0010043276706710458,0.0009332086192443967,0.024108009412884712,0.0002456113579683006,0.00024367880541831255,0.0018097274005413055,0,2,-1000,1,0,0,-1,1,0
18:35:37.515,STABILIZE,-35.3632622,149.1652375,583940,0,-0.0010043276706710458,0.0009332086192443967,0.024108009412884712,0.0002456113579683006,0.00024367880541831255,0.0018097274005413055,0,2,-1000,1,0,0,-1,1,0
18:35:37.717,STABILIZE,-35.3632622,149.1652375,583940,0,-0.0010043276706710458,0.0009332086192443967,0.024108009412884712,0.0002456113579683006,0.00024367880541831255,0.0018097274005413055,0,2,-1000,1,0,0,-1,2,1
18:35:37.919,STABILIZE,-35.3632622,149.1652375,583940,0,-0.0010043276706710458,0.0009332086192443967,0.024108009412884712,0.0002456113579683006,0.00024367880541831255,0.0018097274005413055,0,2,-1000,1,0,0,-1,2,1
18:35:38.120,STABILIZE,-35.3632622,149.1652375,583940,0,-0.0007369709783233702,0.0009392895153723657,0.02385229617357254,0.0002673469134606421,0.0003162953653372824,0.001714408746920526,0,2,-1000,1,0,0,-1,2,1
18:35:38.321,STABILIZE,-35.3632622,149.1652375,583940,0,-0.0007369709783233702,0.0009392895153723657,0.02385229617357254,0.0002673469134606421,0.0003162953653372824,0.001714408746920526,0,2,-1000,1,0,0,-1,2,1
18:35:38.523,STABILIZE,-35.3632622,149.1652375,583940,0,-0.0007369709783233702,0.0009392895153723657,0.02385229617357254,0.0002673469134606421,0.0003162953653372824,0.001714408746920526,0,2,-1000,1,0,0,-1,2,1
18:35:38.725,STABILIZE,-35.3632622,149.1652375,583940,0,-0.0007369709783233702,0.0009392895153723657,0.02385229617357254,0.0002673469134606421,0.0003162953653372824,0.001714408746920526,0,2,-1000,1,0,0,-1,2,1
18:35:38.927,STABILIZE,-35.3632622,149.1652375,583930,0,-0.0007369709783233702,0.0009392895153723657,0.02385229617357254,0.0002673469134606421,0.0003162953653372824,0.001714408746920526,0,2,-1000,1,0,0,-1,2,1
18:35:39.128,STABILIZE,-35.3632622,149.1652375,583930,0,-0.0007369709783233702,0.0009392895153723657,0.02385229617357254,0.0002673469134606421,0.0003162953653372824,0.001714408746920526,0,1,-1000,1,0,1,-1,2,1
18:35:39.329,STABILIZE,-35.3632622,149.1652375,583930,0,-0.0007369709783233702,0.0009392895153723657,0.02385229617357254,0.0002673469134606421,0.0003162953653372824,0.001714408746920526,0,1,-1000,0,0,0,-1,2,1
18:35:39.530,STABILIZE,-35.3632622,149.1652375,583930,0,-0.0007369709783233702,0.0009392895153723657,0.02385229617357254,0.0002673469134606421,0.0003162953653372824,0.001714408746920526,0,1,-1000,0,0,0,-1,2,1
18:35:39.731,STABILIZE,-35.3632622,149.1652375,583930,0,-0.0010092868469655514,0.0009593946160748601,0.023280875757336617,0.0003402195288799703,0.00026783777866512537,0.001564117381349206,0,1,-1000,0,0,0,-1,2,1
18:35:39.932,STABILIZE,-35.3632622,149.1652375,583930,0,-0.0010092868469655514,0.0009593946160748601,0.023280875757336617,0.0003402195288799703,0.00026783777866512537,0.001564117381349206,0,1,-1000,0,0,0,-1,2,1
18:35:40.133,STABILIZE,-35.3632622,149.1652375,583930,0,-0.0010325858602300286,0.0009557206649333239,0.02320089004933834,0.0002176655107177794,0.00020250387024134398,0.001634919666685164,0,2,-1000,0,0,0,-1,2,1
18:35:40.335,STABILIZE,-35.3632622,149.1652375,583930,0,-0.0010325858602300286,0.0009557206649333239,0.02320089004933834,0.0002176655107177794,0.00020250387024134398,0.001634919666685164,0,2,-1000,0,0,0,-1,2,1
18:35:40.537,STABILIZE,-35.3632622,149.1652375,583930,0,-0.0010325858602300286,0.0009557206649333239,0.02320089004933834,0.0002176655107177794,0.00020250387024134398,0.001634919666685164,0,2,-1000,0,0,0,-1,2,1
18:35:40.740,STABILIZE,-35.3632622,149.1652375,583930,0,-0.0010325858602300286,0.0009557206649333239,0.02320089004933834,0.0002176655107177794,0.00020250387024134398,0.001634919666685164,0,2,-1000,0,0,0,-1,2,1
18:35:40.941,STABILIZE,-35.3632622,149.1652375,583930,0,-0.00109929870814085,0.0009578553726896644,0.023007340729236603,0.00015325326239690185,0.0003198441700078547,0.001768576679751277,0,2,-1000,1,0,0,-1,1,0
18:35:41.143,STABILIZE,-35.3632622,149.1652375,583930,0,-0.0009503625333309174,0.0009654969908297062,0.022953404113650322,0.00010486587416380644,0.00030919123673811555,0.0016529534477740526,0,2,-1000,1,0,0,-1,1,0
18:35:41.344,STABILIZE,-35.3632622,149.1652375,583930,0,-0.0009636468603275716,0.0009592158021405339,0.022888517007231712,0.0003064685151912272,0.00013595580821856856,0.001651387196034193,0,2,-1000,1,0,0,-1,1,0
18:35:41.545,STABILIZE,-35.3632622,149.1652375,583930,0,-0.0009829136542975903,0.0009563348139636219,0.022819586098194122,0.00018550752429291606,0.00024774513440206647,0.0016551821026951075,0,1,-1000,0,0,0,-1,1,0
18:35:41.746,STABILIZE,-35.3632622,149.1652375,583930,0,-0.0009829136542975903,0.0009563348139636219,0.022819586098194122,0.00018550752429291606,0.00024774513440206647,0.0016551821026951075,0,1,-1000,0,0,0,-1,1,0
18:35:41.947,STABILIZE,-35.3632622,149.1652375,583930,0,-0.0009907531784847379,0.0009613149450160563,0.022713126614689827,0.00026315735885873437,0.00026883609825745225,0.0016873235581442714,0,1,-1000,0,0,0,-1,1,0
18:35:42.149,STABILIZE,-35.3632622,149.1652375,583930,0,-0.0009907531784847379,0.0009613149450160563,0.022713126614689827,0.00026315735885873437,0.00026883609825745225,0.0016873235581442714,0,2,-1000,0,0,0,-1,1,0
18:35:42.350,STABILIZE,-35.3632622,149.1652375,583930,0,-0.0009907531784847379,0.0009613149450160563,0.022713126614689827,0.00026315735885873437,0.00026883609825745225,0.0016873235581442714,0,2,-1000,0,0,0,-1,1,0
18:35:42.552,STABILIZE,-35.3632622,149.1652375,583930,0,-0.0009907531784847379,0.0009613149450160563,0.022713126614689827,0.00026315735885873437,0.00026883609825745225,0.0016873235581442714,0,2,-1000,0,0,0,-1,1,0
18:35:42.753,STABILIZE,-35.3632622,149.1652375,583930,0,-0.0009907531784847379,0.0009613149450160563,0.022713126614689827,0.00026315735885873437,0.00026883609825745225,0.0016873235581442714,0,2,-1000,0,0,0,-1,1,0
18:35:42.956,STABILIZE,-35.3632622,149.1652375,583930,0,-0.0010210881009697914,0.0009687672718428075,0.022484054788947105,0.0001983392285183072,0.00016978074563667178,0.0016042423667386174,0,2,-1000,0,0,0,-1,1,0
18:35:43.600,STABILIZE,-35.3632622,149.1652375,583930,0,-0.0010210881009697914,0.0009687672718428075,0.022484054788947105,0.0001983392285183072,0.00016978074563667178,0.0016042423667386174,0,2,-1000,0,0,0,-1,1,0
18:35:43.801,STABILIZE,-35.3632622,149.1652375,583930,0,-0.0010210881009697914,0.0009687672718428075,0.022484054788947105,0.0001983392285183072,0.00016978074563667178,0.0016042423667386174,0,1,-1000,0,0,0,-1,1,0
18:35:44.003,STABILIZE,-35.3632622,149.1652375,583940,0,-0.0010210881009697914,0.0009687672718428075,0.022484054788947105,0.0001983392285183072,0.00016978074563667178,0.0016042423667386174,0,1,-1000,1,0,0,-1,1,0
18:35:44.204,STABILIZE,-35.3632622,149.1652375,583940,0,-0.001040227129124105,0.00096592289628461,0.022318700328469276,0.00025932997232303023,0.0002960686106234789,0.0015512083191424608,0,2,-1000,0,1,0,-1,1,0
18:35:44.405,STABILIZE,-35.3632622,149.1652375,583940,0,-0.001040823757648468,0.0009741107351146638,0.02225326932966709,0.00024156126892194152,0.0002808123826980591,0.0015585641376674175,0,2,-1000,1,0,0,-1,1,0
18:35:44.606,AUTO,-35.3632622,149.1652375,583940,0,-0.001040823757648468,0.0009741107351146638,0.02225326932966709,0.00024156126892194152,0.0002808123826980591,0.0015585641376674175,0,2,-1000,1,0,0,-1,1,0
18:35:44.808,AUTO,-35.3632622,149.1652375,583940,0,-0.001040823757648468,0.0009741107351146638,0.02225326932966709,0.00024156126892194152,0.0002808123826980591,0.0015585641376674175,0,2,-1000,1,0,0,-1,1,0
18:35:45.010,AUTO,-35.3632622,149.1652375,583940,0,-0.001040823757648468,0.0009741107351146638,0.02225326932966709,0.00024156126892194152,0.0002808123826980591,0.0015585641376674175,0,2,-1000,1,0,0,-1,1,0
18:35:45.212,AUTO,-35.3632622,149.1652375,583940,0,-0.001040823757648468,0.0009741107351146638,0.02225326932966709,0.00024156126892194152,0.0002808123826980591,0.0015585641376674175,0,2,-1000,1,0,0,-1,1,0
18:35:45.414,AUTO,-35.3632622,149.1652375,583950,13,-0.0008590698707848787,0.001015802496112883,0.022052694112062454,9.43253980949521e-05,0.00029831944266334176,0.0015903287567198277,0,1,-1000,1,0,1,0,0,-1
18:35:45.615,AUTO,-35.3632622,149.1652375,583950,13,-0.0008590698707848787,0.001015802496112883,0.022052694112062454,9.43253980949521e-05,0.00029831944266334176,0.0015903287567198277,0,1,-1000,1,0,1,0,0,-1
18:35:45.816,AUTO,-35.3632622,149.1652375,583950,14,-0.0008241888135671616,0.0010461803758516908,0.02199811488389969,0.00025690312031656504,0.0002649564412422478,0.0015979515155777335,0,2,-1000,0,0,1,0,0,-1
18:35:46.018,AUTO,-35.3632622,149.1652375,583950,15,-0.0007759546861052513,0.0010896080639213324,0.021937096491456032,0.00027521891752257943,0.000224870047532022,0.0015721132513135672,0,2,-1000,1,1,0,0,0,-1
18:35:46.219,AUTO,-35.3632622,149.1652375,583950,16,-0.0007311402005143464,0.0011418475769460201,0.021876275539398193,0.00032899348298087716,0.0002515764790587127,0.0016112601151689887,0,1,-1000,0,0,0,0,0,-1
18:35:46.421,AUTO,-35.3632622,149.1652375,583950,17,-0.0006808291072957218,0.0012120931642130017,0.02181539125740528,0.0003238532808609307,0.0002692913403734565,0.0014878015499562025,0,2,-1000,1,0,1,0,0,-1
18:35:46.622,AUTO,-35.3632622,149.1652375,583950,17,-0.0006808291072957218,0.0012120931642130017,0.02181539125740528,0.0003238532808609307,0.0002692913403734565,0.0014878015499562025,0,2,-1000,1,0,1,0,0,-1
18:35:46.824,AUTO,-35.3632622,149.1652375,583950,17,-0.0006808291072957218,0.0012120931642130017,0.02181539125740528,0.0003238532808609307,0.0002692913403734565,0.0014878015499562025,0,2,-1000,1,0,1,0,0,-1
18:35:47.027,AUTO,-35.3632622,149.1652375,583950,17,-0.0006808291072957218,0.0012120931642130017,0.02181539125740528,0.0003238532808609307,0.0002692913403734565,0.0014878015499562025,0,2,-1000,1,0,1,0,0,-1
18:35:47.229,AUTO,-35.3632622,149.1652375,583950,17,-0.0006808291072957218,0.0012120931642130017,0.02181539125740528,0.0003238532808609307,0.0002692913403734565,0.0014878015499562025,0,2,-1000,1,0,1,0,0,-1
18:35:47.432,AUTO,-35.3632622,149.1652375,583950,18,-0.0004640222468879074,0.0014994506491348147,0.021559109911322594,0.00027875107480213046,0.0003848941414617002,0.0013780186418443918,0,1,-1000,0,1,0,0,0,-1
18:35:47.634,AUTO,-35.3632622,149.1652375,583950,18,-0.0004640222468879074,0.0014994506491348147,0.021559109911322594,0.00027875107480213046,0.0003848941414617002,0.0013780186418443918,0,1,-1000,0,1,0,0,0,-1
18:35:47.835,AUTO,-35.3632622,149.1652375,583950,18,-0.0004034571466036141,0.0015678262570872903,0.02147083356976509,0.00029893364990130067,0.000304052431602031,0.0014606397598981857,0,1,-1000,1,1,1,0,0,-1
18:35:48.036,AUTO,-35.3632622,149.1652375,583950,18,-0.000335945951519534,0.0016408504452556372,0.021394159644842148,0.00031584349926561117,0.00027888413751497865,0.0013979189097881317,0,2,-1000,1,1,0,0,0,-1
18:35:48.237,AUTO,-35.3632622,149.1652375,583950,18,-0.00027063803281635046,0.0017093707574531436,0.02132219634950161,0.0002753609442152083,0.0003044657642021775,0.0014783554943278432,0,1,-1000,0,0,0,0,0,0
18:35:48.439,AUTO,-35.3632622,149.1652375,583960,20,0.0005054112989455462,0.0011045217979699373,0.021320363506674767,0.004064100794494152,-0.010182976722717285,0.0013707706239074469,0,0,-1087,4,-9,0,0,0,-6
18:35:48.640,AUTO,-35.3632622,149.1652375,583960,20,0.0005054112989455462,0.0011045217979699373,0.021320363506674767,0.004064100794494152,-0.010182976722717285,0.0013707706239074469,0,0,-1087,4,-9,0,0,0,-6
18:35:48.841,AUTO,-35.3632622,149.1652375,583960,20,0.0005054112989455462,0.0011045217979699373,0.021320363506674767,0.004064100794494152,-0.010182976722717285,0.0013707706239074469,0,0,-1087,4,-9,0,0,0,-6
18:35:49.043,AUTO,-35.3632622,149.1652375,583960,20,0.0005054112989455462,0.0011045217979699373,0.021320363506674767,0.004064100794494152,-0.010182976722717285,0.0013707706239074469,0,0,-1087,4,-9,0,0,0,-6
18:35:49.245,AUTO,-35.3632621,149.1652375,584370,436,0.001699130400083959,0.001062194351106882,0.021059812977910042,-0.009738958440721035,0.0019339506980031729,0.0019517627079039812,0,0,-1108,-9,2,1,0,1,-102
18:35:49.446,AUTO,-35.3632621,149.1652375,584660,723,0.0017647843342274427,0.0015914632240310311,0.021103788167238235,0.008014451712369919,0.00036323658423498273,0.0011747786775231361,0,0,-1086,8,0,0,0,1,-126
18:35:49.647,AUTO,-35.3632621,149.1652375,585000,1061,0.011629821732640266,0.000575838319491595,0.020998895168304443,0.0480913445353508,-0.006555520463734865,0.001879246672615409,0,0,-1039,48,-5,1,0,2,-139
18:35:49.850,AUTO,-35.3632621,149.1652375,585000,1061,0.011629821732640266,0.000575838319491595,0.020998895168304443,0.0480913445353508,-0.006555520463734865,0.001879246672615409,0,0,-1039,48,-5,1,0,2,-139
18:35:50.051,AUTO,-35.363262,149.1652375,585360,1425,0.02346997894346714,-0.0011765278177335858,0.021094368770718575,0.04708985239267349,-0.007495984900742769,0.002612610347568989,0,0,-1017,47,-7,2,1,5,-145
18:35:50.253,AUTO,-35.363262,149.1652377,585740,1807,0.03502800315618515,-0.0031485010404139757,0.021294642239809036,0.04484647884964943,-0.008129911497235298,0.00316750374622643,0,-1,-1007,45,-7,2,1,12,-148
18:35:50.454,AUTO,-35.3632619,149.1652381,586130,2190,0.045884665101766586,-0.005326283164322376,0.02155880816280842,0.042467210441827774,-0.009618991054594517,0.003547732252627611,0,-2,-1002,43,-9,3,3,21,-149
18:35:50.655,AUTO,-35.3632619,149.1652381,586130,2190,0.045884665101766586,-0.005326283164322376,0.02155880816280842,0.042467210441827774,-0.009618991054594517,0.003547732252627611,0,-2,-1002,43,-9,3,3,21,-149
18:35:50.857,AUTO,-35.3632619,149.1652381,586130,2190,0.045884665101766586,-0.005326283164322376,0.02155880816280842,0.042467210441827774,-0.009618991054594517,0.003547732252627611,0,-2,-1002,43,-9,3,3,21,-149
18:35:51.060,AUTO,-35.3632619,149.1652381,586130,2190,0.045884665101766586,-0.005326283164322376,0.02155880816280842,0.042467210441827774,-0.009618991054594517,0.003547732252627611,0,-2,-1002,43,-9,3,3,21,-149
18:35:51.262,AUTO,-35.3632614,149.1652411,587270,3335,0.04035959020256996,0.013854880817234516,-0.031232845038175583,-0.14415250718593597,0.09793916344642639,-0.1030491515994072,3,-10,-991,-143,98,-103,9,54,-145
18:35:51.464,AUTO,-35.3632611,149.1652425,587650,3710,-0.003102224785834551,0.02351163886487484,-0.05051679164171219,-0.1386212557554245,-0.007581534795463085,-0.056658580899238586,5,-11,-1008,-137,-6,-56,6,55,-145
18:35:51.666,AUTO,-35.363261,149.1652439,588020,4088,-0.02286801114678383,0.014124484732747078,-0.0585058219730854,-0.044093046337366104,-0.043337367475032806,-0.02938663773238659,5,-11,-1010,-43,-42,-29,3,47,-147
18:35:51.867,AUTO,-35.363261,149.1652439,588020,4088,-0.02286801114678383,0.014124484732747078,-0.0585058219730854,-0.044093046337366104,-0.043337367475032806,-0.02938663773238659,5,-11,-1010,-43,-42,-29,3,47,-147
18:35:52.069,AUTO,-35.3632609,149.1652451,588410,4472,-0.03088465705513954,0.005471386015415192,-0.06408917903900146,-0.03545168787240982,-0.019876034930348396,-0.033034782856702805,4,-9,-1004,-34,-19,-33,2,38,-149
18:35:52.270,AUTO,-35.3632608,149.1652459,588790,4857,-0.04539566859602928,0.003252923022955656,-0.07235168665647507,-0.07467010617256165,0.0009656066540628672,-0.03859683871269226,2,-5,-999,-74,1,-39,3,26,-149
18:35:52.471,AUTO,-35.3632607,149.1652465,589180,5241,-0.06807230412960052,0.0036764461547136307,-0.08261021971702576,-0.10080412030220032,0.0065876180306077,-0.042856741696596146,2,-4,-998,-100,7,-43,2,10,-148
18:35:52.673,AUTO,-35.3632607,149.1652465,589180,5241,-0.06807230412960052,0.0036764461547136307,-0.08261021971702576,-0.10080412030220032,0.0065876180306077,-0.042856741696596146,2,-4,-998,-100,7,-43,2,10,-148
18:35:52.875,AUTO,-35.3632607,149.1652465,589180,5241,-0.06807230412960052,0.0036764461547136307,-0.08261021971702576,-0.10080412030220032,0.0065876180306077,-0.042856741696596146,2,-4,-998,-100,7,-43,2,10,-148
18:35:53.078,AUTO,-35.3632607,149.1652465,589180,5241,-0.06807230412960052,0.0036764461547136307,-0.08261021971702576,-0.10080412030220032,0.0065876180306077,-0.042856741696596146,2,-4,-998,-100,7,-43,2,10,-148
18:35:53.280,AUTO,-35.3632607,149.1652451,590330,6392,-0.058785781264305115,0.0018683822127059102,-0.10462380200624466,0.05734717473387718,0.0021566771902143955,-0.014909077435731888,-3,7,-1000,58,2,-15,-4,-43,-149
18:35:53.482,AUTO,-35.3632608,149.1652437,590710,6775,-0.04387787729501724,0.0029221768490970135,-0.10830055922269821,0.062084998935461044,0.006674591451883316,-0.010114208795130253,-6,9,-1001,62,7,-10,-7,-53,-149
18:35:53.683,AUTO,-35.363261,149.1652421,591100,7160,-0.02790093421936035,0.004931439645588398,-0.11053088307380676,0.06572476774454117,0.009511562995612621,-0.004919263534247875,-5,12,-1002,66,10,-5,-10,-60,-149
18:35:53.885,AUTO,-35.363261,149.1652421,591100,7160,-0.02790093421936035,0.004931439645588398,-0.11053088307380676,0.06572476774454117,0.009511562995612621,-0.004919263534247875,-5,12,-1002,66,10,-5,-10,-60,-149
18:35:54.086,AUTO,-35.3632613,149.1652404,591480,7545,-0.011222461238503456,0.007539966609328985,-0.1117391586303711,0.06836406141519547,0.010598178952932358,-0.0024879425764083862,-8,13,-1003,69,11,-2,-13,-62,-150
18:35:54.288,AUTO,-35.3632616,149.1652387,591870,7932,0.00578892370685935,0.010190433822572231,-0.11188013106584549,0.06857417523860931,0.01047831866890192,-0.0009210697608068585,-5,13,-1004,69,11,-1,-16,-59,-151
18:35:54.490,AUTO,-35.363262,149.1652371,592260,8323,0.022960277274250984,0.012413031421601772,-0.11148031800985336,0.06874297559261322,0.007361674681305885,0.0023874177131801844,-4,15,-1004,69,7,1,-19,-53,-152
18:35:54.692,AUTO,-35.363262,149.1652371,592260,8323,0.022960277274250984,0.012413031421601772,-0.11148031800985336,0.06874297559261322,0.007361674681305885,0.0023874177131801844,-4,15,-1004,69,7,1,-19,-53,-152
18:35:54.894,AUTO,-35.363262,149.1652371,592260,8323,0.022960277274250984,0.012413031421601772,-0.11148031800985336,0.06874297559261322,0.007361674681305885,0.0023874177131801844,-4,15,-1004,69,7,1,-19,-53,-152
18:35:55.096,AUTO,-35.363262,149.1652371,592260,8323,0.022960277274250984,0.012413031421601772,-0.11148031800985336,0.06874297559261322,0.007361674681305885,0.0023874177131801844,-4,15,-1004,69,7,1,-19,-53,-152
18:35:55.299,AUTO,-35.363262,149.1652371,592260,8323,0.022960277274250984,0.012413031421601772,-0.11148031800985336,0.06874297559261322,0.007361674681305885,0.0023874177131801844,-4,15,-1004,69,7,1,-19,-53,-152
18:35:55.501,AUTO,-35.3632641,149.1652339,593830,9894,0.06784715503454208,-0.007371499668806791,-0.09129238873720169,-0.03952423110604286,-0.10669003427028656,0.09527359902858734,3,4,-995,-38,-105,95,-22,6,-151
18:35:55.702,AUTO,-35.3632645,149.1652342,594220,10281,0.05743846669793129,-0.038046568632125854,-0.06609348952770233,-0.03249366208910942,-0.11352678388357162,0.11818218976259232,5,1,-1000,-31,-113,117,-14,20,-150
18:35:55.903,AUTO,-35.3632646,149.1652347,594610,10670,0.043645862489938736,-0.06644684821367264,-0.037480391561985016,-0.08459900319576263,-0.07613929361104965,0.08873990923166275,4,-4,-995,-83,-75,88,1,31,-149
18:35:56.106,AUTO,-35.3632646,149.1652347,594610,10670,0.043645862489938736,-0.06644684821367264,-0.037480391561985016,-0.08459900319576263,-0.07613929361104965,0.08873990923166275,4,-4,-995,-83,-75,88,1,31,-149
18:35:56.307,AUTO,-35.3632645,149.1652356,594990,11051,0.013078231364488602,-0.06296609342098236,-0.03253659978508949,-0.130137637257576,0.07621124386787415,-0.02728021703660488,1,-6,-997,-129,77,-27,19,35,-147
18:35:56.508,AUTO,-35.3632639,149.1652365,595360,11429,-0.013875466771423817,-0.03817445784807205,-0.04890439659357071,-0.08961264044046402,0.10400398075580597,-0.08521731942892075,-1,-8,-1005,-88,104,-85,32,31,-147
18:35:56.710,AUTO,-35.3632639,149.1652365,595360,11429,-0.013875466771423817,-0.03817445784807205,-0.04890439659357071,-0.08961264044046402,0.10400398075580597,-0.08521731942892075,-1,-8,-1005,-88,104,-85,32,31,-147
18:35:56.911,AUTO,-35.3632639,149.1652365,595360,11429,-0.013875466771423817,-0.03817445784807205,-0.04890439659357071,-0.08961264044046402,0.10400398075580597,-0.08521731942892075,-1,-8,-1005,-88,104,-85,32,31,-147
18:35:57.113,AUTO,-35.3632639,149.1652365,595360,11429,-0.013875466771423817,-0.03817445784807205,-0.04890439659357071,-0.08961264044046402,0.10400398075580597,-0.08521731942892075,-1,-8,-1005,-88,104,-85,32,31,-147
18:35:57.315,AUTO,-35.3632615,149.1652377,596520,12583,-0.034979965537786484,0.010985778644680977,-0.12255465984344482,0.016307104378938675,0.036763813346624374,-0.08152562379837036,-6,-6,-1005,17,37,-82,33,0,-152
18:35:57.517,AUTO,-35.3632608,149.1652377,596920,12981,-0.029433099552989006,0.018350020051002502,-0.14227603375911713,0.02965799905359745,0.026806693524122238,-0.06623442471027374,-6,-4,-1003,30,27,-66,27,-9,-152
18:35:57.718,AUTO,-35.3632602,149.1652373,597310,13373,-0.02033202163875103,0.022899968549609184,-0.1568000316619873,0.042058251798152924,0.01584070920944214,-0.04874256253242493,-6,0,-1002,42,16,-49,20,-15,-153
18:35:57.919,AUTO,-35.3632598,149.1652368,597700,13765,-0.00956861674785614,0.026153501123189926,-0.1672532707452774,0.04681125655770302,0.012178231962025166,-0.03481696546077728,-6,0,-1001,47,13,-35,13,-18,-153
18:35:58.121,AUTO,-35.3632598,149.1652368,597700,13765,-0.00956861674785614,0.026153501123189926,-0.1672532707452774,0.04681125655770302,0.012178231962025166,-0.03481696546077728,-6,0,-1001,47,13,-35,13,-18,-153
18:35:58.322,AUTO,-35.3632595,149.1652363,598090,14158,0.002040589228272438,0.02876131236553192,-0.17495331168174744,0.0465654656291008,0.01149913389235735,-0.02812824212014675,-5,1,-1000,47,12,-28,5,-18,-153
18:35:58.523,AUTO,-35.3632594,149.1652358,598490,14551,0.011883702129125595,0.030121255666017532,-0.17946338653564453,0.03297244757413864,-0.0017816787585616112,-0.008681833744049072,-3,2,-999,33,-1,-9,-1,-15,-153
18:35:58.725,AUTO,-35.3632594,149.1652358,598490,14551,0.011883702129125595,0.030121255666017532,-0.17946338653564453,0.03297244757413864,-0.0017816787585616112,-0.008681833744049072,-3,2,-999,33,-1,-9,-1,-15,-153
18:35:58.926,AUTO,-35.3632594,149.1652358,598490,14551,0.011883702129125595,0.030121255666017532,-0.17946338653564453,0.03297244757413864,-0.0017816787585616112,-0.008681833744049072,-3,2,-999,33,-1,-9,-1,-15,-153
18:35:59.127,AUTO,-35.3632594,149.1652358,598490,14551,0.011883702129125595,0.030121255666017532,-0.17946338653564453,0.03297244757413864,-0.0017816787585616112,-0.008681833744049072,-3,2,-999,33,-1,-9,-1,-15,-153
18:35:59.329,AUTO,-35.3632598,149.165235,599650,15717,0.018511179834604263,0.017483826726675034,-0.17405001819133759,-0.005636871792376041,-0.0199210736900568,0.009653585031628609,1,1,-999,-5,-19,9,-15,0,-152
18:35:59.530,AUTO,-35.3632602,149.165235,600040,16107,0.016250625252723694,0.01251863595098257,-0.17077724635601044,-0.011048915795981884,-0.016988862305879593,0.009098156355321407,2,1,-999,-10,-16,9,-16,4,-152
18:35:59.731,AUTO,-35.3632605,149.165235,600430,16496,0.012803380377590656,0.008075806312263012,-0.1682964712381363,-0.015676608309149742,-0.01757621020078659,0.006933342199772596,3,0,-999,-15,-16,6,-17,7,-152
18:35:59.933,AUTO,-35.3632608,149.1652352,600820,16884,0.008930367417633533,0.004060755949467421,-0.16712112724781036,-0.015531753189861774,-0.01402239315211773,-4.0837330743670464e-05,3,0,-1000,-14,-13,0,-16,10,-152
18:36:00.134,AUTO,-35.3632608,149.1652352,600820,16884,0.008930367417633533,0.004060755949467421,-0.16712112724781036,-0.015531753189861774,-0.01402239315211773,-4.0837330743670464e-05,3,0,-1000,-14,-13,0,-16,10,-152
18:36:00.335,AUTO,-35.3632611,149.1652354,601210,17273,0.005317541304975748,0.0009408617042936385,-0.1675921082496643,-0.013179960660636425,-0.00912508275359869,-0.005204913206398487,3,0,-1000,-12,-8,-5,-15,10,-152
18:36:00.536,AUTO,-35.3632614,149.1652357,601610,17671,0.0022001550532877445,-0.0014584970194846392,-0.16946467757225037,-0.01031719334423542,-0.00924864411354065,-0.009497376158833504,3,0,-1000,-9,-8,-9,-13,10,-152
18:36:00.737,AUTO,-35.3632614,149.1652357,601610,17671,0.0022001550532877445,-0.0014584970194846392,-0.16946467757225037,-0.01031719334423542,-0.00924864411354065,-0.009497376158833504,3,0,-1000,-9,-8,-9,-13,10,-152
18:36:00.938,AUTO,-35.3632614,149.1652357,601610,17671,0.0022001550532877445,-0.0014584970194846392,-0.16946467757225037,-0.01031719334423542,-0.00924864411354065,-0.009497376158833504,3,0,-1000,-9,-8,-9,-13,10,-152
18:36:01.140,AUTO,-35.3632614,149.1652357,601610,17671,0.0022001550532877445,-0.0014584970194846392,-0.16946467757225037,-0.01031719334423542,-0.00924864411354065,-0.009497376158833504,3,0,-1000,-9,-8,-9,-13,10,-152
18:36:01.341,AUTO,-35.363262,149.1652363,602770,18832,-0.002163992263376713,-0.0040542022325098515,-0.18294252455234528,-0.000559635809622705,0.0005206673522479832,-0.022071437910199165,1,0,-1000,0,1,-22,-7,7,-152
18:36:01.542,AUTO,-35.3632621,149.1652364,603160,19223,-0.002135876100510359,-0.003991871140897274,-0.18919211626052856,0.002806603442877531,0.002538681961596012,-0.026775013655424118,1,0,-1000,3,3,-27,-5,5,-152
18:36:01.744,AUTO,-35.3632622,149.1652365,603550,19612,-0.0015321862883865833,-0.0030836276710033417,-0.19619350135326385,0.0027805091813206673,0.004180087707936764,-0.02784394845366478,0,0,-1000,3,4,-28,-4,4,-153
18:36:01.945,AUTO,-35.3632622,149.1652365,603940,20003,-0.0005483691347762942,-0.002423914847895503,-0.20309343934059143,0.005872060544788837,0.0026248120702803135,-0.03022497147321701,0,0,-1000,6,3,-30,-2,2,-153
18:36:02.146,AUTO,-35.3632623,149.1652365,604330,20394,0.0006636629696004093,-0.0013791084056720138,-0.21019965410232544,0.0032903202809393406,0.005921913776546717,-0.028920739889144897,0,0,-1000,6,3,-30,-1,1,-153
18:36:02.348,AUTO,-35.3632623,149.1652365,604330,20394,0.0006636629696004093,-0.0013791084056720138,-0.21019965410232544,0.0032903202809393406,0.005921913776546717,-0.028920739889144897,0,0,-1000,4,6,-29,-1,1,-153
18:36:02.549,AUTO,-35.3632622,149.1652365,604720,20785,0.0016610355814918876,-0.00014447957801166922,-0.217234805226326,0.004643055610358715,0.0055931038223207,-0.02624896913766861,0,0,-1000,5,6,-26,-1,1,-153
18:36:02.751,AUTO,-35.3632622,149.1652365,604720,20785,0.0016610355814918876,-0.00014447957801166922,-0.217234805226326,0.004643055610358715,0.0055931038223207,-0.02624896913766861,0,0,-1000,5,6,-26,-1,1,-153
18:36:02.952,AUTO,-35.3632622,149.1652365,604720,20785,0.0016610355814918876,-0.00014447957801166922,-0.217234805226326,0.004643055610358715,0.0055931038223207,-0.02624896913766861,0,0,-1000,5,6,-26,-1,1,-153
18:36:03.154,AUTO,-35.3632622,149.1652365,604720,20785,0.0016610355814918876,-0.00014447957801166922,-0.217234805226326,0.004643055610358715,0.0055931038223207,-0.02624896913766861,0,0,-1000,5,6,-26,-1,1,-153
18:36:03.357,AUTO,-35.3632622,149.1652365,605890,21956,0.0039837779477238655,0.002716218587011099,-0.23681038618087769,0.002373103052377701,0.002613979624584317,-0.02337665669620037,0,0,-1000,3,3,-23,0,1,-153
18:36:03.558,AUTO,-35.3632622,149.1652365,606290,22355,0.004429537802934647,0.003229226218536496,-0.2427012175321579,0.002383728977292776,0.0022634565830230713,-0.022338854148983955,0,0,-1000,2,2,-22,0,1,-153
18:36:03.759,AUTO,-35.3632622,149.1652365,606680,22745,0.004845657851547003,0.003680504858493805,-0.24820005893707275,0.0021892401855438948,0.0021429634653031826,-0.021326549351215363,0,0,-1000,2,3,-21,0,2,-153
18:36:03.960,AUTO,-35.3632622,149.1652365,607070,23135,0.004804559517651796,0.0037039825692772865,-0.253146231174469,8.28609336167574e-06,-0.0007482138462364674,-0.0193604975938797,0,0,-1000,1,0,-19,0,2,-153
18:36:04.162,AUTO,-35.3632622,149.1652365,607460,23525,0.004246395546942949,0.0033612276893109083,-0.25775572657585144,-0.0019558132626116276,0.0015198809560388327,-0.020035918802022934,0,0,-1000,-1,2,-20,0,3,-153
18:36:04.363,AUTO,-35.3632622,149.1652365,607460,23525,0.004246395546942949,0.0033612276893109083,-0.25775572657585144,-0.0019558132626116276,0.0015198809560388327,-0.020035918802022934,0,0,-1000,-1,2,-20,0,3,-153
18:36:04.565,AUTO,-35.3632622,149.1652365,607850,23916,0.003864539321511984,0.0034514465369284153,-0.26243075728416443,0.00013532215962186456,0.0012988913804292679,-0.01929870806634426,0,0,-1000,0,2,-19,0,3,-153
18:36:04.766,AUTO,-35.3632622,149.1652365,607850,23916,0.003864539321511984,0.0034514465369284153,-0.26243075728416443,0.00013532215962186456,0.0012988913804292679,-0.01929870806634426,0,0,-1000,0,2,-19,0,3,-153
18:36:04.969,AUTO,-35.3632622,149.1652365,607850,23916,0.003864539321511984,0.0034514465369284153,-0.26243075728416443,0.00013532215962186456,0.0012988913804292679,-0.01929870806634426,0,0,-1000,0,2,-19,0,3,-153
18:36:05.171,AUTO,-35.3632622,149.1652365,607850,23916,0.003864539321511984,0.0034514465369284153,-0.26243075728416443,0.00013532215962186456,0.0012988913804292679,-0.01929870806634426,0,0,-1000,0,2,-19,0,3,-153
18:36:05.374,AUTO,-35.3632621,149.1652366,609020,25086,0.0021157138980925083,0.003736598417162895,-0.2765376567840576,-0.015568339265882969,0.0029251426458358765,-0.014163502492010593,0,-1,-996,-14,3,-14,-1,4,-152
18:36:05.575,AUTO,-35.3632621,149.1652366,609410,25473,-0.011644975282251835,0.006000562105327845,-0.2759738862514496,-0.0052540479227900505,0.00859624519944191,0.007779491599649191,0,0,-1003,-4,9,7,-2,1,-152
18:36:05.776,AUTO,-35.3632621,149.1652366,609800,25861,-0.006111461669206619,0.006451095454394817,-0.2728123366832733,0.035040482878685,-0.0017485502175986767,0.016445118933916092,0,0,-1003,36,0,16,-3,0,-152
18:36:05.977,AUTO,-35.3632621,149.1652366,610190,26250,0.002503870753571391,0.005746500100940466,-0.2676231265068054,0.03092806041240692,-0.0019404202466830611,0.022493761032819748,0,1,-1001,31,-1,22,-4,-1,-153
18:36:06.179,AUTO,-35.3632622,149.1652366,610580,26640,0.008114148862659931,0.004695198964327574,-0.26116135716438293,0.016019193455576897,-0.003229653462767601,0.028647925704717636,0,0,-999,16,-2,28,-5,0,-153
18:36:06.380,AUTO,-35.3632622,149.1652366,610580,26640,0.008114148862659931,0.004695198964327574,-0.26116135716438293,0.016019193455576897,-0.003229653462767601,0.028647925704717636,0,0,-999,16,-2,28,-5,0,-153
18:36:06.581,AUTO,-35.3632623,149.1652366,610970,27035,0.010617109946906567,0.0035157192032784224,-0.25410959124565125,0.0059111835435032845,-0.0013291542418301105,0.02595931477844715,0,0,-999,6,0,25,-4,2,-153
18:36:06.783,AUTO,-35.3632623,149.1652366,610970,27035,0.010617109946906567,0.0035157192032784224,-0.25410959124565125,0.0059111835435032845,-0.0013291542418301105,0.02595931477844715,0,0,-999,6,0,25,-4,2,-153
18:36:06.985,AUTO,-35.3632623,149.1652366,610970,27035,0.010617109946906567,0.0035157192032784224,-0.25410959124565125,0.0059111835435032845,-0.0013291542418301105,0.02595931477844715,0,0,-999,6,0,25,-4,2,-153
18:36:07.187,AUTO,-35.3632623,149.1652366,610970,27035,0.010617109946906567,0.0035157192032784224,-0.25410959124565125,0.0059111835435032845,-0.0013291542418301105,0.02595931477844715,0,0,-999,6,0,25,-4,2,-153
18:36:07.389,AUTO,-35.3632624,149.1652368,612130,28198,0.00804914440959692,0.001992956269532442,-0.23550640046596527,-0.005452239420264959,0.0004549314035102725,0.022926421836018562,0,0,-1000,-4,1,22,-2,7,-152
18:36:07.591,AUTO,-35.3632624,149.1652369,612520,28587,0.005937740672379732,0.0017837900668382645,-0.2299846112728119,-0.008805238641798496,0.0013746211770921946,0.02201840654015541,1,-1,-1000,-7,2,21,-2,8,-152
18:36:07.792,AUTO,-35.3632624,149.1652371,612910,28975,0.0041559599339962006,0.0018978005973622203,-0.2247074693441391,-0.006681603845208883,0.0007247445173561573,0.021814905107021332,1,-1,-1000,-6,1,21,-1,9,-152
18:36:07.993,AUTO,-35.3632624,149.1652373,613300,29364,0.002221433212980628,0.0018611748237162828,-0.21966595947742462,-0.007666910998523235,-0.001963426358997822,0.02098712883889675,0,-1,-1000,-6,-1,20,-1,8,-152
18:36:08.194,AUTO,-35.3632624,149.1652375,613690,29752,0.0009998087771236897,0.0018100976012647152,-0.2145354449748993,-0.004216709639877081,0.0018538841977715492,0.02074027992784977,1,-1,-1000,-3,2,20,0,8,-152
18:36:08.396,AUTO,-35.3632624,149.1652375,613690,29752,0.0009998087771236897,0.0018100976012647152,-0.2145354449748993,-0.004216709639877081,0.0018538841977715492,0.02074027992784977,1,-1,-1000,-3,2,20,0,8,-152
18:36:08.597,AUTO,-35.3632624,149.1652376,614080,30141,0.00013018398021813482,0.0016663030255585909,-0.20982854068279266,0.0009382075513713062,0.00018115394050255418,0.01883385144174099,1,-1,-1001,1,0,18,0,7,-152
18:36:08.799,AUTO,-35.3632624,149.1652376,614080,30141,0.00013018398021813482,0.0016663030255585909,-0.20982854068279266,0.0009382075513713062,0.00018115394050255418,0.01883385144174099,1,-1,-1001,1,0,18,0,7,-152
18:36:09.002,AUTO,-35.3632624,149.1652376,614080,30141,0.00013018398021813482,0.0016663030255585909,-0.20982854068279266,0.0009382075513713062,0.00018115394050255418,0.01883385144174099,1,-1,-1001,1,0,18,0,7,-152
18:36:09.204,AUTO,-35.3632624,149.1652376,614080,30141,0.00013018398021813482,0.0016663030255585909,-0.20982854068279266,0.0009382075513713062,0.00018115394050255418,0.01883385144174099,1,-1,-1001,1,0,18,0,7,-152
18:36:09.405,AUTO,-35.3632624,149.1652381,615640,31700,-0.0010444142390042543,0.0010717263212427497,-0.19229328632354736,-0.00019397435244172812,0.0006187327671796083,0.017487430945038795,0,0,-1001,5,1,17,0,3,-153
18:36:09.607,LOITER,-35.3632624,149.1652381,615640,31700,-0.0010444142390042543,0.0010717263212427497,-0.19229328632354736,-0.00019397435244172812,0.0006187327671796083,0.017487430945038795,0,0,-1000,0,1,17,0,3,-153
18:36:09.808,LOITER,-35.3632624,149.1652381,616030,32090,-0.0011570878559723496,0.0009459220455028117,-0.18831363320350647,0.002857448998838663,0.003605213249102235,0.016268892213702202,0,0,-1000,3,4,15,0,2,-153
18:36:10.009,LOITER,-35.3632624,149.1652381,616410,32479,0.0006194665329530835,0.0016420455649495125,-0.18447737395763397,0.006811929866671562,0.002541990950703621,0.014896739274263382,0,0,-1000,7,3,14,0,2,-153
18:36:10.211,LOITER,-35.3632624,149.1652381,616800,32868,0.001888320199213922,0.0018940434092655778,-0.1808100789785385,0.006343216169625521,0.0016310883220285177,0.014200172387063503,0,0,-1000,7,2,13,0,1,-153
18:36:10.412,LOITER,-35.3632624,149.1652381,617190,33252,-0.017029134556651115,0.019644467160105705,-0.13815994560718536,-0.20459933578968048,0.18411123752593994,0.43960636854171753,0,-1,-924,-203,184,439,-1,0,-143
18:36:10.614,LOITER,-35.3632624,149.1652381,617190,33252,-0.017029134556651115,0.019644467160105705,-0.13815994560718536,-0.20459933578968048,0.18411123752593994,0.43960636854171753,0,-1,-924,-203,184,439,-1,0,-143
18:36:10.815,LOITER,-35.3632624,149.1652381,617190,33252,-0.017029134556651115,0.019644467160105705,-0.13815994560718536,-0.20459933578968048,0.18411123752593994,0.43960636854171753,0,-1,-924,-203,184,439,-1,0,-143
18:36:11.017,LOITER,-35.3632624,149.1652381,617190,33252,-0.017029134556651115,0.019644467160105705,-0.13815994560718536,-0.20459933578968048,0.18411123752593994,0.43960636854171753,0,-1,-924,-203,184,439,-1,0,-143
18:36:11.219,LOITER,-35.3632624,149.1652381,617190,33252,-0.017029134556651115,0.019644467160105705,-0.13815994560718536,-0.20459933578968048,0.18411123752593994,0.43960636854171753,0,-1,-924,-203,184,439,-1,0,-143
18:36:11.422,LOITER,-35.3632642,149.1652358,617870,33931,-0.00044148933375254273,-0.027338018640875816,0.19009645283222198,0.1665649712085724,-0.12350806593894958,0.0035574405919760466,2,4,-816,166,-122,3,-30,-34,25
18:36:11.623,LOITER,-35.3632642,149.1652358,617870,33931,-0.00044148933375254273,-0.027338018640875816,0.19009645283222198,0.1665649712085724,-0.12350806593894958,0.0035574405919760466,2,4,-816,166,-122,3,-30,-34,25
18:36:11.825,LOITER,-35.3632648,149.165235,617740,33807,0.01120529230684042,-0.04817672818899155,0.18164809048175812,-1.4371567964553833,-0.06035953387618065,-0.04908248782157898,0,-85,-694,-1439,-59,-49,-22,-30,81
18:36:12.026,LOITER,-35.3632652,149.1652343,617470,33531,0.03522472083568573,-0.0585627555847168,0.16998980939388275,-1.3422433137893677,-0.017952103167772293,-0.05329039320349693,0,-96,-847,-1346,-17,-53,-13,-21,131
18:36:12.227,LOITER,-35.3632654,149.1652339,617090,33155,0.0767146423459053,-0.05489559844136238,0.16158132255077362,0.09642661362886429,0.02192181535065174,-0.042102839797735214,0,-57,-869,90,23,-42,-2,-8,163
18:36:12.428,LOITER,-35.3632654,149.1652339,616640,32702,0.08385694772005081,-0.04557425528764725,0.15494605898857117,1.406609296798706,0.03849709779024124,-0.020931100472807884,0,4,-914,1403,39,-21,6,4,187
18:36:12.629,LOITER,-35.3632654,149.1652339,616640,32702,0.08385694772005081,-0.04557425528764725,0.15494605898857117,1.406609296798706,0.03849709779024124,-0.020931100472807884,0,4,-914,1403,39,-21,6,4,187
18:36:12.830,LOITER,-35.3632654,149.1652339,616640,32702,0.08385694772005081,-0.04557425528764725,0.15494605898857117,1.406609296798706,0.03849709779024124,-0.020931100472807884,0,4,-914,1403,39,-21,6,4,187
18:36:13.033,LOITER,-35.3632654,149.1652339,616640,32702,0.08385694772005081,-0.04557425528764725,0.15494605898857117,1.406609296798706,0.03849709779024124,-0.020931100472807884,0,4,-914,1403,39,-21,6,4,187
18:36:13.236,LOITER,-35.3632654,149.1652339,616640,32702,0.08385694772005081,-0.04557425528764725,0.15494605898857117,1.406609296798706,0.03849709779024124,-0.020931100472807884,0,4,-914,1403,39,-21,6,4,187
18:36:13.438,LOITER,-35.363264,149.1652371,614580,30640,-0.021537436172366142,0.0006056611891835928,0.14020417630672455,-1.052999496459961,0.041154276579618454,-0.01634225621819496,0,2,-1037,-1045,42,-16,24,34,199
18:36:13.639,LOITER,-35.363264,149.1652371,614580,30640,-0.021537436172366142,0.0006056611891835928,0.14020417630672455,-1.052999496459961,0.041154276579618454,-0.01634225621819496,0,2,-1037,-1045,42,-16,24,34,199
18:36:13.840,LOITER,-35.3632636,149.1652384,614070,30131,-0.03763507306575775,0.00804427731782198,0.13723289966583252,-1.7502447366714478,0.039584700018167496,-0.07025062292814255,0,-76,-1013,-1747,40,-70,24,31,193
18:36:14.042,LOITER,-35.3632631,149.1652399,613570,29636,-0.034014031291007996,0.013296548277139664,0.13527633249759674,-2.134660005569458,0.0343920961022377,-0.05128513649106026,3,-117,-1008,-2137,35,-51,23,26,187
18:36:14.243,LOITER,-35.3632627,149.1652412,613090,29156,-0.03280147165060043,0.017489638179540634,0.12986630201339722,-1.0900524854660034,0.001362278824672103,-0.015498440712690353,4,-110,-998,-1096,2,-15,21,19,181
18:36:14.445,AUTO,-35.3632624,149.1652424,612630,28692,-0.02491017058491707,0.017995059490203857,0.12362153828144073,0.5849360823631287,-0.013045613653957844,-0.023218318819999695,4,-37,-1008,579,-12,-23,19,10,175
18:36:14.647,AUTO,-35.3632624,149.1652424,612630,28692,-0.02491017058491707,0.017995059490203857,0.12362153828144073,0.5849360823631287,-0.013045613653957844,-0.023218318819999695,4,-37,-1008,579,-12,-23,19,10,175
18:36:14.849,AUTO,-35.3632624,149.1652424,612630,28692,-0.02491017058491707,0.017995059490203857,0.12362153828144073,0.5849360823631287,-0.013045613653957844,-0.023218318819999695,4,-37,-1008,579,-12,-23,19,10,175
18:36:15.052,AUTO,-35.3632624,149.1652424,612630,28692,-0.02491017058491707,0.017995059490203857,0.12362153828144073,0.5849360823631287,-0.013045613653957844,-0.023218318819999695,4,-37,-1008,579,-12,-23,19,10,175
18:36:15.254,AUTO,-35.3632624,149.1652424,612630,28692,-0.02491017058491707,0.017995059490203857,0.12362153828144073,0.5849360823631287,-0.013045613653957844,-0.023218318819999695,4,-37,-1008,579,-12,-23,19,10,175
18:36:15.458,AUTO,-35.3632616,149.1652453,611410,27470,-0.02892903797328472,0.007891638204455376,0.10528971999883652,0.003162278328090906,-0.018350480124354362,-0.012067864648997784,2,-32,-1063,0,-17,-12,14,-20,59
18:36:15.659,AUTO,-35.3632615,149.1652457,611270,27334,-0.03959263488650322,0.005342089105397463,0.10019464790821075,-0.49895793199539185,-0.009957673959434032,-0.007419089786708355,2,-43,-1075,-501,-9,-7,13,-24,42
18:36:15.862,AUTO,-35.3632615,149.1652457,611270,27334,-0.03959263488650322,0.005342089105397463,0.10019464790821075,-0.49895793199539185,-0.009957673959434032,-0.007419089786708355,2,-43,-1075,-501,-9,-7,13,-24,42
18:36:16.063,AUTO,-35.3632615,149.1652461,611180,27246,-0.04357946291565895,0.004179041367024183,0.09661437571048737,-0.7775791883468628,-0.006470179185271263,0.002906881971284747,1,-49,-1052,-779,-5,2,12,-28,27
18:36:16.265,AUTO,-35.3632615,149.1652464,611130,27191,-0.04305421933531761,0.003188195638358593,0.09361293166875839,-0.7381721138954163,-0.007486136630177498,0.0063851200975477695,1,-24,-1047,-737,-6,6,12,-31,15
18:36:16.466,AUTO,-35.3632614,149.1652466,611100,27169,-0.03653564676642418,0.002166410442441702,0.09123523533344269,-0.14281046390533447,-0.010637311264872551,0.009569872170686722,0,11,-1047,-140,-9,9,11,-33,1
18:36:16.668,AUTO,-35.3632614,149.1652466,611100,27169,-0.03653564676642418,0.002166410442441702,0.09123523533344269,-0.14281046390533447,-0.010637311264872551,0.009569872170686722,0,11,-1047,-140,-9,9,11,-33,1
18:36:16.871,AUTO,-35.3632614,149.1652466,611100,27169,-0.03653564676642418,0.002166410442441702,0.09123523533344269,-0.14281046390533447,-0.010637311264872551,0.009569872170686722,0,11,-1047,-140,-9,9,11,-33,1
18:36:17.073,AUTO,-35.3632614,149.1652466,611100,27169,-0.03653564676642418,0.002166410442441702,0.09123523533344269,-0.14281046390533447,-0.010637311264872551,0.009569872170686722,0,11,-1047,-140,-9,9,11,-33,1
18:36:17.275,AUTO,-35.3632614,149.1652466,611100,27169,-0.03653564676642418,0.002166410442441702,0.09123523533344269,-0.14281046390533447,-0.010637311264872551,0.009569872170686722,0,11,-1047,-140,-9,9,11,-33,1
18:36:17.476,AUTO,-35.3632613,149.1652466,611310,27376,-0.022965140640735626,0.00241282070055604,0.08506119251251221,-0.34658804535865784,-0.001813735463656485,0.002535950392484665,-1,-12,-1048,-346,-1,2,11,-37,-46
18:36:17.678,AUTO,-35.3632613,149.1652465,611440,27502,-0.02037891186773777,0.0020762912463396788,0.08328979462385178,0.13433144986629486,0.0004930185386911035,0.0032576655503362417,-1,12,-1050,135,1,3,10,-36,-58
18:36:17.880,AUTO,-35.3632613,149.1652465,611440,27502,-0.02037891186773777,0.0020762912463396788,0.08328979462385178,0.13433144986629486,0.0004930185386911035,0.0032576655503362417,-1,12,-1050,135,1,3,10,-36,-58
18:36:18.081,AUTO,-35.3632613,149.1652465,611590,27659,-0.01322130300104618,0.003052634419873357,0.08191601932048798,0.2915864586830139,0.006186351180076599,0.0025768126361072063,-1,9,-1051,291,6,2,10,-36,-69
18:36:18.283,AUTO,-35.3632612,149.1652464,611780,27846,-0.01545889675617218,0.0041300044395029545,0.08083225786685944,-0.09111368656158447,0.0010486483806744218,0.0007593432092107832,-1,-6,-1048,-92,1,0,10,-35,-82
18:36:18.484,AUTO,-35.3632611,149.1652463,612000,28068,-0.01604430377483368,0.004544128198176622,0.0793183296918869,-0.13026517629623413,-0.0015504558105021715,-0.0018098943401128054,-2,-1,-1047,-130,-1,-1,9,-34,-94
18:36:18.685,AUTO,-35.3632611,149.1652463,612000,28068,-0.01604430377483368,0.004544128198176622,0.0793183296918869,-0.13026517629623413,-0.0015504558105021715,-0.0018098943401128054,-2,-1,-1047,-130,-1,-1,9,-34,-94
18:36:18.888,AUTO,-35.3632611,149.1652463,612000,28068,-0.01604430377483368,0.004544128198176622,0.0793183296918869,-0.13026517629623413,-0.0015504558105021715,-0.0018098943401128054,-2,-1,-1047,-130,-1,-1,9,-34,-94
18:36:19.090,AUTO,-35.3632611,149.1652463,612000,28068,-0.01604430377483368,0.004544128198176622,0.0793183296918869,-0.13026517629623413,-0.0015504558105021715,-0.0018098943401128054,-2,-1,-1047,-130,-1,-1,9,-34,-94
18:36:19.293,AUTO,-35.3632611,149.1652463,612000,28068,-0.01604430377483368,0.004544128198176622,0.0793183296918869,-0.13026517629623413,-0.0015504558105021715,-0.0018098943401128054,-2,-1,-1047,-130,-1,-1,9,-34,-94
18:36:19.496,AUTO,-35.3632609,149.1652454,613190,29253,-0.000821177673060447,0.00468661030754447,0.0726328194141388,0.03935553506016731,0.0013088807463645935,-0.002036707242950797,-1,3,-1036,38,2,-1,7,-28,-139
18:36:19.697,AUTO,-35.3632609,149.1652452,613550,29614,0.012716629542410374,0.004797129891812801,0.0717412456870079,0.05296466127038002,-0.00043873756658285856,-0.0006870175711810589,-2,2,-1016,51,0,0,6,-24,-144
18:36:19.898,AUTO,-35.3632609,149.1652452,613550,29614,0.012716629542410374,0.004797129891812801,0.0717412456870079,0.05296466127038002,-0.00043873756658285856,-0.0006870175711810589,-2,2,-1016,51,0,0,6,-24,-144
18:36:20.099,AUTO,-35.3632608,149.1652451,613930,29994,0.027077658101916313,0.004721394274383783,0.07125507295131683,0.05259029567241669,-0.0012092851102352142,0.0008565642056055367,-1,2,-1007,51,0,0,5,-16,-147
18:36:20.300,AUTO,-35.3632608,149.1652452,614310,30372,0.04055889695882797,0.004267906304448843,0.07113609462976456,0.050563063472509384,-0.0024786482099443674,0.0017011590534821153,-1,1,-1003,49,-2,1,4,-6,-148
18:36:20.501,AUTO,-35.3632607,149.1652454,614690,30754,0.0532664954662323,0.0033338170032948256,0.07123129069805145,0.04739196598529816,-0.005106152035295963,0.002282283268868923,0,-1,-1001,46,-4,2,4,5,-148
18:36:20.703,AUTO,-35.3632607,149.1652454,614690,30754,0.0532664954662323,0.0033338170032948256,0.07123129069805145,0.04739196598529816,-0.005106152035295963,0.002282283268868923,0,-1,-1001,46,-4,2,4,5,-148
18:36:20.905,AUTO,-35.3632607,149.1652454,614690,30754,0.0532664954662323,0.0033338170032948256,0.07123129069805145,0.04739196598529816,-0.005106152035295963,0.002282283268868923,0,-1,-1001,46,-4,2,4,5,-148
18:36:21.107,AUTO,-35.3632607,149.1652454,614690,30754,0.0532664954662323,0.0033338170032948256,0.07123129069805145,0.04739196598529816,-0.005106152035295963,0.002282283268868923,0,-1,-1001,46,-4,2,4,5,-148
18:36:21.309,AUTO,-35.3632605,149.1652483,615820,31881,0.02468286082148552,0.017358550801873207,0.05020974949002266,-0.20277613401412964,0.015098457224667072,-0.05260774493217468,1,-10,-990,-203,15,-52,3,45,-143
18:36:21.511,AUTO,-35.3632604,149.1652496,616190,32250,-0.023987939581274986,0.015001892112195492,0.03773247078061104,-0.18146446347236633,-0.01718025468289852,-0.049575865268707275,4,-8,-1003,-182,-16,-49,2,41,-143
18:36:21.713,AUTO,-35.3632604,149.1652506,616560,32621,-0.060932356864213943,0.012051108293235302,0.025742530822753906,-0.1080867126584053,-0.006434770300984383,-0.04217462241649628,0,-7,-1011,-109,-5,-41,2,27,-145
18:36:21.914,AUTO,-35.3632603,149.1652512,616930,32999,-0.07650189101696014,0.009658077731728554,0.015597268007695675,-0.027457792311906815,-0.0032992176711559296,-0.036010198295116425,0,-3,-1008,-28,-2,-35,2,8,-147
18:36:22.115,AUTO,-35.3632603,149.1652512,616930,32999,-0.07650189101696014,0.009658077731728554,0.015597268007695675,-0.027457792311906815,-0.0032992176711559296,-0.036010198295116425,0,-3,-1008,-28,-2,-35,2,8,-147
18:36:22.317,AUTO,-35.3632602,149.1652511,617320,33380,-0.07449480891227722,0.0080643305554986,0.007722375448793173,0.029779186472296715,-0.002503762487322092,-0.027423925697803497,-1,0,-1004,28,-1,-27,2,-12,-148
18:36:22.518,AUTO,-35.3632601,149.1652506,617700,33762,-0.06275840103626251,0.007622044533491135,0.0020144975278526545,0.05498698726296425,0.0022238001693040133,-0.018406899645924568,-2,3,-1001,53,2,-18,2,-29,-148
18:36:22.719,AUTO,-35.3632601,149.1652506,617700,33762,-0.06275840103626251,0.007622044533491135,0.0020144975278526545,0.05498698726296425,0.0022238001693040133,-0.018406899645924568,-2,3,-1001,53,2,-18,2,-29,-148
18:36:22.921,AUTO,-35.3632601,149.1652506,617700,33762,-0.06275840103626251,0.007622044533491135,0.0020144975278526545,0.05498698726296425,0.0022238001693040133,-0.018406899645924568,-2,3,-1001,53,2,-18,2,-29,-148
18:36:23.124,AUTO,-35.3632601,149.1652506,617700,33762,-0.06275840103626251,0.007622044533491135,0.0020144975278526545,0.05498698726296425,0.0022238001693040133,-0.018406899645924568,-2,3,-1001,53,2,-18,2,-29,-148
18:36:23.326,AUTO,-35.36326,149.1652464,618840,34908,-0.016238490119576454,0.014758666977286339,-0.005690963473170996,0.0684167817234993,0.014721731655299664,-0.004417181946337223,-6,12,-1002,67,15,-3,-3,-57,-148
18:36:23.528,AUTO,-35.3632599,149.1652447,619230,35292,0.0009888787753880024,0.018749313428997993,-0.006121412850916386,0.07089269161224365,0.01723049394786358,-0.0014538448303937912,-12,15,-1004,70,17,-1,-7,-57,-149
18:36:23.730,AUTO,-35.3632601,149.1652429,619610,35679,0.018471861258149147,0.02244666963815689,-0.00578815583139658,0.07190943509340286,0.01417570561170578,9.973542182706296e-05,-3,13,-1004,71,14,0,-12,-54,-150
18:36:23.931,AUTO,-35.3632603,149.1652412,620000,36069,0.03595200181007385,0.025684984400868416,-0.004670996218919754,0.07096067816019058,0.010076015256345272,0.0019767293706536293,-10,14,-1004,70,10,2,-17,-46,-151
18:36:24.133,AUTO,-35.3632603,149.1652412,620000,36069,0.03595200181007385,0.025684984400868416,-0.004670996218919754,0.07096067816019058,0.010076015256345272,0.0019767293706536293,-10,14,-1004,70,10,2,-17,-46,-151
18:36:24.334,AUTO,-35.3632607,149.1652398,620400,36460,0.05129442363977432,0.026258056983351707,-0.0014592453371733427,0.044092584401369095,-0.013207053765654564,0.02729514054954052,-1,12,-1001,43,-12,27,-21,-35,-152
18:36:24.536,AUTO,-35.3632611,149.1652387,620790,36851,0.05325116217136383,0.012608864344656467,0.01272591669112444,-0.0031145045068114996,-0.07072078436613083,0.07292155921459198,0,10,-999,-4,-70,73,-25,-22,-151
18:36:24.737,AUTO,-35.3632611,149.1652387,620790,36851,0.05325116217136383,0.012608864344656467,0.01272591669112444,-0.0031145045068114996,-0.07072078436613083,0.07292155921459198,0,10,-999,-4,-70,73,-25,-22,-151
18:36:24.938,AUTO,-35.3632611,149.1652387,620790,36851,0.05325116217136383,0.012608864344656467,0.01272591669112444,-0.0031145045068114996,-0.07072078436613083,0.07292155921459198,0,10,-999,-4,-70,73,-25,-22,-151
18:36:25.140,AUTO,-35.3632611,149.1652387,620790,36851,0.05325116217136383,0.012608864344656467,0.01272591669112444,-0.0031145045068114996,-0.07072078436613083,0.07292155921459198,0,10,-999,-4,-70,73,-25,-22,-151
18:36:25.342,AUTO,-35.363262,149.1652373,621960,38020,0.05808134749531746,-0.039672061800956726,0.07608597725629807,0.02723177894949913,-0.04169465973973274,0.07553641498088837,0,2,-1001,26,-41,75,-6,13,-151
18:36:25.544,AUTO,-35.3632619,149.1652374,622340,38409,0.054405175149440765,-0.03799818828701973,0.08208663016557693,-0.032528456300497055,0.04996265098452568,-0.0057590012438595295,0,0,-995,-33,50,-5,5,25,-149
18:36:25.745,AUTO,-35.3632616,149.1652378,622740,38801,0.04089535027742386,-0.02015441283583641,0.07238903641700745,-0.05563844367861748,0.07606242597103119,-0.051530223339796066,-2,-5,-997,-56,76,-51,14,34,-148
18:36:25.946,AUTO,-35.3632611,149.1652384,623120,39184,0.028125787153840065,-0.0031881225295364857,0.05531175807118416,-0.04933646693825722,0.058620065450668335,-0.06382057070732117,-1,-6,-1000,-50,59,-63,19,37,-148
18:36:26.147,AUTO,-35.3632611,149.1652384,623120,39184,0.028125787153840065,-0.0031881225295364857,0.05531175807118416,-0.04933646693825722,0.058620065450668335,-0.06382057070732117,-1,-6,-1000,-50,59,-63,19,37,-148
18:36:26.349,AUTO,-35.3632605,149.165239,623500,39569,0.0181169081479311,0.008853147737681866,0.03575475513935089,-0.04017740488052368,0.04116255044937134,-0.06941667199134827,-3,-7,-1001,-40,41,-69,20,37,-149
18:36:26.550,AUTO,-35.3632599,149.1652396,623890,39955,0.004529007710516453,0.017065396532416344,0.016912683844566345,-0.041699014604091644,0.027623914182186127,-0.061761531978845596,-2,-7,-1003,-42,28,-61,19,35,-149
18:36:26.752,AUTO,-35.3632599,149.1652396,623890,39955,0.004529007710516453,0.017065396532416344,0.016912683844566345,-0.041699014604091644,0.027623914182186127,-0.061761531978845596,-2,-7,-1003,-42,28,-61,19,35,-149
18:36:26.953,AUTO,-35.3632599,149.1652396,623890,39955,0.004529007710516453,0.017065396532416344,0.016912683844566345,-0.041699014604091644,0.027623914182186127,-0.061761531978845596,-2,-7,-1003,-42,28,-61,19,35,-149
18:36:27.157,AUTO,-35.3632599,149.1652396,623890,39955,0.004529007710516453,0.017065396532416344,0.016912683844566345,-0.041699014604091644,0.027623914182186127,-0.061761531978845596,-2,-7,-1003,-42,28,-61,19,35,-149
18:36:27.359,AUTO,-35.3632585,149.1652405,625060,41121,-0.007125881500542164,0.028323646634817123,-0.026583779603242874,0.02546049654483795,0.011194069869816303,-0.0390237458050251,-2,-3,-1003,24,11,-38,9,16,-152
