time_stamp,roll,pitch,yaw,rollspeed,pitchspeed,yawspeed,MODE,xacc,yacc,zacc,xgyro,ygyro,zgyro,lat,lon,relative_alt,vx,vy,vz,RTL_ALT
03:09:18,-0.001288865809328854,0.0009665841935202479,0.023111794143915176,0.0002835117047652602,0.000224798743147403,0.0018193703144788742,STABILIZE,0.0,1.0,-1000.0,1.0,0.0,0.0,-35.3632622,149.1652375,0.0,-1.0,0.0,0.0,1500.0
03:09:20,-0.0011437858920544386,0.0009725512936711311,0.022571781650185585,0.0003682601382024586,0.0003491987590678036,0.001559303142130375,AUTO,0.0,1.0,-1000.0,0.0,1.0,0.0,-35.3632622,149.1652375,7.0,-1.0,0.0,0.0,1500.0
03:09:22,-0.0008135793323162943,0.0012413362856023014,0.022225013934075832,0.0003284709237050265,0.0002498233807273209,0.0015854408266022801,AUTO,0.0,1.0,-1000.0,0.0,1.0,1.0,-35.3632621,149.16523745,32.5,0.0,0.0,-3.5,65202.5
03:09:24,0.0004345253109931946,0.0009868929628282785,0.021568812429904938,0.000939612538786605,0.0025132476002909243,0.0015059830620884895,AUTO,0.0,0.5,-1064.5,1.5,2.5,0.5,-35.3632621,149.1652375,142.0,0.0,1.0,-40.0,128905.0
03:09:26,0.049220453947782516,-0.005154950311407447,0.0062417699955403805,0.002690223976969719,0.02042308123782277,-0.030039111035875976,AUTO,0.5,-4.5,-998.5,3.5,21.0,-30.5,-35.363261800000004,149.1652388,2421.0,5.0,30.5,-148.5,128905.0
03:09:27,-0.008227144833654165,0.015748169622384012,-0.05341009609401226,-0.0981900617480278,0.0034496071748435497,-0.05614299327135086,AUTO,4.25,-10.75,-1002.75,-97.25,4.5,-56.0,-35.363261075,149.16524332499998,3937.0,4.25,48.75,-146.75,58353.0
03:09:28,-0.06303992494940758,0.0018064010655507445,-0.08467798307538033,-0.025675926357507706,-0.0043245479464530945,-0.026006000582128763,AUTO,1.0,-1.0,-1000.5,-25.0,-3.0,-26.0,-35.36326085,149.16524575,5463.5,-1.0,-5.5,-149.0,58353.0
03:09:30,0.03858764190226793,0.010951634030789137,-0.0977555587887764,0.0648449007421732,0.0034316902747377753,0.0033476899843662977,AUTO,-3.0,10.5,-1003.0,65.0,4.0,2.5,-35.3632623,149.16523610000002,8548.0,-17.0,-37.5,-152.0,58353.0
03:09:32,-0.020420904271304607,-0.015379943186417222,-0.07770171761512756,-0.0371058601886034,0.058068715035915375,-0.06685488298535347,AUTO,-2.0,-6.0,-1004.0,-36.5,58.0,-66.5,-35.36326285,149.16523669999998,11631.0,23.0,16.0,-149.0,61774.0
03:09:34,0.011292971670627594,0.01894556824117899,-0.1624310314655304,0.011591241927817464,-0.005230042326729745,-0.005874785012565553,AUTO,-2.0,1.0,-999.0,12.0,-4.0,-6.0,-35.3632602,149.16523560000002,14741.0,-4.0,-7.0,-151.5,65195.0
03:09:36,0.003189714392647147,0.001005233876639977,-0.16590089350938797,-0.007416861364617944,-0.004449954489246011,-0.012083766050636768,AUTO,2.0,0.0,-1000.0,-6.0,-3.5,-12.0,-35.3632614,149.16523560000002,17463.5,-10.5,9.0,-151.0,65195.0
03:09:37,-0.00026043029811262386,-0.001386697796988301,-0.18726246058940887,0.0007065663521643728,0.001677215564996004,-0.024051672779023647,AUTO,0.5,0.0,-1000.0,1.25,2.25,-24.0,-35.36326199999999,149.16523625,19169.5,-4.5,5.5,-151.75,231658.0
03:09:38,0.0010628615564201027,5.139765562489629e-05,-0.20615734159946442,0.0024687942350283265,0.0035194907104596496,-0.025822642259299755,AUTO,0.0,0.0,-1000.0,3.0,4.0,-25.5,-35.3632621,149.1652364,20337.5,-1.5,2.5,-152.0,231658.0
03:09:40,0.035834853537380695,-0.03697361424565315,0.08146211132407188,0.08218171074986458,-0.06129146460443735,-0.03186394926160574,AUTO,2.0,8.5,-958.5,82.5,-60.0,-32.0,-35.3632645,149.16523254999998,23132.0,-25.5,-24.5,-100.0,231658.0
03:09:42,0.006986796506680548,0.006043963483534753,0.05026715248823166,-0.04090721532702446,0.023557021282613277,-0.00034332739596720785,AUTO,-0.5,-11.0,-978.0,-39.5,24.0,-0.5,-35.36326335,149.1652356,24516.5,20.5,36.5,-42.0,231658.0
03:09:43,-0.015001210384070873,0.017100455472245812,0.04553977679461241,-0.050937787629663944,0.03802607339457609,-0.0031630865996703506,AUTO,0.0,-4.5,-961.75,-49.75,38.75,-2.75,-35.363261449999996,149.165239275,24856.75,7.5,17.0,-10.75,20294.0
03:09:44,-0.05074051022529602,0.016134799923747778,0.041890718042850494,-0.15012361854314804,-0.07330902107059956,-0.015116875059902668,AUTO,0.0,8.0,-982.5,-148.5,-72.0,-15.0,-35.3632611,149.16524005000002,24833.0,-3.0,-4.5,18.5,20294.0
03:09:46,0.009140788461081684,-0.0893368311226368,-0.19605063274502754,0.357208214700222,-0.05655829794704914,-0.6644486784934998,AUTO,-18.0,4.0,-1005.0,357.5,-55.5,-664.0,-35.363257000000004,149.16523425,24595.5,72.5,-40.0,2.5,20294.0
03:09:48,0.0378543995320797,-0.16895511746406555,-0.3645435571670532,-0.3731243908405304,-0.017078308970667422,0.011037127813324332,AUTO,-54.0,-44.5,-1002.0,-371.0,-16.0,11.0,-35.36323005,149.1652176,24422.0,246.0,-98.0,13.0,27670.5
03:09:50,0.04500429332256317,-0.2103622630238533,-0.3708844482898712,-0.014575786888599396,-0.02911753673106432,-0.0007885300437919796,AUTO,-96.5,-41.5,-990.5,-13.5,-28.0,-0.5,-35.363168099999996,149.16518589999998,24019.0,442.0,-182.0,26.0,35047.0
03:09:52,0.06640785932540894,-0.17819605767726898,-0.37647745013237,0.013667317107319832,0.03944762423634529,-0.008719536010175943,AUTO,-129.0,-60.5,-986.5,15.0,39.5,-8.0,-35.3630738,149.16513675,23474.5,586.5,-250.5,27.5,35047.0
03:09:53,0.07656602747738361,-0.14710760116577148,-0.3789280503988266,0.013206365401856601,0.025579328648746014,-0.004430721077369526,AUTO,-132.0,-72.0,-983.5,14.5,26.0,-4.0,-35.363005625,149.1651008,23114.25,621.25,-265.25,29.25,245266.0
03:09:54,0.08037290722131729,-0.13408197462558746,-0.3809242844581604,0.00031531043350696564,-0.0004208004102110863,-0.007822898449376225,AUTO,-133.5,-67.0,-982.0,2.0,0.5,-7.0,-35.362963699999995,149.16507869999998,22891.5,623.0,-264.5,31.5,245266.0
03:09:56,0.07693298533558846,-0.13763771951198578,-0.3851366192102432,-0.013314986135810614,-0.011369976215064526,0.006779281189665198,AUTO,-145.5,-77.5,-986.0,-12.5,-10.0,6.5,-35.36285085,149.16502,22188.5,629.5,-269.0,34.0,245266.0
03:09:58,0.08009928837418556,-0.12821155041456223,-0.38816648721694946,0.01283193426206708,0.04890355467796326,-0.0026344203506596386,AUTO,-137.0,-87.5,-997.5,14.0,49.5,-2.0,-35.3627373,149.1649605,21499.5,628.5,-270.5,32.0,245266.0
03:09:59,0.07925461232662201,-0.05977135896682739,-0.38822516798973083,0.10888920817524195,0.04540202859789133,-0.011792740086093545,AUTO,-128.0,-65.25,-984.25,110.25,46.0,-11.0,-35.362668475,149.16492442499998,21160.0,580.25,-249.25,25.75,290491.0
03:10:00,0.07060842588543892,-0.02760151121765375,-0.38620705902576447,-0.2650378420948982,0.0449217613786459,0.03690366353839636,AUTO,-127.0,-99.5,-990.5,-265.0,45.5,37.0,-35.3626305,149.16490470000002,20948.0,527.5,-226.0,29.5,290491.0
03:10:02,0.0428592711687088,0.045362869277596474,-0.3867046684026718,-0.7657981514930725,0.0009970508981496096,0.015665388287743554,AUTO,-78.5,-69.5,-1024.5,-764.0,2.0,16.0,-35.3625519,149.1648639,20411.5,326.0,-138.0,19.5,290491.0
03:10:04,-0.004855587612837553,0.07501668110489845,-0.39022234082221985,-0.43190136551856995,-0.03091175202280283,-0.000968994849245064,AUTO,-28.0,-24.5,-1006.0,-430.0,-29.5,-0.5,-35.362510799999995,149.1648442,20127.5,125.0,-56.0,6.5,155818.5
03:10:06,0.0025355685502290726,0.02518341038376093,-0.3914117217063904,0.3147986903786659,-0.023498241789638996,0.000682811951264739,AUTO,-3.0,12.5,-1011.0,315.0,-22.0,1.5,-35.36250085,149.16483855,20072.5,11.0,-14.0,-1.5,21146.0
03:10:08,0.0004389083478599787,-0.018527652602642775,-0.39240802824497223,0.037376463413238525,-0.03473914414644241,-0.002064647909719497,RTL,-1.0,10.5,-1000.0,39.0,-33.0,-1.0,-35.3625017,149.16483755000002,20101.0,5.0,-6.0,-1.0,21146.0
03:10:09,-0.003580424643587321,0.0038473734093713574,-0.39362385869026184,-0.27737418562173843,0.010888119228184223,0.0010225924779661,RTL,-2.75,-5.5,-1021.5,-275.75,11.0,1.75,-35.362500825,149.164836875,20132.5,15.0,-6.25,-7.75,256883.0
03:10:10,0.005962993367575109,0.006840893067419529,-0.3941378593444824,-0.06153617054224014,-0.0012826243764720857,-0.0009879539138637483,RTL,-0.5,-12.5,-1042.0,-60.5,0.0,0.0,-35.362500350000005,149.16483655000002,20268.0,8.0,-3.5,-32.0,256883.0
03:10:12,0.006232906132936478,0.000883992324816063,-0.3972128927707672,-0.00019311284995637834,-0.0012673843593802303,0.0002841872628778219,RTL,0.0,0.0,-1043.5,0.5,-0.5,0.5,-35.3625003,149.16483605000002,21880.0,1.0,1.5,-122.5,256883.0
03:10:14,0.058659158647060394,-0.00032282015308737755,-0.4088294804096222,-0.12593911634758115,0.049348304921295494,-0.0657372958958149,RTL,2.0,-10.0,-983.0,-125.0,49.5,-64.5,-35.36249915,149.16483814999998,24839.5,30.0,48.5,-145.5,159353.5
03:10:16,-0.038889458402991295,0.013606817461550236,-0.4976218640804291,0.055851176381111145,0.005553741939365864,-0.023021980188786983,RTL,-4.0,6.5,-1001.0,57.0,6.0,-22.0,-35.3624971,149.164841,27890.5,-19.5,-27.0,-149.0,61824.0
03:10:18,0.027399803511798382,-0.02950264234095812,-0.45457588136196136,-0.02675745263695717,-0.018396700732409954,0.04102069651708007,RTL,0.5,3.0,-998.0,-24.5,-17.5,41.5,-35.362501550000005,149.16483499999998,31011.0,-10.5,0.5,-150.5,61824.0
03:10:19,-0.0016669302058289759,0.005558648204896599,-0.4898786246776581,-0.003265081555582583,0.018926241667941213,-0.03998942859470844,RTL,-1.75,-1.25,-1000.75,-1.75,19.0,-38.5,-35.362500875,149.1648343,32944.5,7.25,-1.75,-150.75,134063.0
03:10:20,0.001149413608800387,0.013544497545808554,-0.5157130658626556,0.011479781940579414,0.005738019244745374,-0.023546867072582245,RTL,-2.0,-0.5,-1001.0,12.5,6.0,-22.5,-35.36250025,149.1648337,34115.0,1.0,-1.5,-152.0,134063.0
03:10:22,0.003521408303640783,0.007884645834565163,-0.5473830699920654,-0.0036080118734389544,-0.004001786932349205,-0.014608565717935562,RTL,1.5,0.0,-1000.0,-2.0,-3.0,-13.0,-35.3625002,149.1648338,37234.5,-6.0,10.0,-152.0,134063.0
03:10:24,-0.0009434185340069234,0.0032999273389577866,-0.5889796316623688,0.0024144109338521957,0.0010206031147390604,-0.023268655873835087,RTL,0.5,0.0,-1000.0,3.0,1.5,-21.5,-35.3625005,149.16483525,40356.5,-3.5,5.5,-152.0,134063.0
03:10:25,0.00041769784183998127,0.0044440977508202195,-0.6190601587295532,0.001921947579830885,0.0013243345019873232,-0.023800448048859835,RTL,0.0,0.0,-1000.0,3.0,2.0,-22.25,-35.3625005,149.164835525,42306.0,-2.75,3.5,-152.0,137645.0
03:10:26,0.0011300023761577904,0.005263753933832049,-0.6362520158290863,0.0009512430406175554,0.001242156489752233,-0.020471853204071522,RTL,0.0,0.0,-1000.0,2.0,2.0,-19.5,-35.3625005,149.1648356,43475.5,-2.0,3.0,-152.0,137645.0
03:10:28,0.0007307100895559415,0.004771817475557327,-0.6751420795917511,0.0033703684457577765,0.004121154313907027,-0.013412286061793566,RTL,0.0,0.0,-999.5,4.0,5.0,-12.0,-35.3625005,149.16483595,46599.0,-2.0,3.0,-152.5,137645.0
03:10:30,0.0004897581493423786,0.004618124337866902,-0.6403959095478058,-0.00262328062672168,-0.0012444457388482988,0.026815219782292843,RTL,0.0,0.0,-1000.0,-0.5,0.0,27.0,-35.3625005,149.16483655000002,49700.5,-2.0,7.0,-152.0,115483.0
03:10:32,-0.0002486439552740194,0.002863850095309317,-0.593612551689148,0.0026714118430390954,0.0018544126651249826,0.02014070190489292,RTL,0.0,0.0,-1000.0,3.5,3.0,21.0,-35.3625005,149.164837,52809.5,-2.0,2.0,-152.0,93321.0
03:10:34,0.0008248997619375587,0.002995989595850309,-0.5589277346928915,-0.0002342458659162124,0.0007016006469105681,0.01524154624591271,RTL,0.0,0.0,-999.6666666666666,1.0,1.6666666666666667,16.0,-35.3625005,149.16483686666666,56108.666666666664,-1.0,0.6666666666666666,-152.0,93321.0
03:10:35,0.0016251856577582657,0.003445842186920345,-0.543208971619606,0.0010984980617649853,0.0008333174919243902,0.01223258813843131,RTL,0.0,0.0,-1000.0,2.5,2.0,13.0,-35.3625005,149.16483664999998,58005.75,-1.0,0.5,-152.0,234830.0
03:10:36,0.002029186929576099,0.0034934119321405888,-0.5349823534488678,-0.001176134857814759,0.0003743352135643363,0.010980070102959871,RTL,0.0,0.0,-999.5,0.5,1.0,11.5,-35.3625005,149.16483655000002,59171.0,-1.0,1.0,-152.0,234830.0
03:10:38,0.0013782501337118447,0.003282103920355439,-0.5162762999534607,0.0001863081706687808,0.0005314742447808385,0.010157020296901464,RTL,0.0,0.0,-1000.0,1.5,1.5,11.0,-35.3625005,149.1648364,62282.5,-1.0,2.0,-152.0,234830.0
03:10:40,0.001443814078811556,0.0033284942619502544,-0.5024737119674683,-0.0005845138221047819,-0.0006842493894509971,0.006505385274067521,RTL,0.0,0.0,-1000.0,1.0,1.0,7.5,-35.3625005,149.1648363,65392.0,-1.0,2.0,-152.0,234830.0
03:10:41,0.0015250971773639321,0.0031501384219154716,-0.4946528896689415,0.00012252393935341388,0.0005232854164205492,0.007009686203673482,RTL,0.0,0.0,-999.75,1.5,2.0,8.0,-35.3625005,149.1648363,67330.0,-1.0,2.0,-152.0,287713.0
03:10:42,0.001171259384136647,0.0058346884325146675,-0.4904274344444275,-0.0016885597724467516,0.019810335827060044,0.005922667682170868,RTL,0.0,0.0,-998.0,0.0,21.0,7.0,-35.3625005,149.1648363,68493.5,-1.0,2.0,-152.0,287713.0
03:10:44,-0.009886326733976603,0.08401446789503098,-0.48013797402381897,-0.004756066715344787,0.029919027350842953,0.007358558475971222,RTL,12.5,9.0,-995.0,-2.0,31.5,8.0,-35.362505,149.16483875,71544.5,-72.5,34.5,-145.0,287713.0
03:10:46,-0.013164982839953154,0.15163621306419373,-0.08345182426273823,0.07385699450969696,-0.23512626439332962,0.21443230658769608,RTL,58.0,23.0,-938.0,75.5,-232.5,215.0,-35.3625326,149.16485169999999,73979.0,-267.0,75.5,-61.5,154561.0
03:10:48,-0.0016132384771481156,0.08463845402002335,-0.07305953279137611,-0.38822367414832115,0.02452817978337407,-0.02962874132208526,RTL,70.0,12.5,-1011.5,-385.0,26.0,-27.5,-35.36258155,149.1648762,74090.0,-265.0,148.5,31.5,154561.0
03:10:50,-0.04121927171945572,0.09762118756771088,-0.1439908668398857,0.048028431832790375,0.0012018915731459856,0.0042658052407205105,RTL,76.0,35.0,-1009.5,50.5,3.0,5.0,-35.3626316,149.1649089,73783.0,-295.5,135.0,1.0,154561.0
03:10:51,-0.04497514013200998,0.08257430046796799,-0.17930083721876144,-0.033924203366041183,-0.005227669113082811,-0.02163330529583618,RTL,77.0,30.0,-997.0,-32.0,-3.5,-19.75,-35.36266615,149.164928025,73782.5,-312.25,122.25,-2.25,62266.0
03:10:52,-0.037907110527157784,0.07626365125179291,-0.19672713428735733,-0.31720856577157974,-0.00764033361338079,-0.045880964025855064,RTL,76.0,5.0,-992.0,-315.5,-5.5,-44.0,-35.362687550000004,149.164939,73792.0,-315.0,117.0,-1.5,62266.0
03:10:54,-0.035673484206199646,0.07003644481301308,-0.2361205667257309,0.4361819922924042,-0.0031293461797758937,-0.01331774692516774,RTL,74.0,50.5,-1003.0,437.5,-1.5,-11.5,-35.36274405,149.16496765,73801.0,-312.0,115.0,0.0,62266.0
03:10:56,-0.034456558525562286,0.069623202085495,-0.26767638325691223,-0.42404840141534805,0.007270893780514598,-0.04269001819193363,RTL,74.0,13.0,-995.0,-423.0,8.5,-40.5,-35.3628005,149.16499545,73803.5,-306.5,121.5,0.0,64394.5
03:10:58,-0.02841119095683098,0.07136156037449837,-0.2900688499212265,0.35177862644195557,0.0005396078340709209,0.013125072175171226,RTL,68.5,53.5,-1000.5,353.0,2.0,14.0,-35.3628564,149.16502395,73809.5,-308.0,129.0,0.0,66523.0
03:11:00,-0.0379136148840189,0.07080093026161194,-0.30896279215812683,-0.5494700968265533,0.007365409284830093,-0.02936477353796363,RTL,73.0,17.0,-1002.0,-548.0,9.0,-27.5,-35.3629125,149.1650526,73816.0,-307.5,139.0,0.5,66523.0
03:11:01,-0.029775898903608322,0.07368066534399986,-0.3159198686480522,-0.036949269473552704,-0.004735876456834376,-0.02121939416974783,RTL,70.5,25.0,-1001.5,-35.75,-3.25,-19.25,-35.3629474,149.165070925,73811.0,-308.25,138.25,0.5,218141.0
03:11:02,-0.03137647174298763,0.07074543088674545,-0.32030753791332245,0.15596742182970047,-0.0028853717958554626,0.01957223378121853,RTL,72.0,55.5,-999.0,158.0,-1.0,20.5,-35.362968550000005,149.1650818,73811.5,-308.0,140.0,0.0,218141.0
03:11:04,-0.04472499527037144,0.07316712290048599,-0.33289338648319244,-0.34854063391685486,-0.006553087092470378,0.003778262995183468,RTL,73.0,29.5,-994.5,-346.0,-5.0,5.5,-35.3630244,149.1651117,73811.5,-308.5,139.0,0.5,218141.0
03:11:06,-0.0289071062579751,0.07155778631567955,-0.3413775712251663,0.471452072262764,-0.009706076234579086,0.01114909304305911,RTL,69.5,59.5,-1001.5,473.0,-7.5,13.0,-35.3630806,149.16514155,73808.5,-310.0,134.5,0.0,181536.5
03:11:08,-0.01600974379107356,0.07052797079086304,-0.35268282890319824,-0.04812948405742645,0.007385152159258723,-0.029259826987981796,RTL,67.0,20.5,-989.5,-47.0,8.5,-26.5,-35.363137050000006,149.1651695,73801.5,-307.5,143.0,0.0,144932.0
03:11:10,-0.015552091412246227,0.05965777486562729,-0.35857628285884857,0.2619281932711601,-0.03875115606933832,0.018642867915332317,RTL,69.5,63.0,-997.5,264.5,-37.0,20.0,-35.36319345,149.1651973,73805.5,-299.0,159.5,-1.0,144932.0
03:11:11,-0.031426865607500076,-0.00373988103820011,-0.36208656430244446,-0.4749577268958092,-0.04732305370271206,-0.014017717447131872,RTL,58.75,6.75,-992.75,-471.75,-45.75,-12.0,-35.3632256,149.16521490000002,73826.75,-249.5,135.75,-0.5,211263.0
03:11:12,-0.02754775807261467,-0.037885723635554314,-0.36329199373722076,0.5715766847133636,-0.03920010104775429,0.007579215569421649,RTL,50.5,51.5,-1003.5,574.5,-37.5,9.5,-35.3632414,149.16522425,73830.0,-198.5,109.0,0.0,211263.0
03:11:14,-0.011652311543002725,-0.03874073177576065,-0.3687080591917038,0.5973562896251678,0.03900209814310074,0.0012632092693820596,RTL,9.5,34.0,-1006.5,599.5,40.0,3.5,-35.36326215,149.16523735,73795.5,-42.5,13.5,0.0,211263.0
03:11:16,0.004434963397216052,0.0023270855308510363,-0.37521858513355255,0.5775217562913895,0.025777450762689114,0.0021723975660279393,RTL,0.0,38.5,-987.0,580.0,27.0,4.0,-35.3632647,149.1652388,73797.0,-2.0,-5.5,0.0,115486.0
03:11:18,0.0006494607077911496,-0.006209950661286712,-0.3806993216276169,0.33009082823991776,0.004943161737173796,0.001354103209450841,RTL,0.0,-0.5,-998.5,331.5,6.0,3.0,-35.36326475,149.1652396,73812.5,1.5,-8.0,0.0,19709.0
03:11:20,-0.025253857485949993,0.004296921892091632,-0.3851911723613739,-0.6642861068248749,0.004051061463542283,0.003223070641979575,RTL,0.0,-22.5,-1004.0,-662.0,5.0,4.5,-35.36326305,149.16524034999998,73820.0,1.5,-18.0,0.5,19709.0
03:11:21,-0.01969517581164837,0.004404603270813823,-0.38684260845184326,0.42799416929483414,-0.00020460291125345975,0.006288198754191399,RTL,-0.25,19.75,-994.75,429.75,1.0,8.0,-35.363262075,149.165240925,73817.5,-4.0,-24.0,1.75,235535.0
03:11:22,-0.024025517515838146,0.0037812633672729135,-0.38770273327827454,-0.6382903009653091,-0.003759541199542582,0.0032114816131070256,RTL,1.0,-46.0,-933.0,-637.0,-2.0,5.0,-35.36326175,149.165241,73750.0,-7.0,-27.0,29.0,235535.0
03:11:24,-0.026050674729049206,0.0002880005122278817,-0.3902299702167511,-1.4677870273590088,-0.0032731788232922554,-0.0006173887522891164,RTL,-2.0,-69.0,-1043.5,-1467.5,-2.0,1.5,-35.363261449999996,149.1652406,71995.5,-11.5,-28.5,114.0,235535.0
03:11:26,0.01069991709664464,-0.0011487621814012527,-0.3924316465854645,1.260324239730835,0.0016666131559759378,0.008364317705854774,RTL,-2.0,70.0,-1069.0,1261.5,2.5,10.0,-35.36326215,149.16523815,69849.0,-3.5,-9.0,96.0,164982.0
03:11:28,-0.0051640968304127455,0.0010316240368410945,-0.3929129093885422,-0.09877145662903786,0.0018623719224706292,-0.0017438732902519405,RTL,0.5,33.0,-981.5,-95.5,3.0,0.0,-35.3632628,149.16523654999997,67838.0,4.0,4.5,99.5,94429.0
03:11:30,-0.030644389800727367,0.0026023207465186715,-0.3950307369232178,-0.47125719487667084,0.0013377922587096691,-0.006208818405866623,RTL,0.0,10.5,-1040.0,-468.0,2.5,-3.0,-35.3632622,149.1652384,65804.5,2.0,-2.0,103.5,94429.0
03:11:31,-0.017688002679885056,0.0022734459101532898,-0.3965591788291931,-1.0017981976270676,-0.003459931273634235,0.010431958983341852,RTL,0.3333333333333333,-60.666666666666664,-991.0,-1001.6666666666666,-2.0,12.333333333333334,-35.3632619,149.1652391,64550.666666666664,-2.0,-11.0,105.0,79376.0
03:11:32,-0.004698261075342695,0.0008496339238869647,-0.39767269293467206,-0.5696060359477997,-0.0007220906748746833,-0.005355184315703809,RTL,-1.0,-59.666666666666664,-970.0,-570.3333333333334,0.0,-3.0,-35.3632618,149.16523906666666,63808.666666666664,-4.333333333333333,-13.666666666666666,99.0,79376.0
03:11:34,0.022015449901421864,0.0013510863645933568,-0.39929725726445514,0.9622987707455953,-0.004172032582573593,0.0014658985504259665,RTL,-1.3333333333333333,15.666666666666666,-1005.6666666666666,961.3333333333334,-3.0,3.6666666666666665,-35.3632621,149.16523786666667,61750.666666666664,-0.6666666666666666,-3.0,103.0,79376.0
03:11:36,0.04129971812168757,-0.0019231077749282122,-0.3999137779076894,1.3259583314259846,0.002683009331425031,0.00300507340580225,RTL,-3.0,77.66666666666667,-1017.3333333333334,1327.3333333333333,3.3333333333333335,5.333333333333333,-35.36326303333334,149.1652352,59703.666666666664,3.3333333333333335,10.0,99.0,68449.0
03:11:38,0.04527220999201139,0.0007317787094507366,-0.4007743199666341,1.1443267663319905,0.006076982710510492,0.000930518377572298,RTL,-0.6666666666666666,69.33333333333333,-987.3333333333334,1147.0,7.333333333333333,3.3333333333333335,-35.363263933333336,149.16523263333332,57697.333333333336,15.0,34.333333333333336,103.66666666666667,68449.0
03:11:40,-0.004764383813987176,0.004222800799955924,-0.4020820160706838,-0.6892957389354706,-0.00020037354746212563,8.852329726020496e-05,RTL,0.0,3.6666666666666665,-991.0,-685.0,1.0,2.3333333333333335,-35.36326356666667,149.1652334,55614.333333333336,16.666666666666668,39.0,102.66666666666667,68449.0
03:11:41,0.0005351728371654948,0.004968700309594472,-0.4018112321694692,-1.3840852578481038,0.000533807169025143,-0.0016753956054647763,RTL,1.3333333333333333,-48.333333333333336,-1019.6666666666666,-1380.6666666666667,2.0,0.6666666666666666,-35.3632633,149.16523396666665,54350.333333333336,12.666666666666666,31.0,102.0,250192.0
03:11:42,-0.0014653051427255075,0.006846717403580745,-0.40242623289426166,-1.3299843470255535,-0.001245519146323204,-0.011607680469751358,RTL,3.0,-79.33333333333333,-988.0,-1328.0,0.0,-8.666666666666666,-35.36326296666667,149.1652348,53567.333333333336,11.0,27.333333333333332,101.33333333333333,250192.0
03:11:44,-0.022918639083703358,0.0098307766020298,-0.40247946977615356,-0.10416385531425476,-0.0023215760787328086,-0.00819204468280077,RTL,4.666666666666667,-49.0,-1008.6666666666666,-103.33333333333333,-1.0,-5.333333333333333,-35.36326116666667,149.16523956666666,51527.666666666664,-2.0,-1.6666666666666667,101.66666666666667,250192.0
03:11:46,-0.014467861503362656,0.0022552581503987312,-0.4043991466363271,1.1284549832344055,-0.004243016087760528,-0.008967608911916614,RTL,0.3333333333333333,13.333333333333334,-1037.6666666666667,1129.0,-2.6666666666666665,-6.333333333333333,-35.363260333333336,149.16524253333333,49478.333333333336,-18.0,-36.0,102.33333333333333,126556.5
03:11:48,-0.01240301380554835,-0.001888288534246385,-0.40483687321345013,0.9151256680488586,-0.0026427756917352476,0.0030917245894670486,RTL,-4.0,72.33333333333333,-1042.6666666666667,917.6666666666666,-1.3333333333333333,5.0,-35.363260933333336,149.1652412,47446.666666666664,-16.666666666666668,-33.0,100.33333333333333,2921.0
03:11:50,0.02297965871791045,-0.005756538050870101,-0.40528974930445355,-0.3280160278081894,-0.0009470594037945071,0.005288580354924004,RTL,-7.666666666666667,30.666666666666668,-995.3333333333334,-324.3333333333333,0.0,7.333333333333333,-35.36326303333333,149.16523566666663,45405.333333333336,-1.3333333333333333,-1.6666666666666667,101.33333333333333,2921.0
03:11:51,0.0319347158074379,-0.002315634007876118,-0.4053310652573903,-1.3394734859466553,-0.0022848788648843765,0.007590650891264279,RTL,-2.6666666666666665,-55.666666666666664,-986.3333333333334,-1337.3333333333333,-0.6666666666666666,10.0,-35.3632641,149.16523253333332,44131.0,12.333333333333334,25.333333333333332,101.66666666666667,124413.0
03:11:52,0.03862430900335312,-0.0009113346071292957,-0.4045933385690053,-1.311774770418803,0.0004795943386852741,-0.0017809507359440129,RTL,-1.3333333333333333,-63.333333333333336,-1010.6666666666666,-1309.6666666666667,1.6666666666666667,0.3333333333333333,-35.363264466666664,149.16523143333333,43379.666666666664,17.666666666666668,37.0,99.33333333333333,124413.0
03:11:54,0.021936026712258656,0.0062255519442260265,-0.40361196796099347,-0.768336812655131,-0.0013657058589160442,-0.007673414579282205,RTL,3.6666666666666665,-65.66666666666667,-991.0,-766.6666666666666,0.0,-5.0,-35.3632638,149.16523276666666,41344.333333333336,21.333333333333332,45.333333333333336,103.0,124413.0
03:11:56,0.025346071148912113,0.0043176709829519195,-0.40472132960955304,1.2996829350789387,0.00030927938253929216,0.006147162755951285,RTL,0.6666666666666666,32.666666666666664,-970.3333333333334,1302.0,1.6666666666666667,8.333333333333334,-35.36326283333333,149.16523536666668,39306.0,10.666666666666666,27.333333333333332,100.33333333333333,150794.5
03:11:58,0.05154168729980787,-0.0035848631523549557,-0.4061002731323242,1.1692467133204143,0.0017817575911370416,0.002152291087744137,RTL,-5.333333333333333,78.0,-1012.0,1174.3333333333333,2.3333333333333335,4.666666666666667,-35.3632637,149.16523353333332,37281.333333333336,9.333333333333334,27.333333333333332,101.33333333333333,177176.0
03:12:00,0.041374146938323975,0.0016555867817563315,-0.40523497263590497,-0.7575749506553014,0.00615972049611931,0.0009700281855960687,RTL,-0.3333333333333333,7.333333333333333,-959.0,-750.3333333333334,7.0,3.3333333333333335,-35.3632649,149.16522989999999,35237.0,25.666666666666668,57.0,106.0,177176.0
03:12:01,0.04848163202404976,0.006146832058827083,-0.40500778953234357,-0.6596669654051462,0.0027978164919962487,-0.004019948809097211,RTL,2.0,-63.333333333333336,-983.0,-655.0,3.3333333333333335,-1.3333333333333333,-35.363264566666665,149.16523023333335,33972.333333333336,27.333333333333332,62.333333333333336,102.66666666666667,133981.0
03:12:02,0.04064159343640009,0.00711940477291743,-0.4047323763370514,-0.3470115711291631,-0.0003018878827181955,-0.011697277116278807,RTL,3.6666666666666665,-56.333333333333336,-1008.0,-342.0,1.0,-8.333333333333334,-35.36326416666667,149.1652312,33212.0,25.0,58.333333333333336,102.33333333333333,133981.0
03:12:04,0.027900094787279766,0.006147080411513646,-0.40484381715456647,0.2799633989731471,-0.003915685461834073,-0.00998017688592275,RTL,1.0,-32.666666666666664,-999.0,284.6666666666667,-2.3333333333333335,-7.0,-35.36326303333333,149.16523429999998,31153.333333333332,12.0,35.666666666666664,102.33333333333333,133981.0
03:12:06,0.0018963816110044718,0.009340962084631125,-0.4031845033168793,1.1292142669359844,0.00537135498598218,0.007446704277147849,RTL,7.333333333333333,62.333333333333336,-1016.0,1137.0,6.333333333333333,9.333333333333334,-35.36326223333333,149.1652365,29075.333333333332,7.333333333333333,21.0,99.0,178052.0
03:12:08,-0.07231551657120387,0.009706347870330015,-0.40515830119450885,-0.09280309577782948,-0.0067832664353773,0.01226233628888925,RTL,5.0,23.0,-1054.0,-84.0,-5.0,14.333333333333334,-35.36326003333334,149.165243,27044.333333333332,-11.666666666666666,-22.666666666666668,101.66666666666667,178052.0
03:12:10,-0.04051419595877329,0.00012106307258363813,-0.4045509497324626,-1.1856990655263264,-0.005229141407956679,-0.0009582717126856247,RTL,-0.6666666666666666,-62.333333333333336,-1048.0,-1180.6666666666667,-3.3333333333333335,1.3333333333333333,-35.3632599,149.16524446666668,25026.0,-26.333333333333332,-57.666666666666664,102.0,178052.0
03:12:11,-0.013562378473579884,0.0009994515106275987,-0.4048910439014435,0.7852348883946737,0.011942701414227486,0.012729247488702336,RTL,0.0,58.0,-990.3333333333334,791.6666666666666,13.0,14.666666666666666,-35.3632603,149.1652433,23766.666666666668,-21.333333333333332,-50.666666666666664,106.66666666666667,140893.0
03:12:12,-0.049854459861914315,0.0003213053908742343,-0.4048591156800588,-0.3243241136272748,-0.006858788275470336,0.010118170408532023,RTL,-1.6666666666666667,29.333333333333332,-999.3333333333334,-317.6666666666667,-5.0,12.0,-35.363260333333336,149.1652431,23013.666666666668,-20.0,-47.0,101.66666666666667,140893.0
03:12:14,-0.03145875409245491,-0.0015547492463762562,-0.4056001702944438,-1.2795706987380981,-0.010526876275738081,0.007163037080317736,RTL,-2.3333333333333335,-30.333333333333332,-1009.3333333333334,-1274.3333333333333,-9.0,9.333333333333334,-35.36326106666667,149.16524103333336,20932.333333333332,-15.666666666666666,-38.0,102.0,140893.0
03:12:16,0.007294291164726019,0.0014814795770992835,-0.4053960343201955,0.5464452256759008,0.0032985213523109755,4.259652147690455e-05,RTL,0.0,-9.333333333333334,-993.3333333333334,548.3333333333334,4.333333333333333,2.6666666666666665,-35.36326156666667,149.16523946666666,18890.666666666668,-7.333333333333333,-21.0,102.0,225122.0
03:12:18,0.039425879095991455,-0.004508483301227291,-0.4063222110271454,1.4854962825775146,-0.0018361518159508705,-0.0027741113056739173,RTL,-7.666666666666667,74.66666666666667,-1029.6666666666667,1489.6666666666667,0.0,0.0,-35.3632625,149.16523673333333,16758.0,-4.333333333333333,-7.0,99.66666666666667,225122.0
03:12:20,0.05490900824467341,-0.0017089630321909983,-0.40540778636932373,0.3393255372842153,0.005600345398609837,0.007795542090510328,RTL,-2.3333333333333335,58.0,-975.3333333333334,345.6666666666667,6.666666666666667,10.333333333333334,-35.36326466666667,149.16523063333332,14725.333333333334,19.0,41.666666666666664,103.0,225122.0
03:12:21,0.04212922354539236,0.003897994368647536,-0.40434642632802326,-1.335033377011617,0.008314156730193645,-0.00265310425311327,RTL,-0.3333333333333333,-70.66666666666667,-1019.3333333333334,-1331.0,9.333333333333334,0.6666666666666666,-35.36326466666667,149.1652301,13434.333333333334,25.0,55.333333333333336,101.33333333333333,161953.0
03:12:22,0.04708490644892057,0.00386830884963274,-0.40497161944707233,-0.5643570224444071,-0.005341312848031521,-0.012439407408237457,RTL,0.6666666666666666,-64.0,-999.0,-560.0,-3.3333333333333335,-9.0,-35.3632645,149.1652304,12677.0,24.0,56.666666666666664,100.33333333333333,161953.0
03:12:24,0.008100085115681091,0.007886564824730158,-0.40339386463165283,-0.7182674209276835,-0.0003184096422046423,-0.004656870228548844,RTL,3.6666666666666665,-34.666666666666664,-1029.6666666666667,-711.3333333333334,0.6666666666666666,-1.6666666666666667,-35.3632636,149.16523263333332,11162.333333333334,20.666666666666668,50.666666666666664,30.666666666666668,161953.0
03:12:26,0.011715194986512264,0.004894246347248554,-0.4039393464724223,0.838319460550944,-0.003175467524367074,-0.004159633846332629,RTL,0.0,14.666666666666666,-1002.6666666666666,844.3333333333334,-1.3333333333333333,-1.0,-35.36326236666667,149.1652362,10611.333333333334,5.0,21.333333333333332,33.333333333333336,161953.0
03:12:27,-0.004402515944093466,0.004880551636839907,-0.4035283327102661,-0.8022441466649374,0.002410466899164021,-0.004766767146065831,RTL,1.0,-39.333333333333336,-999.0,-795.3333333333334,3.6666666666666665,-1.6666666666666667,-35.3632622,149.1652368,10198.333333333334,1.6666666666666667,10.666666666666666,35.666666666666664,106249.0
03:12:28,-0.015642660049100716,0.007175681802133719,-0.40408889452616376,-0.5093662006159624,9.233326030274233e-06,0.002555853376785914,RTL,0.6666666666666666,-3.3333333333333335,-1007.0,-501.0,1.3333333333333333,4.666666666666667,-35.36326196666666,149.1652373,9934.666666666666,0.3333333333333333,7.666666666666667,35.333333333333336,106249.0
03:12:30,-0.03990822906295458,0.008913763177891573,-0.40346406896909076,-0.6859678824742635,-0.0025620067414517203,0.001530300088537236,RTL,4.666666666666667,-18.0,-1000.3333333333334,-678.3333333333334,-0.6666666666666666,4.0,-35.363260833333335,149.16524013333333,9244.333333333334,-8.333333333333334,-11.666666666666666,34.333333333333336,106249.0
03:12:32,-0.02250586450099945,0.0020380497832472124,-0.4044029215971629,0.5146344006061554,-0.00529592049618562,-0.0006330608545492092,RTL,-1.0,22.333333333333332,-1047.6666666666667,520.0,-3.0,1.6666666666666667,-35.363260200000006,149.16524236666666,8690.666666666666,-20.333333333333332,-35.333333333333336,0.0,37030.0
03:12:34,0.014664078752199808,-0.0032238932326436043,-0.4047348399957021,-0.32007887959480286,0.0037653135368600488,0.0030096298238883414,RTL,-4.666666666666667,-0.3333333333333333,-1004.0,-313.6666666666667,5.0,6.0,-35.363262,149.16523816666668,8793.666666666666,-10.0,-19.0,-2.0,37030.0
03:12:36,0.02320230317612489,0.004265487659722567,-0.404426912466685,0.5593147774537405,0.0035197519852469363,0.0007984687884648641,RTL,0.3333333333333333,20.333333333333332,-992.3333333333334,565.0,4.666666666666667,3.3333333333333335,-35.3632627,149.16523556666664,8801.0,3.3333333333333335,9.333333333333334,0.0,37030.0
03:12:37,-0.010277847604205212,0.0072736664054294424,-0.4036025106906891,-0.254496971766154,0.002525671424033741,0.0035358178429305553,RTL,1.3333333333333333,-2.0,-983.6666666666666,-247.66666666666666,3.6666666666666665,6.0,-35.3632622,149.1652365,8797.333333333334,3.0,10.333333333333334,-0.3333333333333333,274702.0
03:12:38,-0.0045312601190137984,0.0079877320677042,-0.40388856331507367,0.25541216135025024,0.0013080422456065814,-0.0041077671727786464,RTL,2.0,-5.666666666666667,-994.6666666666666,260.6666666666667,2.6666666666666665,-0.6666666666666666,-35.36326183333333,149.16523746666667,8797.333333333334,0.0,4.333333333333333,0.0,274702.0
03:12:40,-0.009165605607753,0.004742560442537069,-0.4031614164511363,0.7228468457857767,-0.0017279640693838398,-0.000999987901498874,RTL,2.6666666666666665,24.666666666666668,-1008.6666666666666,728.6666666666666,0.3333333333333333,1.6666666666666667,-35.36326116666667,149.1652396333333,8269.333333333334,-7.666666666666667,-11.666666666666666,39.666666666666664,274702.0
03:12:42,-0.03853443264961243,0.003454826772212982,-0.4040268262227376,-0.6371751427650452,-0.004306189133785665,0.0026520343186954656,RTL,0.3333333333333333,-16.0,-1000.0,-631.6666666666666,-2.0,6.0,-35.36326066666666,149.16524146666669,7549.333333333333,-14.0,-28.0,33.666666666666664,156970.0
03:12:44,-0.015924368984997272,-0.00017978911637328565,-0.403961181640625,-0.818774958451589,-0.0007630198573072752,0.003172424854710698,RTL,-2.0,-34.666666666666664,-1000.3333333333334,-814.0,1.6666666666666667,6.0,-35.363261200000004,149.16524033333334,6885.0,-14.666666666666666,-30.0,37.0,156970.0
03:12:46,-0.0182121554389596,0.004501795085767905,-0.40400293469429016,-0.5705956220626831,0.0007832136082773408,-0.0042526985829075175,RTL,1.0,-44.666666666666664,-1011.0,-567.3333333333334,2.0,-1.0,-35.36326126666666,149.16523986666667,6184.666666666667,-9.0,-21.0,36.666666666666664,156970.0
03:12:47,-0.039776364962259926,0.005470092718799909,-0.40364497900009155,-0.5434716045856476,0.0021152786212041974,0.003789024194702506,RTL,0.0,-12.333333333333334,-994.3333333333334,-538.3333333333334,3.6666666666666665,6.333333333333333,-35.363260833333335,149.16524086666666,5755.333333333333,-11.666666666666666,-25.0,32.333333333333336,7227.0
03:12:48,-0.023817033196489017,0.004378175673385461,-0.4035407106081645,0.5862880200147629,-0.0007312533756097158,0.0021428069255004325,RTL,0.0,41.0,-1003.6666666666666,590.0,1.3333333333333333,4.666666666666667,-35.36326069999999,149.16524123333332,5498.0,-13.666666666666666,-28.0,33.333333333333336,7227.0
03:12:50,-0.006879548231760661,0.0006195990038880458,-0.4037426809469859,0.7500960230827332,-0.00044133638342221576,0.0013975688877205055,RTL,-2.0,44.666666666666664,-1008.6666666666666,753.6666666666666,1.3333333333333333,4.333333333333333,-35.36326103333334,149.1652405,4811.666666666667,-14.0,-28.333333333333332,33.666666666666664,7227.0
03:12:52,0.009647930196175972,-0.0023755071063836417,-0.40478356679280597,-0.7650868892669678,-0.0007448003937800726,0.0043468984464804334,RTL,-5.0,-23.666666666666668,-1003.6666666666666,-761.3333333333334,1.6666666666666667,7.333333333333333,-35.3632623,149.1652370666667,4113.0,-6.0,-9.666666666666666,32.666666666666664,204751.0
03:12:54,0.02946583740413189,0.0015168393826267372,-0.40373753507932025,-0.5491731185466051,0.0028356065352757773,0.00275268762682875,RTL,-1.6666666666666667,-14.0,-1004.3333333333334,-545.3333333333334,4.666666666666667,6.0,-35.36326350000001,149.1652332,3446.6666666666665,9.666666666666666,24.666666666666668,31.666666666666668,204751.0
03:12:56,0.015524246419469515,0.00814026299243172,-0.403051217397054,-0.516450564066569,0.001274923017869393,-0.007361695325622956,RTL,3.0,-48.333333333333336,-1001.0,-513.0,3.3333333333333335,-3.6666666666666665,-35.363263100000005,149.1652339,2759.3333333333335,12.0,31.333333333333332,32.666666666666664,204751.0
03:12:57,-0.028709695984919865,0.01210059846440951,-0.402524600426356,-0.8295328418413798,-0.0014066414441913366,-0.004206601918364565,RTL,4.666666666666667,-39.0,-1005.3333333333334,-825.3333333333334,0.6666666666666666,-0.6666666666666666,-35.3632618,149.16523713333333,2324.3333333333335,4.333333333333333,17.0,30.333333333333332,224708.0
03:12:58,-0.033992075050870575,0.009941627271473408,-0.40316195289293927,0.4527880648771922,-0.004820624987284343,0.005188086535781622,RTL,3.3333333333333335,33.666666666666664,-1001.6666666666666,457.0,-2.0,8.0,-35.36326106666667,149.1652392,2071.0,-2.6666666666666665,2.3333333333333335,30.666666666666668,224708.0
03:13:00,-0.026776171599825222,0.0028489758260548115,-0.4025599757830302,-0.6993774771690369,-0.003145757829770446,0.002494436843941609,RTL,0.3333333333333333,-27.666666666666668,-1000.3333333333334,-695.6666666666666,-0.3333333333333333,5.333333333333333,-35.363260966666665,149.1652406,1384.6666666666667,-12.666666666666666,-22.666666666666668,30.333333333333332,224708.0
03:13:02,-0.01922525589664777,0.0037586369241277375,-0.40308242042859393,0.7844768762588501,0.0030924558329085508,0.0030228775770713887,RTL,0.6666666666666666,42.666666666666664,-999.6666666666666,787.3333333333334,5.666666666666667,5.666666666666667,-35.36326076666666,149.16524133333334,697.6666666666666,-13.0,-27.666666666666668,29.0,186288.0
03:13:04,0.015024577577908834,0.004358378937467933,-0.409947007894516,0.002975532474617163,0.00022542507698138556,0.0006960580746332804,RTL,-13.333333333333334,-18.333333333333332,-979.0,5.0,2.6666666666666665,4.0,-35.36326076666666,149.16524176666664,180.0,10.666666666666666,20.666666666666668,-15.0,186288.0
03:13:06,0.012395024299621582,0.007614764695366223,-0.4109982947508494,0.001372799277305603,0.0017924821780373652,0.0006386532913893461,RTL,0.0,0.0,-1000.0,4.0,4.0,4.0,-35.3632601,149.16524390000004,212.33333333333334,6.0,25.0,-9.666666666666666,186288.0
03:13:07,0.009572217240929604,0.008808576501905918,-0.4108227640390396,0.0012003345182165504,0.0018293255707249045,0.0006615559104830027,RTL,0.0,0.0,-1000.0,4.0,4.0,3.5,-35.3632602,149.16524414999998,199.5,1.5,21.5,-7.5,7558.0
03:13:09,0.004718385636806488,0.008855055086314678,-0.40925291180610657,0.0009428992634639144,0.0016883558128029108,0.000745978788472712,RTL,0.0,0.0,-1000.0,3.5,4.0,4.0,-35.36326045,149.16524370000002,138.5,-4.0,10.5,-4.0,7558.0
03:13:11,0.0033859519753605127,0.008783742319792509,-0.4082326591014862,0.0009309516754001379,0.001648828387260437,0.0007481685606762767,RTL,0.0,0.0,-1000.0,4.0,4.0,3.5,-35.3632607,149.1652432,113.5,-6.0,5.0,-2.0,7558.0
