time_stamp,roll,pitch,yaw,rollspeed,pitchspeed,yawspeed,lat,lon,relative_alt,vx,vy,vz,xacc,yacc,zacc,xgyro,ygyro,zgyro,MODE,RTL_ALT,LAND_SPEED
14:20:32,-0.0007047563558444381,0.0012688685674220324,0.028018757700920105,0.0001472161093261093,0.00020512734772637486,0.0023973919451236725,-35.3632621,149.1652374,0.0,0.0,0.0,0.0,0.0,1.0,-1000.0,0.0,0.0,0.0,GUIDED,1500.0,50.0
14:20:34,-0.00032666674330054474,0.001476951331521074,0.02726668305695057,0.00026221334701403975,0.00027543854957912117,0.0023249866596112647,-35.36326209999999,149.1652374,0.0,-0.5,1.0,0.8333333333333334,0.0,1.0,-1000.0,0.0,0.0,0.0,GUIDED,1500.0,50.0
14:20:36,-0.0005530625251897922,0.0014976636933473249,0.026054598080615204,0.00022238736952810237,0.0002861131846051042,0.0022060885870208344,-35.363262150000004,149.16523744999998,1.6666666666666667,-1.8333333333333333,1.0,0.0,0.0,1.3333333333333333,-1000.0,0.16666666666666666,0.0,0.0,GUIDED,1500.0,50.0
14:20:38,-0.0008598292712122202,0.0013213076628744603,0.025065500661730765,0.0002229382167570293,0.00026057293289341035,0.0020161908585578205,-35.3632621,149.1652374,11.6,-0.2,0.0,0.0,0.0,1.1666666666666667,-1000.0,0.0,0.0,0.3333333333333333,GUIDED,1500.0,50.0
14:20:40,-0.00017164905148092657,0.001562318706419319,0.024199340182046097,0.001767995747892807,-0.0016141688247444108,0.002053511251385013,-35.36326209999999,149.1652374,16.166666666666668,0.0,0.0,-2.5,0.0,1.3333333333333333,-1022.6666666666666,1.6666666666666667,-1.6666666666666667,0.16666666666666666,GUIDED,1500.0,50.0
14:20:42,0.030952129047363997,-0.002489594553480856,0.02336048148572445,0.04486448410898447,-0.008084668777883053,0.002900312712881714,-35.36326201999999,149.16523768000002,1543.4,1.2,8.8,-143.0,0.0,-1.2,-1025.0,41.6,-5.6,1.0,GUIDED,1500.0,50.0
14:20:44,-0.02837867398435871,0.01873668112481634,-0.07681104975442092,-0.08133401970068614,-0.01841742576410373,-0.04018843142936627,-35.36326113333333,149.16524435,4401.166666666667,-2.3333333333333335,34.833333333333336,-148.0,4.666666666666667,-7.5,-1002.5,-80.33333333333333,-18.0,-41.0,GUIDED,1500.0,50.0
14:20:46,-0.01452775780732433,-0.012163229344878346,-0.07675161709388097,0.062122893830140434,0.014520264075448116,0.005830746842548251,-35.3632615,149.165241,7480.166666666667,5.333333333333333,-54.166666666666664,-150.83333333333334,-7.5,9.333333333333334,-1002.5,62.333333333333336,14.5,4.333333333333333,GUIDED,1500.0,50.0
14:20:48,0.03229376091621816,0.021392495778854936,-0.1024737935513258,-0.06267617596313357,-0.03930689670960419,0.010100924875587225,-35.363261425,149.16523415,10837.25,-15.75,20.5,-149.75,2.6,-0.2,-998.0,-45.6,-21.8,-3.0,GUIDED,1500.0,50.0
14:20:50,-0.013015654869377613,-0.010212552640587092,-0.11424014270305634,0.015392260905355216,0.007997208915185183,-0.026224014908075334,-35.36326295,149.16523713333333,13548.166666666666,0.5,2.3333333333333335,-152.66666666666666,0.6666666666666666,-0.6666666666666666,-1001.0,11.833333333333334,5.833333333333333,-24.5,GUIDED,1500.0,50.0
14:20:52,0.009347865047554174,0.006920927786268294,-0.16000335911909738,0.0027308668844246617,0.0047460655235530185,-0.0164364258137842,-35.3632619,149.16523581666667,16681.0,4.0,-3.1666666666666665,-153.0,-1.8333333333333333,0.0,-999.5,3.0,5.0,-17.0,GUIDED,1500.0,50.0
14:20:54,0.003877995244693011,0.005364380621661742,-0.18628887832164764,-0.0026933541327404478,-0.002185068588005379,-0.014133261206249395,-35.3632615,149.16523585,19803.5,-2.6666666666666665,5.833333333333333,-153.0,0.0,-0.16666666666666666,-1000.0,-1.5,-1.1666666666666667,-14.5,GUIDED,1500.0,50.0
14:20:56,0.000980701734079048,0.002917744917795062,-0.2264232449233532,0.0007998124492587522,0.00021591222321148962,-0.019716354086995125,-35.3632617,149.1652366,23320.75,-3.0,2.75,-153.0,0.0,0.0,-1000.0,1.25,0.25,-20.0,GUIDED,1500.0,50.0
14:20:58,0.0005352177346746126,0.003909991821274161,-0.2448608304063479,0.007021632433558504,0.0003212389613812168,0.00940390028214703,-35.363261916666666,149.16523656666666,26055.166666666668,-4.0,-0.8333333333333334,-153.16666666666666,0.0,0.8333333333333334,-1000.3333333333334,7.166666666666667,1.0,8.5,GUIDED,1500.0,50.0
14:21:00,0.0036470134121676288,0.001522346477334698,-0.2027515396475792,-0.007173440419137478,0.00038867547603634495,0.021242747083306313,-35.3632623,149.16523708333332,29172.5,-0.6666666666666666,8.166666666666666,-153.0,0.6666666666666666,-0.8333333333333334,-1000.3333333333334,-6.0,0.8333333333333334,20.333333333333332,GUIDED,1500.0,50.0
14:21:02,-0.0008234533100524762,0.0013996721827425063,-0.16707565387090048,0.0021594004065264016,0.0006251581459461401,0.016397694280991953,-35.3632623,149.16523800000002,32288.5,0.0,2.0,-153.0,0.0,-0.16666666666666666,-999.8333333333334,2.5,1.0,15.333333333333334,GUIDED,1500.0,50.0
14:21:04,0.0011654409463517368,0.001204181326708446,-0.1399471933643023,-1.942240245019396e-05,-3.804987257656952e-05,0.012526399455964565,-35.363262216666676,149.16523794999998,35403.5,0.0,0.0,-153.0,0.0,0.0,-1000.0,0.6666666666666666,0.3333333333333333,11.5,GUIDED,1500.0,50.0
14:21:06,0.002161335200071335,0.0014717134763486683,-0.1164347268640995,-0.0005296152376104146,9.964336641132832e-05,0.009595214389264584,-35.3632621,149.1652376,39147.0,0.0,0.0,-153.0,0.0,0.0,-1000.0,0.0,0.5,9.0,GUIDED,1500.0,50.0
14:21:08,0.0017796628138360877,0.0015233027321907382,-0.10530614977081616,-3.2577275608976683e-06,0.0007875846640672535,0.008336859910438458,-35.36326208333333,149.16523743333335,41483.333333333336,-0.5,0.5,-153.0,0.0,0.0,-999.8333333333334,0.5,1.1666666666666667,7.666666666666667,GUIDED,1500.0,50.0
14:21:10,0.001717551751062274,0.001166785228997469,-0.09202436506748199,0.0003343153977766633,0.00030427234014496207,0.005975186731666327,-35.363262,149.16523738,44796.8,-1.0,1.0,-153.0,0.0,0.0,-1000.0,0.6666666666666666,0.8333333333333334,5.5,GUIDED,1500.0,50.0
14:21:12,0.00141041079768911,0.0011103845123822491,-0.08161331961552303,-1.855007333991428e-05,0.00027842008663962287,0.005760977044701576,-35.363262,149.16523729999997,47715.5,-1.0,1.0,-153.0,0.0,0.0,-1000.0,0.8333333333333334,1.0,5.333333333333333,GUIDED,1500.0,50.0
14:21:14,0.0021311547025106847,0.0012287854042369872,-0.0701506920158863,-0.0006423778104363009,-0.0004541217058431357,0.005353631917387247,-35.363262,149.16523725,51226.0,-1.0,1.0,-153.0,0.0,0.0,-999.75,0.5,0.25,5.0,LAND,1500.0,50.0
14:21:16,-0.027986237856869895,0.02896402991609648,0.07270238610605399,-0.03193899994948879,-0.008703848269457618,0.2591877788848554,-35.36326223333333,149.16523688333334,53886.166666666664,-11.333333333333334,-11.0,-132.0,1.1666666666666667,2.1666666666666665,-955.1666666666666,-31.0,-7.833333333333333,259.1666666666667,LAND,1500.0,70.0
14:21:18,0.028812387647728126,-0.03940643044188619,0.3270158569018046,-0.12221473975417514,0.031488530027369656,-0.028265303233638406,-35.363264300000004,149.16523271666668,55177.833333333336,7.166666666666667,4.5,6.0,-1.3333333333333333,8.0,-931.0,-118.66666666666667,32.333333333333336,-27.5,LAND,1500.0,160.0
14:21:20,0.011958670647193989,0.013424313937624296,0.25655465573072433,1.3712227940559387,-0.004400038470824559,-0.030392158233250182,-35.36326163333333,149.1652375666667,54128.833333333336,10.333333333333334,23.833333333333332,95.16666666666667,0.8333333333333334,54.166666666666664,-965.3333333333334,1373.1666666666667,-3.1666666666666665,-29.5,LAND,1500.0,160.0
14:21:22,-0.0094946320168674,-5.081522734447693e-05,0.20672848323980966,0.18683608373006186,-0.005746837588958442,-0.014693650378224751,-35.363261349999995,149.16523955,51906.666666666664,-0.6666666666666666,1.3333333333333333,67.5,0.8333333333333334,31.166666666666668,-1063.0,192.16666666666666,-4.333333333333333,-13.833333333333334,LAND,1500.0,70.0
14:21:24,-0.008847183412096152,-0.005738402406374614,0.1673329547047615,-0.7111540834108988,-0.0013470339666431148,-0.0151641092573603,-35.36326208333333,149.16523883333335,51050.0,2.1666666666666665,-4.333333333333333,43.166666666666664,-0.16666666666666666,-28.333333333333332,-980.3333333333334,-710.3333333333334,-0.5,-14.166666666666666,LAND,1500.0,140.0
14:21:26,-0.013868626827994982,-0.005380584004645546,0.14060872048139572,-1.4045677582422893,0.001300012964444856,-0.01176649370851616,-35.36326236666667,149.16523750000002,49590.0,4.0,-1.0,101.66666666666667,-1.3333333333333333,-51.333333333333336,-992.8333333333334,-1402.5,2.0,-10.833333333333334,LAND,1500.0,140.0
14:21:28,-0.015996419979880255,-0.002516535654043158,0.11960609133044879,-1.2464929223060608,0.0017030096205417067,-0.008021219866350293,-35.3632624,149.16523703333334,47613.833333333336,4.0,3.8333333333333335,90.0,-0.16666666666666666,-36.0,-1006.5,-1243.0,2.3333333333333335,-7.0,LAND,1500.0,140.0
14:21:30,-0.015677837034066517,-0.002294090207821379,0.1018948753674825,-1.1420977811018627,0.0006744167185388505,-0.0038055075953404107,-35.3632624,149.16523696666664,45715.5,3.0,3.0,91.5,-0.5,-23.333333333333332,-1007.8333333333334,-1137.8333333333333,1.3333333333333333,-3.0,LAND,1500.0,180.0
14:21:32,-0.001779734525674333,-0.0005954707254810879,0.09065304820736249,-1.2997697293758392,-0.0015838712570257485,-0.013117063092067838,-35.3632623,149.1652366,43416.833333333336,2.5,5.0,123.16666666666667,0.3333333333333333,-75.83333333333333,-1001.1666666666666,-1303.0,-1.0,-12.0,LAND,1500.0,180.0
14:21:34,0.00945053961671268,0.003485573261665801,0.0784914530813694,0.9187501768271128,-0.0016483135065451886,-0.010331858085313192,-35.3632622,149.16523798333336,41042.166666666664,1.8333333333333333,0.3333333333333333,95.5,2.3333333333333335,8.5,-1035.1666666666667,915.8333333333334,-1.1666666666666667,-9.166666666666666,LAND,1500.0,130.0
14:21:36,-0.019000123099734385,0.0009836227545747533,0.06768147647380829,-0.860545297463735,-0.0037783752341056243,-0.0035073321778327227,-35.36326221666667,149.1652397,39338.833333333336,1.0,-15.833333333333334,87.16666666666667,0.3333333333333333,-63.5,-987.3333333333334,-864.8333333333334,-3.0,-2.5,LAND,1500.0,130.0
14:21:38,-0.027975279837846756,-0.0024221341397302845,0.05862892046570778,-1.0855040748914082,-0.0019377213611733168,0.00022329661199667802,-35.36326236666667,149.16523945,37577.333333333336,1.8333333333333333,-18.166666666666668,88.83333333333333,-1.5,-20.333333333333332,-1002.3333333333334,-1081.3333333333333,-1.0,1.0,LAND,1500.0,130.0
14:21:40,-0.010129212770455828,-0.0037867604987695813,0.051310709988077484,-0.5769729937116305,-0.00023004955922563872,-0.008073038363363594,-35.3632624,149.16523773333333,35524.0,2.0,-7.333333333333333,133.5,-1.6666666666666667,14.666666666666666,-958.5,-570.3333333333334,0.3333333333333333,-6.833333333333333,LAND,1500.0,200.0
14:21:42,0.026358901833494503,0.0003331785698416449,0.04630580979088942,1.3004611780246098,0.005048990754100184,0.005799478036351502,-35.363262250000005,149.1652367,32697.166666666668,2.0,3.8333333333333335,131.66666666666666,-0.3333333333333333,34.833333333333336,-1051.0,1298.6666666666667,5.166666666666667,6.833333333333333,LAND,1500.0,160.0
14:21:44,0.00542485589782397,0.0020529208316778145,0.039534926414489746,1.403582513332367,0.0005718415680651864,0.0011320826646018152,-35.36326216666667,149.16523790000002,30419.0,0.8333333333333334,0.16666666666666666,103.5,1.1666666666666667,63.833333333333336,-1012.3333333333334,1406.5,0.5,1.6666666666666667,LAND,1500.0,160.0
14:21:46,0.0030944517335835067,-0.0015797776189477493,0.034471023827791214,1.2646524459123611,-0.0033364947885274887,0.0015810121355267863,-35.36326221666667,149.16523855,28173.833333333332,0.3333333333333333,-8.333333333333334,123.66666666666667,-0.3333333333333333,75.83333333333333,-984.5,1269.5,-2.8333333333333335,2.3333333333333335,LAND,1500.0,180.0
14:21:48,0.010522601520642638,-0.00020336562884040176,0.02988700568675995,0.12161956429481506,-7.442580536007882e-05,-0.006630156608298421,-35.3632623,149.1652384,25650.2,2.0,-8.6,115.0,0.5,-45.0,-1025.3333333333333,-99.33333333333333,0.8333333333333334,-8.166666666666666,LAND,1500.0,120.0
14:21:50,-0.015179904022564491,5.202526032614211e-05,0.02569370251148939,-1.0813211003939311,-0.0007799340140384933,-0.0011396894697099924,-35.3632622,149.1652387,24000.333333333332,0.3333333333333333,-11.666666666666666,72.83333333333333,-0.6666666666666666,-55.0,-988.8333333333334,-1083.8333333333333,-0.3333333333333333,0.16666666666666666,LAND,1500.0,120.0
14:21:52,-0.0024898273404687643,-0.00029613224905915557,0.022870588675141336,-0.30594060122966765,0.0023993376176804303,0.002848263271152973,-35.36326216,149.16523711999997,22302.8,0.0,-2.8,71.6,-0.3333333333333333,8.833333333333334,-1001.3333333333334,-418.6666666666667,3.0,3.5,LAND,1500.0,110.0
14:21:54,0.0031024872053725026,0.0021695535882220915,0.0198008402561148,0.7350710034370422,-0.004242524116610487,-0.000927012151805684,-35.363262,149.16523801666668,20918.166666666668,0.0,-2.1666666666666665,69.66666666666667,0.5,21.666666666666668,-1020.6666666666666,733.3333333333334,-3.3333333333333335,0.16666666666666666,LAND,1500.0,40.0
14:21:56,0.0007657113989504675,0.00023275980371787833,0.017332488670945168,0.20752192785342535,0.0011433990439400077,0.00047643591339389485,-35.363262,149.1652382,20082.333333333332,0.0,-5.666666666666667,16.333333333333332,-0.16666666666666666,8.666666666666666,-991.5,207.83333333333334,1.3333333333333333,1.1666666666666667,LAND,1500.0,40.0
14:21:58,0.009509720955975354,-0.0013910375904136647,0.014919216744601727,0.3262886330485344,-0.0022279526844310262,-0.001121176367936035,-35.363262066666664,149.16523755,19602.333333333332,0.0,-3.3333333333333335,34.666666666666664,-1.0,12.833333333333334,-973.3333333333334,326.1666666666667,-1.3333333333333333,0.3333333333333333,LAND,1500.0,50.0
14:22:00,0.012892765846724311,-0.0038543074236561856,0.013113456312566996,-0.7660646140575409,-0.0007838229066692293,0.005175435876784225,-35.36326218333334,149.16523521666667,18447.5,0.0,9.833333333333334,64.83333333333333,-2.3333333333333335,-18.0,-1013.5,-763.8333333333334,-0.6666666666666666,6.0,LAND,1500.0,40.0
14:22:02,0.014340920327716352,0.0023296240639562407,0.012379782584806284,-0.042723589266339936,0.003273469517201496,-0.00141681757910798,-35.36326208333333,149.1652346333333,17542.5,0.8333333333333334,23.833333333333332,19.166666666666668,1.0,-7.166666666666667,-1005.3333333333334,-42.666666666666664,3.0,0.0,LAND,1500.0,40.0
14:22:04,-0.012443328431497017,0.004449179046787322,0.010692706797271967,-0.6808340897162756,0.0003929858988461395,-0.005044002765013526,-35.363261916666666,149.16523723333333,17011.666666666668,-0.3333333333333333,8.5,39.0,1.3333333333333333,-37.166666666666664,-978.8333333333334,-682.1666666666666,0.5,-3.6666666666666665,LAND,1500.0,80.0
14:22:06,-0.009565882190751532,0.0003447283000544606,0.009144835484524569,-0.11137197415033977,0.002601430363332232,0.002772279200144112,-35.363261983333324,149.16523834999998,15965.333333333334,-1.1666666666666667,-4.666666666666667,54.333333333333336,-0.8333333333333334,15.833333333333334,-1008.8333333333334,-107.5,3.0,3.6666666666666665,LAND,1500.0,70.0
14:22:08,-0.011750039120670408,0.0015975257265381515,0.007895948908602199,-0.6602389713128408,-0.0015349214178665231,-0.004972583915029342,-35.363262,149.16523871666666,14768.166666666666,0.0,-8.333333333333334,59.666666666666664,0.3333333333333333,-47.333333333333336,-994.3333333333334,-664.1666666666666,-1.3333333333333333,-3.3333333333333335,LAND,1500.0,70.0
14:22:11,0.011517864651978016,-0.001820456818677485,0.006448446307331324,0.36013899743556976,0.0006303428672254086,0.0025517657632008195,-35.363262,149.165237,12765.5,-1.0,-2.0,56.0,-2.5,44.5,-1000.5,366.0,1.0,3.5,LAND,1500.0,90.0
14:22:13,0.01670058723539114,-0.0014996187528595328,0.005578262110551198,-0.7106713770578305,0.0033613298243532577,0.0006093235181955,-35.363262,149.16523543333332,11881.166666666666,0.0,8.0,57.166666666666664,-0.8333333333333334,-40.833333333333336,-999.5,-712.6666666666666,3.6666666666666665,2.0,LAND,1500.0,130.0
14:22:15,-0.0022374584999245903,0.0018502800570180018,0.00559189822524786,-0.3641614516576131,-0.0008760317772005995,0.003712873440235853,-35.363262,149.1652351,10113.0,0.0,20.666666666666668,86.33333333333333,0.0,18.333333333333332,-1006.3333333333334,-356.3333333333333,-0.3333333333333333,4.333333333333333,LAND,1500.0,60.0
14:22:20,0.02617032900452614,0.0008003791095688939,0.003814922459423542,0.016241949796676636,0.0011656051327008754,-0.0011645961669273675,-35.363262,149.1652334,8308.4,0.0,33.6,-6.4,0.0,-2.6,-996.0,18.4,1.6,0.6,LAND,1500.0,100.0
14:22:22,0.010262432659601473,0.004633229598402977,0.003606508998200297,-0.1458747938275337,0.003481413796544075,-0.002835777821019292,-35.363261879999996,149.16523472,8372.6,-0.2,28.6,-0.6,2.2,-12.2,-999.6,-143.4,3.8,-1.2,LAND,1500.0,100.0
14:22:24,0.0035669372300617397,0.0029376986702638014,0.003513587671997292,0.10207667893597058,-0.0002512492771659579,0.00015744808063443218,-35.3632618,149.16523678571428,8372.857142857143,-2.7142857142857144,10.714285714285714,0.14285714285714285,0.5714285714285714,-0.8571428571428571,-999.4285714285714,104.28571428571429,0.2857142857142857,1.4285714285714286,LAND,1500.0,90.0
14:22:26,0.0010802445467561483,0.00288243192092826,0.0028016905610760054,-0.08961560825506847,0.000330631291338553,-0.0020183579375346503,-35.3632618,149.16523750000002,8269.833333333334,-2.0,2.1666666666666665,28.5,0.3333333333333333,-19.166666666666668,-948.0,-89.5,0.8333333333333334,-0.3333333333333333,LAND,1500.0,90.0
14:22:28,0.007120623670440788,0.002692171411278347,0.002696779575974991,0.09575212995211284,-0.004245943254015098,-0.011047064637144407,-35.3632618,149.16523853333334,7077.333333333333,-2.3333333333333335,-5.5,88.83333333333333,0.8333333333333334,-36.833333333333336,-938.8333333333334,90.83333333333333,-3.5,-9.333333333333334,LAND,1500.0,170.0
14:22:30,-0.0190457326049606,0.0005492160829210965,0.0019178416890402634,-0.20008859845499197,-4.112891231973966e-05,0.0010956756498975058,-35.36326188333333,149.1652387,4822.5,-2.5,-8.833333333333334,114.0,-1.1666666666666667,30.666666666666668,-1014.6666666666666,-190.5,0.6666666666666666,2.5,LAND,1500.0,150.0
14:22:32,-0.01214668449635307,-0.0004893217853047341,0.001468075798281158,-1.1016912162303925,-0.0021031089030050984,0.0028376546203314015,-35.3632619,149.16523746666664,2694.5,-1.5,-3.8333333333333335,95.16666666666667,-1.6666666666666667,-26.666666666666668,-999.1666666666666,-1095.6666666666667,-1.1666666666666667,4.333333333333333,LAND,1500.0,150.0
14:22:34,0.00363573944196105,0.0006908560365748903,0.0013648757691650342,0.004829123616218567,0.0018980267729299765,0.0005319741903804243,-35.3632619,149.16523608333333,754.3333333333334,-1.5,8.166666666666666,67.16666666666667,-1.5,31.0,-1064.1666666666667,13.166666666666666,2.3333333333333335,2.1666666666666665,LAND,1500.0,50.0
14:22:36,0.013066342876603207,0.00017814722771921274,0.0036321868149874112,-0.3039733174567421,0.0007281631405930966,0.0014101614554723103,-35.3632619,149.16523468333332,170.66666666666666,-1.8333333333333333,17.666666666666668,14.166666666666666,0.0,-13.333333333333334,-992.6666666666666,-300.8333333333333,1.5,2.8333333333333335,LAND,1500.0,190.0
14:22:38,0.004219702600191037,0.0025589655075843134,0.006607036339119077,-0.0010591550962999463,0.0015844199030349653,0.0006575229150863985,-35.3632619,149.16523405,46.166666666666664,-2.3333333333333335,11.0,7.0,0.0,0.0,-1000.0,2.0,2.0,2.0,LAND,1500.0,190.0
14:22:40,-0.0012268391813753017,0.004298387250552575,0.008374021466200551,-0.001138598929780225,0.0014801853685639799,0.0006618691647114853,-35.363261949999995,149.16523323333334,3.5,-5.0,-0.5,5.333333333333333,0.0,0.0,-1000.0,2.0,2.0,2.0,LAND,1500.0,70.0
14:22:42,-0.003323401130425433,0.0044449681881815195,0.01080429507419467,-0.0011100983635211985,0.0015523118199780583,0.0007176813669502735,-35.363262,149.1652325166667,0.0,-5.166666666666667,-6.166666666666667,3.5,0.0,0.0,-1000.0,2.0,2.1666666666666665,2.0,LAND,1500.0,70.0
