time_stamp,MODE,lat,lon,relative_alt,roll,pitch,yaw,rollspeed,pitchspeed,yawspeed,xacc,yacc,zacc,xgyro,ygyro,zgyro,vx,vy,vz,RTL_ALT,LAND_SPEED
14:20:32.689,GUIDED,-35.3632621,149.1652374,0,-0.0007047563558444381,0.0012688685674220324,0.028018757700920105,0.0001472161093261093,0.00020512734772637486,0.0023973919451236725,0,1,-1000,0,0,0,0,0,0,1500.0,50.0
14:20:32.902,GUIDED,-35.3632621,149.1652374,0,-0.0007047563558444381,0.0012688685674220324,0.028018757700920105,0.0001472161093261093,0.00020512734772637486,0.0023973919451236725,0,1,-1000,0,0,0,0,0,0,1500.0,50.0
14:20:33.105,GUIDED,-35.3632621,149.1652374,0,-0.0007047563558444381,0.0012688685674220324,0.028018757700920105,0.0001472161093261093,0.00020512734772637486,0.0023973919451236725,0,1,-1000,0,0,0,0,0,0,1500.0,50.0
14:20:33.309,GUIDED,-35.3632621,149.1652374,0,-0.0007047563558444381,0.0012688685674220324,0.028018757700920105,0.0001472161093261093,0.00020512734772637486,0.0023973919451236725,0,1,-1000,0,0,0,0,0,0,1500.0,50.0
14:20:33.514,GUIDED,-35.3632621,149.1652374,0,-0.0007047563558444381,0.0012688685674220324,0.028018757700920105,0.0001472161093261093,0.00020512734772637486,0.0023973919451236725,0,1,-1000,0,0,0,0,0,0,1500.0,50.0
14:20:33.717,GUIDED,-35.3632621,149.1652374,0,-0.0007047563558444381,0.0012688685674220324,0.028018757700920105,0.0001472161093261093,0.00020512734772637486,0.0023973919451236725,0,1,-1000,0,0,0,0,0,0,1500.0,50.0
14:20:33.920,GUIDED,-35.3632621,149.1652374,0,-0.0007047563558444381,0.0012688685674220324,0.028018757700920105,0.0001472161093261093,0.00020512734772637486,0.0023973919451236725,0,1,-1000,0,0,0,0,0,0,1500.0,50.0
14:20:34.122,GUIDED,-35.3632621,149.1652374,0,-0.00032236790866591036,0.0014658228028565645,0.027355926111340523,0.00019635976059362292,0.0002246441727038473,0.0022890467662364244,0,1,-1000,0,0,0,0,1,1,1500.0,50.0
14:20:34.326,GUIDED,-35.3632621,149.1652374,0,-0.0003164588997606188,0.0015775535721331835,0.026862269267439842,0.00030979266739450395,0.0002881924156099558,0.0022718366235494614,0,1,-1000,0,0,0,-1,1,0,1500.0,50.0
14:20:34.528,GUIDED,-35.3632621,149.1652374,0,-0.0003164588997606188,0.0015775535721331835,0.026862269267439842,0.00030979266739450395,0.0002881924156099558,0.0022718366235494614,0,1,-1000,0,0,0,-1,1,0,1500.0,50.0
14:20:34.729,GUIDED,-35.3632621,149.1652374,0,-0.0003164588997606188,0.0015775535721331835,0.026862269267439842,0.00030979266739450395,0.0002881924156099558,0.0022718366235494614,0,1,-1000,0,0,0,-1,1,0,1500.0,50.0
14:20:34.931,GUIDED,-35.3632621,149.1652374,0,-0.0003164588997606188,0.0015775535721331835,0.026862269267439842,0.00030979266739450395,0.0002881924156099558,0.0022718366235494614,0,1,-1000,0,0,0,-1,1,0,1500.0,50.0
14:20:35.134,GUIDED,-35.3632621,149.1652374,0,-0.0003164588997606188,0.0015775535721331835,0.026862269267439842,0.00030979266739450395,0.0002881924156099558,0.0022718366235494614,0,1,-1000,0,0,0,-1,1,0,1500.0,50.0
14:20:35.336,GUIDED,-35.3632621,149.1652374,0,-0.0003164588997606188,0.0015775535721331835,0.026862269267439842,0.00030979266739450395,0.0002881924156099558,0.0022718366235494614,0,1,-1000,0,0,0,-1,1,0,1500.0,50.0
14:20:35.540,GUIDED,-35.3632621,149.1652374,0,-0.0003164588997606188,0.0015775535721331835,0.026862269267439842,0.00030979266739450395,0.0002881924156099558,0.0022718366235494614,0,1,-1000,0,0,0,-1,1,0,1500.0,50.0
14:20:35.743,GUIDED,-35.3632621,149.1652374,0,-0.0003164588997606188,0.0015775535721331835,0.026862269267439842,0.00030979266739450395,0.0002881924156099558,0.0022718366235494614,0,1,-1000,0,0,0,-1,1,0,1500.0,50.0
14:20:35.946,GUIDED,-35.3632621,149.1652374,0,-0.0003164588997606188,0.0015775535721331835,0.026862269267439842,0.00030979266739450395,0.0002881924156099558,0.0022718366235494614,0,1,-1000,0,0,0,-1,1,0,1500.0,50.0
14:20:36.149,GUIDED,-35.3632621,149.1652374,0,-0.0005233483971096575,0.0015195742016658187,0.026122871786355972,0.00024107703939080238,0.00033682415960356593,0.002148664789274335,0,1,-1000,0,0,0,-2,1,0,1500.0,50.0
14:20:36.351,GUIDED,-35.3632622,149.1652375,10,-0.0007057851762510836,0.0013967686099931598,0.02572358399629593,0.00019077997421845794,0.00029356247978284955,0.002178862690925598,0,1,-1000,0,0,0,-2,1,0,1500.0,50.0
14:20:36.552,GUIDED,-35.3632622,149.1652375,10,-0.0007057851762510836,0.0013967686099931598,0.02572358399629593,0.00019077997421845794,0.00029356247978284955,0.002178862690925598,0,1,-1000,0,0,0,-2,1,0,1500.0,50.0
14:20:36.754,GUIDED,-35.3632622,149.1652375,10,-0.0007057851762510836,0.0013967686099931598,0.02572358399629593,0.00019077997421845794,0.00029356247978284955,0.002178862690925598,0,1,-1000,0,0,0,-2,1,0,1500.0,50.0
14:20:36.957,GUIDED,-35.3632622,149.1652375,10,-0.0007057851762510836,0.0013967686099931598,0.02572358399629593,0.00019077997421845794,0.00029356247978284955,0.002178862690925598,0,1,-1000,0,0,0,-2,1,0,1500.0,50.0
14:20:37.159,GUIDED,-35.3632622,149.1652375,10,-0.0007057851762510836,0.0013967686099931598,0.02572358399629593,0.00019077997421845794,0.00029356247978284955,0.002178862690925598,0,1,-1000,0,0,0,-2,1,0,1500.0,50.0
14:20:37.361,GUIDED,-35.3632622,149.1652375,10,-0.0007057851762510836,0.0013967686099931598,0.02572358399629593,0.00019077997421845794,0.00029356247978284955,0.002178862690925598,0,1,-1000,0,0,0,-2,1,0,1500.0,50.0
14:20:37.566,GUIDED,-35.3632622,149.1652375,10,-0.0007057851762510836,0.0013967686099931598,0.02572358399629593,0.00019077997421845794,0.00029356247978284955,0.002178862690925598,0,1,-1000,0,0,0,-2,1,0,1500.0,50.0
14:20:37.768,GUIDED,-35.3632622,149.1652375,10,-0.0007057851762510836,0.0013967686099931598,0.02572358399629593,0.00019077997421845794,0.00029356247978284955,0.002178862690925598,0,1,-1000,0,0,0,-2,1,0,1500.0,50.0
14:20:37.972,GUIDED,-35.3632622,149.1652375,10,-0.0007057851762510836,0.0013967686099931598,0.02572358399629593,0.00019077997421845794,0.00029356247978284955,0.002178862690925598,0,1,-1000,0,0,0,-2,1,0,1500.0,50.0
14:20:38.173,GUIDED,-35.3632621,149.1652374,12,-0.0008452656911686063,0.0013599114026874304,0.024953395128250122,0.00024038669653236866,0.00030385865829885006,0.0018543615005910397,0,1,-1000,0,0,0,0,0,0,1500.0,50.0
14:20:38.376,GUIDED,-35.3632621,149.1652374,12,-0.0008163078455254436,0.001427187118679285,0.024837620556354523,0.00017359328921884298,0.0002787703415378928,0.001979917287826538,0,2,-1000,0,0,1,0,0,0,1500.0,50.0
14:20:38.579,GUIDED,-35.3632621,149.1652374,12,-0.0008163078455254436,0.001427187118679285,0.024837620556354523,0.00017359328921884298,0.0002787703415378928,0.001979917287826538,0,2,-1000,0,0,1,0,0,0,1500.0,50.0
14:20:38.783,GUIDED,-35.3632621,149.1652374,12,-0.0008163078455254436,0.001427187118679285,0.024837620556354523,0.00017359328921884298,0.0002787703415378928,0.001979917287826538,0,2,-1000,0,0,1,0,0,0,1500.0,50.0
14:20:38.985,GUIDED,-35.3632621,149.1652374,12,-0.0008163078455254436,0.001427187118679285,0.024837620556354523,0.00017359328921884298,0.0002787703415378928,0.001979917287826538,0,2,-1000,0,0,1,0,0,0,1500.0,50.0
14:20:39.188,GUIDED,-35.3632621,149.1652374,12,-0.0008163078455254436,0.001427187118679285,0.024837620556354523,0.00017359328921884298,0.0002787703415378928,0.001979917287826538,0,2,-1000,0,0,1,0,0,0,1500.0,50.0
14:20:39.392,GUIDED,-35.3632621,149.1652374,12,-0.0008163078455254436,0.001427187118679285,0.024837620556354523,0.00017359328921884298,0.0002787703415378928,0.001979917287826538,0,2,-1000,0,0,1,0,0,0,1500.0,50.0
14:20:39.596,GUIDED,-35.3632621,149.1652374,12,-0.0008163078455254436,0.001427187118679285,0.024837620556354523,0.00017359328921884298,0.0002787703415378928,0.001979917287826538,0,2,-1000,0,0,1,0,0,0,1500.0,50.0
14:20:39.801,GUIDED,-35.3632621,149.1652374,12,-0.0008163078455254436,0.001427187118679285,0.024837620556354523,0.00017359328921884298,0.0002787703415378928,0.001979917287826538,0,2,-1000,0,0,1,0,0,0,1500.0,50.0
14:20:40.004,GUIDED,-35.3632621,149.1652374,14,-0.0007021970232017338,0.0016274545341730118,0.024497929960489273,0.00022100034402683377,0.0002738234179560095,0.001863520359620452,0,2,-1000,0,0,1,0,0,0,1500.0,50.0
14:20:40.206,GUIDED,-35.3632621,149.1652374,15,-0.00048392979078926146,0.0019158952636644244,0.024011004716157913,0.00026172539219260216,0.0003757163358386606,0.0019573920872062445,0,1,-1000,0,0,0,0,0,0,1500.0,50.0
14:20:40.407,GUIDED,-35.3632621,149.1652374,25,0.001975694205611944,0.0005194814875721931,0.023903964087367058,0.009224936366081238,-0.0112477857619524,0.0028977259062230587,0,0,-1136,9,-10,1,0,0,-15,1500.0,50.0
14:20:40.610,GUIDED,-35.3632621,149.1652374,25,0.001975694205611944,0.0005194814875721931,0.023903964087367058,0.009224936366081238,-0.0112477857619524,0.0028977259062230587,0,0,-1136,9,-10,1,0,0,-15,1500.0,50.0
14:20:40.818,GUIDED,-35.3632621,149.1652374,25,0.001975694205611944,0.0005194814875721931,0.023903964087367058,0.009224936366081238,-0.0112477857619524,0.0028977259062230587,0,0,-1136,9,-10,1,0,0,-15,1500.0,50.0
14:20:41.020,GUIDED,-35.3632621,149.1652374,25,0.001975694205611944,0.0005194814875721931,0.023903964087367058,0.009224936366081238,-0.0112477857619524,0.0028977259062230587,0,0,-1136,9,-10,1,0,0,-15,1500.0,50.0
14:20:41.221,GUIDED,-35.3632621,149.1652374,25,0.001975694205611944,0.0005194814875721931,0.023903964087367058,0.009224936366081238,-0.0112477857619524,0.0028977259062230587,0,0,-1136,9,-10,1,0,0,-15,1500.0,50.0
14:20:41.422,GUIDED,-35.3632621,149.1652374,25,0.001975694205611944,0.0005194814875721931,0.023903964087367058,0.009224936366081238,-0.0112477857619524,0.0028977259062230587,0,0,-1136,9,-10,1,0,0,-15,1500.0,50.0
14:20:41.625,GUIDED,-35.3632621,149.1652374,25,0.001975694205611944,0.0005194814875721931,0.023903964087367058,0.009224936366081238,-0.0112477857619524,0.0028977259062230587,0,0,-1136,9,-10,1,0,0,-15,1500.0,50.0
14:20:41.829,GUIDED,-35.3632621,149.1652374,25,0.001975694205611944,0.0005194814875721931,0.023903964087367058,0.009224936366081238,-0.0112477857619524,0.0028977259062230587,0,0,-1136,9,-10,1,0,0,-15,1500.0,50.0
14:20:42.033,GUIDED,-35.3632621,149.1652374,1161,0.013837110251188278,0.0004331207019276917,0.023293746635317802,0.04768382012844086,-0.00667182169854641,0.0018642861396074295,0,0,-1074,29,0,0,0,2,-142,1500.0,50.0
14:20:42.236,GUIDED,-35.363262,149.1652378,1913,0.036857977509498596,-0.0033541866578161716,0.02336215227842331,0.04421045631170273,-0.00832604430615902,0.0033007280435413122,0,-2,-1005,44,-7,2,2,13,-148,1500.0,50.0
14:20:42.438,GUIDED,-35.3632619,149.1652383,2298,0.04753224551677704,-0.005673297215253115,0.023535415530204773,0.041474949568510056,-0.009848820976912975,0.0037750168703496456,0,-3,-1001,41,-9,2,3,23,-149,1500.0,50.0
14:20:42.640,GUIDED,-35.3632619,149.1652383,2298,0.04753224551677704,-0.005673297215253115,0.023535415530204773,0.041474949568510056,-0.009848820976912975,0.0037750168703496456,0,-3,-1001,41,-9,2,3,23,-149,1500.0,50.0
14:20:42.844,GUIDED,-35.3632619,149.1652383,2298,0.04753224551677704,-0.005673297215253115,0.023535415530204773,0.041474949568510056,-0.009848820976912975,0.0037750168703496456,0,-3,-1001,41,-9,2,3,23,-149,1500.0,50.0
14:20:43.046,GUIDED,-35.3632619,149.1652383,2298,0.04753224551677704,-0.005673297215253115,0.023535415530204773,0.041474949568510056,-0.009848820976912975,0.0037750168703496456,0,-3,-1001,41,-9,2,3,23,-149,1500.0,50.0
14:20:43.250,GUIDED,-35.3632619,149.1652383,2298,0.04753224551677704,-0.005673297215253115,0.023535415530204773,0.041474949568510056,-0.009848820976912975,0.0037750168703496456,0,-3,-1001,41,-9,2,3,23,-149,1500.0,50.0
14:20:43.452,GUIDED,-35.3632619,149.1652383,2298,0.04753224551677704,-0.005673297215253115,0.023535415530204773,0.041474949568510056,-0.009848820976912975,0.0037750168703496456,0,-3,-1001,41,-9,2,3,23,-149,1500.0,50.0
14:20:43.654,GUIDED,-35.3632619,149.1652383,2298,0.04753224551677704,-0.005673297215253115,0.023535415530204773,0.041474949568510056,-0.009848820976912975,0.0037750168703496456,0,-3,-1001,41,-9,2,3,23,-149,1500.0,50.0
14:20:43.858,GUIDED,-35.3632619,149.1652383,2298,0.04753224551677704,-0.005673297215253115,0.023535415530204773,0.041474949568510056,-0.009848820976912975,0.0037750168703496456,0,-3,-1001,41,-9,2,3,23,-149,1500.0,50.0
14:20:44.061,GUIDED,-35.3632611,149.1652429,3824,-0.012409376911818981,0.02558172680437565,-0.057272784411907196,-0.11990231275558472,0.024500388652086258,-0.09795736521482468,3,-11,-992,-168,73,-92,5,52,-146,1500.0,50.0
14:20:44.264,GUIDED,-35.3632611,149.165246,4979,-0.05151757970452309,0.015401742421090603,-0.10095676779747009,-0.06403417140245438,-0.09538804739713669,0.02231385000050068,6,-5,-1000,-63,-94,21,-11,21,-150,1500.0,50.0
14:20:44.465,GUIDED,-35.3632613,149.1652464,5364,-0.06771528720855713,-0.011267444118857384,-0.08563538640737534,-0.06155366078019142,-0.114295095205307,0.07433424144983292,4,0,-1001,-61,-113,73,-11,5,-149,1500.0,50.0
14:20:44.667,GUIDED,-35.3632613,149.1652464,5364,-0.06771528720855713,-0.011267444118857384,-0.08563538640737534,-0.06155366078019142,-0.114295095205307,0.07433424144983292,4,0,-1001,-61,-113,73,-11,5,-149,1500.0,50.0
14:20:44.872,GUIDED,-35.3632613,149.1652464,5364,-0.06771528720855713,-0.011267444118857384,-0.08563538640737534,-0.06155366078019142,-0.114295095205307,0.07433424144983292,4,0,-1001,-61,-113,73,-11,5,-149,1500.0,50.0
14:20:45.077,GUIDED,-35.3632613,149.1652464,5364,-0.06771528720855713,-0.011267444118857384,-0.08563538640737534,-0.06155366078019142,-0.114295095205307,0.07433424144983292,4,0,-1001,-61,-113,73,-11,5,-149,1500.0,50.0
14:20:45.281,GUIDED,-35.3632613,149.1652464,5364,-0.06771528720855713,-0.011267444118857384,-0.08563538640737534,-0.06155366078019142,-0.114295095205307,0.07433424144983292,4,0,-1001,-61,-113,73,-11,5,-149,1500.0,50.0
14:20:45.483,GUIDED,-35.3632613,149.1652464,5364,-0.06771528720855713,-0.011267444118857384,-0.08563538640737534,-0.06155366078019142,-0.114295095205307,0.07433424144983292,4,0,-1001,-61,-113,73,-11,5,-149,1500.0,50.0
14:20:45.685,GUIDED,-35.3632613,149.1652464,5364,-0.06771528720855713,-0.011267444118857384,-0.08563538640737534,-0.06155366078019142,-0.114295095205307,0.07433424144983292,4,0,-1001,-61,-113,73,-11,5,-149,1500.0,50.0
14:20:45.887,GUIDED,-35.3632613,149.1652464,5364,-0.06771528720855713,-0.011267444118857384,-0.08563538640737534,-0.06155366078019142,-0.114295095205307,0.07433424144983292,4,0,-1001,-61,-113,73,-11,5,-149,1500.0,50.0
14:20:46.091,GUIDED,-35.3632617,149.1652448,6515,-0.05319774150848389,-0.020446695387363434,-0.07802634686231613,0.05631052330136299,0.004940804094076157,0.0064044855535030365,-4,7,-1001,57,5,5,1,-43,-149,1500.0,50.0
14:20:46.292,GUIDED,-35.3632613,149.1652386,8060,0.009175448678433895,-0.00625409884378314,-0.07587134838104248,0.06421925872564316,0.01992032118141651,0.005554636940360069,-9,10,-1004,64,20,4,7,-58,-152,1500.0,50.0
14:20:46.494,GUIDED,-35.3632612,149.165237,8450,0.02513463981449604,-0.0013509354321286082,-0.07494951784610748,0.06263631582260132,0.01944567635655403,0.005330164451152086,-9,11,-1004,63,19,4,7,-52,-153,1500.0,50.0
14:20:46.695,GUIDED,-35.3632612,149.165237,8450,0.02513463981449604,-0.0013509354321286082,-0.07494951784610748,0.06263631582260132,0.01944567635655403,0.005330164451152086,-9,11,-1004,63,19,4,7,-52,-153,1500.0,50.0
14:20:46.897,GUIDED,-35.3632612,149.165237,8450,0.02513463981449604,-0.0013509354321286082,-0.07494951784610748,0.06263631582260132,0.01944567635655403,0.005330164451152086,-9,11,-1004,63,19,4,7,-52,-153,1500.0,50.0
14:20:47.102,GUIDED,-35.3632612,149.165237,8450,0.02513463981449604,-0.0013509354321286082,-0.07494951784610748,0.06263631582260132,0.01944567635655403,0.005330164451152086,-9,11,-1004,63,19,4,7,-52,-153,1500.0,50.0
14:20:47.303,GUIDED,-35.3632612,149.165237,8450,0.02513463981449604,-0.0013509354321286082,-0.07494951784610748,0.06263631582260132,0.01944567635655403,0.005330164451152086,-9,11,-1004,63,19,4,7,-52,-153,1500.0,50.0
14:20:47.505,GUIDED,-35.3632612,149.165237,8450,0.02513463981449604,-0.0013509354321286082,-0.07494951784610748,0.06263631582260132,0.01944567635655403,0.005330164451152086,-9,11,-1004,63,19,4,7,-52,-153,1500.0,50.0
14:20:47.708,GUIDED,-35.3632612,149.165237,8450,0.02513463981449604,-0.0013509354321286082,-0.07494951784610748,0.06263631582260132,0.01944567635655403,0.005330164451152086,-9,11,-1004,63,19,4,7,-52,-153,1500.0,50.0
14:20:47.911,GUIDED,-35.3632612,149.165237,8450,0.02513463981449604,-0.0013509354321286082,-0.07494951784610748,0.06263631582260132,0.01944567635655403,0.005330164451152086,-9,11,-1004,63,19,4,7,-52,-153,1500.0,50.0
14:20:48.112,GUIDED,-35.3632616,149.1652343,11030,0.022625409066677094,0.014250831678509712,-0.10150500386953354,-0.08164513111114502,-0.05943884328007698,0.025930695235729218,3,0,-995,-76,-57,17,-19,27,-149,1500.0,50.0
14:20:48.314,GUIDED,-35.363262,149.165235,11413,0.005326877348124981,0.001971753081306815,-0.09663958102464676,-0.0631503239274025,-0.03919524326920509,0.017276300117373466,7,-2,-1002,-62,-38,16,-18,28,-149,1500.0,50.0
14:20:48.516,GUIDED,-35.363262,149.165235,11413,0.005326877348124981,0.001971753081306815,-0.09663958102464676,-0.0631503239274025,-0.03919524326920509,0.017276300117373466,7,-2,-1002,-62,-38,16,-18,28,-149,1500.0,50.0
14:20:48.718,GUIDED,-35.363262,149.165235,11413,0.005326877348124981,0.001971753081306815,-0.09663958102464676,-0.0631503239274025,-0.03919524326920509,0.017276300117373466,7,-2,-1002,-62,-38,16,-18,28,-149,1500.0,50.0
14:20:48.919,GUIDED,-35.363262,149.165235,11413,0.005326877348124981,0.001971753081306815,-0.09663958102464676,-0.0631503239274025,-0.03919524326920509,0.017276300117373466,7,-2,-1002,-62,-38,16,-18,28,-149,1500.0,50.0
14:20:49.122,GUIDED,-35.363262,149.165235,11413,0.005326877348124981,0.001971753081306815,-0.09663958102464676,-0.0631503239274025,-0.03919524326920509,0.017276300117373466,7,-2,-1002,-62,-38,16,-18,28,-149,1500.0,50.0
14:20:49.325,GUIDED,-35.363262,149.165235,11413,0.005326877348124981,0.001971753081306815,-0.09663958102464676,-0.0631503239274025,-0.03919524326920509,0.017276300117373466,7,-2,-1002,-62,-38,16,-18,28,-149,1500.0,50.0
14:20:49.528,GUIDED,-35.363262,149.165235,11413,0.005326877348124981,0.001971753081306815,-0.09663958102464676,-0.0631503239274025,-0.03919524326920509,0.017276300117373466,7,-2,-1002,-62,-38,16,-18,28,-149,1500.0,50.0
14:20:49.731,GUIDED,-35.363262,149.165235,11413,0.005326877348124981,0.001971753081306815,-0.09663958102464676,-0.0631503239274025,-0.03919524326920509,0.017276300117373466,7,-2,-1002,-62,-38,16,-18,28,-149,1500.0,50.0
14:20:49.934,GUIDED,-35.363262,149.165235,11413,0.005326877348124981,0.001971753081306815,-0.09663958102464676,-0.0631503239274025,-0.03919524326920509,0.017276300117373466,7,-2,-1002,-62,-38,16,-18,28,-149,1500.0,50.0
14:20:50.135,GUIDED,-35.3632629,149.1652372,14135,-0.009211285971105099,-0.008389459922909737,-0.12131118029356003,0.01991664431989193,0.01033166702836752,-0.02799970842897892,-1,0,-1000,20,10,-28,5,-5,-153,1500.0,50.0
14:20:50.337,GUIDED,-35.3632629,149.1652371,14526,-0.0044175125658512115,-0.0058203632943332195,-0.12839989364147186,0.020572755485773087,0.012628685683012009,-0.028435222804546356,-2,0,-1000,21,13,-29,6,-7,-153,1500.0,50.0
14:20:50.538,GUIDED,-35.3632629,149.1652371,14526,-0.0044175125658512115,-0.0058203632943332195,-0.12839989364147186,0.020572755485773087,0.012628685683012009,-0.028435222804546356,-2,0,-1000,21,13,-29,6,-7,-153,1500.0,50.0
14:20:50.739,GUIDED,-35.3632629,149.1652371,14526,-0.0044175125658512115,-0.0058203632943332195,-0.12839989364147186,0.020572755485773087,0.012628685683012009,-0.028435222804546356,-2,0,-1000,21,13,-29,6,-7,-153,1500.0,50.0
14:20:50.942,GUIDED,-35.3632629,149.1652371,14526,-0.0044175125658512115,-0.0058203632943332195,-0.12839989364147186,0.020572755485773087,0.012628685683012009,-0.028435222804546356,-2,0,-1000,21,13,-29,6,-7,-153,1500.0,50.0
14:20:51.144,GUIDED,-35.3632629,149.1652371,14526,-0.0044175125658512115,-0.0058203632943332195,-0.12839989364147186,0.020572755485773087,0.012628685683012009,-0.028435222804546356,-2,0,-1000,21,13,-29,6,-7,-153,1500.0,50.0
14:20:51.346,GUIDED,-35.3632629,149.1652371,14526,-0.0044175125658512115,-0.0058203632943332195,-0.12839989364147186,0.020572755485773087,0.012628685683012009,-0.028435222804546356,-2,0,-1000,21,13,-29,6,-7,-153,1500.0,50.0
14:20:51.547,GUIDED,-35.3632629,149.1652371,14526,-0.0044175125658512115,-0.0058203632943332195,-0.12839989364147186,0.020572755485773087,0.012628685683012009,-0.028435222804546356,-2,0,-1000,21,13,-29,6,-7,-153,1500.0,50.0
14:20:51.750,GUIDED,-35.3632629,149.1652371,14526,-0.0044175125658512115,-0.0058203632943332195,-0.12839989364147186,0.020572755485773087,0.012628685683012009,-0.028435222804546356,-2,0,-1000,21,13,-29,6,-7,-153,1500.0,50.0
14:20:51.954,GUIDED,-35.3632629,149.1652371,14526,-0.0044175125658512115,-0.0058203632943332195,-0.12839989364147186,0.020572755485773087,0.012628685683012009,-0.028435222804546356,-2,0,-1000,21,13,-29,6,-7,-153,1500.0,50.0
14:20:52.155,GUIDED,-35.3632621,149.165236,16092,0.008874594233930111,0.00548339681699872,-0.15393821895122528,0.006315195467323065,0.008796997368335724,-0.021044278517365456,-3,0,-999,6,9,-22,6,-6,-153,1500.0,50.0
14:20:52.358,GUIDED,-35.3632616,149.1652355,17659,0.009660162962973118,0.008567210286855698,-0.16949498653411865,-0.002039782702922821,-0.0009288829751312733,-0.01314510591328144,0,0,-1000,-1,0,-14,1,1,-153,1500.0,50.0
14:20:52.561,GUIDED,-35.3632616,149.1652355,17659,0.009660162962973118,0.008567210286855698,-0.16949498653411865,-0.002039782702922821,-0.0009288829751312733,-0.01314510591328144,0,0,-1000,-1,0,-14,1,1,-153,1500.0,50.0
14:20:52.774,GUIDED,-35.3632616,149.1652355,17659,0.009660162962973118,0.008567210286855698,-0.16949498653411865,-0.002039782702922821,-0.0009288829751312733,-0.01314510591328144,0,0,-1000,-1,0,-14,1,1,-153,1500.0,50.0
14:20:52.976,GUIDED,-35.3632616,149.1652355,17659,0.009660162962973118,0.008567210286855698,-0.16949498653411865,-0.002039782702922821,-0.0009288829751312733,-0.01314510591328144,0,0,-1000,-1,0,-14,1,1,-153,1500.0,50.0
14:20:53.179,GUIDED,-35.3632616,149.1652355,17659,0.009660162962973118,0.008567210286855698,-0.16949498653411865,-0.002039782702922821,-0.0009288829751312733,-0.01314510591328144,0,0,-1000,-1,0,-14,1,1,-153,1500.0,50.0
14:20:53.380,GUIDED,-35.3632616,149.1652355,17659,0.009660162962973118,0.008567210286855698,-0.16949498653411865,-0.002039782702922821,-0.0009288829751312733,-0.01314510591328144,0,0,-1000,-1,0,-14,1,1,-153,1500.0,50.0
14:20:53.583,GUIDED,-35.3632616,149.1652355,17659,0.009660162962973118,0.008567210286855698,-0.16949498653411865,-0.002039782702922821,-0.0009288829751312733,-0.01314510591328144,0,0,-1000,-1,0,-14,1,1,-153,1500.0,50.0
14:20:53.785,GUIDED,-35.3632616,149.1652355,17659,0.009660162962973118,0.008567210286855698,-0.16949498653411865,-0.002039782702922821,-0.0009288829751312733,-0.01314510591328144,0,0,-1000,-1,0,-14,1,1,-153,1500.0,50.0
14:20:53.989,GUIDED,-35.3632616,149.1652355,17659,0.009660162962973118,0.008567210286855698,-0.16949498653411865,-0.002039782702922821,-0.0009288829751312733,-0.01314510591328144,0,0,-1000,-1,0,-14,1,1,-153,1500.0,50.0
14:20:54.190,GUIDED,-35.3632615,149.1652359,19999,0.0025023778434842825,0.004287490621209145,-0.19126632809638977,-0.003397193271666765,-0.002081017941236496,-0.014433358795940876,0,0,-1000,0,-2,-15,-3,6,-153,1500.0,50.0
14:20:54.393,GUIDED,-35.3632615,149.1652361,20780,0.0019455713918432593,0.003945635631680489,-0.1953883171081543,-0.0012227471452206373,-0.0021866292227059603,-0.01765557751059532,0,0,-1000,0,-1,-18,-3,6,-153,1500.0,50.0
14:20:54.596,GUIDED,-35.3632615,149.1652361,20780,0.0019455713918432593,0.003945635631680489,-0.1953883171081543,-0.0012227471452206373,-0.0021866292227059603,-0.01765557751059532,0,0,-1000,0,-1,-18,-3,6,-153,1500.0,50.0
14:20:54.800,GUIDED,-35.3632615,149.1652361,20780,0.0019455713918432593,0.003945635631680489,-0.1953883171081543,-0.0012227471452206373,-0.0021866292227059603,-0.01765557751059532,0,0,-1000,0,-1,-18,-3,6,-153,1500.0,50.0
14:20:55.004,GUIDED,-35.3632615,149.1652361,20780,0.0019455713918432593,0.003945635631680489,-0.1953883171081543,-0.0012227471452206373,-0.0021866292227059603,-0.01765557751059532,0,0,-1000,0,-1,-18,-3,6,-153,1500.0,50.0
14:20:55.207,GUIDED,-35.3632615,149.1652361,20780,0.0019455713918432593,0.003945635631680489,-0.1953883171081543,-0.0012227471452206373,-0.0021866292227059603,-0.01765557751059532,0,0,-1000,0,-1,-18,-3,6,-153,1500.0,50.0
14:20:55.411,GUIDED,-35.3632615,149.1652361,20780,0.0019455713918432593,0.003945635631680489,-0.1953883171081543,-0.0012227471452206373,-0.0021866292227059603,-0.01765557751059532,0,0,-1000,0,-1,-18,-3,6,-153,1500.0,50.0
14:20:55.613,GUIDED,-35.3632615,149.1652361,20780,0.0019455713918432593,0.003945635631680489,-0.1953883171081543,-0.0012227471452206373,-0.0021866292227059603,-0.01765557751059532,0,0,-1000,0,-1,-18,-3,6,-153,1500.0,50.0
14:20:55.816,GUIDED,-35.3632615,149.1652361,20780,0.0019455713918432593,0.003945635631680489,-0.1953883171081543,-0.0012227471452206373,-0.0021866292227059603,-0.01765557751059532,0,0,-1000,0,-1,-18,-3,6,-153,1500.0,50.0
14:20:56.019,GUIDED,-35.3632617,149.1652365,22735,0.0008245742064900696,0.002956889569759369,-0.21901294589042664,-0.0016104878159239888,0.0011931986082345247,-0.021251250058412552,0,0,-1000,2,0,-20,-3,3,-153,1500.0,50.0
14:20:56.221,GUIDED,-35.3632617,149.1652366,23516,0.0009736971114762127,0.0029228057246655226,-0.2288789004087448,-4.241411807015538e-05,-0.0004188682069070637,-0.018071560189127922,0,0,-1000,0,0,-18,-3,3,-153,1500.0,50.0
14:20:56.422,GUIDED,-35.3632617,149.1652367,23907,0.0012860111892223358,0.0028529600240290165,-0.23386932909488678,0.0026246097404509783,-4.448980325832963e-05,-0.01979142054915428,0,0,-1000,3,0,-20,-3,2,-153,1500.0,50.0
14:20:56.624,GUIDED,-35.3632617,149.1652367,23907,0.0012860111892223358,0.0028529600240290165,-0.23386932909488678,0.0026246097404509783,-4.448980325832963e-05,-0.01979142054915428,0,0,-1000,3,0,-20,-3,2,-153,1500.0,50.0
14:20:56.826,GUIDED,-35.3632617,149.1652367,23907,0.0012860111892223358,0.0028529600240290165,-0.23386932909488678,0.0026246097404509783,-4.448980325832963e-05,-0.01979142054915428,0,0,-1000,3,0,-20,-3,2,-153,1500.0,50.0
14:20:57.027,GUIDED,-35.3632617,149.1652367,23907,0.0012860111892223358,0.0028529600240290165,-0.23386932909488678,0.0026246097404509783,-4.448980325832963e-05,-0.01979142054915428,0,0,-1000,3,0,-20,-3,2,-153,1500.0,50.0
14:20:57.229,GUIDED,-35.3632617,149.1652367,23907,0.0012860111892223358,0.0028529600240290165,-0.23386932909488678,0.0026246097404509783,-4.448980325832963e-05,-0.01979142054915428,0,0,-1000,3,0,-20,-3,2,-153,1500.0,50.0
14:20:57.436,GUIDED,-35.3632617,149.1652367,23907,0.0012860111892223358,0.0028529600240290165,-0.23386932909488678,0.0026246097404509783,-4.448980325832963e-05,-0.01979142054915428,0,0,-1000,3,0,-20,-3,2,-153,1500.0,50.0
14:20:57.637,GUIDED,-35.3632617,149.1652367,23907,0.0012860111892223358,0.0028529600240290165,-0.23386932909488678,0.0026246097404509783,-4.448980325832963e-05,-0.01979142054915428,0,0,-1000,3,0,-20,-3,2,-153,1500.0,50.0
14:20:57.839,GUIDED,-35.3632617,149.1652367,23907,0.0012860111892223358,0.0028529600240290165,-0.23386932909488678,0.0026246097404509783,-4.448980325832963e-05,-0.01979142054915428,0,0,-1000,3,0,-20,-3,2,-153,1500.0,50.0
14:20:58.041,GUIDED,-35.3632618,149.1652367,25079,-0.006351368501782417,0.002842589979991317,-0.2483191341161728,-0.07485176622867584,0.0007894849986769259,-0.015217362903058529,0,1,-997,-74,1,-16,-2,2,-152,1500.0,50.0
14:20:58.243,GUIDED,-35.363262,149.1652364,26642,0.010157762095332146,0.0039787618443369865,-0.2405681163072586,0.014705834910273552,-0.005551322363317013,0.022262224927544594,0,1,-1000,15,-4,21,-5,-1,-154,1500.0,50.0
14:20:58.445,GUIDED,-35.3632621,149.1652364,27032,0.012458456680178642,0.002724100137129426,-0.23451916873455048,0.007311514113098383,-0.004094905219972134,0.024810684844851494,0,1,-999,7,-3,24,-5,1,-153,1500.0,50.0
14:20:58.650,GUIDED,-35.3632621,149.1652364,27032,0.012458456680178642,0.002724100137129426,-0.23451916873455048,0.007311514113098383,-0.004094905219972134,0.024810684844851494,0,1,-999,7,-3,24,-5,1,-153,1500.0,50.0
14:20:58.854,GUIDED,-35.3632621,149.1652364,27032,0.012458456680178642,0.002724100137129426,-0.23451916873455048,0.007311514113098383,-0.004094905219972134,0.024810684844851494,0,1,-999,7,-3,24,-5,1,-153,1500.0,50.0
14:20:59.056,GUIDED,-35.3632621,149.1652364,27032,0.012458456680178642,0.002724100137129426,-0.23451916873455048,0.007311514113098383,-0.004094905219972134,0.024810684844851494,0,1,-999,7,-3,24,-5,1,-153,1500.0,50.0
14:20:59.259,GUIDED,-35.3632621,149.1652364,27032,0.012458456680178642,0.002724100137129426,-0.23451916873455048,0.007311514113098383,-0.004094905219972134,0.024810684844851494,0,1,-999,7,-3,24,-5,1,-153,1500.0,50.0
14:20:59.461,GUIDED,-35.3632621,149.1652364,27032,0.012458456680178642,0.002724100137129426,-0.23451916873455048,0.007311514113098383,-0.004094905219972134,0.024810684844851494,0,1,-999,7,-3,24,-5,1,-153,1500.0,50.0
14:20:59.662,GUIDED,-35.3632621,149.1652364,27032,0.012458456680178642,0.002724100137129426,-0.23451916873455048,0.007311514113098383,-0.004094905219972134,0.024810684844851494,0,1,-999,7,-3,24,-5,1,-153,1500.0,50.0
14:20:59.867,GUIDED,-35.3632621,149.1652364,27032,0.012458456680178642,0.002724100137129426,-0.23451916873455048,0.007311514113098383,-0.004094905219972134,0.024810684844851494,0,1,-999,7,-3,24,-5,1,-153,1500.0,50.0
14:21:00.068,GUIDED,-35.3632623,149.1652366,28201,0.00858669076114893,0.00133503635879606,-0.21600113809108734,-0.012765933759510517,-0.0013819525483995676,0.02310921996831894,1,0,-1000,-12,0,22,-2,8,-153,1500.0,50.0
14:21:00.270,GUIDED,-35.3632623,149.1652374,29755,0.0009038949501700699,0.0016995336627587676,-0.19490167498588562,-0.005431863013654947,-0.00030110805528238416,0.02067732810974121,1,-1,-1001,-4,0,20,0,8,-153,1500.0,50.0
14:21:00.471,GUIDED,-35.3632623,149.1652375,30145,-0.0003096284926868975,0.0017562538851052523,-0.19015160202980042,-0.0022735311649739742,7.630552863702178e-05,0.018852101638913155,0,-1,-1001,-1,0,18,0,7,-153,1500.0,50.0
14:21:00.675,GUIDED,-35.3632623,149.1652375,30145,-0.0003096284926868975,0.0017562538851052523,-0.19015160202980042,-0.0022735311649739742,7.630552863702178e-05,0.018852101638913155,0,-1,-1001,-1,0,18,0,7,-153,1500.0,50.0
14:21:00.882,GUIDED,-35.3632623,149.1652375,30145,-0.0003096284926868975,0.0017562538851052523,-0.19015160202980042,-0.0022735311649739742,7.630552863702178e-05,0.018852101638913155,0,-1,-1001,-1,0,18,0,7,-153,1500.0,50.0
14:21:01.084,GUIDED,-35.3632623,149.1652375,30145,-0.0003096284926868975,0.0017562538851052523,-0.19015160202980042,-0.0022735311649739742,7.630552863702178e-05,0.018852101638913155,0,-1,-1001,-1,0,18,0,7,-153,1500.0,50.0
14:21:01.286,GUIDED,-35.3632623,149.1652375,30145,-0.0003096284926868975,0.0017562538851052523,-0.19015160202980042,-0.0022735311649739742,7.630552863702178e-05,0.018852101638913155,0,-1,-1001,-1,0,18,0,7,-153,1500.0,50.0
14:21:01.491,GUIDED,-35.3632623,149.1652375,30145,-0.0003096284926868975,0.0017562538851052523,-0.19015160202980042,-0.0022735311649739742,7.630552863702178e-05,0.018852101638913155,0,-1,-1001,-1,0,18,0,7,-153,1500.0,50.0
14:21:01.693,GUIDED,-35.3632623,149.1652375,30145,-0.0003096284926868975,0.0017562538851052523,-0.19015160202980042,-0.0022735311649739742,7.630552863702178e-05,0.018852101638913155,0,-1,-1001,-1,0,18,0,7,-153,1500.0,50.0
14:21:01.897,GUIDED,-35.3632623,149.1652375,30145,-0.0003096284926868975,0.0017562538851052523,-0.19015160202980042,-0.0022735311649739742,7.630552863702178e-05,0.018852101638913155,0,-1,-1001,-1,0,18,0,7,-153,1500.0,50.0
14:21:02.098,GUIDED,-35.3632623,149.1652379,31312,-0.0016237280797213316,0.0015569422394037247,-0.17700716853141785,-2.2479973267763853e-05,-0.0011401547817513347,0.017199678346514702,0,-1,-1000,0,0,16,0,4,-153,1500.0,50.0
14:21:02.302,GUIDED,-35.3632623,149.165238,32878,-5.9615202189888805e-05,0.0014821967342868447,-0.16125905513763428,0.00025825307238847017,9.938899893313646e-06,0.01507485844194889,0,0,-1000,1,1,14,0,1,-153,1500.0,50.0
14:21:02.503,GUIDED,-35.3632623,149.165238,33267,0.00045304055674932897,0.0015896680997684598,-0.1576409488916397,0.004270012490451336,0.0022930987179279327,0.015608196146786213,0,0,-1000,4,2,14,0,0,-153,1500.0,50.0
14:21:02.706,GUIDED,-35.3632623,149.165238,33267,0.00045304055674932897,0.0015896680997684598,-0.1576409488916397,0.004270012490451336,0.0022930987179279327,0.015608196146786213,0,0,-1000,4,2,14,0,0,-153,1500.0,50.0
14:21:02.909,GUIDED,-35.3632623,149.165238,33267,0.00045304055674932897,0.0015896680997684598,-0.1576409488916397,0.004270012490451336,0.0022930987179279327,0.015608196146786213,0,0,-1000,4,2,14,0,0,-153,1500.0,50.0
14:21:03.113,GUIDED,-35.3632623,149.165238,33267,0.00045304055674932897,0.0015896680997684598,-0.1576409488916397,0.004270012490451336,0.0022930987179279327,0.015608196146786213,0,0,-1000,4,2,14,0,0,-153,1500.0,50.0
14:21:03.319,GUIDED,-35.3632623,149.165238,33267,0.00045304055674932897,0.0015896680997684598,-0.1576409488916397,0.004270012490451336,0.0022930987179279327,0.015608196146786213,0,0,-1000,4,2,14,0,0,-153,1500.0,50.0
14:21:03.523,GUIDED,-35.3632623,149.165238,33267,0.00045304055674932897,0.0015896680997684598,-0.1576409488916397,0.004270012490451336,0.0022930987179279327,0.015608196146786213,0,0,-1000,4,2,14,0,0,-153,1500.0,50.0
14:21:03.730,GUIDED,-35.3632623,149.165238,33267,0.00045304055674932897,0.0015896680997684598,-0.1576409488916397,0.004270012490451336,0.0022930987179279327,0.015608196146786213,0,0,-1000,4,2,14,0,0,-153,1500.0,50.0
14:21:03.931,GUIDED,-35.3632623,149.165238,33267,0.00045304055674932897,0.0015896680997684598,-0.1576409488916397,0.004270012490451336,0.0022930987179279327,0.015608196146786213,0,0,-1000,4,2,14,0,0,-153,1500.0,50.0
14:21:04.134,GUIDED,-35.3632622,149.1652379,35599,0.0010643026325851679,0.0010413127020001411,-0.13840754330158234,-0.0022132238373160362,-0.0001767895882949233,0.011034620925784111,0,0,-1000,-1,1,11,0,0,-153,1500.0,50.0
14:21:04.337,GUIDED,-35.3632622,149.1652379,35988,0.0010674879886209965,0.0011868381407111883,-0.13573481142520905,0.0020641274750232697,-0.00020463543478399515,0.010081959888339043,0,0,-1001,3,0,9,0,0,-153,1500.0,50.0
14:21:04.540,GUIDED,-35.3632622,149.1652379,36377,0.001344570191577077,0.0015181971248239279,-0.13295689225196838,0.0020965945441275835,0.0012972659897059202,0.012627257965505123,0,0,-999,2,1,12,0,0,-153,1500.0,50.0
14:21:04.744,GUIDED,-35.3632622,149.1652379,36377,0.001344570191577077,0.0015181971248239279,-0.13295689225196838,0.0020965945441275835,0.0012972659897059202,0.012627257965505123,0,0,-999,2,1,12,0,0,-153,1500.0,50.0
14:21:04.946,GUIDED,-35.3632622,149.1652379,36377,0.001344570191577077,0.0015181971248239279,-0.13295689225196838,0.0020965945441275835,0.0012972659897059202,0.012627257965505123,0,0,-999,2,1,12,0,0,-153,1500.0,50.0
14:21:05.151,GUIDED,-35.3632622,149.1652379,36377,0.001344570191577077,0.0015181971248239279,-0.13295689225196838,0.0020965945441275835,0.0012972659897059202,0.012627257965505123,0,0,-999,2,1,12,0,0,-153,1500.0,50.0
14:21:05.354,GUIDED,-35.3632622,149.1652379,36377,0.001344570191577077,0.0015181971248239279,-0.13295689225196838,0.0020965945441275835,0.0012972659897059202,0.012627257965505123,0,0,-999,2,1,12,0,0,-153,1500.0,50.0
14:21:05.557,GUIDED,-35.3632622,149.1652379,36377,0.001344570191577077,0.0015181971248239279,-0.13295689225196838,0.0020965945441275835,0.0012972659897059202,0.012627257965505123,0,0,-999,2,1,12,0,0,-153,1500.0,50.0
14:21:05.762,GUIDED,-35.3632622,149.1652379,36377,0.001344570191577077,0.0015181971248239279,-0.13295689225196838,0.0020965945441275835,0.0012972659897059202,0.012627257965505123,0,0,-999,2,1,12,0,0,-153,1500.0,50.0
14:21:05.965,GUIDED,-35.3632621,149.1652376,38562,0.002304167253896594,0.0016210355097427964,-0.11951368302106857,0.0018315351335331798,-0.0007276270189322531,0.006994496565312147,0,0,-1000,2,0,6,0,0,-153,1500.0,50.0
14:21:06.167,GUIDED,-35.3632621,149.1652376,38952,0.0021910846699029207,0.0014991041971370578,-0.11747922748327255,-0.001248412998393178,0.0011434261687099934,0.010483120568096638,0,0,-999,0,1,10,0,0,-153,1500.0,50.0
14:21:06.369,GUIDED,-35.3632621,149.1652376,39342,0.002131585730239749,0.001444322755560279,-0.11539022624492645,0.00018918252317234874,-0.0009441394358873367,0.00870730821043253,0,0,-1001,0,0,8,0,0,-153,1500.0,50.0
14:21:06.570,GUIDED,-35.3632621,149.1652376,39342,0.002131585730239749,0.001444322755560279,-0.11539022624492645,0.00018918252317234874,-0.0009441394358873367,0.00870730821043253,0,0,-1001,0,0,8,0,0,-153,1500.0,50.0
14:21:06.773,GUIDED,-35.3632621,149.1652376,39342,0.002131585730239749,0.001444322755560279,-0.11539022624492645,0.00018918252317234874,-0.0009441394358873367,0.00870730821043253,0,0,-1001,0,0,8,0,0,-153,1500.0,50.0
14:21:06.978,GUIDED,-35.3632621,149.1652376,39342,0.002131585730239749,0.001444322755560279,-0.11539022624492645,0.00018918252317234874,-0.0009441394358873367,0.00870730821043253,0,0,-1001,0,0,8,0,0,-153,1500.0,50.0
14:21:07.179,GUIDED,-35.3632621,149.1652376,39342,0.002131585730239749,0.001444322755560279,-0.11539022624492645,0.00018918252317234874,-0.0009441394358873367,0.00870730821043253,0,0,-1001,0,0,8,0,0,-153,1500.0,50.0
14:21:07.383,GUIDED,-35.3632621,149.1652376,39342,0.002131585730239749,0.001444322755560279,-0.11539022624492645,0.00018918252317234874,-0.0009441394358873367,0.00870730821043253,0,0,-1001,0,0,8,0,0,-153,1500.0,50.0
14:21:07.586,GUIDED,-35.3632621,149.1652376,39342,0.002131585730239749,0.001444322755560279,-0.11539022624492645,0.00018918252317234874,-0.0009441394358873367,0.00870730821043253,0,0,-1001,0,0,8,0,0,-153,1500.0,50.0
14:21:07.787,GUIDED,-35.3632621,149.1652376,39342,0.002131585730239749,0.001444322755560279,-0.11539022624492645,0.00018918252317234874,-0.0009441394358873367,0.00870730821043253,0,0,-1001,0,0,8,0,0,-153,1500.0,50.0
14:21:07.990,GUIDED,-35.3632621,149.1652376,39342,0.002131585730239749,0.001444322755560279,-0.11539022624492645,0.00018918252317234874,-0.0009441394358873367,0.00870730821043253,0,0,-1001,0,0,8,0,0,-153,1500.0,50.0
14:21:08.192,GUIDED,-35.3632621,149.1652374,41288,0.0019232872873544693,0.0016112409066408873,-0.10592208802700043,7.802603067830205e-05,0.00011234154226258397,0.008754363283514977,0,0,-1000,1,2,8,0,0,-153,1500.0,50.0
14:21:08.394,GUIDED,-35.363262,149.1652374,42458,0.0013923473889008164,0.0015298813814297318,-0.10119561105966568,-0.003263146849349141,0.00025092129362747073,0.00558285741135478,0,0,-1000,-2,0,5,-1,1,-153,1500.0,50.0
14:21:08.596,GUIDED,-35.363262,149.1652374,42458,0.0013923473889008164,0.0015298813814297318,-0.10119561105966568,-0.003263146849349141,0.00025092129362747073,0.00558285741135478,0,0,-1000,-2,0,5,-1,1,-153,1500.0,50.0
14:21:08.805,GUIDED,-35.363262,149.1652374,42458,0.0013923473889008164,0.0015298813814297318,-0.10119561105966568,-0.003263146849349141,0.00025092129362747073,0.00558285741135478,0,0,-1000,-2,0,5,-1,1,-153,1500.0,50.0
14:21:09.007,GUIDED,-35.363262,149.1652374,42458,0.0013923473889008164,0.0015298813814297318,-0.10119561105966568,-0.003263146849349141,0.00025092129362747073,0.00558285741135478,0,0,-1000,-2,0,5,-1,1,-153,1500.0,50.0
14:21:09.209,GUIDED,-35.363262,149.1652374,42458,0.0013923473889008164,0.0015298813814297318,-0.10119561105966568,-0.003263146849349141,0.00025092129362747073,0.00558285741135478,0,0,-1000,-2,0,5,-1,1,-153,1500.0,50.0
14:21:09.410,GUIDED,-35.363262,149.1652374,42458,0.0013923473889008164,0.0015298813814297318,-0.10119561105966568,-0.003263146849349141,0.00025092129362747073,0.00558285741135478,0,0,-1000,-2,0,5,-1,1,-153,1500.0,50.0
14:21:09.612,GUIDED,-35.363262,149.1652374,42458,0.0013923473889008164,0.0015298813814297318,-0.10119561105966568,-0.003263146849349141,0.00025092129362747073,0.00558285741135478,0,0,-1000,-2,0,5,-1,1,-153,1500.0,50.0
14:21:09.814,GUIDED,-35.363262,149.1652374,42458,0.0013923473889008164,0.0015298813814297318,-0.10119561105966568,-0.003263146849349141,0.00025092129362747073,0.00558285741135478,0,0,-1000,-2,0,5,-1,1,-153,1500.0,50.0
14:21:10.017,GUIDED,-35.363262,149.1652374,43626,0.001855681766755879,0.0014963812427595258,-0.0965460017323494,-0.001074266154319048,0.0010572928003966808,0.0065955109894275665,0,0,-1000,0,1,6,-1,1,-153,1500.0,50.0
14:21:10.220,GUIDED,-35.363262,149.1652374,45187,0.001676865853369236,0.0011809862917289138,-0.09055764228105545,-0.0026699528098106384,0.0005423942347988486,0.0077995117753744125,0,0,-999,-1,1,7,-1,1,-153,1500.0,50.0
14:21:10.421,GUIDED,-35.363262,149.1652373,45577,0.0015779471723362803,0.0011476363288238645,-0.08919896930456161,0.0011467330623418093,0.0004058187478221953,0.004359447862952948,0,0,-1001,1,1,4,-1,1,-153,1500.0,50.0
14:21:10.623,GUIDED,-35.363262,149.1652373,45577,0.0015779471723362803,0.0011476363288238645,-0.08919896930456161,0.0011467330623418093,0.0004058187478221953,0.004359447862952948,0,0,-1001,1,1,4,-1,1,-153,1500.0,50.0
14:21:10.826,GUIDED,-35.363262,149.1652373,45577,0.0015779471723362803,0.0011476363288238645,-0.08919896930456161,0.0011467330623418093,0.0004058187478221953,0.004359447862952948,0,0,-1001,1,1,4,-1,1,-153,1500.0,50.0
14:21:11.031,GUIDED,-35.363262,149.1652373,45577,0.0015779471723362803,0.0011476363288238645,-0.08919896930456161,0.0011467330623418093,0.0004058187478221953,0.004359447862952948,0,0,-1001,1,1,4,-1,1,-153,1500.0,50.0
14:21:11.232,GUIDED,-35.363262,149.1652373,45577,0.0015779471723362803,0.0011476363288238645,-0.08919896930456161,0.0011467330623418093,0.0004058187478221953,0.004359447862952948,0,0,-1001,1,1,4,-1,1,-153,1500.0,50.0
14:21:11.434,GUIDED,-35.363262,149.1652373,45577,0.0015779471723362803,0.0011476363288238645,-0.08919896930456161,0.0011467330623418093,0.0004058187478221953,0.004359447862952948,0,0,-1001,1,1,4,-1,1,-153,1500.0,50.0
14:21:11.637,GUIDED,-35.363262,149.1652373,45577,0.0015779471723362803,0.0011476363288238645,-0.08919896930456161,0.0011467330623418093,0.0004058187478221953,0.004359447862952948,0,0,-1001,1,1,4,-1,1,-153,1500.0,50.0
14:21:11.838,GUIDED,-35.363262,149.1652373,45577,0.0015779471723362803,0.0011476363288238645,-0.08919896930456161,0.0011467330623418093,0.0004058187478221953,0.004359447862952948,0,0,-1001,1,1,4,-1,1,-153,1500.0,50.0
14:21:12.042,GUIDED,-35.363262,149.1652373,45577,0.0015779471723362803,0.0011476363288238645,-0.08919896930456161,0.0011467330623418093,0.0004058187478221953,0.004359447862952948,0,0,-1001,1,1,4,-1,1,-153,1500.0,50.0
14:21:12.243,GUIDED,-35.363262,149.1652373,48299,0.0014591788640245795,0.0010452130809426308,-0.07962441444396973,0.001338105765171349,0.0012341191759333014,0.0077637238427996635,0,0,-999,2,2,7,-1,1,-153,1500.0,50.0
14:21:12.445,GUIDED,-35.363262,149.1652373,48689,0.0013998568756505847,0.0010207892628386617,-0.07843739539384842,-0.002451738342642784,-0.0004082137602381408,0.004537648055702448,0,0,-1000,-1,0,4,-1,1,-153,1500.0,50.0
14:21:12.647,GUIDED,-35.363262,149.1652373,48689,0.0013998568756505847,0.0010207892628386617,-0.07843739539384842,-0.002451738342642784,-0.0004082137602381408,0.004537648055702448,0,0,-1000,-1,0,4,-1,1,-153,1500.0,50.0
14:21:12.850,GUIDED,-35.363262,149.1652373,48689,0.0013998568756505847,0.0010207892628386617,-0.07843739539384842,-0.002451738342642784,-0.0004082137602381408,0.004537648055702448,0,0,-1000,-1,0,4,-1,1,-153,1500.0,50.0
14:21:13.052,GUIDED,-35.363262,149.1652373,48689,0.0013998568756505847,0.0010207892628386617,-0.07843739539384842,-0.002451738342642784,-0.0004082137602381408,0.004537648055702448,0,0,-1000,-1,0,4,-1,1,-153,1500.0,50.0
14:21:13.255,GUIDED,-35.363262,149.1652373,48689,0.0013998568756505847,0.0010207892628386617,-0.07843739539384842,-0.002451738342642784,-0.0004082137602381408,0.004537648055702448,0,0,-1000,-1,0,4,-1,1,-153,1500.0,50.0
14:21:13.457,GUIDED,-35.363262,149.1652373,48689,0.0013998568756505847,0.0010207892628386617,-0.07843739539384842,-0.002451738342642784,-0.0004082137602381408,0.004537648055702448,0,0,-1000,-1,0,4,-1,1,-153,1500.0,50.0
14:21:13.659,GUIDED,-35.363262,149.1652373,48689,0.0013998568756505847,0.0010207892628386617,-0.07843739539384842,-0.002451738342642784,-0.0004082137602381408,0.004537648055702448,0,0,-1000,-1,0,4,-1,1,-153,1500.0,50.0
14:21:13.862,GUIDED,-35.363262,149.1652373,48689,0.0013998568756505847,0.0010207892628386617,-0.07843739539384842,-0.002451738342642784,-0.0004082137602381408,0.004537648055702448,0,0,-1000,-1,0,4,-1,1,-153,1500.0,50.0
14:21:14.065,GUIDED,-35.363262,149.1652373,51029,0.002116916934028268,0.001263158512301743,-0.0706273764371872,-0.0028466423973441124,-0.0005882561090402305,0.006003126967698336,0,0,-999,-1,0,6,-1,1,-153,1500.0,50.0
14:21:14.268,GUIDED,-35.363262,149.1652372,51423,0.002188602928072214,0.0011942199198529124,-0.06950943917036057,0.0023167592007666826,0.00017037964425981045,0.00632439972832799,0,0,-1000,3,1,6,-1,1,-153,1500.0,50.0
14:21:14.469,GUIDED,-35.363262,149.1652372,51812,0.0021945566404610872,0.0010671193012967706,-0.06840727478265762,-0.00043248728616163135,-0.0007449749391525984,0.0034441654570400715,0,0,-1000,0,0,3,-1,1,-153,1500.0,50.0
14:21:14.683,LAND,-35.363262,149.1652372,51812,0.0021945566404610872,0.0010671193012967706,-0.06840727478265762,-0.00043248728616163135,-0.0007449749391525984,0.0034441654570400715,0,0,-1000,0,0,3,-1,1,-153,1500.0,50.0
14:21:14.886,LAND,-35.363262,149.1652372,51812,0.0021945566404610872,0.0010671193012967706,-0.06840727478265762,-0.00043248728616163135,-0.0007449749391525984,0.0034441654570400715,0,0,-1000,0,0,3,-1,1,-153,1500.0,50.0
14:21:15.087,LAND,-35.363262,149.1652372,51812,0.0021945566404610872,0.0010671193012967706,-0.06840727478265762,-0.00043248728616163135,-0.0007449749391525984,0.0034441654570400715,0,0,-1000,0,0,3,-1,1,-153,1500.0,50.0
14:21:15.291,LAND,-35.363262,149.1652372,51812,0.0021945566404610872,0.0010671193012967706,-0.06840727478265762,-0.00043248728616163135,-0.0007449749391525984,0.0034441654570400715,0,0,-1000,0,0,3,-1,1,-153,1500.0,50.0
14:21:15.492,LAND,-35.363262,149.1652372,51812,0.0021945566404610872,0.0010671193012967706,-0.06840727478265762,-0.00043248728616163135,-0.0007449749391525984,0.0034441654570400715,0,0,-1000,0,0,3,-1,1,-153,1500.0,50.0
14:21:15.697,LAND,-35.363262,149.1652372,51812,0.0021945566404610872,0.0010671193012967706,-0.06840727478265762,-0.00043248728616163135,-0.0007449749391525984,0.0034441654570400715,0,0,-1000,0,0,3,-1,1,-153,1500.0,50.0
14:21:15.901,LAND,-35.363262,149.1652372,51812,0.0021945566404610872,0.0010671193012967706,-0.06840727478265762,-0.00043248728616163135,-0.0007449749391525984,0.0034441654570400715,0,0,-1000,0,0,3,-1,1,-153,1500.0,70.0
14:21:16.102,LAND,-35.363262,149.1652372,52975,0.0017358289333060384,0.0010578619549050927,-0.06518647819757462,-0.0011238700244575739,0.0004319230793043971,0.0034250488970428705,0,0,-1000,0,0,3,-1,1,-153,1500.0,70.0
14:21:16.305,LAND,-35.3632624,149.1652367,54428,-0.0641711875796318,0.07124096900224686,0.21773992478847504,0.01564829982817173,-0.15015102922916412,0.3928402066230774,3,4,-909,16,-148,393,-24,-24,-114,1500.0,70.0
14:21:16.506,LAND,-35.363263,149.1652358,54691,-0.0390620157122612,0.021983176469802856,0.2922496795654297,0.13346686959266663,-0.22080157697200775,0.2110433280467987,4,10,-910,134,-219,211,-30,-36,-91,1500.0,70.0
14:21:16.708,LAND,-35.363263,149.1652358,54691,-0.0390620157122612,0.021983176469802856,0.2922496795654297,0.13346686959266663,-0.22080157697200775,0.2110433280467987,4,10,-910,134,-219,211,-30,-36,-91,1500.0,70.0
14:21:16.911,LAND,-35.363263,149.1652358,54691,-0.0390620157122612,0.021983176469802856,0.2922496795654297,0.13346686959266663,-0.22080157697200775,0.2110433280467987,4,10,-910,134,-219,211,-30,-36,-91,1500.0,70.0
14:21:17.115,LAND,-35.363263,149.1652358,54691,-0.0390620157122612,0.021983176469802856,0.2922496795654297,0.13346686959266663,-0.22080157697200775,0.2110433280467987,4,10,-910,134,-219,211,-30,-36,-91,1500.0,70.0
14:21:17.320,LAND,-35.363263,149.1652358,54691,-0.0390620157122612,0.021983176469802856,0.2922496795654297,0.13346686959266663,-0.22080157697200775,0.2110433280467987,4,10,-910,134,-219,211,-30,-36,-91,1500.0,70.0
14:21:17.521,LAND,-35.363263,149.1652358,54691,-0.0390620157122612,0.021983176469802856,0.2922496795654297,0.13346686959266663,-0.22080157697200775,0.2110433280467987,4,10,-910,134,-219,211,-30,-36,-91,1500.0,70.0
14:21:17.725,LAND,-35.363263,149.1652358,54691,-0.0390620157122612,0.021983176469802856,0.2922496795654297,0.13346686959266663,-0.22080157697200775,0.2110433280467987,4,10,-910,134,-219,211,-30,-36,-91,1500.0,70.0
14:21:17.927,LAND,-35.363263,149.1652358,54691,-0.0390620157122612,0.021983176469802856,0.2922496795654297,0.13346686959266663,-0.22080157697200775,0.2110433280467987,4,10,-910,134,-219,211,-30,-36,-91,1500.0,70.0
14:21:18.128,LAND,-35.3632646,149.1652325,55223,0.0327327698469162,-0.055166393518447876,0.34212180972099304,-0.4021756947040558,0.020191960036754608,-0.02417202666401863,0,-23,-937,-403,21,-23,0,-11,-16,1500.0,70.0
14:21:18.330,LAND,-35.3632641,149.1652327,55156,0.026164807379245758,-0.025307875126600266,0.3128591775894165,-0.004098059143871069,0.04815470799803734,-0.034310173243284225,-3,26,-938,2,49,-34,16,21,28,1500.0,160.0
14:21:18.531,LAND,-35.3632636,149.1652334,55075,0.026416169479489326,-0.013427323661744595,0.303882360458374,0.5642435550689697,0.048776835203170776,-0.03885815292596817,-2,47,-915,571,49,-38,19,28,36,1500.0,160.0
14:21:18.734,LAND,-35.3632636,149.1652334,55075,0.026416169479489326,-0.013427323661744595,0.303882360458374,0.5642435550689697,0.048776835203170776,-0.03885815292596817,-2,47,-915,571,49,-38,19,28,36,1500.0,160.0
14:21:18.939,LAND,-35.3632636,149.1652334,55075,0.026416169479489326,-0.013427323661744595,0.303882360458374,0.5642435550689697,0.048776835203170776,-0.03885815292596817,-2,47,-915,571,49,-38,19,28,36,1500.0,160.0
14:21:19.140,LAND,-35.3632636,149.1652334,55075,0.026416169479489326,-0.013427323661744595,0.303882360458374,0.5642435550689697,0.048776835203170776,-0.03885815292596817,-2,47,-915,571,49,-38,19,28,36,1500.0,160.0
14:21:19.343,LAND,-35.3632636,149.1652334,55075,0.026416169479489326,-0.013427323661744595,0.303882360458374,0.5642435550689697,0.048776835203170776,-0.03885815292596817,-2,47,-915,571,49,-38,19,28,36,1500.0,160.0
14:21:19.545,LAND,-35.3632636,149.1652334,55075,0.026416169479489326,-0.013427323661744595,0.303882360458374,0.5642435550689697,0.048776835203170776,-0.03885815292596817,-2,47,-915,571,49,-38,19,28,36,1500.0,160.0
14:21:19.749,LAND,-35.3632636,149.1652334,55075,0.026416169479489326,-0.013427323661744595,0.303882360458374,0.5642435550689697,0.048776835203170776,-0.03885815292596817,-2,47,-915,571,49,-38,19,28,36,1500.0,160.0
14:21:19.951,LAND,-35.3632636,149.1652334,55075,0.026416169479489326,-0.013427323661744595,0.303882360458374,0.5642435550689697,0.048776835203170776,-0.03885815292596817,-2,47,-915,571,49,-38,19,28,36,1500.0,160.0
14:21:20.154,LAND,-35.3632636,149.1652334,55075,0.026416169479489326,-0.013427323661744595,0.303882360458374,0.5642435550689697,0.048776835203170776,-0.03885815292596817,-2,47,-915,571,49,-38,19,28,36,1500.0,160.0
14:21:20.355,LAND,-35.3632614,149.165238,54067,0.010311073623597622,0.015661390498280525,0.2523929476737976,1.4367551803588867,-0.032076671719551086,-0.05136914178729057,1,44,-979,1437,-31,-50,9,22,91,1500.0,160.0
14:21:20.556,LAND,-35.3632612,149.165239,53434,-0.007415820378810167,0.011903524398803711,0.23873844742774963,1.3411459922790527,-0.015120265074074268,0.001446989830583334,0,99,-969,1350,-13,1,3,16,133,1500.0,160.0
14:21:20.759,LAND,-35.3632612,149.165239,53434,-0.007415820378810167,0.011903524398803711,0.23873844742774963,1.3411459922790527,-0.015120265074074268,0.001446989830583334,0,99,-969,1350,-13,1,3,16,133,1500.0,160.0
14:21:20.962,LAND,-35.3632612,149.165239,53434,-0.007415820378810167,0.011903524398803711,0.23873844742774963,1.3411459922790527,-0.015120265074074268,0.001446989830583334,0,99,-969,1350,-13,1,3,16,133,1500.0,160.0
14:21:21.167,LAND,-35.3632612,149.165239,53434,-0.007415820378810167,0.011903524398803711,0.23873844742774963,1.3411459922790527,-0.015120265074074268,0.001446989830583334,0,99,-969,1350,-13,1,3,16,133,1500.0,160.0
14:21:21.373,LAND,-35.3632612,149.165239,53434,-0.007415820378810167,0.011903524398803711,0.23873844742774963,1.3411459922790527,-0.015120265074074268,0.001446989830583334,0,99,-969,1350,-13,1,3,16,133,1500.0,160.0
14:21:21.576,LAND,-35.3632612,149.165239,53434,-0.007415820378810167,0.011903524398803711,0.23873844742774963,1.3411459922790527,-0.015120265074074268,0.001446989830583334,0,99,-969,1350,-13,1,3,16,133,1500.0,160.0
14:21:21.778,LAND,-35.3632612,149.165239,53434,-0.007415820378810167,0.011903524398803711,0.23873844742774963,1.3411459922790527,-0.015120265074074268,0.001446989830583334,0,99,-969,1350,-13,1,3,16,133,1500.0,160.0
14:21:21.980,LAND,-35.3632612,149.165239,53434,-0.007415820378810167,0.011903524398803711,0.23873844742774963,1.3411459922790527,-0.015120265074074268,0.001446989830583334,0,99,-969,1350,-13,1,3,16,133,1500.0,160.0
14:21:22.182,LAND,-35.3632612,149.165239,53434,-0.007415820378810167,0.011903524398803711,0.23873844742774963,1.3411459922790527,-0.015120265074074268,0.001446989830583334,0,99,-969,1350,-13,1,3,16,133,1500.0,160.0
14:21:22.384,LAND,-35.3632615,149.1652395,51628,0.0040469602681696415,-0.0017604732420295477,0.1976950466632843,0.8019314408302307,-0.0068313661031425,-0.024956725537776947,0,45,-1040,805,-6,-24,-1,0,26,1500.0,70.0
14:21:22.585,LAND,-35.3632616,149.1652395,51558,0.0029793246649205685,-0.00410139374434948,0.19227652251720428,0.8283778429031372,-0.008475279435515404,-0.012911739759147167,1,30,-999,828,-7,-12,0,-1,26,1500.0,70.0
14:21:22.788,LAND,-35.3632616,149.1652395,51558,0.0029793246649205685,-0.00410139374434948,0.19227652251720428,0.8283778429031372,-0.008475279435515404,-0.012911739759147167,1,30,-999,828,-7,-12,0,-1,26,1500.0,70.0
14:21:22.991,LAND,-35.3632616,149.1652395,51558,0.0029793246649205685,-0.00410139374434948,0.19227652251720428,0.8283778429031372,-0.008475279435515404,-0.012911739759147167,1,30,-999,828,-7,-12,0,-1,26,1500.0,70.0
14:21:23.194,LAND,-35.3632616,149.1652395,51558,0.0029793246649205685,-0.00410139374434948,0.19227652251720428,0.8283778429031372,-0.008475279435515404,-0.012911739759147167,1,30,-999,828,-7,-12,0,-1,26,1500.0,70.0
14:21:23.396,LAND,-35.3632616,149.1652395,51558,0.0029793246649205685,-0.00410139374434948,0.19227652251720428,0.8283778429031372,-0.008475279435515404,-0.012911739759147167,1,30,-999,828,-7,-12,0,-1,26,1500.0,70.0
14:21:23.599,LAND,-35.3632616,149.1652395,51558,0.0029793246649205685,-0.00410139374434948,0.19227652251720428,0.8283778429031372,-0.008475279435515404,-0.012911739759147167,1,30,-999,828,-7,-12,0,-1,26,1500.0,70.0
14:21:23.804,LAND,-35.3632616,149.1652395,51558,0.0029793246649205685,-0.00410139374434948,0.19227652251720428,0.8283778429031372,-0.008475279435515404,-0.012911739759147167,1,30,-999,828,-7,-12,0,-1,26,1500.0,70.0
14:21:24.006,LAND,-35.3632616,149.1652395,51558,0.0029793246649205685,-0.00410139374434948,0.19227652251720428,0.8283778429031372,-0.008475279435515404,-0.012911739759147167,1,30,-999,828,-7,-12,0,-1,26,1500.0,70.0
14:21:24.208,LAND,-35.3632621,149.1652388,51000,-0.012972922995686531,-0.005526399239897728,0.16470561921596527,-0.9698166251182556,0.0003332605119794607,-0.01744546927511692,0,-43,-1025,-962,7,-10,3,-4,44,1500.0,70.0
14:21:24.409,LAND,-35.3632622,149.1652384,50765,-0.008171077817678452,-0.005628391169011593,0.15740008652210236,-0.26381272077560425,0.004180425312370062,-0.010750466957688332,-1,-13,-977,-765,-3,-17,3,-3,47,1500.0,140.0
14:21:24.612,LAND,-35.3632622,149.1652384,50765,-0.008171077817678452,-0.005628391169011593,0.15740008652210236,-0.26381272077560425,0.004180425312370062,-0.010750466957688332,0,17,-974,-258,4,-10,3,-3,47,1500.0,140.0
14:21:24.814,LAND,-35.3632622,149.1652384,50765,-0.008171077817678452,-0.005628391169011593,0.15740008652210236,-0.26381272077560425,0.004180425312370062,-0.010750466957688332,0,17,-974,-258,4,-10,3,-3,47,1500.0,140.0
14:21:25.015,LAND,-35.3632622,149.1652384,50765,-0.008171077817678452,-0.005628391169011593,0.15740008652210236,-0.26381272077560425,0.004180425312370062,-0.010750466957688332,0,17,-974,-258,4,-10,3,-3,47,1500.0,140.0
14:21:25.218,LAND,-35.3632622,149.1652384,50765,-0.008171077817678452,-0.005628391169011593,0.15740008652210236,-0.26381272077560425,0.004180425312370062,-0.010750466957688332,0,17,-974,-258,4,-10,3,-3,47,1500.0,140.0
14:21:25.420,LAND,-35.3632622,149.1652384,50765,-0.008171077817678452,-0.005628391169011593,0.15740008652210236,-0.26381272077560425,0.004180425312370062,-0.010750466957688332,0,17,-974,-258,4,-10,3,-3,47,1500.0,140.0
14:21:25.621,LAND,-35.3632622,149.1652384,50765,-0.008171077817678452,-0.005628391169011593,0.15740008652210236,-0.26381272077560425,0.004180425312370062,-0.010750466957688332,0,17,-974,-258,4,-10,3,-3,47,1500.0,140.0
14:21:25.823,LAND,-35.3632622,149.1652384,50765,-0.008171077817678452,-0.005628391169011593,0.15740008652210236,-0.26381272077560425,0.004180425312370062,-0.010750466957688332,0,17,-974,-258,4,-10,3,-3,47,1500.0,140.0
14:21:26.026,LAND,-35.3632623,149.1652379,50280,-0.019925342872738838,-0.006503842305392027,0.14804281294345856,-1.193819522857666,-0.005826421082019806,-0.021949414163827896,0,17,-974,-258,4,-10,4,-3,108,1500.0,140.0
14:21:26.229,LAND,-35.3632624,149.1652373,49174,-0.011174176819622517,-0.004442288540303707,0.1356440931558609,-1.3067935705184937,0.0019719090778380632,-0.015143053606152534,-2,-54,-1054,-1307,2,-14,4,0,89,1500.0,140.0
14:21:26.430,LAND,-35.3632624,149.1652372,48924,-0.009624982252717018,-0.004031301476061344,0.13404834270477295,-1.383130669593811,0.007772492244839668,-0.004412668291479349,0,-64,-1026,-1384,8,-3,4,1,96,1500.0,140.0
14:21:26.631,LAND,-35.3632624,149.1652372,48924,-0.009624982252717018,-0.004031301476061344,0.13404834270477295,-1.383130669593811,0.007772492244839668,-0.004412668291479349,0,-64,-1026,-1384,8,-3,4,1,96,1500.0,140.0
14:21:26.832,LAND,-35.3632624,149.1652372,48924,-0.009624982252717018,-0.004031301476061344,0.13404834270477295,-1.383130669593811,0.007772492244839668,-0.004412668291479349,0,-64,-1026,-1384,8,-3,4,1,96,1500.0,140.0
14:21:27.034,LAND,-35.3632624,149.1652372,48924,-0.009624982252717018,-0.004031301476061344,0.13404834270477295,-1.383130669593811,0.007772492244839668,-0.004412668291479349,0,-64,-1026,-1384,8,-3,4,1,96,1500.0,140.0
14:21:27.236,LAND,-35.3632624,149.1652372,48924,-0.009624982252717018,-0.004031301476061344,0.13404834270477295,-1.383130669593811,0.007772492244839668,-0.004412668291479349,0,-64,-1026,-1384,8,-3,4,1,96,1500.0,140.0
14:21:27.437,LAND,-35.3632624,149.1652372,48924,-0.009624982252717018,-0.004031301476061344,0.13404834270477295,-1.383130669593811,0.007772492244839668,-0.004412668291479349,0,-64,-1026,-1384,8,-3,4,1,96,1500.0,140.0
14:21:27.640,LAND,-35.3632624,149.1652372,48924,-0.009624982252717018,-0.004031301476061344,0.13404834270477295,-1.383130669593811,0.007772492244839668,-0.004412668291479349,0,-64,-1026,-1384,8,-3,4,1,96,1500.0,140.0
14:21:27.844,LAND,-35.3632624,149.1652372,48924,-0.009624982252717018,-0.004031301476061344,0.13404834270477295,-1.383130669593811,0.007772492244839668,-0.004412668291479349,0,-64,-1026,-1384,8,-3,4,1,96,1500.0,140.0
14:21:28.047,LAND,-35.3632624,149.1652371,47970,-0.01544015109539032,-0.0022788383066654205,0.1225828006863594,-1.175445795059204,0.008562595583498478,0.000845874659717083,0,-40,-967,-1324,1,-11,4,4,87,1500.0,140.0
14:21:28.249,LAND,-35.3632624,149.165237,47259,-0.019299978390336037,-0.0018600055482238531,0.11576998978853226,-1.3909235000610352,0.0024475755635648966,-0.008017286658287048,0,-43,-973,-1388,3,-7,4,4,93,1500.0,140.0
