time_stamp,RTL_ALT,roll,pitch,yaw,rollspeed,pitchspeed,yawspeed,lat,lon,relative_alt,vx,vy,vz,xacc,yacc,zacc,xgyro,ygyro,zgyro,MODE
02:53:47,137751.0,-0.0007942901575006545,0.0009804349392652512,0.022519752383232117,0.00022433738922700286,0.00020314811263233423,0.0014811117434874177,-35.3632622,149.1652376,0.0,-1.0,3.0,1.0,0.0,1.5,-1000.0,0.5,0.5,0.0,AUTO
02:53:49,274002.0,-0.0010370429372414947,0.0011535615776665509,0.022055362351238728,0.00017129804473370314,0.0002680486941244453,0.001521811238490045,-35.3632621,149.1652375,0.0,0.0,0.0,0.0,0.0,1.0,-1000.0,0.5,1.0,0.5,AUTO
02:53:50,228581.0,-0.0006413637602236122,0.0014785888779442757,0.021768574602901936,0.00028537612524814904,0.00026370825071353465,0.001487740024458617,-35.3632621,149.165237475,0.0,0.0,0.0,1.0,0.0,1.5,-1000.0,0.25,0.25,0.0,AUTO
02:53:51,228581.0,-0.00046644642134197056,0.001699205080512911,0.02157708629965782,0.00033003807766363025,0.00032349213142879307,0.0014453266630880535,-35.3632621,149.1652374,0.0,0.0,0.0,1.0,0.0,1.0,-1000.0,0.0,0.5,1.0,AUTO
02:53:53,226818.0,0.027611901983618736,-0.001778853009454906,0.020848152227699757,0.04569704085588455,-0.007768705952912569,0.0023278676671907306,-35.363262,149.1652377,1589.0,1.0,8.0,-145.5,0.0,-0.5,-1012.0,45.5,-6.5,1.5,AUTO
02:53:55,225055.0,-0.08045242726802826,0.008471841691061854,-0.07702585682272911,-0.038935049320571125,-0.016006209421902895,-0.036723485216498375,-35.3632609,149.1652451,4635.0,-0.5,14.0,-148.5,3.0,-4.5,-1009.0,-38.0,-14.5,-36.5,AUTO
02:53:56,119789.0,-0.02833056857343763,0.0030863923457218334,-0.10059762746095657,0.06436720490455627,0.006730740191414952,-0.005172379547730088,-35.363261425,149.16524124999998,6555.25,-10.0,-54.75,-149.75,-4.75,10.75,-1001.5,64.25,7.0,-5.25,AUTO
02:53:57,119789.0,0.021742351818829775,0.00922930845990777,-0.10167321190237999,0.06808590888977051,0.007074106950312853,0.0019157296046614647,-35.3632623,149.16523645,7717.5,-17.0,-51.0,-152.5,-4.0,13.0,-1004.0,68.5,7.5,1.0,AUTO
02:53:59,209400.0,-0.009960156166926026,-0.02178111905232072,-0.05385035462677479,-0.04900973476469517,0.0749301128089428,-0.07570287957787514,-35.36326355,149.16523475,10822.0,28.0,18.5,-149.5,-2.0,-7.5,-1003.5,-48.0,75.0,-76.0,AUTO
02:54:01,299011.0,0.011029392946511507,0.022091027349233627,-0.15405725687742233,0.01631406880915165,-0.007645155536010861,-0.005486197886057198,-35.3632601,149.1652344,13939.5,-2.0,-4.5,-153.0,-1.5,0.5,-999.5,16.5,-6.5,-5.0,AUTO
02:54:02,25700.0,0.009050131193362176,0.0073482171865180135,-0.15477688610553741,-0.009524444583803415,-0.010882737813517451,-0.004185102254268713,-35.363260825,149.165234525,15883.25,-12.0,8.75,-152.0,1.75,0.0,-999.5,-8.5,-9.75,-4.0,AUTO
02:54:03,25700.0,0.002463656826876104,0.000368236331269145,-0.16077988594770432,-0.006635334575548768,-0.0051810964941978455,-0.014491936191916466,-35.3632615,149.16523519999998,17050.5,-10.0,10.5,-153.0,3.0,0.0,-1000.0,-5.5,-4.5,-14.0,AUTO
02:54:05,147861.5,0.0019416098948568106,0.000965867773629725,-0.20905641466379166,0.004252745537087321,0.0030217153253033757,-0.025113319046795368,-35.3632621,149.1652362,20178.0,-1.0,2.5,-153.0,0.0,0.0,-1000.0,4.5,3.5,-25.0,AUTO
02:54:07,270023.0,0.0030021313577890396,0.003366007120348513,-0.25385914742946625,0.00015368085587397218,0.0010004584910348058,-0.019161771051585674,-35.3632621,149.16523645,23287.5,-1.0,4.0,-153.0,0.0,0.0,-1000.5,1.0,1.0,-18.5,AUTO
02:54:08,284164.0,-0.003376364184077829,0.005237362813204527,-0.26940932124853134,-0.013338986420421861,0.005016659197281115,0.009301631012931466,-35.3632621,149.1652367,25231.5,-2.25,1.75,-152.5,0.0,-0.25,-996.75,-13.0,5.75,9.25,AUTO
02:54:09,284164.0,0.0058764205314219,0.004436410614289343,-0.2518261596560478,0.019308485556393862,-0.0038295580307021737,0.03054585214704275,-35.3632622,149.1652366,26395.5,-5.0,0.0,-153.0,0.0,0.0,-1000.0,19.5,-2.5,30.0,AUTO
02:54:11,234039.0,0.0013054537703283131,0.0014928490854799747,-0.2034583017230034,-0.004843586357310414,0.000622797233518213,0.020284426398575306,-35.3632624,149.16523745,29509.0,0.0,7.5,-153.0,0.5,-1.0,-1000.0,-3.5,1.5,19.5,AUTO
02:54:13,183914.0,0.00033085814175137784,0.0012127324589528143,-0.1699044480919838,0.0013180234236642718,0.00047234806697815657,0.014374066609889269,-35.36326235,149.165238,32612.0,0.0,1.0,-153.0,0.0,0.0,-1000.0,2.0,1.0,14.0,AUTO
02:54:14,299374.0,-0.037222437211312354,0.04118434892734513,-0.002535587176680565,-0.059224843978881836,0.00828145444393158,0.3441240582615137,-35.363262475,149.16523767500001,34501.5,-12.75,-11.5,-134.25,0.75,2.25,-952.0,-57.75,9.0,343.5,AUTO
02:54:15,299374.0,-0.01038722530938685,-0.01667563698720187,0.20794762670993805,0.11152754351496696,-0.1432441622018814,0.050952752120792866,-35.363263950000004,149.16523554999998,35395.0,-30.0,-36.5,-96.0,3.5,10.0,-960.5,112.0,-141.5,50.5,AUTO
02:54:17,279165.0,0.018252176232635975,-0.004762694996315986,0.16193995624780655,-0.26988334208726883,0.03519569803029299,-0.01610779482871294,-35.363263599999996,149.16523454999998,36648.5,22.5,27.0,-38.0,-3.0,-20.5,-977.5,-268.5,36.0,-15.5,AUTO
02:54:19,258956.0,-0.022549444809556007,0.034551236778497696,0.1316598653793335,0.3907940499484539,-0.021420213393867016,-0.0041283146711066365,-35.3632614,149.1652383,36881.0,-13.5,-8.0,4.0,1.0,8.0,-1009.0,390.5,-19.5,-4.0,AUTO
02:54:20,29126.0,-0.038727393839508295,0.030407198704779148,0.05042439140379429,0.12818699330091476,0.013135682209394872,-0.3337581534869969,-35.363264775000005,149.16523362499998,36856.25,-45.25,-46.25,-2.25,0.75,19.75,-996.0,129.25,13.5,-333.25,AUTO
02:54:21,29126.0,-0.08107792213559151,0.011224525980651379,-0.4270477741956711,-0.293551005423069,0.014650415163487196,-0.8593659102916718,-35.3632686,149.165228,36852.0,-69.5,-73.0,-1.5,-9.0,27.0,-998.5,-292.0,16.0,-858.5,AUTO
02:54:23,47028.5,-0.02674338547512889,-0.1662111058831215,-1.9208982586860657,-0.30598222091794014,-0.008035919396206737,-0.7190472781658173,-35.3632911,149.16519614999999,36770.5,-188.0,-211.0,2.5,-63.5,-17.5,-1004.5,-304.0,-6.5,-718.0,AUTO
02:54:25,64931.0,0.05038108862936497,-0.22093117237091064,-2.1901806592941284,0.09431889199186116,-0.011453613638877869,-0.01056584995239973,-35.363336849999996,149.1651307,36562.5,-324.5,-388.5,12.0,-110.0,-44.0,-1004.5,96.0,-10.0,-9.5,AUTO
02:54:26,229723.0,0.06528259254992008,-0.18863936141133308,-2.199330687522888,0.01959552930202335,0.013308298191986978,-0.004478631759411655,-35.363377575,149.165071025,36437.5,-388.0,-472.0,7.75,-118.0,-57.25,-984.75,20.75,13.75,-3.75,AUTO
02:54:27,229723.0,0.06763548403978348,-0.1754273772239685,-2.2021381855010986,-0.0009236736223101616,0.0217684805393219,-0.007075063331285492,-35.36340455,149.16503105,36369.0,-412.5,-502.5,7.5,-124.5,-71.0,-991.5,0.5,22.5,-6.5,AUTO
02:54:29,120710.5,0.07950747013092041,-0.13274193555116653,-2.2109590768814087,0.008076290367171168,-0.02449126960709691,-0.0016305216122418642,-35.36348135,149.1649174,36136.0,-430.0,-522.0,14.0,-140.5,-80.0,-981.5,9.5,-23.0,-1.0,AUTO
02:54:31,11698.0,0.07348962128162384,-0.1372617483139038,-2.2185527086257935,0.007228907197713852,-0.005208002869039774,-0.0011580863501876593,-35.363559249999994,149.1648015,35822.5,-438.5,-528.5,11.0,-136.0,-73.5,-991.5,8.5,-4.0,-1.0,AUTO
02:54:32,74020.0,0.07385492324829102,-0.13610036298632622,-2.2227375507354736,-0.04684797115623951,0.0026965473662130535,0.0013430196995614097,-35.36360815,149.16472915,35654.25,-441.5,-527.75,14.0,-130.0,-74.25,-983.0,-45.25,3.25,1.25,AUTO
02:54:33,74020.0,0.07867350801825523,-0.12651639059185982,-2.2256524562835693,0.01994244009256363,0.04765863623470068,-0.009035124909132719,-35.3636377,149.16468555,35548.5,-440.0,-524.0,13.5,-138.5,-73.5,-994.5,21.5,48.0,-8.0,AUTO
02:54:35,46367.0,0.086628258228302,-0.023156599141657352,-2.2279146909713745,0.6472061574459076,0.0403275890275836,-0.02815965050831437,-35.36371145,149.16457735,35300.5,-362.5,-437.5,15.5,-113.0,-42.0,-993.0,648.5,41.0,-27.0,AUTO
02:54:37,18714.0,0.05438057519495487,0.0477984044700861,-2.2284306287765503,-0.7766617238521576,-0.0003448494244366884,0.03261248720809817,-35.3637648,149.1644987,35065.5,-213.5,-267.5,10.0,-72.5,-85.0,-993.0,-775.0,0.5,32.5,AUTO
02:54:38,136921.0,0.04231805959716439,0.07063164282590151,-2.231428802013397,0.1799973538145423,0.023073534248396754,-0.006678548641502857,-35.363784175,149.16446952500002,34972.5,-124.0,-164.5,4.5,-39.25,-29.0,-996.75,181.25,23.75,-6.5,AUTO
02:54:39,136921.0,0.019873141311109066,0.07447415962815285,-2.233888626098633,-0.09577786922454834,-0.03447469137609005,-0.0153722302056849,-35.3637914,149.16445855,34944.5,-72.0,-102.5,1.5,-24.5,-3.5,-1009.0,-93.0,-33.0,-14.5,AUTO
02:54:41,183279.0,0.024779601022601128,0.025386285968124866,-2.239060401916504,0.12889867275953293,-0.023181933909654617,0.005578147596679628,-35.3637984,149.16444975000002,34915.0,2.0,-11.0,0.0,-3.5,-10.0,-1007.5,130.0,-22.0,5.5,AUTO
02:54:43,229637.0,0.028554345481097698,-0.0030659305630251765,-2.2474381923675537,0.21702728420495987,0.012525730300694704,0.019001291133463383,-35.36379975,149.16445184999998,34921.0,20.5,-14.5,-2.0,-1.0,20.5,-1011.5,220.5,13.5,19.5,RTL
02:54:44,93307.0,0.019588281866163015,0.0019247444870416075,-2.2478163838386536,-0.02536790817975998,0.0007739998982287943,0.014363960828632116,-35.363800024999996,149.16445205,35163.25,24.25,-17.25,-40.5,0.25,-0.75,-1043.25,-22.5,1.75,15.25,RTL
02:54:45,93307.0,0.014984088949859142,0.0015803640708327293,-2.2478580474853516,0.07990069687366486,0.002178870956413448,0.010843707714229822,-35.363799799999995,149.16445184999998,35582.0,24.0,-16.0,-70.5,0.0,2.5,-1031.0,83.0,2.5,12.0,RTL
02:54:47,167576.0,0.00608010683208704,0.0005527365538000595,-2.2490060329437256,0.022601828910410404,-0.005551738198846579,-0.0008407499990426004,-35.36379865,149.1644508,37778.0,14.5,-8.0,-143.5,1.0,-1.5,-1022.0,26.0,-4.0,0.5,RTL
02:54:49,241845.0,-0.030530758202075958,0.02406578790396452,-2.3118765354156494,-0.16005386412143707,-0.016363503877073526,-0.06015302240848541,-35.36379495,149.1644454,40816.0,35.5,-32.5,-146.0,5.5,-14.5,-1004.5,-155.5,-15.0,-58.0,RTL
02:54:50,75243.0,-0.06611778680235147,-0.0011644878395600244,-2.344165027141571,0.04736122814938426,-0.0012609430123120546,-0.014266014099121094,-35.36379410000001,149.16444470000002,42731.0,-24.25,31.25,-149.25,-2.0,4.0,-1000.5,50.5,-0.25,-12.0,RTL
02:54:51,75243.0,-0.022964267060160637,0.0006279763620113954,-2.3482078313827515,0.061673007905483246,0.008454462047666311,-0.0026003170059993863,-35.36379615,149.16444735,43886.5,-41.0,49.0,-149.5,-5.0,9.5,-1002.5,64.5,9.5,-0.5,RTL
02:54:53,85305.5,-0.006635182537138462,-0.005658064736053348,-2.3231438398361206,0.0030136629939079285,0.012356496066786349,0.02756791206775233,-35.3638007,149.16445405,47001.0,-20.0,28.0,-150.0,-1.5,5.0,-997.0,6.5,13.5,29.0,RTL
02:54:55,95368.0,0.0227362597361207,-0.01065902505069971,-2.2321490049362183,-0.038685139268636703,0.012350654695183039,-0.0063377643236890435,-35.36380045,149.16445495,49981.0,16.0,-15.0,-141.5,1.5,-6.5,-1002.5,-35.0,13.0,-4.5,RTL
02:54:56,157518.0,-0.014951748540624976,0.005257482320303097,-2.2349172830581665,-0.01764237496536225,0.009475477621890604,-0.0029499914671760052,-35.363797899999994,149.16445084999998,51825.0,12.25,-18.5,-145.5,0.5,-7.25,-1003.0,-14.0,10.5,-1.0,RTL
02:54:57,157518.0,-0.014574496075510979,0.006863689748570323,-2.235750913619995,0.03147702477872372,-0.006395765580236912,-0.0008484343416057527,-35.36379685,149.16444895,52953.0,5.0,-7.5,-149.5,0.0,-4.5,-1013.0,34.5,-4.5,0.5,RTL
02:54:59,162236.5,-0.02373303985223174,0.024478106759488583,-2.2810068130493164,-0.15642091631889343,-0.0041728876531124115,-0.05542964115738869,-35.36379345,149.16444374999998,56058.5,28.0,-22.0,-149.0,3.5,-10.0,-1000.5,-153.0,-3.0,-53.0,RTL
02:55:01,166955.0,-0.03704057075083256,0.0005976442480459809,-2.3060802221298218,0.06887292116880417,0.011942923069000244,0.0003886910853907466,-35.36379545,149.16444710000002,59135.5,-53.0,60.0,-150.5,-6.5,14.5,-1002.5,71.5,13.0,1.5,RTL
02:55:02,120469.0,0.028906650841236115,-0.012087613809853792,-2.2733134627342224,0.030471816658973694,-0.03709582006558776,0.05817750282585621,-35.363800125,149.16445422500001,61081.0,-28.0,46.0,-153.75,-3.0,12.25,-1002.0,32.5,-35.0,59.25,RTL
02:55:03,120469.0,0.0513535812497139,-0.03934355452656746,-2.228483200073242,0.02956712804734707,-0.004873417317867279,0.036602888721972704,-35.3638014,149.1644565,62265.0,-10.0,8.5,-154.0,-1.5,3.5,-1000.0,32.0,-3.5,37.5,RTL
02:55:05,140992.0,-0.0189775163307786,0.011585865635424852,-2.3117035627365112,-0.02415193896740675,0.00395997567102313,-0.04833056405186653,-35.3637993,149.16444995,65355.0,15.0,-27.0,-152.5,0.5,-8.5,-1002.5,-20.5,5.5,-46.0,RTL
02:55:07,161515.0,-0.01343593094497919,0.015961776953190565,-2.298877716064453,0.028397947549819946,-0.016645072028040886,0.0842907465994358,-35.3637981,149.1644485,68458.0,-2.0,24.0,-151.5,0.5,3.0,-1001.0,30.5,-14.5,85.5,RTL
02:55:08,23611.0,0.007173862570198253,-0.010602963244309649,-2.219995856285095,0.012209197971969843,-0.01977668981999159,0.020990626653656363,-35.363797950000006,149.16445145,70395.5,3.0,19.75,-151.5,2.25,3.75,-999.0,14.25,-17.25,22.5,RTL
02:55:09,23611.0,0.011831387877464294,-0.01757830660790205,-2.21953022480011,-0.005260540172457695,0.008578983834013343,-0.007561327423900366,-35.36379775,149.16445225,71554.5,4.0,2.5,-150.5,0.5,0.0,-998.5,-2.5,9.5,-5.5,RTL
02:55:11,134431.0,-0.005341124953702092,0.003504852415062487,-2.226044178009033,-0.003435206599533558,0.004108138498850167,-0.002599664847366512,-35.3637972,149.16445,74772.0,0.0,-6.5,-150.0,0.0,-2.0,-1000.0,-0.5,5.0,-0.5,RTL
02:55:13,245251.0,-0.003620368195697665,0.0010965215333271772,-2.231029748916626,0.0006681859958916903,-0.0027227832470089197,-0.001510477450210601,-35.3637972,149.1644492,77835.0,-1.0,3.5,-149.0,0.0,0.0,-1000.0,2.5,-0.5,0.0,RTL
02:55:14,182544.0,-0.001941097405506298,0.00010383697735960595,-2.2331480979919434,0.0014123094733804464,-0.001041284529492259,-0.0017780969792511314,-35.363797375000004,149.16444934999998,79729.75,-1.0,4.0,-149.0,0.0,0.0,-1000.0,3.25,0.75,-0.25,RTL
02:55:15,182544.0,-0.00159810931654647,-0.0006456976989284158,-2.234501361846924,-0.0010944312089122832,9.654834866523743e-05,-0.0022976240143179893,-35.36379745,149.16444955,80867.5,-1.0,4.0,-149.0,0.0,0.0,-1002.0,1.0,1.5,-1.0,RTL
02:55:17,133372.5,-0.00021337571524782106,-0.00039935731911100447,-2.238152503967285,-0.0008335938910022378,0.0012155286385677755,-0.002543998009059578,-35.3637977,149.1644499,83919.0,0.0,3.0,-148.0,0.0,0.0,-999.5,1.5,2.5,-1.0,RTL
02:55:19,84201.0,0.04922132380306721,-0.008152776164934039,-2.2420095205307007,0.015475173946470022,0.011096260510385036,-0.02131618233397603,-35.3637971,149.1644491,86986.5,20.5,-20.5,-152.5,1.0,-4.5,-997.0,17.5,13.0,-19.5,RTL
02:55:20,139210.0,-0.061543782241642475,0.0037990505225025117,-2.301150143146515,-0.08110467810183764,-0.013712916668737307,-0.03372490964829922,-35.363793924999996,149.1644452,88900.75,18.25,-14.75,-150.25,3.5,-6.5,-1006.75,-78.75,-11.75,-31.75,RTL
02:55:21,139210.0,-0.0832802765071392,-0.0022606939310207963,-2.323188066482544,-0.01663706125691533,0.003420781809836626,-0.022362811490893364,-35.363793900000005,149.16444510000002,90057.5,-24.0,22.5,-150.0,-2.5,2.5,-996.5,-14.0,5.0,-20.5,RTL
02:55:23,72669.5,0.043947141617536545,0.019264329224824905,-2.335540533065796,0.0995042696595192,-0.015553496312350035,-0.018567836843430996,-35.36380235,149.16445720000002,93142.0,-25.5,64.0,-154.5,-3.5,18.0,-1004.0,101.5,-14.0,-17.0,RTL
02:55:25,6129.0,0.064258748665452,-0.04392550326883793,-2.3733749389648438,-0.2589019164443016,0.11736669018864632,-0.17076094448566437,-35.3637992,149.1644534,96194.5,43.5,-122.0,-137.0,1.5,-31.0,-993.0,-256.0,118.5,-169.0,RTL
02:55:27,113688.0,-0.06676299311220646,0.06486195139586926,-2.6408668756484985,0.11962251737713814,0.08373425900936127,0.045225733891129494,-35.363799799999995,149.1644426,99230.5,-27.0,62.0,-148.5,-8.0,10.5,-998.5,121.5,85.5,46.5,RTL
02:55:29,113688.0,0.041251007467508316,-0.12278569489717484,-2.489941954612732,0.026663403026759624,-0.17268914729356766,0.11465922743082047,-35.36379445,149.16446165,102248.0,50.5,43.5,-154.5,17.5,12.0,-1023.5,28.5,-170.0,116.0,RTL
02:55:30,17022.0,0.05650875344872475,-0.1275467467494309,-2.4201921820640564,-0.03424454526975751,0.21483430662192404,-0.037415701895952225,-35.36379565,149.16445577500002,104125.5,-59.75,-123.75,-133.5,-18.25,-22.5,-992.5,-31.75,216.25,-35.75,RTL
02:55:31,17022.0,-0.0052484553307294846,0.11616212502121925,-2.510061264038086,-0.09300437197089195,0.2664804086089134,-0.21026435494422913,-35.3638004,149.1644443,105154.0,-57.0,-129.0,-147.0,-20.5,-30.5,-1063.5,-90.0,268.0,-208.0,RTL
02:55:33,267484.0,-0.047411369159817696,0.045891208574175835,-2.508373975753784,0.050228849053382874,-0.08891547471284866,0.07633768022060394,-35.3637968,149.16444389999998,108236.0,67.0,94.0,-145.0,16.0,19.0,-1005.5,52.0,-86.0,77.5,RTL
02:55:35,267484.0,0.005700603884179145,-0.12090698629617691,-2.269859194755554,0.06385377794504166,0.010430375463329256,0.049800798296928406,-35.36379385,149.1644614,111325.0,-56.5,12.0,-152.5,-7.5,10.5,-998.0,66.0,12.0,51.0,RTL
02:55:36,238923.0,0.06153140030801296,-0.0667291646823287,-2.239451766014099,0.03312491765245795,0.0646514119580388,0.008324075548443943,-35.36380275,149.164455975,113223.75,-81.25,-87.75,-146.75,-25.0,-8.25,-1002.25,35.0,66.25,9.5,RTL
02:55:37,238923.0,0.0799417793750763,-0.015941605903208256,-2.234907865524292,0.01624283939599991,0.06692962348461151,-0.0018509095534682274,-35.3638079,149.16444735,114353.5,-57.5,-123.0,-148.5,-26.0,-18.5,-1005.5,18.0,69.0,0.0,RTL
02:55:39,237847.0,-0.010090259136632085,0.023262303322553635,-2.1796807050704956,-0.10738302767276764,0.008134413743391633,0.030754894949495792,-35.36380785,149.1644202,117416.0,37.0,-99.0,-152.0,-1.0,-26.5,-1004.0,-104.5,10.0,32.0,RTL
02:55:41,237847.0,-0.11500291153788567,0.09496669098734856,-2.248092293739319,0.08555830270051956,0.014895507600158453,-0.02338323835283518,-35.3638107,149.16441705,120449.5,-70.5,116.5,-137.5,-7.5,25.5,-997.0,87.5,16.5,-21.0,RTL
02:55:42,206787.0,0.022029463085345924,0.08103325963020325,-2.2492395639419556,0.12005961313843727,-0.039861495373770595,0.014286707621067762,-35.363816225,149.164441275,122187.25,-6.5,209.0,-140.25,13.5,46.0,-1016.5,122.25,-37.25,15.75,RTL
02:55:43,206787.0,0.11116296797990799,0.033078668639063835,-2.236579179763794,0.10990843921899796,-0.08750496804714203,0.027661174535751343,-35.3638147,149.16445829999998,123297.0,74.5,185.0,-149.5,23.5,39.0,-1019.5,112.0,-84.5,29.0,RTL
02:55:45,205320.0,0.0257517421268858,-0.09641332924365997,-2.347975254058838,-0.20196276158094406,-0.05487508326768875,-0.12183332443237305,-35.3637868,149.1644665,126214.5,167.5,-115.0,-139.0,31.5,-33.5,-1030.0,-199.5,-52.0,-119.5,RTL
02:55:47,205320.0,-0.14885996282100677,-0.036643508821725845,-2.382285237312317,-0.0019610468298196793,0.24665986001491547,0.036060575395822525,-35.36378325,149.1644401,129229.0,-128.5,-60.0,-140.0,-29.0,-14.5,-979.0,0.5,248.5,37.5,RTL
02:55:48,250473.0,-0.023792821681126952,0.16625894606113434,-2.2865888476371765,0.09361252002418041,0.04868016135878861,0.056636614724993706,-35.363798275,149.164444125,131044.5,-87.5,118.25,-144.5,-16.75,28.25,-1008.5,95.75,50.25,58.25,RTL
02:55:49,250473.0,0.05896459519863129,0.17415282875299454,-2.253547191619873,0.11041893437504768,-0.03803351894021034,0.03536701202392578,-35.3638014,149.16445715,132114.0,21.5,196.0,-133.5,10.0,39.0,-1000.5,112.5,-35.0,36.5,RTL
02:55:51,254914.0,0.09150872379541397,-0.07943789660930634,-2.2489256858825684,-0.18995130062103271,-0.08706766366958618,-0.09427660331130028,-35.363769950000005,149.16449210000002,134744.5,271.0,25.5,-136.5,67.0,-11.0,-1033.0,-186.5,-84.0,-92.0,RTL
02:55:53,254914.0,-0.18684641271829605,-0.12097612023353577,-2.442369222640991,-0.004358610603958368,0.07069048658013344,0.0204218877479434,-35.36374785,149.16448285,137861.0,-85.5,-33.0,-140.5,-14.0,-6.5,-991.0,-1.5,72.5,22.0,RTL
02:55:54,31867.0,-0.0972730778157711,0.022395739099010825,-2.415581166744232,0.09379824250936508,0.13215725496411324,0.042318226769566536,-35.363767349999996,149.16448659999998,139515.25,-212.0,84.75,-130.75,-46.0,24.5,-1024.0,96.0,133.75,43.75,RTL
02:55:55,31867.0,-0.016026070865336806,0.11857087910175323,-2.393455982208252,0.12001677602529526,0.1108221597969532,0.03721495531499386,-35.36378115,149.16449655,140561.5,-167.0,158.5,-145.5,-39.5,32.0,-1027.5,122.0,113.0,38.5,RTL
02:55:57,11239.0,0.21476759761571884,0.06693985126912594,-2.3391757011413574,0.04864597995765507,-0.18773802369832993,0.0618301909416914,-35.363778550000006,149.16453775000002,143439.0,224.0,133.5,-122.5,54.5,27.5,-1010.0,51.0,-185.0,63.0,RTL
02:55:59,11239.0,-0.0773747768253088,-0.17733973264694214,-2.379478096961975,-0.18226155638694763,0.018142221495509148,-0.09350905194878578,-35.36373605,149.16452385000002,146082.5,108.5,-215.5,-146.0,25.5,-62.0,-1040.5,-179.0,20.5,-91.0,RTL
02:56:00,203312.0,-0.15701685473322868,-0.079720888286829,-2.387852668762207,-0.00806067418307066,0.09731088019907475,0.015827428665943444,-35.3637396,149.1644968,147926.75,-148.0,-152.5,-138.75,-37.25,-29.5,-1008.0,-5.0,99.25,17.5,RTL
02:56:01,203312.0,-0.14647893607616425,0.012730963062494993,-2.3957600593566895,0.05007685348391533,0.15869099646806717,0.014052995597012341,-35.36375255,149.1644876,148973.5,-233.0,-53.5,-135.5,-55.5,-0.5,-1018.0,52.5,161.0,15.5,RTL
02:56:03,133965.0,0.07635129243135452,0.20450547337532043,-2.3000714778900146,0.10353098064661026,-0.08085956051945686,0.06221471168100834,-35.3637824,149.16451089999998,151851.5,6.0,235.0,-130.5,7.5,50.0,-1004.0,106.0,-78.0,63.5,RTL
02:56:05,133965.0,0.17434028536081314,-0.1670740842819214,-2.1440519094467163,-0.05065381247550249,-0.1416422352194786,0.06339937285520136,-35.363749299999995,149.16454935000002,154444.0,295.0,-6.0,-133.5,60.0,-23.5,-1019.5,-47.5,-138.5,65.5,RTL
02:56:06,144348.0,-0.05661873146891594,-0.18706096336245537,-2.289301574230194,-0.2241165228188038,0.005366712925024331,-0.14399767853319645,-35.363722925,149.16452952499998,156108.0,140.0,-235.5,-136.75,19.25,-62.5,-1045.5,-220.5,7.5,-141.25,RTL
02:56:07,144348.0,-0.16738471388816833,-0.17111020535230637,-2.366864562034607,-0.07487870380282402,0.0796888917684555,-0.013170997612178326,-35.3637193,149.1645093,157184.5,-50.5,-243.5,-138.5,-20.0,-61.0,-1016.0,-71.5,81.5,-11.0,RTL
02:56:09,45591.0,-0.11403923481702805,0.15220951288938522,-2.3795498609542847,0.11619408056139946,0.19624138623476028,0.089005496352911,-35.3637602,149.16448335,159821.5,-283.0,63.5,-139.0,-69.5,23.5,-1052.0,118.5,198.5,91.0,RTL
02:56:11,45591.0,0.15689146518707275,0.1125294640660286,-2.243366003036499,0.1338151916861534,-0.11077640578150749,0.062191110104322433,-35.363779550000004,149.16453145,162586.5,100.5,265.0,-133.5,38.5,53.5,-1027.0,136.5,-107.5,64.0,RTL
02:56:12,94443.0,0.18519579991698265,-0.14640374295413494,-2.1563318371772766,-0.09337779879570007,-0.17533698212355375,0.1024831235408783,-35.36375605,149.164554575,164274.75,274.5,32.75,-131.5,71.25,-8.5,-1032.0,-89.5,-172.5,104.5,RTL
02:56:13,94443.0,0.07849377952516079,-0.20396391302347183,-2.180384874343872,-0.23763956874608994,0.011531180702149868,-0.1421312913298607,-35.363737799999996,149.1645502,165260.0,247.5,-161.5,-123.0,40.0,-51.0,-1025.5,-234.0,13.5,-139.0,RTL
02:56:15,4033.0,-0.1890082284808159,-0.10829545930027962,-2.366050362586975,-0.023449032567441463,0.13247569650411606,-0.0011770551791414618,-35.3637315,149.16449755000002,167940.5,-203.5,-205.5,-124.5,-51.5,-39.5,-1013.0,-19.5,134.0,1.0,RTL
02:56:17,4033.0,-0.009571119211614132,0.23369602859020233,-2.307520627975464,0.13791844993829727,-0.05071629164740443,0.0445132777094841,-35.363779449999996,149.1644928,170662.0,-174.0,189.0,-142.0,-30.0,52.0,-1015.5,141.0,-47.5,46.0,RTL
02:56:18,106370.0,0.1489114724099636,0.10764891467988491,-2.2545968294143677,0.11722195334732533,-0.10344654507935047,0.05494633410125971,-35.363784075,149.164525525,172412.25,82.5,238.25,-136.75,31.0,48.0,-1022.0,119.75,-100.5,57.0,RTL
02:56:19,106370.0,0.21817069500684738,-0.006500029005110264,-2.226646900177002,0.029422879219055176,-0.20011086016893387,0.10560573637485504,-35.3637743,149.16454245,173454.0,220.5,145.0,-133.0,62.5,17.5,-1024.0,33.0,-197.0,107.5,RTL
02:56:21,27078.0,-0.061971237882971764,-0.19355729967355728,-2.279871106147766,-0.2151760682463646,0.019604835659265518,-0.13129812851548195,-35.3637336,149.16452205000002,176037.0,106.5,-280.0,-129.0,3.0,-73.0,-1050.0,-211.5,22.0,-128.5,RTL
02:56:23,27078.0,-0.18528280407190323,0.016948563046753407,-2.3915170431137085,0.026520744897425175,0.20477311313152313,-0.0024731624871492386,-35.3637569,149.16446954999998,178646.5,-302.5,-108.0,-128.0,-65.0,-17.0,-1037.0,29.5,207.0,0.0,RTL
02:56:24,17896.0,-0.03454519156366587,0.2242969051003456,-2.310669183731079,0.11922149360179901,-0.017220125533640385,0.09081027563661337,-35.363788150000005,149.16447507499998,180409.5,-193.5,174.0,-140.25,-44.0,42.5,-1021.0,122.0,-14.5,93.0,RTL
02:56:25,17896.0,0.06989817321300507,0.15966924279928207,-2.2602399587631226,0.12091842666268349,-0.09467590227723122,0.06404514610767365,-35.3637973,149.16449355,181444.0,-49.0,264.5,-133.5,2.5,62.0,-1025.5,124.0,-91.5,66.5,RTL
02:56:27,218965.0,0.1940867230296135,-0.17042329162359238,-2.1485899686813354,-0.13093925267457962,-0.20722652971744537,0.09339794144034386,-35.363773249999994,149.16453554999998,184201.5,278.0,1.0,-126.5,55.0,-23.0,-1025.5,-127.0,-204.0,95.0,RTL
02:56:29,218965.0,-0.1517712101340294,-0.18016084283590317,-2.3374178409576416,-0.09901675954461098,0.0768019687384367,-0.03217567119281739,-35.363744350000005,149.1644913,186773.5,-48.0,-288.5,-131.5,-22.5,-64.0,-1024.0,-95.0,79.0,-29.5,RTL
02:56:30,281785.0,-0.1800495907664299,0.0028342795558273792,-2.368076264858246,0.05224316753447056,0.23371390253305435,0.0372886547120288,-35.3637659,149.16446059999998,188377.25,-283.75,-135.5,-127.0,-66.75,-22.0,-1029.5,55.5,236.0,39.75,RTL
02:56:31,281785.0,-0.1428218111395836,0.1630559340119362,-2.373841166496277,0.08590109646320343,0.1928839534521103,0.03872978128492832,-35.3637863,149.16445545,189398.0,-294.5,36.5,-142.0,-70.5,26.5,-1043.5,89.0,195.0,40.5,RTL
02:56:33,154179.0,0.14399979263544083,0.14553412795066833,-2.3024173974990845,0.14024905115365982,-0.10924481973052025,0.059757499024271965,-35.3638075,149.16450535,192043.0,110.5,300.5,-122.0,42.0,72.0,-1034.5,143.5,-106.0,62.0,RTL
02:56:35,154179.0,0.11167348921298981,-0.2199729010462761,-2.221778988838196,-0.22880125045776367,-0.01612055441364646,-0.11163826286792755,-35.3637597,149.16453315,194579.5,302.5,-134.0,-123.0,59.5,-55.0,-1035.0,-224.5,-13.5,-108.0,RTL
02:56:36,9998.0,-0.12784619256854057,-0.19533871859312057,-2.381080687046051,-0.12248304300010204,0.07499975658720359,-0.03685289085842669,-35.363741024999996,149.164500775,196254.75,17.0,-275.25,-136.5,-0.75,-73.5,-1037.25,-118.25,77.25,-33.75,RTL
02:56:37,9998.0,-0.17498240619897842,-0.11846358701586723,-2.389235258102417,-0.028085717000067234,0.12263639271259308,0.01221860060468316,-35.363745800000004,149.164479,197285.0,-169.5,-229.5,-129.5,-42.0,-47.0,-1014.5,-24.0,125.5,15.0,RTL
02:56:39,256856.0,-0.05202067643404007,0.2425452396273613,-2.3623132705688477,0.14230487123131752,0.09947279281914234,0.06503994949162006,-35.3637926,149.16446710000002,200029.5,-203.5,161.5,-143.0,-53.5,38.5,-1027.0,145.5,102.0,67.5,RTL
02:56:41,256856.0,0.21541035175323486,0.056527817621827126,-2.2928833961486816,0.09844957664608955,-0.15350226312875748,0.06563657522201538,-35.36379025,149.164521,202683.5,226.5,204.5,-124.5,61.5,31.5,-1023.5,102.0,-150.0,68.5,RTL
02:56:42,67804.0,0.12680577766150236,-0.20516648143529892,-2.2150232195854187,-0.18062606174498796,-0.05557768716244027,-0.05140783963724971,-35.363758925,149.164527925,204299.5,277.75,-107.5,-124.25,56.75,-41.75,-1028.5,-176.0,-52.75,-48.0,RTL
02:56:43,67804.0,-0.026787247017637128,-0.20596540719270706,-2.3145958185195923,-0.24899589270353317,0.002709298743866384,-0.15598446875810623,-35.363743,149.16451304999998,205259.0,165.5,-254.5,-128.0,25.5,-60.0,-1050.0,-244.5,5.0,-152.5,RTL
02:56:45,208008.0,-0.1845049038529396,-0.02808027435094118,-2.4260435104370117,0.008186677703633904,0.1835557073354721,-0.005540135782212019,-35.36375805,149.16446055,207935.0,-279.0,-128.5,-124.0,-70.0,-22.5,-1029.0,11.5,185.5,-2.0,RTL
02:56:47,208008.0,0.02846600441262126,0.24431461095809937,-2.3714756965637207,0.1341703161597252,-0.09424037113785744,0.04810456186532974,-35.3638021,149.16447875,210699.5,-74.0,273.5,-126.0,-0.5,65.0,-1009.5,137.5,-90.5,51.0,RTL
02:56:48,274461.0,0.1941344514489174,0.09500545263290405,-2.307603895664215,0.05878718011081219,-0.17682476714253426,0.11021605227142572,-35.36379395,149.16451795,212252.5,208.5,247.75,-120.25,59.5,42.25,-1020.0,62.5,-173.5,113.0,RTL
02:56:49,274461.0,0.2026345580816269,-0.09924137964844704,-2.2412238121032715,-0.04555821092799306,-0.2806367799639702,0.2017732337117195,-35.3637761,149.164534,213186.0,320.0,100.5,-126.0,76.5,2.5,-1066.0,-42.0,-277.0,204.0,RTL
02:56:51,16905.0,-0.13327373564243317,-0.21068433672189713,-2.418223023414612,-0.14591072872281075,0.053212384693324566,-0.0787855964154005,-35.36373465,149.16450375,215907.0,26.0,-267.5,-140.5,9.5,-74.0,-1036.5,-141.5,56.0,-75.5,RTL
02:56:53,16905.0,-0.146622933447361,0.09135961905121803,-2.444823980331421,0.11529054492712021,0.24222075194120407,0.0975746251642704,-35.363770099999996,149.1644665,218521.0,-306.5,-6.0,-132.0,-70.5,9.5,-1054.5,118.5,244.5,100.0,RTL
02:56:54,20251.0,0.026533788070082664,0.22617969661951065,-2.369829833507538,0.13431408070027828,-0.05958316754549742,0.03645176766440272,-35.363795350000004,149.16448457500002,220326.75,-100.0,230.75,-137.5,-17.5,55.75,-1016.5,138.0,-56.0,39.0,RTL
02:56:55,20251.0,0.12317707017064095,0.15411824733018875,-2.3375107049942017,0.12380184978246689,-0.09380640089511871,0.0582758504897356,-35.36379735,149.16450565,221351.0,69.0,262.5,-131.0,24.0,57.0,-1022.0,127.5,-90.0,61.0,RTL
02:56:57,78503.0,0.13345038890838623,-0.21840234100818634,-2.219827651977539,-0.20012764632701874,-0.028338636737316847,-0.0549448411911726,-35.3637572,149.1645315,223991.5,270.5,-123.5,-124.0,51.5,-30.5,-1015.0,-195.5,-25.0,-51.0,RTL
02:56:59,78503.0,-0.17796600610017776,-0.14838086813688278,-2.4313597679138184,-0.039416130632162094,0.11283924803137779,0.0032908658031374216,-35.3637435,149.1644761,226595.5,-170.5,-245.5,-125.0,-42.5,-52.0,-1014.5,-35.0,115.5,6.0,RTL
02:57:00,47567.0,-0.1689271256327629,0.07152775744907558,-2.462382733821869,0.052015259163454175,0.20760701224207878,0.023962851468240842,-35.36377365,149.16445545,228175.5,-316.25,-28.5,-132.0,-69.5,-8.25,-1046.5,55.75,210.5,26.75,RTL
02:57:01,47567.0,-0.0926135927438736,0.22578509896993637,-2.438647985458374,0.1289539635181427,0.16628220677375793,0.08551075682044029,-35.363793900000005,149.16445915,229238.0,-250.0,146.5,-143.5,-66.5,35.5,-1041.0,132.5,169.0,88.0,RTL
02:57:03,275705.0,0.20024294406175613,0.11993777379393578,-2.354990243911743,0.11117522418498993,-0.13969621062278748,0.06061669811606407,-35.36379585,149.16451719999998,231780.0,233.5,259.0,-113.5,57.5,50.0,-1027.0,114.5,-136.0,63.5,RTL
02:57:05,275705.0,0.012404213193804026,-0.21281901001930237,-2.3431243896484375,-0.25128602236509323,-0.009044970502145588,-0.18814617395401,-35.36374055,149.1645234,234328.5,230.0,-217.5,-132.0,36.5,-62.5,-1051.5,-246.5,-5.5,-184.5,RTL
02:57:06,103787.0,-0.171477060765028,-0.17437291890382767,-2.476381003856659,-0.05522532342001796,0.10446984693408012,0.006303987232968211,-35.363734275,149.1644889,236094.25,-106.25,-233.25,-132.0,-27.5,-52.5,-1014.75,-50.75,107.25,9.5,RTL
02:57:07,103787.0,-0.18889297544956207,-0.08053833246231079,-2.4874202013015747,-0.003830578178167343,0.16146399080753326,-0.002305981470271945,-35.363746750000004,149.16447245,237065.5,-262.0,-142.0,-119.5,-60.0,-29.0,-1016.0,0.5,164.5,1.0,RTL
02:57:09,91732.0,0.03292601788416505,0.2491607367992401,-2.413515567779541,0.17301294207572937,-0.045457623898983,0.0048140548169612885,-35.3637932,149.16448405,239822.5,-100.0,233.5,-139.0,-16.0,56.5,-1013.0,176.5,-41.5,7.5,RTL
02:57:11,91732.0,0.1855669990181923,-0.10411296784877777,-2.2903194427490234,0.004519999958574772,-0.2337166741490364,0.17151662707328796,-35.36377065,149.1645315,242429.5,288.0,69.5,-134.0,72.0,5.0,-1061.5,9.0,-230.0,174.5,RTL
02:57:12,240184.0,0.014259910210967064,-0.21074455603957176,-2.331765294075012,-0.23348896950483322,0.006230742554180324,-0.15173223987221718,-35.36374225,149.16451885,244110.75,175.5,-222.0,-129.25,24.5,-58.0,-1037.25,-228.75,9.0,-148.0,RTL
02:57:13,240184.0,-0.12497707828879356,-0.2055085450410843,-2.4446725845336914,-0.1686469316482544,0.03261364530771971,-0.10627338662743568,-35.3637354,149.16449790000001,245126.0,-4.0,-274.0,-135.5,3.0,-59.5,-1030.5,-164.0,36.0,-102.5,RTL
02:57:15,225631.0,-0.14988890290260315,0.08735090680420399,-2.5010688304901123,0.10369948670268059,0.23914536833763123,0.0814962349832058,-35.36377455,149.1644603,247664.5,-324.0,2.5,-132.0,-86.5,-3.0,-1062.0,107.5,242.0,84.5,RTL
02:57:17,225631.0,0.1287120170891285,0.19005639106035233,-2.394696354866028,0.1218588724732399,-0.1104721948504448,0.05891311727464199,-35.363801300000006,149.1645009,250468.0,98.0,279.5,-120.5,22.5,59.0,-1017.5,125.5,-106.5,62.0,RTL
02:57:18,236956.0,0.19567880034446716,-0.08069629408419132,-2.293621301651001,-0.044163983315229416,-0.2675554007291794,0.17692816816270351,-35.363775724999996,149.16452867499999,251993.75,309.25,86.5,-125.75,74.25,3.0,-1051.5,-39.5,-263.5,179.75,RTL
02:57:19,236956.0,0.13065306842327118,-0.21252164989709854,-2.258012890815735,-0.21269315481185913,-0.02786753256805241,-0.0846129972487688,-35.36375455,149.16452865,252987.5,294.5,-120.0,-128.0,63.5,-41.5,-1024.5,-208.0,-24.5,-81.0,RTL
02:57:21,209183.0,-0.18295399844646454,-0.16075394302606583,-2.4969831705093384,-0.030713717453181744,0.11085290461778641,0.013740443624556065,-35.363739249999995,149.16447685,255699.5,-174.5,-224.5,-125.5,-37.0,-51.0,-1010.0,-26.0,114.0,16.5,RTL
02:57:23,209183.0,-0.07033816538751125,0.2236853688955307,-2.472541093826294,0.12262910604476929,0.1590496227145195,0.09403311833739281,-35.3637905,149.16446615,258274.5,-243.0,154.5,-146.5,-58.0,37.0,-1046.5,126.5,162.0,97.0,RTL
02:57:24,177047.0,0.11536293290555477,0.20394838228821754,-2.4107478857040405,0.12242100946605206,-0.1074211448431015,0.06224934570491314,-35.36380025,149.164500175,259992.25,72.75,282.75,-121.25,21.25,61.5,-1017.5,126.5,-103.5,65.25,RTL
02:57:25,177047.0,0.21243898570537567,0.10806715860962868,-2.3788007497787476,0.09772070869803429,-0.15303486585617065,0.09019758179783821,-35.36379015,149.16452235,260899.0,249.5,226.5,-114.0,61.5,45.0,-1022.5,102.0,-149.0,93.0,RTL
02:57:27,255654.0,-0.0021726498380303383,-0.21036937832832336,-2.3682596683502197,-0.24057498574256897,-0.007529454189352691,-0.1949623078107834,-35.363738600000005,149.1645202,263486.0,194.5,-241.5,-130.5,41.5,-64.5,-1050.0,-235.5,-3.5,-190.5,RTL
02:57:29,255654.0,-0.19539301842451096,-0.07738124579191208,-2.5336034297943115,-0.0026094946078956127,0.18111588060855865,-0.005263528320938349,-35.3637523,149.16446915,266125.5,-297.5,-126.0,-113.5,-64.5,-25.0,-1021.0,2.0,184.5,-1.0,RTL
02:57:30,178441.0,-0.07201834442093968,0.2052955962717533,-2.4752469062805176,0.13110506907105446,0.1621715910732746,0.08859287528321147,-35.3637875,149.16447017500002,267759.0,-253.5,134.75,-145.0,-63.75,34.25,-1052.0,135.25,165.0,91.75,RTL
02:57:31,178441.0,0.04555936250835657,0.2543269470334053,-2.4422351121902466,0.14118842408061028,-0.07024917379021645,0.021463850745931268,-35.3638,149.16448605,268868.5,-77.5,256.0,-136.5,-21.0,60.5,-1013.0,145.0,-66.0,25.0,RTL
02:57:33,285596.0,0.1934174746274948,-0.11112815514206886,-2.3078137636184692,-0.00231323204934597,-0.24763280898332596,0.1915174499154091,-35.36377245,149.164534,271396.0,313.5,59.5,-128.5,82.0,-0.5,-1071.0,2.5,-243.5,194.5,RTL
02:57:35,285596.0,-0.1328788325190544,-0.21721655875444412,-2.4933793544769287,-0.16639066487550735,0.04079913906753063,-0.10065663605928421,-35.36373465,149.16449675,274055.5,-7.5,-282.0,-136.5,-9.0,-67.5,-1036.5,-161.0,44.0,-96.5,RTL
02:57:36,199623.0,-0.1793072447180748,-0.04941761028021574,-2.522060751914978,0.04888502974063158,0.23587432503700256,0.05563756398623809,-35.36375372500001,149.164466475,275662.25,-281.75,-134.5,-120.25,-63.25,-29.75,-1038.5,53.75,239.0,59.25,RTL
02:57:37,199623.0,-0.13581649959087372,0.13573364540934563,-2.5023950338363647,0.046145154163241386,0.18684299290180206,0.05114624463021755,-35.36377425,149.1644609,276648.5,-293.5,25.0,-145.0,-74.5,7.5,-1058.5,50.5,190.0,54.5,RTL
02:57:39,183069.0,0.1511196382343769,-0.04435811750590801,-2.1494709253311157,-0.5883441269397736,0.1443042904138565,-0.011909081134945154,-35.36379015,149.16448705,278763.5,137.0,9.0,-14.0,27.5,-27.0,-940.5,-584.0,147.5,-8.0,RTL
02:57:41,183069.0,-0.06342982314527035,0.235964797437191,-2.211881995201111,0.0950608067214489,0.016372079495340586,-0.03951840754598379,-35.3637625,149.16449675,278954.5,194.5,179.0,-26.5,56.5,21.0,-1014.5,99.5,19.5,-35.5,RTL
02:57:42,190340.0,-0.06891535222530365,0.20402054861187935,-2.249753952026367,-0.014446198474615812,-0.05169210728490725,-0.0300595099106431,-35.363735199999994,149.1645343,279146.75,286.75,349.5,-6.75,90.75,53.75,-992.5,-9.5,-48.0,-25.75,RTL
02:57:43,190340.0,-0.06843032315373421,0.18153654038906097,-2.2689675092697144,0.009676757268607616,-0.038917604833841324,-0.026495231315493584,-35.3637145,149.16456565,279167.0,327.5,409.0,-0.5,102.5,71.0,-1001.0,14.5,-35.0,-22.0,RTL
02:57:45,6879.0,-0.08299484848976135,0.15794647485017776,-2.3169206380844116,-7.505714893341064e-05,-0.013827222865074873,-0.019815875217318535,-35.363648100000006,149.1646663,279164.0,400.5,493.0,-1.5,116.0,80.5,-992.5,4.5,-9.5,-15.0,RTL
02:57:47,6879.0,-0.09144571051001549,0.12791062146425247,-2.351699709892273,-0.002816484309732914,0.022967608645558357,-0.015889443457126617,-35.3635732,149.16477845,279193.5,425.0,515.5,-2.0,114.5,91.5,-976.5,1.5,26.0,-11.5,RTL
02:57:48,38776.0,-0.09589218720793724,0.13502617180347443,-2.3717586398124695,0.014405711088329554,-0.00283210416091606,-0.011941667762584984,-35.363525425,149.1648495,279165.75,434.0,523.5,0.25,123.0,98.25,-993.25,19.0,1.0,-7.5,RTL
02:57:49,38776.0,-0.09432721883058548,0.13028225302696228,-2.3813003301620483,-0.009641469223424792,0.011334247305057943,-0.013378715608268976,-35.363496350000005,149.1648928,279155.0,438.5,527.5,-1.0,121.0,88.0,-986.0,-4.5,14.5,-9.0,RTL
02:57:51,68169.0,-0.09225709736347198,0.10598840937018394,-2.40142023563385,-0.016568774357438087,-0.059833237901329994,-0.013991561718285084,-35.36341765,149.16500915,279172.0,438.5,525.5,-4.5,119.0,90.5,-993.5,-11.5,-55.5,-9.5,RTL
02:57:53,68169.0,-0.07152068242430687,0.003939591034850309,-2.4090025424957275,0.5007806420326233,-0.034284668043255806,0.008548406884074211,-35.363344600000005,149.1651165,279235.5,360.5,435.0,2.0,104.5,110.5,-1000.0,505.5,-30.0,12.5,RTL
02:57:54,90475.0,-0.04436940513551235,-0.04484809096902609,-2.416403830051422,0.18041094951331615,-0.03607994085177779,0.0036767367273569107,-35.3633094,149.16516984999998,279200.0,274.5,331.25,1.5,75.25,78.5,-999.0,185.0,-31.5,7.75,RTL
02:57:55,90475.0,-0.04018900915980339,-0.05458538047969341,-2.4216281175613403,-0.6381700038909912,-0.004130348097532988,-0.011272596195340157,-35.363293,149.1651952,279187.5,219.0,260.5,2.5,61.5,41.5,-1000.5,-632.5,-0.5,-7.5,RTL
02:57:57,82215.0,0.016580209136009216,-0.07597949355840683,-2.432668089866638,0.5864643156528473,0.04129751957952976,0.011418925132602453,-35.36326745,149.16523565,279172.0,86.5,86.0,1.0,20.5,56.0,-1007.5,591.5,45.0,15.0,RTL
02:57:59,82215.0,0.013254774540352324,-0.02515914539496104,-2.4420389334360757,-0.3682467093070348,0.02404789812862873,-0.0070448882567385835,-35.3632614,149.16524463333332,279178.6666666667,18.666666666666668,-5.666666666666667,0.0,3.0,-26.0,-996.6666666666666,-363.3333333333333,27.666666666666668,-2.6666666666666665,RTL
02:58:00,231157.0,0.001906129764392972,0.006928231625352055,-2.4470816254615784,0.20602421835064888,0.01073596312198788,0.0012355940416455269,-35.3632608,149.165243325,279184.5,8.75,-14.25,0.25,1.5,0.5,-999.5,211.5,14.75,5.0,RTL
02:58:01,231157.0,-0.019845137372612953,-0.0004821429611183703,-2.4501261711120605,-0.5731842964887619,-0.018481257371604443,-0.0008583185262978077,-35.3632602,149.16524205,279188.0,6.0,-7.5,1.0,3.0,-22.5,-1004.0,-567.0,-13.5,3.0,RTL
02:58:03,93053.0,-0.014254072681069374,-0.0017948451374347012,-2.457284132639567,-0.14598107834657034,0.002608671629180511,-0.0014580391968290012,-35.3632596,149.16523883333335,279189.6666666667,-13.0,2.6666666666666665,1.0,-2.6666666666666665,-18.333333333333332,-992.3333333333334,-141.33333333333334,6.0,2.6666666666666665,RTL
02:58:05,93053.0,0.005802736772845189,-0.0008221943474685153,-2.4626549084981284,0.3571902910868327,0.003774170142908891,-0.002087256871163845,-35.363261099999995,149.1652383,279186.6666666667,-8.333333333333334,3.6666666666666665,1.3333333333333333,-2.3333333333333335,24.333333333333332,-1001.3333333333334,362.6666666666667,7.333333333333333,1.6666666666666667,RTL
02:58:06,178922.0,0.0027993622546394667,-0.0010705752259430785,-2.4662423928578696,0.042792816956837974,0.0016820065987606843,-0.0029030256749441228,-35.363262066666664,149.16523866666668,278982.6666666667,-1.3333333333333333,-0.6666666666666666,49.333333333333336,-2.6666666666666665,28.0,-928.3333333333334,49.0,6.0,1.0,RTL
02:58:07,178922.0,0.010258477879688144,-0.0012393863871693611,-2.46768848101298,0.8259457846482595,-0.001505573745816946,-0.012260609151174625,-35.363262399999996,149.1652389,278441.6666666667,2.3333333333333335,-5.0,94.0,-1.3333333333333333,70.66666666666667,-959.0,832.3333333333334,2.6666666666666665,-7.666666666666667,RTL
02:58:09,177479.0,0.00645517084437112,-0.004719231200094025,-2.471521536509196,-1.3486964305241902,-0.00432659996052583,0.0016853079820672672,-35.363263233333335,149.16523960000004,276288.0,8.333333333333334,-9.0,99.66666666666667,-3.6666666666666665,-48.333333333333336,-1031.0,-1343.0,0.0,5.666666666666667,RTL
02:58:11,177479.0,0.035454547653595604,-0.004438499687239528,-2.4763574600219727,-0.769168496131897,0.004752365717043479,-0.004167663864791393,-35.36326553333333,149.1652431,274441.0,27.666666666666668,-36.0,100.33333333333333,-1.6666666666666667,8.666666666666666,-1001.0,-760.6666666666666,8.666666666666666,0.3333333333333333,RTL
02:58:12,266745.0,0.024875829617182415,0.0021196084174637995,-2.4790772596995034,-0.13912761211395264,0.004578617090980212,0.00044856701667110127,-35.3632658,149.1652431,273167.3333333333,35.333333333333336,-48.0,98.66666666666667,2.6666666666666665,31.0,-989.0,-130.0,8.333333333333334,4.666666666666667,RTL
02:58:13,266745.0,0.01232103460157911,0.00455644012739261,-2.4806270599365234,0.28265075385570526,0.004131324278811614,0.0030144009118278823,-35.3632652,149.16524193333336,272412.0,33.666666666666664,-45.333333333333336,99.0,4.0,45.0,-1006.0,291.3333333333333,8.333333333333334,6.666666666666667,RTL
02:58:15,70953.0,0.0025816569104790688,-0.0006267052376642823,-2.4829372564951577,0.7926545143127441,-0.0024124423507601023,-0.007470590993762016,-35.3632633,149.16523913333333,270373.6666666667,17.333333333333332,-20.333333333333332,101.66666666666667,-0.3333333333333333,67.33333333333333,-994.0,801.6666666666666,1.3333333333333333,-3.3333333333333335,RTL
02:58:17,70953.0,0.020951726163427036,-0.0015637353644706309,-2.4856518109639487,1.34443465868632,0.0005217604339122772,0.000867883674800396,-35.36326296666667,149.165239,268327.0,10.666666666666666,-15.333333333333334,101.66666666666667,1.0,65.33333333333333,-1001.6666666666666,1353.0,4.333333333333333,5.0,RTL
02:58:18,181716.0,0.013693734382589659,0.0025068968146418533,-2.487621784210205,1.4205763339996338,0.00216067877287666,0.0009175804443657398,-35.36326243333334,149.16523796666667,267055.0,6.0,-10.333333333333334,103.66666666666667,3.0,49.0,-969.6666666666666,1428.0,6.0,5.0,RTL
02:58:19,181716.0,0.002814819881071647,0.003260012793665131,-2.487739642461141,1.44015634059906,-0.005298285434643428,0.0027437065728008747,-35.3632619,149.16523696666664,266173.3333333333,2.0,-4.333333333333333,116.66666666666667,4.333333333333333,52.666666666666664,-1078.6666666666667,1447.6666666666667,-0.6666666666666666,6.333333333333333,RTL
02:58:21,57906.0,-0.010023714664081732,-0.0002659090096130967,-2.489632765452067,1.2834344704945881,-0.0003392494594057401,0.0030570727152129016,-35.36326019999999,149.1652345,264040.3333333333,-13.666666666666666,18.666666666666668,100.33333333333333,0.6666666666666666,39.0,-1030.3333333333333,1290.0,3.0,7.0,RTL
02:58:23,57906.0,-0.008824389660730958,-0.0034938885364681482,-2.491111437479655,-0.5078280555705229,0.0007901377975940704,0.00019113440066576004,-35.3632604,149.1652349,262216.6666666667,-19.0,27.0,102.33333333333333,-1.6666666666666667,-55.0,-988.6666666666666,-502.3333333333333,4.666666666666667,4.333333333333333,RTL
02:58:24,130539.0,0.003943058506896098,-0.0024089851261427007,-2.4921876589457193,-0.23573623597621918,0.0016133525253583987,-0.001572012435644865,-35.363261,149.16523573333333,260931.0,-14.666666666666666,20.333333333333332,99.33333333333333,-1.0,-52.333333333333336,-987.6666666666666,-230.33333333333334,5.333333333333333,2.6666666666666665,RTL
02:58:25,130539.0,-0.006449059039975206,-0.002715461111317078,-2.4927213191986084,-0.868766983350118,-0.002463022402177254,-0.003279846472044786,-35.36326133333333,149.16523623333333,260188.66666666666,-11.666666666666666,16.666666666666668,96.33333333333333,-2.3333333333333335,-63.0,-987.0,-863.3333333333334,1.6666666666666667,1.3333333333333333,RTL
02:58:27,39268.0,0.0011179084328129345,-0.0051278965547680855,-2.49454935391744,-1.3795491854349773,-0.001618766924366355,-0.0036520020415385566,-35.36326276666667,149.16523859999998,258152.0,0.0,1.0,99.0,-2.0,-58.333333333333336,-1025.3333333333333,-1373.0,2.3333333333333335,0.3333333333333333,RTL
02:58:29,39268.0,0.006471000184925894,-0.001933468272909522,-2.4959235191345215,-1.0152992010116577,-0.0029777586460113525,-0.00611993670463562,-35.3632632,149.16523923333332,255899.0,8.333333333333334,-12.333333333333334,103.33333333333333,-0.6666666666666666,-78.33333333333333,-973.3333333333334,-1009.6666666666666,1.0,-1.6666666666666667,RTL
02:58:30,55504.0,0.026194723943869274,-0.002685489443441232,-2.4966213703155518,0.3218809515237808,-0.0019968245178461075,-0.012258739055444797,-35.363263233333335,149.16523930000002,254621.33333333334,7.666666666666667,-11.0,95.66666666666667,-0.3333333333333333,-26.666666666666668,-1031.6666666666667,326.6666666666667,2.3333333333333335,-7.666666666666667,RTL
02:58:31,55504.0,0.012408236895377437,-0.0011223602026196506,-2.4971805413564048,-0.8501810779174169,0.004834118609627088,-0.0011976438884933789,-35.3632633,149.16523936666667,253972.66666666666,8.0,-12.333333333333334,81.33333333333333,1.3333333333333333,-62.333333333333336,-962.0,-844.0,8.333333333333334,2.6666666666666665,RTL
02:58:33,176892.0,-0.03618683045109113,0.0022097459295764565,-2.497634172439575,-1.2668497562408447,-0.003870723070576787,-0.0016017745559414227,-35.363262133333336,149.16523723333333,251983.66666666666,3.3333333333333335,-4.333333333333333,101.66666666666667,0.6666666666666666,-39.0,-986.6666666666666,-1258.3333333333333,0.3333333333333333,2.0,RTL
02:58:35,176892.0,-0.01654111718138059,-0.0036499720687667527,-2.498542149861654,-1.0006327430407207,-0.0007822945093115171,-0.0018341077957302332,-35.36326193333333,149.16523733333335,249805.33333333334,-2.0,3.6666666666666665,101.0,-0.3333333333333333,-11.666666666666666,-1042.3333333333333,-991.6666666666666,3.0,1.6666666666666667,RTL
02:58:36,65135.0,-0.008802774827927351,-0.0032412687626977763,-2.4990181128184,-0.31930404901504517,0.00215610737601916,0.0034013450300941863,-35.36326223333334,149.1652379,248527.0,0.3333333333333333,-1.0,95.0,-1.0,20.333333333333332,-1045.6666666666667,-309.6666666666667,5.666666666666667,6.666666666666667,RTL
02:58:37,65135.0,0.0032920576243971786,-0.0038793301209807396,-2.499030431111654,0.7590858340263367,-0.0023850471091767154,-0.007473084920396407,-35.363262399999996,149.16523823333333,247867.0,2.0,-3.6666666666666665,84.33333333333333,-1.3333333333333333,66.0,-956.6666666666666,768.0,1.6666666666666667,-3.3333333333333335,RTL
02:58:39,222934.0,0.004028312066414704,-0.00031622863995532197,-2.5000863869984946,0.774037778377533,0.008013236181189617,0.009414765207717815,-35.3632629,149.165239,245887.66666666666,6.0,-13.666666666666666,101.33333333333333,1.3333333333333333,64.33333333333333,-1004.0,783.3333333333334,12.0,13.0,RTL
02:58:41,222934.0,-0.027178417891263962,0.000839312095195055,-2.5002917448679605,0.659512589375178,-0.0006611950229853392,0.002282499490926663,-35.363261333333334,149.16523626666665,243695.0,-2.3333333333333335,1.3333333333333333,101.66666666666667,1.0,63.333333333333336,-998.6666666666666,668.3333333333334,2.6666666666666665,6.0,RTL
02:58:42,21986.0,-0.020192692677179973,-0.0012187521594266097,-2.5007454554239907,0.965599258740743,-0.0023252745935072503,0.003823487088084221,-35.3632607,149.16523526666666,242407.0,-10.666666666666666,13.666666666666666,96.0,1.0,69.0,-1028.6666666666667,974.0,1.3333333333333333,7.666666666666667,RTL
02:58:43,21986.0,-0.002749725400159756,-0.0021183997547874847,-2.501204172770182,1.170528729756673,-0.0016069573660691578,0.0033921970364948115,-35.3632605,149.16523513333334,241742.0,-14.0,17.333333333333332,82.33333333333333,0.3333333333333333,31.333333333333332,-981.6666666666666,1176.3333333333333,2.6666666666666665,7.333333333333333,RTL
02:58:45,103269.0,0.01563368582477172,-0.0056495692891379195,-2.5003345012664795,0.8137581745783488,-0.0025795820790032544,-0.007248187282433112,-35.3632611,149.16523653333334,239749.33333333334,-12.333333333333334,13.333333333333334,99.66666666666667,-1.3333333333333333,3.3333333333333335,-996.3333333333334,819.0,1.3333333333333333,-2.6666666666666665,RTL
02:58:47,103269.0,0.023934924354155857,-0.005883687796692054,-2.501382350921631,1.419816017150879,0.0026683113537728786,0.00518686758975188,-35.363262133333336,149.16523823333333,237559.66666666666,-3.0,-0.3333333333333333,96.0,-2.6666666666666665,57.666666666666664,-1029.6666666666667,1426.3333333333333,6.333333333333333,9.0,RTL
02:58:48,110139.0,0.028639914467930794,-0.0037658111347506442,-2.5022362073262534,0.8822300831476847,0.001538603100925684,-0.004640785433972876,-35.3632626,149.165239,236287.0,1.0,-7.666666666666667,94.0,0.6666666666666666,10.666666666666666,-1033.3333333333333,887.6666666666666,5.333333333333333,-0.6666666666666666,RTL
02:58:49,110139.0,0.005192923359572887,-0.0019008523086085916,-2.5015412966410318,-0.548161044716835,-0.0005673243819425503,0.00399876603235801,-35.36326259999999,149.16523876666665,235604.66666666666,1.3333333333333333,-9.333333333333334,81.66666666666667,1.6666666666666667,-51.333333333333336,-973.6666666666666,-542.3333333333334,3.0,7.333333333333333,RTL
02:58:51,36944.0,-0.01883464523901542,-0.001089454706137379,-2.502478837966919,-1.3609672784805298,0.0007540989511956772,-1.5330345680316288e-05,-35.36326186666667,149.16523746666667,233625.66666666666,-3.0,-0.6666666666666666,97.66666666666667,1.0,-74.33333333333333,-994.0,-1354.3333333333333,4.666666666666667,3.6666666666666665,RTL
02:58:53,36944.0,-0.03820346792538961,0.0007894623170917233,-2.5023396015167236,-1.2040477593739827,-0.0005118170908341805,-0.004098365704218547,-35.363260966666665,149.16523576666665,231440.33333333334,-9.666666666666666,10.333333333333334,99.66666666666667,1.3333333333333333,-40.0,-995.3333333333334,-1196.3333333333333,2.6666666666666665,0.0,RTL
02:58:54,265800.0,-0.0384328526755174,-0.0004887398269299107,-2.501735289891561,0.07531185199817021,-0.001039867289364338,0.000622375945871075,-35.36326043333333,149.1652348,230164.0,-14.333333333333334,18.0,97.0,0.0,34.333333333333336,-1033.0,83.33333333333333,2.3333333333333335,4.0,RTL
02:58:55,265800.0,-0.014738960191607475,-0.0018722678069025278,-2.502187649408976,1.2416402101516724,-0.0008506413238743941,0.00025112833827733994,-35.363260233333335,149.16523456666664,229475.0,-17.333333333333332,22.333333333333332,87.33333333333333,-0.3333333333333333,72.66666666666667,-977.3333333333334,1248.3333333333333,2.3333333333333335,3.6666666666666665,RTL
02:58:57,88285.0,0.003167493598690877,-0.004972243681550026,-2.501587708791097,0.5586580236752828,-0.002124783815816045,-6.528773034612338e-05,-35.363260700000005,149.1652355,227475.0,-17.0,22.333333333333332,100.33333333333333,-2.6666666666666665,-8.333333333333334,-986.0,562.3333333333334,1.3333333333333333,3.3333333333333335,RTL
02:58:59,88285.0,0.010550623449186483,-0.0028240142855793238,-2.502290725708008,-0.43581698338190716,-0.00038968934677541256,-0.0015419619934012492,-35.3632621,149.16523776666668,225389.0,-6.0,5.0,99.33333333333333,0.0,-51.0,-1007.3333333333334,-431.6666666666667,2.6666666666666665,2.0,RTL
02:59:00,69473.0,-0.02162312902510166,0.0015986954870944221,-2.5024916330973306,-1.4112372795740764,0.0028288562316447496,-0.005018461495637894,-35.36326209999999,149.1652373,224116.33333333334,-3.6666666666666665,1.6666666666666667,98.33333333333333,1.3333333333333333,-70.0,-1000.0,-1406.0,6.0,-1.0,RTL
02:59:01,69473.0,-0.03371858969330788,0.0021717453685899577,-2.50323486328125,-1.261881709098816,0.0003628483197341363,-0.004447815862173836,-35.3632617,149.1652365,223351.33333333334,-4.333333333333333,4.0,98.33333333333333,2.6666666666666665,-47.0,-1013.6666666666666,-1255.6666666666667,4.0,-0.3333333333333333,RTL
02:59:03,268801.0,-0.03887677316864332,-0.002422729584698876,-2.5024290084838867,-0.6644347409407297,-0.004696356598287821,0.005686970427632332,-35.36326063333333,149.165235,221318.66666666666,-13.0,19.0,96.66666666666667,-0.3333333333333333,5.666666666666667,-992.6666666666666,-657.3333333333334,-0.6666666666666666,9.0,RTL
02:59:05,268801.0,-0.02381394679347674,-0.0058427380087474985,-2.502082109451294,-0.6687137484550476,0.003993833049510916,-0.006800960438946883,-35.363260933333336,149.16523603333334,219193.66666666666,-13.666666666666666,17.666666666666668,102.66666666666667,-3.3333333333333335,12.0,-1004.3333333333334,-662.0,7.333333333333333,-2.6666666666666665,RTL
02:59:06,28969.0,-0.0002652897189060847,-0.006661830314745505,-2.5019993782043457,-0.0579947903752327,0.0009093598152200381,-0.004373428722222646,-35.36326186666667,149.16523763333333,217925.33333333334,-7.333333333333333,8.0,97.66666666666667,-4.0,35.333333333333336,-1023.0,-51.666666666666664,4.333333333333333,-0.3333333333333333,RTL
02:59:07,28969.0,0.02979056475063165,-0.006027457149078448,-2.5022877057393393,1.158036470413208,-0.003385447897017002,-5.3438047568003334e-05,-35.363262633333335,149.1652388,217232.33333333334,-1.0,-1.0,85.66666666666667,-2.6666666666666665,71.0,-997.0,1163.6666666666667,0.0,3.0,RTL
02:59:09,112421.0,0.04019359375039736,-0.004405513561020295,-2.5022189617156982,0.11315032218893369,0.00021652826884140572,0.0010129408910870552,-35.3632641,149.1652409666667,215238.33333333334,12.333333333333334,-19.666666666666668,99.66666666666667,-0.6666666666666666,-32.0,-986.6666666666666,116.66666666666667,3.3333333333333335,4.333333333333333,RTL
02:59:11,112421.0,0.013731776309820512,0.0030367697278658548,-2.502952814102173,-0.6237299690643946,0.0014309354592114687,-0.003022553709646066,-35.363264,149.16524046666666,213105.33333333334,18.0,-28.666666666666668,101.66666666666667,4.0,-60.333333333333336,-1002.0,-619.3333333333334,4.666666666666667,0.3333333333333333,RTL
02:59:12,290693.0,-0.03133527313669523,0.003992364974692464,-2.5022830168406167,-1.456147273381551,-0.0023734504356980324,-0.004644901879752676,-35.363262633333335,149.16523793333332,211821.33333333334,9.0,-13.666666666666666,99.66666666666667,3.6666666666666665,-70.66666666666667,-997.3333333333334,-1450.3333333333333,0.6666666666666666,-0.6666666666666666,RTL
02:59:13,290693.0,-0.035384600361188255,0.0027796581077078977,-2.5022531350453696,-0.9017744064331055,0.00021345711623628935,0.0005190692221124967,-35.3632619,149.16523676666668,211124.33333333334,2.3333333333333335,-2.6666666666666665,84.66666666666667,3.0,-15.0,-980.6666666666666,-894.6666666666666,3.3333333333333335,4.0,RTL
02:59:15,5109.0,-0.008231259106347958,-0.0022679839360838137,-2.5017760594685874,1.2033122777938843,-0.00016975309699773788,0.000463342759758234,-35.36326086666667,149.1652356333333,209137.66666666666,-8.0,12.0,100.66666666666667,-0.3333333333333333,76.0,-1010.6666666666666,1210.0,3.3333333333333335,3.6666666666666665,RTL
02:59:17,5109.0,0.029622681438922882,-0.0079169695576032,-2.5014912287394204,1.1095093290011089,0.0014139863196760416,0.0023701137397438288,-35.36326183333333,149.16523763333336,207032.33333333334,-6.666666666666667,8.666666666666666,99.33333333333333,-5.666666666666667,32.666666666666664,-994.3333333333334,1114.0,4.666666666666667,5.333333333333333,RTL
02:59:18,231432.0,0.04763772586981455,-0.007072770191977422,-2.5023950735727944,-0.0972241951773564,0.007483853337665399,0.01387222770911952,-35.3632636,149.16524043333334,205759.66666666666,5.0,-10.0,100.33333333333333,-4.0,-34.666666666666664,-1000.6666666666666,-93.0,10.666666666666666,16.666666666666668,RTL
02:59:19,231432.0,0.04115252693494161,-0.0046830518792072935,-2.5024526119232178,-0.5986685951550802,0.001116477573911349,-0.000719152158126235,-35.363264433333335,149.16524163333335,205024.0,13.333333333333334,-21.666666666666668,93.0,-2.3333333333333335,-50.666666666666664,-1010.6666666666666,-594.0,4.333333333333333,2.6666666666666665,RTL
02:59:21,248519.0,-0.0006228212732821703,0.0033221214544028044,-2.5028793811798096,-1.462186614672343,0.0004904719535261393,-0.008883316069841385,-35.36326436666667,149.16524086666666,203018.66666666666,21.333333333333332,-32.333333333333336,102.33333333333333,4.333333333333333,-78.66666666666667,-988.0,-1456.0,3.6666666666666665,-5.333333333333333,RTL
02:59:23,248519.0,-0.037140210469563804,0.0009924681507982314,-2.5017444292704263,-1.4823406140009563,-0.006913656989733378,-0.00036555423866957426,-35.36326196666667,149.16523716666666,200850.0,4.666666666666667,-7.333333333333333,101.33333333333333,3.6666666666666665,-55.666666666666664,-1013.3333333333334,-1475.3333333333333,-3.0,3.0,RTL
02:59:24,192170.0,-0.022917728250225384,-0.003890781430527568,-2.501519282658895,-0.5801741083463033,0.000406450591981411,-0.001432474081714948,-35.3632614,149.1652367,199575.66666666666,-3.3333333333333335,4.0,99.33333333333333,0.0,10.0,-993.0,-571.3333333333334,3.3333333333333335,2.0,RTL
02:59:25,192170.0,-0.002053213616212209,-0.004185253909478585,-2.5015987555185952,0.6964031557242075,0.00026024330873042345,-0.0019708670830974975,-35.363261466666664,149.16523696666667,198860.66666666666,-4.0,3.6666666666666665,87.66666666666667,-0.6666666666666666,60.0,-999.6666666666666,704.6666666666666,3.0,1.3333333333333333,RTL
02:59:27,52820.0,0.03807608783245087,-0.005772348493337631,-2.5018858114878335,1.3710298538208008,0.003614650263140599,-0.0012725923831264179,-35.3632625,149.16523886666667,196867.0,-0.3333333333333333,-3.0,101.0,-2.0,50.666666666666664,-1027.3333333333333,1377.6666666666667,7.0,1.3333333333333333,RTL
02:59:29,52820.0,0.04380818953116735,-0.0035645555860052505,-2.5018293062845864,1.3647894859313965,0.0004124112892895937,-0.002803083664427201,-35.36326350000001,149.16524009999998,194732.33333333334,9.333333333333334,-16.0,98.0,-1.3333333333333333,46.0,-1026.6666666666667,1371.6666666666667,3.0,0.3333333333333333,RTL
02:59:30,195760.0,0.03841919079422951,-0.0006923208081085855,-2.502053658167521,0.32095957299073535,0.0019416279004265864,-0.00042386554802457493,-35.363264,149.16524056666665,193466.33333333334,14.0,-22.333333333333332,102.33333333333333,1.0,-25.0,-983.6666666666666,326.3333333333333,5.0,2.6666666666666665,RTL
