time_stamp,MODE,lat,lon,relative_alt,roll,pitch,yaw,rollspeed,pitchspeed,yawspeed,xacc,yacc,zacc,xgyro,ygyro,zgyro,vx,vy,vz,RTL_ALT
13:30:36.526,STABILIZE,-35.3632621,149.1652375,0,-0.000979590113274753,0.0009333260240964592,0.024142436683177948,0.00021908897906541824,0.00019860919564962387,0.0017723069759085774,0,1,-1000,0,0,0,-1,1,0,1500.0
13:30:36.727,STABILIZE,-35.3632621,149.1652375,0,-0.000979590113274753,0.0009333260240964592,0.024142436683177948,0.00021908897906541824,0.00019860919564962387,0.0017723069759085774,0,1,-1000,0,0,0,-1,1,0,1500.0
13:30:36.928,STABILIZE,-35.3632621,149.1652375,0,-0.0010146143613383174,0.0009320934186689556,0.024071455001831055,0.00016768020577728748,0.0001498265191912651,0.001808373723179102,0,1,-1000,1,0,0,-1,1,0,1500.0
13:30:37.129,STABILIZE,-35.3632621,149.1652375,0,-0.0008896305225789547,0.0009363413555547595,0.023996222764253616,0.003884904785081744,0.00017939944518730044,0.0019328857306391,0,-28,-1046,4,0,1,-1,0,0,1500.0
13:30:37.330,STABILIZE,-35.3632621,149.1652375,0,-0.0008896305225789547,0.0009363413555547595,0.023996222764253616,0.003884904785081744,0.00017939944518730044,0.0019328857306391,0,-28,-1046,4,0,1,-1,0,0,1500.0
13:30:37.532,STABILIZE,-35.3632621,149.1652375,0,-0.0008896305225789547,0.0009363413555547595,0.023996222764253616,0.003884904785081744,0.00017939944518730044,0.0019328857306391,0,-28,-1046,4,0,1,-1,0,0,1500.0
13:30:37.733,STABILIZE,-35.3632621,149.1652375,0,-0.0008896305225789547,0.0009363413555547595,0.023996222764253616,0.003884904785081744,0.00017939944518730044,0.0019328857306391,0,-28,-1046,4,0,1,-1,0,0,1500.0
13:30:37.935,STABILIZE,-35.3632621,149.1652375,0,-0.0008897832012735307,0.0009457046398892999,0.023751499131321907,0.00017622776795178652,0.0002007003640756011,0.0016627346631139517,0,1,-1000,0,1,0,-1,0,0,1500.0
13:30:38.136,STABILIZE,-35.3632621,149.1652375,0,-0.0008897832012735307,0.0009457046398892999,0.023751499131321907,0.00017622776795178652,0.0002007003640756011,0.0016627346631139517,0,1,-1000,0,1,0,-1,0,0,1500.0
13:30:38.337,STABILIZE,-35.3632621,149.1652375,0,-0.0008897832012735307,0.0009457046398892999,0.023751499131321907,0.00017622776795178652,0.0002007003640756011,0.0016627346631139517,0,1,-1000,0,1,0,-1,0,0,1500.0
13:30:38.538,STABILIZE,-35.3632621,149.1652375,0,-0.0008643901674076915,0.0009492905810475349,0.02353099174797535,0.0001300566946156323,0.00014493451453745365,0.0016774523537606,0,1,-1000,0,0,0,-1,0,0,1500.0
13:30:38.739,STABILIZE,-35.3632621,149.1652375,0,-0.0008643901674076915,0.0009492905810475349,0.02353099174797535,0.0001300566946156323,0.00014493451453745365,0.0016774523537606,0,1,-1000,0,0,0,-1,0,0,1500.0
13:30:38.940,STABILIZE,-35.3632621,149.1652375,0,-0.0008643901674076915,0.0009492905810475349,0.02353099174797535,0.0001300566946156323,0.00014493451453745365,0.0016774523537606,0,1,-1000,0,0,0,-1,0,0,1500.0
13:30:39.142,STABILIZE,-35.3632621,149.1652375,0,-0.0008704277570359409,0.0009633094887249172,0.023361792787909508,0.00022326124599203467,0.0002488045138306916,0.0016783487517386675,0,2,-1000,0,1,0,-1,0,0,1500.0
13:30:39.343,STABILIZE,-35.3632621,149.1652375,0,-0.0008704277570359409,0.0009633094887249172,0.023361792787909508,0.00022326124599203467,0.0002488045138306916,0.0016783487517386675,0,2,-1000,0,1,0,-1,0,0,1500.0
13:30:39.544,STABILIZE,-35.3632621,149.1652375,0,-0.0008704277570359409,0.0009633094887249172,0.023361792787909508,0.00022326124599203467,0.0002488045138306916,0.0016783487517386675,0,2,-1000,0,1,0,-1,0,0,1500.0
13:30:39.745,STABILIZE,-35.3632621,149.1652375,0,-0.0008704277570359409,0.0009633094887249172,0.023361792787909508,0.00022326124599203467,0.0002488045138306916,0.0016783487517386675,0,2,-1000,0,1,0,-1,0,0,1500.0
13:30:39.947,STABILIZE,-35.3632621,149.1652375,0,-0.0008704277570359409,0.0009633094887249172,0.023361792787909508,0.00022326124599203467,0.0002488045138306916,0.0016783487517386675,0,2,-1000,0,1,0,-1,0,0,1500.0
13:30:40.148,STABILIZE,-35.3632622,149.1652375,0,-0.0008947841124609113,0.0009723972762003541,0.023067522794008255,0.00012817984679713845,0.000288484210614115,0.0017812666483223438,0,2,-1000,1,0,1,-1,1,0,1500.0
13:30:40.349,STABILIZE,-35.3632622,149.1652375,0,-0.0008947841124609113,0.0009723972762003541,0.023067522794008255,0.00012817984679713845,0.000288484210614115,0.0017812666483223438,0,2,-1000,1,0,1,-1,1,0,1500.0
13:30:40.550,STABILIZE,-35.3632622,149.1652375,0,-0.000745548983104527,0.0009701591334305704,0.022915340960025787,-6.413512164726853e-05,0.0003131590783596039,0.001683390699326992,0,8,-990,0,0,0,-1,2,0,1500.0
13:30:40.751,STABILIZE,-35.3632622,149.1652375,0,-0.000745548983104527,0.0009701591334305704,0.022915340960025787,-6.413512164726853e-05,0.0003131590783596039,0.001683390699326992,0,8,-990,0,0,0,-1,2,0,1500.0
13:30:40.952,STABILIZE,-35.3632622,149.1652375,0,-0.000745548983104527,0.0009701591334305704,0.022915340960025787,-6.413512164726853e-05,0.0003131590783596039,0.001683390699326992,0,8,-990,0,0,0,-1,2,0,1500.0
13:30:41.153,STABILIZE,-35.3632622,149.1652375,0,-0.0007957285270094872,0.0009705993579700589,0.02277497760951519,0.00010122271487489343,0.00025237473892048,0.0017184955067932606,0,1,-1000,0,0,0,-1,2,0,1500.0
13:30:41.354,STABILIZE,-35.3632622,149.1652375,0,-0.0007957285270094872,0.0009705993579700589,0.02277497760951519,0.00010122271487489343,0.00025237473892048,0.0017184955067932606,0,1,-1000,0,0,0,-1,2,0,1500.0
13:30:41.556,STABILIZE,-35.3632622,149.1652375,0,-0.0007957285270094872,0.0009705993579700589,0.02277497760951519,0.00010122271487489343,0.00025237473892048,0.0017184955067932606,0,1,-1000,0,0,0,-1,2,0,1500.0
13:30:41.757,STABILIZE,-35.3632622,149.1652375,0,-0.0007957285270094872,0.0009705993579700589,0.02277497760951519,0.00010122271487489343,0.00025237473892048,0.0017184955067932606,0,1,-1000,0,0,0,-1,2,0,1500.0
13:30:41.958,STABILIZE,-35.3632622,149.1652375,0,-0.0009089070372283459,0.0009620284545235336,0.022576680406928062,0.00019374012481421232,0.0003064010525122285,0.001720324857160449,0,2,-1000,0,0,0,-1,1,0,1500.0
13:30:42.159,STABILIZE,-35.3632622,149.1652375,0,-0.0009089070372283459,0.0009620284545235336,0.022576680406928062,0.00019374012481421232,0.0003064010525122285,0.001720324857160449,0,1,-1000,0,1,0,-1,1,0,1500.0
13:30:42.361,STABILIZE,-35.3632622,149.1652375,0,-0.000983480829745531,0.0009520665626041591,0.022434387356042862,0.0003348354948684573,9.950727690011263e-05,0.0014917879598215222,0,2,-1000,0,0,0,-1,1,0,1500.0
13:30:42.562,STABILIZE,-35.3632622,149.1652375,0,-0.0010082048829644918,0.0009562960476614535,0.022374043241143227,0.00016280164709314704,0.0002889138413593173,0.0016853928100317717,0,2,-1000,0,0,0,-1,1,0,1500.0
13:30:42.763,STABILIZE,-35.3632622,149.1652375,0,-0.0010336543200537562,0.0009523765766061842,0.022312084212899208,0.0001807023654691875,0.00021211057901382446,0.0016503464430570602,0,2,-1000,0,0,0,-1,1,0,1500.0
13:30:42.964,STABILIZE,-35.3632622,149.1652375,0,-0.0010336543200537562,0.0009523765766061842,0.022312084212899208,0.0001807023654691875,0.00021211057901382446,0.0016503464430570602,0,2,-1000,0,0,0,-1,1,0,1500.0
13:30:43.166,STABILIZE,-35.3632622,149.1652375,0,-0.0010336543200537562,0.0009523765766061842,0.022312084212899208,0.0001807023654691875,0.00021211057901382446,0.0016503464430570602,0,2,-1000,0,0,0,-1,1,0,1500.0
13:30:43.367,STABILIZE,-35.3632622,149.1652375,0,-0.0010336543200537562,0.0009523765766061842,0.022312084212899208,0.0001807023654691875,0.00021211057901382446,0.0016503464430570602,0,2,-1000,0,0,0,-1,1,0,1500.0
13:30:43.571,STABILIZE,-35.3632622,149.1652375,0,-0.0010336543200537562,0.0009523765766061842,0.022312084212899208,0.0001807023654691875,0.00021211057901382446,0.0016503464430570602,0,2,-1000,0,0,0,-1,1,0,1500.0
13:30:43.773,STABILIZE,-35.3632622,149.1652375,0,-0.0010336543200537562,0.0009523765766061842,0.022312084212899208,0.0001807023654691875,0.00021211057901382446,0.0016503464430570602,0,2,-1000,0,0,0,-1,1,0,1500.0
13:30:43.974,STABILIZE,-35.3632622,149.1652375,0,-0.0010336543200537562,0.0009523765766061842,0.022312084212899208,0.0001807023654691875,0.00021211057901382446,0.0016503464430570602,0,2,-1000,0,0,0,-1,1,0,1500.0
13:30:44.176,STABILIZE,-35.3632622,149.1652375,0,-0.0008170451619662344,0.000982622615993023,0.022014368325471878,0.0002694885479286313,0.000248026626650244,0.0015304733533412218,0,0,-1003,0,0,0,-1,2,2,1500.0
13:30:44.377,STABILIZE,-35.3632622,149.1652375,0,-0.0008170451619662344,0.000982622615993023,0.022014368325471878,0.0002694885479286313,0.000248026626650244,0.0015304733533412218,0,0,-1003,0,0,0,-1,2,2,1500.0
13:30:44.578,STABILIZE,-35.3632622,149.1652375,0,-0.0008170451619662344,0.000982622615993023,0.022014368325471878,0.0002694885479286313,0.000248026626650244,0.0015304733533412218,0,0,-1003,0,0,0,-1,2,2,1500.0
13:30:44.779,STABILIZE,-35.3632622,149.1652375,0,-0.0008170451619662344,0.000982622615993023,0.022014368325471878,0.0002694885479286313,0.000248026626650244,0.0015304733533412218,0,0,-1003,0,0,0,-1,2,2,1500.0
13:30:44.980,STABILIZE,-35.3632622,149.1652375,0,-0.0008170451619662344,0.000982622615993023,0.022014368325471878,0.0002694885479286313,0.000248026626650244,0.0015304733533412218,0,0,-1003,0,0,0,-1,2,2,1500.0
13:30:45.182,STABILIZE,-35.3632622,149.1652375,0,-0.0008170451619662344,0.000982622615993023,0.022014368325471878,0.0002694885479286313,0.000248026626650244,0.0015304733533412218,0,0,-1003,0,0,0,-1,2,2,1500.0
13:30:45.383,STABILIZE,-35.3632622,149.1652375,0,-0.0008170451619662344,0.000982622615993023,0.022014368325471878,0.0002694885479286313,0.000248026626650244,0.0015304733533412218,0,0,-1003,0,0,0,-1,2,2,1500.0
13:30:45.584,STABILIZE,-35.3632622,149.1652375,0,-0.0008170451619662344,0.000982622615993023,0.022014368325471878,0.0002694885479286313,0.000248026626650244,0.0015304733533412218,0,0,-1003,0,0,0,-1,2,2,1500.0
13:30:45.785,STABILIZE,-35.3632622,149.1652375,0,-0.0008170451619662344,0.000982622615993023,0.022014368325471878,0.0002694885479286313,0.000248026626650244,0.0015304733533412218,0,0,-1003,0,0,0,-1,1,1,1500.0
13:30:45.986,STABILIZE,-35.3632622,149.1652375,0,-0.0008170451619662344,0.000982622615993023,0.022014368325471878,0.0002694885479286313,0.000248026626650244,0.0015304733533412218,0,0,-1003,0,0,0,-1,1,1,1500.0
13:30:46.187,STABILIZE,-35.3632622,149.1652375,0,-0.0011771919671446085,0.0010002885246649384,0.021596472710371017,0.00029643316520377994,0.00023835658794268966,0.0014579324051737785,0,1,-1000,1,1,0,-1,1,1,1500.0
13:30:46.388,STABILIZE,-35.3632622,149.1652375,0,-0.0012175814481452107,0.0009963735938072205,0.021538836881518364,0.00016398105071857572,0.0003232587478123605,0.0014512912603095174,0,2,-1000,0,0,0,-1,1,1,1500.0
13:30:46.590,STABILIZE,-35.3632622,149.1652375,0,-0.0012364399153739214,0.0009986850200220942,0.021485431119799614,0.0003933949046768248,0.000324857363011688,0.0013511949218809605,0,1,-1000,0,1,0,-1,1,1,1500.0
13:30:46.791,STABILIZE,-35.3632622,149.1652375,0,-0.0012364399153739214,0.0009986850200220942,0.021485431119799614,0.0003933949046768248,0.000324857363011688,0.0013511949218809605,0,1,-1000,0,1,0,-1,1,1,1500.0
13:30:46.993,STABILIZE,-35.3632622,149.1652375,0,-0.0012364399153739214,0.0009986850200220942,0.021485431119799614,0.0003933949046768248,0.000324857363011688,0.0013511949218809605,0,1,-1000,0,1,0,-1,1,1,1500.0
13:30:47.194,STABILIZE,-35.3632622,149.1652375,0,-0.0012364399153739214,0.0009986850200220942,0.021485431119799614,0.0003933949046768248,0.000324857363011688,0.0013511949218809605,0,2,-1000,0,0,0,-1,1,0,1500.0
13:30:47.396,STABILIZE,-35.3632622,149.1652375,0,-0.0012364399153739214,0.0009986850200220942,0.021485431119799614,0.0003933949046768248,0.000324857363011688,0.0013511949218809605,0,2,-1000,0,0,0,-1,1,0,1500.0
13:30:47.598,STABILIZE,-35.3632622,149.1652375,0,-0.0012364399153739214,0.0009986850200220942,0.021485431119799614,0.0003933949046768248,0.000324857363011688,0.0013511949218809605,0,2,-1000,0,0,0,-1,1,0,1500.0
13:30:47.799,STABILIZE,-35.3632622,149.1652375,0,-0.0012364399153739214,0.0009986850200220942,0.021485431119799614,0.0003933949046768248,0.000324857363011688,0.0013511949218809605,0,2,-1000,0,0,0,-1,1,0,1500.0
13:30:48.001,STABILIZE,-35.3632622,149.1652375,0,-0.0012364399153739214,0.0009986850200220942,0.021485431119799614,0.0003933949046768248,0.000324857363011688,0.0013511949218809605,0,2,-1000,0,0,0,-1,1,0,1500.0
13:30:48.202,STABILIZE,-35.3632622,149.1652375,0,-0.0010534116299822927,0.0009703709511086345,0.02124701254069805,0.0001856654998846352,0.0002456223010085523,0.0013047840911895037,0,2,-1000,0,0,0,-1,1,0,1500.0
13:30:48.404,STABILIZE,-35.3632622,149.1652375,0,-0.0010534116299822927,0.0009703709511086345,0.02124701254069805,0.0001856654998846352,0.0002456223010085523,0.0013047840911895037,0,2,-1000,0,0,0,-1,1,0,1500.0
13:30:48.606,STABILIZE,-35.3632622,149.1652375,0,-0.0010534116299822927,0.0009703709511086345,0.02124701254069805,0.0001856654998846352,0.0002456223010085523,0.0013047840911895037,0,2,-1000,0,0,0,-1,1,0,1500.0
13:30:48.807,STABILIZE,-35.3632622,149.1652375,0,-0.001165551831945777,0.0009709350415505469,0.021139098331332207,0.00017070869216695428,0.00025842449394986033,0.0014809832209721208,0,2,-1000,0,0,0,-1,1,1,1500.0
13:30:49.008,STABILIZE,-35.3632622,149.1652375,0,-0.001165551831945777,0.0009709350415505469,0.021139098331332207,0.00017070869216695428,0.00025842449394986033,0.0014809832209721208,0,2,-1000,0,0,0,-1,1,1,1500.0
13:30:49.209,STABILIZE,-35.3632622,149.1652375,0,-0.0011837522033602,0.0009752355981618166,0.02109401300549507,0.0003480628365650773,0.00025296048261225224,0.0014332437422126532,0,2,-1000,1,0,0,-1,1,1,1500.0
13:30:49.411,AUTO,-35.3632622,149.1652375,0,-0.0011837522033602,0.0009752355981618166,0.02109401300549507,0.0003480628365650773,0.00025296048261225224,0.0014332437422126532,0,2,-1000,1,0,0,-1,1,1,1500.0
13:30:49.615,AUTO,-35.3632622,149.1652375,0,-0.0011837522033602,0.0009752355981618166,0.02109401300549507,0.0003480628365650773,0.00025296048261225224,0.0014332437422126532,0,2,-1000,1,0,0,-1,1,1,18569.0
13:30:49.816,AUTO,-35.3632622,149.1652375,9,-0.0012185126543045044,0.0009703096002340317,0.02101024240255356,0.00037668191362172365,0.00030372722540050745,0.0013646631268784404,0,1,-1000,1,1,0,-1,1,0,18569.0
13:30:50.018,AUTO,-35.3632622,149.1652375,9,-0.001218777266331017,0.0009796736994758248,0.020962374284863472,0.00024332822067663074,0.00026612449437379837,0.0014188130153343081,0,1,-1000,0,1,1,-1,0,0,18569.0
13:30:50.219,AUTO,-35.3632622,149.1652375,9,-0.001218777266331017,0.0009796736994758248,0.020962374284863472,0.00024332822067663074,0.00026612449437379837,0.0014188130153343081,0,1,-1000,0,1,1,-1,0,0,18569.0
13:30:50.421,AUTO,-35.3632621,149.1652375,9,-0.001223372877575457,0.0009982438059523702,0.020928962156176567,0.00018134713172912598,0.00031807197956368327,0.001296965405344963,0,2,-1000,1,1,0,0,0,0,18569.0
13:30:50.622,AUTO,-35.3632621,149.1652375,10,-0.0012096813879907131,0.0010384642519056797,0.020895149558782578,0.0003244972904212773,0.00026442843955010176,0.001355519751086831,0,2,-1000,0,0,1,0,0,0,18569.0
13:30:50.824,AUTO,-35.3632621,149.1652375,10,-0.0011751846177503467,0.0010857143206521869,0.020861338824033737,0.00022227561566978693,0.0002851756289601326,0.0012775983195751905,0,2,-1000,1,1,1,0,0,0,18569.0
13:30:51.026,AUTO,-35.3632621,149.1652375,8,-0.0009798319078981876,0.0011450436431914568,0.020825644955039024,0.00028862367616966367,0.0003226115368306637,0.0013204111019149423,0,1,-1000,0,1,0,0,0,1,18569.0
13:30:51.228,AUTO,-35.3632621,149.1652375,8,-0.0009798319078981876,0.0011450436431914568,0.020825644955039024,0.00028862367616966367,0.0003226115368306637,0.0013204111019149423,0,1,-1000,0,1,0,0,0,1,18569.0
13:30:51.429,AUTO,-35.3632621,149.1652375,8,-0.0009798319078981876,0.0011450436431914568,0.020825644955039024,0.00028862367616966367,0.0003226115368306637,0.0013204111019149423,0,1,-1000,0,1,0,0,0,1,18569.0
13:30:51.631,AUTO,-35.3632621,149.1652375,8,-0.0009798319078981876,0.0011450436431914568,0.020825644955039024,0.00028862367616966367,0.0003226115368306637,0.0013204111019149423,0,1,-1000,0,1,0,0,0,1,18569.0
13:30:51.832,AUTO,-35.3632621,149.1652375,6,-0.0008542158757336438,0.0013534169411286712,0.020703522488474846,0.00029936630744487047,0.00022213772172108293,0.0013615264324471354,0,2,-1000,0,1,0,0,0,1,18569.0
13:30:52.034,AUTO,-35.3632621,149.1652375,7,-0.0008006806601770222,0.0014278666349127889,0.020655369386076927,0.00033300818176940084,0.00033495837124064565,0.0013131668092682958,0,1,-1000,1,0,1,0,0,0,18569.0
13:30:52.235,AUTO,-35.3632621,149.1652375,7,-0.0008006806601770222,0.0014278666349127889,0.020655369386076927,0.00033300818176940084,0.00033495837124064565,0.0013131668092682958,0,1,-1000,1,0,1,0,0,0,18569.0
13:30:52.437,AUTO,-35.3632621,149.1652375,7,-0.0007480659987777472,0.001496247248724103,0.02060905657708645,0.0002104319864884019,0.0003959030145779252,0.0012977860169485211,0,1,-1000,0,0,0,0,0,0,122325.0
13:30:52.638,AUTO,-35.3632621,149.1652374,8,-0.0006929193623363972,0.001570783439092338,0.020562464371323586,0.00026695948326960206,0.00034551089629530907,0.0012612235732376575,0,1,-1000,1,1,0,0,0,0,122325.0
13:30:52.840,AUTO,-35.3632621,149.1652374,8,-0.000636435579508543,0.0016520044300705194,0.020517120137810707,0.0002872788463719189,0.00037465780042111874,0.001392135862261057,0,2,-1000,1,1,0,0,0,0,122325.0
13:30:53.042,AUTO,-35.3632621,149.1652374,9,-0.0005722189089283347,0.001729580108076334,0.020466135814785957,0.0003378422698006034,0.00029293569969013333,0.0012436333345249295,0,1,-1000,1,0,1,0,0,0,122325.0
13:30:53.243,AUTO,-35.3632621,149.1652374,9,-0.0005722189089283347,0.001729580108076334,0.020466135814785957,0.0003378422698006034,0.00029293569969013333,0.0012436333345249295,0,1,-1000,1,0,1,0,0,0,122325.0
13:30:53.445,AUTO,-35.3632621,149.1652374,9,-0.0005722189089283347,0.001729580108076334,0.020466135814785957,0.0003378422698006034,0.00029293569969013333,0.0012436333345249295,0,1,-1000,1,0,1,0,0,0,122325.0
13:30:53.647,AUTO,-35.3632621,149.1652374,9,-0.0005722189089283347,0.001729580108076334,0.020466135814785957,0.0003378422698006034,0.00029293569969013333,0.0012436333345249295,0,1,-1000,1,0,1,0,0,0,122325.0
13:30:53.849,AUTO,-35.3632621,149.1652375,224,0.003595127025619149,0.000327404064591974,0.02018158510327339,0.006018098443746567,0.0044029755517840385,0.0013719829730689526,0,0,-1131,6,5,0,0,1,-76,122325.0
13:30:54.050,AUTO,-35.3632621,149.1652375,455,0.0017636067932471633,0.0012924418551847339,0.02026941068470478,-0.01834917441010475,0.002603481989353895,-9.534062701277435e-05,0,-1,-1106,-17,3,0,0,1,-104,122325.0
13:30:54.251,AUTO,-35.3632621,149.1652375,455,0.0017636067932471633,0.0012924418551847339,0.02026941068470478,-0.01834917441010475,0.002603481989353895,-9.534062701277435e-05,0,-1,-1106,-17,3,0,0,1,-104,122325.0
13:30:54.453,AUTO,-35.3632621,149.1652375,747,0.001617083908058703,0.0017148236511275172,0.02016441896557808,0.008931229822337627,-0.0006239105714485049,-0.00029212457593530416,0,0,-1080,9,0,0,0,1,-127,122325.0
13:30:54.654,AUTO,-35.3632621,149.1652375,1089,0.011354434303939342,0.0006975307478569448,0.01984069123864174,0.047605451196432114,-0.006248886696994305,0.001138244173489511,0,0,-1036,47,-5,0,0,2,-140,122325.0
13:30:54.856,AUTO,-35.363262,149.1652375,1458,0.023134075105190277,-0.0010717603145167232,0.019834110513329506,0.04703276604413986,-0.0072007616981863976,0.0021297764033079147,0,0,-1015,47,-6,2,1,6,-145,122325.0
13:30:55.057,AUTO,-35.363262,149.1652378,1839,0.03443038463592529,-0.0030398054514080286,0.01997673697769642,0.04460699483752251,-0.008138637989759445,0.002763924188911915,0,-1,-1006,45,-7,2,2,12,-148,122325.0
13:30:55.272,AUTO,-35.363262,149.1652378,1839,0.03443038463592529,-0.0030398054514080286,0.01997673697769642,0.04460699483752251,-0.008138637989759445,0.002763924188911915,0,-1,-1006,45,-7,2,2,12,-148,122325.0
13:30:55.478,AUTO,-35.363262,149.1652378,1839,0.03443038463592529,-0.0030398054514080286,0.01997673697769642,0.04460699483752251,-0.008138637989759445,0.002763924188911915,0,-1,-1006,45,-7,2,2,12,-148,45768.0
13:30:55.680,AUTO,-35.363262,149.1652378,1839,0.03443038463592529,-0.0030398054514080286,0.01997673697769642,0.04460699483752251,-0.008138637989759445,0.002763924188911915,0,-1,-1006,45,-7,2,2,12,-148,45768.0
13:30:55.881,AUTO,-35.3632616,149.1652399,2993,0.06106281653046608,-0.008498716168105602,-0.0091444943100214,-0.020357517525553703,0.02958056703209877,-0.04843823239207268,1,-9,-992,-19,30,-48,8,43,-148,45768.0
13:30:56.083,AUTO,-35.3632613,149.1652412,3374,0.03856661915779114,0.014577368274331093,-0.03272548317909241,-0.14806035161018372,0.09731891751289368,-0.10512560606002808,3,-11,-991,-147,98,-105,10,53,-146,45768.0
13:30:56.285,AUTO,-35.3632611,149.1652426,3748,-0.006641584448516369,0.024329492822289467,-0.052854686975479126,-0.18477708101272583,-0.003487842623144388,-0.06964351236820221,2,-9,-999,-183,-2,-69,6,53,-145,45768.0
13:30:56.487,AUTO,-35.3632611,149.1652426,3748,-0.006641584448516369,0.024329492822289467,-0.052854686975479126,-0.18477708101272583,-0.003487842623144388,-0.06964351236820221,2,-9,-999,-183,-2,-69,6,53,-145,45768.0
13:30:56.689,AUTO,-35.363261,149.1652439,4125,-0.050002191215753555,0.01736593060195446,-0.06613100320100784,-0.15219345688819885,-0.027215421199798584,-0.05235296115279198,5,-11,-1009,-151,-26,-52,3,42,-146,45768.0
13:30:56.891,AUTO,-35.3632609,149.1652448,4505,-0.0769493505358696,0.01039279904216528,-0.07604079693555832,-0.07131356000900269,-0.01898498646914959,-0.04276559129357338,4,-7,-1010,-70,-18,-43,0,24,-148,45768.0
13:30:57.093,AUTO,-35.3632609,149.1652452,4893,-0.08412913978099823,0.005620518699288368,-0.08429033309221268,0.003403694136068225,-0.013801868073642254,-0.032306309789419174,2,-3,-1007,3,-12,-32,-1,2,-150,45768.0
13:30:57.295,AUTO,-35.3632609,149.1652452,4893,-0.08412913978099823,0.005620518699288368,-0.08429033309221268,0.003403694136068225,-0.013801868073642254,-0.032306309789419174,2,-3,-1007,3,-12,-32,-1,2,-150,45768.0
13:30:57.497,AUTO,-35.3632609,149.1652452,4893,-0.08412913978099823,0.005620518699288368,-0.08429033309221268,0.003403694136068225,-0.013801868073642254,-0.032306309789419174,2,-3,-1007,3,-12,-32,-1,2,-150,45768.0
13:30:57.699,AUTO,-35.3632609,149.1652452,4893,-0.08412913978099823,0.005620518699288368,-0.08429033309221268,0.003403694136068225,-0.013801868073642254,-0.032306309789419174,2,-3,-1007,3,-12,-32,-1,2,-150,45768.0
13:30:57.901,AUTO,-35.3632611,149.1652433,6046,-0.04956117272377014,0.00038886599941179156,-0.09994906187057495,0.0594334602355957,0.0024265493266284466,-0.009690058417618275,-4,9,-1000,60,3,-9,-7,-46,-150,45768.0
13:30:58.103,AUTO,-35.3632613,149.1652419,6430,-0.03411857411265373,0.001488960231654346,-0.10216139256954193,0.06444936245679855,0.006862235255539417,-0.0058159371837973595,-4,11,-1001,65,7,-5,-9,-55,-150,45768.0
13:30:58.305,AUTO,-35.3632615,149.1652403,6816,-0.017891619354486465,0.00345391733571887,-0.1034260243177414,0.06645429879426956,0.008438151329755783,-0.0024068509228527546,-5,11,-1002,67,9,-2,-11,-58,-150,45768.0
13:30:58.507,AUTO,-35.3632615,149.1652403,6816,-0.017891619354486465,0.00345391733571887,-0.1034260243177414,0.06645429879426956,0.008438151329755783,-0.0024068509228527546,-5,11,-1002,67,9,-2,-11,-58,-150,160464.0
13:30:58.710,AUTO,-35.3632618,149.1652386,7203,-0.001182800973765552,0.005745520815253258,-0.10386073589324951,0.06809378415346146,0.009017911739647388,5.0821807235479355e-05,-3,11,-1003,68,9,0,-13,-58,-151,160464.0
13:30:58.911,AUTO,-35.3632622,149.165237,7591,0.015728428959846497,0.007999910973012447,-0.10364753752946854,0.06737183779478073,0.007818268612027168,0.001368577592074871,-5,11,-1004,68,8,0,-15,-54,-152,160464.0
13:30:59.113,AUTO,-35.3632625,149.1652356,7982,0.03244033083319664,0.009642896242439747,-0.10287696868181229,0.06705156713724136,0.005275701638311148,0.0027975146658718586,-3,11,-1004,67,5,2,-17,-45,-153,160464.0
13:30:59.315,AUTO,-35.3632625,149.1652356,7982,0.03244033083319664,0.009642896242439747,-0.10287696868181229,0.06705156713724136,0.005275701638311148,0.0027975146658718586,-3,11,-1004,67,5,2,-17,-45,-153,160464.0
13:30:59.517,AUTO,-35.3632625,149.1652356,7982,0.03244033083319664,0.009642896242439747,-0.10287696868181229,0.06705156713724136,0.005275701638311148,0.0027975146658718586,-3,11,-1004,67,5,2,-17,-45,-153,160464.0
13:30:59.718,AUTO,-35.3632625,149.1652356,7982,0.03244033083319664,0.009642896242439747,-0.10287696868181229,0.06705156713724136,0.005275701638311148,0.0027975146658718586,-3,11,-1004,67,5,2,-17,-45,-153,160464.0
13:30:59.920,AUTO,-35.3632638,149.1652333,9160,0.060731515288352966,-0.009079291485249996,-0.08340826630592346,-0.029679864645004272,-0.09358984231948853,0.08857626467943192,1,5,-996,-28,-92,88,-18,-2,-152,160464.0
13:31:00.122,AUTO,-35.3632642,149.1652332,9549,0.05026073753833771,-0.03809136152267456,-0.05715915933251381,-0.04628945514559746,-0.11901945620775223,0.1288551390171051,3,2,-998,-45,-118,128,-10,10,-151,160464.0
13:31:00.323,AUTO,-35.3632643,149.1652336,9934,0.031074050813913345,-0.05706508085131645,-0.03682781755924225,-0.09843087941408157,-0.0035050567239522934,0.035824038088321686,1,-1,-995,-97,-2,35,3,19,-150,160464.0
13:31:00.526,AUTO,-35.363264,149.1652341,10316,0.007668243255466223,-0.044474534690380096,-0.039005402475595474,-0.08258990943431854,0.0769832506775856,-0.03748403862118721,0,-5,-1000,-81,77,-37,17,21,-149,160464.0
13:31:00.728,AUTO,-35.363264,149.1652341,10316,0.007668243255466223,-0.044474534690380096,-0.039005402475595474,-0.08258990943431854,0.0769832506775856,-0.03748403862118721,0,-5,-1000,-81,77,-37,17,21,-149,160464.0
13:31:00.930,AUTO,-35.3632637,149.1652346,10699,-0.0076433150097727776,-0.024259395897388458,-0.05417892336845398,-0.0488116554915905,0.07842148840427399,-0.07206930965185165,-2,-6,-1004,-47,78,-72,25,18,-150,160464.0
13:31:01.132,AUTO,-35.3632631,149.165235,11082,-0.01583831012248993,-0.00855955295264721,-0.07332143932580948,-0.022060072049498558,0.05361300706863403,-0.07588385790586472,-3,-6,-1004,-21,54,-76,28,12,-151,160464.0
13:31:01.334,AUTO,-35.3632631,149.165235,11082,-0.01583831012248993,-0.00855955295264721,-0.07332143932580948,-0.022060072049498558,0.05361300706863403,-0.07588385790586472,-3,-6,-1004,-21,54,-76,28,12,-151,160464.0
13:31:01.535,AUTO,-35.3632631,149.165235,11082,-0.01583831012248993,-0.00855955295264721,-0.07332143932580948,-0.022060072049498558,0.05361300706863403,-0.07588385790586472,-3,-6,-1004,-21,54,-76,28,12,-151,67523.0
13:31:01.737,AUTO,-35.3632631,149.165235,11082,-0.01583831012248993,-0.00855955295264721,-0.07332143932580948,-0.022060072049498558,0.05361300706863403,-0.07588385790586472,-3,-6,-1004,-21,54,-76,28,12,-151,67523.0
13:31:01.939,AUTO,-35.3632613,149.1652352,12246,-0.012985988520085812,0.01608332432806492,-0.12637673318386078,0.021303197368979454,0.018781865015625954,-0.0509539395570755,-5,-1,-1002,22,19,-50,20,-4,-153,67523.0
13:31:02.140,AUTO,-35.3632608,149.1652351,12636,-0.00685839494690299,0.01936461590230465,-0.1377030313014984,0.028466666117310524,0.009995034895837307,-0.03632286563515663,-5,-1,-1001,29,10,-36,15,-7,-153,67523.0
13:31:02.342,AUTO,-35.3632605,149.1652349,13027,-0.0001517835189588368,0.021229436621069908,-0.1460891216993332,0.028502369299530983,0.006846118718385696,-0.027179276570677757,-4,0,-1000,29,7,-27,9,-8,-153,67523.0
13:31:02.544,AUTO,-35.3632603,149.1652346,13419,0.005886893719434738,0.02205430530011654,-0.1518384963274002,0.023233531042933464,0.0016169000882655382,-0.016343599185347557,-3,0,-1000,23,2,-16,4,-7,-153,67523.0
13:31:02.746,AUTO,-35.3632603,149.1652346,13419,0.005886893719434738,0.02205430530011654,-0.1518384963274002,0.023233531042933464,0.0016169000882655382,-0.016343599185347557,-3,0,-1000,23,2,-16,4,-7,-153,67523.0
13:31:02.947,AUTO,-35.3632603,149.1652344,13814,0.010381260886788368,0.021039770916104317,-0.15491530299186707,0.01719273068010807,-0.00531451590359211,-0.00897454284131527,-2,0,-1000,18,-4,-9,0,-5,-153,67523.0
13:31:03.149,AUTO,-35.3632602,149.1652343,14204,0.013278856873512268,0.019057009369134903,-0.15616567432880402,0.0080981170758605,-0.009507994167506695,-0.000882238382473588,0,1,-999,8,-8,-1,-4,-1,-153,67523.0
13:31:03.351,AUTO,-35.3632602,149.1652343,14204,0.013278856873512268,0.019057009369134903,-0.15616567432880402,0.0080981170758605,-0.009507994167506695,-0.000882238382473588,0,1,-999,8,-8,-1,-4,-1,-153,67523.0
13:31:03.553,AUTO,-35.3632602,149.1652343,14204,0.013278856873512268,0.019057009369134903,-0.15616567432880402,0.0080981170758605,-0.009507994167506695,-0.000882238382473588,0,1,-999,8,-8,-1,-4,-1,-153,67523.0
13:31:03.755,AUTO,-35.3632602,149.1652343,14204,0.013278856873512268,0.019057009369134903,-0.15616567432880402,0.0080981170758605,-0.009507994167506695,-0.000882238382473588,0,1,-999,8,-8,-1,-4,-1,-153,67523.0
13:31:03.957,AUTO,-35.3632606,149.1652343,15371,0.011888060718774796,0.010424032807350159,-0.15631498396396637,-0.0098328348249197,-0.011377478949725628,-0.0008136974647641182,1,0,-999,-9,-10,0,-11,7,-153,67523.0
13:31:04.159,AUTO,-35.3632608,149.1652344,15760,0.009480045177042484,0.007565291132777929,-0.1568102091550827,-0.007826054468750954,-0.009999655187129974,-0.002183487406000495,2,0,-1000,-6,-9,-2,-11,9,-153,67523.0
13:31:04.360,AUTO,-35.3632611,149.1652346,16156,0.007092308718711138,0.005337280686944723,-0.15853148698806763,-0.006773955654352903,-0.008107820525765419,-0.009138913825154305,2,0,-1000,-5,-7,-9,-11,10,-153,67523.0
13:31:04.562,AUTO,-35.3632613,149.1652349,16545,0.004835798870772123,0.003280174918472767,-0.16099940240383148,-0.008212432265281677,-0.007454938255250454,-0.011819152161478996,3,0,-1000,-7,-6,-12,-11,11,-153,33421.0
13:31:04.764,AUTO,-35.3632613,149.1652349,16545,0.004835798870772123,0.003280174918472767,-0.16099940240383148,-0.008212432265281677,-0.007454938255250454,-0.011819152161478996,3,0,-1000,-7,-6,-12,-11,11,-153,33421.0
13:31:04.966,AUTO,-35.3632615,149.1652351,16934,0.002849750453606248,0.0013918421464040875,-0.16425743699073792,-0.008953597396612167,-0.005263918079435825,-0.014760726131498814,2,0,-1000,-8,-4,-14,-10,11,-153,33421.0
13:31:05.168,AUTO,-35.3632616,149.1652354,17324,0.001079293549992144,-2.4919980205595493e-05,-0.16829441487789154,-0.00493285758420825,-0.004382107872515917,-0.018724238499999046,2,0,-1000,-4,-3,-18,-9,10,-153,33421.0
13:31:05.374,AUTO,-35.3632616,149.1652354,17324,0.001079293549992144,-2.4919980205595493e-05,-0.16829441487789154,-0.00493285758420825,-0.004382107872515917,-0.018724238499999046,2,0,-1000,-4,-3,-18,-9,10,-153,33421.0
13:31:05.582,AUTO,-35.3632616,149.1652354,17324,0.001079293549992144,-2.4919980205595493e-05,-0.16829441487789154,-0.00493285758420825,-0.004382107872515917,-0.018724238499999046,2,0,-1000,-4,-3,-18,-9,10,-153,33421.0
13:31:05.784,AUTO,-35.363262,149.1652359,18484,-0.0010401324834674597,-0.001032325904816389,-0.18506065011024475,-9.031069930642843e-05,0.0020420323126018047,-0.025837086141109467,1,0,-1000,0,2,-25,-5,7,-153,33421.0
13:31:05.985,AUTO,-35.363262,149.1652359,18484,-0.0010401324834674597,-0.001032325904816389,-0.18506065011024475,-9.031069930642843e-05,0.0020420323126018047,-0.025837086141109467,1,0,-1000,0,2,-25,-5,7,-153,33421.0
13:31:06.187,AUTO,-35.363262,149.165236,18874,-0.0007232811767607927,-0.0005943807191215456,-0.19160960614681244,0.004107628483325243,0.003349923761561513,-0.02618778496980667,0,0,-1001,5,3,-26,-4,5,-153,33421.0
13:31:06.388,AUTO,-35.363262,149.1652361,19263,2.201010829594452e-05,-0.00025029643438756466,-0.19807298481464386,0.002923575695604086,0.000858536921441555,-0.026146117597818375,0,0,-1000,3,1,-26,-3,4,-153,33421.0
13:31:06.590,AUTO,-35.3632621,149.1652362,19652,0.00092446303460747,0.00017940047837328166,-0.20463502407073975,0.002283441834151745,0.004357179161161184,-0.028419580310583115,0,0,-1000,2,5,-28,-2,3,-153,33421.0
13:31:06.791,AUTO,-35.3632621,149.1652362,20042,0.0016565477708354592,0.0011205889750272036,-0.2113737016916275,0.0032733562402427197,0.004312645643949509,-0.028443196788430214,0,0,-1000,4,5,-28,-1,3,-153,33421.0
13:31:06.993,AUTO,-35.3632621,149.1652362,20042,0.0016565477708354592,0.0011205889750272036,-0.2113737016916275,0.0032733562402427197,0.004312645643949509,-0.028443196788430214,0,0,-1000,4,5,-28,-1,3,-153,33421.0
13:31:07.195,AUTO,-35.3632621,149.1652362,20432,0.0022043127100914717,0.0015357322990894318,-0.2175331711769104,0.002220843220129609,0.0008764539961703122,-0.024068070575594902,0,0,-1000,3,1,-23,-1,3,-153,33421.0
13:31:07.396,AUTO,-35.3632621,149.1652362,20432,0.0022043127100914717,0.0015357322990894318,-0.2175331711769104,0.002220843220129609,0.0008764539961703122,-0.024068070575594902,0,0,-1000,3,1,-23,-1,3,-153,33421.0
13:31:07.598,AUTO,-35.3632621,149.1652362,20432,0.0022043127100914717,0.0015357322990894318,-0.2175331711769104,0.002220843220129609,0.0008764539961703122,-0.024068070575594902,0,0,-1000,3,1,-23,-1,3,-153,277488.0
13:31:07.801,AUTO,-35.3632621,149.1652363,21601,0.0036078067496418953,0.0032772449776530266,-0.23576882481575012,0.0021860147826373577,0.0017080858815461397,-0.022845285013318062,0,0,-1000,2,2,-22,-1,3,-154,277488.0
13:31:08.002,AUTO,-35.3632621,149.1652363,21601,0.0036078067496418953,0.0032772449776530266,-0.23576882481575012,0.0021860147826373577,0.0017080858815461397,-0.022845285013318062,0,0,-1000,2,2,-22,-1,3,-154,277488.0
13:31:08.204,AUTO,-35.3632621,149.1652363,21991,0.0038077011704444885,0.003647355129942298,-0.24146659672260284,0.00185637385584414,0.0016654677456244826,-0.022100256755948067,0,0,-1000,2,2,-22,-1,3,-154,277488.0
13:31:08.406,AUTO,-35.3632621,149.1652364,22381,0.0036663927603513002,0.0036060637794435024,-0.24661119282245636,-0.0020550331100821495,-0.0018992847763001919,-0.017442192882299423,0,0,-999,-1,-1,-17,-1,3,-153,277488.0
13:31:08.607,AUTO,-35.3632621,149.1652364,22771,0.0033097444102168083,0.0034993700683116913,-0.2517796456813812,0.00016354513354599476,0.0013097994960844517,-0.020381923764944077,0,0,-1000,1,2,-20,-1,3,-153,277488.0
13:31:08.809,AUTO,-35.3632621,149.1652365,23159,0.0029601091518998146,0.0034877834841609,-0.2567155361175537,-0.0004222825518809259,0.00034595554461702704,-0.01692173071205616,0,0,-1000,0,1,-17,-1,3,-153,277488.0
13:31:09.011,AUTO,-35.3632621,149.1652365,23159,0.0029601091518998146,0.0034877834841609,-0.2567155361175537,-0.0004222825518809259,0.00034595554461702704,-0.01692173071205616,0,0,-1000,0,1,-17,-1,3,-153,277488.0
13:31:09.212,AUTO,-35.3632621,149.1652366,23549,0.0026231338270008564,0.0031433189287781715,-0.2613692879676819,-0.0009649661951698363,-0.001179216429591179,-0.017914939671754837,0,0,-1000,0,0,-18,-1,3,-153,277488.0
13:31:09.414,AUTO,-35.3632621,149.1652366,23549,0.0026231338270008564,0.0031433189287781715,-0.2613692879676819,-0.0009649661951698363,-0.001179216429591179,-0.017914939671754837,0,0,-1000,0,0,-18,-1,3,-153,277488.0
13:31:09.616,AUTO,-35.3632621,149.1652366,23549,0.0026231338270008564,0.0031433189287781715,-0.2613692879676819,-0.0009649661951698363,-0.001179216429591179,-0.017914939671754837,0,0,-1000,0,0,-18,-1,3,-153,277488.0
13:31:09.817,AUTO,-35.3632621,149.1652367,24717,0.0021289747674018145,0.0027907865587621927,-0.2754601836204529,0.002042554784566164,-2.0976411178708076e-05,-0.018817463889718056,0,0,-1000,3,1,-19,-1,3,-154,277488.0
13:31:10.019,AUTO,-35.3632621,149.1652368,25107,0.002104794140905142,0.00267413561232388,-0.280102401971817,-0.0010206741280853748,-0.0009647516417317092,-0.017802279442548752,0,0,-1000,0,0,-18,-1,3,-154,277488.0
13:31:10.220,AUTO,-35.3632621,149.1652368,25107,0.002104794140905142,0.00267413561232388,-0.280102401971817,-0.0010206741280853748,-0.0009647516417317092,-0.017802279442548752,0,0,-1000,0,0,-18,-1,3,-154,277488.0
13:31:10.422,AUTO,-35.3632621,149.1652368,25501,-0.007259520702064037,0.007419143803417683,-0.2753797471523285,-0.03473036736249924,0.02063383348286152,0.037152450531721115,0,0,-998,-33,21,37,-2,2,-152,277488.0
13:31:10.623,AUTO,-35.3632621,149.1652368,25886,-0.005663418211042881,0.008583681657910347,-0.26548364758491516,0.023677904158830643,-0.008315431885421276,0.04268544167280197,0,0,-1004,24,-7,42,-4,0,-153,199976.0
13:31:10.825,AUTO,-35.3632622,149.1652368,26274,0.001079294248484075,0.006092390511184931,-0.2549704909324646,0.025973724201321602,-0.009208991192281246,0.04460136592388153,0,0,-1002,26,-8,44,-5,0,-153,199976.0
13:31:11.026,AUTO,-35.3632623,149.1652368,26662,0.005886504892259836,0.0037843359168618917,-0.2449471801519394,0.012627615593373775,-0.008884608745574951,0.036720506846904755,0,0,-1000,13,-7,36,-6,0,-153,199976.0
13:31:11.228,AUTO,-35.3632623,149.1652368,26662,0.005886504892259836,0.0037843359168618917,-0.2449471801519394,0.012627615593373775,-0.008884608745574951,0.036720506846904755,0,0,-1000,13,-7,36,-6,0,-153,199976.0
13:31:11.430,AUTO,-35.3632623,149.1652368,26662,0.005886504892259836,0.0037843359168618917,-0.2449471801519394,0.012627615593373775,-0.008884608745574951,0.036720506846904755,0,0,-1000,13,-7,36,-6,0,-153,199976.0
13:31:11.631,AUTO,-35.3632623,149.1652368,26662,0.005886504892259836,0.0037843359168618917,-0.2449471801519394,0.012627615593373775,-0.008884608745574951,0.036720506846904755,0,0,-1000,13,-7,36,-6,0,-153,199976.0
13:31:11.833,AUTO,-35.3632625,149.1652369,27828,0.008626464754343033,0.000601023028139025,-0.22267305850982666,-0.0019941849168390036,-0.00017951003974303603,0.022884134203195572,0,0,-1000,-1,0,22,-3,5,-153,199976.0
13:31:12.034,AUTO,-35.3632625,149.165237,28216,0.007433594204485416,0.0003195721947122365,-0.2169264554977417,-0.0052548423409461975,-0.002022063359618187,0.02229420468211174,0,0,-1000,-4,-1,22,-2,6,-153,199976.0
13:31:12.236,AUTO,-35.3632625,149.165237,28216,0.007433594204485416,0.0003195721947122365,-0.2169264554977417,-0.0052548423409461975,-0.002022063359618187,0.02229420468211174,0,0,-1000,-4,-1,22,-2,6,-153,199976.0
13:31:12.437,AUTO,-35.3632625,149.1652371,28604,0.005754947196692228,0.0001561187964398414,-0.21142901480197906,-0.008150682784616947,-0.00046965223737061024,0.021111968904733658,1,-1,-1000,-7,0,21,-1,7,-153,199976.0
13:31:12.639,AUTO,-35.3632625,149.1652372,28992,0.004154295660555363,1.0302121154381894e-05,-0.20640310645103455,-0.006975415162742138,0.0006394541705958545,0.01985057443380356,0,-1,-999,-5,1,19,0,7,-153,199976.0
13:31:12.840,AUTO,-35.3632625,149.1652374,29379,0.0028243265114724636,0.00025547025143168867,-0.20140446722507477,-0.002313134726136923,0.0019646654836833477,0.02044025808572769,0,-1,-1000,-1,2,20,0,7,-153,199976.0
13:31:13.042,AUTO,-35.3632625,149.1652375,29767,0.0014951451448723674,0.0005521812126971781,-0.19673265516757965,-0.006278651300817728,0.0007161704124882817,0.018277056515216827,0,-1,-1000,-5,1,17,0,7,-153,199976.0
13:31:13.244,AUTO,-35.3632625,149.1652375,29767,0.0014951451448723674,0.0005521812126971781,-0.19673265516757965,-0.006278651300817728,0.0007161704124882817,0.018277056515216827,0,-1,-1000,-5,1,17,0,7,-153,199976.0
13:31:13.445,AUTO,-35.3632625,149.1652375,29767,0.0014951451448723674,0.0005521812126971781,-0.19673265516757965,-0.006278651300817728,0.0007161704124882817,0.018277056515216827,0,-1,-1000,-5,1,17,0,7,-153,199976.0
13:31:13.647,AUTO,-35.3632625,149.1652375,29767,0.0014951451448723674,0.0005521812126971781,-0.19673265516757965,-0.006278651300817728,0.0007161704124882817,0.018277056515216827,0,-1,-1000,-5,1,17,0,7,-153,31303.0
13:31:13.849,AUTO,-35.3632625,149.1652379,30931,-0.0004362425534054637,0.0009246990666724741,-0.18404363095760345,0.0003718544030562043,0.0008271244587376714,0.018653767183423042,0,-1,-1000,1,1,18,0,4,-153,31303.0
13:31:14.050,AUTO,-35.3632625,149.1652379,31319,-0.00042117841076105833,0.001200436265207827,-0.17978182435035706,-0.0018804562278091908,0.0011581616709008813,0.017949474975466728,0,0,-1000,0,2,17,0,3,-153,31303.0
13:31:14.252,AUTO,-35.3632625,149.1652379,31319,-0.00042117841076105833,0.001200436265207827,-0.17978182435035706,-0.0018804562278091908,0.0011581616709008813,0.017949474975466728,0,0,-1000,0,2,17,0,3,-153,31303.0
13:31:14.453,AUTO,-35.3632624,149.165238,31705,-0.005550618749111891,0.005949445068836212,-0.1657770574092865,-0.08310624212026596,0.07627109438180923,0.17516353726387024,0,-1,-962,-82,77,175,0,2,-150,31303.0
13:31:14.654,AUTO,-35.3632624,149.1652379,32072,-0.042470742017030716,0.045668426901102066,-0.0689399316906929,-0.19812491536140442,0.17343924939632416,0.571203887462616,-1,-1,-954,-197,174,571,-5,-2,-139,31303.0
13:31:14.856,AUTO,-35.3632626,149.1652377,32407,-0.06851107627153397,0.07933458685874939,0.08170579373836517,-0.04324505850672722,-0.04250858724117279,0.4925575852394104,2,3,-919,-42,-41,492,-20,-16,-123,31303.0
13:31:15.058,AUTO,-35.3632632,149.165237,32692,-0.048648495227098465,0.041121482849121094,0.1643276959657669,0.11870960146188736,-0.2266887128353119,0.19862668216228485,3,8,-924,119,-225,198,-31,-31,-102,31303.0
13:31:15.260,AUTO,-35.3632632,149.165237,32692,-0.048648495227098465,0.041121482849121094,0.1643276959657669,0.11870960146188736,-0.2266887128353119,0.19862668216228485,3,8,-924,119,-225,198,-31,-31,-102,31303.0
13:31:15.461,AUTO,-35.3632632,149.165237,32692,-0.048648495227098465,0.041121482849121094,0.1643276959657669,0.11870960146188736,-0.2266887128353119,0.19862668216228485,3,8,-924,119,-225,198,-31,-31,-102,31303.0
13:31:15.663,AUTO,-35.3632632,149.165237,32692,-0.048648495227098465,0.041121482849121094,0.1643276959657669,0.11870960146188736,-0.2266887128353119,0.19862668216228485,3,8,-924,119,-225,198,-31,-31,-102,31303.0
13:31:15.865,AUTO,-35.363265,149.1652342,33298,0.029327591881155968,-0.05066559463739395,0.1874217689037323,0.11994194984436035,-0.024976063519716263,-0.035992130637168884,1,9,-960,120,-23,-36,-16,-25,-60,31303.0
13:31:16.067,AUTO,-35.3632652,149.1652336,33439,0.037133269011974335,-0.05132593587040901,0.17724500596523285,-0.13885051012039185,0.011936644092202187,-0.039047691971063614,0,-3,-969,-137,13,-38,-5,-14,-52,31303.0
13:31:16.268,AUTO,-35.3632652,149.1652336,33439,0.037133269011974335,-0.05132593587040901,0.17724500596523285,-0.13885051012039185,0.011936644092202187,-0.039047691971063614,0,-3,-969,-137,13,-38,-5,-14,-52,31303.0
13:31:16.470,AUTO,-35.3632652,149.1652333,33560,0.04317530617117882,-0.04563938081264496,0.16823087632656097,0.2346387505531311,0.02445802092552185,-0.031465355306863785,-1,20,-979,236,25,-31,4,-2,-45,31303.0
13:31:16.672,AUTO,-35.3632651,149.1652334,33663,0.04674500599503517,-0.03714604675769806,0.1607348471879959,0.45012420415878296,0.03348255902528763,-0.029012983664870262,-2,26,-984,451,34,-29,12,8,-38,264028.0
13:31:16.873,AUTO,-35.3632648,149.1652337,33764,0.035862263292074203,-0.026592960581183434,0.1548338234424591,-0.14060477912425995,0.05122208222746849,-0.02653331868350506,-4,-21,-1040,-140,52,-26,18,17,-46,264028.0
13:31:17.075,AUTO,-35.3632643,149.1652341,33884,0.021003732457756996,-0.015103273093700409,0.15004703402519226,-0.4746153652667999,0.0424746610224247,-0.017613310366868973,-2,-24,-993,-473,43,-17,22,23,-49,264028.0
13:31:17.277,AUTO,-35.3632643,149.1652341,33884,0.021003732457756996,-0.015103273093700409,0.15004703402519226,-0.4746153652667999,0.0424746610224247,-0.017613310366868973,-2,-24,-993,-473,43,-17,22,23,-49,264028.0
13:31:17.488,AUTO,-35.3632643,149.1652341,33884,0.021003732457756996,-0.015103273093700409,0.15004703402519226,-0.4746153652667999,0.0424746610224247,-0.017613310366868973,-2,-24,-993,-473,43,-17,22,23,-49,264028.0
13:31:17.689,AUTO,-35.3632643,149.1652341,33884,0.021003732457756996,-0.015103273093700409,0.15004703402519226,-0.4746153652667999,0.0424746610224247,-0.017613310366868973,-2,-24,-993,-473,43,-17,22,23,-49,264028.0
13:31:17.891,AUTO,-35.3632628,149.1652361,34176,0.01490395050495863,0.007349307648837566,0.1384548395872116,0.22215554118156433,0.022915691137313843,-0.012841252610087395,-2,-18,-948,222,23,-12,21,26,-27,264028.0
13:31:18.093,AUTO,-35.3632623,149.1652368,34224,0.0037525403313338757,0.01155545562505722,0.1352957934141159,-0.5388995409011841,0.016401953995227814,-0.010256258770823479,0,-47,-959,-538,17,-10,19,24,-16,264028.0
13:31:18.295,AUTO,-35.3632618,149.1652375,34242,-0.024860013276338577,0.034025710076093674,0.12715832889080048,-0.9697993993759155,0.12291372567415237,0.036599788814783096,1,-40,-905,-968,124,36,15,21,1,264028.0
13:31:18.496,AUTO,-35.3632618,149.1652375,34242,-0.024860013276338577,0.034025710076093674,0.12715832889080048,-0.9697993993759155,0.12291372567415237,0.036599788814783096,1,-40,-905,-968,124,36,15,21,1,264028.0
13:31:18.699,AUTO,-35.3632616,149.165238,34218,-0.04306071996688843,0.04684167355298996,0.12726062536239624,-0.4424094259738922,-0.014105087146162987,-0.015068670734763145,0,-2,-993,-440,-13,-14,6,13,11,264028.0
13:31:18.900,AUTO,-35.3632615,149.1652384,34183,-0.043283116072416306,0.03679393231868744,0.12499835342168808,0.25670191645622253,-0.03814896196126938,-0.009119072929024696,1,34,-1009,259,-37,-9,-1,4,12,264028.0
13:31:19.103,AUTO,-35.3632616,149.1652384,34152,-0.03517363965511322,0.028730982914566994,0.12285780906677246,0.7059467434883118,-0.026576213538646698,-0.008253715001046658,0,41,-1030,707,-25,-8,-7,-6,7,264028.0
13:31:19.304,AUTO,-35.3632616,149.1652384,34152,-0.03517363965511322,0.028730982914566994,0.12285780906677246,0.7059467434883118,-0.026576213538646698,-0.008253715001046658,0,41,-1030,707,-25,-8,-7,-6,7,264028.0
13:31:19.505,AUTO,-35.3632616,149.1652384,34152,-0.03517363965511322,0.028730982914566994,0.12285780906677246,0.7059467434883118,-0.026576213538646698,-0.008253715001046658,0,41,-1030,707,-25,-8,-7,-6,7,29736.0
13:31:19.707,AUTO,-35.3632616,149.1652384,34152,-0.03517363965511322,0.028730982914566994,0.12285780906677246,0.7059467434883118,-0.026576213538646698,-0.008253715001046658,0,41,-1030,707,-25,-8,-7,-6,7,29736.0
13:31:19.909,AUTO,-35.3632626,149.1652371,34138,-0.05490479990839958,0.01489480584859848,0.11243600398302078,-0.5931050777435303,-0.00912296399474144,-0.003974634688347578,0,-13,-1031,-592,-7,-3,-18,-37,-9,29736.0
13:31:20.110,AUTO,-35.3632631,149.1652361,34158,-0.059110719710588455,0.013076584786176682,0.10984189808368683,-0.21411539614200592,-0.00560344522818923,-0.002156023634597659,0,23,-996,-212,-4,-2,-21,-46,-11,29736.0
13:31:20.311,AUTO,-35.3632636,149.1652347,34183,-0.051431264728307724,0.012586092576384544,0.10615237057209015,0.5311385989189148,-0.0037382678128778934,-0.045118071138858795,0,47,-1023,532,-2,-44,-23,-56,-15,29736.0
13:31:20.513,AUTO,-35.3632636,149.1652347,34183,-0.051431264728307724,0.012586092576384544,0.10615237057209015,0.5311385989189148,-0.0037382678128778934,-0.045118071138858795,0,47,-1023,532,-2,-44,-23,-56,-15,29736.0
13:31:20.715,AUTO,-35.3632643,149.165233,34220,-0.05135606601834297,0.009342273697257042,0.03249681368470192,0.30336669087409973,-0.009837579913437366,-0.5404964685440063,-2,25,-1018,303,-8,-540,-26,-67,-18,29736.0
13:31:20.917,AUTO,-35.3632649,149.165231,34266,-0.06487260013818741,-0.00027976612909696996,-0.15104670822620392,-0.4502953588962555,0.012622990645468235,-0.8177541494369507,-8,-4,-1005,-449,13,-817,-30,-78,-22,29736.0
13:31:21.119,AUTO,-35.3632657,149.1652286,34318,-0.0778098925948143,-0.016037000343203545,-0.36520424485206604,-0.4361277222633362,0.0036118391435593367,-0.8652125000953674,-13,16,-1009,-434,4,-864,-33,-89,-24,29736.0
13:31:21.321,AUTO,-35.3632657,149.1652286,34318,-0.0778098925948143,-0.016037000343203545,-0.36520424485206604,-0.4361277222633362,0.0036118391435593367,-0.8652125000953674,-13,16,-1009,-434,4,-864,-33,-89,-24,29736.0
13:31:21.523,AUTO,-35.3632657,149.1652286,34318,-0.0778098925948143,-0.016037000343203545,-0.36520424485206604,-0.4361277222633362,0.0036118391435593367,-0.8652125000953674,-13,16,-1009,-434,4,-864,-33,-89,-24,29736.0
13:31:21.725,AUTO,-35.3632657,149.1652286,34318,-0.0778098925948143,-0.016037000343203545,-0.36520424485206604,-0.4361277222633362,0.0036118391435593367,-0.8652125000953674,-13,16,-1009,-434,4,-864,-33,-89,-24,29736.0
13:31:21.926,AUTO,-35.3632687,149.1652191,34532,-0.06286764144897461,-0.06910083442926407,-0.9631249308586121,0.06834983825683594,-0.026420215144753456,-0.7150376439094543,-33,11,-1022,68,-25,-714,-50,-134,-38,29736.0
13:31:22.128,AUTO,-35.36327,149.1652149,34630,-0.06372389197349548,-0.0882980152964592,-1.14329195022583,-0.35656803846359253,-0.022980017587542534,-0.7070388793945312,-41,-6,-1030,-355,-21,-706,-57,-152,-44,29736.0
13:31:22.330,AUTO,-35.3632714,149.1652103,34744,-0.04840538650751114,-0.10954082012176514,-1.3225526809692383,0.11780335754156113,-0.05824069306254387,-0.7257376909255981,-46,17,-1029,119,-57,-725,-64,-171,-50,29736.0
13:31:22.532,AUTO,-35.3632731,149.1652051,34874,-0.02922731824219227,-0.128194198012352,-1.5006320476531982,0.17578423023223877,-0.05109364539384842,-0.7112789750099182,-51,0,-1032,176,-49,-710,-73,-192,-56,145085.0
13:31:22.734,AUTO,-35.3632731,149.1652051,34874,-0.02922731824219227,-0.128194198012352,-1.5006320476531982,0.17578423023223877,-0.05109364539384842,-0.7112789750099182,-51,0,-1032,176,-49,-710,-73,-192,-56,145085.0
13:31:22.935,AUTO,-35.3632749,149.1651992,35023,-0.009131182916462421,-0.14141874015331268,-1.6802617311477661,-0.1350889652967453,-0.020344357937574387,-0.7081829905509949,-52,-19,-1043,-134,-19,-707,-82,-216,-65,145085.0
13:31:23.137,AUTO,-35.3632769,149.1651927,35196,0.012782447040081024,-0.14962138235569,-1.8408360481262207,-0.04328867420554161,-0.03248555585741997,-0.49169108271598816,-57,-22,-1039,-42,-31,-491,-91,-240,-75,145085.0
13:31:23.339,AUTO,-35.3632769,149.1651927,35196,0.012782447040081024,-0.14962138235569,-1.8408360481262207,-0.04328867420554161,-0.03248555585741997,-0.49169108271598816,-57,-22,-1039,-42,-31,-491,-91,-240,-75,145085.0
13:31:23.541,AUTO,-35.3632769,149.1651927,35196,0.012782447040081024,-0.14962138235569,-1.8408360481262207,-0.04328867420554161,-0.03248555585741997,-0.49169108271598816,-57,-22,-1039,-42,-31,-491,-91,-240,-75,145085.0
13:31:23.743,AUTO,-35.3632769,149.1651927,35196,0.012782447040081024,-0.14962138235569,-1.8408360481262207,-0.04328867420554161,-0.03248555585741997,-0.49169108271598816,-57,-22,-1039,-42,-31,-491,-91,-240,-75,145085.0
13:31:23.945,AUTO,-35.3632842,149.1651692,35836,0.025015471503138542,-0.13489164412021637,-1.916620135307312,-0.033830683678388596,0.07279770076274872,-0.015193173661828041,-75,-19,-1028,-32,74,-15,-120,-309,-97,145085.0
13:31:24.147,AUTO,-35.3632871,149.1651603,36088,0.025923360139131546,-0.11000780761241913,-1.9254850149154663,0.031603068113327026,0.12195948511362076,-0.05965696647763252,-80,-25,-1029,32,123,-59,-129,-323,-104,145085.0
13:31:24.349,AUTO,-35.36329,149.1651511,36357,0.030738309025764465,-0.0881665050983429,-1.938909649848938,0.01836753822863102,0.06287504732608795,-0.06504923850297928,-75,-51,-1022,19,63,-64,-134,-331,-111,145085.0
13:31:24.550,AUTO,-35.3632931,149.1651418,36641,0.03945126384496689,-0.08134660869836807,-1.958164095878601,0.010253439657390118,0.021436654031276703,-0.07595621794462204,-69,-38,-1012,11,22,-75,-136,-336,-115,145085.0
13:31:24.752,AUTO,-35.3632931,149.1651418,36641,0.03945126384496689,-0.08134660869836807,-1.958164095878601,0.010253439657390118,0.021436654031276703,-0.07595621794462204,-69,-38,-1012,11,22,-75,-136,-336,-115,145085.0
13:31:24.954,AUTO,-35.3632962,149.1651323,36935,0.04434331879019737,-0.07638493925333023,-1.9784094095230103,0.019723568111658096,-0.03811177238821983,-0.08639877289533615,-63,-46,-994,21,-36,-86,-138,-340,-117,145085.0
13:31:25.156,AUTO,-35.3632993,149.1651227,37225,0.05284680798649788,-0.11355318129062653,-2.005589485168457,0.01614757813513279,-0.20339757204055786,-0.09716764092445374,-68,-55,-954,17,-202,-96,-140,-346,-111,145085.0
13:31:25.357,AUTO,-35.3632993,149.1651227,37225,0.05284680798649788,-0.11355318129062653,-2.005589485168457,0.01614757813513279,-0.20339757204055786,-0.09716764092445374,-68,-55,-954,17,-202,-96,-140,-346,-111,145085.0
13:31:25.559,AUTO,-35.3632993,149.1651227,37225,0.05284680798649788,-0.11355318129062653,-2.005589485168457,0.01614757813513279,-0.20339757204055786,-0.09716764092445374,-68,-55,-954,17,-202,-96,-140,-346,-111,149532.0
13:31:25.761,AUTO,-35.3632993,149.1651227,37225,0.05284680798649788,-0.11355318129062653,-2.005589485168457,0.01614757813513279,-0.20339757204055786,-0.09716764092445374,-68,-55,-954,17,-202,-96,-140,-346,-111,149532.0
13:31:25.963,AUTO,-35.3633093,149.1650911,37895,0.0790993720293045,-0.21051228046417236,-2.102903127670288,0.0013189921155571938,0.011574196629226208,-0.12420567870140076,-75,-62,-953,2,12,-123,-165,-418,-63,149532.0
13:31:26.165,AUTO,-35.3633131,149.1650791,38050,0.08625680953264236,-0.19254371523857117,-2.1353371143341064,-0.03637835383415222,0.10864824801683426,-0.12895213067531586,-78,-56,-984,-35,109,-129,-175,-447,-56,149532.0
13:31:26.366,AUTO,-35.3633171,149.1650664,38195,0.08901664614677429,-0.1610865741968155,-2.16849946975708,0.013440697453916073,0.10181514918804169,-0.14164206385612488,-94,-73,-1018,14,102,-141,-185,-469,-58,149532.0
13:31:26.568,AUTO,-35.3633213,149.1650532,38352,0.09590624272823334,-0.13560569286346436,-2.203474760055542,0.014410573057830334,0.08999716490507126,-0.1245756670832634,-99,-92,-1024,15,91,-124,-191,-483,-64,149532.0
13:31:26.770,AUTO,-35.3633213,149.1650532,38352,0.09590624272823334,-0.13560569286346436,-2.203474760055542,0.014410573057830334,0.08999716490507126,-0.1245756670832634,-99,-92,-1024,15,91,-124,-191,-483,-64,149532.0
13:31:26.972,AUTO,-35.3633256,149.1650396,38528,0.10448981076478958,-0.10552309453487396,-2.226743221282959,0.008364444598555565,0.11690431833267212,-0.07483334839344025,-76,-76,-1033,9,117,-74,-193,-494,-72,149532.0
13:31:27.174,AUTO,-35.3633299,149.1650257,38725,0.1006595641374588,-0.07016116380691528,-2.236701488494873,-0.02733500301837921,0.11898790299892426,-0.037341564893722534,-79,-105,-1046,-25,120,-36,-190,-500,-84,149532.0
13:31:27.379,AUTO,-35.3633299,149.1650257,38725,0.1006595641374588,-0.07016116380691528,-2.236701488494873,-0.02733500301837921,0.11898790299892426,-0.037341564893722534,-79,-105,-1046,-25,120,-36,-190,-500,-84,149532.0
13:31:27.581,AUTO,-35.3633299,149.1650257,38725,0.1006595641374588,-0.07016116380691528,-2.236701488494873,-0.02733500301837921,0.11898790299892426,-0.037341564893722534,-79,-105,-1046,-25,120,-36,-190,-500,-84,149532.0
13:31:27.783,AUTO,-35.3633299,149.1650257,38725,0.1006595641374588,-0.07016116380691528,-2.236701488494873,-0.02733500301837921,0.11898790299892426,-0.037341564893722534,-79,-105,-1046,-25,120,-36,-190,-500,-84,149532.0
13:31:27.987,AUTO,-35.3633419,149.1649847,39481,0.08872170001268387,-0.03727243095636368,-2.2278261184692383,-0.04052746668457985,0.009253266267478466,0.04022933170199394,-72,-76,-1011,-39,10,40,-170,-489,-111,149532.0
13:31:28.189,AUTO,-35.3633456,149.1649712,39767,0.08196309208869934,-0.039473727345466614,-2.2183351516723633,0.017188355326652527,-0.019005926325917244,0.04015031084418297,-84,-80,-996,18,-17,40,-165,-481,-114,149532.0
13:31:28.390,AUTO,-35.3633492,149.1649579,40058,0.07867909967899323,-0.045619331300258636,-2.2076170444488525,-0.0197807177901268,-0.011999308131635189,0.04652491584420204,-82,-82,-994,-18,-10,46,-162,-476,-115,149532.0
13:31:28.592,AUTO,-35.3633526,149.1649447,40350,0.07014568150043488,-0.04842040315270424,-2.198539972305298,-0.06133401393890381,-0.002068893052637577,0.037689208984375,-87,-74,-1000,-60,-1,38,-157,-470,-115,54111.0
13:31:28.794,AUTO,-35.3633561,149.1649318,40645,0.062012679874897,-0.04439127445220947,-2.1888439655303955,-0.022478530183434486,0.03814272955060005,0.04482323303818703,-88,-69,-1006,-21,38,45,-156,-463,-117,54111.0
13:31:28.998,AUTO,-35.3633561,149.1649318,40645,0.062012679874897,-0.04439127445220947,-2.1888439655303955,-0.022478530183434486,0.03814272955060005,0.04482323303818703,-88,-69,-1006,-21,38,45,-156,-463,-117,54111.0
13:31:29.200,AUTO,-35.3633595,149.164919,40948,0.0497179813683033,-0.03427569568157196,-2.181147336959839,-0.04187203571200371,0.0659824088215828,0.03379690274596214,-79,-82,-1019,-40,67,34,-155,-456,-121,54111.0
13:31:29.402,AUTO,-35.3633595,149.164919,40948,0.0497179813683033,-0.03427569568157196,-2.181147336959839,-0.04187203571200371,0.0659824088215828,0.03379690274596214,-79,-82,-1019,-40,67,34,-155,-456,-121,54111.0
13:31:29.605,AUTO,-35.3633595,149.164919,40948,0.0497179813683033,-0.03427569568157196,-2.181147336959839,-0.04187203571200371,0.0659824088215828,0.03379690274596214,-79,-82,-1019,-40,67,34,-155,-456,-121,54111.0
13:31:29.807,AUTO,-35.3633695,149.1648828,41924,0.04449303448200226,-0.018531227484345436,-2.1616733074188232,-0.02060154639184475,0.045605581253767014,0.02302243374288082,-65,-65,-1012,-19,46,23,-149,-418,-132,54111.0
13:31:30.009,AUTO,-35.3633695,149.1648828,41924,0.04449303448200226,-0.018531227484345436,-2.1616733074188232,-0.02060154639184475,0.045605581253767014,0.02302243374288082,-65,-65,-1012,-19,46,23,-149,-418,-132,54111.0
13:31:30.211,AUTO,-35.3633728,149.1648715,42267,0.041212908923625946,-0.009664910845458508,-2.1554195880889893,-0.014993621967732906,0.012700214982032776,0.027918938547372818,-70,-65,-1009,-13,13,28,-146,-403,-135,54111.0
13:31:30.413,AUTO,-35.363376,149.1648607,42618,0.04169121012091637,-0.00354539742693305,-2.148899555206299,0.035656508058309555,0.040440913289785385,0.029003173112869263,-70,-60,-1009,37,41,29,-143,-387,-138,54111.0
13:31:30.615,AUTO,-35.3633792,149.1648503,42977,0.04065518453717232,0.0030699865892529488,-2.1415679454803467,-0.013735233806073666,0.015131533145904541,0.018729224801063538,-68,-61,-1010,-12,15,19,-137,-371,-141,54111.0
13:31:30.817,AUTO,-35.3633822,149.1648403,43344,0.039657656103372574,0.007817738689482212,-2.135932207107544,0.01668812334537506,0.03685034438967705,0.014773203060030937,-65,-53,-1008,17,37,15,-133,-354,-144,54111.0
13:31:31.019,AUTO,-35.3633822,149.1648403,43344,0.039657656103372574,0.007817738689482212,-2.135932207107544,0.01668812334537506,0.03685034438967705,0.014773203060030937,-65,-53,-1008,17,37,15,-133,-354,-144,54111.0
13:31:31.221,AUTO,-35.3633851,149.1648308,43718,0.035660289227962494,0.01714048720896244,-2.1301231384277344,0.024679645895957947,0.04110339283943176,0.023208068683743477,-64,-53,-1009,25,42,23,-126,-336,-147,54111.0
13:31:31.423,AUTO,-35.3633851,149.1648308,43718,0.035660289227962494,0.01714048720896244,-2.1301231384277344,0.024679645895957947,0.04110339283943176,0.023208068683743477,-64,-53,-1009,25,42,23,-126,-336,-147,54111.0
13:31:31.625,AUTO,-35.3633851,149.1648308,43718,0.035660289227962494,0.01714048720896244,-2.1301231384277344,0.024679645895957947,0.04110339283943176,0.023208068683743477,-64,-53,-1009,25,42,23,-126,-336,-147,60003.0
13:31:31.827,AUTO,-35.363393,149.1648057,44890,0.026518244296312332,0.0446922592818737,-2.115055799484253,-0.01004573330283165,0.004705164115875959,0.016880029812455177,-56,-49,-1011,-8,5,17,-103,-274,-156,60003.0
13:31:32.029,AUTO,-35.3633952,149.1647985,45294,0.02434786595404148,0.05332958325743675,-2.110084295272827,-0.02933250553905964,0.05649825558066368,0.024560557678341866,-50,-34,-1012,-28,57,25,-93,-252,-158,60003.0
13:31:32.231,AUTO,-35.3633952,149.1647985,45294,0.02434786595404148,0.05332958325743675,-2.110084295272827,-0.02933250553905964,0.05649825558066368,0.024560557678341866,-50,-34,-1012,-28,57,25,-93,-252,-158,60003.0
13:31:32.432,AUTO,-35.3633972,149.164792,45705,0.02100125513970852,0.06519661098718643,-2.1045475006103516,-0.0033233892172574997,0.042242877185344696,0.02700668014585972,-46,-30,-1012,-1,43,27,-84,-227,-160,60003.0
13:31:32.634,AUTO,-35.3633991,149.164786,46124,0.015558906830847263,0.07303794473409653,-2.097990036010742,-0.020617902278900146,0.014469052664935589,0.02083861641585827,-40,-33,-1006,-19,15,21,-73,-201,-161,60003.0
13:31:32.836,AUTO,-35.3634007,149.1647809,46540,0.013077178969979286,0.07089214026927948,-2.093297243118286,-0.013823725283145905,-0.019218197092413902,0.018605617806315422,-27,-33,-1000,-12,-18,19,-64,-176,-161,60003.0
