time_stamp,MODE,lat,lon,relative_alt,roll,pitch,yaw,rollspeed,pitchspeed,yawspeed,xacc,yacc,zacc,xgyro,ygyro,zgyro,vx,vy,vz,RTL_ALT
13:13:48.937,STABILIZE,-35.3632621,149.1652374,0,-5.981979120406322e-05,0.0014455895870923996,0.028777455911040306,0.00023533243802376091,0.00028348586056381464,0.0024314187467098236,0,1,-1000,0,0,0,0,0,0,1500.0
13:13:49.137,STABILIZE,-35.3632621,149.1652374,0,-5.981979120406322e-05,0.0014455895870923996,0.028777455911040306,0.00023533243802376091,0.00028348586056381464,0.0024314187467098236,0,1,-1000,0,0,0,0,0,0,1500.0
13:13:49.338,STABILIZE,-35.3632621,149.1652374,0,-5.981979120406322e-05,0.0014455895870923996,0.028777455911040306,0.00023533243802376091,0.00028348586056381464,0.0024314187467098236,0,1,-1000,0,0,0,0,0,0,1500.0
13:13:49.539,STABILIZE,-35.3632621,149.1652374,0,-5.981979120406322e-05,0.0014455895870923996,0.028777455911040306,0.00023533243802376091,0.00028348586056381464,0.0024314187467098236,0,1,-1000,0,0,0,0,0,0,1500.0
13:13:49.739,STABILIZE,-35.3632621,149.1652374,0,-5.981979120406322e-05,0.0014455895870923996,0.028777455911040306,0.00023533243802376091,0.00028348586056381464,0.0024314187467098236,0,1,-1000,0,0,0,0,0,0,1500.0
13:13:49.940,STABILIZE,-35.3632621,149.1652374,0,5.0642414862522855e-05,0.0016171756433323026,0.028069136664271355,0.00017250125529244542,0.00024215326993726194,0.0023836996406316757,0,1,-1000,0,0,0,-1,1,0,1500.0
13:13:50.141,STABILIZE,-35.3632621,149.1652374,0,5.0642414862522855e-05,0.0016171756433323026,0.028069136664271355,0.00017250125529244542,0.00024215326993726194,0.0023836996406316757,0,1,-1000,0,0,0,-1,1,0,1500.0
13:13:50.341,STABILIZE,-35.3632621,149.1652374,0,5.0642414862522855e-05,0.0016171756433323026,0.028069136664271355,0.00017250125529244542,0.00024215326993726194,0.0023836996406316757,0,1,-1000,0,0,0,-1,1,0,1500.0
13:13:50.542,STABILIZE,-35.3632621,149.1652374,0,5.0642414862522855e-05,0.0016171756433323026,0.028069136664271355,0.00017250125529244542,0.00024215326993726194,0.0023836996406316757,0,1,-1000,0,0,0,-1,1,0,1500.0
13:13:50.743,STABILIZE,-35.3632621,149.1652374,0,5.0642414862522855e-05,0.0016171756433323026,0.028069136664271355,0.00017250125529244542,0.00024215326993726194,0.0023836996406316757,0,1,-1000,0,0,0,-1,1,0,1500.0
13:13:50.943,STABILIZE,-35.3632621,149.1652374,0,-3.311403270345181e-05,0.0015892602968961,0.027398865669965744,0.0002438164665363729,0.00018797602388076484,0.0022500972263514996,0,1,-1000,0,0,0,-2,1,0,1500.0
13:13:51.145,STABILIZE,-35.3632621,149.1652374,0,-3.311403270345181e-05,0.0015892602968961,0.027398865669965744,0.0002438164665363729,0.00018797602388076484,0.0022500972263514996,0,1,-1000,0,0,0,-2,1,0,1500.0
13:13:51.346,STABILIZE,-35.3632621,149.1652374,0,-3.311403270345181e-05,0.0015892602968961,0.027398865669965744,0.0002438164665363729,0.00018797602388076484,0.0022500972263514996,0,1,-1000,0,0,0,-2,1,0,1500.0
13:13:51.547,STABILIZE,-35.3632621,149.1652374,0,-3.311403270345181e-05,0.0015892602968961,0.027398865669965744,0.0002438164665363729,0.00018797602388076484,0.0022500972263514996,0,1,-1000,0,0,0,-2,1,0,1500.0
13:13:51.748,STABILIZE,-35.3632622,149.1652375,0,3.733909397851676e-05,0.0014020531671121716,0.026774432510137558,0.00024636206217110157,0.0003455017285887152,0.0023272305261343718,0,1,-1000,0,0,0,-2,2,0,1500.0
13:13:51.949,STABILIZE,-35.3632622,149.1652375,0,3.733909397851676e-05,0.0014020531671121716,0.026774432510137558,0.00024636206217110157,0.0003455017285887152,0.0023272305261343718,0,1,-1000,0,0,0,-2,2,0,1500.0
13:13:52.150,STABILIZE,-35.3632622,149.1652375,0,3.733909397851676e-05,0.0014020531671121716,0.026774432510137558,0.00024636206217110157,0.0003455017285887152,0.0023272305261343718,0,1,-1000,0,0,0,-2,2,0,1500.0
13:13:52.351,STABILIZE,-35.3632622,149.1652375,0,3.733909397851676e-05,0.0014020531671121716,0.026774432510137558,0.00024636206217110157,0.0003455017285887152,0.0023272305261343718,0,1,-1000,0,0,0,-2,2,0,1500.0
13:13:52.552,STABILIZE,-35.3632622,149.1652375,0,3.733909397851676e-05,0.0014020531671121716,0.026774432510137558,0.00024636206217110157,0.0003455017285887152,0.0023272305261343718,0,1,-1000,0,0,0,-2,2,0,1500.0
13:13:52.753,STABILIZE,-35.3632622,149.1652375,0,3.733909397851676e-05,0.0014020531671121716,0.026774432510137558,0.00024636206217110157,0.0003455017285887152,0.0023272305261343718,0,1,-1000,0,0,0,-2,2,0,1500.0
13:13:52.954,STABILIZE,-35.3632622,149.1652375,0,3.733909397851676e-05,0.0014020531671121716,0.026774432510137558,0.00024636206217110157,0.0003455017285887152,0.0023272305261343718,0,1,-1000,0,0,0,-2,2,0,1500.0
13:13:53.155,STABILIZE,-35.3632622,149.1652375,0,3.733909397851676e-05,0.0014020531671121716,0.026774432510137558,0.00024636206217110157,0.0003455017285887152,0.0023272305261343718,0,1,-1000,0,0,0,-2,2,0,1500.0
13:13:53.356,STABILIZE,-35.3632622,149.1652375,0,3.733909397851676e-05,0.0014020531671121716,0.026774432510137558,0.00024636206217110157,0.0003455017285887152,0.0023272305261343718,0,1,-1000,0,0,0,-2,2,0,1500.0
13:13:53.557,STABILIZE,-35.3632622,149.1652375,0,3.733909397851676e-05,0.0014020531671121716,0.026774432510137558,0.00024636206217110157,0.0003455017285887152,0.0023272305261343718,0,1,-1000,0,0,0,-2,2,0,1500.0
13:13:53.759,STABILIZE,-35.3632622,149.1652375,0,-0.0005072292406111956,0.0010487338295206428,0.0256955549120903,0.0003601633361540735,0.0002854746417142451,0.001986113376915455,0,1,-1000,0,0,0,-1,1,0,1500.0
13:13:53.960,STABILIZE,-35.3632622,149.1652375,0,-0.0005072292406111956,0.0010487338295206428,0.0256955549120903,0.0003601633361540735,0.0002854746417142451,0.001986113376915455,0,1,-1000,0,0,0,-1,1,0,1500.0
13:13:54.161,STABILIZE,-35.3632622,149.1652375,0,-0.0005072292406111956,0.0010487338295206428,0.0256955549120903,0.0003601633361540735,0.0002854746417142451,0.001986113376915455,0,1,-1000,0,0,0,-1,1,0,1500.0
13:13:54.362,STABILIZE,-35.3632622,149.1652375,0,-0.0005072292406111956,0.0010487338295206428,0.0256955549120903,0.0003601633361540735,0.0002854746417142451,0.001986113376915455,0,1,-1000,0,0,0,-1,1,0,1500.0
13:13:54.563,STABILIZE,-35.3632621,149.1652375,0,-0.0003279585507698357,0.0009972942061722279,0.025370284914970398,0.0002021672553382814,0.00026005564723163843,0.0019489774713292718,0,1,-1000,0,0,0,-1,3,3,1500.0
13:13:54.764,STABILIZE,-35.3632621,149.1652375,0,-0.0003279585507698357,0.0009972942061722279,0.025370284914970398,0.0002021672553382814,0.00026005564723163843,0.0019489774713292718,0,1,-1000,0,0,0,-1,3,3,1500.0
13:13:54.966,STABILIZE,-35.3632621,149.1652375,0,-0.0003279585507698357,0.0009972942061722279,0.025370284914970398,0.0002021672553382814,0.00026005564723163843,0.0019489774713292718,0,1,-1000,0,0,0,-1,3,3,1500.0
13:13:55.168,STABILIZE,-35.3632621,149.1652375,0,-0.0003279585507698357,0.0009972942061722279,0.025370284914970398,0.0002021672553382814,0.00026005564723163843,0.0019489774713292718,0,1,-1000,0,0,0,-1,3,3,1500.0
13:13:55.369,STABILIZE,-35.3632621,149.1652375,0,-0.0003279585507698357,0.0009972942061722279,0.025370284914970398,0.0002021672553382814,0.00026005564723163843,0.0019489774713292718,0,1,-1000,0,0,0,-1,3,3,1500.0
13:13:55.570,STABILIZE,-35.3632621,149.1652375,0,-0.0003279585507698357,0.0009972942061722279,0.025370284914970398,0.0002021672553382814,0.00026005564723163843,0.0019489774713292718,0,1,-1000,0,0,0,-1,3,3,1500.0
13:13:55.771,STABILIZE,-35.3632621,149.1652375,0,-0.0003279585507698357,0.0009972942061722279,0.025370284914970398,0.0002021672553382814,0.00026005564723163843,0.0019489774713292718,0,1,-1000,0,0,0,-1,3,3,1500.0
13:13:55.972,STABILIZE,-35.3632621,149.1652375,0,-0.0003279585507698357,0.0009972942061722279,0.025370284914970398,0.0002021672553382814,0.00026005564723163843,0.0019489774713292718,0,1,-1000,0,0,0,-1,3,3,1500.0
13:13:56.173,STABILIZE,-35.3632621,149.1652375,0,-0.0003279585507698357,0.0009972942061722279,0.025370284914970398,0.0002021672553382814,0.00026005564723163843,0.0019489774713292718,0,1,-1000,0,0,0,-1,3,3,1500.0
13:13:56.374,STABILIZE,-35.3632621,149.1652375,0,-0.0003279585507698357,0.0009972942061722279,0.025370284914970398,0.0002021672553382814,0.00026005564723163843,0.0019489774713292718,0,1,-1000,0,0,0,-1,3,3,1500.0
13:13:56.576,STABILIZE,-35.3632621,149.1652375,0,-0.0003279585507698357,0.0009972942061722279,0.025370284914970398,0.0002021672553382814,0.00026005564723163843,0.0019489774713292718,0,1,-1000,0,0,0,-1,3,3,1500.0
13:13:56.777,STABILIZE,-35.3632621,149.1652375,0,-0.0003279585507698357,0.0009972942061722279,0.025370284914970398,0.0002021672553382814,0.00026005564723163843,0.0019489774713292718,0,1,-1000,0,0,0,-1,3,3,1500.0
13:13:56.978,STABILIZE,-35.3632621,149.1652375,0,-0.0003279585507698357,0.0009972942061722279,0.025370284914970398,0.0002021672553382814,0.00026005564723163843,0.0019489774713292718,0,1,-1000,0,0,0,-1,3,3,1500.0
13:13:57.179,STABILIZE,-35.3632621,149.1652375,0,-0.0010750464862212539,0.0009258125210180879,0.02439219504594803,0.00025245617143809795,0.00021204928634688258,0.001739754807204008,0,1,-1000,0,0,0,-1,1,1,1500.0
13:13:57.381,STABILIZE,-35.3632621,149.1652375,0,-0.0010750464862212539,0.0009258125210180879,0.02439219504594803,0.00025245617143809795,0.00021204928634688258,0.001739754807204008,0,1,-1000,0,0,0,-1,1,1,1500.0
13:13:57.582,STABILIZE,-35.3632621,149.1652375,0,-0.0011360547505319118,0.0009255278273485601,0.0242376197129488,0.00022619980154559016,0.00021149078384041786,0.0018622246570885181,0,1,-1000,0,0,0,-1,1,1,1500.0
13:13:57.784,STABILIZE,-35.3632621,149.1652375,0,-0.0011503829155117273,0.0009313661721535027,0.024174626916646957,0.00016713689547032118,0.0002171149244531989,0.001833459478802979,0,1,-1000,0,0,0,-1,1,0,1500.0
13:13:57.986,STABILIZE,-35.3632621,149.1652375,0,-0.0011503829155117273,0.0009313661721535027,0.024174626916646957,0.00016713689547032118,0.0002171149244531989,0.001833459478802979,0,1,-1000,0,0,0,-1,1,0,1500.0
13:13:58.187,STABILIZE,-35.3632621,149.1652375,0,-0.0011503829155117273,0.0009313661721535027,0.024174626916646957,0.00016713689547032118,0.0002171149244531989,0.001833459478802979,0,1,-1000,0,0,0,-1,1,0,1500.0
13:13:58.388,STABILIZE,-35.3632621,149.1652375,0,-0.0011503829155117273,0.0009313661721535027,0.024174626916646957,0.00016713689547032118,0.0002171149244531989,0.001833459478802979,0,1,-1000,0,0,0,-1,1,0,1500.0
13:13:58.589,STABILIZE,-35.3632621,149.1652376,0,-0.0006728952284902334,0.00093869399279356,0.02389187179505825,0.00022270932095125318,0.0002710595726966858,0.001714297803118825,0,1,-1000,0,0,0,-1,5,7,1500.0
13:13:58.791,STABILIZE,-35.3632621,149.1652376,0,-0.0006728952284902334,0.00093869399279356,0.02389187179505825,0.00022270932095125318,0.0002710595726966858,0.001714297803118825,0,1,-1000,0,0,0,-1,5,7,1500.0
13:13:58.993,STABILIZE,-35.3632621,149.1652376,0,-0.0006728952284902334,0.00093869399279356,0.02389187179505825,0.00022270932095125318,0.0002710595726966858,0.001714297803118825,0,1,-1000,0,0,0,-1,5,7,1500.0
13:13:59.194,STABILIZE,-35.3632621,149.1652376,0,-0.0006728952284902334,0.00093869399279356,0.02389187179505825,0.00022270932095125318,0.0002710595726966858,0.001714297803118825,0,1,-1000,0,0,0,-1,5,7,1500.0
13:13:59.395,STABILIZE,-35.3632621,149.1652376,0,-0.0011294718133285642,0.0009442269220016897,0.02362241968512535,0.00021599477622658014,0.00025595095939934254,0.0016752020455896854,0,2,-1000,0,0,0,-1,3,5,1500.0
13:13:59.597,STABILIZE,-35.3632621,149.1652376,0,-0.0011294718133285642,0.0009442269220016897,0.02362241968512535,0.00021599477622658014,0.00025595095939934254,0.0016752020455896854,0,2,-1000,0,0,0,-1,3,5,1500.0
13:13:59.798,STABILIZE,-35.3632621,149.1652376,0,-0.0011294718133285642,0.0009442269220016897,0.02362241968512535,0.00021599477622658014,0.00025595095939934254,0.0016752020455896854,0,2,-1000,0,0,0,-1,3,5,1500.0
13:13:59.999,STABILIZE,-35.3632621,149.1652376,0,-0.0011294718133285642,0.0009442269220016897,0.02362241968512535,0.00021599477622658014,0.00025595095939934254,0.0016752020455896854,0,2,-1000,0,0,0,-1,3,5,1500.0
13:14:00.200,STABILIZE,-35.3632621,149.1652376,0,-0.0011294718133285642,0.0009442269220016897,0.02362241968512535,0.00021599477622658014,0.00025595095939934254,0.0016752020455896854,0,2,-1000,0,0,0,-1,3,5,1500.0
13:14:00.404,STABILIZE,-35.3632621,149.1652376,0,-0.0011294718133285642,0.0009442269220016897,0.02362241968512535,0.00021599477622658014,0.00025595095939934254,0.0016752020455896854,0,2,-1000,0,0,0,-1,3,5,1500.0
13:14:00.608,STABILIZE,-35.3632622,149.1652376,0,-0.0016163812251761556,0.0009677599300630391,0.023299861699342728,0.00015954353148117661,0.00026907044230028987,0.0016145040281116962,0,2,-1000,0,0,0,-1,1,2,1500.0
13:14:00.809,STABILIZE,-35.3632622,149.1652376,0,-0.0016163812251761556,0.0009677599300630391,0.023299861699342728,0.00015954353148117661,0.00026907044230028987,0.0016145040281116962,0,2,-1000,0,0,0,-1,1,2,1500.0
13:14:01.010,STABILIZE,-35.3632622,149.1652376,0,-0.0016869244864210486,0.0009720941889099777,0.02326982468366623,8.377665653824806e-05,0.0003145392402075231,0.0017307937378063798,0,2,-1000,1,0,1,-1,1,2,1500.0
13:14:01.211,STABILIZE,-35.3632622,149.1652376,0,-0.0017229878576472402,0.0009735786006785929,0.023240000009536743,0.00018955068662762642,0.00025188643485307693,0.0017493732739239931,0,2,-1000,1,0,1,-1,0,2,1500.0
13:14:01.413,STABILIZE,-35.3632622,149.1652376,0,-0.001749519957229495,0.0009725977433845401,0.02318948321044445,0.00013465667143464088,0.0003007266204804182,0.0017148717306554317,0,-30,-1048,0,0,0,-1,-1,-1,1500.0
13:14:01.614,STABILIZE,-35.3632622,149.1652376,0,-0.001749519957229495,0.0009725977433845401,0.02318948321044445,0.00013465667143464088,0.0003007266204804182,0.0017148717306554317,0,-30,-1048,0,0,0,-1,-1,-1,1500.0
13:14:01.815,STABILIZE,-35.3632622,149.1652376,0,-0.001749519957229495,0.0009725977433845401,0.02318948321044445,0.00013465667143464088,0.0003007266204804182,0.0017148717306554317,0,-30,-1048,0,0,0,-1,-1,-1,1500.0
13:14:02.017,STABILIZE,-35.3632622,149.1652376,0,-0.001749519957229495,0.0009725977433845401,0.02318948321044445,0.00013465667143464088,0.0003007266204804182,0.0017148717306554317,0,-30,-1048,0,0,0,-1,-1,-1,1500.0
13:14:02.218,STABILIZE,-35.3632622,149.1652376,0,-0.001749519957229495,0.0009725977433845401,0.02318948321044445,0.00013465667143464088,0.0003007266204804182,0.0017148717306554317,0,-30,-1048,0,0,0,-1,-1,-1,1500.0
13:14:02.419,STABILIZE,-35.3632622,149.1652376,0,-0.001749519957229495,0.0009725977433845401,0.02318948321044445,0.00013465667143464088,0.0003007266204804182,0.0017148717306554317,0,-30,-1048,0,0,0,-1,-1,-1,1500.0
13:14:02.621,STABILIZE,-35.3632622,149.1652374,0,-0.0015476862899959087,0.000961133511736989,0.023077182471752167,0.00015948311192914844,0.00013970205327495933,0.0016680150292813778,0,2,-1000,1,0,0,-1,-1,-2,1500.0
13:14:02.822,STABILIZE,-35.3632622,149.1652374,0,-0.0015476862899959087,0.000961133511736989,0.023077182471752167,0.00015948311192914844,0.00013970205327495933,0.0016680150292813778,0,2,-1000,1,0,0,-1,-1,-2,1500.0
13:14:03.023,STABILIZE,-35.3632622,149.1652374,0,-0.0015476862899959087,0.000961133511736989,0.023077182471752167,0.00015948311192914844,0.00013970205327495933,0.0016680150292813778,0,2,-1000,1,0,0,-1,-1,-2,1500.0
13:14:03.224,STABILIZE,-35.3632622,149.1652374,0,-0.0015476862899959087,0.000961133511736989,0.023077182471752167,0.00015948311192914844,0.00013970205327495933,0.0016680150292813778,0,2,-1000,1,0,0,-1,-1,-2,1500.0
13:14:03.425,STABILIZE,-35.3632622,149.1652374,0,-0.0015476862899959087,0.000961133511736989,0.023077182471752167,0.00015948311192914844,0.00013970205327495933,0.0016680150292813778,0,2,-1000,1,0,0,-1,-1,-2,1500.0
13:14:03.626,STABILIZE,-35.3632622,149.1652374,0,-0.0013132041785866022,0.000960259756539017,0.02292882651090622,0.00024316966300830245,0.00018569838721305132,0.0015049518551677465,0,2,-1000,0,0,0,-1,0,-2,1500.0
13:14:03.827,STABILIZE,-35.3632622,149.1652374,0,-0.0012684357352554798,0.0009606929961591959,0.02289072796702385,0.000237592204939574,0.00032659980934113264,0.0015058391727507114,0,1,-1000,0,1,0,-1,0,-2,1500.0
13:14:04.028,STABILIZE,-35.3632622,149.1652374,0,-0.0012684357352554798,0.0009606929961591959,0.02289072796702385,0.000237592204939574,0.00032659980934113264,0.0015058391727507114,0,1,-1000,0,1,0,-1,0,-2,1500.0
13:14:04.230,STABILIZE,-35.3632622,149.1652374,0,-0.0012684357352554798,0.0009606929961591959,0.02289072796702385,0.000237592204939574,0.00032659980934113264,0.0015058391727507114,0,1,-1000,0,1,0,-1,0,-2,1500.0
13:14:04.431,STABILIZE,-35.3632622,149.1652374,0,-0.0012684357352554798,0.0009606929961591959,0.02289072796702385,0.000237592204939574,0.00032659980934113264,0.0015058391727507114,0,1,-1000,0,1,0,-1,0,-2,1500.0
13:14:04.633,STABILIZE,-35.3632622,149.1652375,0,-0.001148057752288878,0.0009765743743628263,0.022728394716978073,0.0001420043408870697,0.00034873170079663396,0.0016450255643576384,0,1,-1000,1,0,1,-1,0,-2,1500.0
13:14:04.834,STABILIZE,-35.3632622,149.1652375,0,-0.001148057752288878,0.0009765743743628263,0.022728394716978073,0.0001420043408870697,0.00034873170079663396,0.0016450255643576384,0,1,-1000,1,0,1,-1,0,-2,1500.0
13:14:05.035,STABILIZE,-35.3632622,149.1652375,0,-0.0009319491218775511,0.0009857146069407463,0.02261582762002945,0.00019801303278654814,0.00022328068735077977,0.0015480463625863194,0,1,-1000,1,0,1,-1,0,-3,1500.0
13:14:05.236,STABILIZE,-35.3632622,149.1652375,0,-0.0009319491218775511,0.0009857146069407463,0.02261582762002945,0.00019801303278654814,0.00022328068735077977,0.0015480463625863194,0,1,-1000,1,0,1,-1,0,-3,1500.0
13:14:05.437,STABILIZE,-35.3632622,149.1652375,0,-0.0009319491218775511,0.0009857146069407463,0.02261582762002945,0.00019801303278654814,0.00022328068735077977,0.0015480463625863194,0,1,-1000,1,0,1,-1,0,-3,1500.0
13:14:05.638,STABILIZE,-35.3632622,149.1652375,0,-0.0008422262035310268,0.0009789817268028855,0.022495418787002563,0.0003500692546367645,0.0003042383468709886,0.0015415530651807785,0,1,-1000,0,0,0,-1,0,-3,1500.0
13:14:05.840,STABILIZE,-35.3632622,149.1652375,0,-0.0008422262035310268,0.0009789817268028855,0.022495418787002563,0.0003500692546367645,0.0003042383468709886,0.0015415530651807785,0,1,-1000,0,0,0,-1,0,-3,1500.0
13:14:06.041,STABILIZE,-35.3632622,149.1652375,0,-0.0008422262035310268,0.0009789817268028855,0.022495418787002563,0.0003500692546367645,0.0003042383468709886,0.0015415530651807785,0,1,-1000,0,0,0,-1,0,-3,1500.0
13:14:06.242,STABILIZE,-35.3632622,149.1652375,0,-0.0008422262035310268,0.0009789817268028855,0.022495418787002563,0.0003500692546367645,0.0003042383468709886,0.0015415530651807785,0,1,-1000,0,0,0,-1,0,-3,1500.0
13:14:06.444,STABILIZE,-35.3632622,149.1652375,0,-0.0008422262035310268,0.0009789817268028855,0.022495418787002563,0.0003500692546367645,0.0003042383468709886,0.0015415530651807785,0,1,-1000,0,0,0,-1,0,-3,1500.0
13:14:06.646,STABILIZE,-35.3632622,149.1652375,0,-0.0007049827254377306,0.0009875179966911674,0.02225382626056671,0.0002851552562788129,0.00026342610362917185,0.001668986165896058,0,1,-1000,0,0,0,-1,1,-3,1500.0
13:14:06.847,STABILIZE,-35.3632622,149.1652375,0,-0.0006902082241140306,0.0009895383846014738,0.022190408781170845,0.00030115520348772407,0.0002788014244288206,0.0014247377403080463,0,1,-1000,0,1,1,-1,1,-3,1500.0
13:14:07.048,STABILIZE,-35.3632622,149.1652375,0,-0.0006902082241140306,0.0009895383846014738,0.022190408781170845,0.00030115520348772407,0.0002788014244288206,0.0014247377403080463,0,1,-1000,0,1,1,-1,1,-3,1500.0
13:14:07.249,STABILIZE,-35.3632622,149.1652375,0,-0.0006902082241140306,0.0009895383846014738,0.022190408781170845,0.00030115520348772407,0.0002788014244288206,0.0014247377403080463,0,1,-1000,0,1,1,-1,1,-3,1500.0
13:14:07.450,STABILIZE,-35.3632622,149.1652375,0,-0.0006902082241140306,0.0009895383846014738,0.022190408781170845,0.00030115520348772407,0.0002788014244288206,0.0014247377403080463,0,1,-1000,0,1,1,-1,1,-3,1500.0
13:14:07.652,STABILIZE,-35.3632622,149.1652375,0,-0.0006672826712019742,0.0009975942084565759,0.021975502371788025,0.00025011104298755527,0.0002897869562730193,0.0015162015333771706,0,1,-1000,1,1,0,-1,1,-2,1500.0
13:14:07.853,STABILIZE,-35.3632622,149.1652375,0,-0.0006719268276356161,0.0010009612888097763,0.021906306967139244,0.00023449782747775316,0.00021569529781118035,0.0013915583258494735,0,2,-1000,0,1,0,-1,1,-2,1500.0
13:14:08.054,STABILIZE,-35.3632622,149.1652375,0,-0.0006719268276356161,0.0010009612888097763,0.021906306967139244,0.00023449782747775316,0.00021569529781118035,0.0013915583258494735,0,2,-1000,0,1,0,-1,1,-2,1500.0
13:14:08.255,STABILIZE,-35.3632622,149.1652375,0,-0.0006719268276356161,0.0010009612888097763,0.021906306967139244,0.00023449782747775316,0.00021569529781118035,0.0013915583258494735,0,2,-1000,0,1,0,-1,1,-2,1500.0
13:14:08.457,STABILIZE,-35.3632622,149.1652375,0,-0.0006719268276356161,0.0010009612888097763,0.021906306967139244,0.00023449782747775316,0.00021569529781118035,0.0013915583258494735,0,2,-1000,0,1,0,-1,1,-2,1500.0
13:14:08.658,STABILIZE,-35.3632622,149.1652375,0,-0.0007255527889356017,0.0009756469517014921,0.021694790571928024,0.00018336373614147305,0.000268698378931731,0.001531811198219657,0,1,-1000,1,0,1,-1,1,-2,1500.0
13:14:08.859,STABILIZE,-35.3632622,149.1652375,0,-0.0007255527889356017,0.0009756469517014921,0.021694790571928024,0.00018336373614147305,0.000268698378931731,0.001531811198219657,0,1,-1000,1,0,1,-1,1,-2,1500.0
13:14:09.060,STABILIZE,-35.3632622,149.1652375,0,-0.0007255527889356017,0.0009756469517014921,0.021694790571928024,0.00018336373614147305,0.000268698378931731,0.001531811198219657,0,1,-1000,1,0,1,-1,1,-2,1500.0
13:14:09.270,AUTO,-35.3632622,149.1652375,0,-0.0007629193132743239,0.000966502062510699,0.021572258323431015,0.0002600658335722983,0.0001698689884506166,0.0014085675356909633,0,1,-1000,1,0,0,-1,1,-1,1500.0
13:14:09.472,AUTO,-35.3632622,149.1652375,2,-0.0007825999637134373,0.0009662610245868564,0.021536828950047493,0.000209987279959023,0.0002896882360801101,0.0013743997551500797,0,2,-1000,0,1,0,-1,1,-1,255162.0
13:14:09.673,AUTO,-35.3632622,149.1652375,3,-0.0007967114797793329,0.0009686815901659429,0.021488850936293602,0.00020884053083136678,0.00027904624585062265,0.001488698530010879,0,1,-1000,1,0,0,-1,1,-1,255162.0
13:14:09.875,AUTO,-35.3632622,149.1652375,4,-0.0008043422712944448,0.0009748476441018283,0.02143973857164383,0.0003903517499566078,0.00026069930754601955,0.0014803189551457763,0,2,-1000,0,0,0,-1,1,-1,255162.0
13:14:10.077,AUTO,-35.3632622,149.1652375,4,-0.0008043422712944448,0.0009748476441018283,0.02143973857164383,0.0003903517499566078,0.00026069930754601955,0.0014803189551457763,0,2,-1000,0,0,0,-1,1,-1,255162.0
13:14:10.278,AUTO,-35.3632622,149.1652375,4,-0.0008043422712944448,0.0009748476441018283,0.02143973857164383,0.0003903517499566078,0.00026069930754601955,0.0014803189551457763,0,2,-1000,0,0,0,-1,1,-1,255162.0
13:14:10.480,AUTO,-35.3632622,149.1652375,4,-0.0008043422712944448,0.0009748476441018283,0.02143973857164383,0.0003903517499566078,0.00026069930754601955,0.0014803189551457763,0,2,-1000,0,0,0,-1,1,-1,255162.0
13:14:10.681,AUTO,-35.3632621,149.1652375,6,-0.0007249217596836388,0.0010730632347986102,0.021298088133335114,0.00042464007856324315,0.0002947996836155653,0.0014349148841574788,0,2,-1000,1,0,1,0,0,-1,255162.0
13:14:10.883,AUTO,-35.3632621,149.1652375,6,-0.0006780684343539178,0.0011291301343590021,0.021236704662442207,0.0002709687687456608,0.00028743979055434465,0.0014758522156625986,0,1,-1000,0,0,1,0,0,-1,255162.0
13:14:11.085,AUTO,-35.3632621,149.1652375,6,-0.0006780684343539178,0.0011291301343590021,0.021236704662442207,0.0002709687687456608,0.00028743979055434465,0.0014758522156625986,0,1,-1000,0,0,1,0,0,-1,255162.0
13:14:11.287,AUTO,-35.3632621,149.1652375,6,-0.0006396585959009826,0.0011892705224454403,0.021175989881157875,0.0002114502713084221,0.0003250990412198007,0.001334227854385972,0,1,-1000,1,1,1,0,0,-1,255162.0
13:14:11.489,AUTO,-35.3632621,149.1652375,7,-0.0005910753388889134,0.001262035802938044,0.021118570119142532,0.0003715382772497833,0.00031341228168457747,0.0013707674806937575,0,2,-1000,0,0,0,0,0,-1,255162.0
13:14:11.691,AUTO,-35.3632621,149.1652375,7,-0.0005300387274473906,0.0013292980147525668,0.02106454409658909,0.000292499375063926,0.00029932247707620263,0.0012372868368402123,0,2,-1000,1,0,0,0,0,-1,255162.0
13:14:11.893,AUTO,-35.3632621,149.1652375,6,-0.00047749478835612535,0.001393448910675943,0.021006343886256218,0.00028513127472251654,0.0002308712573722005,0.0013714747037738562,0,1,-1000,0,1,1,0,0,-1,255162.0
13:14:12.094,AUTO,-35.3632621,149.1652375,6,-0.00047749478835612535,0.001393448910675943,0.021006343886256218,0.00028513127472251654,0.0002308712573722005,0.0013714747037738562,0,1,-1000,0,1,1,0,0,-1,255162.0
13:14:12.297,AUTO,-35.3632621,149.1652375,6,-0.00047749478835612535,0.001393448910675943,0.021006343886256218,0.00028513127472251654,0.0002308712573722005,0.0013714747037738562,0,1,-1000,0,1,1,0,0,-1,247367.0
13:14:12.498,AUTO,-35.3632621,149.1652375,6,-0.00047749478835612535,0.001393448910675943,0.021006343886256218,0.00028513127472251654,0.0002308712573722005,0.0013714747037738562,0,1,-1000,0,1,1,0,0,-1,247367.0
13:14:12.700,AUTO,-35.3632621,149.1652375,5,-0.00028947083046659827,0.0016139360377565026,0.020827868953347206,0.00033716694451868534,0.000248423486482352,0.0012619704939424992,0,2,-1000,0,1,1,0,0,0,247367.0
13:14:12.901,AUTO,-35.3632621,149.1652375,5,-0.00021356361685320735,0.0016953146550804377,0.020754383876919746,0.00039402302354574203,0.0003685725969262421,0.0013242110144346952,0,1,-1000,1,0,0,0,0,0,247367.0
13:14:13.103,AUTO,-35.3632621,149.1652375,5,-0.00021356361685320735,0.0016953146550804377,0.020754383876919746,0.00039402302354574203,0.0003685725969262421,0.0013242110144346952,0,1,-1000,1,0,0,0,0,0,247367.0
13:14:13.304,AUTO,-35.3632621,149.1652375,6,0.0009468850330449641,0.0010480164783075452,0.020732326433062553,0.008139299228787422,-0.010329479351639748,0.001530162408016622,0,0,-1089,8,-9,1,0,0,-6,247367.0
13:14:13.506,AUTO,-35.3632621,149.1652375,66,0.003908942919224501,-0.0005993099766783416,0.020717671141028404,0.011491872370243073,-3.075797576457262e-05,0.000539297005161643,0,0,-1141,12,0,0,0,0,-40,247367.0
13:14:13.708,AUTO,-35.3632621,149.1652375,210,0.0033859312534332275,0.0002648829249665141,0.020691920071840286,0.001390133984386921,0.005164936650544405,0.0007541346130892634,0,0,-1129,1,5,0,0,0,-73,247367.0
13:14:13.909,AUTO,-35.3632621,149.1652375,426,0.0018932297825813293,0.0013218974927440286,0.020712219178676605,-0.013632452115416527,0.001969001954421401,-4.921050276607275e-06,0,0,-1108,-12,2,0,0,1,-102,247367.0
13:14:14.115,AUTO,-35.3632621,149.1652375,426,0.0018932297825813293,0.0013218974927440286,0.020712219178676605,-0.013632452115416527,0.001969001954421401,-4.921050276607275e-06,0,0,-1108,-12,2,0,0,1,-102,247367.0
13:14:14.319,AUTO,-35.3632621,149.1652375,426,0.0018932297825813293,0.0013218974927440286,0.020712219178676605,-0.013632452115416527,0.001969001954421401,-4.921050276607275e-06,0,0,-1108,-12,2,0,0,1,-102,247367.0
13:14:14.521,AUTO,-35.3632621,149.1652375,426,0.0018932297825813293,0.0013218974927440286,0.020712219178676605,-0.013632452115416527,0.001969001954421401,-4.921050276607275e-06,0,0,-1108,-12,2,0,0,1,-102,247367.0
13:14:14.722,AUTO,-35.3632621,149.1652375,1400,0.023298580199480057,-0.0012687394628301263,0.020053653046488762,0.04711960256099701,-0.007320850621908903,0.0018959357403218746,0,0,-1017,47,-6,1,1,5,-145,247367.0
13:14:14.924,AUTO,-35.363262,149.1652377,1776,0.03466712683439255,-0.003237398574128747,0.02014191262423992,0.04437355697154999,-0.00826523918658495,0.0024615798611193895,0,-1,-1007,45,-7,2,2,12,-148,247367.0
13:14:15.125,AUTO,-35.3632619,149.1652381,2156,0.045501336455345154,-0.005463229026645422,0.02034587226808071,0.04183126613497734,-0.009131718426942825,0.0030836015939712524,0,-2,-1003,42,-8,2,3,20,-149,247367.0
13:14:15.327,AUTO,-35.3632619,149.1652381,2156,0.045501336455345154,-0.005463229026645422,0.02034587226808071,0.04183126613497734,-0.009131718426942825,0.0030836015939712524,0,-2,-1003,42,-8,2,3,20,-149,188555.0
13:14:15.528,AUTO,-35.3632618,149.1652388,2539,0.055575646460056305,-0.008156132884323597,0.02055797353386879,0.03967508673667908,-0.01129703689366579,0.0037275468930602074,1,-5,-1000,40,-10,3,5,31,-149,188555.0
13:14:15.730,AUTO,-35.3632616,149.1652398,2921,0.061359211802482605,-0.008444863371551037,-0.010282405652105808,-0.014883964322507381,0.028358153998851776,-0.04609913378953934,1,-7,-993,-14,29,-46,8,44,-148,188555.0
13:14:15.931,AUTO,-35.3632613,149.1652411,3299,0.03906840831041336,0.014338107779622078,-0.03342021629214287,-0.14735232293605804,0.09388331323862076,-0.10215616971254349,2,-11,-991,-146,94,-102,9,53,-145,188555.0
13:14:16.133,AUTO,-35.3632613,149.1652411,3299,0.03906840831041336,0.014338107779622078,-0.03342021629214287,-0.14735232293605804,0.09388331323862076,-0.10215616971254349,2,-11,-991,-146,94,-102,9,53,-145,188555.0
13:14:16.335,AUTO,-35.3632613,149.1652411,3299,0.03906840831041336,0.014338107779622078,-0.03342021629214287,-0.14735232293605804,0.09388331323862076,-0.10215616971254349,2,-11,-991,-146,94,-102,9,53,-145,188555.0
13:14:16.537,AUTO,-35.3632613,149.1652411,3299,0.03906840831041336,0.014338107779622078,-0.03342021629214287,-0.14735232293605804,0.09388331323862076,-0.10215616971254349,2,-11,-991,-146,94,-102,9,53,-145,188555.0
13:14:16.739,AUTO,-35.363261,149.1652451,4438,-0.036355841904878616,0.030405152589082718,-0.09595496952533722,-0.042963821440935135,-0.026738489046692848,-0.047851283103227615,5,-8,-1004,-42,-26,-48,-5,35,-149,188555.0
13:14:16.940,AUTO,-35.363261,149.1652459,4821,-0.05110480263829231,0.014746282249689102,-0.09788808971643448,-0.06728144735097885,-0.08582059293985367,0.015674633905291557,5,-5,-1001,-66,-84,15,-9,23,-149,188555.0
13:14:17.142,AUTO,-35.3632612,149.1652464,5203,-0.06927808374166489,-0.009433083236217499,-0.08553553372621536,-0.0734790787100792,-0.10401307791471481,0.054364632815122604,4,-2,-1000,-72,-103,54,-9,7,-149,188555.0
13:14:17.344,AUTO,-35.3632612,149.1652464,5203,-0.06927808374166489,-0.009433083236217499,-0.08553553372621536,-0.0734790787100792,-0.10401307791471481,0.054364632815122604,4,-2,-1000,-72,-103,54,-9,7,-149,188555.0
13:14:17.547,AUTO,-35.3632614,149.1652463,5586,-0.07543504238128662,-0.020202644169330597,-0.07981330901384354,0.012782381847500801,-0.0031510761473327875,0.003547322703525424,1,1,-1004,13,-2,3,-5,-11,-149,188555.0
13:14:17.749,AUTO,-35.3632615,149.1652457,5969,-0.06715407222509384,-0.018942078575491905,-0.0796886682510376,0.047149837017059326,0.003350288374349475,0.0033784571569412947,-1,5,-1002,47,4,3,-2,-29,-149,188555.0
13:14:17.951,AUTO,-35.3632615,149.1652448,6352,-0.053981900215148926,-0.018014151602983475,-0.08039988577365875,0.05755043402314186,0.0033285985700786114,0.004210066515952349,-3,6,-1001,57,4,3,0,-43,-149,188555.0
13:14:18.153,AUTO,-35.3632615,149.1652448,6352,-0.053981900215148926,-0.018014151602983475,-0.08039988577365875,0.05755043402314186,0.0033285985700786114,0.004210066515952349,-3,6,-1001,57,4,3,0,-43,-149,188555.0
13:14:18.354,AUTO,-35.3632615,149.1652448,6352,-0.053981900215148926,-0.018014151602983475,-0.08039988577365875,0.05755043402314186,0.0033285985700786114,0.004210066515952349,-3,6,-1001,57,4,3,0,-43,-149,83479.0
13:14:18.556,AUTO,-35.3632615,149.1652448,6352,-0.053981900215148926,-0.018014151602983475,-0.08039988577365875,0.05755043402314186,0.0033285985700786114,0.004210066515952349,-3,6,-1001,57,4,3,0,-43,-149,83479.0
13:14:18.758,AUTO,-35.3632615,149.1652403,7502,-0.007492493372410536,-0.009181576780974865,-0.07984158396720886,0.06409987062215805,0.017399506643414497,0.004754368681460619,-9,8,-1003,64,18,4,5,-60,-150,83479.0
13:14:18.960,AUTO,-35.3632614,149.1652386,7889,0.008699513971805573,-0.004594528116285801,-0.07908616960048676,0.06501854956150055,0.01876441389322281,0.004756745416671038,-9,12,-1004,65,19,4,5,-58,-151,83479.0
13:14:19.162,AUTO,-35.3632613,149.165237,8279,0.024630535393953323,-1.0252700121782254e-05,-0.07820466160774231,0.06465155631303787,0.01791245862841606,0.004720525350421667,-8,9,-1004,65,18,4,4,-52,-152,83479.0
13:14:19.364,AUTO,-35.3632612,149.1652356,8674,0.040561895817518234,0.0041685085743665695,-0.07723365724086761,0.06131083890795708,0.015458730980753899,0.004830205347388983,-7,10,-1003,61,16,4,3,-42,-153,83479.0
13:14:19.566,AUTO,-35.3632612,149.1652356,8674,0.040561895817518234,0.0041685085743665695,-0.07723365724086761,0.06131083890795708,0.015458730980753899,0.004830205347388983,-7,10,-1003,61,16,4,3,-42,-153,83479.0
13:14:19.768,AUTO,-35.3632611,149.1652345,9066,0.053516238927841187,0.009224888868629932,-0.0783790573477745,0.032808542251586914,0.03270202875137329,-0.01926741562783718,-6,7,-1000,33,33,-19,1,-28,-153,83479.0
13:14:19.970,AUTO,-35.3632611,149.1652338,9457,0.05943457409739494,0.020091580227017403,-0.08560867607593536,0.016620351001620293,0.0482025109231472,-0.042220696806907654,-4,5,-999,17,48,-42,-1,-14,-152,83479.0
13:14:20.172,AUTO,-35.3632611,149.1652338,9457,0.05943457409739494,0.020091580227017403,-0.08560867607593536,0.016620351001620293,0.0482025109231472,-0.042220696806907654,-4,5,-999,17,48,-42,-1,-14,-152,83479.0
13:14:20.374,AUTO,-35.3632611,149.1652338,9457,0.05943457409739494,0.020091580227017403,-0.08560867607593536,0.016620351001620293,0.0482025109231472,-0.042220696806907654,-4,5,-999,17,48,-42,-1,-14,-152,83479.0
13:14:20.576,AUTO,-35.3632611,149.1652338,9457,0.05943457409739494,0.020091580227017403,-0.08560867607593536,0.016620351001620293,0.0482025109231472,-0.042220696806907654,-4,5,-999,17,48,-42,-1,-14,-152,83479.0
13:14:20.778,AUTO,-35.3632616,149.1652341,10614,0.0315752774477005,0.017848560586571693,-0.09953945130109787,-0.08394299447536469,-0.05726758390665054,0.021509015932679176,4,-1,-997,-83,-56,21,-16,23,-148,83479.0
13:14:20.981,AUTO,-35.3632619,149.1652346,10996,0.011644952930510044,0.005336015485227108,-0.09543337672948837,-0.07274559140205383,-0.042283110320568085,0.019286999478936195,5,-4,-1001,-71,-41,18,-16,27,-148,83479.0
13:14:21.182,AUTO,-35.3632623,149.1652353,11378,-0.003041444579139352,-0.0033818217925727367,-0.09260505437850952,-0.0510283038020134,-0.027917295694351196,0.008225487545132637,6,-3,-1003,-50,-27,8,-14,26,-149,83479.0
13:14:21.384,AUTO,-35.3632626,149.165236,11763,-0.012910181656479836,-0.00825914554297924,-0.09246662259101868,-0.025073878467082977,-0.014531937427818775,-0.0033228686079382896,5,-3,-1004,-24,-13,-3,-11,22,-150,237371.0
13:14:21.586,AUTO,-35.3632626,149.165236,11763,-0.012910181656479836,-0.00825914554297924,-0.09246662259101868,-0.025073878467082977,-0.014531937427818775,-0.0033228686079382896,5,-3,-1004,-24,-13,-3,-11,22,-150,237371.0
13:14:21.788,AUTO,-35.3632628,149.1652365,12149,-0.017349978908896446,-0.01084961835294962,-0.09477388858795166,-0.012337448075413704,-0.006635410711169243,-0.01091119833290577,4,-2,-1002,-11,-5,-11,-7,17,-151,237371.0
13:14:21.991,AUTO,-35.3632629,149.1652368,12537,-0.01855282112956047,-0.01186463050544262,-0.09908946603536606,-0.0013416251167654991,-0.0013952655717730522,-0.019023744389414787,2,-1,-1001,0,0,-19,-4,10,-151,237371.0
13:14:22.193,AUTO,-35.3632629,149.1652368,12537,-0.01855282112956047,-0.01186463050544262,-0.09908946603536606,-0.0013416251167654991,-0.0013952655717730522,-0.019023744389414787,2,-1,-1001,0,0,-19,-4,10,-151,237371.0
13:14:22.394,AUTO,-35.3632629,149.1652368,12537,-0.01855282112956047,-0.01186463050544262,-0.09908946603536606,-0.0013416251167654991,-0.0013952655717730522,-0.019023744389414787,2,-1,-1001,0,0,-19,-4,10,-151,237371.0
13:14:22.596,AUTO,-35.3632629,149.1652368,12537,-0.01855282112956047,-0.01186463050544262,-0.09908946603536606,-0.0013416251167654991,-0.0013952655717730522,-0.019023744389414787,2,-1,-1001,0,0,-19,-4,10,-151,237371.0
13:14:22.798,AUTO,-35.3632628,149.165237,13703,-0.009699126705527306,-0.007952054031193256,-0.11896943300962448,0.016610801219940186,0.010895171202719212,-0.02779213897883892,-1,0,-1000,17,11,-28,4,-3,-152,237371.0
13:14:23.000,AUTO,-35.3632628,149.1652369,14092,-0.005024752113968134,-0.005288301967084408,-0.12630699574947357,0.01885758712887764,0.010769965127110481,-0.026583438739180565,-2,0,-1000,19,11,-26,5,-6,-152,237371.0
13:14:23.202,AUTO,-35.3632626,149.1652367,14482,-0.0005910387844778597,-0.002755396068096161,-0.1332264393568039,0.015742667019367218,0.010814754292368889,-0.025484522804617882,-2,0,-1000,16,11,-25,6,-7,-152,237371.0
13:14:23.403,AUTO,-35.3632624,149.1652364,14872,0.0029868236742913723,-3.329637547722086e-05,-0.1398264467716217,0.015295067802071571,0.010858307592570782,-0.02392733283340931,-2,0,-1000,15,11,-24,6,-8,-152,237371.0
13:14:23.605,AUTO,-35.3632624,149.1652364,14872,0.0029868236742913723,-3.329637547722086e-05,-0.1398264467716217,0.015295067802071571,0.010858307592570782,-0.02392733283340931,-2,0,-1000,15,11,-24,6,-8,-152,237371.0
13:14:23.806,AUTO,-35.3632623,149.1652362,15262,0.006103049498051405,0.0022172366734594107,-0.14564406871795654,0.012746989727020264,0.009028816595673561,-0.02199755609035492,-3,1,-1000,13,9,-21,6,-7,-152,237371.0
13:14:24.009,AUTO,-35.3632621,149.165236,15651,0.008397655561566353,0.004382939077913761,-0.1511247754096985,0.006859755143523216,0.008698420599102974,-0.020112594589591026,-2,0,-1000,7,9,-20,5,-6,-152,237371.0
13:14:24.221,AUTO,-35.3632621,149.165236,15651,0.008397655561566353,0.004382939077913761,-0.1511247754096985,0.006859755143523216,0.008698420599102974,-0.020112594589591026,-2,0,-1000,7,9,-20,5,-6,-152,237371.0
13:14:24.423,AUTO,-35.3632621,149.165236,15651,0.008397655561566353,0.004382939077913761,-0.1511247754096985,0.006859755143523216,0.008698420599102974,-0.020112594589591026,-2,0,-1000,7,9,-20,5,-6,-152,98126.0
13:14:24.628,AUTO,-35.3632617,149.1652355,16819,0.010443626902997494,0.007869677618145943,-0.16425278782844543,0.0010771963279694319,0.00274326978251338,-0.014518441632390022,-1,0,-1000,1,3,-14,2,0,-152,98126.0
13:14:24.829,AUTO,-35.3632617,149.1652355,16819,0.010443626902997494,0.007869677618145943,-0.16425278782844543,0.0010771963279694319,0.00274326978251338,-0.014518441632390022,-1,0,-1000,1,3,-14,2,0,-152,98126.0
13:14:25.030,AUTO,-35.3632617,149.1652355,17209,0.009969762526452541,0.008010775782167912,-0.16757731139659882,-0.003181497100740671,-0.0007303338497877121,-0.010720682330429554,-1,0,-999,-2,0,-10,1,1,-152,98126.0
13:14:25.232,AUTO,-35.3632616,149.1652355,17602,0.008897983469069004,0.007855873554944992,-0.17089471220970154,-0.002373530762270093,-0.0009288766304962337,-0.014534671790897846,0,0,-1000,-1,0,-14,0,3,-152,98126.0
13:14:25.433,AUTO,-35.3632616,149.1652355,17991,0.007718008477240801,0.007492437027394772,-0.17407189309597015,-0.0021533803083002567,8.841656381264329e-05,-0.013033172115683556,0,0,-1000,-1,1,-13,-1,4,-152,98126.0
13:14:25.634,AUTO,-35.3632615,149.1652355,18381,0.006679074373096228,0.007126351818442345,-0.1772966980934143,-0.0040689874440431595,-0.0014308878453448415,-0.01227876078337431,0,0,-1000,-3,0,-12,-1,5,-152,98126.0
13:14:25.836,AUTO,-35.3632615,149.1652355,18381,0.006679074373096228,0.007126351818442345,-0.1772966980934143,-0.0040689874440431595,-0.0014308878453448415,-0.01227876078337431,0,0,-1000,-3,0,-12,-1,5,-152,98126.0
13:14:26.038,AUTO,-35.3632615,149.1652356,18770,0.005800226703286171,0.006402851548045874,-0.1803966462612152,-0.0038022641092538834,-0.004723464138805866,-0.010653545148670673,0,0,-1000,-2,-3,-10,-2,6,-152,98126.0
13:14:26.239,AUTO,-35.3632615,149.1652356,18770,0.005800226703286171,0.006402851548045874,-0.1803966462612152,-0.0038022641092538834,-0.004723464138805866,-0.010653545148670673,0,0,-1000,-2,-3,-10,-2,6,-152,98126.0
13:14:26.441,AUTO,-35.3632615,149.1652356,18770,0.005800226703286171,0.006402851548045874,-0.1803966462612152,-0.0038022641092538834,-0.004723464138805866,-0.010653545148670673,0,0,-1000,-2,-3,-10,-2,6,-152,98126.0
13:14:26.643,AUTO,-35.3632615,149.1652359,19932,-0.01743917353451252,0.004443925805389881,-0.19137433171272278,-0.09278906136751175,0.0003476300626061857,-0.01812082715332508,1,-1,-995,-91,1,-18,-4,3,-151,98126.0
13:14:26.844,AUTO,-35.3632615,149.1652359,19932,-0.01743917353451252,0.004443925805389881,-0.19137433171272278,-0.09278906136751175,0.0003476300626061857,-0.01812082715332508,1,-1,-995,-91,1,-18,-4,3,-151,98126.0
13:14:27.046,AUTO,-35.3632616,149.1652358,20315,-0.04096869379281998,0.0057885292917490005,-0.1923549920320511,-0.07313921302556992,0.031169919297099113,0.04794333502650261,0,0,-988,-72,31,47,-5,-4,-149,98126.0
13:14:27.247,AUTO,-35.3632617,149.1652356,20691,-0.048679787665605545,0.026974240317940712,-0.14959903061389923,-0.012953135184943676,0.09937158226966858,0.2855703830718994,-1,2,-981,-12,100,285,-10,-15,-145,98126.0
13:14:27.449,AUTO,-35.363262,149.165235,21055,-0.04895385354757309,0.053742583841085434,-0.045437850058078766,-0.010309567674994469,0.05682070553302765,0.4879000186920166,0,5,-977,-9,57,487,-20,-25,-140,247432.0
13:14:27.651,AUTO,-35.3632625,149.1652341,21400,-0.027176430448889732,0.03828785941004753,0.04785938560962677,0.11848603188991547,-0.16002728044986725,0.2574594020843506,2,9,-955,119,-159,257,-31,-33,-129,247432.0
13:14:27.852,AUTO,-35.3632625,149.1652341,21400,-0.027176430448889732,0.03828785941004753,0.04785938560962677,0.11848603188991547,-0.16002728044986725,0.2574594020843506,2,9,-955,119,-159,257,-31,-33,-129,247432.0
13:14:28.054,AUTO,-35.3632632,149.1652331,21716,0.006059224717319012,-0.0039013950154185295,0.08620346337556839,0.1276892125606537,-0.15442544221878052,0.06896983087062836,3,8,-955,128,-153,69,-34,-34,-118,247432.0
13:14:28.256,AUTO,-35.3632632,149.1652331,21716,0.006059224717319012,-0.0039013950154185295,0.08620346337556839,0.1276892125606537,-0.15442544221878052,0.06896983087062836,3,8,-955,128,-153,69,-34,-34,-118,247432.0
13:14:28.458,AUTO,-35.3632632,149.1652331,21716,0.006059224717319012,-0.0039013950154185295,0.08620346337556839,0.1276892125606537,-0.15442544221878052,0.06896983087062836,3,8,-955,128,-153,69,-34,-34,-118,247432.0
13:14:28.660,AUTO,-35.3632646,149.1652313,22506,0.05767373368144035,-0.04191194474697113,0.0673927366733551,0.005009313579648733,0.0076218280009925365,-0.03857600316405296,1,2,-965,5,8,-38,-9,0,-88,247432.0
13:14:28.863,AUTO,-35.3632647,149.1652313,22721,0.05549353361129761,-0.03689677268266678,0.06093408167362213,-0.020627925172448158,0.025236722081899643,-0.01941555365920067,1,0,-969,-19,26,-19,0,12,-79,247432.0
13:14:29.064,AUTO,-35.3632647,149.1652313,22721,0.05549353361129761,-0.03689677268266678,0.06093408167362213,-0.020627925172448158,0.025236722081899643,-0.01941555365920067,1,0,-969,-19,26,-19,0,12,-79,247432.0
13:14:29.266,AUTO,-35.3632647,149.1652317,22914,0.047989413142204285,-0.028700705617666245,0.0579703189432621,-0.033855803310871124,0.03644188866019249,-0.007365701254457235,0,-3,-972,-32,37,-7,7,24,-72,247432.0
13:14:29.468,AUTO,-35.3632645,149.1652324,23090,0.037502143532037735,-0.019512001425027847,0.05708501487970352,-0.04235181584954262,0.03694827854633331,0.0008650784729979932,0,-6,-975,-41,38,0,12,32,-65,247432.0
13:14:29.670,AUTO,-35.3632641,149.1652333,23249,0.02656933106482029,-0.010652821511030197,0.05668744817376137,-0.04527375474572182,0.03537353500723839,0.002763936994597316,1,-9,-975,-44,36,2,16,37,-59,247432.0
13:14:29.872,AUTO,-35.3632637,149.1652343,23392,0.016651587560772896,-0.002356765093281865,0.05616717040538788,-0.036492057144641876,0.029155807569622993,0.0022481209598481655,0,-10,-977,-35,30,2,18,39,-53,247432.0
13:14:30.074,AUTO,-35.3632637,149.1652343,23392,0.016651587560772896,-0.002356765093281865,0.05616717040538788,-0.036492057144641876,0.029155807569622993,0.0022481209598481655,0,-10,-977,-35,30,2,18,39,-53,247432.0
13:14:30.276,AUTO,-35.3632637,149.1652343,23392,0.016651587560772896,-0.002356765093281865,0.05616717040538788,-0.036492057144641876,0.029155807569622993,0.0022481209598481655,0,-10,-977,-35,30,2,18,39,-53,247432.0
13:14:30.478,AUTO,-35.3632637,149.1652343,23392,0.016651587560772896,-0.002356765093281865,0.05616717040538788,-0.036492057144641876,0.029155807569622993,0.0022481209598481655,0,-10,-977,-35,30,2,18,39,-53,140977.0
13:14:30.680,AUTO,-35.3632624,149.1652371,23734,-0.004055216908454895,0.01222686655819416,0.05370364338159561,-0.007216335739940405,0.01128888688981533,-0.0006828897749073803,0,-8,-977,-6,12,0,16,32,-36,140977.0
13:14:30.881,AUTO,-35.3632621,149.1652379,23818,-0.00783007126301527,0.013999820686876774,0.052938010543584824,-0.01927560195326805,0.002622850937768817,-0.0020486116409301758,0,-9,-975,-18,3,-2,13,28,-30,140977.0
13:14:31.083,AUTO,-35.3632621,149.1652379,23818,-0.00783007126301527,0.013999820686876774,0.052938010543584824,-0.01927560195326805,0.002622850937768817,-0.0020486116409301758,0,-9,-975,-18,3,-2,13,28,-30,140977.0
13:14:31.284,AUTO,-35.3632617,149.1652386,23886,-0.010033683851361275,0.014480537734925747,0.05206139013171196,-0.011721904389560223,0.0030746846459805965,-0.0026514753699302673,0,-6,-974,-10,3,-2,10,23,-24,140977.0
13:14:31.487,AUTO,-35.3632615,149.1652391,23938,-0.010494312271475792,0.01456164289265871,0.050999630242586136,0.026458147913217545,0.0014705659123137593,-0.0029070707969367504,0,-3,-972,27,2,-2,8,19,-17,140977.0
13:14:31.689,AUTO,-35.3632613,149.1652395,23972,-0.010856594890356064,0.013829936273396015,0.050273679196834564,-0.014737546443939209,-0.004890588112175465,-0.0029806653037667274,0,-5,-969,-13,-4,-2,5,14,-10,140977.0
13:14:31.890,AUTO,-35.3632612,149.1652398,23986,-0.012437805533409119,0.012657806277275085,0.04948056489229202,-0.083561010658741,0.00212573679164052,-0.005453021731227636,0,-4,-964,-82,3,-5,2,10,-2,140977.0
13:14:32.092,AUTO,-35.3632612,149.1652398,23986,-0.012437805533409119,0.012657806277275085,0.04948056489229202,-0.083561010658741,0.00212573679164052,-0.005453021731227636,0,-4,-964,-82,3,-5,2,10,-2,140977.0
13:14:32.294,AUTO,-35.3632612,149.1652398,23986,-0.012437805533409119,0.012657806277275085,0.04948056489229202,-0.083561010658741,0.00212573679164052,-0.005453021731227636,0,-4,-964,-82,3,-5,2,10,-2,140977.0
13:14:32.496,AUTO,-35.3632612,149.1652398,23986,-0.012437805533409119,0.012657806277275085,0.04948056489229202,-0.083561010658741,0.00212573679164052,-0.005453021731227636,0,-4,-964,-82,3,-5,2,10,-2,140977.0
13:14:32.698,AUTO,-35.3632612,149.1652395,23862,-0.03732107952237129,-0.012087232433259487,0.04595763981342316,-0.8180663585662842,-0.07359974086284637,-0.0054364921525120735,-2,-41,-984,-817,-72,-5,-4,-19,22,140977.0
13:14:32.900,AUTO,-35.3632612,149.1652389,23807,-0.03100176341831684,-0.026047449558973312,0.045124076306819916,-0.5054461359977722,-0.04040173441171646,-0.00949113629758358,-5,-7,-1039,-503,-39,-9,0,-23,15,140977.0
13:14:33.101,AUTO,-35.3632612,149.1652389,23807,-0.03100176341831684,-0.026047449558973312,0.045124076306819916,-0.5054461359977722,-0.04040173441171646,-0.00949113629758358,-5,-7,-1039,-503,-39,-9,0,-23,15,140977.0
13:14:33.303,AUTO,-35.3632612,149.1652382,23771,-0.02540593594312668,-0.03695625439286232,0.04416155070066452,0.08947338163852692,-0.03992297500371933,-0.01460202131420374,-4,33,-1018,91,-38,-14,7,-27,9,140977.0
13:14:33.504,AUTO,-35.3632609,149.1652373,23744,-0.016154073178768158,-0.046436429023742676,0.042923860251903534,0.6725896000862122,-0.03695889934897423,-0.009073701687157154,-6,32,-1029,674,-35,-9,16,-31,5,76215.0
13:14:33.706,AUTO,-35.3632604,149.1652364,23728,-0.014120008796453476,-0.055157214403152466,0.04219454899430275,0.32981768250465393,-0.03378880396485329,-0.002180011011660099,-10,5,-1014,329,-32,-2,27,-36,2,76215.0
13:14:33.908,AUTO,-35.3632596,149.1652354,23719,-0.024180078878998756,-0.06354205310344696,0.03805026784539223,-0.2871570587158203,-0.028595978394150734,-0.05560050532221794,-13,-25,-996,-287,-27,-55,39,-41,1,76215.0
13:14:34.122,AUTO,-35.3632596,149.1652354,23719,-0.024180078878998756,-0.06354205310344696,0.03805026784539223,-0.2871570587158203,-0.028595978394150734,-0.05560050532221794,-13,-25,-996,-287,-27,-55,39,-41,1,76215.0
13:14:34.324,AUTO,-35.3632596,149.1652354,23719,-0.024180078878998756,-0.06354205310344696,0.03805026784539223,-0.2871570587158203,-0.028595978394150734,-0.05560050532221794,-13,-25,-996,-287,-27,-55,39,-41,1,76215.0
13:14:34.529,AUTO,-35.3632596,149.1652354,23719,-0.024180078878998756,-0.06354205310344696,0.03805026784539223,-0.2871570587158203,-0.028595978394150734,-0.05560050532221794,-13,-25,-996,-287,-27,-55,39,-41,1,76215.0
13:14:34.731,AUTO,-35.3632556,149.1652314,23712,-0.00926654227077961,-0.09684812277555466,-0.32687127590179443,0.347099632024765,-0.04124826192855835,-0.5923829078674316,-24,24,-1007,349,-40,-592,82,-61,-1,76215.0
13:14:34.933,AUTO,-35.3632536,149.1652296,23713,0.011449909768998623,-0.10605058819055557,-0.4677565395832062,0.5775954127311707,-0.040912870317697525,-0.5419016480445862,-25,9,-1001,578,-39,-542,98,-72,-1,76215.0
13:14:35.135,AUTO,-35.3632513,149.1652275,23714,0.024258732795715332,-0.11571957170963287,-0.5669321417808533,-0.01026474591344595,-0.048148054629564285,-0.22742243111133575,-28,-34,-992,-10,-47,-227,115,-83,-1,76215.0
13:14:35.336,AUTO,-35.3632513,149.1652275,23714,0.024258732795715332,-0.11571957170963287,-0.5669321417808533,-0.01026474591344595,-0.048148054629564285,-0.22742243111133575,-28,-34,-992,-10,-47,-227,115,-83,-1,76215.0
13:14:35.538,AUTO,-35.3632485,149.1652251,23714,0.016485286876559258,-0.12832948565483093,-0.5931500196456909,-0.5202625393867493,-0.05645214393734932,-0.003351531457155943,-33,-44,-998,-519,-55,-3,134,-95,-1,76215.0
13:14:35.740,AUTO,-35.3632452,149.1652223,23711,0.019407253712415695,-0.13999463617801666,-0.5821341276168823,0.06491957604885101,-0.04475271329283714,0.061081040650606155,-36,-1,-994,66,-43,61,155,-107,0,76215.0
13:14:35.942,AUTO,-35.3632415,149.1652193,23706,0.028349703177809715,-0.15015368163585663,-0.5638583302497864,0.5096980929374695,-0.035731036216020584,0.05174998939037323,-40,-5,-1009,511,-34,51,176,-122,0,76215.0
13:14:36.144,AUTO,-35.3632415,149.1652193,23706,0.028349703177809715,-0.15015368163585663,-0.5638583302497864,0.5096980929374695,-0.035731036216020584,0.05174998939037323,-40,-5,-1009,511,-34,51,176,-122,0,76215.0
13:14:36.345,AUTO,-35.3632415,149.1652193,23706,0.028349703177809715,-0.15015368163585663,-0.5638583302497864,0.5096980929374695,-0.035731036216020584,0.05174998939037323,-40,-5,-1009,511,-34,51,176,-122,0,76215.0
13:14:36.547,AUTO,-35.3632415,149.1652193,23706,0.028349703177809715,-0.15015368163585663,-0.5638583302497864,0.5096980929374695,-0.035731036216020584,0.05174998939037323,-40,-5,-1009,511,-34,51,176,-122,0,184129.0
13:14:36.749,AUTO,-35.3632275,149.1652078,23685,0.02264045923948288,-0.17549748718738556,-0.5469182133674622,-0.22351288795471191,0.02329838275909424,-0.020994003862142563,-62,-39,-1007,-222,24,-21,245,-169,2,184129.0
13:14:36.950,AUTO,-35.3632218,149.1652031,23678,0.03274940699338913,-0.1739196628332138,-0.5500308871269226,0.31332945823669434,-0.0008784998208284378,-0.028261540457606316,-65,-28,-1006,314,0,-28,268,-185,1,184129.0
13:14:37.152,AUTO,-35.3632155,149.1651981,23673,0.036964062601327896,-0.17774170637130737,-0.5526936054229736,0.0026938840746879578,-0.02497822605073452,-0.011187036521732807,-74,-50,-1002,2,-24,-10,288,-200,0,184129.0
13:14:37.354,AUTO,-35.3632155,149.1651981,23673,0.036964062601327896,-0.17774170637130737,-0.5526936054229736,0.0026938840746879578,-0.02497822605073452,-0.011187036521732807,-74,-50,-1002,2,-24,-10,288,-200,0,184129.0
13:14:37.556,AUTO,-35.3632088,149.1651926,23668,0.03348962962627411,-0.18704812228679657,-0.5545814037322998,-0.26255714893341064,-0.03661349043250084,-0.005355760455131531,-73,-56,-996,-261,-35,-5,310,-213,1,184129.0
13:14:37.758,AUTO,-35.3632016,149.1651867,23660,0.036722034215927124,-0.19301295280456543,-0.5549097061157227,0.12007693946361542,-0.024627987295389175,-0.015933340415358543,-72,-41,-997,121,-23,-15,332,-229,2,184129.0
13:14:37.960,AUTO,-35.3631938,149.1651804,23651,0.043977249413728714,-0.19264526665210724,-0.5560601949691772,0.0872664675116539,0.004507720470428467,-0.012379906140267849,-83,-56,-1003,87,5,-12,354,-246,2,184129.0
13:14:38.162,AUTO,-35.3631938,149.1651804,23651,0.043977249413728714,-0.19264526665210724,-0.5560601949691772,0.0872664675116539,0.004507720470428467,-0.012379906140267849,-83,-56,-1003,87,5,-12,354,-246,2,184129.0
13:14:38.364,AUTO,-35.3631938,149.1651804,23651,0.043977249413728714,-0.19264526665210724,-0.5560601949691772,0.0872664675116539,0.004507720470428467,-0.012379906140267849,-83,-56,-1003,87,5,-12,354,-246,2,184129.0
13:14:38.566,AUTO,-35.3631938,149.1651804,23651,0.043977249413728714,-0.19264526665210724,-0.5560601949691772,0.0872664675116539,0.004507720470428467,-0.012379906140267849,-83,-56,-1003,87,5,-12,354,-246,2,184129.0
13:14:38.768,AUTO,-35.3631675,149.1651589,23617,0.047845881432294846,-0.21851706504821777,-0.5591467618942261,0.025468382984399796,0.0037996498867869377,-0.004098257981240749,-110,-61,-1001,26,4,-4,420,-291,5,184129.0
13:14:38.970,AUTO,-35.3631577,149.1651508,23604,0.05632241815328598,-0.2073115110397339,-0.5609661936759949,0.021947747096419334,0.06345265358686447,-0.016672657802700996,-106,-60,-1010,22,64,-16,442,-308,3,184129.0
13:14:39.171,AUTO,-35.3631475,149.1651424,23598,0.06186680123209953,-0.19654543697834015,-0.5627570748329163,0.01771330088376999,0.01582489348948002,-0.010462071746587753,-115,-64,-1005,18,17,-10,461,-320,0,184129.0
13:14:39.378,AUTO,-35.363137,149.1651336,23599,0.06253669410943985,-0.1912788599729538,-0.5632508993148804,0.008270357735455036,0.0022785249166190624,-0.009831016883254051,-136,-70,-1006,9,3,-9,477,-330,-2,184129.0
13:14:39.589,AUTO,-35.363137,149.1651336,23599,0.06253669410943985,-0.1912788599729538,-0.5632508993148804,0.008270357735455036,0.0022785249166190624,-0.009831016883254051,-136,-70,-1006,9,3,-9,477,-330,-2,287481.0
13:14:39.791,AUTO,-35.363126,149.1651246,23601,0.06332564353942871,-0.1875385195016861,-0.5633001923561096,-0.022672884166240692,0.02869456075131893,-0.006431844551116228,-117,-50,-991,-21,29,-6,492,-339,-2,287481.0
13:14:39.993,AUTO,-35.3631146,149.1651153,23605,0.06547997146844864,-0.17806914448738098,-0.5635812878608704,-0.0036134375259280205,0.03902500495314598,0.0017733881250023842,-118,-73,-997,-2,40,1,505,-348,-3,287481.0
13:14:40.195,AUTO,-35.3631146,149.1651153,23605,0.06547997146844864,-0.17806914448738098,-0.5635812878608704,-0.0036134375259280205,0.03902500495314598,0.0017733881250023842,-118,-73,-997,-2,40,1,505,-348,-3,287481.0
13:14:40.397,AUTO,-35.3631146,149.1651153,23605,0.06547997146844864,-0.17806914448738098,-0.5635812878608704,-0.0036134375259280205,0.03902500495314598,0.0017733881250023842,-118,-73,-997,-2,40,1,505,-348,-3,287481.0
13:14:40.599,AUTO,-35.3631146,149.1651153,23605,0.06547997146844864,-0.17806914448738098,-0.5635812878608704,-0.0036134375259280205,0.03902500495314598,0.0017733881250023842,-118,-73,-997,-2,40,1,505,-348,-3,287481.0
13:14:40.801,AUTO,-35.3630793,149.1650862,23621,0.07568848878145218,-0.16822420060634613,-0.5677124857902527,0.025485919788479805,-0.0005451299948617816,-0.0076925260946154594,-121,-76,-993,26,0,-7,536,-368,-2,287481.0
13:14:41.003,AUTO,-35.3630671,149.1650762,23625,0.07783330231904984,-0.15993976593017578,-0.5685436129570007,-0.022197112441062927,0.024217620491981506,-0.0027212335262447596,-130,-74,-992,-21,25,-2,543,-372,-3,287481.0
13:14:41.205,AUTO,-35.3630548,149.1650661,23632,0.07746375352144241,-0.15674151480197906,-0.5686236619949341,-0.017113419249653816,0.018879348412156105,0.001001508324407041,-130,-65,-988,-16,19,1,550,-376,-2,287481.0
13:14:41.406,AUTO,-35.3630424,149.1650559,23638,0.07673051953315735,-0.15552376210689545,-0.5684852004051208,-0.00461419764906168,0.00037779088597744703,0.016541633754968643,-132,-87,-987,-4,1,16,555,-378,-2,287481.0
13:14:41.608,AUTO,-35.3630424,149.1650559,23638,0.07673051953315735,-0.15552376210689545,-0.5684852004051208,-0.00461419764906168,0.00037779088597744703,0.016541633754968643,-132,-87,-987,-4,1,16,555,-378,-2,287481.0
13:14:41.810,AUTO,-35.3630297,149.1650456,23644,0.08023682981729507,-0.15262137353420258,-0.5691904425621033,0.033409424126148224,0.01728525198996067,0.0023783838842064142,-137,-68,-986,34,18,2,558,-380,-1,287481.0
13:14:42.012,AUTO,-35.3630171,149.1650353,23648,0.07673638314008713,-0.14710289239883423,-0.5695350170135498,-0.016337228938937187,0.05102654919028282,0.0009242619853466749,-132,-79,-986,-15,51,1,561,-381,-1,287481.0
13:14:42.219,AUTO,-35.3630171,149.1650353,23648,0.07673638314008713,-0.14710289239883423,-0.5695350170135498,-0.016337228938937187,0.05102654919028282,0.0009242619853466749,-132,-79,-986,-15,51,1,561,-381,-1,287481.0
13:14:42.427,AUTO,-35.3630171,149.1650353,23648,0.07673638314008713,-0.14710289239883423,-0.5695350170135498,-0.016337228938937187,0.05102654919028282,0.0009242619853466749,-132,-79,-986,-15,51,1,561,-381,-1,230550.0
13:14:42.629,AUTO,-35.3630171,149.1650353,23648,0.07673638314008713,-0.14710289239883423,-0.5695350170135498,-0.016337228938937187,0.05102654919028282,0.0009242619853466749,-132,-79,-986,-15,51,1,561,-381,-1,230550.0
13:14:42.833,AUTO,-35.3629792,149.1650045,23660,0.07970523089170456,-0.1357313096523285,-0.5709661841392517,0.04698804393410683,-0.047890208661556244,0.01106862723827362,-130,-75,-969,47,-46,11,559,-379,0,230550.0
13:14:43.035,AUTO,-35.3629666,149.1649942,23651,0.07797231525182724,-0.14101508259773254,-0.5712223052978516,-0.03124149702489376,0.008749961853027344,0.005121367983520031,-128,-88,-976,-31,9,5,560,-380,4,230550.0
13:14:43.237,AUTO,-35.3629539,149.1649838,23637,0.08030689507722855,-0.13874602317810059,-0.5724115371704102,0.008638670668005943,-0.005215739365667105,-0.0042823320254683495,-133,-87,-991,8,-4,-4,562,-382,4,230550.0
13:14:43.438,AUTO,-35.3629412,149.1649734,23622,0.08050575107336044,-0.14397776126861572,-0.5736695528030396,-0.010946808382868767,-0.0230815839022398,0.001385557814501226,-132,-81,-980,-10,-21,1,563,-383,6,230550.0
13:14:43.640,AUTO,-35.3629286,149.1649631,23605,0.08126354962587357,-0.14633361995220184,-0.5746160745620728,0.0049454085528850555,-0.011445404030382633,0.0074547589756548405,-133,-78,-985,5,-10,8,564,-383,6,230550.0
13:14:43.842,AUTO,-35.3629286,149.1649631,23605,0.08126354962587357,-0.14633361995220184,-0.5746160745620728,0.0049454085528850555,-0.011445404030382633,0.0074547589756548405,-133,-78,-985,5,-10,8,564,-383,6,230550.0
13:14:44.044,AUTO,-35.3629158,149.1649527,23587,0.0782376304268837,-0.14661958813667297,-0.5739023089408875,-0.008027100935578346,0.013522250577807426,0.006024317350238562,-147,-91,-999,-7,14,6,566,-384,5,230550.0
13:14:44.246,AUTO,-35.3629158,149.1649527,23587,0.0782376304268837,-0.14661958813667297,-0.5739023089408875,-0.008027100935578346,0.013522250577807426,0.006024317350238562,-147,-91,-999,-7,14,6,566,-384,5,230550.0
13:14:44.448,AUTO,-35.3629158,149.1649527,23587,0.0782376304268837,-0.14661958813667297,-0.5739023089408875,-0.008027100935578346,0.013522250577807426,0.006024317350238562,-147,-91,-999,-7,14,6,566,-384,5,230550.0
13:14:44.650,AUTO,-35.3628774,149.1649212,23549,0.07700327038764954,-0.14439406991004944,-0.5736486911773682,-0.027531258761882782,-0.019263146445155144,0.0027547222562134266,-124,-89,-985,-27,-18,3,569,-385,2,230550.0
13:14:44.851,AUTO,-35.3628774,149.1649212,23549,0.07700327038764954,-0.14439406991004944,-0.5736486911773682,-0.027531258761882782,-0.019263146445155144,0.0027547222562134266,-124,-89,-985,-27,-18,3,569,-385,2,230550.0
13:14:45.053,AUTO,-35.3628647,149.1649108,23537,0.07794559746980667,-0.1451835334300995,-0.5747134685516357,-0.00457014562562108,-0.014151309616863728,-0.006849230267107487,-144,-65,-989,-4,-13,-6,570,-385,3,230550.0
13:14:45.254,AUTO,-35.3628518,149.1649002,23526,0.08383607864379883,-0.1393357366323471,-0.5748749375343323,0.06971541047096252,0.01263685803860426,-0.004169801715761423,-142,-83,-998,70,13,-3,571,-387,1,230550.0
