time_stamp,MODE,lat,lon,relative_alt,roll,pitch,yaw,rollspeed,pitchspeed,yawspeed,xacc,yacc,zacc,xgyro,ygyro,zgyro,vx,vy,vz,RTL_ALT
18:25:04.188,STABILIZE,-35.3632621,149.1652374,0,-0.00026065140264108777,0.0014593510422855616,0.025091206654906273,0.00020685902563855052,0.00018618005560711026,0.0021968274377286434,0,1,-1000,0,0,0,-1,1,0,1500.0
18:25:04.395,STABILIZE,-35.3632621,149.1652374,0,-0.00026065140264108777,0.0014593510422855616,0.025091206654906273,0.00020685902563855052,0.00018618005560711026,0.0021968274377286434,0,1,-1000,0,0,0,-1,1,0,1500.0
18:25:04.599,STABILIZE,-35.3632621,149.1652374,0,-0.00026065140264108777,0.0014593510422855616,0.025091206654906273,0.00020685902563855052,0.00018618005560711026,0.0021968274377286434,0,1,-1000,0,0,0,-1,1,0,1500.0
18:25:04.801,STABILIZE,-35.3632622,149.1652374,0,-0.000256131257629022,0.0011818485800176859,0.02443818934261799,0.00025463043130002916,0.00015702302334830165,0.0020338688045740128,0,1,-1000,0,0,0,-1,0,-3,1500.0
18:25:05.008,STABILIZE,-35.3632622,149.1652374,0,-0.0003418093838263303,0.0010619850363582373,0.02409208193421364,0.0001364480413030833,0.00027362030232325196,0.0020299837924540043,0,1,-1000,0,0,0,-1,1,-2,1500.0
18:25:05.211,STABILIZE,-35.3632622,149.1652374,0,-0.0003418093838263303,0.0010619850363582373,0.02409208193421364,0.0001364480413030833,0.00027362030232325196,0.0020299837924540043,0,1,-1000,0,0,0,-1,1,-2,1500.0
18:25:05.413,STABILIZE,-35.3632622,149.1652374,0,-0.0003418093838263303,0.0010619850363582373,0.02409208193421364,0.0001364480413030833,0.00027362030232325196,0.0020299837924540043,0,1,-1000,0,0,0,-1,1,-2,1500.0
18:25:05.621,STABILIZE,-35.3632622,149.1652374,0,-0.0003418093838263303,0.0010619850363582373,0.02409208193421364,0.0001364480413030833,0.00027362030232325196,0.0020299837924540043,0,1,-1000,0,0,0,-1,1,-2,1500.0
18:25:05.826,STABILIZE,-35.3632622,149.1652374,0,-0.0003418093838263303,0.0010619850363582373,0.02409208193421364,0.0001364480413030833,0.00027362030232325196,0.0020299837924540043,0,1,-1000,0,0,0,-1,1,-2,1500.0
18:25:06.028,STABILIZE,-35.3632622,149.1652374,0,-0.0003418093838263303,0.0010619850363582373,0.02409208193421364,0.0001364480413030833,0.00027362030232325196,0.0020299837924540043,0,1,-1000,0,0,0,-1,1,-2,1500.0
18:25:06.230,STABILIZE,-35.3632622,149.1652374,0,-0.0003418093838263303,0.0010619850363582373,0.02409208193421364,0.0001364480413030833,0.00027362030232325196,0.0020299837924540043,0,1,-1000,0,0,0,-1,1,-2,1500.0
18:25:06.435,STABILIZE,-35.3632622,149.1652374,0,-0.0003418093838263303,0.0010619850363582373,0.02409208193421364,0.0001364480413030833,0.00027362030232325196,0.0020299837924540043,0,1,-1000,0,0,0,-1,1,-2,1500.0
18:25:06.639,STABILIZE,-35.3632622,149.1652374,0,-0.0003418093838263303,0.0010619850363582373,0.02409208193421364,0.0001364480413030833,0.00027362030232325196,0.0020299837924540043,0,1,-1000,0,0,0,-1,1,-2,1500.0
18:25:06.841,STABILIZE,-35.3632622,149.1652374,0,-0.0003418093838263303,0.0010619850363582373,0.02409208193421364,0.0001364480413030833,0.00027362030232325196,0.0020299837924540043,0,1,-1000,0,0,0,-1,1,-2,1500.0
18:25:07.043,STABILIZE,-35.3632621,149.1652374,9,-0.00045256316661834717,0.0009132022969424725,0.02323795296251774,0.00018802768317982554,0.0002712778514251113,0.001885237405076623,0,1,-1000,0,0,0,-1,0,-3,1500.0
18:25:07.249,STABILIZE,-35.3632621,149.1652374,9,-0.00045256316661834717,0.0009132022969424725,0.02323795296251774,0.00018802768317982554,0.0002712778514251113,0.001885237405076623,0,1,-1000,0,0,0,-1,0,-3,1500.0
18:25:07.451,STABILIZE,-35.3632621,149.1652374,9,-0.00045256316661834717,0.0009132022969424725,0.02323795296251774,0.00018802768317982554,0.0002712778514251113,0.001885237405076623,0,1,-1000,0,0,0,-1,0,-3,1500.0
18:25:07.653,STABILIZE,-35.3632621,149.1652374,9,-0.00045256316661834717,0.0009132022969424725,0.02323795296251774,0.00018802768317982554,0.0002712778514251113,0.001885237405076623,0,1,-1000,0,0,0,-1,0,-3,1500.0
18:25:07.858,STABILIZE,-35.3632621,149.1652374,9,-0.00045256316661834717,0.0009132022969424725,0.02323795296251774,0.00018802768317982554,0.0002712778514251113,0.001885237405076623,0,1,-1000,0,0,0,-1,0,-3,1500.0
18:25:08.061,STABILIZE,-35.3632621,149.1652374,9,-0.00045256316661834717,0.0009132022969424725,0.02323795296251774,0.00018802768317982554,0.0002712778514251113,0.001885237405076623,0,1,-1000,0,0,0,-1,0,-3,1500.0
18:25:08.267,STABILIZE,-35.3632621,149.1652374,9,-0.00045256316661834717,0.0009132022969424725,0.02323795296251774,0.00018802768317982554,0.0002712778514251113,0.001885237405076623,0,1,-1000,0,0,0,-1,0,-3,1500.0
18:25:08.472,STABILIZE,-35.3632621,149.1652374,9,-0.00045256316661834717,0.0009132022969424725,0.02323795296251774,0.00018802768317982554,0.0002712778514251113,0.001885237405076623,0,1,-1000,0,0,0,-1,0,-3,1500.0
18:25:08.678,STABILIZE,-35.3632621,149.1652374,9,-0.00045256316661834717,0.0009132022969424725,0.02323795296251774,0.00018802768317982554,0.0002712778514251113,0.001885237405076623,0,1,-1000,0,0,0,-1,0,-3,1500.0
18:25:08.880,STABILIZE,-35.3632621,149.1652374,12,-0.00038065313128754497,0.0009104820201173425,0.022794239223003387,0.00021986220963299274,0.0001904915552586317,0.0017664895858615637,0,1,-1000,0,0,0,-1,1,-2,1500.0
18:25:09.082,STABILIZE,-35.3632621,149.1652375,9,-0.00040223723044618964,0.0009422760922461748,0.022414149716496468,0.00031295442022383213,0.00021691399160772562,0.0018413285724818707,0,2,-1000,1,1,0,-1,1,-1,1500.0
18:25:09.285,STABILIZE,-35.3632621,149.1652375,9,-0.00040223723044618964,0.0009422760922461748,0.022414149716496468,0.00031295442022383213,0.00021691399160772562,0.0018413285724818707,0,2,-1000,1,1,0,-1,1,-1,1500.0
18:25:09.489,STABILIZE,-35.3632621,149.1652375,9,-0.00040223723044618964,0.0009422760922461748,0.022414149716496468,0.00031295442022383213,0.00021691399160772562,0.0018413285724818707,0,2,-1000,1,1,0,-1,1,-1,1500.0
18:25:09.691,STABILIZE,-35.3632621,149.1652375,9,-0.00040223723044618964,0.0009422760922461748,0.022414149716496468,0.00031295442022383213,0.00021691399160772562,0.0018413285724818707,0,2,-1000,1,1,0,-1,1,-1,1500.0
18:25:09.892,STABILIZE,-35.3632621,149.1652375,9,-0.00040223723044618964,0.0009422760922461748,0.022414149716496468,0.00031295442022383213,0.00021691399160772562,0.0018413285724818707,0,2,-1000,1,1,0,-1,1,-1,1500.0
18:25:10.094,STABILIZE,-35.3632621,149.1652375,9,-0.00040223723044618964,0.0009422760922461748,0.022414149716496468,0.00031295442022383213,0.00021691399160772562,0.0018413285724818707,0,2,-1000,1,1,0,-1,1,-1,1500.0
18:25:10.297,STABILIZE,-35.3632621,149.1652375,9,-0.00040223723044618964,0.0009422760922461748,0.022414149716496468,0.00031295442022383213,0.00021691399160772562,0.0018413285724818707,0,2,-1000,1,1,0,-1,1,-1,1500.0
18:25:10.499,STABILIZE,-35.3632621,149.1652375,9,-0.00040223723044618964,0.0009422760922461748,0.022414149716496468,0.00031295442022383213,0.00021691399160772562,0.0018413285724818707,0,2,-1000,1,1,0,-1,1,-1,1500.0
18:25:10.701,STABILIZE,-35.3632621,149.1652375,9,-0.00040223723044618964,0.0009422760922461748,0.022414149716496468,0.00031295442022383213,0.00021691399160772562,0.0018413285724818707,0,2,-1000,1,1,0,-1,1,-1,1500.0
18:25:10.903,STABILIZE,-35.3632621,149.1652375,9,-0.00040223723044618964,0.0009422760922461748,0.022414149716496468,0.00031295442022383213,0.00021691399160772562,0.0018413285724818707,0,2,-1000,1,1,0,-1,1,-1,1500.0
18:25:11.104,STABILIZE,-35.3632622,149.1652376,0,-0.0004778802103828639,0.0009831077186390758,0.02187046967446804,0.0003699189401231706,0.0003704253467731178,0.0016766015905886889,0,1,-1000,1,0,0,-1,2,1,1500.0
18:25:11.307,STABILIZE,-35.3632622,149.1652376,0,-0.0004778802103828639,0.0009831077186390758,0.02187046967446804,0.0003699189401231706,0.0003704253467731178,0.0016766015905886889,0,1,-1000,1,0,0,-1,2,1,1500.0
18:25:11.509,STABILIZE,-35.3632622,149.1652376,0,-0.0004778802103828639,0.0009831077186390758,0.02187046967446804,0.0003699189401231706,0.0003704253467731178,0.0016766015905886889,0,1,-1000,1,0,0,-1,2,1,1500.0
18:25:11.713,STABILIZE,-35.3632622,149.1652376,0,-0.0004778802103828639,0.0009831077186390758,0.02187046967446804,0.0003699189401231706,0.0003704253467731178,0.0016766015905886889,0,1,-1000,1,0,0,-1,2,1,1500.0
18:25:11.916,STABILIZE,-35.3632622,149.1652376,0,-0.0004778802103828639,0.0009831077186390758,0.02187046967446804,0.0003699189401231706,0.0003704253467731178,0.0016766015905886889,0,1,-1000,1,0,0,-1,2,1,1500.0
18:25:12.118,STABILIZE,-35.3632622,149.1652376,0,-0.0004778802103828639,0.0009831077186390758,0.02187046967446804,0.0003699189401231706,0.0003704253467731178,0.0016766015905886889,0,1,-1000,1,0,0,-1,2,1,1500.0
18:25:12.320,STABILIZE,-35.3632622,149.1652376,0,-0.0004778802103828639,0.0009831077186390758,0.02187046967446804,0.0003699189401231706,0.0003704253467731178,0.0016766015905886889,0,1,-1000,1,0,0,-1,2,1,1500.0
18:25:12.525,STABILIZE,-35.3632622,149.1652376,0,-0.0004778802103828639,0.0009831077186390758,0.02187046967446804,0.0003699189401231706,0.0003704253467731178,0.0016766015905886889,0,1,-1000,1,0,0,-1,2,1,1500.0
18:25:12.729,STABILIZE,-35.3632622,149.1652376,0,-0.0004778802103828639,0.0009831077186390758,0.02187046967446804,0.0003699189401231706,0.0003704253467731178,0.0016766015905886889,0,1,-1000,1,0,0,-1,2,1,1500.0
18:25:12.932,STABILIZE,-35.3632622,149.1652376,0,-0.0004778802103828639,0.0009831077186390758,0.02187046967446804,0.0003699189401231706,0.0003704253467731178,0.0016766015905886889,0,1,-1000,1,0,0,-1,2,1,1500.0
18:25:13.134,STABILIZE,-35.3632622,149.1652376,0,-0.0004778802103828639,0.0009831077186390758,0.02187046967446804,0.0003699189401231706,0.0003704253467731178,0.0016766015905886889,0,1,-1000,1,0,0,-1,2,1,1500.0
18:25:13.345,STABILIZE,-35.3632622,149.1652376,0,-0.0004778802103828639,0.0009831077186390758,0.02187046967446804,0.0003699189401231706,0.0003704253467731178,0.0016766015905886889,0,1,-1000,1,0,0,-1,2,1,1500.0
18:25:13.547,STABILIZE,-35.3632622,149.1652375,0,-0.0008642533794045448,0.001003748388029635,0.02131449617445469,0.00028716237284243107,0.00026961235562339425,0.0015528160147368908,0,2,-1000,0,1,0,-1,1,1,1500.0
18:25:13.749,STABILIZE,-35.3632622,149.1652375,0,-0.0008642533794045448,0.001003748388029635,0.02131449617445469,0.00028716237284243107,0.00026961235562339425,0.0015528160147368908,0,2,-1000,0,1,0,-1,2,2,1500.0
18:25:13.952,STABILIZE,-35.3632622,149.1652375,0,-0.0008642533794045448,0.001003748388029635,0.02131449617445469,0.00028716237284243107,0.00026961235562339425,0.0015528160147368908,0,2,-1000,0,1,0,-1,2,2,1500.0
18:25:14.154,STABILIZE,-35.3632622,149.1652375,0,-0.0008642533794045448,0.001003748388029635,0.02131449617445469,0.00028716237284243107,0.00026961235562339425,0.0015528160147368908,0,2,-1000,0,1,0,-1,2,2,1500.0
18:25:14.358,STABILIZE,-35.3632622,149.1652375,0,-0.0008642533794045448,0.001003748388029635,0.02131449617445469,0.00028716237284243107,0.00026961235562339425,0.0015528160147368908,0,2,-1000,0,1,0,-1,2,2,1500.0
18:25:14.564,STABILIZE,-35.3632622,149.1652375,0,-0.0008642533794045448,0.001003748388029635,0.02131449617445469,0.00028716237284243107,0.00026961235562339425,0.0015528160147368908,0,2,-1000,0,1,0,-1,2,2,1500.0
18:25:14.766,STABILIZE,-35.3632622,149.1652375,0,-0.0008642533794045448,0.001003748388029635,0.02131449617445469,0.00028716237284243107,0.00026961235562339425,0.0015528160147368908,0,2,-1000,0,1,0,-1,2,2,1500.0
18:25:14.968,STABILIZE,-35.3632622,149.1652375,0,-0.0008642533794045448,0.001003748388029635,0.02131449617445469,0.00028716237284243107,0.00026961235562339425,0.0015528160147368908,0,2,-1000,0,1,0,-1,2,2,1500.0
18:25:18.946,STABILIZE,-35.3632622,149.1652375,0,-0.0008642533794045448,0.001003748388029635,0.02131449617445469,0.00028716237284243107,0.00026961235562339425,0.0015528160147368908,0,2,-1000,0,1,0,-1,2,2,1500.0
18:25:19.149,STABILIZE,-35.3632622,149.1652375,0,-0.0008642533794045448,0.001003748388029635,0.02131449617445469,0.00028716237284243107,0.00026961235562339425,0.0015528160147368908,0,2,-1000,0,1,0,-1,2,2,1500.0
18:25:19.355,STABILIZE,-35.3632622,149.1652375,0,-0.0008642533794045448,0.001003748388029635,0.02131449617445469,0.00028716237284243107,0.00026961235562339425,0.0015528160147368908,0,2,-1000,0,1,0,-1,2,2,1500.0
18:25:19.559,STABILIZE,-35.3632622,149.1652375,0,-0.0008642533794045448,0.001003748388029635,0.02131449617445469,0.00028716237284243107,0.00026961235562339425,0.0015528160147368908,0,2,-1000,0,1,0,-1,2,2,1500.0
18:25:19.761,STABILIZE,-35.3632622,149.1652375,0,-0.0008642533794045448,0.001003748388029635,0.02131449617445469,0.00028716237284243107,0.00026961235562339425,0.0015528160147368908,0,2,-1000,0,1,0,-1,2,2,1500.0
18:25:19.963,STABILIZE,-35.3632622,149.1652375,0,-0.0008642533794045448,0.001003748388029635,0.02131449617445469,0.00028716237284243107,0.00026961235562339425,0.0015528160147368908,0,2,-1000,0,1,0,-1,2,2,1500.0
18:25:20.164,STABILIZE,-35.3632622,149.1652375,0,-0.0008642533794045448,0.001003748388029635,0.02131449617445469,0.00028716237284243107,0.00026961235562339425,0.0015528160147368908,0,2,-1000,0,1,0,-1,2,2,1500.0
18:25:20.367,STABILIZE,-35.3632622,149.1652375,0,-0.0008642533794045448,0.001003748388029635,0.02131449617445469,0.00028716237284243107,0.00026961235562339425,0.0015528160147368908,0,2,-1000,0,1,0,-1,2,2,1500.0
18:25:20.569,STABILIZE,-35.3632622,149.1652375,0,-0.0008642533794045448,0.001003748388029635,0.02131449617445469,0.00028716237284243107,0.00026961235562339425,0.0015528160147368908,0,2,-1000,0,1,0,-1,2,2,1500.0
18:25:20.771,STABILIZE,-35.3632622,149.1652375,0,-0.0008642533794045448,0.001003748388029635,0.02131449617445469,0.00028716237284243107,0.00026961235562339425,0.0015528160147368908,0,2,-1000,0,1,0,-1,2,2,1500.0
18:25:20.972,STABILIZE,-35.3632622,149.1652375,0,-0.0008642533794045448,0.001003748388029635,0.02131449617445469,0.00028716237284243107,0.00026961235562339425,0.0015528160147368908,0,2,-1000,0,1,0,-1,2,2,1500.0
18:25:21.175,STABILIZE,-35.3632622,149.1652375,0,-0.0008642533794045448,0.001003748388029635,0.02131449617445469,0.00028716237284243107,0.00026961235562339425,0.0015528160147368908,0,2,-1000,0,1,0,-1,2,2,1500.0
18:25:21.377,STABILIZE,-35.3632622,149.1652375,0,-0.0008642533794045448,0.001003748388029635,0.02131449617445469,0.00028716237284243107,0.00026961235562339425,0.0015528160147368908,0,2,-1000,0,1,0,-1,2,2,1500.0
18:25:21.579,STABILIZE,-35.3632622,149.1652375,0,-0.0008642533794045448,0.001003748388029635,0.02131449617445469,0.00028716237284243107,0.00026961235562339425,0.0015528160147368908,0,2,-1000,0,1,0,-1,2,2,1500.0
18:25:21.780,STABILIZE,-35.3632622,149.1652375,0,-0.0008642533794045448,0.001003748388029635,0.02131449617445469,0.00028716237284243107,0.00026961235562339425,0.0015528160147368908,0,2,-1000,0,1,0,-1,2,2,1500.0
18:25:21.986,STABILIZE,-35.3632622,149.1652375,0,-0.0008642533794045448,0.001003748388029635,0.02131449617445469,0.00028716237284243107,0.00026961235562339425,0.0015528160147368908,0,2,-1000,0,1,0,-1,2,2,1500.0
18:25:22.187,STABILIZE,-35.3632622,149.1652375,0,-0.0008642533794045448,0.001003748388029635,0.02131449617445469,0.00028716237284243107,0.00026961235562339425,0.0015528160147368908,0,2,-1000,0,1,0,-1,2,2,1500.0
18:25:22.389,STABILIZE,-35.3632622,149.1652375,0,-0.0008642533794045448,0.001003748388029635,0.02131449617445469,0.00028716237284243107,0.00026961235562339425,0.0015528160147368908,0,2,-1000,0,1,0,-1,2,2,1500.0
18:25:22.590,STABILIZE,-35.3632622,149.1652375,0,-0.0008642533794045448,0.001003748388029635,0.02131449617445469,0.00028716237284243107,0.00026961235562339425,0.0015528160147368908,0,2,-1000,0,1,0,-1,2,2,1500.0
18:25:22.792,STABILIZE,-35.3632622,149.1652375,0,-0.0008642533794045448,0.001003748388029635,0.02131449617445469,0.00028716237284243107,0.00026961235562339425,0.0015528160147368908,0,2,-1000,0,1,0,-1,2,2,1500.0
18:25:22.994,STABILIZE,-35.3632622,149.1652375,0,-0.0008642533794045448,0.001003748388029635,0.02131449617445469,0.00028716237284243107,0.00026961235562339425,0.0015528160147368908,0,2,-1000,0,1,0,-1,2,2,1500.0
18:25:23.197,STABILIZE,-35.3632622,149.1652375,0,-0.0008642533794045448,0.001003748388029635,0.02131449617445469,0.00028716237284243107,0.00026961235562339425,0.0015528160147368908,0,2,-1000,0,1,0,-1,2,2,1500.0
18:25:23.400,STABILIZE,-35.3632622,149.1652375,0,-0.0008642533794045448,0.001003748388029635,0.02131449617445469,0.00028716237284243107,0.00026961235562339425,0.0015528160147368908,0,2,-1000,0,1,0,-1,2,2,1500.0
18:25:23.603,STABILIZE,-35.3632622,149.1652375,0,-0.0008642533794045448,0.001003748388029635,0.02131449617445469,0.00028716237284243107,0.00026961235562339425,0.0015528160147368908,0,2,-1000,0,1,0,-1,2,2,1500.0
18:25:23.806,STABILIZE,-35.3632622,149.1652375,0,-0.0008642533794045448,0.001003748388029635,0.02131449617445469,0.00028716237284243107,0.00026961235562339425,0.0015528160147368908,0,2,-1000,0,1,0,-1,2,2,1500.0
18:25:24.011,STABILIZE,-35.3632622,149.1652375,0,-0.0009548629750497639,0.0009798220125958323,0.020759716629981995,0.00030337116913869977,0.00025604647817090154,0.0015203315997496247,0,2,-1000,0,0,1,-1,1,2,1500.0
18:25:24.213,STABILIZE,-35.3632622,149.1652375,0,-0.0009548629750497639,0.0009798220125958323,0.020759716629981995,0.00030337116913869977,0.00025604647817090154,0.0015203315997496247,0,2,-1000,0,0,1,-1,1,2,1500.0
18:25:24.416,STABILIZE,-35.3632622,149.1652375,0,-0.0009548629750497639,0.0009798220125958323,0.020759716629981995,0.00030337116913869977,0.00025604647817090154,0.0015203315997496247,0,2,-1000,0,0,1,-1,1,2,1500.0
18:25:24.627,STABILIZE,-35.3632622,149.1652375,0,-0.0009548629750497639,0.0009798220125958323,0.020759716629981995,0.00030337116913869977,0.00025604647817090154,0.0015203315997496247,0,2,-1000,0,0,1,-1,1,2,1500.0
18:25:24.831,STABILIZE,-35.3632622,149.1652375,0,-0.0009548629750497639,0.0009798220125958323,0.020759716629981995,0.00030337116913869977,0.00025604647817090154,0.0015203315997496247,0,2,-1000,0,0,1,-1,1,2,1500.0
18:25:25.033,STABILIZE,-35.3632622,149.1652375,0,-0.0009548629750497639,0.0009798220125958323,0.020759716629981995,0.00030337116913869977,0.00025604647817090154,0.0015203315997496247,0,2,-1000,0,0,1,-1,1,2,1500.0
18:25:25.236,AUTO,-35.3632622,149.1652375,0,-0.0009548629750497639,0.0009798220125958323,0.020759716629981995,0.00030337116913869977,0.00025604647817090154,0.0015203315997496247,0,2,-1000,0,0,1,-1,1,2,1500.0
18:25:25.443,AUTO,-35.3632622,149.1652375,0,-0.0009548629750497639,0.0009798220125958323,0.020759716629981995,0.00030337116913869977,0.00025604647817090154,0.0015203315997496247,0,2,-1000,0,0,1,-1,1,2,1500.0
18:25:25.645,AUTO,-35.363262,149.1652376,1734,0.03241182118654251,-0.0025345543399453163,0.019586646929383278,0.045170992612838745,-0.008057143539190292,0.0026979537215083838,0,-1,-1008,45,-7,2,1,10,-146,1500.0
18:25:25.847,AUTO,-35.3632618,149.1652386,2507,0.05363252013921738,-0.0072682201862335205,0.020064691081643105,0.03995528817176819,-0.010819132439792156,0.003732206765562296,0,-4,-1000,40,-10,3,5,29,-148,1500.0
18:25:26.050,AUTO,-35.3632618,149.1652386,2507,0.05363252013921738,-0.0072682201862335205,0.020064691081643105,0.03995528817176819,-0.010819132439792156,0.003732206765562296,0,-4,-1000,40,-10,3,5,29,-148,1500.0
18:25:26.255,AUTO,-35.3632618,149.1652386,2507,0.05363252013921738,-0.0072682201862335205,0.020064691081643105,0.03995528817176819,-0.010819132439792156,0.003732206765562296,0,-4,-1000,40,-10,3,5,29,-148,1500.0
18:25:26.459,AUTO,-35.3632618,149.1652386,2507,0.05363252013921738,-0.0072682201862335205,0.020064691081643105,0.03995528817176819,-0.010819132439792156,0.003732206765562296,0,-4,-1000,40,-10,3,5,29,-148,1500.0
18:25:26.660,AUTO,-35.3632618,149.1652386,2507,0.05363252013921738,-0.0072682201862335205,0.020064691081643105,0.03995528817176819,-0.010819132439792156,0.003732206765562296,0,-4,-1000,40,-10,3,5,29,-148,1500.0
18:25:26.862,AUTO,-35.3632618,149.1652386,2507,0.05363252013921738,-0.0072682201862335205,0.020064691081643105,0.03995528817176819,-0.010819132439792156,0.003732206765562296,0,-4,-1000,40,-10,3,5,29,-148,1500.0
18:25:27.064,AUTO,-35.363261,149.1652446,4340,-0.0351666659116745,0.02812020853161812,-0.084968201816082,-0.029474498704075813,0.008793044835329056,-0.07920270413160324,5,-9,-1009,-28,9,-79,-1,40,-148,1500.0
18:25:27.269,AUTO,-35.363261,149.1652455,4726,-0.04128449410200119,0.024900423362851143,-0.09887339919805527,-0.03436224162578583,-0.03258393332362175,-0.0350983552634716,4,-6,-1002,-33,-31,-35,-6,28,-149,1500.0
18:25:27.478,AUTO,-35.363261,149.1652455,4726,-0.04128449410200119,0.024900423362851143,-0.09887339919805527,-0.03436224162578583,-0.03258393332362175,-0.0350983552634716,4,-6,-1002,-33,-31,-35,-6,28,-149,1500.0
18:25:27.682,AUTO,-35.363261,149.1652455,4726,-0.04128449410200119,0.024900423362851143,-0.09887339919805527,-0.03436224162578583,-0.03258393332362175,-0.0350983552634716,4,-6,-1002,-33,-31,-35,-6,28,-149,1500.0
18:25:27.886,AUTO,-35.363261,149.1652455,4726,-0.04128449410200119,0.024900423362851143,-0.09887339919805527,-0.03436224162578583,-0.03258393332362175,-0.0350983552634716,4,-6,-1002,-33,-31,-35,-6,28,-149,1500.0
18:25:28.095,AUTO,-35.363261,149.1652455,4726,-0.04128449410200119,0.024900423362851143,-0.09887339919805527,-0.03436224162578583,-0.03258393332362175,-0.0350983552634716,4,-6,-1002,-33,-31,-35,-6,28,-149,1500.0
18:25:28.369,AUTO,-35.363261,149.1652455,4726,-0.04128449410200119,0.024900423362851143,-0.09887339919805527,-0.03436224162578583,-0.03258393332362175,-0.0350983552634716,4,-6,-1002,-33,-31,-35,-6,28,-149,1500.0
18:25:28.657,AUTO,-35.363261,149.1652455,4726,-0.04128449410200119,0.024900423362851143,-0.09887339919805527,-0.03436224162578583,-0.03258393332362175,-0.0350983552634716,4,-6,-1002,-33,-31,-35,-6,28,-149,1500.0
18:25:28.880,AUTO,-35.363261,149.1652455,4726,-0.04128449410200119,0.024900423362851143,-0.09887339919805527,-0.03436224162578583,-0.03258393332362175,-0.0350983552634716,4,-6,-1002,-33,-31,-35,-6,28,-149,1500.0
18:25:29.116,AUTO,-35.3632615,149.1652462,5883,-0.0693100243806839,-0.021214688196778297,-0.07944902777671814,0.02441389299929142,0.0017423821846023202,0.00601907167583704,0,2,-1003,25,2,5,-5,-18,-149,1500.0
18:25:29.327,AUTO,-35.3632614,149.1652398,7816,0.00047653730143792927,-0.008325938135385513,-0.07850070297718048,0.06386080384254456,0.017390912398695946,0.005109003279358149,-8,9,-1003,64,18,4,5,-58,-151,1500.0
18:25:29.537,AUTO,-35.3632614,149.1652398,7816,0.00047653730143792927,-0.008325938135385513,-0.07850070297718048,0.06386080384254456,0.017390912398695946,0.005109003279358149,-8,9,-1003,64,18,4,5,-58,-151,1500.0
18:25:29.740,AUTO,-35.3632614,149.1652398,7816,0.00047653730143792927,-0.008325938135385513,-0.07850070297718048,0.06386080384254456,0.017390912398695946,0.005109003279358149,-8,9,-1003,64,18,4,5,-58,-151,1500.0
18:25:29.943,AUTO,-35.3632614,149.1652398,7816,0.00047653730143792927,-0.008325938135385513,-0.07850070297718048,0.06386080384254456,0.017390912398695946,0.005109003279358149,-8,9,-1003,64,18,4,5,-58,-151,1500.0
18:25:30.145,AUTO,-35.3632614,149.1652398,7816,0.00047653730143792927,-0.008325938135385513,-0.07850070297718048,0.06386080384254456,0.017390912398695946,0.005109003279358149,-8,9,-1003,64,18,4,5,-58,-151,1500.0
18:25:30.349,AUTO,-35.3632614,149.1652398,7816,0.00047653730143792927,-0.008325938135385513,-0.07850070297718048,0.06386080384254456,0.017390912398695946,0.005109003279358149,-8,9,-1003,64,18,4,5,-58,-151,1500.0
18:25:30.550,AUTO,-35.3632614,149.1652398,7816,0.0397217832505703,0.00423310324549675,-0.07779938727617264,0.042183708399534225,0.03109399601817131,-0.013837538659572601,-8,9,-1003,64,18,4,5,-58,-151,1500.0
18:25:30.752,AUTO,-35.3632612,149.165234,10013,0.055975668132305145,0.03328888863325119,-0.10201576352119446,-0.022372685372829437,0.0020582429133355618,-0.01938842236995697,-1,2,-995,-21,2,-19,-8,0,-151,1500.0
18:25:30.953,AUTO,-35.3632613,149.165234,10408,0.04249158129096031,0.025210022926330566,-0.10204032808542252,-0.0729324221611023,-0.04994308203458786,0.015534915030002594,2,0,-994,-72,-49,15,-13,12,-150,1500.0
18:25:31.155,AUTO,-35.3632613,149.165234,10408,0.04249158129096031,0.025210022926330566,-0.10204032808542252,-0.0729324221611023,-0.04994308203458786,0.015534915030002594,2,0,-994,-72,-49,15,-13,12,-150,1500.0
18:25:31.358,AUTO,-35.3632617,149.1652344,10794,0.024542585015296936,0.012231364846229553,-0.09781251847743988,-0.0706857368350029,-0.04762239381670952,0.020212695002555847,4,0,-999,-69,-47,20,-16,19,-149,1500.0
18:25:31.559,AUTO,-35.3632617,149.1652344,10794,0.024542585015296936,0.012231364846229553,-0.09781251847743988,-0.0706857368350029,-0.04762239381670952,0.020212695002555847,4,0,-999,-69,-47,20,-16,19,-149,1500.0
18:25:31.761,AUTO,-35.3632617,149.1652344,10794,0.024542585015296936,0.012231364846229553,-0.09781251847743988,-0.0706857368350029,-0.04762239381670952,0.020212695002555847,4,0,-999,-69,-47,20,-16,19,-149,1500.0
18:25:31.965,AUTO,-35.3632617,149.1652344,10794,0.024542585015296936,0.012231364846229553,-0.09781251847743988,-0.0706857368350029,-0.04762239381670952,0.020212695002555847,4,0,-999,-69,-47,20,-16,19,-149,1500.0
18:25:32.167,AUTO,-35.3632617,149.1652344,10794,0.024542585015296936,0.012231364846229553,-0.09781251847743988,-0.0706857368350029,-0.04762239381670952,0.020212695002555847,4,0,-999,-69,-47,20,-16,19,-149,1500.0
18:25:32.369,AUTO,-35.3632617,149.1652344,10794,0.024542585015296936,0.012231364846229553,-0.09781251847743988,-0.0706857368350029,-0.04762239381670952,0.020212695002555847,4,0,-999,-69,-47,20,-16,19,-149,1500.0
18:25:32.580,AUTO,-35.3632628,149.1652366,12724,-0.013644448481500149,-0.0107570243999362,-0.0981714203953743,-0.0017467124853283167,-0.00041890807915478945,-0.018294740468263626,2,-1,-1001,-1,0,-18,-3,9,-152,1500.0
18:25:32.781,AUTO,-35.3632628,149.1652367,13114,-0.012489053420722485,-0.010310323908925056,-0.10374833643436432,0.008810359984636307,0.004703555256128311,-0.02343522198498249,0,-1,-1001,9,5,-23,0,4,-152,1500.0
18:25:32.982,AUTO,-35.3632628,149.1652368,13505,-0.009941373951733112,-0.00881602056324482,-0.1104126051068306,0.012552674859762192,0.006515550427138805,-0.02553187869489193,0,0,-1000,13,7,-25,2,0,-152,1500.0
18:25:33.187,AUTO,-35.3632628,149.1652367,13896,-0.00641381973400712,-0.006781292613595724,-0.11752934753894806,0.013421814888715744,0.009208154864609241,-0.02673964574933052,0,0,-1000,13,7,-25,4,-2,-152,1500.0
18:25:33.457,AUTO,-35.3632628,149.1652367,13896,-0.00641381973400712,-0.006781292613595724,-0.11752934753894806,0.013421814888715744,0.009208154864609241,-0.02673964574933052,-1,0,-1000,14,9,-27,4,-2,-152,1500.0
18:25:33.698,AUTO,-35.3632628,149.1652367,13896,-0.00641381973400712,-0.006781292613595724,-0.11752934753894806,0.013421814888715744,0.009208154864609241,-0.02673964574933052,-1,0,-1000,14,9,-27,4,-2,-152,1500.0
18:25:33.903,AUTO,-35.3632628,149.1652367,13896,-0.00641381973400712,-0.006781292613595724,-0.11752934753894806,0.013421814888715744,0.009208154864609241,-0.02673964574933052,-1,0,-1000,14,9,-27,4,-2,-152,1500.0
18:25:34.105,AUTO,-35.3632628,149.1652367,13896,-0.00641381973400712,-0.006781292613595724,-0.11752934753894806,0.013421814888715744,0.009208154864609241,-0.02673964574933052,-1,0,-1000,14,9,-27,4,-2,-152,1500.0
18:25:34.314,AUTO,-35.3632628,149.1652367,13896,-0.00641381973400712,-0.006781292613595724,-0.11752934753894806,0.013421814888715744,0.009208154864609241,-0.02673964574933052,-1,0,-1000,14,9,-27,4,-2,-152,1500.0
18:25:34.516,AUTO,-35.3632628,149.1652367,13896,-0.00641381973400712,-0.006781292613595724,-0.11752934753894806,0.013421814888715744,0.009208154864609241,-0.02673964574933052,-1,0,-1000,14,9,-27,4,-2,-152,1500.0
18:25:34.721,AUTO,-35.3632628,149.1652367,13896,-0.00641381973400712,-0.006781292613595724,-0.11752934753894806,0.013421814888715744,0.009208154864609241,-0.02673964574933052,-1,0,-1000,14,9,-27,4,-2,-152,1500.0
18:25:34.923,AUTO,-35.3632628,149.1652367,13896,-0.00641381973400712,-0.006781292613595724,-0.11752934753894806,0.013421814888715744,0.009208154864609241,-0.02673964574933052,-1,0,-1000,14,9,-27,4,-2,-152,1500.0
18:25:35.125,AUTO,-35.3632628,149.1652367,13896,-0.00641381973400712,-0.006781292613595724,-0.11752934753894806,0.013421814888715744,0.009208154864609241,-0.02673964574933052,-1,0,-1000,14,9,-27,4,-2,-152,1500.0
18:25:35.328,AUTO,-35.3632617,149.1652355,17028,0.009707548655569553,0.007780459709465504,-0.1630084216594696,-0.0009753869962878525,6.733275949954987e-05,-0.015703825280070305,-1,0,-1000,0,0,-15,2,0,-153,1500.0
18:25:35.532,AUTO,-35.3632617,149.1652355,17028,0.009707548655569553,0.007780459709465504,-0.1630084216594696,-0.0009753869962878525,6.733275949954987e-05,-0.015703825280070305,-1,0,-1000,0,0,-15,2,0,-153,1500.0
18:25:35.734,AUTO,-35.3632617,149.1652355,17028,0.009707548655569553,0.007780459709465504,-0.1630084216594696,-0.0009753869962878525,6.733275949954987e-05,-0.015703825280070305,-1,0,-1000,0,0,-15,2,0,-153,1500.0
18:25:35.936,AUTO,-35.3632617,149.1652355,17028,0.009707548655569553,0.007780459709465504,-0.1630084216594696,-0.0009753869962878525,6.733275949954987e-05,-0.015703825280070305,-1,0,-1000,0,0,-15,2,0,-153,1500.0
18:25:36.138,AUTO,-35.3632617,149.1652355,17028,0.009707548655569553,0.007780459709465504,-0.1630084216594696,-0.0009753869962878525,6.733275949954987e-05,-0.015703825280070305,-1,0,-1000,0,0,-15,2,0,-153,1500.0
18:25:36.341,AUTO,-35.3632617,149.1652355,17028,0.009707548655569553,0.007780459709465504,-0.1630084216594696,-0.0009753869962878525,6.733275949954987e-05,-0.015703825280070305,-1,0,-1000,0,0,-15,2,0,-153,1500.0
18:25:36.544,AUTO,-35.3632617,149.1652355,17028,0.009707548655569553,0.007780459709465504,-0.1630084216594696,-0.0009753869962878525,6.733275949954987e-05,-0.015703825280070305,-1,0,-1000,0,0,-15,2,0,-153,1500.0
18:25:36.747,AUTO,-35.3632616,149.1652357,19139,0.005517908837646246,0.006049764342606068,-0.1810399740934372,-0.0033433528151363134,-0.003139304229989648,-0.012299074791371822,0,0,-1000,-2,-2,-12,-2,6,-153,1500.0
18:25:36.949,AUTO,-35.3632616,149.1652358,19534,0.004661508835852146,0.005395839456468821,-0.18460379540920258,-0.002410224173218012,-0.0031466446816921234,-0.015057873912155628,0,0,-1000,-1,-2,-15,-3,6,-153,1500.0
18:25:37.150,AUTO,-35.3632615,149.1652359,19925,0.0038236407563090324,0.004987522028386593,-0.18855248391628265,-0.0009098391165025532,-3.606855170801282e-05,-0.016973773017525673,0,0,-1000,0,0,-16,-3,6,-153,1500.0
18:25:37.354,AUTO,-35.3632615,149.165236,20316,0.002826896496117115,0.004452583845704794,-0.19248896837234497,-0.0039691077545285225,-0.0015518137952312827,-0.015791045501828194,0,0,-999,-3,0,-15,-3,6,-153,1500.0
18:25:37.557,AUTO,-35.3632615,149.165236,20316,0.002826896496117115,0.004452583845704794,-0.19248896837234497,-0.0039691077545285225,-0.0015518137952312827,-0.015791045501828194,0,0,-999,-3,0,-15,-3,6,-153,1500.0
18:25:37.766,AUTO,-35.3632615,149.165236,20316,0.002826896496117115,0.004452583845704794,-0.19248896837234497,-0.0039691077545285225,-0.0015518137952312827,-0.015791045501828194,0,0,-999,-3,0,-15,-3,6,-153,1500.0
18:25:37.973,AUTO,-35.3632615,149.165236,20316,0.002826896496117115,0.004452583845704794,-0.19248896837234497,-0.0039691077545285225,-0.0015518137952312827,-0.015791045501828194,0,0,-999,-3,0,-15,-3,6,-153,1500.0
18:25:38.177,AUTO,-35.3632615,149.165236,20316,0.002826896496117115,0.004452583845704794,-0.19248896837234497,-0.0039691077545285225,-0.0015518137952312827,-0.015791045501828194,0,0,-999,-3,0,-15,-3,6,-153,1500.0
18:25:38.382,AUTO,-35.3632615,149.165236,20316,0.002826896496117115,0.004452583845704794,-0.19248896837234497,-0.0039691077545285225,-0.0015518137952312827,-0.015791045501828194,0,0,-999,-3,0,-15,-3,6,-153,1500.0
18:25:38.594,AUTO,-35.3632615,149.165236,20316,0.002826896496117115,0.004452583845704794,-0.19248896837234497,-0.0039691077545285225,-0.0015518137952312827,-0.015791045501828194,0,0,-999,-3,0,-15,-3,6,-153,1500.0
18:25:38.799,AUTO,-35.3632615,149.165236,20316,0.002826896496117115,0.004452583845704794,-0.19248896837234497,-0.0039691077545285225,-0.0015518137952312827,-0.015791045501828194,0,0,-999,-3,0,-15,-3,6,-153,1500.0
18:25:39.000,AUTO,-35.3632615,149.165236,20316,0.002826896496117115,0.004452583845704794,-0.19248896837234497,-0.0039691077545285225,-0.0015518137952312827,-0.015791045501828194,0,0,-999,-3,0,-15,-3,6,-153,1500.0
18:25:39.203,AUTO,-35.3632615,149.165236,20316,0.002826896496117115,0.004452583845704794,-0.19248896837234497,-0.0039691077545285225,-0.0015518137952312827,-0.015791045501828194,0,0,-999,-3,0,-15,-3,6,-153,1500.0
18:25:39.404,AUTO,-35.3632615,149.165236,20316,0.002826896496117115,0.004452583845704794,-0.19248896837234497,-0.0039691077545285225,-0.0015518137952312827,-0.015791045501828194,0,0,-999,-3,0,-15,-3,6,-153,1500.0
18:25:39.610,AUTO,-35.3632617,149.1652365,22510,0.001643356867134571,0.002994455397129059,-0.21839505434036255,0.00020889792358502746,0.00083855603588745,-0.021365005522966385,0,0,-1000,2,0,-20,-3,4,-153,1500.0
18:25:39.811,AUTO,-35.3632618,149.1652367,24075,0.00212494982406497,0.0026501379907131195,-0.23801547288894653,0.0024644327349960804,-5.248800152912736e-05,-0.019921528175473213,0,0,-1000,0,0,-21,-3,3,-153,1500.0
18:25:40.013,AUTO,-35.3632618,149.1652367,24075,0.00212494982406497,0.0026501379907131195,-0.23801547288894653,0.0024644327349960804,-5.248800152912736e-05,-0.019921528175473213,0,0,-1000,3,0,-20,-3,3,-153,1500.0
18:25:40.215,AUTO,-35.3632618,149.1652367,24075,0.00212494982406497,0.0026501379907131195,-0.23801547288894653,0.0024644327349960804,-5.248800152912736e-05,-0.019921528175473213,0,0,-1000,3,0,-20,-3,3,-153,1500.0
18:25:40.416,AUTO,-35.3632618,149.1652367,24075,0.00212494982406497,0.0026501379907131195,-0.23801547288894653,0.0024644327349960804,-5.248800152912736e-05,-0.019921528175473213,0,0,-1000,3,0,-20,-3,3,-153,1500.0
18:25:40.621,AUTO,-35.3632618,149.1652367,24075,0.00212494982406497,0.0026501379907131195,-0.23801547288894653,0.0024644327349960804,-5.248800152912736e-05,-0.019921528175473213,0,0,-1000,3,0,-20,-3,3,-153,1500.0
18:25:40.823,AUTO,-35.3632618,149.1652367,24075,0.00212494982406497,0.0026501379907131195,-0.23801547288894653,0.0024644327349960804,-5.248800152912736e-05,-0.019921528175473213,0,0,-1000,3,0,-20,-3,3,-153,1500.0
18:25:41.025,AUTO,-35.3632618,149.1652367,24075,0.00212494982406497,0.0026501379907131195,-0.23801547288894653,0.0024644327349960804,-5.248800152912736e-05,-0.019921528175473213,0,0,-1000,3,0,-20,-3,3,-153,1500.0
18:25:41.227,AUTO,-35.3632618,149.1652367,24075,0.00212494982406497,0.0026501379907131195,-0.23801547288894653,0.0024644327349960804,-5.248800152912736e-05,-0.019921528175473213,0,0,-1000,3,0,-20,-3,3,-153,1500.0
18:25:41.429,AUTO,-35.3632619,149.1652367,25786,-0.00868916604667902,0.00470724469050765,-0.25295600295066833,0.038078054785728455,0.00285369623452425,0.0061597372405231,0,0,-999,-34,6,-7,-4,-2,-153,1500.0
18:25:41.641,AUTO,-35.363262,149.1652365,26577,0.008280331268906593,0.00426415354013443,-0.24517714977264404,0.02127976529300213,-0.0030492376536130905,0.023172052577137947,0,1,-999,22,-2,23,-5,-2,-153,1500.0
18:25:41.845,AUTO,-35.363262,149.1652365,26577,0.008280331268906593,0.00426415354013443,-0.24517714977264404,0.02127976529300213,-0.0030492376536130905,0.023172052577137947,0,1,-999,22,-2,23,-5,-2,-153,1500.0
18:25:42.048,AUTO,-35.363262,149.1652365,26577,0.008280331268906593,0.00426415354013443,-0.24517714977264404,0.02127976529300213,-0.0030492376536130905,0.023172052577137947,0,1,-999,22,-2,23,-5,-2,-153,1500.0
18:25:42.259,AUTO,-35.363262,149.1652365,26577,0.008280331268906593,0.00426415354013443,-0.24517714977264404,0.02127976529300213,-0.0030492376536130905,0.023172052577137947,0,1,-999,22,-2,23,-5,-2,-153,1500.0
18:25:42.487,AUTO,-35.363262,149.1652365,26577,0.008280331268906593,0.00426415354013443,-0.24517714977264404,0.02127976529300213,-0.0030492376536130905,0.023172052577137947,0,1,-999,22,-2,23,-5,-2,-153,1500.0
18:25:42.717,AUTO,-35.363262,149.1652365,26577,0.008280331268906593,0.00426415354013443,-0.24517714977264404,0.02127976529300213,-0.0030492376536130905,0.023172052577137947,0,1,-999,22,-2,23,-5,-2,-153,1500.0
18:25:42.932,AUTO,-35.363262,149.1652365,26577,0.008280331268906593,0.00426415354013443,-0.24517714977264404,0.02127976529300213,-0.0030492376536130905,0.023172052577137947,0,1,-999,22,-2,23,-5,-2,-153,1500.0
18:25:43.143,AUTO,-35.363262,149.1652365,26577,0.008280331268906593,0.00426415354013443,-0.24517714977264404,0.02127976529300213,-0.0030492376536130905,0.023172052577137947,0,1,-999,22,-2,23,-5,-2,-153,1500.0
18:25:43.347,AUTO,-35.363262,149.1652365,26577,0.008280331268906593,0.00426415354013443,-0.24517714977264404,0.02127976529300213,-0.0030492376536130905,0.023172052577137947,0,1,-999,22,-2,23,-5,-2,-153,1500.0
18:25:43.551,AUTO,-35.3632624,149.1652374,29841,0.0016822038451209664,0.0015447752084583044,-0.19721435010433197,-0.007003889884799719,0.001081695780158043,0.020824236795306206,0,0,-1000,-6,2,20,0,8,-153,1500.0
18:25:43.754,AUTO,-35.3632624,149.1652374,29841,0.0016822038451209664,0.0015447752084583044,-0.19721435010433197,-0.007003889884799719,0.001081695780158043,0.020824236795306206,0,0,-1000,-6,2,20,0,8,-153,1500.0
18:25:43.956,AUTO,-35.3632624,149.1652374,29841,0.0016822038451209664,0.0015447752084583044,-0.19721435010433197,-0.007003889884799719,0.001081695780158043,0.020824236795306206,0,0,-1000,-6,2,20,0,8,-153,1500.0
18:25:44.160,AUTO,-35.3632624,149.1652374,29841,0.0016822038451209664,0.0015447752084583044,-0.19721435010433197,-0.007003889884799719,0.001081695780158043,0.020824236795306206,0,0,-1000,-6,2,20,0,8,-153,1500.0
18:25:44.367,AUTO,-35.3632624,149.1652374,29841,0.0016822038451209664,0.0015447752084583044,-0.19721435010433197,-0.007003889884799719,0.001081695780158043,0.020824236795306206,0,0,-1000,-6,2,20,0,8,-153,1500.0
18:25:44.569,AUTO,-35.3632624,149.1652374,29841,0.0016822038451209664,0.0015447752084583044,-0.19721435010433197,-0.007003889884799719,0.001081695780158043,0.020824236795306206,0,0,-1000,-6,2,20,0,8,-153,1500.0
18:25:44.771,AUTO,-35.3632624,149.1652374,29841,0.0016822038451209664,0.0015447752084583044,-0.19721435010433197,-0.007003889884799719,0.001081695780158043,0.020824236795306206,0,0,-1000,-6,2,20,0,8,-153,1500.0
18:25:44.975,AUTO,-35.3632624,149.1652374,29841,0.0016822038451209664,0.0015447752084583044,-0.19721435010433197,-0.007003889884799719,0.001081695780158043,0.020824236795306206,0,0,-1000,-6,2,20,0,8,-153,1500.0
18:25:45.178,AUTO,-35.3632624,149.1652374,29841,0.0016822038451209664,0.0015447752084583044,-0.19721435010433197,-0.007003889884799719,0.001081695780158043,0.020824236795306206,0,0,-1000,-6,2,20,0,8,-153,1500.0
18:25:45.386,AUTO,-35.3632624,149.1652374,29841,0.0016822038451209664,0.0015447752084583044,-0.19721435010433197,-0.007003889884799719,0.001081695780158043,0.020824236795306206,0,0,-1000,-6,2,20,0,8,-153,1500.0
18:25:45.590,AUTO,-35.3632623,149.165238,31792,-0.0004682467260863632,0.0015819163527339697,-0.17491067945957184,-0.001886054058559239,0.0002601969172246754,0.01665639877319336,0,0,-999,-1,1,16,0,3,-153,1500.0
18:25:45.793,AUTO,-35.3632623,149.165238,33350,0.000851262011565268,0.0016551654553040862,-0.15965145826339722,0.004497855436056852,0.0025358726270496845,0.015045497566461563,0,0,-1000,5,3,14,0,1,-153,1500.0
18:25:45.997,AUTO,-35.3632623,149.165238,33350,0.000851262011565268,0.0016551654553040862,-0.15965145826339722,0.004497855436056852,0.0025358726270496845,0.015045497566461563,0,0,-1000,5,3,14,0,1,-153,1500.0
18:25:46.200,AUTO,-35.3632623,149.165238,33350,0.000851262011565268,0.0016551654553040862,-0.15965145826339722,0.004497855436056852,0.0025358726270496845,0.015045497566461563,0,0,-1000,5,3,14,0,1,-153,1500.0
18:25:46.403,AUTO,-35.3632623,149.165238,33350,0.000851262011565268,0.0016551654553040862,-0.15965145826339722,0.004497855436056852,0.0025358726270496845,0.015045497566461563,0,0,-1000,5,3,14,0,1,-153,1500.0
18:25:46.605,AUTO,-35.3632623,149.165238,33350,0.000851262011565268,0.0016551654553040862,-0.15965145826339722,0.004497855436056852,0.0025358726270496845,0.015045497566461563,0,0,-1000,5,3,14,0,1,-153,1500.0
18:25:46.806,AUTO,-35.3632623,149.165238,33350,0.000851262011565268,0.0016551654553040862,-0.15965145826339722,0.004497855436056852,0.0025358726270496845,0.015045497566461563,0,0,-1000,5,3,14,0,1,-153,1500.0
18:25:47.008,AUTO,-35.3632622,149.165238,35222,0.0017368864500895143,0.0011349415872246027,-0.14412078261375427,0.004345374181866646,0.0013103168457746506,0.012681469321250916,0,0,-1000,5,2,12,0,0,-153,1500.0
18:25:47.209,AUTO,-35.3632622,149.1652379,35613,0.001697203260846436,0.0010533086024224758,-0.14137111604213715,-0.002311157062649727,-0.000404616876039654,0.010194934904575348,0,0,-1000,-1,0,10,0,0,-153,1500.0
18:25:47.420,AUTO,-35.3632622,149.1652379,35613,0.001697203260846436,0.0010533086024224758,-0.14137111604213715,-0.002311157062649727,-0.000404616876039654,0.010194934904575348,0,0,-1000,-1,0,10,0,0,-153,1500.0
18:25:47.627,AUTO,-35.3632622,149.1652379,35613,0.001697203260846436,0.0010533086024224758,-0.14137111604213715,-0.002311157062649727,-0.000404616876039654,0.010194934904575348,0,0,-1000,-1,0,10,0,0,-153,1500.0
18:25:47.835,AUTO,-35.3632622,149.1652379,35613,0.001697203260846436,0.0010533086024224758,-0.14137111604213715,-0.002311157062649727,-0.000404616876039654,0.010194934904575348,0,0,-1000,-1,0,10,0,0,-153,1500.0
18:25:48.049,AUTO,-35.3632622,149.1652379,35613,0.001697203260846436,0.0010533086024224758,-0.14137111604213715,-0.002311157062649727,-0.000404616876039654,0.010194934904575348,0,0,-1000,-1,0,10,0,0,-153,1500.0
18:25:48.259,AUTO,-35.3632622,149.1652379,35613,0.001697203260846436,0.0010533086024224758,-0.14137111604213715,-0.002311157062649727,-0.000404616876039654,0.010194934904575348,0,0,-1000,-1,0,10,0,0,-153,1500.0
18:25:48.462,AUTO,-35.3632622,149.1652379,35613,0.001697203260846436,0.0010533086024224758,-0.14137111604213715,-0.002311157062649727,-0.000404616876039654,0.010194934904575348,0,0,-1000,-1,0,10,0,0,-153,1500.0
18:25:48.665,AUTO,-35.3632622,149.1652379,35613,0.001697203260846436,0.0010533086024224758,-0.14137111604213715,-0.002311157062649727,-0.000404616876039654,0.010194934904575348,0,0,-1000,-1,0,10,0,0,-153,1500.0
18:25:48.868,AUTO,-35.3632622,149.1652379,35613,0.001697203260846436,0.0010533086024224758,-0.14137111604213715,-0.002311157062649727,-0.000404616876039654,0.010194934904575348,0,0,-1000,-1,0,10,0,0,-153,1500.0
18:25:49.070,AUTO,-35.3632622,149.1652378,36937,0.0016933276783674955,0.0013323274906724691,-0.13203765451908112,-0.0001943334937095642,-0.0003897678107023239,0.010582760907709599,0,0,-1000,1,0,10,0,0,-153,1500.0
18:25:49.272,AUTO,-35.3632621,149.1652377,38500,0.0026552295312285423,0.0015863418811932206,-0.12265069037675858,0.0033420247491449118,-0.00024916225811466575,0.008606046438217163,0,0,-1001,4,0,8,0,0,-153,1500.0
18:25:49.478,AUTO,-35.3632621,149.1652376,38889,0.0027590878307819366,0.0016164008993655443,-0.12052151560783386,0.001256723771803081,0.0014009001897647977,0.010236541740596294,0,0,-999,2,2,10,0,0,-153,1500.0
18:25:49.682,AUTO,-35.3632621,149.1652376,38889,0.0027590878307819366,0.0016164008993655443,-0.12052151560783386,0.001256723771803081,0.0014009001897647977,0.010236541740596294,0,0,-999,2,2,10,0,0,-153,1500.0
18:25:49.885,AUTO,-35.3632621,149.1652376,38889,0.0027590878307819366,0.0016164008993655443,-0.12052151560783386,0.001256723771803081,0.0014009001897647977,0.010236541740596294,0,0,-999,2,2,10,0,0,-153,1500.0
18:25:50.091,AUTO,-35.3632621,149.1652376,38889,0.0027590878307819366,0.0016164008993655443,-0.12052151560783386,0.001256723771803081,0.0014009001897647977,0.010236541740596294,0,0,-999,2,2,10,0,0,-153,1500.0
18:25:50.292,AUTO,-35.3632621,149.1652376,38889,0.0027590878307819366,0.0016164008993655443,-0.12052151560783386,0.001256723771803081,0.0014009001897647977,0.010236541740596294,0,0,-999,2,2,10,0,0,-153,1500.0
18:25:50.497,AUTO,-35.3632621,149.1652376,38889,0.0027590878307819366,0.0016164008993655443,-0.12052151560783386,0.001256723771803081,0.0014009001897647977,0.010236541740596294,0,0,-999,2,2,10,0,0,-153,1500.0
18:25:50.702,AUTO,-35.3632621,149.1652376,38889,0.0027590878307819366,0.0016164008993655443,-0.12052151560783386,0.001256723771803081,0.0014009001897647977,0.010236541740596294,0,0,-999,2,2,10,0,0,-153,1500.0
18:25:50.904,AUTO,-35.3632621,149.1652376,38889,0.0027590878307819366,0.0016164008993655443,-0.12052151560783386,0.001256723771803081,0.0014009001897647977,0.010236541740596294,0,0,-999,2,2,10,0,0,-153,1500.0
18:25:54.524,AUTO,-35.3632621,149.1652376,38889,0.0027590878307819366,0.0016164008993655443,-0.12052151560783386,0.001256723771803081,0.0014009001897647977,0.010236541740596294,0,0,-999,2,2,10,0,0,-153,1500.0
18:25:54.728,AUTO,-35.3632621,149.1652375,41612,0.002457481110468507,0.0018416170496493578,-0.1073753759264946,0.0016487517859786749,-0.0006570005207322538,0.006105395033955574,0,0,-1000,0,2,7,-1,1,-153,1500.0
18:25:54.932,AUTO,-35.3632621,149.1652374,42002,0.0022474040742963552,0.0016760554863139987,-0.10574997961521149,-0.0015847987961024046,-0.0016114134341478348,0.006516481749713421,0,0,-1000,0,0,6,-1,1,-153,1500.0
18:25:55.139,AUTO,-35.3632621,149.1652374,42002,0.0022474040742963552,0.0016760554863139987,-0.10574997961521149,-0.0015847987961024046,-0.0016114134341478348,0.006516481749713421,0,0,-1000,0,0,6,-1,1,-153,1500.0
18:25:55.367,AUTO,-35.3632621,149.1652374,42002,0.0022474040742963552,0.0016760554863139987,-0.10574997961521149,-0.0015847987961024046,-0.0016114134341478348,0.006516481749713421,0,0,-1000,0,0,6,-1,1,-153,1500.0
18:25:55.573,AUTO,-35.3632621,149.1652374,42002,0.0022474040742963552,0.0016760554863139987,-0.10574997961521149,-0.0015847987961024046,-0.0016114134341478348,0.006516481749713421,0,0,-1000,0,0,6,-1,1,-153,1500.0
18:25:55.779,AUTO,-35.3632621,149.1652374,42002,0.0022474040742963552,0.0016760554863139987,-0.10574997961521149,-0.0015847987961024046,-0.0016114134341478348,0.006516481749713421,0,0,-1000,0,0,6,-1,1,-153,1500.0
18:25:56.007,AUTO,-35.3632621,149.1652374,42002,0.0022474040742963552,0.0016760554863139987,-0.10574997961521149,-0.0015847987961024046,-0.0016114134341478348,0.006516481749713421,0,0,-1000,0,0,6,-1,1,-153,1500.0
18:25:56.219,AUTO,-35.3632621,149.1652374,42002,0.0022474040742963552,0.0016760554863139987,-0.10574997961521149,-0.0015847987961024046,-0.0016114134341478348,0.006516481749713421,0,0,-1000,0,0,6,-1,1,-153,1500.0
18:25:56.424,AUTO,-35.363262,149.1652374,43565,0.0019552710000425577,0.0011828901479020715,-0.09899534285068512,-0.00037330627674236894,-0.0017615524120628834,0.008069116622209549,0,0,-1000,0,0,8,-1,1,-153,1500.0
18:25:56.628,AUTO,-35.363262,149.1652374,44733,0.002143147401511669,0.0013150455197319388,-0.09467539936304092,-0.004058517049998045,-0.0007892631692811847,0.004883408080786467,0,0,-1000,-3,0,5,-1,1,-153,1500.0
18:25:56.830,AUTO,-35.363262,149.1652374,45126,0.002171021420508623,0.0012486198684200644,-0.09321647137403488,0.0007297763368114829,-0.0009248870774172246,0.006262525450438261,0,0,-1000,1,0,6,-1,1,-153,1500.0
18:25:57.032,AUTO,-35.363262,149.1652374,45126,0.002171021420508623,0.0012486198684200644,-0.09321647137403488,0.0007297763368114829,-0.0009248870774172246,0.006262525450438261,0,0,-1000,1,0,6,-1,1,-153,1500.0
18:25:57.235,AUTO,-35.363262,149.1652374,45126,0.002171021420508623,0.0012486198684200644,-0.09321647137403488,0.0007297763368114829,-0.0009248870774172246,0.006262525450438261,0,0,-1000,1,0,6,-1,1,-153,1500.0
18:25:57.437,AUTO,-35.363262,149.1652374,45126,0.002171021420508623,0.0012486198684200644,-0.09321647137403488,0.0007297763368114829,-0.0009248870774172246,0.006262525450438261,0,0,-1000,1,0,6,-1,1,-153,1500.0
18:25:57.639,AUTO,-35.363262,149.1652374,45126,0.002171021420508623,0.0012486198684200644,-0.09321647137403488,0.0007297763368114829,-0.0009248870774172246,0.006262525450438261,0,0,-1000,1,0,6,-1,1,-153,1500.0
18:25:57.843,AUTO,-35.363262,149.1652374,45126,0.002171021420508623,0.0012486198684200644,-0.09321647137403488,0.0007297763368114829,-0.0009248870774172246,0.006262525450438261,0,0,-1000,1,0,6,-1,1,-153,1500.0
18:25:58.047,AUTO,-35.363262,149.1652374,45126,0.002171021420508623,0.0012486198684200644,-0.09321647137403488,0.0007297763368114829,-0.0009248870774172246,0.006262525450438261,0,0,-1000,1,0,6,-1,1,-153,1500.0
18:25:58.249,AUTO,-35.363262,149.1652374,45126,0.002171021420508623,0.0012486198684200644,-0.09321647137403488,0.0007297763368114829,-0.0009248870774172246,0.006262525450438261,0,0,-1000,1,0,6,-1,1,-153,1500.0
18:25:58.452,AUTO,-35.363262,149.1652374,45126,0.002171021420508623,0.0012486198684200644,-0.09321647137403488,0.0007297763368114829,-0.0009248870774172246,0.006262525450438261,0,0,-1000,1,0,6,-1,1,-153,1500.0
18:25:58.656,AUTO,-35.363262,149.1652374,45126,0.002171021420508623,0.0012486198684200644,-0.09321647137403488,0.0007297763368114829,-0.0009248870774172246,0.006262525450438261,0,0,-1000,1,0,6,-1,1,-153,1500.0
18:25:58.858,AUTO,-35.363262,149.1652373,47298,-0.015180914662778378,0.018143514171242714,-0.048940155655145645,-0.10655342042446136,0.10624616593122482,0.2559871971607208,0,0,-971,-105,107,256,-3,0,-146,1500.0
18:25:59.063,AUTO,-35.363263,149.1652359,48315,-0.038717564195394516,0.02517053112387657,0.2546914517879486,0.10952778905630112,-0.21540744602680206,0.21550960838794708,3,9,-943,110,-214,215,-31,-35,-113,1500.0
18:25:59.267,AUTO,-35.363263,149.1652359,48315,-0.038717564195394516,0.02517053112387657,0.2546914517879486,0.10952778905630112,-0.21540744602680206,0.21550960838794708,3,9,-943,110,-214,215,-31,-35,-113,1500.0
18:25:59.473,AUTO,-35.363263,149.1652359,48315,-0.038717564195394516,0.02517053112387657,0.2546914517879486,0.10952778905630112,-0.21540744602680206,0.21550960838794708,3,9,-943,110,-214,215,-31,-35,-113,1500.0
18:25:59.675,AUTO,-35.363263,149.1652359,48315,-0.038717564195394516,0.02517053112387657,0.2546914517879486,0.10952778905630112,-0.21540744602680206,0.21550960838794708,3,9,-943,110,-214,215,-31,-35,-113,1500.0
18:25:59.877,AUTO,-35.363263,149.1652359,48315,-0.038717564195394516,0.02517053112387657,0.2546914517879486,0.10952778905630112,-0.21540744602680206,0.21550960838794708,3,9,-943,110,-214,215,-31,-35,-113,1500.0
18:26:00.079,AUTO,-35.363263,149.1652359,48315,-0.038717564195394516,0.02517053112387657,0.2546914517879486,0.10952778905630112,-0.21540744602680206,0.21550960838794708,3,9,-943,110,-214,215,-31,-35,-113,1500.0
18:26:00.289,AUTO,-35.363263,149.1652359,48315,-0.038717564195394516,0.02517053112387657,0.2546914517879486,0.10952778905630112,-0.21540744602680206,0.21550960838794708,3,9,-943,110,-214,215,-31,-35,-113,1500.0
18:26:00.502,AUTO,-35.363263,149.1652359,48315,-0.038717564195394516,0.02517053112387657,0.2546914517879486,0.10952778905630112,-0.21540744602680206,0.21550960838794708,3,9,-943,110,-214,215,-31,-35,-113,1500.0
18:26:00.716,AUTO,-35.363263,149.1652359,48315,-0.038717564195394516,0.02517053112387657,0.2546914517879486,0.10952778905630112,-0.21540744602680206,0.21550960838794708,3,9,-943,110,-214,215,-31,-35,-113,1500.0
18:26:00.936,AUTO,-35.363263,149.1652359,48315,-0.038717564195394516,0.02517053112387657,0.2546914517879486,0.10952778905630112,-0.21540744602680206,0.21550960838794708,3,9,-943,110,-214,215,-31,-35,-113,1500.0
18:26:01.157,AUTO,-35.3632644,149.1652326,49577,0.035777997225522995,-0.03290623426437378,0.282956600189209,-0.1947474330663681,0.04358267784118652,-0.037916578352451324,-2,-13,-974,-194,44,-37,14,14,-53,1500.0
18:26:01.366,AUTO,-35.3632636,149.1652335,49812,0.029415622353553772,-0.012161651626229286,0.2638513147830963,0.35468828678131104,0.037583425641059875,-0.03084721229970455,-2,21,-978,359,38,-30,20,28,-39,1500.0
18:26:01.570,AUTO,-35.3632636,149.1652335,49812,0.029415622353553772,-0.012161651626229286,0.2638513147830963,0.35468828678131104,0.037583425641059875,-0.03084721229970455,-2,21,-978,359,38,-30,20,28,-39,1500.0
18:26:01.772,AUTO,-35.3632636,149.1652335,49812,0.029415622353553772,-0.012161651626229286,0.2638513147830963,0.35468828678131104,0.037583425641059875,-0.03084721229970455,-2,21,-978,359,38,-30,20,28,-39,1500.0
18:26:01.974,AUTO,-35.3632636,149.1652335,49812,0.029415622353553772,-0.012161651626229286,0.2638513147830963,0.35468828678131104,0.037583425641059875,-0.03084721229970455,-2,21,-978,359,38,-30,20,28,-39,1500.0
18:26:02.176,AUTO,-35.3632636,149.1652335,49812,0.029415622353553772,-0.012161651626229286,0.2638513147830963,0.35468828678131104,0.037583425641059875,-0.03084721229970455,-2,21,-978,359,38,-30,20,28,-39,1500.0
18:26:02.379,AUTO,-35.3632636,149.1652335,49812,0.029415622353553772,-0.012161651626229286,0.2638513147830963,0.35468828678131104,0.037583425641059875,-0.03084721229970455,-2,21,-978,359,38,-30,20,28,-39,1500.0
18:26:02.581,AUTO,-35.3632636,149.1652335,49812,0.029415622353553772,-0.012161651626229286,0.2638513147830963,0.35468828678131104,0.037583425641059875,-0.03084721229970455,-2,21,-978,359,38,-30,20,28,-39,1500.0
18:26:02.783,AUTO,-35.3632636,149.1652335,49812,0.029415622353553772,-0.012161651626229286,0.2638513147830963,0.35468828678131104,0.037583425641059875,-0.03084721229970455,-2,21,-978,359,38,-30,20,28,-39,1500.0
18:26:02.985,AUTO,-35.3632636,149.1652335,49812,0.029415622353553772,-0.012161651626229286,0.2638513147830963,0.35468828678131104,0.037583425641059875,-0.03084721229970455,-2,21,-978,359,38,-30,20,28,-39,1500.0
18:26:03.191,AUTO,-35.3632611,149.1652379,50179,0.006745116785168648,0.014615057036280632,0.21752740442752838,0.26083406805992126,-0.004013598430901766,-0.023365788161754608,-3,13,-986,574,0,-17,7,19,-2,1500.0
18:26:03.399,AUTO,-35.3632612,149.1652382,50078,-0.007286041509360075,0.034441035240888596,0.19988955557346344,-0.5145461559295654,-0.02721918188035488,-0.015982987359166145,2,-40,-1033,-517,-26,-15,-14,-1,12,1500.0
18:26:03.602,AUTO,-35.3632612,149.1652382,50078,-0.007286041509360075,0.034441035240888596,0.19988955557346344,-0.5145461559295654,-0.02721918188035488,-0.015982987359166145,2,-40,-1033,-517,-26,-15,-14,-1,12,1500.0
18:26:03.806,AUTO,-35.3632612,149.1652382,50078,-0.007286041509360075,0.034441035240888596,0.19988955557346344,-0.5145461559295654,-0.02721918188035488,-0.015982987359166145,2,-40,-1033,-517,-26,-15,-14,-1,12,1500.0
18:26:04.009,AUTO,-35.3632612,149.1652382,50078,-0.007286041509360075,0.034441035240888596,0.19988955557346344,-0.5145461559295654,-0.02721918188035488,-0.015982987359166145,2,-40,-1033,-517,-26,-15,-14,-1,12,1500.0
18:26:04.212,AUTO,-35.3632612,149.1652382,50078,-0.007286041509360075,0.034441035240888596,0.19988955557346344,-0.5145461559295654,-0.02721918188035488,-0.015982987359166145,2,-40,-1033,-517,-26,-15,-14,-1,12,1500.0
18:26:04.415,AUTO,-35.3632612,149.1652382,50078,-0.007286041509360075,0.034441035240888596,0.19988955557346344,-0.5145461559295654,-0.02721918188035488,-0.015982987359166145,2,-40,-1033,-517,-26,-15,-14,-1,12,1500.0
18:26:04.617,AUTO,-35.3632612,149.1652382,50078,-0.007286041509360075,0.034441035240888596,0.19988955557346344,-0.5145461559295654,-0.02721918188035488,-0.015982987359166145,2,-40,-1033,-517,-26,-15,-14,-1,12,1500.0
18:26:04.820,AUTO,-35.3632612,149.1652382,50078,-0.007286041509360075,0.034441035240888596,0.19988955557346344,-0.5145461559295654,-0.02721918188035488,-0.015982987359166145,2,-40,-1033,-517,-26,-15,-14,-1,12,1500.0
18:26:05.022,AUTO,-35.3632612,149.1652382,50078,-0.007286041509360075,0.034441035240888596,0.19988955557346344,-0.5145461559295654,-0.02721918188035488,-0.015982987359166145,2,-40,-1033,-517,-26,-15,-14,-1,12,1500.0
18:26:05.226,AUTO,-35.3632627,149.1652374,49986,0.02185160294175148,0.0258465763181448,0.1888463944196701,0.2595731019973755,0.0004189773462712765,-0.028205838054418564,6,0,-1018,256,1,-27,-33,0,1,1500.0
18:26:05.433,AUTO,-35.3632656,149.1652367,49961,0.01481917966157198,0.054010555148124695,0.17890366911888123,-0.4449246823787689,0.06569190323352814,0.028567157685756683,8,-23,-1007,-750,48,-26,-57,7,-1,1500.0
18:26:05.655,AUTO,-35.363267,149.1652366,49957,0.028956525027751923,0.06609620898962021,0.24863183498382568,0.2261086255311966,0.05548444017767906,0.526888370513916,15,35,-1005,232,56,527,-70,11,-2,1500.0
18:26:05.873,AUTO,-35.363267,149.1652366,49957,0.028956525027751923,0.06609620898962021,0.24863183498382568,0.2261086255311966,0.05548444017767906,0.526888370513916,15,35,-1005,232,56,527,-70,11,-2,1500.0
18:26:06.080,AUTO,-35.363267,149.1652366,49957,0.028956525027751923,0.06609620898962021,0.24863183498382568,0.2261086255311966,0.05548444017767906,0.526888370513916,15,35,-1005,232,56,527,-70,11,-2,1500.0
18:26:06.285,AUTO,-35.363267,149.1652366,49957,0.028956525027751923,0.06609620898962021,0.24863183498382568,0.2261086255311966,0.05548444017767906,0.526888370513916,15,35,-1005,232,56,527,-70,11,-2,1500.0
18:26:06.498,AUTO,-35.363267,149.1652366,49957,0.028956525027751923,0.06609620898962021,0.24863183498382568,0.2261086255311966,0.05548444017767906,0.526888370513916,15,35,-1005,232,56,527,-70,11,-2,1500.0
18:26:06.716,AUTO,-35.363267,149.1652366,49957,0.028956525027751923,0.06609620898962021,0.24863183498382568,0.2261086255311966,0.05548444017767906,0.526888370513916,15,35,-1005,232,56,527,-70,11,-2,1500.0
18:26:06.941,AUTO,-35.363267,149.1652366,49957,0.028956525027751923,0.06609620898962021,0.24863183498382568,0.2261086255311966,0.05548444017767906,0.526888370513916,15,35,-1005,232,56,527,-70,11,-2,1500.0
18:26:07.144,AUTO,-35.363267,149.1652366,49957,0.028956525027751923,0.06609620898962021,0.24863183498382568,0.2261086255311966,0.05548444017767906,0.526888370513916,15,35,-1005,232,56,527,-70,11,-2,1500.0
18:26:07.345,AUTO,-35.3632818,149.1652374,49946,0.11174576729536057,0.024940425530076027,1.3307706117630005,0.5985872149467468,0.03467894345521927,0.7119476795196533,34,-3,-1021,600,35,711,-170,27,-3,1500.0
18:26:07.555,AUTO,-35.3632955,149.1652385,49943,0.15466274321079254,-0.041483644396066666,1.850806713104248,-0.19560690224170685,0.02026790753006935,0.6888617277145386,14,-49,-1012,-190,21,689,-244,31,0,1500.0
18:26:07.768,AUTO,-35.3632955,149.1652385,49943,0.15466274321079254,-0.041483644396066666,1.850806713104248,-0.19560690224170685,0.02026790753006935,0.6888617277145386,14,-49,-1012,-190,21,689,-244,31,0,1500.0
18:26:07.970,AUTO,-35.3632955,149.1652385,49943,0.15466274321079254,-0.041483644396066666,1.850806713104248,-0.19560690224170685,0.02026790753006935,0.6888617277145386,14,-49,-1012,-190,21,689,-244,31,0,1500.0
18:26:08.172,AUTO,-35.3632955,149.1652385,49943,0.15466274321079254,-0.041483644396066666,1.850806713104248,-0.19560690224170685,0.02026790753006935,0.6888617277145386,14,-49,-1012,-190,21,689,-244,31,0,1500.0
18:26:08.373,AUTO,-35.3632955,149.1652385,49943,0.15466274321079254,-0.041483644396066666,1.850806713104248,-0.19560690224170685,0.02026790753006935,0.6888617277145386,14,-49,-1012,-190,21,689,-244,31,0,1500.0
18:26:08.577,AUTO,-35.3632955,149.1652385,49943,0.15466274321079254,-0.041483644396066666,1.850806713104248,-0.19560690224170685,0.02026790753006935,0.6888617277145386,14,-49,-1012,-190,21,689,-244,31,0,1500.0
18:26:08.778,AUTO,-35.3633274,149.1652414,49947,0.09913090616464615,-0.18360814452171326,2.712385654449463,-0.05368301644921303,-0.2282952070236206,0.6717868447303772,-45,-56,-973,-49,-227,672,-331,36,4,1500.0
18:26:08.980,AUTO,-35.3633352,149.1652421,49925,0.08040906488895416,-0.21813413500785828,2.8890562057495117,0.28427088260650635,0.08441530913114548,0.697268545627594,-63,-50,-1019,287,85,697,-369,38,7,1500.0
18:26:09.184,AUTO,-35.3633352,149.1652421,49925,0.08040906488895416,-0.21813413500785828,2.8890562057495117,0.28427088260650635,0.08441530913114548,0.697268545627594,-63,-50,-1019,287,85,697,-369,38,7,1500.0
18:26:09.387,AUTO,-35.3633352,149.1652421,49925,0.08040906488895416,-0.21813413500785828,2.8890562057495117,0.28427088260650635,0.08441530913114548,0.697268545627594,-63,-50,-1019,287,85,697,-369,38,7,1500.0
