time_stamp,roll,pitch,yaw,rollspeed,pitchspeed,yawspeed,lat,lon,relative_alt,vx,vy,vz,xacc,yacc,zacc,xgyro,ygyro,zgyro,MODE,RTL_ALT
04:00:47,-0.0010061345528811216,0.0009419352863915265,0.022632313892245293,0.00019766201148740947,0.0002592640812508762,0.0016632491606287658,-35.3632621,149.1652375,0.0,-1.0,1.0,1.0,0.0,1.5,-1000.0,0.0,0.0,0.0,STABILIZE,1500.0
04:00:49,-0.0007799678132869303,0.000967858184594661,0.0222346605733037,0.0002110630157403648,0.0002199961745645851,0.0017248939839191735,-35.3632622,149.1652375,0.0,-1.0,2.0,2.0,0.0,1.5,-1000.0,0.0,0.5,0.0,STABILIZE,1500.0
04:00:53,-0.0009604911707962552,0.0010063030834620197,0.021460348119338352,0.0002691081220594545,0.000181161235862722,0.0015010286200170715,-35.3632622,149.1652375,0.0,-1.0,1.6666666666666667,1.3333333333333333,0.0,1.6666666666666667,-1000.0,0.3333333333333333,0.3333333333333333,0.6666666666666666,AUTO,1500.0
04:00:55,-0.0008649032873411974,0.0013836470898240805,0.021116864557067554,0.00023920261689151326,0.00030476489337161183,0.0014576353520775835,-35.3632621,149.16523746666667,0.0,0.0,0.0,0.0,0.0,1.3333333333333333,-1000.0,0.3333333333333333,0.3333333333333333,0.6666666666666666,AUTO,32442.0
04:00:57,0.004137926114102204,0.00019065444575971924,0.020866021513938904,-0.00614172292019551,0.0011795558190594118,0.0012143811715456347,-35.3632621,149.16523746666667,215.33333333333334,0.0,0.6666666666666666,-68.33333333333333,0.0,-0.3333333333333333,-1128.3333333333333,-5.0,1.3333333333333333,0.6666666666666666,AUTO,32442.0
04:00:59,0.05106362452109655,-0.0013741301372647285,-0.005329782608896494,-0.034000594479342304,0.037753270007669926,-0.04550951113924384,-35.363261599999994,149.1652399333333,2917.0,7.666666666666667,41.0,-148.66666666666666,1.3333333333333333,-7.666666666666667,-994.3333333333334,-33.0,38.333333333333336,-45.666666666666664,AUTO,32442.0
04:01:00,-0.05143551776806513,0.008953543554525822,-0.07965800166130066,-0.06548477336764336,-0.028607590434451897,-0.02264185028616339,-35.3632609,149.1652457,4821.666666666667,-1.6666666666666667,22.666666666666668,-150.0,3.6666666666666665,-6.0,-1001.0,-64.0,-27.666666666666668,-22.666666666666668,AUTO,24338.0
04:01:01,-0.06608204543590546,-0.006676399769882361,-0.08799569805463155,0.04202058787147204,-0.0033965055675556264,-0.009240127634257078,-35.363261,149.16524563333334,5976.333333333333,-3.0,-27.0,-150.0,-1.3333333333333333,3.0,-1002.6666666666666,42.333333333333336,-2.3333333333333335,-9.333333333333334,AUTO,24338.0
04:01:03,0.053574721018473305,0.0053424333649066584,-0.08735355238119762,0.030769091720382374,-0.015589664612586299,0.021188034520794947,-35.363262,149.16523533333336,9091.333333333334,-9.0,-22.333333333333332,-153.66666666666666,-2.3333333333333335,7.0,-999.3333333333334,31.333333333333332,-15.0,20.333333333333332,AUTO,24338.0
04:01:05,-0.0100081708903114,-0.00042422593105584383,-0.10321634511152904,0.0034317501510183015,0.006147665437310934,-0.026734509815772373,-35.363262266666666,149.1652359,12189.0,5.0,3.3333333333333335,-152.0,-0.3333333333333333,-1.3333333333333333,-1001.3333333333334,4.0,6.666666666666667,-26.666666666666668,AUTO,24338.0
04:01:06,0.0035798415386428437,0.005986279187103112,-0.13437363505363464,0.010221903367588917,0.0042193608824163675,-0.017624313943088055,-35.3632617,149.1652356333333,14133.0,2.0,-3.0,-153.0,-1.0,0.0,-1000.0,10.333333333333334,4.0,-17.333333333333332,AUTO,26995.0
04:01:07,0.007870566565543413,0.006874302867799997,-0.14655153453350067,-0.0025900602340698242,2.5112492342789967e-05,-0.013080047443509102,-35.363261566666665,149.16523533333333,15302.0,-0.3333333333333333,0.0,-153.0,-0.3333333333333333,0.0,-999.0,-2.3333333333333335,0.3333333333333333,-12.666666666666666,AUTO,26995.0
04:01:09,0.02720610114435355,-0.009073468546072641,0.05556810895601908,0.11841108153263728,-0.10111790398756663,0.04306465511520704,-35.36326316666666,149.16523146666668,18213.333333333332,-26.666666666666668,-31.0,-114.33333333333333,1.0,10.333333333333334,-956.0,118.66666666666667,-100.0,42.666666666666664,AUTO,26995.0
04:01:11,0.010125869555243602,0.002137981199969848,0.03487721582253774,-0.03865733618537585,0.022285104418794315,0.0026460107571134963,-35.3632633,149.16523433333333,19822.333333333332,14.666666666666666,43.333333333333336,-51.333333333333336,1.0,-10.0,-976.6666666666666,-37.333333333333336,22.666666666666668,1.6666666666666667,AUTO,26995.0
04:01:12,-0.014070000809927782,0.014238550948599974,0.03234288841485977,-0.006092507702608903,-0.0014956930341819923,-0.002407607428419093,-35.3632617,149.1652389333333,20280.0,6.666666666666667,22.333333333333332,-21.666666666666668,0.3333333333333333,-5.666666666666667,-973.6666666666666,-4.666666666666667,-0.6666666666666666,-2.3333333333333335,AUTO,28814.0
04:01:13,-0.034072154512008034,0.0190663564329346,0.030343429495890934,-0.1724372891088327,0.01617754444790383,-0.005185026365021865,-35.363261333333334,149.1652401,20346.0,-0.6666666666666666,5.0,4.333333333333333,0.3333333333333333,-3.0,-952.3333333333334,-171.66666666666666,17.333333333333332,-5.0,AUTO,28814.0
04:01:15,0.07792620981733005,0.06077176953355471,0.1836982990304629,0.41312315066655475,0.05410970871647199,0.5724394271771113,-35.3632657,149.16524116666668,20092.0,-65.66666666666667,43.333333333333336,0.0,17.333333333333332,11.0,-1017.0,413.6666666666667,54.333333333333336,571.6666666666666,AUTO,28814.0
04:01:17,0.15622893472512564,-0.11465046803156535,1.6612369219462078,0.05292818943659464,-0.015223695275684198,0.7067021727561951,-35.3632897,149.16526426666667,20077.333333333332,-220.0,188.0,0.0,-12.333333333333334,-62.666666666666664,-1003.0,54.0,-13.666666666666666,706.0,AUTO,17803.0
04:01:19,0.03773591294884682,-0.22367210686206818,2.529807726542155,-0.0017034790168205898,-0.010722039888302485,-0.08731905370950699,-35.363345566666666,149.16531983333334,20041.666666666668,-401.3333333333333,334.6666666666667,0.0,-112.0,-51.0,-1000.3333333333334,-0.6666666666666666,-9.333333333333334,-87.0,AUTO,17803.0
04:01:21,0.06415638079245885,-0.1706021080414454,2.4956392447153726,0.0035437163896858692,0.036962240313490234,-0.0016652600994954507,-35.36343036666667,149.16540376666669,20123.333333333332,-512.3333333333334,418.0,-8.333333333333334,-134.5,-63.0,-989.5,5.5,28.0,0.5,AUTO,17803.0
04:01:22,0.07369271417458852,-0.13465125858783722,2.4921748638153076,0.005283488503967722,0.019927782317002613,-0.003528711541245381,-35.36349023333333,149.16546259999998,20208.666666666668,-530.0,430.3333333333333,-8.0,-137.0,-81.33333333333333,-985.6666666666666,6.333333333333333,20.333333333333332,-2.6666666666666665,AUTO,37266.0
04:01:23,0.07571630428234737,-0.12552430232365927,2.4911697705586753,-0.025236325959364574,-0.0048998078952233,9.042291215640338e-06,-35.36352633333333,149.16549813333333,20244.0,-528.3333333333334,425.3333333333333,-3.6666666666666665,-133.66666666666666,-75.66666666666667,-979.3333333333334,-23.666666666666668,-3.6666666666666665,0.0,AUTO,37266.0
04:01:25,0.0753333568572998,-0.13842804729938507,2.486917575200399,-0.011527348930637041,0.013935379916802049,0.0017988186640044053,-35.363622633333335,149.1655926,20208.333333333332,-537.6666666666666,427.6666666666667,-0.3333333333333333,-135.66666666666666,-82.33333333333333,-994.6666666666666,-10.0,14.333333333333334,2.0,AUTO,37266.0
04:01:27,0.08016199866930644,-0.07314091548323631,2.4851783911387124,0.003223013443251451,0.0626592089732488,-0.002984102272118131,-35.3637187,149.1656868,20307.0,-512.3333333333334,408.3333333333333,-7.333333333333333,-127.0,-82.66666666666667,-988.3333333333334,4.666666666666667,63.0,-2.6666666666666665,AUTO,37266.0
04:01:28,0.07006245354811351,-0.014159348366471628,2.486069679260254,-0.021256462826083105,0.043225012719631195,-0.004612099418106179,-35.36377306666667,149.16573953333332,20395.0,-438.3333333333333,348.3333333333333,-0.6666666666666666,-114.0,-71.33333333333333,-987.0,-20.0,44.0,-4.333333333333333,AUTO,52730.0
04:01:29,0.059468826899925865,0.022576710830132168,2.4850648244222007,-0.2843405604362488,0.05334078768889109,-0.0056286947801709175,-35.36380103333334,149.16576646666667,20398.666666666668,-377.6666666666667,300.0,4.333333333333333,-96.0,-73.0,-988.3333333333334,-283.0,54.0,-5.666666666666667,AUTO,52730.0
04:01:31,0.022461314996083576,0.058587017158667244,2.482533057530721,0.21866105000178018,0.021642075541118782,-0.0033283752078811326,-35.363853533333334,149.1658158666667,20291.333333333332,-194.0,156.33333333333334,4.0,-50.333333333333336,-16.0,-1007.0,220.33333333333334,22.333333333333332,-3.6666666666666665,AUTO,52730.0
04:01:33,-0.006186362666388352,0.05414883171518644,2.4819886684417725,-0.21203453838825226,-0.02100311095515887,0.002748086272428433,-35.363875166666666,149.1658358,20269.333333333332,-39.666666666666664,42.333333333333336,1.3333333333333333,-13.0,-21.0,-1002.0,-211.33333333333334,-18.666666666666668,3.0,AUTO,33238.0
04:01:35,0.0032898582091244557,0.00751839919151583,2.4802486101786294,-0.04990184307098389,-0.02860431745648384,0.0002932562104736765,-35.363876866666665,149.16583996666665,20275.0,12.333333333333334,-2.3333333333333335,0.0,-0.6666666666666666,0.3333333333333333,-1000.0,-48.666666666666664,-26.333333333333332,0.3333333333333333,AUTO,33238.0
04:01:37,0.010913968396683535,-0.004772079836887618,2.47649884223938,-0.1492128868897756,0.05453113963206609,-0.000985089922323823,-35.3638758,149.16584156666667,20275.666666666668,-7.333333333333333,-2.0,-0.3333333333333333,-3.6666666666666665,-11.0,-1003.3333333333334,-147.66666666666666,55.666666666666664,-0.3333333333333333,RTL,33238.0
04:01:38,0.009969542423884073,0.009968156926333904,2.475672483444214,-0.055981541673342385,-0.0015357714146375656,0.006701652115831773,-35.363876166666664,149.16584283333336,20451.0,-5.333333333333333,-12.666666666666666,-34.333333333333336,-0.6666666666666666,-3.3333333333333335,-1045.6666666666667,-54.333333333333336,0.0,7.0,RTL,105801.0
04:01:39,0.007810352835804224,0.007453713566064835,2.4751785596211753,-0.03480439633131027,-0.00171985294825087,0.005953551270067692,-35.36387613333333,149.1658431,20853.0,-3.0,-16.666666666666668,-70.0,0.0,-2.0,-1048.6666666666667,-33.0,-0.3333333333333333,6.666666666666667,RTL,105801.0
04:01:41,0.021737211073438328,-0.0037813058540147417,2.4746253490448,0.044219713658094406,-0.014223229760924974,0.0028091395118584237,-35.363876033333334,149.16584213333334,23204.666666666668,-7.0,-19.333333333333332,-147.33333333333334,2.0,-1.0,-1009.0,45.666666666666664,-12.0,3.6666666666666665,RTL,105801.0
04:01:43,-0.06426201667636633,-0.0008791549480520189,2.4033053517341614,-0.07331593427807093,-0.02487535635009408,-0.03973147762008011,-35.363880574999996,149.165836425,26199.25,-20.5,-21.25,-148.75,3.0,-8.5,-1005.25,-71.25,-22.75,-38.5,RTL,12019.0
04:01:46,0.07105791568756104,0.005633938417304307,2.344828724861145,0.021076975855976343,-0.045271916314959526,0.03293380199465901,-35.363873,149.1658424,31247.5,15.0,-20.5,-152.5,5.0,3.5,-996.5,23.5,-42.5,34.0,RTL,12019.0
04:01:48,-0.0489195492118597,-0.0020776635356014594,2.31482195854187,0.026386014185845852,0.022893237881362438,-0.06350334733724594,-35.36387665,149.165839,34331.5,-14.5,26.0,-152.5,-5.0,-4.5,-1002.0,28.0,24.5,-61.5,RTL,12019.0
04:01:49,-0.018601592077175155,0.009449195407796651,2.282677114009857,0.04524943791329861,0.015168222831562161,-0.031231310684233904,-35.363876925,149.1658412,35505.25,5.5,31.5,-153.0,-5.75,1.25,-1001.0,47.0,16.75,-29.5,RTL,42518.0
04:01:50,0.02086478006094694,0.02084969822317362,2.257372498512268,-0.01682889531366527,-0.025133193470537663,0.006235482171177864,-35.3638759,149.16584335,37467.0,9.0,-3.0,-152.5,0.0,2.0,-997.0,-14.5,-23.0,7.5,RTL,42518.0
04:01:52,-0.013410001527518034,-0.011164062656462193,2.2550119161605835,0.001491928065661341,0.0015640764613635838,-0.023362211883068085,-35.3638753,149.1658405,40575.5,0.0,-2.5,-153.0,1.5,0.0,-1000.5,3.0,3.0,-21.5,RTL,42518.0
04:01:54,-0.0030316649936139584,-0.0008309430559165776,2.2020891904830933,0.0023374613374471664,0.002999737043865025,-0.022136365063488483,-35.3638753,149.16584075,43695.0,-1.0,4.5,-153.0,-1.0,0.0,-1000.0,4.0,4.5,-20.5,RTL,42518.0
04:01:55,-0.0022600514348596334,0.0003649546124506742,2.1880831718444824,0.00023971858900040388,0.0010468784894328564,-0.015141979092732072,-35.3638753,149.165840975,44863.5,-1.0,2.25,-153.0,0.0,0.0,-999.75,1.75,2.25,-13.5,RTL,4378.0
04:01:56,-0.0017113815410993993,0.0029241425218060613,2.191110134124756,-0.0031816058326512575,-0.0014513158239424229,0.02152057643979788,-35.3638755,149.16584104999998,46806.5,-2.0,-2.5,-152.0,0.0,-0.5,-999.5,-0.5,0.0,22.5,RTL,4378.0
04:01:58,-0.007107763085514307,-0.001764048938639462,2.2411426305770874,0.0006751130567863584,-0.0008604377508163452,0.02253073174506426,-35.3638758,149.1658401,49910.5,-0.5,-2.0,-153.0,0.0,0.0,-1000.0,2.0,0.5,23.5,RTL,4378.0
04:02:00,-0.005839593708515167,-0.00079871661728248,2.2791616916656494,0.002456091227941215,0.0005908443126827478,0.016316961497068405,-35.3638759,149.16584,53013.0,0.0,0.0,-153.0,0.0,0.0,-1000.0,4.0,2.0,17.0,RTL,46601.0
04:02:02,-0.004780915565788746,-0.0001303629032918252,2.3069788217544556,-0.001427129958756268,0.0004803799674846232,0.011351454071700573,-35.3638759,149.1658403,56123.0,0.0,0.0,-153.0,0.0,0.0,-1000.0,0.5,1.5,12.5,RTL,88824.0
04:02:04,-0.004188277060166001,0.00025558765628375113,2.326980948448181,-0.0008175097173079848,-0.0011764902155846357,0.008976501412689686,-35.3638759,149.1658406,59228.0,0.0,0.0,-153.0,0.0,0.0,-1000.0,1.0,0.5,9.5,RTL,88824.0
04:02:05,-0.004625610308721662,8.951208201324334e-06,2.333191931247711,-0.00016468315152451396,-0.0003844188468065113,0.008181018754839897,-35.3638759,149.1658406,60397.0,0.0,0.0,-153.0,0.0,0.0,-1000.25,1.25,1.25,9.0,RTL,29101.0
04:02:06,-0.004031665972433984,-0.0004060809296788648,2.3420225381851196,0.0013715200475417078,0.00019051547860726714,0.007651909487321973,-35.3638759,149.16584065,62334.0,0.0,0.0,-153.0,0.0,0.0,-1000.0,3.0,1.5,8.0,RTL,29101.0
04:02:08,-0.004246285185217857,1.311047890339978e-05,2.3550357818603516,0.0007846789667382836,0.0005006720311939716,0.005463835783302784,-35.3638759,149.1658408,65448.0,0.0,-1.0,-153.0,0.0,0.0,-999.5,2.5,2.0,6.0,RTL,29101.0
04:02:10,-0.004745626822113991,0.0006554618885274976,2.3662716150283813,-0.0008636426646262407,-0.0004250482306815684,0.0035389414406381547,-35.3638759,149.1658408,68554.0,0.0,-1.0,-153.0,0.0,0.0,-1000.5,0.5,1.0,4.5,RTL,29101.0
04:02:11,-0.004586577182635665,0.00041804564898484387,2.3698591589927673,0.0005281333869788796,-0.00016411420074291527,0.005534103722311556,-35.3638759,149.1658408,69722.0,0.0,-1.0,-153.0,0.0,0.0,-999.75,2.0,1.0,6.5,RTL,27494.0
04:02:12,-0.004242944298312068,0.00010579410081845708,2.375739336013794,0.00021202373318374157,0.00105881760828197,0.00522607727907598,-35.3638759,149.1658408,71659.5,0.0,-1.0,-152.5,0.0,0.0,-999.0,1.5,2.5,6.0,RTL,27494.0
04:02:14,-0.0036772151943296194,-0.0003455857513472438,2.384406566619873,-0.0007313487585633993,0.0008160538272932172,0.005201885476708412,-35.3638759,149.1658408,74764.5,0.0,-1.0,-152.0,0.0,0.0,-999.5,1.0,2.5,6.0,RTL,27494.0
04:02:16,-0.003811799339018762,-0.0001445805246476084,2.3924397230148315,0.001284051570110023,0.000249974662438035,0.005409623729065061,-35.3638759,149.1658408,77870.5,0.0,-1.0,-152.0,0.0,0.0,-1000.0,2.5,1.5,6.5,RTL,27494.0
04:02:17,-0.003978316381108016,2.92777840513736e-05,2.394679367542267,9.872287046164274e-05,0.0007828842208255082,0.0041765980422496796,-35.3638759,149.1658408,79035.0,0.0,-1.0,-152.0,0.0,0.0,-999.75,2.0,2.0,5.25,RTL,12024.0
04:02:18,-0.004243633011355996,0.0004677684628404677,2.3986599445343018,-0.0020544615108519793,0.0011697920272126794,0.002383904007729143,-35.3638759,149.1658408,80976.0,0.0,-1.0,-152.0,0.0,0.0,-1000.0,0.0,3.0,3.0,RTL,12024.0
04:02:20,-0.004271633457392454,0.00011995497334282845,2.404065728187561,0.0002351086586713791,-0.00034737284295260906,0.0019355540862306952,-35.3638759,149.1658408,84082.5,0.0,-1.0,-152.0,0.0,0.0,-1000.5,2.0,1.5,3.0,RTL,12024.0
04:02:22,-0.0037047872319817543,-0.00029321745387278497,2.4087339639663696,-0.00038660975405946374,-0.0016868802485987544,0.002182267198804766,-35.3638759,149.1658408,87193.0,0.0,-1.0,-153.0,0.0,0.0,-1000.0,1.5,0.5,3.0,RTL,12024.0
04:02:23,-0.003276746196206659,-0.0002633551848703064,2.4105361104011536,0.0014444754633586854,0.0015227963449433446,0.003434582380577922,-35.3638759,149.16584087500001,88361.75,0.0,-1.0,-152.0,0.0,0.0,-999.75,3.0,3.25,4.5,RTL,86328.0
04:02:24,-0.003779829479753971,0.0002755928289843723,2.4130971431732178,-0.000599377672187984,0.0004749397048726678,0.0025194085901603103,-35.3638759,149.1658409,90300.0,0.0,-2.0,-152.0,0.0,0.0,-999.5,1.0,2.0,3.5,RTL,86328.0
04:02:26,-0.003888423671014607,0.00025013556296471506,2.416770100593567,0.0014596505789086223,0.00047964334953576326,0.0019439355237409472,-35.3638759,149.1658409,93406.5,0.0,-2.0,-152.0,0.0,0.0,-1000.0,3.0,1.5,3.0,RTL,86328.0
04:02:28,-0.004488744307309389,0.0007021973433438689,2.4199873208999634,-0.0002815490588545799,-0.0008658140432089567,0.0015236538602039218,-35.3638759,149.1658409,96672.5,0.0,-2.0,-152.0,0.0,0.0,-999.5,1.0,0.5,2.5,RTL,86328.0
04:02:29,-0.004056405741721392,0.0003272789235779783,2.4212836623191833,0.0012066360504832119,-0.0006779063842259347,0.0025038215389940888,-35.3638759,149.1658409,97837.25,0.0,-2.0,-152.0,0.0,0.0,-1000.25,3.0,1.25,3.75,RTL,110920.0
04:02:30,-0.003979015164077282,0.00029676395206479356,2.422979712486267,0.00022474443539977074,-0.0013226409209892154,0.003095481311902404,-35.3638759,149.1658409,99779.0,0.0,-2.0,-152.0,0.0,0.0,-1000.0,2.5,1.0,4.0,RTL,110920.0
04:02:32,-0.003497333964332938,-0.0004543062677839771,2.4261529445648193,0.00027554063126444817,0.0006356186931952834,0.002098748809657991,-35.3638759,149.1658409,102888.5,0.0,-1.0,-152.0,0.0,0.0,-1000.0,1.5,2.5,3.0,RTL,110920.0
04:02:34,-0.0034661608515307307,0.0003959696914535016,2.428276300430298,0.0007197406375780702,0.0011592996306717396,0.000343182182405144,-35.3638759,149.1658409,105992.0,0.0,-1.0,-152.0,0.0,0.0,-999.5,2.5,2.5,2.0,RTL,110920.0
04:02:35,-0.003541834419593215,0.0004357764410087839,2.4287551641464233,-0.00032952515175566077,-0.00022505747620016336,0.0017498795641586185,-35.3638759,149.1658409,107162.0,0.0,-2.0,-152.0,0.0,0.0,-1000.0,1.5,1.5,3.25,RTL,89409.0
04:02:36,-0.004003790905699134,0.0006053350225556642,2.4298505783081055,-0.0010672430507838726,0.0009958975715562701,0.002054084907285869,-35.3638759,149.1658409,109107.0,0.0,-2.0,-152.0,0.0,0.0,-999.5,1.0,3.0,3.5,RTL,89409.0
04:02:38,-0.0036687750834971666,0.0005888599116588011,2.431549310684204,0.0014945578295737505,0.00041359663009643555,0.0018113010446541011,-35.3638759,149.1658409,112214.0,0.0,-2.0,-152.0,0.0,0.0,-1000.0,3.5,2.5,3.0,RTL,89409.0
04:02:40,-0.0038999355165287852,4.306530172470957e-05,2.432650089263916,0.001783955842256546,-0.0019010312389582396,0.0007227577734738588,-35.3638759,149.1658409,115323.5,0.0,-2.0,-152.0,0.0,0.0,-1000.5,3.5,0.0,2.0,RTL,65096.0
04:02:42,-0.0036519800778478384,0.00018439970881445333,2.4338462352752686,-0.0010380620369687676,-0.00015098426956683397,0.001092075603082776,-35.3638759,149.1658409,118428.0,0.0,-2.0,-152.0,0.0,0.0,-1000.0,0.5,1.5,2.0,RTL,40783.0
04:02:44,-0.00380652432795614,0.0002694388385862112,2.434983968734741,-0.001580675016157329,0.000511530670337379,-0.00016092159785330296,-35.3638759,149.1658409,121533.5,0.0,-2.0,-152.0,0.0,0.0,-1000.0,1.0,2.5,1.0,RTL,40783.0
04:02:45,-0.004046889836899936,0.0009109073434956372,2.4351755380630493,-0.00013347924686968327,0.0011773877777159214,0.0011721174232661724,-35.3638759,149.1658409,122698.5,0.0,-2.0,-152.0,0.0,0.0,-1000.25,2.0,3.0,2.5,RTL,34862.0
04:02:46,-0.0041936461348086596,0.0007354606059379876,2.4357471466064453,8.424528641626239e-05,-0.0016631183098070323,0.0006576367886736989,-35.3638759,149.1658409,124639.0,0.0,-2.0,-152.0,0.0,0.0,-1000.0,2.0,0.0,2.0,RTL,34862.0
04:02:48,-0.003793546697124839,0.0004008616815553978,2.4374698400497437,-0.0013934390153735876,-0.0021678461926057935,0.002010490163229406,-35.3638759,149.1658409,127747.0,0.0,-2.0,-152.0,0.0,0.0,-1000.0,0.0,0.0,3.5,RTL,34862.0
04:02:50,-0.0032646670006215572,0.00016644143761368468,2.438111662864685,-0.0007989444420672953,0.0002593687968328595,0.001032660889904946,-35.3638759,149.1658409,130858.0,0.0,-2.0,-152.0,0.0,0.0,-1000.0,1.0,2.0,2.5,RTL,34862.0
04:02:51,-0.003554936498403549,0.000413795711210696,2.4382277131080627,-0.001466372050344944,0.00026764944777823985,0.0010954222816508263,-35.3638759,149.1658409,132022.0,0.0,-2.0,-152.0,0.0,0.0,-999.75,1.0,2.5,2.5,RTL,6220.0
04:02:52,-0.003688142402097583,0.00028925787773914635,2.438275456428528,0.0003680427325889468,0.0005642189644277096,0.000988179468549788,-35.3638759,149.1658409,133964.0,0.0,-2.0,-152.0,0.0,0.0,-1000.0,2.5,2.5,2.5,RTL,6220.0
04:02:54,-0.004044747445732355,0.0013756865519098938,2.4388562440872192,-0.0014747129753232002,-0.0008751029381528497,-0.0005204385961405933,-35.3638759,149.165841,137071.0,0.0,-2.0,-152.0,0.0,0.0,-1000.5,1.0,1.5,1.0,RTL,6220.0
04:02:56,-0.003823883249424398,0.0004966403939761221,2.43942928314209,0.0005656346911564469,0.0005446536233648658,0.00020055175991728902,-35.3638759,149.165841,140186.0,0.0,-2.0,-152.0,0.0,0.0,-1000.0,2.5,3.0,1.5,RTL,6220.0
04:02:57,-0.004066767927724868,0.00038347555528162047,2.439529001712799,0.0007186608272604644,-1.370045356452465e-05,-0.000781434413511306,-35.3638759,149.16584095000002,141351.25,0.0,-2.0,-152.0,0.0,0.0,-1000.25,2.75,2.0,1.25,RTL,32267.0
04:02:58,-0.003217353601939976,-0.0003841810394078493,2.4396309852600098,-0.00048625573981553316,0.00032551982440054417,-0.00010663503780961037,-35.3638759,149.1658409,143293.5,0.0,-2.0,-152.0,0.0,0.0,-1000.5,2.0,2.5,1.0,RTL,32267.0
04:03:00,-0.0036155538400635123,0.0002610686424304731,2.439949870109558,-0.0029176116222515702,-0.00040925474604591727,0.0005126200267113745,-35.3638759,149.1658409,146399.5,0.0,-2.0,-152.0,0.0,0.0,-999.5,-0.5,2.0,2.0,RTL,32267.0
04:03:02,-0.0042580836452543736,0.0010012791608460248,2.440117120742798,-2.1967338398098946e-05,-4.2243918869644403e-05,0.0007887794636189938,-35.3638759,149.165841,149508.0,0.0,-2.0,-152.0,0.0,0.0,-1000.0,2.0,2.0,2.5,RTL,32267.0
04:03:03,-0.004136193310841918,0.001050745282554999,2.4403716921806335,0.0013512881705537438,-2.4759239749982953e-05,0.001749094866681844,-35.3638759,149.165841,150672.5,0.0,-2.0,-152.0,0.0,0.0,-1000.0,3.5,2.25,3.5,RTL,91167.0
04:03:04,-0.003767830552533269,0.00042230772669427097,2.4409247636795044,0.0011128813493996859,-0.0009536705329082906,-0.00012118241284042597,-35.3638759,149.165841,152613.5,0.0,-2.0,-152.0,0.0,0.0,-1000.0,3.5,1.5,1.5,RTL,91167.0
04:03:06,-0.0028547965921461582,0.00017893853510031477,2.4411838054656982,-0.00032089126762002707,-0.00032466487027704716,0.002190856379456818,-35.3638759,149.165841,155720.5,0.0,-2.0,-152.0,0.0,0.0,-1000.0,2.0,2.0,4.0,RTL,91167.0
04:03:08,-0.003494525677524507,0.0005966433964204043,2.441158175468445,-0.0017292331322096288,-1.7365440726280212e-05,0.0016667809104546905,-35.3638759,149.165841,158828.5,0.0,-2.0,-152.0,0.0,0.0,-999.5,1.0,2.0,3.5,RTL,91167.0
04:03:09,-0.003406136471312493,0.00046579246554756537,2.4413482546806335,-0.0003629169659689069,0.0005537942051887512,0.0008965120941866189,-35.3638759,149.165841,159995.75,0.0,-2.0,-152.0,0.0,0.0,-999.5,2.0,2.75,3.0,RTL,258295.0
04:03:10,-0.003472402226179838,0.0005449720774777234,2.4414491653442383,0.004002603702247143,0.002634948818013072,0.002497707959264517,-35.3638759,149.165841,161901.0,0.0,-2.0,-152.0,0.0,0.0,-1000.0,6.0,5.0,4.0,RTL,258295.0
04:03:12,-0.004145842278376222,0.001041956478729844,2.441349983215332,-0.0007893074071034789,0.00023417919874191284,1.2544565834105015e-05,-35.3638759,149.165841,164424.5,0.0,-2.0,-152.0,0.0,0.0,-999.5,1.0,2.5,1.5,RTL,258295.0
04:03:14,-0.003974067280068994,0.0003415966566535644,2.441498041152954,-0.0005441854009404778,-0.00010340765584260225,-0.0010103581589646637,-35.3638759,149.1658409,167533.5,0.0,-2.0,-152.0,0.0,0.0,-1000.0,2.0,2.0,0.5,RTL,148352.5
04:03:16,-0.003351363353431225,0.0002186690708185779,2.4416474103927612,0.0017534326761960983,0.0007660591509193182,0.0011342569487169385,-35.3638759,149.1658409,170642.0,0.0,-2.0,-152.0,0.0,0.0,-1000.0,4.0,3.0,2.5,RTL,38410.0
04:03:18,-0.003659040085040033,0.00045810581650584936,2.441390872001648,-0.0008666000794619322,0.0009492075769230723,-0.0004296829574741423,-35.3638759,149.1658409,173755.0,0.0,-2.0,-152.0,0.0,0.0,-999.5,1.5,3.5,1.5,RTL,38410.0
04:03:19,-0.00369079178199172,0.0006513255648314953,2.441511869430542,-0.0007135542691685259,0.0007977325585670769,-5.175307160243392e-05,-35.3638759,149.1658409,175303.5,0.0,-2.0,-152.0,0.0,0.0,-1000.0,1.75,3.0,1.75,RTL,86583.0
04:03:20,-0.004177256720140576,0.0011313355644233525,2.442373514175415,0.002057112054899335,0.0004061132203787565,0.0024415021762251854,-35.3638759,149.1658409,176857.0,0.0,-2.0,-152.0,0.0,0.0,-1000.5,4.5,2.5,4.0,RTL,86583.0
04:03:22,-0.0036658692406490445,0.0006245257682166994,2.442368984222412,-0.00011571694631129503,0.0004897583276033401,-0.00012067763600498438,-35.3638759,149.1658409,179964.0,0.0,-2.0,-152.0,0.0,0.0,-1000.0,2.0,2.5,2.0,RTL,86583.0
04:03:24,-0.0031701807165518403,6.12171133980155e-05,2.4422836303710938,-0.0007877444732002914,0.0007357544964179397,0.00038312748074531555,-35.3638759,149.1658409,183078.5,0.0,-2.0,-152.0,0.0,0.0,-999.5,2.0,3.0,2.5,RTL,86583.0
04:03:25,-0.0035343346535228193,0.00047088382416404784,2.442298114299774,0.001254265196621418,0.0012285232660360634,0.0010832082480192184,-35.3638759,149.1658409,184633.5,0.0,-2.0,-152.0,0.0,0.0,-999.75,3.5,3.75,2.75,RTL,157278.0
04:03:26,-0.003739591222256422,0.0004903658555122092,2.4420312643051147,-0.0004996408242732286,-0.00046811311040073633,-0.0010838638991117477,-35.3638759,149.1658409,186187.5,0.0,-2.0,-152.0,0.0,0.0,-1000.5,2.5,2.0,1.0,RTL,157278.0
04:03:28,-0.0038666242035105824,0.0007811534305801615,2.442316174507141,0.0009356847731396556,0.0018974019913002849,0.0008581990841776133,-35.3638759,149.1658409,189292.0,0.0,-2.0,-152.0,0.0,0.0,-999.5,3.5,4.5,3.0,RTL,157278.0
04:03:30,-0.0039534796960651875,0.0005284028011374176,2.4419121742248535,0.0015071064699441195,-0.0006997570744715631,0.0008283470524474978,-35.3638759,149.1658409,192399.5,0.0,-2.0,-152.0,0.0,0.0,-1000.0,4.0,1.5,3.0,RTL,157278.0
04:03:31,-0.0037483290070667863,0.00044168346357764676,2.442133367061615,0.0008319768239744008,0.00030188937671482563,0.0005459402455016971,-35.3638759,149.1658409,193956.0,0.0,-2.0,-152.0,0.0,0.0,-1000.0,3.5,3.0,2.5,RTL,32125.0
04:03:32,-0.003461867687292397,-8.522343705408275e-06,2.4422926902770996,0.001053635380230844,-0.00022040435578674078,0.0007698353147134185,-35.3638759,149.1658409,195507.5,0.0,-2.0,-152.0,0.0,0.0,-1000.5,3.5,2.5,3.0,RTL,32125.0
04:03:34,-0.003580986289307475,0.0003449239884503186,2.4421035051345825,0.0005132571095600724,-0.0002485478762537241,0.0010647661983966827,-35.3638759,149.1658409,198614.5,0.0,-2.0,-152.0,0.0,0.0,-1000.0,3.0,2.0,3.0,RTL,32125.0
04:03:36,-0.0036408277228474617,0.0004779201262863353,2.4423187971115112,-0.0016631744801998138,0.0005951329367235303,0.0015765606658533216,-35.3638759,149.1658409,201722.5,0.0,-2.0,-152.0,0.0,0.0,-999.0,1.0,3.5,3.5,RTL,32125.0
04:03:37,-0.0034913302515633404,0.00026540151520748623,2.442709743976593,0.0011732466518878937,0.0005476925289258361,0.001440789841581136,-35.3638759,149.1658409,203278.0,0.0,-2.0,-152.0,0.0,0.0,-999.75,3.75,3.25,3.5,RTL,40401.0
04:03:38,-0.0037288618041202426,0.0007083390664774925,2.4425870180130005,0.0013913160655647516,0.0016032812418416142,-0.0002657343866303563,-35.3638759,149.1658409,204835.5,0.0,-2.0,-152.0,0.0,0.0,-1000.5,4.0,4.0,2.0,RTL,40401.0
04:03:40,-0.0038424116792157292,0.0007072237494867295,2.4428412914276123,0.0011628078063949943,0.0006303074769675732,0.0006310014287009835,-35.3638759,149.1658409,207939.0,0.0,-2.0,-152.0,0.0,0.0,-999.5,3.5,3.5,2.5,RTL,40401.0
04:03:42,-0.003513163886964321,0.00017133622895926237,2.4423203468322754,0.0011452604085206985,3.6383746191859245e-05,0.0011734571307897568,-35.3638759,149.1658409,211045.0,0.0,-2.0,-152.0,0.0,0.0,-1000.0,4.0,2.5,3.0,RTL,25769.0
04:03:44,-0.003362160990945995,0.0005190164811210707,2.4425580501556396,0.0017450283048674464,0.000997644499875605,0.0003202032530680299,-35.3638758,149.1658409,214160.0,0.0,-2.0,-152.0,0.0,0.0,-1000.0,4.5,3.5,3.0,RTL,11137.0
04:03:46,-0.003592901164665818,0.0004430242261150852,2.4423731565475464,0.0014012402389198542,0.00028073193971067667,0.0012010057689622045,-35.3638758,149.1658409,217267.5,0.0,-2.0,-152.0,0.0,0.0,-1000.0,4.5,3.0,3.5,RTL,11137.0
04:03:47,-0.003553572518285364,0.0005472969496622682,2.4424192309379578,0.0007536967168562114,0.0013576913042925298,0.00013505335664376616,-35.3638758,149.1658409,218820.75,0.0,-2.0,-152.0,0.0,0.0,-999.75,3.25,4.0,2.5,RTL,16613.0
04:03:48,-0.004462583689019084,0.0009026718034874648,2.442150831222534,0.0006485006306320429,-0.0007723096059635282,0.0014947198797017336,-35.36387585,149.1658409,220374.5,0.0,-2.0,-152.0,0.0,0.0,-1000.0,3.5,2.0,4.0,RTL,16613.0
04:03:50,-0.003742339788004756,0.000381707344786264,2.442342519760132,0.0005118510453030467,-0.0015009540366008878,0.0033903110306710005,-35.3638759,149.1658409,223481.5,0.0,-2.0,-152.0,0.0,0.0,-999.5,3.5,1.0,5.5,RTL,16613.0
04:03:52,-0.0034520108019933105,0.000261346309343935,2.4426565170288086,-7.38463131710887e-05,-1.4283868949860334e-05,6.503867916762829e-05,-35.3638758,149.1658409,226590.0,0.0,-2.0,-152.0,0.0,0.0,-1000.0,3.0,2.5,2.5,RTL,16613.0
04:03:53,-0.003534572257194668,0.0002100600713674794,2.442893862724304,0.0007145651034079492,0.00011357525363564491,0.0001830810506362468,-35.3638758,149.1658409,228142.25,0.0,-2.0,-152.0,0.0,0.0,-1000.0,3.25,3.0,2.5,RTL,4956.0
04:03:54,-0.0034768400946632028,0.00043570983689278364,2.4426491260528564,-0.0010859513422474265,-0.0011366094113327563,0.0008987805340439081,-35.3638758,149.1658409,229695.5,0.0,-2.0,-152.0,0.0,0.0,-1000.0,1.5,1.5,3.5,RTL,4956.0
04:03:56,-0.0035620235139504075,0.0004699622077168897,2.4428255558013916,0.0009817305253818631,0.00030687928665429354,0.0011123494477942586,-35.3638758,149.1658409,232802.5,0.0,-2.0,-152.0,0.0,0.0,-1000.0,4.0,3.0,3.0,RTL,4956.0
04:03:58,-0.0034350331407040358,0.000981949910055846,2.4427030086517334,-0.0012886611899981897,0.0016304221159468095,-0.0009121067899589738,-35.3638758,149.1658409,235901.0,0.0,-2.0,-152.0,0.0,0.0,-999.6666666666666,2.0,4.666666666666667,1.6666666666666667,RTL,4956.0
04:03:59,-0.004167057923041284,0.0011585450411075726,2.442587196826935,-1.828063977882266e-05,-0.0005996297113597393,0.0010745810577645898,-35.363875875,149.1658409,237622.75,0.0,-2.0,-152.0,0.0,0.0,-999.5,3.25,2.25,3.5,RTL,72635.0
04:04:00,-0.003944453084841371,0.0005587898485828191,2.442556619644165,0.0018880082061514258,0.000986000755801797,-0.00028296036180108786,-35.3638759,149.1658409,239176.5,0.0,-2.0,-152.0,0.0,0.0,-1000.0,5.0,4.0,2.0,RTL,72635.0
04:04:02,-0.003472417243756354,-0.00016974629033938982,2.4422789812088013,0.002618465689010918,0.0006007264601066709,0.00029561424162238836,-35.36387585,149.1658409,242284.5,0.0,-2.0,-152.0,0.0,0.0,-1000.0,6.0,3.5,3.0,RTL,72635.0
04:04:04,-0.003964566858485341,9.344378122477792e-05,2.4422630071640015,-0.0011571692302823067,-0.0002131584333255887,-0.0008639554725959897,-35.3638758,149.1658409,245392.5,0.0,-2.0,-152.0,0.0,0.0,-1000.0,2.0,2.5,2.0,RTL,72635.0
04:04:05,-0.0037818392156623304,0.0003391288046259433,2.4421379566192627,0.0008758747426327318,0.00024369920720346272,0.00042679093894548714,-35.3638758,149.1658409,246953.75,0.0,-2.0,-152.0,0.0,0.0,-1000.25,4.0,3.25,2.75,RTL,8948.0
04:04:06,-0.0036389714805409312,0.0003777180245378986,2.442198634147644,-0.0010407180525362492,0.0013277932303026319,0.0018222822109237313,-35.3638758,149.1658409,248504.0,0.0,-2.0,-152.0,0.0,0.0,-999.0,2.0,4.0,5.0,RTL,8948.0
04:04:08,-0.003644749289378524,0.0008860403904691339,2.4427008628845215,0.001839666161686182,-6.142212077975273e-05,0.0005571461515501142,-35.3638758,149.1658409,251611.5,0.0,-2.0,-152.0,0.0,0.0,-1000.5,5.0,3.0,3.5,RTL,8948.0
04:04:10,-0.003646787954494357,0.000853718927828595,2.442923069000244,0.0005130033241584897,0.0010438698809593916,0.0016434170538559556,-35.3638758,149.1658409,254719.0,0.0,-2.0,-152.0,0.0,0.0,-999.5,3.5,4.0,4.0,RTL,8948.0
04:04:11,-0.003464495704974979,0.00023232341663970146,2.442745566368103,0.00044592696940526366,-0.00023269408848136663,0.0004901306820102036,-35.3638758,149.1658409,256276.0,0.0,-2.0,-152.0,0.0,0.0,-999.75,3.75,2.75,3.0,RTL,54449.0
04:04:12,-0.003759700572118163,0.01858467547572218,2.4426902532577515,0.0007815387798473239,0.0312015563249588,-0.00014889356680214405,-35.3638757,149.1658408,257826.5,4.5,-6.0,-151.5,0.5,0.0,-999.0,4.0,34.5,2.5,RTL,54449.0
04:04:14,-0.014525807928293943,0.09482001140713692,2.442420721054077,-0.00545554468408227,0.03668867610394955,0.0007448946125805378,-35.3638695,149.16583445,260852.0,79.0,-68.0,-142.0,14.0,10.5,-993.0,-2.0,40.0,3.5,RTL,54449.0
04:04:16,0.03733074857154861,0.156584732234478,2.9102197885513306,0.08020493574440479,-0.07330091949552298,0.1962287314236164,-35.363839999999996,149.16580905,262906.5,260.5,-174.0,-36.0,67.0,16.0,-934.5,83.5,-69.5,199.0,RTL,63942.0
04:04:18,0.0627975445240736,0.2059914618730545,2.9910495281219482,0.06066308170557022,0.026527348440140486,-0.049333730712533,-35.3637854,149.1657535,262735.0,365.0,-338.5,25.0,117.5,-6.5,-1017.5,63.5,29.5,-45.5,RTL,73435.0
04:04:20,-0.003004067810252309,0.1962762102484703,2.9053399562835693,0.04088450036942959,-0.03438957408070564,-0.033312972635030746,-35.363706300000004,149.16566970000002,262540.0,506.0,-416.0,-2.5,139.0,8.0,-992.0,44.5,-30.0,-29.5,RTL,73435.0
04:04:21,-0.02198281278833747,0.16679829731583595,2.864672064781189,-0.03177380748093128,-0.016808905929792672,-0.04083704575896263,-35.363659425,149.165623775,262586.25,534.0,-428.0,-6.0,149.0,17.75,-986.5,-27.25,-12.75,-37.0,RTL,4919.0
04:04:22,-0.03176898509263992,0.1536649540066719,2.8280686140060425,-0.010419437778182328,-0.006384235806763172,-0.03349865414202213,-35.36361135,149.1655773,262634.5,536.5,-425.5,-2.5,150.5,22.5,-982.5,-6.5,-2.5,-29.5,RTL,4919.0
04:04:24,-0.036591630429029465,0.15156560391187668,2.768176317214966,-0.09883548319339752,-0.006608759053051472,-0.035583099350333214,-35.3635143,149.165484,262610.0,539.5,-430.5,0.0,150.0,23.5,-988.5,-94.0,-2.5,-31.5,RTL,4919.0
04:04:26,-0.05537877604365349,0.0947711206972599,2.7261617183685303,-0.035113011952489614,-0.05033763684332371,-0.04224492609500885,-35.36341845,149.1653907,262650.5,513.5,-413.0,-6.5,144.0,36.5,-990.0,-31.0,-46.0,-38.0,RTL,4919.0
04:04:27,-0.068110017105937,0.047197064850479364,2.712092638015747,0.1357434317469597,-0.03789446735754609,-0.005677608773112297,-35.36337395,149.165347325,262695.0,459.25,-369.25,-1.5,126.75,48.75,-986.0,140.0,-33.75,-2.25,RTL,131051.0
04:04:28,-0.07123584300279617,0.004184510558843613,2.699285864830017,-0.3560025580227375,-0.05046040005981922,-0.028927648440003395,-35.36333595,149.16531064999998,262678.5,383.5,-307.5,1.5,108.5,37.5,-987.5,-351.0,-46.0,-25.5,RTL,131051.0
04:04:30,-0.04388301447033882,-0.04722755774855614,2.676626205444336,-0.12134978175163269,-0.014080618973821402,-0.008631949312984943,-35.363282600000005,149.16526045,262600.0,203.5,-167.0,2.0,59.5,24.5,-1013.0,-117.0,-9.5,-5.0,RTL,131051.0
04:04:32,-0.01427296845940873,-0.04381846264004707,2.659053683280945,0.0249159038066864,0.023388964124023914,-0.010571571066975594,-35.363260749999995,149.16523990000002,262570.0,54.0,-54.0,-2.0,15.0,3.0,-1007.5,29.5,27.0,-6.5,RTL,131051.0
04:04:33,-0.006389212649082765,-0.026506618596613407,2.651491940021515,-0.25679821241647005,0.02018857980147004,-0.005513513460755348,-35.363257975,149.16523705,262568.75,13.75,-24.75,-2.5,3.75,-10.75,-1008.25,-252.0,24.0,-1.75,RTL,10754.0
04:04:34,-0.000981324352324009,-0.0011962945573031902,2.64495587348938,0.0075307488441467285,0.02698657102882862,-0.00428400794044137,-35.36325805,149.1652363,262575.0,-1.5,-12.5,-2.0,-0.5,-3.0,-996.0,12.5,31.0,-0.5,RTL,10754.0
04:04:36,-0.014166278764605522,-0.001243534468812868,2.6327816247940063,0.055001676082611084,-0.002150879125110805,-0.006084042601287365,-35.36325965,149.16523515,262598.5,0.0,-3.0,-1.0,1.0,-2.0,-991.0,59.5,1.5,-2.0,RTL,10754.0
04:04:38,-0.002206408418715,0.002978050848469138,2.6234071254730225,0.14497779682278633,0.0006125420331954956,-0.00952298054471612,-35.36326115,149.1652359,262606.5,1.5,5.5,0.0,-3.0,3.5,-1001.0,149.5,4.5,-5.5,RTL,10754.0
04:04:39,0.005671526989317499,0.0026490259915590286,2.6197338700294495,-0.12489710003137589,-0.0004912987933494151,-0.007808041002135724,-35.363261275,149.16523727499998,262608.0,1.25,1.25,-0.25,-4.0,-3.0,-998.0,-120.0,4.0,-3.75,RTL,60051.0
04:04:40,0.015797815984115005,0.002714235452003777,2.6155035495758057,-0.36451876163482666,0.0001406532246619463,-0.003716057282872498,-35.36326115,149.16523890000002,262538.5,-1.0,-7.5,21.5,-2.5,-12.5,-962.0,-360.0,5.0,0.0,RTL,60051.0
04:04:42,-0.016151322051882744,0.005920710973441601,2.6057480573654175,-1.5493249893188477,0.006554922554641962,-0.01396585174370557,-35.363261300000005,149.16523995,261003.0,-7.0,-21.5,111.5,0.5,-53.0,-975.0,-1543.0,11.0,-10.0,RTL,60051.0
04:04:44,-0.01987538207322359,0.006574298487976193,2.5998263359069824,-1.1881616115570068,-0.00500085367821157,-0.004248860175721347,-35.363262399999996,149.16523825000002,258833.0,0.5,-12.0,98.0,2.0,-64.5,-1091.5,-1183.5,0.0,-0.5,RTL,60051.0
04:04:45,-0.023144729901105165,0.005756008205935359,2.596621036529541,-1.2841644883155823,-0.0014266042271628976,-0.006191007967572659,-35.363262825,149.16523755,257806.25,4.5,-4.75,99.0,0.0,-72.5,-977.5,-1279.75,3.25,-2.25,RTL,92686.0
04:04:46,-0.011608503758907318,0.004177535185590386,2.5945522785186768,-0.9447991847991943,0.0035962644033133984,-0.006459047319367528,-35.363262950000006,149.16523734999998,256787.0,7.5,-0.5,95.0,0.0,-72.0,-1025.0,-940.5,8.0,-2.5,RTL,92686.0
04:04:48,0.012600770220160484,0.002412189496681094,2.588178277015686,-0.1760169118642807,0.003006902290508151,-0.002167005790397525,-35.36326255,149.16523815,254740.5,6.5,-2.0,96.5,-1.0,-44.0,-1000.0,-173.0,7.5,1.5,RTL,92686.0
04:04:50,0.012661866378039122,0.002312412892933935,2.584431290626526,-0.26165633648633957,-0.010031874291598797,-0.014893488958477974,-35.3632623,149.16523855,252702.0,3.0,-7.0,98.0,0.5,-50.5,-1001.5,-258.0,-4.5,-11.0,RTL,92686.0
04:04:51,0.018623152747750282,0.0004773061882588081,2.582368493080139,0.1104639507830143,-0.00018926762277260423,0.0064192721620202065,-35.363262049999996,149.165238825,251678.75,0.5,-9.75,98.75,-0.5,-34.75,-975.75,113.75,5.0,10.0,RTL,30702.0
04:04:52,0.01961906300857663,0.0014825518592260778,2.5804483890533447,-0.4640006572008133,0.0010774600086733699,-0.007877549389377236,-35.363261699999995,149.16523940000002,250667.0,-1.0,-12.0,95.5,-2.0,-49.5,-976.5,-460.0,6.0,-4.0,RTL,30702.0
04:04:54,0.00726453703828156,0.0025838154833763838,2.577663540840149,-0.7618200182914734,-0.009135554544627666,0.005661941948346794,-35.3632616,149.16523955000002,248648.0,-4.5,-16.0,98.5,-1.5,-54.5,-1005.0,-757.0,-3.0,9.0,RTL,30702.0
04:04:56,0.010851018596440554,0.00554135104175657,2.57460880279541,-1.0095321536064148,-0.0008950573392212391,0.004015129175968468,-35.3632615,149.16523990000002,246615.5,-7.0,-18.5,102.0,3.5,-84.0,-936.5,-1005.0,4.5,7.0,RTL,70819.0
04:04:58,-0.03802131861448288,0.00733535923063755,2.5724573135375977,-1.2286914587020874,-0.009292884729802608,-0.004429423250257969,-35.3632632,149.165237,244944.0,2.0,-5.0,95.0,5.0,-78.0,-994.0,-1224.0,-3.0,0.0,RTL,110936.0
04:05:00,-0.07004862278699875,0.007007109932601452,2.5713489055633545,-0.3289409279823303,0.0036368686705827713,-0.001168305054306984,-35.363265150000004,149.16523305,242932.0,21.5,23.5,98.5,2.5,11.0,-994.5,-320.5,9.0,2.5,RTL,110936.0
04:05:02,-0.07061326131224632,-0.0023826778633520007,2.5695794820785522,-0.7045174539089203,-0.0015931054949760437,-0.006067019887268543,-35.3632656,149.16523145,240901.0,36.5,46.0,102.0,-3.5,11.0,-965.0,-697.0,4.0,-2.0,RTL,102479.0
04:05:04,-0.013461252208799124,-0.004610545467585325,2.5672121047973633,-0.22619140893220901,0.007565053412690759,0.0020212752278894186,-35.3632633,149.1652354,238857.5,19.5,27.5,102.0,-2.5,36.0,-955.5,-219.0,13.0,6.0,RTL,102479.0
04:05:06,0.003785155597142875,-0.002902365638874471,2.56570041179657,0.5946329534053802,0.0006325622089207172,-0.0028666764264926314,-35.3632621,149.16523790000002,236830.0,4.5,5.0,100.0,-2.5,61.0,-988.5,601.0,6.0,1.0,RTL,102479.0
04:05:07,0.009499629610218108,-0.001071862890967168,2.565132737159729,0.7387578785419464,0.003909154678694904,0.0008015598286874592,-35.363261574999996,149.16523895,235537.75,-2.5,-6.25,99.0,-1.5,65.0,-1029.75,744.75,9.5,4.5,RTL,45998.0
04:05:08,0.0117860222235322,-0.00030072582012508065,2.5648813247680664,1.1211598813533783,-0.0023367234971374273,0.0031508285319432616,-35.363261449999996,149.16523925,234771.0,-5.5,-10.5,101.0,-1.0,70.0,-1004.0,1127.0,3.5,6.5,RTL,45998.0
04:05:10,0.025938844308257103,7.867733074817806e-06,2.5632959604263306,0.8506432771682739,0.00299733760766685,0.008191495668143034,-35.3632612,149.1652397,232721.0,-7.5,-15.5,98.5,-0.5,6.0,-989.0,853.5,8.5,11.5,RTL,45998.0
04:05:12,0.023706181906163692,0.0009068221261259168,2.5620362758636475,1.042741298675537,0.008820381481200457,0.011327249929308891,-35.36326135,149.16523945,230687.5,-9.0,-15.5,101.5,2.0,20.5,-999.0,1045.5,14.5,14.5,RTL,45998.0
04:05:13,-0.0032564467983320355,0.005563157028518617,2.561511754989624,1.150450199842453,0.0019308611517772079,0.000697248731739819,-35.363262425,149.165237425,229409.0,-5.75,-8.25,98.75,6.25,18.25,-1015.75,1153.75,7.5,4.25,RTL,874.0
04:05:14,-0.021725911647081375,0.0055871508084237576,2.561237335205078,1.2126778960227966,-0.007714249426499009,0.0005169296637177467,-35.3632635,149.16523555,228648.0,1.5,3.0,99.5,5.5,29.0,-1007.5,1216.5,-1.5,4.5,RTL,874.0
04:05:16,-0.029375153593719006,-0.0023316863807849586,2.5614001750946045,-0.32440540939569473,-0.003371266881003976,0.0005873915506526828,-35.36326445,149.16523315,226629.0,22.0,31.0,103.5,0.0,-48.0,-972.5,-322.0,2.0,4.5,RTL,874.0
04:05:18,0.0019919223996112123,-0.001582643366418779,2.5602720975875854,0.44438228756189346,0.005936001194640994,-0.005406085634604096,-35.363263450000005,149.16523495,224577.0,17.0,27.0,102.5,1.5,-11.0,-1022.5,445.0,11.5,-1.5,RTL,874.0
04:05:19,-0.022274701157584786,0.002975628012791276,2.5604028701782227,0.2616542838513851,0.001468817936256528,0.007105489203240722,-35.363263925,149.165234325,223299.25,15.0,25.0,102.5,2.25,-32.5,-971.5,261.5,7.0,10.5,RTL,1224.0
04:05:20,-0.03413514979183674,0.0031945041846483946,2.5598206520080566,0.08483567833900452,0.0010487900581210852,0.005505796289071441,-35.3632645,149.16523339999998,222526.5,19.0,29.5,100.5,1.5,-34.0,-997.5,85.5,6.5,9.0,RTL,1224.0
04:05:22,-0.009078449686057866,-0.00596520584076643,2.560001015663147,0.359514519572258,-0.0065864307107403874,0.0034128156257793307,-35.3632643,149.1652333,220484.0,27.5,40.0,100.0,-3.5,-16.0,-991.0,359.0,-0.5,7.0,RTL,1224.0
04:05:24,0.005552594477194361,-0.004437475930899382,2.5600056648254395,-0.7783843576908112,-0.004856055602431297,0.0026156289968639612,-35.363262399999996,149.16523655,218432.5,9.0,18.5,101.0,0.0,-61.0,-948.0,-779.0,1.0,6.5,RTL,19568.0
04:05:26,-0.011853267438709736,-0.001849253720138222,2.558846592903137,-1.230603039264679,-0.0017330830451101065,-0.00170402810908854,-35.363261949999995,149.1652375,216382.0,0.0,5.5,96.5,0.5,-77.0,-982.5,-1230.5,3.5,2.0,RTL,37912.0
04:05:28,-0.03831830620765686,0.0001316472698817961,2.5582900047302246,-1.3964992761611938,0.0019688825123012066,-0.003981464076787233,-35.3632626,149.1652365,214348.5,2.0,8.0,99.0,-1.0,-53.5,-976.5,-1394.0,7.0,0.0,RTL,37912.0
04:05:29,-0.04378100112080574,0.001983612193726003,2.5582216382026672,-1.4371223747730255,-0.002894164063036442,0.0024396227672696114,-35.3632633,149.165235325,213053.75,7.75,15.5,97.0,1.5,-69.0,-1033.5,-1436.0,2.5,6.0,RTL,7537.0
04:05:30,-0.04909965582191944,0.002462966018356383,2.558360457420349,-1.2715815305709839,-0.00708859832957387,-0.0002521887654438615,-35.3632638,149.16523445,212291.0,13.0,22.5,96.5,4.5,-78.5,-1032.0,-1272.0,-0.5,3.5,RTL,7537.0
04:05:32,-0.07199490815401077,0.0015703769749961793,2.558458685874939,-1.2167789936065674,-0.006062435917556286,-0.0010893262224271894,-35.363265549999994,149.16523124999998,210292.0,30.5,46.5,99.5,0.5,-70.0,-1034.0,-1218.0,-0.5,2.5,RTL,7537.0
04:05:34,-0.038815781474113464,-0.005922239040955901,2.5599220991134644,-1.1029491424560547,-0.0013893268769606948,-0.004415573552250862,-35.363264900000004,149.16523210000003,208265.5,35.5,52.0,102.5,-4.0,-67.5,-1028.5,-1105.5,3.5,-0.5,RTL,7537.0
04:05:35,-0.013384604593738914,-0.007073759101331234,2.558559477329254,-1.1602893322706223,-0.0014963940484449267,0.003279865486547351,-35.363263450000005,149.16523465,206990.0,23.0,36.0,100.75,-4.75,-58.75,-998.5,-1163.25,4.0,7.0,RTL,4054.0
04:05:36,-0.016752480529248714,-0.006889646407216787,2.5588128566741943,-1.4731176495552063,-0.0020542247220873833,0.0022296372335404158,-35.3632627,149.16523605,206232.0,14.5,24.0,104.5,-4.5,-47.5,-988.5,-1474.0,3.5,5.5,RTL,4054.0
04:05:38,0.004120037192478776,-0.005081581883132458,2.558570384979248,-1.2706297636032104,-0.0029505654238164425,0.002387451007962227,-35.363261,149.1652396,204168.5,-3.5,-3.5,101.0,-3.0,-33.0,-975.0,-1270.5,3.0,6.0,RTL,4054.0
04:05:40,0.02146475575864315,-0.002972097718156874,2.5585087537765503,0.4739585928618908,-0.0005544231971725821,-0.0020389623241499066,-35.36325995,149.16524155000002,202120.0,-19.5,-27.0,101.0,-2.0,55.5,-1013.0,475.0,4.5,2.0,RTL,4054.0
04:05:41,0.024419388733804226,-0.0009155531297437847,2.55816912651062,0.8112711906433105,0.001829450367949903,-0.00973162951413542,-35.363259825,149.16524185,200842.25,-24.75,-34.75,101.25,0.0,69.25,-989.0,813.0,7.0,-5.25,RTL,9619.0
04:05:42,0.014014433603733778,-0.0007230189221445471,2.5586204528808594,0.12070390582084656,-0.00044583017006516457,0.0030135384295135736,-35.3632599,149.1652417,200065.0,-25.0,-35.5,102.0,0.5,47.5,-1024.0,123.0,5.0,6.5,RTL,9619.0
04:05:44,0.01033534249290824,-0.002060270227957517,2.5573703050613403,-0.503644660115242,0.005803816486150026,-0.00011220492888242006,-35.3632598,149.16524175,198021.5,-24.0,-35.0,98.5,-0.5,17.5,-986.0,-500.5,11.0,3.5,RTL,9619.0
04:05:46,0.007320249453186989,0.0004994375194655731,2.5576800107955933,0.08727401867508888,-0.00030629197135567665,0.0036206402583047748,-35.363260049999994,149.1652412,195981.5,-25.5,-35.0,96.0,1.0,47.0,-994.5,90.5,4.5,7.0,RTL,9619.0
04:05:47,0.003950485086534172,0.0012529335945146158,2.558596909046173,0.1862839199602604,0.0030290085123851895,0.003135326667688787,-35.363260575,149.16524027499997,194701.25,-20.75,-28.25,98.5,4.25,38.0,-1006.0,190.25,8.0,7.0,RTL,36480.0
04:05:48,0.002107035426888615,0.001675690000411123,2.5577114820480347,0.771380215883255,0.003912358311936259,0.0018460688879713416,-35.363261,149.16523955,193931.0,-17.5,-24.0,97.5,1.5,54.5,-988.0,775.5,9.0,5.5,RTL,36480.0
04:05:50,-0.01444011926651001,0.0002414434895854356,2.558221697807312,0.7060478925704956,0.0008018375374376774,0.002789800986647606,-35.3632622,149.1652372,191876.0,-5.0,-6.5,96.5,1.0,69.0,-979.5,709.5,5.5,6.0,RTL,36480.0
04:05:52,0.017287675756961107,-0.0035770272370427847,2.5577107667922974,1.5610378980636597,0.005181696615181863,0.011733598308637738,-35.36326215,149.165237,189858.0,0.0,1.5,100.5,0.0,63.5,-969.0,1563.0,10.5,15.0,RTL,31587.0
04:05:54,0.03155746404081583,-0.004226362216286361,2.5573309659957886,1.4058895707130432,0.002978937467560172,-0.004096202785149217,-35.363261249999994,149.1652386,187822.5,-7.0,-6.0,98.0,-1.0,50.5,-1008.0,1407.5,8.0,-0.5,RTL,26694.0
04:05:56,0.035832375288009644,-0.0017559060361236334,2.5572011470794678,1.1846952140331268,0.000937644625082612,-0.004474742221646011,-35.3632609,149.1652394,185782.0,-11.5,-12.5,99.0,0.5,21.5,-1006.0,1186.0,6.0,-1.0,RTL,26694.0
04:05:57,0.025935054756700993,-0.00156964868074283,2.55783212184906,0.611672893166542,-0.002364975807722658,0.0006365370354615152,-35.363261,149.1652394,184520.0,-12.0,-14.75,101.75,0.0,-9.25,-997.25,612.0,2.5,4.0,RTL,125003.0
04:05:58,0.030902782455086708,-0.0016084007802419364,2.5576741695404053,0.5463649332523346,0.003361623967066407,-0.002483334159478545,-35.363261,149.16523945,183750.0,-11.5,-14.0,98.5,1.0,-15.5,-1047.0,547.0,8.0,1.0,RTL,125003.0
04:06:00,0.011543722357600927,0.0012402318534441292,2.5577590465545654,1.4770954847335815,0.00012077041901648045,0.0040007277857512236,-35.36326185,149.1652379,181710.0,-8.5,-10.0,101.5,1.5,44.0,-993.0,1479.5,5.5,7.0,RTL,125003.0
04:06:02,0.028063958510756493,-0.005153111414983869,2.558408737182617,1.497886061668396,-0.0020857087802141905,0.003256898606196046,-35.36326175,149.165238,179671.0,-1.0,-2.5,101.0,-3.5,75.5,-1034.0,1501.0,3.0,6.5,RTL,125003.0
04:06:03,0.04737069923430681,-0.0055373915820382535,2.558627963066101,1.362282246351242,-0.00183893705252558,-0.0021599028259515762,-35.363260600000004,149.165240025,178405.25,-10.25,-13.75,98.0,-0.5,56.25,-1014.25,1365.75,3.25,1.75,RTL,49138.0
04:06:04,0.05098729580640793,-0.0017437239876016974,2.5577510595321655,1.3356841206550598,0.007344376295804977,0.006339782266877592,-35.363260249999996,149.1652408,177638.0,-17.5,-22.5,102.0,-1.0,55.5,-998.0,1339.5,12.5,9.5,RTL,49138.0
04:06:06,0.03342658840119839,-0.00036700056102745293,2.5575934648513794,0.13613757211714983,0.0026264754123985767,-0.010255581233650446,-35.3632603,149.1652409,175637.0,-19.5,-27.5,106.5,3.5,-27.0,-962.0,138.0,7.5,-6.0,RTL,49138.0
04:06:08,0.0007579375524073839,0.0010258431429974735,2.5581719875335693,-0.5590974241495132,-0.002236530650407076,-0.005280687008053064,-35.36326115,149.1652393,173590.5,-14.5,-20.0,104.0,2.5,-59.0,-926.0,-556.5,3.0,-1.5,RTL,49138.0
04:06:09,-0.005807187902973965,0.001868335617473349,2.5573712587356567,-0.4358613193035126,-0.001635308435652405,0.0006143773789517581,-35.36326187499999,149.165237925,172307.75,-7.75,-9.5,105.0,3.75,-59.25,-988.75,-433.0,3.5,4.5,RTL,58998.0
04:06:10,-0.009002094389870763,0.0017556778038851917,2.5574889183044434,-0.4248240888118744,-0.0035977433435618877,0.0029842781368643045,-35.36326235,149.16523705,171541.5,-3.0,-2.5,105.0,2.0,-62.0,-956.0,-422.0,1.5,6.0,RTL,58998.0
04:06:12,-0.012503043748438358,-0.004397076554596424,2.558295965194702,-1.262675702571869,-0.006061431486159563,0.0019826655043289065,-35.36326245,149.16523654999997,169381.5,4.0,8.0,100.5,0.0,-79.5,-989.0,-1259.0,-0.5,5.5,RTL,58998.0
04:06:14,-0.002318899380043149,-0.0014975634403526783,2.5578778982162476,-0.9951365292072296,-0.0034297468373551965,0.008179774275049567,-35.36326205,149.1652373,167329.5,-0.5,2.0,99.0,0.0,-65.0,-1023.5,-991.5,1.5,11.0,RTL,58998.0
04:06:15,-0.015644618775695562,-0.0010478062031324953,2.5581480860710144,-1.269801676273346,-0.0026394540909677744,-0.0005301062483340502,-35.3632621,149.165237375,166052.25,-0.5,1.75,101.0,0.25,-72.5,-981.25,-1265.75,2.25,3.5,RTL,8949.0
04:06:16,-0.014055115636438131,-0.0002857172949006781,2.5585204362869263,-1.3095248937606812,0.0008761791978031397,-0.002264386392198503,-35.3632621,149.1652374,165280.5,0.0,1.0,101.5,1.0,-73.0,-1012.5,-1305.5,5.5,1.5,RTL,8949.0
04:06:18,-0.02224935218691826,0.001921817776747048,2.5580525398254395,-1.0143285691738129,0.0014252547407522798,-0.009104591910727322,-35.3632627,149.1652365,163231.0,2.5,7.0,102.5,2.0,-81.5,-987.5,-1011.0,6.5,-5.0,RTL,8949.0
04:06:20,-0.04732683300971985,0.002989254309795797,2.5590165853500366,-1.11394602060318,-0.002189175458624959,-0.0043799723498523235,-35.36326425,149.1652338,161201.0,14.5,22.5,101.0,2.5,-76.0,-974.5,-1111.5,2.5,-1.0,RTL,10417.5
04:06:22,-0.027879039756953716,-0.005277224583551288,2.5584309101104736,-1.2825249433517456,-0.007732881815172732,-0.0033010359620675445,-35.3632641,149.1652337,159168.5,25.5,36.5,100.5,-2.5,-68.0,-955.0,-1280.5,-2.5,0.0,RTL,11886.0
04:06:24,-0.020274887327104807,-0.004543697694316506,2.558469772338867,-1.443424940109253,-0.0013163115363568068,0.0024614997673779726,-35.36326255,149.16523625,157107.0,9.5,19.0,97.5,-1.0,-73.0,-1011.5,-1440.5,4.0,5.5,RTL,11886.0
04:06:25,-0.017166218487545848,-0.0025806715129874647,2.5585023760795593,-1.3839513659477234,0.0013779893051832914,-0.006887840572744608,-35.363262275000004,149.1652367,155828.75,3.25,11.0,99.5,-0.5,-74.75,-985.5,-1382.0,5.75,-3.25,RTL,113512.0
04:06:26,-0.02017220389097929,-0.0032551424810662866,2.55855393409729,-1.413754165172577,-0.008360285544767976,0.005322026670910418,-35.3632622,149.1652368,155061.5,2.5,9.0,99.0,0.0,-68.0,-998.5,-1411.5,-3.0,8.0,RTL,113512.0
04:06:28,-0.020173711702227592,-0.0009702643728815019,2.5578829050064087,-1.5023524165153503,0.005588361760601401,0.003968142904341221,-35.36326205,149.16523734999998,153023.0,-1.0,4.0,101.5,0.5,-77.0,-969.0,-1500.5,10.0,7.5,RTL,113512.0
04:06:30,-0.02372694108635187,-0.00037199148937361315,2.560414671897888,-1.3863558173179626,-0.004451192216947675,0.011855279095470905,-35.3632626,149.1652365,150988.0,4.0,10.0,100.5,1.0,-80.0,-919.0,-1385.0,0.0,15.0,RTL,113512.0
04:06:31,-0.04031166434288025,0.0014495853974949569,2.557703375816345,-1.4804376065731049,0.0037475902354344726,-0.0003200757782906294,-35.363263100000005,149.165235775,149715.5,5.25,11.0,100.25,1.25,-56.0,-1001.75,-1477.75,8.25,3.0,RTL,38396.0
04:06:32,-0.04146806336939335,0.0009462012822041288,2.5588349103927612,-1.3081461787223816,-0.0029441595543175936,-0.0052311059553176165,-35.3632634,149.1652352,148949.0,9.5,15.0,100.0,0.0,-56.0,-1045.5,-1306.0,1.5,-1.5,RTL,38396.0
04:06:34,-0.0334117840975523,-0.0017668414511717856,2.5571824312210083,-0.9366537630558014,0.005777083104476333,-0.0012897844426333904,-35.3632632,149.1652356,146923.0,11.0,16.5,103.0,-0.5,-5.0,-992.0,-932.5,10.5,2.5,RTL,38396.0
04:06:36,-0.029584125615656376,0.00017997111717704684,2.558328866958618,0.27118322625756264,0.001470227725803852,-0.0045136925764381886,-35.3632633,149.16523545,144873.5,9.0,16.0,100.0,2.0,47.0,-1000.5,274.5,6.0,-1.0,RTL,38396.0
04:06:37,-0.03612052742391825,-0.0018595291039673612,2.558560609817505,0.6841897070407867,0.00032590748742222786,-0.003216897282982245,-35.36326365,149.16523435,143586.75,12.25,21.0,100.5,-1.25,68.75,-976.0,687.5,4.75,-0.25,RTL,519.0
04:06:38,-0.026187971234321594,-0.004716475727036595,2.558671236038208,0.7460842430591583,-0.003949287696741521,-0.003896935493685305,-35.36326355,149.16523445,142808.5,15.0,24.5,99.5,-2.0,73.5,-960.5,748.5,1.0,-0.5,RTL,519.0
04:06:40,-0.009449956589378417,-0.00819305470213294,2.557467460632324,-1.3672046661376953,0.007125902688130736,-0.0007701357826590538,-35.36326165,149.16523755,140755.5,4.5,11.5,98.0,-5.0,-35.5,-999.5,-1365.0,11.5,2.5,RTL,519.0
04:06:42,-0.01005150843411684,-0.0004094909527339041,2.5579593181610107,-0.6759305000305176,0.007228559581562877,-0.002988855354487896,-35.363261050000006,149.1652391,138726.5,-11.5,-10.5,100.0,1.0,-0.5,-990.5,-672.5,11.5,0.5,RTL,519.0
04:06:43,-0.0356270051561296,0.0015778554370626807,2.559641659259796,-1.1173241436481476,-0.00014411751180887222,-0.0012885151663795114,-35.363261975,149.16523767500001,137450.5,-7.25,-6.25,98.75,1.0,-23.75,-1003.75,-1114.75,4.0,2.0,RTL,3634.0
04:06:44,-0.03009586874395609,-0.00013315855176188052,2.5580376386642456,-1.2656383514404297,-0.004933859454467893,0.005726610193960369,-35.3632623,149.16523715,136694.5,-1.5,-0.5,99.5,-0.5,-32.0,-995.0,-1263.0,0.0,8.5,RTL,3634.0
04:06:46,-0.012041151989251375,-0.0060023292899131775,2.560916304588318,-0.6928907632827759,-0.008355642668902874,0.0023202552692964673,-35.363261699999995,149.16523784999998,134664.0,-1.0,0.0,102.0,-4.0,9.0,-948.0,-689.0,-3.0,4.5,RTL,3634.0
04:06:48,0.007451948244124651,-0.0016256205271929502,2.558651566505432,0.5143814831972122,-0.005747770075686276,0.012147573754191399,-35.3632608,149.1652396,132620.5,-13.5,-16.0,100.5,-1.0,61.0,-990.0,517.5,-1.0,14.5,RTL,3634.0
04:06:49,0.006531598046422005,-0.004168428480625153,2.5591225624084473,0.05241846037097275,-0.0008266001823358238,-0.005124450952280313,-35.363260675,149.1652398,131343.0,-13.75,-18.0,98.25,-3.0,45.0,-967.5,57.0,3.25,-2.0,RTL,27982.0
04:06:50,0.014724976383149624,-0.00634789583273232,2.5587313175201416,0.32093025743961334,0.0008250486571341753,6.327254232019186e-05,-35.3632603,149.16524045,130582.5,-15.5,-21.5,99.0,-3.5,54.0,-992.5,325.5,5.0,2.5,RTL,27982.0
04:06:52,0.01945161074399948,-0.0005630460982501972,2.558359384536743,0.4685726724565029,0.005711271660402417,-0.012229572515934706,-35.36325965,149.16524185,128545.0,-27.0,-34.5,105.0,0.5,61.0,-960.0,473.5,10.0,-8.5,RTL,27982.0
04:06:54,-0.0064367325976490974,0.0034510984551161528,2.5592795610427856,0.4767942614853382,0.0042365549597889185,0.009918146766722202,-35.3632613,149.1652391,126482.5,-17.5,-22.0,100.5,3.5,52.0,-975.5,483.0,8.5,12.5,RTL,27982.0
04:06:55,-0.035074875224381685,0.0043149247649125755,2.5588823556900024,0.3394402079284191,0.00016904011135920882,0.006310035241767764,-35.363262649999996,149.16523665,125206.75,-5.5,-6.0,98.5,4.25,46.25,-1007.5,344.75,4.25,8.5,RTL,38034.0
04:06:56,-0.038131143897771835,0.003524834639392793,2.5590028762817383,0.711391270160675,-0.0003867729101330042,0.01067992765456438,-35.363263450000005,149.16523510000002,124438.5,2.0,5.0,95.0,3.5,57.5,-984.0,716.0,3.5,13.5,RTL,38034.0
04:06:58,-0.025608312338590622,0.00013586130080511793,2.5594499111175537,1.4612528681755066,-0.002455409849062562,0.0017399332718923688,-35.3632647,149.1652326,122410.5,22.0,33.0,98.0,0.0,67.0,-1017.5,1464.5,1.5,4.5,RTL,38034.0
04:07:00,-0.020254356786608696,-0.0026971648912876844,2.559165596961975,1.104076087474823,0.002253882586956024,-0.0016633642371743917,-35.36326425,149.1652335,120359.5,22.5,34.5,94.5,-2.5,75.5,-994.0,1107.5,6.5,1.0,RTL,38034.0
04:07:01,-0.014717197977006435,-0.0037075747968629003,2.559717535972595,0.5369281764142215,0.0020755132427439094,-0.003668766061309725,-35.363263475000004,149.16523485,119085.5,17.25,26.5,98.0,-3.0,60.75,-1027.25,540.5,6.25,-0.25,RTL,63075.0
04:07:02,-0.00535554182715714,-0.0045154395047575235,2.559606671333313,0.6901799142360687,-0.00040859985165297985,-0.01067986385896802,-35.36326295,149.1652359,118323.5,13.0,20.0,98.5,-3.5,72.0,-991.5,694.0,3.5,-7.0,RTL,63075.0
04:07:04,0.010309451259672642,-0.0037395486142486334,2.5600743293762207,0.3177259713411331,0.003998645581305027,-0.00675550801679492,-35.363261249999994,149.16523905,116297.0,-3.0,-4.0,97.5,-4.0,56.0,-1025.0,321.0,8.0,-3.5,RTL,63075.0
04:07:06,0.017640150152146816,-0.002931725117377937,2.5594342947006226,0.5303528308868408,-0.0028569080168381333,-0.005457886960357428,-35.36326045,149.1652407,114283.5,-15.5,-22.5,102.0,-1.5,57.0,-983.5,534.5,1.5,-2.5,RTL,63075.0
04:07:07,0.04604390636086464,-0.004043840803205967,2.559415260950724,1.3107712268829346,-0.0022761967654029527,-0.0017680405483891566,-35.3632598,149.16524173333335,113036.0,-20.0,-29.333333333333332,104.0,-1.6666666666666667,74.33333333333333,-1019.6666666666666,1314.0,2.0,1.0,RTL,40706.0
04:07:08,0.04739037652810415,-0.003514430020004511,2.5594581762949624,1.3098619381586711,0.0021606329828500748,-0.002268188865855336,-35.3632595,149.1652422,112277.33333333333,-25.0,-35.666666666666664,100.66666666666667,-0.6666666666666666,62.666666666666664,-1035.3333333333333,1313.0,6.0,0.6666666666666666,RTL,40706.0
04:07:10,0.05693154533704122,-0.0014384320238605142,2.5597042242685952,1.15691081682841,0.002304595895111561,-0.002263664035126567,-35.363259066666664,149.16524306666668,110256.0,-32.0,-45.333333333333336,103.66666666666667,0.3333333333333333,28.666666666666668,-1020.3333333333334,1159.3333333333333,6.333333333333333,0.6666666666666666,RTL,40706.0
04:07:12,0.04115777462720871,0.0016893282299861312,2.561293840408325,1.1437891920407612,0.004052083784093459,-0.0013422444462776184,-35.3632597,149.1652421,108183.33333333333,-30.0,-43.0,103.33333333333333,2.0,16.0,-994.6666666666666,1146.6666666666667,8.333333333333334,2.0,RTL,32610.0
