time_stamp,MODE,lat,lon,relative_alt,roll,pitch,yaw,rollspeed,pitchspeed,yawspeed,xacc,yacc,zacc,xgyro,ygyro,zgyro,vx,vy,vz,RTL_ALT
00:23:34.868,STABILIZE,-35.3632621,149.1652374,0,-0.0002588125935290009,0.0014981008134782314,0.02818903885781765,0.00019388439250178635,0.0004122666141483933,0.0025123413652181625,0,1,-1000,0,0,0,0,0,2,1500.0
00:23:35.068,STABILIZE,-35.3632621,149.1652374,0,-0.0002588125935290009,0.0014981008134782314,0.02818903885781765,0.00019388439250178635,0.0004122666141483933,0.0025123413652181625,0,1,-1000,0,0,0,0,0,2,1500.0
00:23:35.269,STABILIZE,-35.3632621,149.1652374,0,-0.0002588125935290009,0.0014981008134782314,0.02818903885781765,0.00019388439250178635,0.0004122666141483933,0.0025123413652181625,0,1,-1000,0,0,0,0,0,2,1500.0
00:23:35.470,STABILIZE,-35.3632621,149.1652374,0,-0.0002588125935290009,0.0014981008134782314,0.02818903885781765,0.00019388439250178635,0.0004122666141483933,0.0025123413652181625,0,1,-1000,0,0,0,-1,0,1,1500.0
00:23:35.671,STABILIZE,-35.3632621,149.1652374,0,-0.0002588125935290009,0.0014981008134782314,0.02818903885781765,0.00019388439250178635,0.0004122666141483933,0.0025123413652181625,0,1,-1000,0,0,0,-1,0,1,1500.0
00:23:35.872,STABILIZE,-35.3632621,149.1652374,0,-0.00017425851547159255,0.0016664289869368076,0.027590548619627953,0.00024157913867384195,0.0003193852899130434,0.002371483249589801,0,1,-1000,0,0,0,-1,1,1,1500.0
00:23:36.073,STABILIZE,-35.3632621,149.1652374,0,-0.00017425851547159255,0.0016664289869368076,0.027590548619627953,0.00024157913867384195,0.0003193852899130434,0.002371483249589801,0,1,-1000,0,0,0,-1,1,1,1500.0
00:23:36.274,STABILIZE,-35.3632621,149.1652374,0,-0.00017425851547159255,0.0016664289869368076,0.027590548619627953,0.00024157913867384195,0.0003193852899130434,0.002371483249589801,0,1,-1000,0,0,0,-1,1,1,1500.0
00:23:36.476,STABILIZE,-35.3632621,149.1652374,0,-0.00022365227050613612,0.0016547130653634667,0.02718721516430378,0.0002729344123508781,0.00028872350230813026,0.0023427996784448624,0,1,-1000,0,0,0,-1,1,0,1500.0
00:23:36.677,STABILIZE,-35.3632621,149.1652374,0,-0.00022365227050613612,0.0016547130653634667,0.02718721516430378,0.0002729344123508781,0.00028872350230813026,0.0023427996784448624,0,1,-1000,0,0,0,-1,1,0,1500.0
00:23:36.878,STABILIZE,-35.3632621,149.1652374,0,-0.00022365227050613612,0.0016547130653634667,0.02718721516430378,0.0002729344123508781,0.00028872350230813026,0.0023427996784448624,0,1,-1000,0,0,0,-1,1,0,1500.0
00:23:37.080,STABILIZE,-35.3632621,149.1652374,0,-0.00022365227050613612,0.0016547130653634667,0.02718721516430378,0.0002729344123508781,0.00028872350230813026,0.0023427996784448624,0,1,-1000,0,0,0,-1,1,0,1500.0
00:23:37.281,STABILIZE,-35.3632622,149.1652374,0,-0.0003567026578821242,0.0015359792159870267,0.026800166815519333,0.00027737650088965893,0.00041103726834990084,0.00219606957398355,0,1,-1000,0,0,0,-2,1,0,1500.0
00:23:37.482,STABILIZE,-35.3632622,149.1652374,0,-0.0003567026578821242,0.0015359792159870267,0.026800166815519333,0.00027737650088965893,0.00041103726834990084,0.00219606957398355,0,1,-1000,0,0,0,-2,1,0,1500.0
00:23:37.684,STABILIZE,-35.3632622,149.1652374,0,-0.00046125956578180194,0.0014348787954077125,0.02654290944337845,0.00027884443989023566,0.0002679882454685867,0.0021748237777501345,0,1,-1000,0,0,0,-2,1,0,1500.0
00:23:37.885,STABILIZE,-35.3632622,149.1652374,0,-0.00046125956578180194,0.0014348787954077125,0.02654290944337845,0.00027884443989023566,0.0002679882454685867,0.0021748237777501345,0,1,-1000,0,0,0,-2,1,0,1500.0
00:23:38.086,STABILIZE,-35.3632622,149.1652374,0,-0.00046125956578180194,0.0014348787954077125,0.02654290944337845,0.00027884443989023566,0.0002679882454685867,0.0021748237777501345,0,1,-1000,0,0,0,-2,1,0,1500.0
00:23:38.287,STABILIZE,-35.3632622,149.1652374,0,-0.00046125956578180194,0.0014348787954077125,0.02654290944337845,0.00027884443989023566,0.0002679882454685867,0.0021748237777501345,0,1,-1000,0,0,0,-2,1,0,1500.0
00:23:38.489,STABILIZE,-35.3632622,149.1652374,0,-0.0006230301223695278,0.0012600325280800462,0.02620159275829792,0.00017825549002736807,0.0002976763353217393,0.0022463419009000063,0,1,-1000,0,0,0,-1,1,0,1500.0
00:23:38.690,STABILIZE,-35.3632622,149.1652374,0,-0.0006230301223695278,0.0012600325280800462,0.02620159275829792,0.00017825549002736807,0.0002976763353217393,0.0022463419009000063,0,1,-1000,0,0,0,-1,1,0,1500.0
00:23:38.891,STABILIZE,-35.3632622,149.1652374,0,-0.0007054179441183805,0.001181206083856523,0.026016991585493088,0.0003432505764067173,0.00027656517340801656,0.002207687357440591,0,1,-1000,0,0,1,-1,1,0,1500.0
00:23:39.092,STABILIZE,-35.3632622,149.1652374,0,-0.0007054179441183805,0.001181206083856523,0.026016991585493088,0.0003432505764067173,0.00027656517340801656,0.002207687357440591,0,1,-1000,0,0,1,-1,1,0,1500.0
00:23:39.294,STABILIZE,-35.3632622,149.1652374,0,-0.0007054179441183805,0.001181206083856523,0.026016991585493088,0.0003432505764067173,0.00027656517340801656,0.002207687357440591,0,1,-1000,0,0,1,-1,1,0,1500.0
00:23:39.495,STABILIZE,-35.3632622,149.1652374,0,-0.0007989428704604506,0.0010937836486846209,0.025802476331591606,0.00022525584790855646,0.0001755365519784391,0.002086964901536703,0,1,-1000,0,0,0,-1,1,0,1500.0
00:23:39.696,STABILIZE,-35.3632622,149.1652374,0,-0.0007989428704604506,0.0010937836486846209,0.025802476331591606,0.00022525584790855646,0.0001755365519784391,0.002086964901536703,0,1,-1000,0,0,0,-1,1,0,1500.0
00:23:39.903,STABILIZE,-35.3632622,149.1652374,0,-0.0007989428704604506,0.0010937836486846209,0.025802476331591606,0.00022525584790855646,0.0001755365519784391,0.002086964901536703,0,1,-1000,0,0,0,-1,1,0,1500.0
00:23:40.104,STABILIZE,-35.3632622,149.1652374,0,-0.0007989428704604506,0.0010937836486846209,0.025802476331591606,0.00022525584790855646,0.0001755365519784391,0.002086964901536703,0,1,-1000,0,0,0,-1,1,0,1500.0
00:23:40.305,STABILIZE,-35.3632622,149.1652374,0,-0.0007989428704604506,0.0010937836486846209,0.025802476331591606,0.00022525584790855646,0.0001755365519784391,0.002086964901536703,0,1,-1000,0,0,0,-1,1,0,1500.0
00:23:40.507,STABILIZE,-35.3632622,149.1652374,0,-0.0007989428704604506,0.0010937836486846209,0.025802476331591606,0.00022525584790855646,0.0001755365519784391,0.002086964901536703,0,1,-1000,0,0,0,-1,1,0,1500.0
00:23:40.708,STABILIZE,-35.3632621,149.1652374,0,-0.0006091112736612558,0.0009925811318680644,0.02534978650510311,0.0002772578736767173,0.00029999593971297145,0.0019946820102632046,0,1,-1000,0,0,0,-1,1,0,1500.0
00:23:40.909,STABILIZE,-35.3632621,149.1652374,0,-0.0006091112736612558,0.0009925811318680644,0.02534978650510311,0.0002772578736767173,0.00029999593971297145,0.0019946820102632046,0,1,-1000,0,0,0,-1,1,0,1500.0
00:23:41.110,STABILIZE,-35.3632621,149.1652374,0,-0.0006091112736612558,0.0009925811318680644,0.02534978650510311,0.0002772578736767173,0.00029999593971297145,0.0019946820102632046,0,1,-1000,0,0,0,-1,1,0,1500.0
00:23:41.311,STABILIZE,-35.3632621,149.1652374,0,-0.000633818912319839,0.0009747578296810389,0.025147370994091034,0.00020681385649368167,0.00027450951165519655,0.0019947667606174946,0,1,-1000,0,0,0,-1,1,0,1500.0
00:23:41.512,STABILIZE,-35.3632621,149.1652374,0,-0.0006516305147670209,0.0009584801155142486,0.025064388290047646,6.931443931534886e-05,0.00025137412012554705,0.001954226288944483,0,1,-1000,0,0,0,-1,1,0,1500.0
00:23:41.714,STABILIZE,-35.3632621,149.1652374,0,-0.0006516305147670209,0.0009584801155142486,0.025064388290047646,6.931443931534886e-05,0.00025137412012554705,0.001954226288944483,0,1,-1000,0,0,0,-1,1,0,1500.0
00:23:41.915,STABILIZE,-35.3632621,149.1652374,0,-0.0006516305147670209,0.0009584801155142486,0.025064388290047646,6.931443931534886e-05,0.00025137412012554705,0.001954226288944483,0,1,-1000,0,0,0,-1,1,0,1500.0
00:23:42.116,STABILIZE,-35.3632621,149.1652374,0,-0.0006516305147670209,0.0009584801155142486,0.025064388290047646,6.931443931534886e-05,0.00025137412012554705,0.001954226288944483,0,1,-1000,0,0,0,-1,1,0,1500.0
00:23:42.318,STABILIZE,-35.3632621,149.1652374,0,-0.0006516305147670209,0.0009584801155142486,0.025064388290047646,6.931443931534886e-05,0.00025137412012554705,0.001954226288944483,0,1,-1000,0,0,0,-1,1,0,1500.0
00:23:42.519,STABILIZE,-35.3632621,149.1652374,0,-0.0006516305147670209,0.0009584801155142486,0.025064388290047646,6.931443931534886e-05,0.00025137412012554705,0.001954226288944483,0,1,-1000,0,0,0,-1,1,0,1500.0
00:23:42.720,STABILIZE,-35.3632621,149.1652375,0,-0.0007521342486143112,0.0009330948232673109,0.02458075061440468,0.00015392532804980874,0.0003140342887490988,0.0018851454369723797,0,1,-1000,0,0,0,-1,1,0,1500.0
00:23:42.921,STABILIZE,-35.3632621,149.1652375,0,-0.0007521342486143112,0.0009330948232673109,0.02458075061440468,0.00015392532804980874,0.0003140342887490988,0.0018851454369723797,0,1,-1000,0,0,0,-1,1,0,1500.0
00:23:43.122,STABILIZE,-35.3632621,149.1652375,0,-0.0007521342486143112,0.0009330948232673109,0.02458075061440468,0.00015392532804980874,0.0003140342887490988,0.0018851454369723797,0,1,-1000,0,0,0,-1,1,0,1500.0
00:23:43.324,STABILIZE,-35.3632621,149.1652375,0,-0.0007521342486143112,0.0009330948232673109,0.02458075061440468,0.00015392532804980874,0.0003140342887490988,0.0018851454369723797,0,1,-1000,0,0,0,-1,1,0,1500.0
00:23:43.525,STABILIZE,-35.3632621,149.1652375,0,-0.0007988371071405709,0.0009305517887696624,0.02432234026491642,0.00019221293041482568,0.0002494447981007397,0.0018463584128767252,0,1,-1000,1,0,0,-1,1,0,1500.0
00:23:43.726,STABILIZE,-35.3632621,149.1652375,0,-0.0006474654655903578,0.0009355947258882225,0.02424352802336216,0.00042487820610404015,0.00031221448443830013,0.0019226429285481572,0,1,-1000,1,0,0,-1,2,1,1500.0
00:23:43.927,STABILIZE,-35.3632621,149.1652375,0,-0.0006474654655903578,0.0009355947258882225,0.02424352802336216,0.00042487820610404015,0.00031221448443830013,0.0019226429285481572,0,1,-1000,1,0,0,-1,2,1,1500.0
00:23:44.128,STABILIZE,-35.3632621,149.1652375,0,-0.0006474654655903578,0.0009355947258882225,0.02424352802336216,0.00042487820610404015,0.00031221448443830013,0.0019226429285481572,0,1,-1000,1,0,0,-1,2,1,1500.0
00:23:44.329,STABILIZE,-35.3632621,149.1652375,0,-0.0006474654655903578,0.0009355947258882225,0.02424352802336216,0.00042487820610404015,0.00031221448443830013,0.0019226429285481572,0,1,-1000,1,0,0,-1,2,1,1500.0
00:23:44.530,STABILIZE,-35.3632621,149.1652375,0,-0.0006474654655903578,0.0009355947258882225,0.02424352802336216,0.00042487820610404015,0.00031221448443830013,0.0019226429285481572,0,1,-1000,1,0,0,-1,2,1,1500.0
00:23:44.732,STABILIZE,-35.3632621,149.1652375,0,-0.0006474654655903578,0.0009355947258882225,0.02424352802336216,0.00042487820610404015,0.00031221448443830013,0.0019226429285481572,0,1,-1000,1,0,0,-1,2,1,1500.0
00:23:44.933,STABILIZE,-35.3632621,149.1652375,0,-0.0008637901628389955,0.0009456233237870038,0.023821091279387474,0.0003091222606599331,0.00024231383576989174,0.0016678671818226576,0,1,-1000,0,0,0,-1,1,0,1500.0
00:23:45.134,STABILIZE,-35.3632621,149.1652375,0,-0.0008637901628389955,0.0009456233237870038,0.023821091279387474,0.0003091222606599331,0.00024231383576989174,0.0016678671818226576,0,1,-1000,0,0,0,-1,1,0,1500.0
00:23:45.335,STABILIZE,-35.3632621,149.1652375,0,-0.0008637901628389955,0.0009456233237870038,0.023821091279387474,0.0003091222606599331,0.00024231383576989174,0.0016678671818226576,0,1,-1000,0,0,0,-1,1,0,1500.0
00:23:45.536,STABILIZE,-35.3632621,149.1652375,0,-0.0008637901628389955,0.0009456233237870038,0.023821091279387474,0.0003091222606599331,0.00024231383576989174,0.0016678671818226576,0,1,-1000,0,0,0,-1,1,0,1500.0
00:23:45.737,STABILIZE,-35.3632621,149.1652375,0,-0.0008637901628389955,0.0009456233237870038,0.023821091279387474,0.0003091222606599331,0.00024231383576989174,0.0016678671818226576,0,1,-1000,0,0,0,-1,1,0,1500.0
00:23:45.938,STABILIZE,-35.3632621,149.1652375,0,-0.0008637901628389955,0.0009456233237870038,0.023821091279387474,0.0003091222606599331,0.00024231383576989174,0.0016678671818226576,0,1,-1000,0,0,0,-1,1,0,1500.0
00:23:46.139,STABILIZE,-35.3632621,149.1652375,0,-0.0008637901628389955,0.0009456233237870038,0.023821091279387474,0.0003091222606599331,0.00024231383576989174,0.0016678671818226576,0,1,-1000,0,0,0,-1,1,0,1500.0
00:23:46.341,STABILIZE,-35.3632621,149.1652375,0,-0.0008637901628389955,0.0009456233237870038,0.023821091279387474,0.0003091222606599331,0.00024231383576989174,0.0016678671818226576,0,1,-1000,0,0,0,-1,1,0,1500.0
00:23:46.542,STABILIZE,-35.3632621,149.1652375,0,-0.0008637901628389955,0.0009456233237870038,0.023821091279387474,0.0003091222606599331,0.00024231383576989174,0.0016678671818226576,0,1,-1000,0,0,0,-1,1,0,1500.0
00:23:46.744,STABILIZE,-35.3632621,149.1652375,0,-0.0008637901628389955,0.0009456233237870038,0.023821091279387474,0.0003091222606599331,0.00024231383576989174,0.0016678671818226576,0,1,-1000,0,0,0,-1,1,0,1500.0
00:23:46.945,STABILIZE,-35.3632621,149.1652375,0,-0.0008637901628389955,0.0009456233237870038,0.023821091279387474,0.0003091222606599331,0.00024231383576989174,0.0016678671818226576,0,1,-1000,0,0,0,-1,1,0,1500.0
00:23:47.146,STABILIZE,-35.3632621,149.1652375,0,-0.0008637901628389955,0.0009456233237870038,0.023821091279387474,0.0003091222606599331,0.00024231383576989174,0.0016678671818226576,0,1,-1000,0,0,0,-1,1,0,1500.0
00:23:47.348,STABILIZE,-35.3632622,149.1652375,0,-0.001136734732426703,0.0009640274220146239,0.02319764345884323,0.00020522187696769834,0.0003087648656219244,0.0016591412713751197,0,1,-1000,0,0,0,-1,1,0,1500.0
00:23:47.549,STABILIZE,-35.3632622,149.1652375,0,-0.0011484536807984114,0.0009650194551795721,0.023142650723457336,0.0004044706583954394,0.00037545303348451853,0.001641430426388979,0,1,-1000,1,0,0,-1,1,0,1500.0
00:23:47.750,STABILIZE,-35.3632622,149.1652375,0,-0.0011484536807984114,0.0009650194551795721,0.023142650723457336,0.0004044706583954394,0.00037545303348451853,0.001641430426388979,0,1,-1000,1,0,0,-1,1,0,1500.0
00:23:47.951,STABILIZE,-35.3632622,149.1652375,0,-0.0011484536807984114,0.0009650194551795721,0.023142650723457336,0.0004044706583954394,0.00037545303348451853,0.001641430426388979,0,1,-1000,1,0,0,-1,1,0,1500.0
00:23:48.152,STABILIZE,-35.3632622,149.1652375,0,-0.0011484536807984114,0.0009650194551795721,0.023142650723457336,0.0004044706583954394,0.00037545303348451853,0.001641430426388979,0,1,-1000,1,0,0,-1,1,0,1500.0
00:23:48.353,STABILIZE,-35.3632622,149.1652375,0,-0.0011484536807984114,0.0009650194551795721,0.023142650723457336,0.0004044706583954394,0.00037545303348451853,0.001641430426388979,0,1,-1000,1,0,0,-1,1,0,1500.0
00:23:48.554,STABILIZE,-35.3632622,149.1652375,0,-0.0011484536807984114,0.0009650194551795721,0.023142650723457336,0.0004044706583954394,0.00037545303348451853,0.001641430426388979,0,1,-1000,1,0,0,-1,1,0,1500.0
00:23:48.755,STABILIZE,-35.3632622,149.1652375,0,-0.0011683230986818671,0.0009540603496134281,0.022892901673913002,0.0001565906568430364,0.00021569646196439862,0.0016637678490951657,0,1,-1000,0,0,0,-1,0,0,1500.0
00:23:48.957,STABILIZE,-35.3632622,149.1652375,0,-0.0011683230986818671,0.0009540603496134281,0.022892901673913002,0.0001565906568430364,0.00021569646196439862,0.0016637678490951657,0,1,-1000,0,0,0,-1,0,0,1500.0
00:23:49.158,STABILIZE,-35.3632622,149.1652375,0,-0.0011603584280237556,0.0009526163921691477,0.022791171446442604,0.00028298370307311416,0.0002085817395709455,0.0016160669038072228,0,2,-1000,0,0,0,-1,0,0,1500.0
00:23:49.360,STABILIZE,-35.3632622,149.1652375,0,-0.0011603584280237556,0.0009526163921691477,0.022791171446442604,0.00028298370307311416,0.0002085817395709455,0.0016160669038072228,0,2,-1000,0,0,0,-1,0,0,1500.0
00:23:49.561,STABILIZE,-35.3632622,149.1652375,0,-0.0011603584280237556,0.0009526163921691477,0.022791171446442604,0.00028298370307311416,0.0002085817395709455,0.0016160669038072228,0,2,-1000,0,0,0,-1,0,0,1500.0
00:23:49.763,STABILIZE,-35.3632622,149.1652375,0,-0.0011538170510903,0.0009589235996827483,0.022690478712320328,0.00018811755580827594,0.00035163387656211853,0.001682558562606573,0,2,-1000,1,0,0,-1,0,0,1500.0
00:23:49.968,AUTO,-35.3632622,149.1652375,0,-0.0011538170510903,0.0009589235996827483,0.022690478712320328,0.00018811755580827594,0.00035163387656211853,0.001682558562606573,0,2,-1000,1,0,0,-1,0,0,1500.0
00:23:50.169,AUTO,-35.3632622,149.1652375,0,-0.0011538170510903,0.0009589235996827483,0.022690478712320328,0.00018811755580827594,0.00035163387656211853,0.001682558562606573,0,2,-1000,1,0,0,-1,0,0,1500.0
00:23:50.371,AUTO,-35.3632622,149.1652375,0,-0.0011538170510903,0.0009589235996827483,0.022690478712320328,0.00018811755580827594,0.00035163387656211853,0.001682558562606573,0,2,-1000,1,0,0,-1,0,0,1500.0
00:23:50.609,AUTO,-35.3632622,149.1652375,1,-0.00113622413482517,0.000979886157438159,0.022533128038048744,0.00015958346193656325,0.0003008091007359326,0.0014903347473591566,0,2,-1000,0,1,0,-1,0,0,1500.0
00:23:50.819,AUTO,-35.3632621,149.1652375,0,-0.0008079951512627304,0.0009947415674105287,0.02248593606054783,0.00041928282007575035,0.0001833674032241106,0.001614803564734757,0,1,-1000,0,0,0,-1,2,2,1500.0
00:23:51.026,AUTO,-35.3632621,149.1652375,0,-0.0008144069579429924,0.0010126240085810423,0.022414030507206917,0.0003235443728044629,0.00023001746740192175,0.0015114366542547941,0,1,-1000,0,0,0,-1,2,2,1500.0
00:23:51.232,AUTO,-35.3632621,149.1652375,0,-0.0008195132249966264,0.0010450929403305054,0.022354498505592346,0.0003442143788561225,0.00030132243409752846,0.0015346077270805836,0,1,-1000,0,1,0,0,1,2,1500.0
00:23:51.439,AUTO,-35.3632621,149.1652375,0,-0.0007974436739459634,0.0010913392761722207,0.022300703451037407,0.00024688831763342023,0.0002833162434399128,0.0016812471440061927,0,2,-1000,1,0,1,0,0,2,1500.0
00:23:51.640,AUTO,-35.3632621,149.1652375,0,-0.0007974436739459634,0.0010913392761722207,0.022300703451037407,0.00024688831763342023,0.0002833162434399128,0.0016812471440061927,0,2,-1000,1,0,1,0,0,2,1500.0
00:23:51.842,AUTO,-35.3632621,149.1652375,0,-0.0007650716579519212,0.0011434521293267608,0.022232016548514366,0.0003328087623231113,0.00026070361491292715,0.0015917930286377668,0,2,-1000,0,0,1,0,0,1,1500.0
00:23:52.047,AUTO,-35.3632621,149.1652375,0,-0.0007650716579519212,0.0011434521293267608,0.022232016548514366,0.0003328087623231113,0.00026070361491292715,0.0015917930286377668,0,2,-1000,0,0,1,0,0,1,1500.0
00:23:52.249,AUTO,-35.3632621,149.1652375,0,-0.0007650716579519212,0.0011434521293267608,0.022232016548514366,0.0003328087623231113,0.00026070361491292715,0.0015917930286377668,0,2,-1000,0,0,1,0,0,1,1500.0
00:23:52.450,AUTO,-35.3632621,149.1652375,0,-0.0006060489686205983,0.0013491366989910603,0.022061070427298546,0.0003746091388165951,0.00026150920893996954,0.0015115984715521336,0,1,-1000,0,0,1,0,0,1,60569.0
00:23:52.652,AUTO,-35.3632621,149.1652374,0,-0.0005479957326315343,0.0014270562678575516,0.02198730781674385,0.00029518111841753125,0.0003318865201435983,0.0015744941774755716,0,1,-1000,0,1,0,0,0,1,60569.0
00:23:52.853,AUTO,-35.3632621,149.1652374,0,-0.0005479957326315343,0.0014270562678575516,0.02198730781674385,0.00029518111841753125,0.0003318865201435983,0.0015744941774755716,0,1,-1000,0,1,0,0,0,1,60569.0
00:23:53.054,AUTO,-35.3632621,149.1652374,0,-0.0004910618299618363,0.0015019297134131193,0.021914804354310036,0.00031077739549800754,0.0002758213086053729,0.0014357720501720905,0,1,-1000,0,0,0,0,0,1,60569.0
00:23:53.255,AUTO,-35.3632621,149.1652374,0,-0.00043221228406764567,0.0015777719672769308,0.021831097081303596,0.00031763716833665967,0.0003504811320453882,0.0014558166731148958,0,1,-1000,0,0,0,0,0,0,60569.0
00:23:53.457,AUTO,-35.3632621,149.1652374,0,-0.0003690629964694381,0.001650840975344181,0.021750980988144875,0.0002727105747908354,0.00034395878901705146,0.001495621632784605,0,2,-1000,0,0,0,0,0,0,60569.0
00:23:53.658,AUTO,-35.3632621,149.1652374,0,-0.0003035819681826979,0.0017226209165528417,0.021676920354366302,0.0003673525061458349,0.00032537797233089805,0.0014842234086245298,0,2,-1000,0,0,0,0,0,0,60569.0
00:23:53.860,AUTO,-35.3632621,149.1652374,0,-0.0003035819681826979,0.0017226209165528417,0.021676920354366302,0.0003673525061458349,0.00032537797233089805,0.0014842234086245298,0,2,-1000,0,0,0,0,0,0,60569.0
00:23:54.061,AUTO,-35.3632621,149.1652374,0,-0.0003035819681826979,0.0017226209165528417,0.021676920354366302,0.0003673525061458349,0.00032537797233089805,0.0014842234086245298,0,2,-1000,0,0,0,0,0,0,60569.0
00:23:54.262,AUTO,-35.3632621,149.1652374,0,-0.0003035819681826979,0.0017226209165528417,0.021676920354366302,0.0003673525061458349,0.00032537797233089805,0.0014842234086245298,0,2,-1000,0,0,0,0,0,0,60569.0
00:23:54.464,AUTO,-35.3632621,149.1652375,181,0.00368040450848639,0.0002364742395002395,0.021490292623639107,0.004328624811023474,0.004541219677776098,0.0016888570971786976,0,0,-1129,5,5,1,0,0,-71,60569.0
00:23:54.665,AUTO,-35.3632621,149.1652375,394,0.0019657614175230265,0.0011764317750930786,0.02154350094497204,-0.014269769191741943,0.003676237538456917,0.0026707970537245274,0,0,-1109,-13,4,2,0,0,-99,60569.0
00:23:54.867,AUTO,-35.3632621,149.1652375,394,0.0019657614175230265,0.0011764317750930786,0.02154350094497204,-0.014269769191741943,0.003676237538456917,0.0026707970537245274,0,0,-1109,-13,4,2,0,0,-99,60569.0
00:23:55.069,AUTO,-35.3632621,149.1652375,677,0.0014857524074614048,0.0016450323164463043,0.021349845454096794,-0.0011916334042325616,0.0006389268091879785,-0.0005179272266104817,0,0,-1088,0,0,-1,0,0,-123,60569.0
00:23:55.271,AUTO,-35.3632621,149.1652375,1016,0.010385521687567234,0.0008441408863291144,0.02082032524049282,0.04719875007867813,-0.0061225201934576035,0.0007528349524363875,0,0,-1041,47,-5,0,0,1,-138,60569.0
00:23:55.474,AUTO,-35.363262,149.1652375,1383,0.022129662334918976,-0.0009030794026330113,0.020676787942647934,0.0467444509267807,-0.007233325392007828,0.0018131970427930355,0,0,-1017,47,-6,0,1,5,-144,60569.0
00:23:55.676,AUTO,-35.363262,149.1652377,1761,0.03353515639901161,-0.0028525926172733307,0.020727915689349174,0.044605158269405365,-0.008096436969935894,0.0025419415906071663,0,-1,-1007,44,-7,2,1,11,-147,60569.0
00:23:55.877,AUTO,-35.363262,149.1652377,1761,0.03353515639901161,-0.0028525926172733307,0.020727915689349174,0.044605158269405365,-0.008096436969935894,0.0025419415906071663,0,-1,-1007,44,-7,2,1,11,-147,60569.0
00:23:56.079,AUTO,-35.363262,149.1652377,1761,0.03353515639901161,-0.0028525926172733307,0.020727915689349174,0.044605158269405365,-0.008096436969935894,0.0025419415906071663,0,-1,-1007,44,-7,2,1,11,-147,60569.0
00:23:56.282,AUTO,-35.363262,149.1652377,1761,0.03353515639901161,-0.0028525926172733307,0.020727915689349174,0.044605158269405365,-0.008096436969935894,0.0025419415906071663,0,-1,-1007,44,-7,2,1,11,-147,60569.0
00:23:56.535,AUTO,-35.3632616,149.1652398,2917,0.061749935150146484,-0.009157022461295128,-0.008096900768578053,-0.011255515739321709,0.021229881793260574,-0.04198002815246582,0,-9,-992,-10,21,-42,8,42,-148,60569.0
00:23:56.736,AUTO,-35.3632614,149.1652411,3298,0.04088553413748741,0.012751314789056778,-0.03050033561885357,-0.14007066190242767,0.09789170324802399,-0.1019197404384613,2,-11,-991,-139,98,-102,9,52,-145,60569.0
00:23:56.966,AUTO,-35.3632611,149.1652425,3673,-0.0030646207742393017,0.02373838797211647,-0.05113597959280014,-0.1629200130701065,0.0017227373318746686,-0.0723048597574234,5,-11,-1002,-162,2,-72,6,54,-145,60569.0
00:23:57.194,AUTO,-35.363261,149.1652439,4052,-0.027179157361388206,0.019598685204982758,-0.0647444799542427,-0.05380925163626671,-0.022079991176724434,-0.05121242254972458,4,-10,-1011,-52,-21,-51,2,46,-147,60569.0
00:23:57.416,AUTO,-35.3632609,149.1652451,4442,-0.03562935069203377,0.01386752538383007,-0.07514408975839615,-0.019723709672689438,-0.014756495133042336,-0.04477224126458168,4,-8,-1006,-19,-14,-44,0,36,-149,60569.0
00:23:57.620,AUTO,-35.3632609,149.1652451,4442,-0.03562935069203377,0.01386752538383007,-0.07514408975839615,-0.019723709672689438,-0.014756495133042336,-0.04477224126458168,4,-8,-1006,-19,-14,-44,0,36,-149,60569.0
00:23:57.826,AUTO,-35.3632609,149.1652459,4829,-0.04495583847165108,0.009074953384697437,-0.08286377042531967,-0.051669780164957047,-0.021091338247060776,-0.028441816568374634,3,-5,-1000,-50,-20,-28,-1,24,-150,60569.0
00:23:58.030,AUTO,-35.3632609,149.1652459,4829,-0.04495583847165108,0.009074953384697437,-0.08286377042531967,-0.051669780164957047,-0.021091338247060776,-0.028441816568374634,3,-5,-1000,-50,-20,-28,-1,24,-150,60569.0
00:23:58.250,AUTO,-35.3632609,149.1652459,4829,-0.04495583847165108,0.009074953384697437,-0.08286377042531967,-0.051669780164957047,-0.021091338247060776,-0.028441816568374634,3,-5,-1000,-50,-20,-28,-1,24,-150,190137.0
00:23:58.452,AUTO,-35.3632609,149.1652459,4829,-0.04495583847165108,0.009074953384697437,-0.08286377042531967,-0.051669780164957047,-0.021091338247060776,-0.028441816568374634,3,-5,-1000,-50,-20,-28,-1,24,-150,190137.0
00:23:58.654,AUTO,-35.363261,149.1652456,6127,-0.06324122101068497,-0.006755846086889505,-0.0918118953704834,0.05350092053413391,-0.002475177636370063,-0.006817331071943045,-2,4,-1001,54,-1,-7,-2,-33,-149,190137.0
00:23:58.856,AUTO,-35.363261,149.1652445,6512,-0.049033164978027344,-0.006561669521033764,-0.09412840008735657,0.058514099568128586,0.0036713224835693836,-0.003916508983820677,-5,9,-1001,59,4,-4,-2,-45,-149,190137.0
00:23:59.057,AUTO,-35.3632611,149.1652432,6896,-0.03381660580635071,-0.00497959740459919,-0.0957275852560997,0.06327319145202637,0.008628410287201405,-0.001293411012738943,-5,9,-1001,64,9,-1,-3,-54,-150,190137.0
00:23:59.260,AUTO,-35.3632612,149.1652416,7281,-0.017835518345236778,-0.0023574456572532654,-0.09641090035438538,0.06457255780696869,0.011909417808055878,-0.00014368651318363845,-8,14,-1003,65,12,0,-4,-58,-150,190137.0
00:23:59.462,AUTO,-35.3632612,149.1652416,7281,-0.017835518345236778,-0.0023574456572532654,-0.09641090035438538,0.06457255780696869,0.011909417808055878,-0.00014368651318363845,-8,14,-1003,65,12,0,-4,-58,-150,190137.0
00:23:59.664,AUTO,-35.3632613,149.16524,7669,-0.001549343578517437,0.0007554404437541962,-0.09650371223688126,0.06627539545297623,0.012793335132300854,0.0016026908997446299,-6,10,-1003,66,13,1,-5,-58,-151,190137.0
00:23:59.866,AUTO,-35.3632615,149.1652383,8057,0.015014022588729858,0.004011189565062523,-0.09610285609960556,0.06637390702962875,0.012532709166407585,0.0024859304539859295,-6,12,-1004,67,13,2,-6,-54,-152,190137.0
00:24:00.067,AUTO,-35.3632615,149.1652383,8057,0.015014022588729858,0.004011189565062523,-0.09610285609960556,0.06637390702962875,0.012532709166407585,0.0024859304539859295,-6,12,-1004,67,13,2,-6,-54,-152,190137.0
00:24:00.269,AUTO,-35.3632615,149.1652383,8057,0.015014022588729858,0.004011189565062523,-0.09610285609960556,0.06637390702962875,0.012532709166407585,0.0024859304539859295,-6,12,-1004,67,13,2,-6,-54,-152,190137.0
00:24:00.472,AUTO,-35.3632615,149.1652383,8057,0.015014022588729858,0.004011189565062523,-0.09610285609960556,0.06637390702962875,0.012532709166407585,0.0024859304539859295,-6,12,-1004,67,13,2,-6,-54,-152,190137.0
00:24:00.674,AUTO,-35.3632621,149.1652349,9244,0.06260812282562256,0.0095807034522295,-0.09288245439529419,0.05680212751030922,-0.00037250726018100977,0.010002992115914822,-2,7,-1001,57,0,9,-11,-19,-154,190137.0
00:24:00.876,AUTO,-35.3632623,149.1652345,9636,0.06512976437807083,-0.0009381994605064392,-0.08264134079217911,-0.03059774823486805,-0.06914025545120239,0.059201955795288086,0,3,-993,-30,-68,58,-11,-3,-152,190137.0
00:24:01.078,AUTO,-35.3632625,149.1652345,10024,0.04760120064020157,-0.012961769476532936,-0.07318978011608124,-0.09070312231779099,-0.0204312801361084,0.02554226480424404,1,1,-994,-90,-19,25,-7,9,-150,190137.0
00:24:01.280,AUTO,-35.3632626,149.1652348,10408,0.024978160858154297,-0.01327705942094326,-0.07138361036777496,-0.08359893411397934,0.009786486625671387,-0.003958853427320719,2,-2,-999,-83,10,-4,-2,17,-150,190137.0
00:24:01.482,AUTO,-35.3632626,149.1652348,10408,0.024978160858154297,-0.01327705942094326,-0.07138361036777496,-0.08359893411397934,0.009786486625671387,-0.003958853427320719,2,-2,-999,-83,10,-4,-2,17,-150,190137.0
00:24:01.684,AUTO,-35.3632627,149.1652351,10791,0.007178898435086012,-0.00969754345715046,-0.075236015021801,-0.0593542642891407,0.0136980339884758,-0.02011685259640217,2,-3,-1001,-58,14,-20,1,18,-150,190137.0
00:24:01.886,AUTO,-35.3632627,149.1652355,11176,-0.004809002857655287,-0.0064539313316345215,-0.08211051672697067,-0.03915143385529518,0.012248486280441284,-0.03038187138736248,1,-3,-1002,-38,12,-30,4,16,-150,190137.0
00:24:02.097,AUTO,-35.3632627,149.1652355,11176,-0.004809002857655287,-0.0064539313316345215,-0.08211051672697067,-0.03915143385529518,0.012248486280441284,-0.03038187138736248,1,-3,-1002,-38,12,-30,4,16,-150,190137.0
00:24:02.354,AUTO,-35.3632627,149.1652355,11176,-0.004809002857655287,-0.0064539313316345215,-0.08211051672697067,-0.03915143385529518,0.012248486280441284,-0.03038187138736248,1,-3,-1002,-38,12,-30,4,16,-150,190137.0
00:24:02.626,AUTO,-35.3632622,149.1652363,12338,-0.013034268282353878,0.00036475161323323846,-0.10836829990148544,0.008246688172221184,0.007464700844138861,-0.031256332993507385,0,-1,-1001,8,8,-31,7,3,-152,190137.0
00:24:02.857,AUTO,-35.3632621,149.1652363,12728,-0.009981383569538593,0.0018210484413430095,-0.11626509577035904,0.014504006132483482,0.005995309446007013,-0.027687201276421547,-1,0,-1001,14,6,-28,6,0,-153,190137.0
00:24:03.080,AUTO,-35.3632619,149.1652362,13117,-0.0061081526800990105,0.0031834456603974104,-0.12335126101970673,0.01624881476163864,0.006148624233901501,-0.025274503976106644,-2,0,-1000,17,6,-25,5,-3,-153,190137.0
00:24:03.328,AUTO,-35.3632618,149.1652361,13506,-0.0020475713536143303,0.004746716935187578,-0.1298215687274933,0.0169424619525671,0.006812047213315964,-0.023289771750569344,-2,0,-1000,17,7,-23,4,-5,-153,190137.0
00:24:03.530,AUTO,-35.3632617,149.165236,13901,0.001884867437183857,0.006179548799991608,-0.13557463884353638,0.015716057270765305,0.005097804591059685,-0.019051624462008476,-2,0,-1000,16,5,-19,3,-5,-153,190137.0
00:24:03.732,AUTO,-35.3632617,149.165236,13901,0.001884867437183857,0.006179548799991608,-0.13557463884353638,0.015716057270765305,0.005097804591059685,-0.019051624462008476,-2,0,-1000,16,5,-19,3,-5,-153,190137.0
00:24:03.934,AUTO,-35.3632616,149.1652358,14291,0.005057822912931442,0.0070044975727796555,-0.1403348296880722,0.01050017960369587,0.0038124374113976955,-0.016524191945791245,-2,0,-999,11,4,-17,1,-5,-153,140980.0
00:24:04.135,AUTO,-35.3632616,149.1652358,14291,0.005057822912931442,0.0070044975727796555,-0.1403348296880722,0.01050017960369587,0.0038124374113976955,-0.016524191945791245,-2,0,-999,11,4,-17,1,-5,-153,140980.0
00:24:04.337,AUTO,-35.3632616,149.1652358,14291,0.005057822912931442,0.0070044975727796555,-0.1403348296880722,0.01050017960369587,0.0038124374113976955,-0.016524191945791245,-2,0,-999,11,4,-17,1,-5,-153,140980.0
00:24:04.538,AUTO,-35.3632615,149.1652354,15458,0.009833836928009987,0.007310557644814253,-0.1508476436138153,0.0026365783996880054,-0.0009567923261784017,-0.010178839787840843,0,0,-999,3,0,-10,-1,0,-153,140980.0
00:24:04.740,AUTO,-35.3632615,149.1652354,15458,0.009833836928009987,0.007310557644814253,-0.1508476436138153,0.0026365783996880054,-0.0009567923261784017,-0.010178839787840843,0,0,-999,3,0,-10,-1,0,-153,140980.0
00:24:04.941,AUTO,-35.3632615,149.1652354,15847,0.009825184941291809,0.006784290540963411,-0.15357433259487152,-0.002045655157417059,-0.002670418005436659,-0.008603394031524658,0,0,-999,-1,-1,-8,-2,1,-153,140980.0
00:24:05.142,AUTO,-35.3632615,149.1652353,16237,0.009403525851666927,0.006003366783261299,-0.15618325769901276,-0.0023538991808891296,-0.004106204025447369,-0.01039345096796751,0,0,-1000,-1,-3,-10,-3,2,-153,140980.0
00:24:05.344,AUTO,-35.3632615,149.1652354,16627,0.008406820707023144,0.005555791314691305,-0.15932397544384003,-0.0030937124975025654,-0.0011091799242421985,-0.012602251023054123,0,0,-1000,-2,0,-13,-3,4,-153,140980.0
00:24:05.545,AUTO,-35.3632615,149.1652354,17016,0.007311961613595486,0.005151588004082441,-0.16271793842315674,-0.00582939712330699,-0.0011747400276362896,-0.0133438091725111,0,0,-999,-5,0,-13,-3,5,-153,140980.0
00:24:05.748,AUTO,-35.3632615,149.1652354,17016,0.007311961613595486,0.005151588004082441,-0.16271793842315674,-0.00582939712330699,-0.0011747400276362896,-0.0133438091725111,0,0,-999,-5,0,-13,-3,5,-153,140980.0
00:24:05.949,AUTO,-35.3632616,149.1652354,17404,0.006158665753901005,0.004598548170179129,-0.16630494594573975,-0.0024753278121352196,-0.0020801436621695757,-0.013912688009440899,0,0,-1000,-1,-1,-14,-3,6,-153,140980.0
00:24:06.151,AUTO,-35.3632616,149.1652354,17404,0.006158665753901005,0.004598548170179129,-0.16630494594573975,-0.0024753278121352196,-0.0020801436621695757,-0.013912688009440899,0,0,-1000,-1,-1,-14,-3,6,-153,140980.0
00:24:06.352,AUTO,-35.3632616,149.1652354,17404,0.006158665753901005,0.004598548170179129,-0.16630494594573975,-0.0024753278121352196,-0.0020801436621695757,-0.013912688009440899,0,0,-1000,-1,-1,-14,-3,6,-153,140980.0
00:24:06.554,AUTO,-35.3632617,149.1652357,18572,0.003628738922998309,0.0034972080029547215,-0.17911504209041595,-0.0019347094930708408,-0.0006031427183188498,-0.018167858943343163,0,0,-1000,-1,0,-18,-3,6,-153,140980.0
00:24:06.755,AUTO,-35.3632617,149.1652358,18961,0.0029559768736362457,0.003237940603867173,-0.18381160497665405,-0.0038938645739108324,-0.00011465454008430243,-0.018621748313307762,0,0,-999,-3,0,-19,-3,6,-153,140980.0
00:24:06.957,AUTO,-35.3632617,149.1652358,18961,0.0029559768736362457,0.003237940603867173,-0.18381160497665405,-0.0038938645739108324,-0.00011465454008430243,-0.018621748313307762,0,0,-999,-3,0,-19,-3,6,-153,140980.0
00:24:07.158,AUTO,-35.3632617,149.1652359,19350,0.0026047788560390472,0.003161338623613119,-0.18879051506519318,0.0026633325032889843,0.0001485822140239179,-0.02062089927494526,0,0,-1001,3,0,-21,-3,5,-153,140980.0
00:24:07.368,AUTO,-35.3632617,149.165236,19740,0.002303429413586855,0.002877082210034132,-0.19368255138397217,-0.001112866448238492,-0.0005984322633594275,-0.02221997082233429,0,0,-1000,0,0,-22,-3,5,-153,140980.0
00:24:07.600,AUTO,-35.3632618,149.1652361,20130,0.00217169476673007,0.0029412121511995792,-0.19883735477924347,0.001001102034933865,0.001207567984238267,-0.02054525911808014,0,0,-1000,1,1,-20,-3,5,-153,140980.0
00:24:07.832,AUTO,-35.3632618,149.1652362,20519,0.001827811822295189,0.0029515742789953947,-0.20397691428661346,-0.0017755937296897173,0.00042004731949418783,-0.02057853899896145,0,0,-1000,-1,1,-21,-2,4,-153,140980.0
00:24:08.128,AUTO,-35.3632618,149.1652362,20519,0.001827811822295189,0.0029515742789953947,-0.20397691428661346,-0.0017755937296897173,0.00042004731949418783,-0.02057853899896145,0,0,-1000,-1,1,-21,-2,4,-153,140980.0
00:24:08.353,AUTO,-35.3632618,149.1652362,20519,0.001827811822295189,0.0029515742789953947,-0.20397691428661346,-0.0017755937296897173,0.00042004731949418783,-0.02057853899896145,0,0,-1000,-1,1,-21,-2,4,-153,140980.0
00:24:08.563,AUTO,-35.3632618,149.1652364,21688,0.002322116866707802,0.003360059577971697,-0.21988050639629364,8.897151565179229e-05,0.0016567145939916372,-0.02223382703959942,0,0,-1000,0,2,-22,-2,3,-153,140980.0
00:24:08.765,AUTO,-35.3632618,149.1652364,22077,0.0024967065546661615,0.0033166322391480207,-0.22490087151527405,-0.0020305621437728405,-0.0006066082278266549,-0.01942894048988819,0,0,-999,-1,0,-19,-2,3,-153,140980.0
00:24:08.967,AUTO,-35.3632618,149.1652364,22077,0.0024967065546661615,0.0033166322391480207,-0.22490087151527405,-0.0020305621437728405,-0.0006066082278266549,-0.01942894048988819,0,0,-999,-1,0,-19,-2,3,-153,140980.0
00:24:09.168,AUTO,-35.3632618,149.1652365,22467,0.0025721511337906122,0.0030206681694835424,-0.2297540009021759,0.00031684921123087406,-0.0006907610222697258,-0.020791886374354362,0,0,-1000,1,0,-21,-2,3,-153,23362.0
00:24:09.370,AUTO,-35.3632618,149.1652365,22857,0.002646871143952012,0.0030725596006959677,-0.2347678691148758,0.0035445208195596933,0.0013626543805003166,-0.02024872601032257,0,0,-1000,4,2,-20,-2,3,-153,23362.0
00:24:09.572,AUTO,-35.3632619,149.1652366,23251,0.0025325180031359196,0.0030270484276115894,-0.23970341682434082,0.001240620855242014,0.0008993145893327892,-0.019908521324396133,0,0,-1000,1,1,-20,-2,3,-153,23362.0
00:24:09.773,AUTO,-35.3632619,149.1652366,23640,0.002765244571492076,0.0029933173209428787,-0.24451565742492676,0.0014934113714843988,-0.00023443211102858186,-0.017958685755729675,0,0,-1000,2,0,-18,-2,3,-153,23362.0
00:24:09.975,AUTO,-35.3632619,149.1652366,23640,0.002765244571492076,0.0029933173209428787,-0.24451565742492676,0.0014934113714843988,-0.00023443211102858186,-0.017958685755729675,0,0,-1000,2,0,-18,-2,3,-153,23362.0
00:24:10.177,AUTO,-35.3632619,149.1652366,23640,0.002765244571492076,0.0029933173209428787,-0.24451565742492676,0.0014934113714843988,-0.00023443211102858186,-0.017958685755729675,0,0,-1000,2,0,-18,-2,3,-153,23362.0
00:24:10.379,AUTO,-35.3632619,149.1652366,23640,0.002765244571492076,0.0029933173209428787,-0.24451565742492676,0.0014934113714843988,-0.00023443211102858186,-0.017958685755729675,0,0,-1000,2,0,-18,-2,3,-153,23362.0
00:24:10.581,AUTO,-35.3632619,149.1652367,24805,0.002909998409450054,0.0021030036732554436,-0.2582722008228302,0.00022155517945066094,0.0009629848063923419,-0.017214607447385788,0,0,-1000,1,1,-17,-2,3,-153,23362.0
00:24:10.782,AUTO,-35.363262,149.1652367,25192,-0.007057454902678728,0.0035850349813699722,-0.26017066836357117,-0.06637930870056152,0.012105947360396385,0.002975599840283394,0,0,-995,-65,13,2,-2,2,-152,23362.0
00:24:10.984,AUTO,-35.363262,149.1652367,25192,-0.007057454902678728,0.0035850349813699722,-0.26017066836357117,-0.06637930870056152,0.012105947360396385,0.002975599840283394,0,0,-995,-65,13,2,-2,2,-152,23362.0
00:24:11.185,AUTO,-35.363262,149.1652367,25577,-0.008673259988427162,0.005504203960299492,-0.25735723972320557,0.027427401393651962,0.0028989885468035936,0.016106367111206055,0,0,-1004,28,3,15,-3,0,-152,23362.0
00:24:11.386,AUTO,-35.3632621,149.1652367,25965,-0.0006245243130251765,0.004980969708412886,-0.2527157664299011,0.034795183688402176,-0.00407821498811245,0.02256198227405548,0,1,-1002,35,-3,22,-4,-1,-153,23362.0
00:24:11.588,AUTO,-35.3632621,149.1652366,26355,0.006302875466644764,0.003951258957386017,-0.24645085632801056,0.021994059905409813,-0.003380625043064356,0.028050050139427185,0,0,-1000,22,-2,27,-5,-1,-153,23362.0
00:24:11.790,AUTO,-35.3632622,149.1652366,26745,0.009923525154590607,0.0030239541083574295,-0.23961196839809418,0.006832037586718798,-0.004194688517600298,0.02619725652039051,0,0,-1000,7,-3,26,-5,0,-153,23362.0
00:24:11.992,AUTO,-35.3632622,149.1652366,26745,0.009923525154590607,0.0030239541083574295,-0.23961196839809418,0.006832037586718798,-0.004194688517600298,0.02619725652039051,0,0,-1000,7,-3,26,-5,0,-153,23362.0
00:24:12.193,AUTO,-35.3632622,149.1652366,26745,0.009923525154590607,0.0030239541083574295,-0.23961196839809418,0.006832037586718798,-0.004194688517600298,0.02619725652039051,0,0,-1000,7,-3,26,-5,0,-153,23362.0
00:24:12.395,AUTO,-35.3632622,149.1652366,26745,0.009923525154590607,0.0030239541083574295,-0.23961196839809418,0.006832037586718798,-0.004194688517600298,0.02619725652039051,0,0,-1000,7,-3,26,-5,0,-153,23362.0
00:24:12.597,AUTO,-35.3632624,149.1652366,27910,0.009640374220907688,0.0012922382447868586,-0.2200656533241272,-0.005666323471814394,0.0008856217027641833,0.025145769119262695,0,0,-999,-4,1,24,-2,6,-153,23362.0
00:24:12.798,AUTO,-35.3632624,149.1652368,28298,0.008065979927778244,0.0012329386081546545,-0.214345321059227,-0.003501575207337737,0.0012886489275842905,0.024008505046367645,1,0,-1000,-2,2,23,-2,7,-153,23362.0
00:24:13.000,AUTO,-35.3632624,149.1652368,28298,0.008065979927778244,0.0012329386081546545,-0.214345321059227,-0.003501575207337737,0.0012886489275842905,0.024008505046367645,1,0,-1000,-2,2,23,-2,7,-153,23362.0
00:24:13.206,AUTO,-35.3632624,149.1652369,28684,0.006167563144117594,0.0015681857476010919,-0.2089906930923462,-0.008676093071699142,0.000530693621840328,0.021927760913968086,0,-1,-1000,-8,1,21,-1,8,-153,23362.0
00:24:13.478,AUTO,-35.3632624,149.1652371,29072,0.004170335363596678,0.0018030947539955378,-0.20403023064136505,-0.007440558634698391,0.0015456227120012045,0.02109416015446186,1,0,-1000,-6,2,20,0,8,-153,23362.0
00:24:13.812,AUTO,-35.3632624,149.1652374,29847,0.001035965164192021,0.001838692813180387,-0.19423751533031464,-0.007577069103717804,-0.00028284837026149035,0.019534816965460777,0,-1,-1000,-6,0,19,0,8,-153,23362.0
00:24:14.027,AUTO,-35.3632624,149.1652374,29847,0.001035965164192021,0.001838692813180387,-0.19423751533031464,-0.007577069103717804,-0.00028284837026149035,0.019534816965460777,0,-1,-1000,-6,0,19,0,8,-153,23362.0
00:24:14.237,AUTO,-35.3632624,149.1652374,29847,0.001035965164192021,0.001838692813180387,-0.19423751533031464,-0.007577069103717804,-0.00028284837026149035,0.019534816965460777,0,-1,-1000,-6,0,19,0,8,-153,23362.0
00:24:14.442,AUTO,-35.3632624,149.1652374,29847,0.001035965164192021,0.001838692813180387,-0.19423751533031464,-0.007577069103717804,-0.00028284837026149035,0.019534816965460777,0,-1,-1000,-6,0,19,0,8,-153,23362.0
00:24:14.644,AUTO,-35.3632624,149.1652378,31012,-0.0005293628782965243,0.0015153457643464208,-0.18085362017154694,-0.003139793174341321,-0.00028666650177910924,0.015831634402275085,0,-1,-1000,-2,0,15,0,5,-153,23362.0
00:24:14.845,AUTO,-35.3632624,149.1652379,31400,-0.00042583124013617635,0.0014345725066959858,-0.1766059249639511,-0.0028364472091197968,2.718984615057707e-05,0.01637956127524376,0,-1,-1000,-2,1,16,0,4,-153,189857.0
00:24:15.046,AUTO,-35.3632624,149.1652379,31788,-1.2179895747976843e-05,0.001388261211104691,-0.17273233830928802,0.0031805657781660557,-0.0011554384836927056,0.0159277506172657,0,0,-1000,4,0,15,0,3,-153,189857.0
00:24:15.248,AUTO,-35.3632624,149.1652379,31788,-1.2179895747976843e-05,0.001388261211104691,-0.17273233830928802,0.0031805657781660557,-0.0011554384836927056,0.0159277506172657,0,0,-1000,4,0,15,0,3,-153,189857.0
00:24:15.449,AUTO,-35.3632623,149.1652379,32180,3.9988517528399825e-05,0.001215863972902298,-0.16882650554180145,-0.0027594254352152348,-0.0004071145667694509,0.014761711470782757,0,0,-1000,-1,0,14,0,2,-153,189857.0
00:24:15.651,AUTO,-35.3632623,149.165238,32568,0.00028324962477199733,0.0010462161153554916,-0.16505546867847443,0.003487562295049429,0.0014511067420244217,0.015693752095103264,0,0,-1000,4,2,15,0,2,-153,189857.0
00:24:15.853,AUTO,-35.3632623,149.165238,32957,0.0004985512350685894,0.0009285059059038758,-0.16140185296535492,0.0036603230983018875,0.00045995006803423166,0.015646355226635933,0,0,-1000,4,1,15,0,1,-153,189857.0
00:24:16.054,AUTO,-35.3632623,149.165238,32957,0.0004985512350685894,0.0009285059059038758,-0.16140185296535492,0.0036603230983018875,0.00045995006803423166,0.015646355226635933,0,0,-1000,4,1,15,0,1,-153,189857.0
00:24:16.256,AUTO,-35.3632623,149.165238,32957,0.0004985512350685894,0.0009285059059038758,-0.16140185296535492,0.0036603230983018875,0.00045995006803423166,0.015646355226635933,0,0,-1000,4,1,15,0,1,-153,189857.0
00:24:16.458,AUTO,-35.3632623,149.165238,32957,0.0004985512350685894,0.0009285059059038758,-0.16140185296535492,0.0036603230983018875,0.00045995006803423166,0.015646355226635933,0,0,-1000,4,1,15,0,1,-153,189857.0
00:24:16.659,AUTO,-35.3632623,149.165238,34121,0.001211049733683467,0.0013335163239389658,-0.15106016397476196,0.003595927730202675,0.0017641037702560425,0.013866822235286236,0,0,-1000,4,2,13,0,0,-153,189857.0
00:24:16.861,AUTO,-35.3632623,149.165238,34514,0.0013230500044301152,0.0012480405857786536,-0.14783968031406403,0.0009887096239253879,0.00014584162272512913,0.01296402420848608,0,0,-1000,2,1,12,0,0,-153,189857.0
00:24:17.062,AUTO,-35.3632622,149.1652379,34901,0.0015304085100069642,0.0013513093581423163,-0.1450120210647583,0.000722876051440835,0.0008354571764357388,0.009973878040909767,0,0,-1001,1,1,9,0,0,-153,189857.0
00:24:17.264,AUTO,-35.3632622,149.1652379,35289,0.0015376533847302198,0.0012780127581208944,-0.1421421468257904,-0.0005479634273797274,0.0019460292533040047,0.01148295123130083,0,0,-999,0,2,11,0,0,-153,189857.0
00:24:17.467,AUTO,-35.3632622,149.1652379,35289,0.0015376533847302198,0.0012780127581208944,-0.1421421468257904,-0.0005479634273797274,0.0019460292533040047,0.01148295123130083,0,0,-999,0,2,11,0,0,-153,189857.0
00:24:17.669,AUTO,-35.3632622,149.1652379,35678,0.0016817518044263124,0.0013447263045236468,-0.13949169218540192,0.0011837717611342669,-0.0011165887117385864,0.00996995810419321,0,0,-1001,2,0,9,0,0,-153,189857.0
00:24:17.903,AUTO,-35.3632622,149.1652378,36067,0.0020798712503165007,0.001100694527849555,-0.13682664930820465,-0.0012234181631356478,0.0006501301540993154,0.01185737457126379,0,0,-999,0,1,11,0,0,-153,189857.0
00:24:18.140,AUTO,-35.3632622,149.1652378,36067,0.0020798712503165007,0.001100694527849555,-0.13682664930820465,-0.0012234181631356478,0.0006501301540993154,0.01185737457126379,0,0,-999,0,1,11,0,0,-153,189857.0
00:24:18.368,AUTO,-35.3632622,149.1652378,36067,0.0020798712503165007,0.001100694527849555,-0.13682664930820465,-0.0012234181631356478,0.0006501301540993154,0.01185737457126379,0,0,-999,0,1,11,0,0,-153,189857.0
00:24:18.592,AUTO,-35.3632622,149.1652377,37226,0.0025975231546908617,0.001455278368666768,-0.1289156675338745,0.003465718822553754,0.0024937570560723543,0.00849095731973648,0,0,-1001,4,3,8,0,0,-153,189857.0
00:24:18.794,AUTO,-35.3632622,149.1652376,37615,0.002531402511522174,0.0015076237032189965,-0.1270027756690979,-0.001452203607186675,-0.00020256038988009095,0.009471097961068153,0,0,-1000,0,0,9,0,0,-153,189857.0
00:24:18.997,AUTO,-35.3632622,149.1652376,37615,0.002531402511522174,0.0015076237032189965,-0.1270027756690979,-0.001452203607186675,-0.00020256038988009095,0.009471097961068153,0,0,-1000,0,0,9,0,0,-153,189857.0
00:24:19.200,AUTO,-35.3632622,149.1652376,38003,0.002612703712657094,0.0015366548905149102,-0.12466441094875336,-0.001959408400580287,-0.0014891736209392548,0.008584079332649708,0,0,-1000,0,0,8,0,0,-153,189857.0
00:24:19.402,AUTO,-35.3632621,149.1652376,38391,0.0025179542135447264,0.0013895920710638165,-0.12247665971517563,-0.00039511662907898426,-0.0004487776313908398,0.009177258238196373,0,0,-1000,0,0,9,0,0,-153,103107.0
00:24:19.604,AUTO,-35.3632621,149.1652375,38780,0.00249819946475327,0.0013899554032832384,-0.12016456574201584,-0.0010656439699232578,0.001164199667982757,0.00991019792854786,0,0,-1000,0,2,9,0,0,-153,103107.0
00:24:19.805,AUTO,-35.3632621,149.1652375,39172,0.002458594273775816,0.0016378688160330057,-0.11818349361419678,-0.0005246535874903202,0.00043464743066579103,0.006879447028040886,0,0,-1001,0,1,6,0,0,-153,103107.0
00:24:20.007,AUTO,-35.3632621,149.1652375,39172,0.002458594273775816,0.0016378688160330057,-0.11818349361419678,-0.0005246535874903202,0.00043464743066579103,0.006879447028040886,0,0,-1001,0,1,6,0,0,-153,103107.0
00:24:20.218,AUTO,-35.3632621,149.1652375,39172,0.002458594273775816,0.0016378688160330057,-0.11818349361419678,-0.0005246535874903202,0.00043464743066579103,0.006879447028040886,0,0,-1001,0,1,6,0,0,-153,103107.0
00:24:20.420,AUTO,-35.3632621,149.1652375,39172,0.002458594273775816,0.0016378688160330057,-0.11818349361419678,-0.0005246535874903202,0.00043464743066579103,0.006879447028040886,0,0,-1001,0,1,6,0,0,-153,103107.0
00:24:20.622,AUTO,-35.3632621,149.1652374,40331,0.002321267267689109,0.001703735557384789,-0.11266978830099106,-0.0009143861243501306,0.000639050267636776,0.008659560233354568,0,0,-1000,0,1,8,0,0,-153,103107.0
00:24:20.823,AUTO,-35.3632621,149.1652374,40720,0.0022511703427881002,0.0013942796504125,-0.11107771098613739,0.001409052638337016,-0.0011035525240004063,0.006711512804031372,0,0,-1001,2,0,6,-1,0,-153,103107.0
00:24:21.025,AUTO,-35.3632621,149.1652374,41108,0.002184757497161627,0.0012211394496262074,-0.10922039300203323,-0.0007612246554344893,-0.001483930624090135,0.007475765887647867,0,0,-1000,0,0,7,-1,0,-153,103107.0
00:24:21.226,AUTO,-35.3632621,149.1652374,41108,0.002184757497161627,0.0012211394496262074,-0.10922039300203323,-0.0007612246554344893,-0.001483930624090135,0.007475765887647867,0,0,-1000,0,0,7,-1,0,-153,103107.0
00:24:21.428,AUTO,-35.3632621,149.1652374,41496,0.002072799252346158,0.0011710792314261198,-0.1074390709400177,-0.0035824442747980356,-0.00031782500445842743,0.008488631807267666,0,0,-999,-2,0,8,-1,0,-153,103107.0
00:24:21.630,AUTO,-35.3632621,149.1652374,41884,0.002097349613904953,0.0013153094332665205,-0.10572833567857742,0.0030279322527348995,0.0025975729804486036,0.007852045819163322,0,0,-1000,4,3,8,0,0,-153,103107.0
00:24:21.831,AUTO,-35.3632621,149.1652374,42273,0.0019943087827414274,0.0014794018352404237,-0.10407647490501404,-0.0006338520324788988,0.0005894886562600732,0.006821782328188419,0,0,-1001,0,1,6,-1,0,-153,103107.0
00:24:22.033,AUTO,-35.3632621,149.1652374,42273,0.0019943087827414274,0.0014794018352404237,-0.10407647490501404,-0.0006338520324788988,0.0005894886562600732,0.006821782328188419,0,0,-1001,0,1,6,-1,0,-153,103107.0
00:24:22.235,AUTO,-35.3632621,149.1652374,42273,0.0019943087827414274,0.0014794018352404237,-0.10407647490501404,-0.0006338520324788988,0.0005894886562600732,0.006821782328188419,0,0,-1001,0,1,6,-1,0,-153,103107.0
00:24:22.438,AUTO,-35.3632621,149.1652374,42273,0.0019943087827414274,0.0014794018352404237,-0.10407647490501404,-0.0006338520324788988,0.0005894886562600732,0.006821782328188419,0,0,-1001,0,1,6,-1,0,-153,103107.0
00:24:22.640,AUTO,-35.3632621,149.1652373,43437,0.0021308267023414373,0.0016923234798014164,-0.0995919331908226,-0.0012983654160052538,5.587562918663025e-05,0.005291565787047148,0,0,-1000,0,1,5,-1,1,-153,103107.0
00:24:22.841,AUTO,-35.363262,149.1652373,43829,0.0021880436688661575,0.0015887974295765162,-0.09791398048400879,-0.0003104561474174261,-0.00027422740822657943,0.008135084994137287,0,0,-1000,0,0,8,-1,1,-153,103107.0
00:24:23.043,AUTO,-35.363262,149.1652373,44216,0.0021081846207380295,0.001329159247688949,-0.09636575728654861,0.0023778793402016163,-0.0014635194092988968,0.006576492451131344,0,0,-1001,3,0,6,-1,1,-153,103107.0
00:24:23.246,AUTO,-35.363262,149.1652373,44216,0.0021081846207380295,0.001329159247688949,-0.09636575728654861,0.0023778793402016163,-0.0014635194092988968,0.006576492451131344,0,0,-1001,3,0,6,-1,1,-153,103107.0
00:24:23.495,AUTO,-35.363262,149.1652373,44603,-0.002113485476002097,0.004725765902549028,-0.08727522194385529,-0.05961127206683159,0.0522732250392437,0.11742576956748962,0,0,-975,-58,53,117,-1,0,-151,103107.0
00:24:23.756,AUTO,-35.363262,149.1652373,44976,-0.02610589750111103,0.031028572469949722,-0.025750601664185524,-0.12911149859428406,0.12755729258060455,0.3637527525424957,0,0,-971,-127,128,363,-5,-2,-143,103107.0
00:24:23.999,AUTO,-35.3632622,149.165237,45332,-0.057234831154346466,0.06722409278154373,0.09955857694149017,-0.14484210312366486,0.09404027462005615,0.5817253589630127,1,2,-971,-143,95,581,-16,-13,-136,103107.0
00:24:24.216,AUTO,-35.3632622,149.165237,45332,-0.057234831154346466,0.06722409278154373,0.09955857694149017,-0.14484210312366486,0.09404027462005615,0.5817253589630127,1,2,-971,-143,95,581,-16,-13,-136,103107.0
00:24:24.447,AUTO,-35.3632622,149.165237,45332,-0.057234831154346466,0.06722409278154373,0.09955857694149017,-0.14484210312366486,0.09404027462005615,0.5817253589630127,1,2,-971,-143,95,581,-16,-13,-136,103107.0
00:24:24.665,AUTO,-35.363264,149.1652344,46211,-0.0005850009620189667,-0.03183713182806969,0.2891470193862915,0.09288083016872406,-0.11226234585046768,0.06248848885297775,4,10,-951,93,-111,62,-27,-37,-95,103107.0
00:24:24.866,AUTO,-35.3632645,149.1652335,46438,0.020824894309043884,-0.050454653799533844,0.29585695266723633,0.0908871591091156,-0.0448867566883564,0.010789813473820686,2,10,-959,91,-43,11,-18,-29,-84,103107.0
00:24:25.068,AUTO,-35.3632647,149.1652328,46638,0.03470039740204811,-0.055446211248636246,0.29325002431869507,0.0675153061747551,-0.0017346357926726341,-0.018201688304543495,0,7,-964,68,0,-18,-7,-18,-74,103107.0
00:24:25.270,AUTO,-35.3632648,149.1652324,46815,0.03944767639040947,-0.051355715841054916,0.2864035367965698,-0.059256430715322495,0.02675469033420086,-0.02980220317840576,0,-1,-969,-58,28,-29,1,-5,-65,24120.0
00:24:25.472,AUTO,-35.3632648,149.1652324,46815,0.03944767639040947,-0.051355715841054916,0.2864035367965698,-0.059256430715322495,0.02675469033420086,-0.02980220317840576,0,-1,-969,-58,28,-29,1,-5,-65,24120.0
00:24:25.674,AUTO,-35.3632647,149.1652324,46970,0.03888033330440521,-0.04232396185398102,0.27781638503074646,-0.03302702307701111,0.04067571833729744,-0.03438480570912361,-1,2,-974,-31,41,-34,9,6,-58,24120.0
00:24:25.876,AUTO,-35.3632645,149.1652325,47109,0.04110885411500931,-0.03132111579179764,0.26870816946029663,0.2694390118122101,0.042428210377693176,-0.0357203334569931,-1,4,-976,270,43,-35,15,15,-52,24120.0
00:24:26.078,AUTO,-35.3632645,149.1652325,47109,0.04110885411500931,-0.03132111579179764,0.26870816946029663,0.2694390118122101,0.042428210377693176,-0.0357203334569931,-1,4,-976,270,43,-35,15,15,-52,24120.0
00:24:26.280,AUTO,-35.3632645,149.1652325,47109,0.04110885411500931,-0.03132111579179764,0.26870816946029663,0.2694390118122101,0.042428210377693176,-0.0357203334569931,-1,4,-976,270,43,-35,15,15,-52,24120.0
00:24:26.482,AUTO,-35.3632645,149.1652325,47109,0.04110885411500931,-0.03132111579179764,0.26870816946029663,0.2694390118122101,0.042428210377693176,-0.0357203334569931,-1,4,-976,270,43,-35,15,15,-52,24120.0
00:24:26.684,AUTO,-35.3632631,149.1652344,47423,0.014757377095520496,-0.001419647946022451,0.24227531254291534,0.05231773480772972,0.02928653545677662,-0.02452864870429039,-2,12,-979,54,30,-24,20,31,-34,24120.0
00:24:26.885,AUTO,-35.3632626,149.1652352,47501,0.01705390028655529,0.005648205988109112,0.23459285497665405,0.5060240626335144,0.02236674353480339,-0.02535473369061947,-2,11,-996,507,23,-25,19,31,-29,24120.0
00:24:27.087,AUTO,-35.3632622,149.165236,47567,0.010195123963057995,0.01057868730276823,0.22793270647525787,-0.05031288415193558,0.015650583431124687,-0.03003866598010063,-1,-22,-956,-50,17,-29,17,29,-23,24120.0
00:24:27.289,AUTO,-35.3632618,149.1652368,47618,-0.008962473832070827,0.013895307667553425,0.22165262699127197,-0.739825963973999,0.00929254014045,-0.022655997425317764,0,-36,-971,-739,10,-22,14,27,-17,24120.0
00:24:27.491,AUTO,-35.3632618,149.1652368,47618,-0.008962473832070827,0.013895307667553425,0.22165262699127197,-0.739825963973999,0.00929254014045,-0.022655997425317764,0,-36,-971,-739,10,-22,14,27,-17,24120.0
00:24:27.693,AUTO,-35.3632615,149.1652375,47652,-0.014312268234789371,0.015531100332736969,0.21547532081604004,-0.3438296616077423,0.005771801806986332,-0.01837531104683876,0,-5,-976,-341,6,-18,11,24,-12,24120.0
00:24:27.894,AUTO,-35.3632613,149.1652381,47669,-0.008539979346096516,0.01608697511255741,0.2095118761062622,0.27573859691619873,-0.001184033346362412,-0.02290881797671318,0,33,-964,278,0,-22,8,21,-4,24120.0
00:24:28.096,AUTO,-35.3632613,149.1652381,47669,-0.008539979346096516,0.01608697511255741,0.2095118761062622,0.27573859691619873,-0.001184033346362412,-0.02290881797671318,0,33,-964,278,0,-22,8,21,-4,24120.0
00:24:28.299,AUTO,-35.3632613,149.1652381,47669,-0.008539979346096516,0.01608697511255741,0.2095118761062622,0.27573859691619873,-0.001184033346362412,-0.02290881797671318,0,33,-964,278,0,-22,8,21,-4,24120.0
00:24:28.502,AUTO,-35.3632613,149.1652381,47669,-0.008539979346096516,0.01608697511255741,0.2095118761062622,0.27573859691619873,-0.001184033346362412,-0.02290881797671318,0,33,-964,278,0,-22,8,21,-4,24120.0
00:24:28.703,AUTO,-35.3632612,149.1652386,47580,-0.02179010584950447,-0.003917609341442585,0.19147269427776337,0.800184965133667,-0.12511204183101654,-0.012061926536262035,0,35,-1002,801,-123,-11,-4,-4,14,24120.0
00:24:28.905,AUTO,-35.3632611,149.1652383,47541,-0.01403739396482706,-0.028940709307789803,0.18906639516353607,0.6053376197814941,-0.07997357100248337,-0.0053471047431230545,-1,20,-1028,605,-78,-5,0,-11,12,24120.0
00:24:29.113,AUTO,-35.3632611,149.1652377,47513,-0.01456762570887804,-0.047184959053993225,0.18568021059036255,-0.20598389208316803,-0.06847867369651794,-0.013632010668516159,-5,-20,-1026,-205,-67,-13,10,-16,7,24120.0
00:24:29.332,AUTO,-35.3632607,149.165237,47491,-0.02283472940325737,-0.06227349862456322,0.18100175261497498,-0.6581432819366455,-0.058275818824768066,-0.009188384748995304,-9,-36,-972,-657,-56,-9,22,-18,7,24120.0
00:24:29.570,AUTO,-35.36326,149.1652363,47468,-0.02760419435799122,-0.07633645087480545,0.17531530559062958,-0.6812410354614258,-0.04861462488770485,-0.016610872000455856,-12,-24,-1013,-679,-47,-16,37,-21,6,24120.0
00:24:29.807,AUTO,-35.363259,149.1652354,47449,-0.022189846262335777,-0.0885288417339325,0.14731353521347046,-0.20519404113292694,-0.04481076821684837,-0.2852192223072052,-15,11,-1021,-203,-43,-284,54,-22,5,24120.0
00:24:30.012,AUTO,-35.363259,149.1652354,47449,-0.022189846262335777,-0.0885288417339325,0.14731353521347046,-0.20519404113292694,-0.04481076821684837,-0.2852192223072052,-15,11,-1021,-203,-43,-284,54,-22,5,24120.0
00:24:30.242,AUTO,-35.363259,149.1652354,47449,-0.022189846262335777,-0.0885288417339325,0.14731353521347046,-0.20519404113292694,-0.04481076821684837,-0.2852192223072052,-15,11,-1021,-203,-43,-284,54,-22,5,24120.0
00:24:30.447,AUTO,-35.363259,149.1652354,47449,-0.022189846262335777,-0.0885288417339325,0.14731353521347046,-0.20519404113292694,-0.04481076821684837,-0.2852192223072052,-15,11,-1021,-203,-43,-284,54,-22,5,24120.0
00:24:30.649,AUTO,-35.3632534,149.1652322,47387,0.028732405975461006,-0.12106185406446457,-0.16439054906368256,0.5726504921913147,-0.046226054430007935,-0.09281390905380249,-27,12,-992,573,-45,-92,116,-32,8,24120.0
00:24:30.851,AUTO,-35.3632506,149.1652309,47359,0.026517577469348907,-0.13408274948596954,-0.1728697121143341,0.04069622606039047,-0.05110911279916763,0.04350382834672928,-32,-36,-991,41,-49,43,138,-38,11,19521.0
00:24:31.054,AUTO,-35.3632472,149.1652295,47325,0.019387902691960335,-0.1452670693397522,-0.16629481315612793,-0.40541380643844604,-0.047887809574604034,0.08139416575431824,-36,-50,-984,-405,-46,81,164,-43,13,19521.0
00:24:31.256,AUTO,-35.3632472,149.1652295,47325,0.019387902691960335,-0.1452670693397522,-0.16629481315612793,-0.40541380643844604,-0.047887809574604034,0.08139416575431824,-36,-50,-984,-405,-46,81,164,-43,13,19521.0
00:24:31.458,AUTO,-35.3632433,149.1652279,47285,0.011684118770062923,-0.15676799416542053,-0.1585220992565155,-0.5603224635124207,-0.041644636541604996,0.038699161261320114,-44,-41,-999,-558,-40,39,190,-50,13,19521.0
00:24:31.660,AUTO,-35.3632387,149.1652262,47242,0.014696134254336357,-0.1687193214893341,-0.15369318425655365,-0.14197808504104614,-0.05009700730443001,0.0017421136144548655,-48,-26,-1001,-139,-48,2,218,-56,16,19521.0
00:24:31.861,AUTO,-35.3632336,149.1652243,47193,0.023167256265878677,-0.18206383287906647,-0.15231648087501526,0.5606622695922852,-0.05427449196577072,-0.0077024586498737335,-61,-4,-992,562,-53,-6,247,-64,19,19521.0
00:24:32.063,AUTO,-35.3632336,149.1652243,47193,0.023167256265878677,-0.18206383287906647,-0.15231648087501526,0.5606622695922852,-0.05427449196577072,-0.0077024586498737335,-61,-4,-992,562,-53,-6,247,-64,19,19521.0
00:24:32.265,AUTO,-35.3632336,149.1652243,47193,0.023167256265878677,-0.18206383287906647,-0.15231648087501526,0.5606622695922852,-0.05427449196577072,-0.0077024586498737335,-61,-4,-992,562,-53,-6,247,-64,19,19521.0
00:24:32.467,AUTO,-35.3632336,149.1652243,47193,0.023167256265878677,-0.18206383287906647,-0.15231648087501526,0.5606622695922852,-0.05427449196577072,-0.0077024586498737335,-61,-4,-992,562,-53,-6,247,-64,19,19521.0
00:24:32.669,AUTO,-35.363214,149.1652175,47008,0.015889322385191917,-0.18682600557804108,-0.1582336276769638,-0.49204668402671814,-0.03948530927300453,0.004838294815272093,-68,-52,-991,-490,-38,5,332,-90,25,19521.0
00:24:32.871,AUTO,-35.3632063,149.1652148,46938,0.01823435164988041,-0.1966671645641327,-0.16256313025951385,-0.0757729634642601,-0.055849116295576096,-0.045420996844768524,-79,-32,-998,-73,-54,-44,357,-98,27,19521.0
