time_stamp,MODE,roll,pitch,yaw,rollspeed,pitchspeed,yawspeed,lat,lon,relative_alt,vx,vy,vz,xacc,yacc,zacc,xgyro,ygyro,zgyro,RTL_ALT
10:48:13,STABILIZE,-9.97494851162628e-07,0.0016346743213944137,0.028080064803361893,0.0002462816919432953,7.497840852010995e-05,0.002346790162846446,-35.3632621,149.1652374,0.0,-1.0,1.0,0.0,0.0,1.0,-1000.0,0.0,0.0,0.0,1500.0
10:48:15,STABILIZE,-0.00034349318593740463,0.001397740445099771,0.026770692318677902,0.00024177023442462087,0.00018826033920049667,0.0021513288374990225,-35.3632622,149.1652375,0.0,-2.0,2.0,2.0,0.0,1.0,-1000.0,0.0,0.0,0.0,1500.0
10:48:26,AUTO,-0.0008802701874325672,0.0009559319781449934,0.0227646604180336,0.0002565407970299323,0.0001864205114543438,0.001597361600336929,-35.3632622,149.1652376,0.6666666666666666,-1.0,2.0,1.0,0.0,2.0,-1000.0,0.0,0.5,0.5,258538.0
10:48:27,AUTO,-0.0009947229991666973,0.0009592097194399685,0.022597936913371086,0.00026581037673167884,0.00024393349303863943,0.0016460700426250696,-35.3632622,149.16523755,0.5,-1.0,1.0,1.0,0.0,1.0,-1000.0,0.0,1.0,0.0,258538.0
10:48:29,AUTO,-0.000455804358352907,0.0013731319340877235,0.02205937448889017,0.00026902210083790123,0.00033039634581655264,0.0015339474193751812,-35.3632621,149.1652375,0.0,0.0,0.0,3.0,0.0,1.5,-1000.0,0.0,0.0,0.5,219040.0
10:48:31,AUTO,0.004016880644485354,0.0005573522721533664,0.02165224403142929,-0.0024130469537340105,0.004181197844445705,0.0009715998894535005,-35.3632621,149.1652375,271.5,0.0,1.0,-80.5,0.0,0.0,-1118.5,-2.0,4.5,0.0,179542.0
10:48:32,AUTO,0.03664411744102836,-0.0037384589959401637,0.021502794697880745,0.04337231442332268,-0.008821927360258996,0.0029922290123067796,-35.363261924999996,149.1652381,1922.75,2.0,15.0,-146.25,0.25,-2.0,-1007.75,43.5,-7.75,2.0,55967.0
10:48:33,AUTO,0.05383389815688133,-0.0005793166346848011,-0.01621829718351364,-0.04984372295439243,0.054173720302060246,-0.06901704799383879,-35.3632615,149.16524035,3077.0,9.0,45.5,-146.5,2.0,-8.5,-992.5,-49.0,54.5,-69.0,55967.0
10:48:35,AUTO,-0.060058800503611565,-0.01021744217723608,-0.10124323144555092,0.05240093730390072,-0.015839576721191406,0.005001963581889868,-35.363261800000004,149.1652456,6142.5,-11.0,-29.5,-149.5,-0.5,5.5,-1002.5,52.5,-14.5,4.0,141912.5
10:48:37,AUTO,0.05076438933610916,-0.011697172652930021,-0.08301349729299545,-0.0022058882750570774,-0.05226163845509291,0.06307568028569221,-35.3632629,149.16523595,9255.0,-0.5,-17.0,-152.5,-2.5,5.0,-997.5,-1.5,-51.0,62.5,227858.0
10:48:38,AUTO,-0.0006909542535140645,0.0038352750707417727,-0.08943190425634384,-0.020845681356149726,0.032749265199527144,-0.045209137722849846,-35.363261625,149.16523554999998,11190.75,18.0,2.75,-151.0,-3.0,-3.0,-1002.0,-19.75,32.75,-45.25,97132.0
10:48:39,AUTO,-0.002981984813231975,0.016728862188756466,-0.12012974172830582,0.011865572072565556,0.004001146327937022,-0.025411232374608517,-35.363260600000004,149.1652355,12357.0,8.0,-2.0,-152.5,-2.5,-1.0,-1000.5,12.0,4.0,-25.5,97132.0
10:48:41,AUTO,0.007156309671700001,0.0056818146258592606,-0.14145806431770325,-0.0039364047115668654,-0.006112138042226434,-0.0090043805539608,-35.363261,149.16523525000002,15472.0,-10.0,5.5,-153.0,1.0,0.0,-1000.0,-3.0,-5.0,-9.0,82813.5
10:48:43,AUTO,-0.0348721481859684,0.037751720286905766,0.010449632070958614,0.09645537100732327,-0.06957116071134806,0.30820856243371964,-35.3632626,149.165234,18512.5,-24.5,-35.5,-133.5,0.0,8.0,-959.0,96.5,-68.5,307.0,68495.0
10:48:44,AUTO,0.05918861459940672,-0.0331906764768064,0.05748749617487192,-0.012018749373964965,0.01790842053014785,-0.02387236850336194,-35.363264625,149.16523085,19861.5,-3.0,9.25,-82.75,0.75,0.0,-967.75,-11.0,18.5,-23.75,99443.0
10:48:45,AUTO,0.031686464324593544,-0.010196889517828822,0.04988890700042248,-0.04880181699991226,0.033974962309002876,0.0030583192128688097,-35.3632642,149.1652326,20414.0,14.5,38.5,-61.0,0.5,-8.5,-975.5,-47.5,34.0,2.0,99443.0
10:48:47,AUTO,-0.012102975510060787,0.013938013929873705,0.04566184803843498,0.0034165550023317337,-0.003822926082648337,-0.003233078634366393,-35.3632615,149.1652396,21164.5,4.5,15.5,-12.5,0.0,-5.0,-970.0,4.0,-2.5,-3.5,155983.0
10:48:49,AUTO,0.07331221923232079,-0.04980666935443878,0.039523178711533546,0.4785553440451622,-0.02627937961369753,0.03332399087958038,-35.363260499999996,149.1652402,20940.5,27.0,24.0,2.0,-0.5,0.0,-1014.0,478.5,-24.5,33.0,212523.0
10:48:50,AUTO,0.033892865816596895,-0.11804495006799698,0.7134946659207344,0.07180885970592499,-0.02439367910847068,0.5749895945191383,-35.363253675,149.165250175,20920.5,97.0,107.0,-3.5,-27.0,-24.0,-1007.75,72.25,-23.25,574.0,226401.0
10:48:51,AUTO,0.007038380717858672,-0.15216968208551407,0.9784896671772003,0.26113995909690857,-0.04813032038509846,-0.0317831514403224,-35.363245750000004,149.1652623,20925.0,149.0,166.0,-3.5,-47.5,-21.5,-1004.5,261.5,-46.5,-32.0,226401.0
10:48:53,AUTO,0.05493583157658577,-0.17149167507886887,0.9090026021003723,-0.010068436153233051,0.03072128165513277,-0.003036308800801635,-35.36320515,149.1653207,20965.0,295.5,330.5,-8.0,-93.0,-52.5,-1007.5,-9.5,31.0,-3.5,246778.5
10:48:55,AUTO,0.06935516744852066,-0.1345662623643875,0.9040147364139557,-0.0022639594972133636,0.018952124752104282,0.0026868233107961714,-35.36314505,149.16540809999998,21157.5,357.5,426.0,-11.0,-118.0,-62.0,-994.0,-2.0,19.5,2.0,267156.0
10:48:56,AUTO,0.07511945627629757,-0.10040218755602837,0.9015785604715347,-0.0022411580430343747,0.011028091714251786,0.0006879327556816861,-35.363104074999995,149.165469225,21293.0,367.5,440.25,-11.25,-111.75,-69.75,-987.25,-2.0,11.75,0.25,55346.0
10:48:57,AUTO,0.07636894658207893,-0.09253348782658577,0.8998287618160248,0.007476448081433773,0.058927565813064575,0.004087187931872904,-35.36307935,149.16550615,21360.5,366.0,438.0,-6.5,-119.0,-66.5,-996.0,7.5,59.5,3.0,55346.0
10:48:59,AUTO,0.06796757504343987,0.002337036654353142,0.9000933170318604,0.005306370556354523,0.0513581819832325,-0.000709463085513562,-35.3630183,149.16559755,21539.0,302.0,362.5,-6.5,-92.5,-60.5,-991.5,5.5,52.0,-1.0,72929.5
10:49:01,AUTO,0.04074789024889469,0.08047131821513176,0.898441731929779,0.4374113604426384,0.004457842616830021,-0.01566345989704132,-35.362976599999996,149.1656607,21570.5,154.0,190.0,4.0,-48.0,-2.5,-1010.0,437.5,5.0,-15.0,90513.0
10:49:02,AUTO,0.014662380097433925,0.07490228954702616,0.8974267393350601,0.08146740961819887,-0.030937468633055687,0.0021059868740849197,-35.362964725,149.16568,21550.0,72.75,84.5,2.0,-22.5,-12.25,-1004.75,81.5,-29.5,2.0,66483.0
10:49:03,AUTO,0.0008519315888406709,0.0546838603913784,0.8969534635543823,-0.42853347212076187,-0.019745579920709133,0.0017285459907725453,-35.362961049999996,149.16568569999998,21546.0,40.5,40.0,1.0,-12.0,-21.5,-1006.0,-427.5,-18.0,1.5,66483.0
10:49:05,AUTO,-0.0018011301290243864,0.013291657902300358,0.8960364758968353,-0.478502556681633,-0.026049716398119926,-0.002006429247558117,-35.3629583,149.16568845,21556.0,0.5,-8.0,0.0,0.0,-19.0,-998.0,-478.0,-24.5,-1.5,66483.0
10:49:06,RTL,0.006074843753594905,-0.00803023180924356,0.8945866972208023,0.025919057428836823,0.000138165894895792,-0.0005654260603478178,-35.362958125000006,149.165688325,21558.25,5.5,-1.0,0.5,-1.0,-1.0,-999.5,26.0,1.75,-0.5,285245.0
10:49:07,RTL,0.005355989080271684,0.012174648232758045,0.8941449224948883,-0.32248251512646675,0.030804754234850407,-0.004289981909096241,-35.3629576,149.16568884999998,21557.5,8.0,5.5,-1.0,-3.0,-23.5,-1008.5,-322.5,31.5,-3.0,285245.0
10:49:09,RTL,0.002097277028951794,0.011430819518864155,0.8908491134643555,-0.050455618649721146,-0.0030620627803727984,0.00031661742832511663,-35.362957,149.1656898,22178.0,-0.5,-6.0,-69.5,0.0,-0.5,-1043.5,-50.5,-1.5,0.5,22479.0
10:49:11,RTL,0.024961361661553383,0.004439717042259872,0.8879749178886414,0.05041891150176525,-0.007043592166155577,0.0006439829594455659,-35.3629568,149.16568895,24468.5,-5.5,-1.5,-146.5,0.0,0.5,-1013.5,50.0,-5.5,0.5,22479.0
10:49:12,RTL,0.04431789694353938,0.010491163411643356,0.8669947385787964,-0.08242693915963173,0.025831206003203988,-0.05516506504500285,-35.362958275,149.16569085,26375.5,-35.0,34.0,-147.25,2.75,-9.25,-995.5,-82.5,27.25,-54.5,11798.0
10:49:13,RTL,-0.05373063124716282,0.018251463305205107,0.8218953907489777,-0.09643261693418026,-0.02546125091612339,-0.03688226081430912,-35.36296025,149.1656935,27507.5,-29.5,22.5,-148.0,4.5,-7.0,-1008.5,-96.0,-24.0,-35.5,11798.0
10:49:15,RTL,0.01692397752776742,0.011153189931064844,0.7936389446258545,0.06837499141693115,0.008383368840441108,0.0009776611695997417,-35.36295705,149.16568855,30600.0,25.5,-39.0,-152.5,-5.0,12.5,-1003.5,68.0,9.5,1.0,297813.0
10:49:17,RTL,0.00655177200678736,-0.007893297530245036,0.8261897265911102,-0.029463584534823895,0.048280004411935806,-0.052344849333167076,-35.362955549999995,149.16568515,33720.0,-3.0,23.5,-150.5,-0.5,-4.5,-1002.0,-29.0,49.0,-51.0,297813.0
10:49:18,RTL,0.006105975626269355,0.019342987798154354,0.7664564251899719,0.015019795391708612,0.006840296497102827,-0.030434079468250275,-35.36295455,149.165687075,35669.5,2.25,9.5,-152.75,-2.25,-0.75,-1000.5,15.0,7.75,-29.5,33574.0
10:49:19,RTL,0.015223346650600433,0.02062782645225525,0.7494655251502991,0.011634847149252892,-0.0027222688077017665,-0.012598047032952309,-35.3629541,149.1656873,36845.0,-4.5,2.5,-153.0,-0.5,0.0,-1000.0,12.0,-1.0,-11.0,33574.0
10:49:21,RTL,0.007331484695896506,0.007789782015606761,0.7227966785430908,-0.0006923121691215783,-0.003891067346557975,-0.01998896524310112,-35.3629552,149.1656872,39959.5,-15.5,3.0,-153.0,1.5,0.0,-1000.5,0.0,-2.0,-18.5,96223.0
10:49:23,RTL,0.007784482557326555,0.00739298528060317,0.6723403930664062,0.005030671483837068,0.0021666050306521356,-0.02588802482932806,-35.3629562,149.1656873,43074.5,-7.0,3.5,-153.0,0.0,0.0,-1000.5,5.5,3.5,-24.5,96223.0
10:49:24,RTL,0.00818110117688775,0.00939601892605424,0.6398025304079056,0.0008175008406396955,0.0005148382915649563,-0.022788638714700937,-35.362956350000005,149.165687475,45029.75,-6.0,3.75,-153.0,0.0,0.0,-1000.0,1.0,1.5,-21.25,73189.0
10:49:25,RTL,0.007444628514349461,0.009496298618614674,0.6222254931926727,0.0015536451828666031,0.0006015783874318004,-0.021271811798214912,-35.3629565,149.1656876,46201.0,-6.0,3.0,-153.0,0.0,0.0,-1000.0,1.5,2.0,-20.0,73189.0
10:49:27,RTL,0.0097435861825943,0.01188493613153696,0.6136149168014526,-0.001836974872276187,-0.001172545540612191,0.024420552887022495,-35.36295685,149.1656879,49313.0,-8.5,3.0,-153.0,0.0,0.0,-1000.0,-0.5,0.5,25.0,259738.0
10:49:29,RTL,0.004995452472940087,0.006643039174377918,0.6672528982162476,0.00135167152620852,-0.00034653241164050996,0.024202891625463963,-35.36295765,149.1656882,52413.5,-5.5,2.0,-153.0,0.0,0.0,-999.5,2.0,0.5,25.0,259738.0
10:49:30,RTL,0.006079869344830513,0.006419486366212368,0.6923376619815826,0.0015052278467919677,0.00040181816439144313,0.01894724043086171,-35.3629577,149.16568815,54356.5,-2.25,2.0,-153.0,0.0,0.0,-1000.0,2.6666666666666665,2.0,19.666666666666668,206436.0
10:49:31,RTL,0.006975348107516766,0.006757144117727876,0.7053892910480499,0.002841038745827973,0.0006161361816339195,0.01759960036724806,-35.3629577,149.1656881,55521.0,-1.0,2.0,-153.0,0.0,0.0,-1000.3333333333334,2.6666666666666665,1.0,18.333333333333332,206436.0
10:49:33,RTL,0.008433368057012558,0.007793978787958622,0.7338436841964722,0.003107000607997179,0.0016328454948961735,0.01322152093052864,-35.3629574,149.1656881,58623.0,-2.0,2.0,-153.0,0.0,0.0,-1000.0,4.0,3.0,14.0,127413.0
10:49:35,RTL,0.0072135410737246275,0.007431527366861701,0.7552641332149506,0.0022399351582862437,0.0005786340334452689,0.009296547388657928,-35.3629572,149.1656881,61726.0,-3.0,2.0,-153.0,0.0,0.0,-1000.0,3.0,2.0,10.0,127413.0
10:49:36,RTL,0.007281427038833499,0.0075642510782927275,0.7658098638057709,1.1184762115590274e-05,0.000616973324213177,0.008024509297683835,-35.3629572,149.1656881,63667.0,-3.0,2.0,-153.0,0.0,0.0,-999.75,1.0,1.75,8.75,183689.0
10:49:37,RTL,0.0069418714847415686,0.007537991739809513,0.771329939365387,0.00023667316418141127,0.0003644925309345126,0.00788125698454678,-35.3629572,149.1656881,64831.0,-3.0,2.0,-153.0,0.0,0.0,-999.5,1.0,2.0,9.0,183689.0
10:49:39,RTL,0.006554345600306988,0.00792952487245202,0.7843503057956696,0.00015046424232423306,-0.0007138154469430447,0.006520450115203857,-35.3629571,149.1656882,67940.0,-3.0,1.5,-153.0,0.0,0.0,-1000.0,1.0,0.5,7.0,236662.0
10:49:41,RTL,0.00610825908370316,0.008090096060186625,0.7956820726394653,0.002411898458376527,0.0010880943154916167,0.006171762244775891,-35.3629571,149.1656883,71045.0,-3.0,1.0,-153.0,0.0,0.0,-1000.0,3.5,2.0,7.0,236662.0
10:49:42,RTL,0.006111233650396268,0.007881939721604189,0.8015610376993815,-0.0005630260954300562,0.0006692160774643222,0.005349291954189539,-35.3629571,149.1656883,72791.33333333333,-3.0,0.0,-153.0,0.0,0.0,-999.3333333333334,1.0,2.0,6.333333333333333,104107.0
10:49:43,RTL,0.006068626573930184,0.007922448217868805,0.8048136830329895,0.0005287069361656904,0.00024720494790623587,0.004695125700285037,-35.3629571,149.1656883,73963.33333333333,-3.0,0.0,-153.0,0.0,0.0,-1000.0,2.0,1.3333333333333333,5.666666666666667,104107.0
10:49:45,RTL,0.006187636172398925,0.007542357547208667,0.8148686289787292,0.00032656086841598153,0.0006664451793767512,0.005584705155342817,-35.3629571,149.1656883,77254.5,-2.0,0.0,-153.0,0.0,0.0,-999.5,1.5,1.5,6.0,269332.0
10:49:47,RTL,0.005986622069031,0.007583731785416603,0.8218143781026205,-0.0007779372002308568,-0.0006435463049759468,0.0044803074561059475,-35.3629571,149.1656883,80174.0,-2.0,0.0,-153.0,0.0,0.0,-1000.0,0.6666666666666666,0.6666666666666666,5.333333333333333,269332.0
10:49:48,RTL,0.006075247656553984,0.007895866564164558,0.8260440230369568,0.0007885244364539782,0.0014181968678409855,0.002839559727969269,-35.3629571,149.1656883,82118.0,-2.0,0.0,-153.0,0.0,0.0,-999.6666666666666,2.0,2.6666666666666665,3.6666666666666665,117646.0
10:49:49,RTL,0.006070134385178487,0.007823752394566933,0.8284183144569397,0.0017064646429692705,0.0010117473624025781,0.0035672783851623535,-35.3629571,149.1656883,83284.0,-2.0,0.0,-153.0,0.0,0.0,-1000.3333333333334,2.6666666666666665,2.3333333333333335,4.666666666666667,117646.0
10:49:51,RTL,0.005781097648044427,0.0080360130717357,0.8339350620905558,0.001207641907967627,-0.0008823862299323082,0.003505970429008206,-35.3629571,149.1656884,86387.66666666667,-2.0,0.0,-153.0,0.0,0.0,-1000.0,2.6666666666666665,0.6666666666666666,4.333333333333333,55634.0
10:49:53,RTL,0.005726431651661794,0.007879135043670734,0.8391275405883789,-0.000603359192609787,-0.0001825291741018494,0.0035751417744904757,-35.3629571,149.1656884,89490.66666666667,-2.0,0.0,-153.0,0.0,0.0,-999.6666666666666,1.3333333333333333,1.0,5.0,55634.0
10:49:54,RTL,0.005644617602229118,0.007999990756313006,0.8416240612665812,-0.00032031947436432046,-1.9507482647895813e-05,0.0036529987895240388,-35.3629571,149.1656884,91431.0,-2.0,0.0,-153.0,0.0,0.0,-999.6666666666666,1.0,1.3333333333333333,4.666666666666667,144354.0
10:49:55,RTL,0.005616559957464536,0.007771988088885943,0.8432350754737854,0.0007953303089986244,-0.0002313378887871901,0.0047930592360595865,-35.3629571,149.1656884,92595.0,-2.0,0.0,-153.0,0.0,0.0,-999.6666666666666,2.6666666666666665,1.0,6.0,144354.0
10:49:57,RTL,0.005361724800119798,0.00819287821650505,0.8471776247024536,0.0005515272108217081,0.0003236441019301613,0.0021829665638506413,-35.3629571,149.1656884,95705.0,-2.0,0.0,-153.0,0.0,0.0,-1000.0,1.6666666666666667,1.6666666666666667,3.3333333333333335,53745.0
10:49:59,RTL,0.005169712007045746,0.007541986958434184,0.850531796614329,-7.3016077900926275e-06,-0.0008445570322995385,0.0021260375700270138,-35.3629571,149.1656884,98809.66666666667,-2.0,0.0,-153.0,0.0,0.0,-1000.0,1.6666666666666667,0.6666666666666666,3.3333333333333335,53745.0
10:50:00,RTL,0.0052137854509055614,0.008057462982833385,0.8526138861974081,0.00026287371292710304,0.0005774837142477433,0.0035661637472609677,-35.3629571,149.1656884,100754.0,-2.0,0.0,-152.66666666666666,0.0,0.0,-1000.0,2.0,2.3333333333333335,5.0,137019.0
10:50:01,RTL,0.0053572629888852434,0.007745489167670409,0.8540223240852356,-0.00046106222240875166,-0.00012300757225602865,0.0018693198217079043,-35.3629571,149.1656884,101924.33333333333,-2.0,0.0,-153.0,0.0,0.0,-999.6666666666666,1.0,1.6666666666666667,3.0,137019.0
10:50:03,RTL,0.005655679851770401,0.007616397769500812,0.8561431368192037,-0.00016931584104895592,-0.00025746424216777086,0.002359616686590016,-35.3629571,149.1656884,105027.66666666667,-2.0,0.0,-153.0,0.0,0.0,-999.6666666666666,1.3333333333333333,1.3333333333333333,3.6666666666666665,94257.0
10:50:05,RTL,0.005536065592120091,0.007838013271490732,0.8586588104565939,0.00027652849288036424,-7.791421376168728e-05,0.0010759162638957302,-35.3629571,149.1656884,108128.66666666667,-2.0,0.0,-153.0,0.0,0.0,-1000.0,1.6666666666666667,1.6666666666666667,2.0,94257.0
10:50:06,RTL,0.005460633585850398,0.0078054992482066154,0.8597404956817627,0.0007498208821440736,0.00047882506623864174,0.0009867480645577114,-35.3629571,149.1656884,110078.0,-2.0,0.0,-153.0,0.0,0.0,-1000.0,2.0,2.0,2.3333333333333335,83733.0
10:50:07,RTL,0.0053931015233198805,0.007802256538222234,0.86056520541509,-0.0006703123993550738,-0.0010858721410234768,0.001616112266977628,-35.3629571,149.1656884,111242.66666666667,-2.0,0.0,-153.0,0.0,0.0,-1000.0,0.6666666666666666,0.3333333333333333,2.6666666666666665,83733.0
10:50:09,RTL,0.005786550386498372,0.00820138274381558,0.8620738585789999,-0.0004161607163647811,-0.0004650117674221595,0.002081007696688175,-35.3629571,149.1656884,114352.33333333333,-2.0,0.0,-152.66666666666666,0.0,0.0,-1000.0,1.6666666666666667,1.3333333333333333,3.6666666666666665,53441.0
10:50:11,RTL,0.005261180301507314,0.007989415898919106,0.8633198738098145,-0.0009174378355965018,-0.000281838506149749,-5.234168687214454e-05,-35.3629571,149.1656884,117456.0,-2.0,0.0,-152.66666666666666,0.0,0.0,-1000.3333333333334,1.0,1.6666666666666667,1.3333333333333333,53441.0
10:50:12,RTL,0.005043938755989075,0.007778504242499669,0.8639885783195496,0.000910575152374804,-0.0002808352777113517,0.002839970945691069,-35.3629571,149.1656884,119395.33333333333,-2.0,0.0,-152.0,0.0,0.0,-1000.0,2.6666666666666665,1.3333333333333333,4.333333333333333,242203.0
10:50:13,RTL,0.005157997055600087,0.0077760168351233006,0.8644519050916036,0.00018073641695082188,-0.00031735317315906286,0.0009997142866874735,-35.3629571,149.1656884,120560.0,-2.0,0.0,-152.0,0.0,0.0,-1000.3333333333334,1.6666666666666667,1.3333333333333333,2.3333333333333335,242203.0
10:50:15,RTL,0.005317282397300005,0.007856545814623436,0.8657270272572836,0.0014718611879895132,-4.560244269669056e-05,0.0017242342388878267,-35.3629571,149.1656884,123666.0,-2.0,0.0,-152.0,0.0,0.0,-1000.0,3.3333333333333335,1.3333333333333333,3.0,51696.0
10:50:17,RTL,0.0053251149753729505,0.00791812315583229,0.867236336072286,0.0009595012137045463,-0.00011766232394923766,0.0019246230367571115,-35.3629571,149.1656884,126776.0,-2.0,0.0,-152.33333333333334,0.0,0.0,-1000.0,3.0,1.3333333333333333,3.3333333333333335,51696.0
10:50:18,RTL,0.005351897639532884,0.007818281029661497,0.8677727778752645,-0.00023021502420306206,0.0003874825779348612,0.0003653516760095954,-35.3629571,149.1656884,128714.33333333333,-2.0,0.0,-152.0,0.0,0.0,-1000.0,1.6666666666666667,2.0,1.6666666666666667,181212.0
10:50:19,RTL,0.005271614994853735,0.007980150481065115,0.8680522640546163,0.001416209270246327,0.0010253600776195526,0.0009273908411463102,-35.3629571,149.1656884,129879.0,-2.0,0.0,-152.0,0.0,0.0,-1000.0,3.0,3.0,2.3333333333333335,181212.0
10:50:21,RTL,0.005288823352505763,0.007905126549303532,0.8684939940770467,0.0006747002868602673,0.00047241500578820705,0.00017102256727715334,-35.3629571,149.1656884,132998.0,-2.0,0.0,-152.0,0.0,0.0,-1000.0,2.6666666666666665,2.3333333333333335,1.6666666666666667,232324.0
10:50:23,RTL,0.0049184806024034815,0.007498786163826783,0.8693695068359375,-0.0003511035271609823,-0.0006157722867404422,0.0020576787646859884,-35.3629572,149.1656884,136096.33333333334,-2.0,0.0,-152.0,0.0,0.0,-1000.0,1.3333333333333333,1.0,3.3333333333333335,232324.0
10:50:24,RTL,0.00505648444717129,0.0077613904140889645,0.8695414662361145,0.0023308638483285904,0.0003689952039470275,0.0009569580821941296,-35.3629572,149.1656884,138038.66666666666,-1.0,0.0,-152.0,0.0,0.0,-1000.3333333333334,4.333333333333333,2.0,2.3333333333333335,247317.0
10:50:25,RTL,0.005324960375825564,0.007629509860028823,0.869773268699646,8.7758448595802e-05,-0.00034476622628668946,0.0007947318178291122,-35.3629572,149.1656884,139203.66666666666,-1.0,0.0,-152.0,0.0,0.0,-1000.0,1.6666666666666667,1.6666666666666667,2.3333333333333335,247317.0
10:50:27,RTL,0.005586114867279927,0.00808767881244421,0.8702153166135153,0.00015234248712658882,0.0005438314595570167,0.0009244721538076798,-35.3629572,149.1656884,142318.0,-2.0,0.0,-152.0,0.0,0.0,-1000.0,2.3333333333333335,2.3333333333333335,2.3333333333333335,183985.0
10:50:29,RTL,0.0052705298488338785,0.007917188107967377,0.8705977002779642,-0.0004418002984796961,-0.0007322583890830477,0.001046243899812301,-35.3629572,149.1656884,145427.33333333334,-2.0,0.0,-152.0,0.0,0.0,-1000.0,1.6666666666666667,1.3333333333333333,2.6666666666666665,183985.0
10:50:30,RTL,0.005254081450402737,0.007902674997846285,0.8705820441246033,0.0006356205946455399,0.00035003875382244587,-0.00017706037033349276,-35.3629572,149.1656884,147365.33333333334,-2.0,0.0,-152.0,0.0,0.0,-1000.0,2.6666666666666665,2.3333333333333335,1.3333333333333333,166172.0
10:50:31,RTL,0.0054245029265681905,0.007857300341129303,0.8709675868352255,0.0013794010349859793,0.00011324222820500533,0.0005504958098754287,-35.3629572,149.1656884,148530.33333333334,-2.0,0.0,-152.0,0.0,0.0,-1000.0,3.3333333333333335,2.3333333333333335,2.3333333333333335,166172.0
10:50:33,RTL,0.005173103728642066,0.008028715228041014,0.8718671401341757,0.0006847692808757225,-0.0011859942072381575,0.0012113444196681182,-35.3629572,149.1656884,151636.66666666666,-2.0,0.0,-152.0,0.0,0.0,-1000.0,3.0,0.6666666666666666,3.0,130630.0
10:50:35,RTL,0.004944764232883851,0.025808144981662434,0.8721350828806559,-0.0007716469699516892,0.04838014766573906,-0.0006716474890708923,-35.36295723333333,149.16568836666667,154743.66666666666,-4.333333333333333,-3.0,-151.33333333333334,0.0,0.3333333333333333,-998.6666666666666,1.3333333333333333,50.333333333333336,1.3333333333333333,130630.0
10:50:36,RTL,0.0003590928002571066,0.07626548657814662,0.8723231554031372,-0.005743996861080329,0.032318836698929466,0.0011437792951862018,-35.36295906666666,149.16568583333333,156652.66666666666,-37.333333333333336,-42.0,-148.0,8.0,4.666666666666667,-996.0,-3.3333333333333335,34.333333333333336,3.0,239341.0
10:50:37,RTL,-0.0053932614003618555,0.10282175491253535,0.8726314504941305,-0.008073302606741587,0.040867939591407776,0.0015538191267599661,-35.36296256666667,149.16568099999998,157767.33333333334,-69.0,-79.0,-142.33333333333334,18.666666666666668,6.666666666666667,-992.3333333333334,-5.333333333333333,42.666666666666664,3.3333333333333335,239341.0
10:50:39,RTL,0.06676523263255756,0.13323582957188287,1.375231385231018,0.06305074815948804,-0.05453455696503321,0.12564774851004282,-35.36298393333333,149.16564430000003,159766.33333333334,-176.33333333333334,-258.6666666666667,-35.0,68.33333333333333,11.0,-940.6666666666666,65.0,-52.0,127.33333333333333,273591.0
10:50:41,RTL,0.047240818540255226,0.18340323865413666,1.415074348449707,-0.022171030441919964,0.009534417884424329,-0.03459924335281054,-35.363030466666665,149.1655793,159594.33333333334,-331.3333333333333,-342.6666666666667,19.666666666666668,112.33333333333333,2.0,-1011.3333333333334,-19.333333333333332,11.333333333333334,-32.0,273591.0
10:50:42,RTL,0.0012595956213772297,0.1798813740412394,1.3580338557561238,-0.0014910002549489338,-0.017022441141307354,-0.04424159632374843,-35.36306963333333,149.16552686666668,159428.0,-366.0,-411.6666666666667,0.0,127.66666666666667,8.666666666666666,-1003.6666666666666,1.0,-14.0,-41.333333333333336,54129.0
10:50:43,RTL,-0.012128631118685007,0.1600207438071569,1.324199914932251,-0.013209685683250427,-0.039082687348127365,-0.04861765603224436,-35.36309426666667,149.16549136666666,159423.33333333334,-371.6666666666667,-438.6666666666667,-5.0,131.66666666666666,14.666666666666666,-998.3333333333334,-10.666666666666666,-36.0,-45.666666666666664,54129.0
10:50:45,RTL,-0.03282898416121801,0.10647533585627873,1.2501914501190186,0.00913575446854035,-0.042553833375374474,-0.03528189162413279,-35.36315946666667,149.16539316666666,159473.0,-358.3333333333333,-439.3333333333333,-6.0,128.33333333333334,20.0,-996.0,11.666666666666666,-39.333333333333336,-32.333333333333336,5594.0
10:50:47,RTL,-0.06356041878461838,0.009840016408512989,1.1971681118011475,0.11886795361836751,-0.057818410297234855,-0.000814083032310009,-35.36321686666667,149.16530636666667,159499.33333333334,-270.0,-335.3333333333333,-2.3333333333333335,96.33333333333333,49.333333333333336,-1003.0,122.0,-54.333333333333336,1.3333333333333333,5594.0
10:50:48,RTL,-0.06252247840166092,-0.04497591033577919,1.1722320318222046,-0.21132140358289084,-0.015848123623679083,-0.011365952979152402,-35.36324186666667,149.16526806666667,159472.33333333334,-174.0,-225.33333333333334,0.3333333333333333,65.66666666666667,27.333333333333332,-991.0,-207.66666666666666,-13.0,-9.0,137190.0
10:50:49,RTL,-0.03744844843943914,-0.0564114178220431,1.1576513449350994,0.11423097550868988,-0.01947661116719246,-0.025422431839009125,-35.36325156666667,149.1652526,159447.66666666666,-118.0,-158.66666666666666,-0.3333333333333333,44.0,8.333333333333334,-1010.0,116.33333333333333,-16.0,-22.333333333333332,137190.0
10:50:51,RTL,-0.007399310513089101,-0.025995162626107533,1.124539573987325,0.2093137005964915,0.019003444040815037,-0.010273753199726343,-35.363262433333325,149.16523466666666,159425.0,-26.666666666666668,-33.0,-3.3333333333333335,8.0,19.0,-1005.3333333333334,212.66666666666666,21.666666666666668,-7.333333333333333,104036.0
10:50:53,RTL,-0.0023085963912308216,0.015866521435479324,1.1006195545196533,-0.3879023144642512,0.00787112396210432,-0.00887337870274981,-35.36326400000001,149.16523403333335,159448.33333333334,-1.6666666666666667,-4.0,-2.6666666666666665,0.0,-19.666666666666668,-997.3333333333334,-385.6666666666667,10.666666666666666,-6.0,104036.0
10:50:54,RTL,-0.006155071159203847,0.0019425140926614404,1.0891820192337036,-0.26474005977312726,-0.00015525612980127335,-0.004555983934551477,-35.3632644,149.1652346333333,159459.0,1.6666666666666667,-3.0,-1.6666666666666667,0.0,-21.0,-999.0,-262.6666666666667,2.3333333333333335,-1.6666666666666667,124517.0
10:50:55,RTL,0.0007823607884347439,0.0032084970735013485,1.0834105809529622,0.31469521423180896,0.006333043798804283,-0.004304920711244146,-35.36326436666666,149.1652352,159463.66666666666,6.333333333333333,-1.0,-1.0,-1.0,10.0,-994.0,317.0,9.333333333333334,-1.6666666666666667,124517.0
10:50:57,RTL,-0.011146432409683863,0.009387916574875513,1.0701090097427368,-0.3983931951224804,0.001432148739695549,-0.00510419726682206,-35.36326373333333,149.1652369,159476.0,9.0,-1.6666666666666667,0.0,0.0,-12.666666666666666,-996.3333333333334,-395.3333333333333,4.333333333333333,-2.3333333333333335,91735.0
10:50:59,RTL,-0.0007164398751532038,0.007726996360967557,1.057896574338277,0.2634347453713417,-0.0018130606816460688,-0.004600305498267214,-35.363263933333336,149.16523826666668,159170.33333333334,13.333333333333334,-8.666666666666666,63.0,-0.3333333333333333,-21.666666666666668,-927.0,263.6666666666667,1.3333333333333333,-1.6666666666666667,91735.0
10:51:00,RTL,0.00830081501044333,0.006655415209631125,1.050667365392049,1.436042070388794,-0.0019752271861458817,-0.0010917475447058678,-35.363264166666674,149.16523863333336,157965.33333333334,14.666666666666666,-10.0,114.33333333333333,0.3333333333333333,40.666666666666664,-1009.0,1437.0,1.3333333333333333,1.6666666666666667,34754.0
10:51:01,RTL,0.004065744811668992,0.005061715530852477,1.0467161337534587,1.3131005764007568,-0.003102928400039673,-0.0075445986197640496,-35.3632642,149.16523876666668,157113.0,16.666666666666668,-11.333333333333334,105.0,-1.0,46.666666666666664,-1035.0,1314.0,0.3333333333333333,-4.0,34754.0
10:51:03,RTL,0.024735379343231518,0.001546267420053482,1.039617379506429,0.652522474527359,0.0019709793074677386,0.005502705695107579,-35.3632628,149.16523783333332,155028.0,11.333333333333334,-8.0,100.0,-2.0,-5.0,-990.6666666666666,652.0,5.0,7.666666666666667,130240.0
10:51:05,RTL,0.022262177740534145,0.00527742054934303,1.0317397912343342,0.07770445942878723,0.00033826039483149845,-0.005153059493750334,-35.3632617,149.16523733333332,152977.0,0.6666666666666666,-0.6666666666666666,101.33333333333333,0.3333333333333333,-41.333333333333336,-968.3333333333334,77.33333333333333,3.3333333333333335,-2.0,130240.0
10:51:06,RTL,0.011820064236720404,0.0069714511434237165,1.0277334054311116,-0.23092625103890896,-1.741332622865836e-05,-0.0053888011413315935,-35.3632616,149.16523746666667,151715.33333333334,-2.6666666666666665,0.0,100.66666666666667,0.0,-53.666666666666664,-973.3333333333334,-231.33333333333334,3.0,-2.3333333333333335,19009.0
10:51:07,RTL,-0.0013368255458772182,0.0070406839561959105,1.025500973065694,-1.0717666546503704,0.0011654370464384556,-0.005649311079954107,-35.36326176666666,149.16523759999998,150946.66666666666,-2.3333333333333335,0.0,99.66666666666667,1.3333333333333333,-73.0,-994.6666666666666,-1071.6666666666667,4.333333333333333,-2.3333333333333335,19009.0
10:51:09,RTL,-0.024245500564575195,0.00535185852398475,1.019641359647115,-0.8119796514511108,-0.00279703790632387,-0.002507531472171346,-35.36326246666667,149.1652381,148902.66666666666,0.3333333333333333,-3.0,101.66666666666667,0.0,-1.0,-985.6666666666666,-808.6666666666666,0.6666666666666666,0.6666666666666666,264178.0
10:51:11,RTL,-0.009564403134087721,0.007654466355840365,1.0143360296885173,0.652566929658254,0.004615128661195437,-0.0016359819564968348,-35.3632629,149.16523836666667,146863.33333333334,3.3333333333333335,-3.3333333333333335,100.0,1.6666666666666667,59.666666666666664,-1008.0,655.3333333333334,7.666666666666667,1.0,264178.0
10:51:12,RTL,-0.019676321496566136,0.006620515448351701,1.0113495190938313,0.908516506354014,-0.005843754547337691,0.0008454393828287721,-35.363263866666664,149.1652391,145588.66666666666,9.666666666666666,-7.666666666666667,98.66666666666667,0.0,71.0,-995.6666666666666,910.6666666666666,-1.6666666666666667,2.6666666666666665,123301.0
10:51:13,RTL,-0.01372476015239954,0.0040922733799864846,1.009872595469157,0.9612600008646647,0.0014718333259224892,-0.00411536047856013,-35.36326403333333,149.16523913333333,144815.0,14.666666666666666,-11.0,98.33333333333333,0.0,69.66666666666667,-1005.0,963.6666666666666,5.0,-1.6666666666666667,123301.0
10:51:15,RTL,0.006959251166942219,0.003884238734220465,1.006589651107788,1.3863778511683147,0.0012059140329559643,0.001177901557336251,-35.3632639,149.1652388,142775.33333333334,16.0,-10.0,98.0,0.0,47.666666666666664,-1016.6666666666666,1386.3333333333333,4.333333333333333,3.0,195973.0
10:51:17,RTL,0.012308766754964987,0.003434656886383891,1.0034899314244587,0.9121768673261007,-0.0019925920447955527,0.00076162190331767,-35.363263499999995,149.16523863333333,140730.0,16.0,-10.333333333333334,100.0,-0.6666666666666666,3.0,-997.0,910.6666666666666,1.0,3.0,195973.0
10:51:18,RTL,0.013693412765860558,0.0055703989540537195,1.0019216140111287,0.6497984131177267,-0.0006948833664258321,-0.0036018985944489637,-35.3632631,149.1652385,139462.66666666666,11.666666666666666,-8.0,99.0,0.0,-8.0,-990.0,647.6666666666666,3.0,-0.6666666666666666,124173.0
10:51:19,RTL,0.009528095368295908,0.005858961803217729,1.0003164410591125,0.15962842106819153,-0.002230724785476923,-0.003542404000957807,-35.3632631,149.16523853333334,138690.33333333334,10.333333333333334,-7.666666666666667,99.0,-0.3333333333333333,-31.333333333333332,-967.0,157.33333333333334,1.3333333333333333,-0.6666666666666666,124173.0
10:51:21,RTL,2.870600049694379e-05,0.0018871946182722847,0.9980677763621012,-1.3056312203407288,-0.00022243141817549864,0.0005849579659601053,-35.363262133333336,149.1652377,136637.66666666666,5.666666666666667,-6.0,97.66666666666667,-2.3333333333333335,-66.33333333333333,-1018.3333333333334,-1306.0,3.3333333333333335,3.3333333333333335,282102.0
10:51:23,RTL,-0.013743027113378048,0.007379247496525447,0.995114266872406,-1.3115137418111165,0.0052503047821422415,-0.0022312458604574203,-35.3632615,149.16523736666667,134597.0,-5.333333333333333,2.3333333333333335,95.66666666666667,-1.0,-47.333333333333336,-1015.0,-1310.3333333333333,8.333333333333334,0.3333333333333333,282102.0
10:51:24,RTL,-0.017726154997944832,0.007388371974229813,0.9945547978083292,-0.19803005456924438,-0.004377597942948341,0.0027802158147096634,-35.3632623,149.16523806666666,133320.33333333334,-2.0,-0.3333333333333333,98.33333333333333,0.6666666666666666,30.333333333333332,-997.0,-195.66666666666666,-0.3333333333333333,5.333333333333333,287381.0
10:51:25,RTL,-0.0060139516135677695,0.0048868371328959865,0.9933439294497172,0.5175091481457154,-0.0008972758272041877,-0.005511084959531824,-35.363262533333334,149.16523816666665,132557.66666666666,0.6666666666666666,-3.0,98.33333333333333,0.0,54.666666666666664,-977.6666666666666,519.3333333333334,2.6666666666666665,-2.6666666666666665,287381.0
10:51:27,RTL,0.012440730507175127,0.004335470187167327,0.9920862118403116,1.3868467410405476,0.002200969262048602,-0.0018372621076802413,-35.3632626,149.165238,130538.66666666667,2.0,-2.0,98.66666666666667,0.3333333333333333,71.33333333333333,-1029.0,1387.3333333333333,5.666666666666667,1.0,85623.0
10:51:29,RTL,0.02652532234787941,0.0035425658182551465,0.9897996584574381,0.7768402496973673,0.0018616870511323214,0.007090386003255844,-35.363262,149.16523746666667,128484.33333333333,0.0,0.0,100.33333333333333,-0.3333333333333333,-2.3333333333333335,-1000.6666666666666,775.0,5.333333333333333,9.666666666666666,85623.0
10:51:30,RTL,0.014471842907369137,0.005601057472328345,0.9902106722195944,-0.017750192433595657,-0.001623398158699274,-0.009690284729003906,-35.36326183333333,149.1652374,127224.66666666667,-2.0,0.0,99.33333333333333,0.6666666666666666,-34.666666666666664,-984.0,-19.666666666666668,1.6666666666666667,-6.333333333333333,255545.0
10:51:31,RTL,0.009904139364759127,0.004740070862074693,0.9892673492431641,-0.41057973355054855,-0.009136929952849945,-0.001906060225640734,-35.3632618,149.16523743333335,126459.0,-2.3333333333333335,0.0,101.0,0.0,-51.0,-975.6666666666666,-412.0,-4.666666666666667,1.0,255545.0
10:51:33,RTL,0.005988999114682277,0.003634507767856121,0.9878806869188944,-1.297898809115092,-0.00045620789751410484,-0.0030147895061721406,-35.36326116666666,149.1652369,124426.0,-6.666666666666667,2.3333333333333335,100.66666666666667,-1.0,-77.66666666666667,-969.6666666666666,-1298.6666666666667,3.3333333333333335,-0.3333333333333333,253420.0
10:51:35,RTL,-0.02113512655099233,0.00970043707638979,0.9875190854072571,-1.254252274831136,0.0013653642187515895,-0.0017826380208134651,-35.363261533333336,149.16523766666668,122379.0,-8.666666666666666,3.0,99.33333333333333,1.0,-36.0,-1009.3333333333334,-1252.6666666666667,5.0,0.6666666666666666,253420.0
10:51:36,RTL,-0.023255928109089535,0.008500344740847746,0.9865315357844034,-0.5082454085350037,-0.0007968500722199678,0.004255844124903281,-35.36326223333334,149.16523833333335,121099.33333333333,-3.6666666666666665,-2.0,103.0,0.0,18.666666666666668,-965.6666666666666,-505.6666666666667,3.0,7.0,1145.0
10:51:37,RTL,-0.008661244763061404,0.006815001834183931,0.9862921635309855,0.24895853300889334,0.0008163169647256533,0.0018239963489274185,-35.36326243333334,149.1652384,120329.0,-0.3333333333333333,-4.666666666666667,96.0,0.0,46.666666666666664,-1020.0,250.66666666666666,4.333333333333333,4.0,1145.0
10:51:39,RTL,0.004813197612141569,0.005501072853803635,0.9853260715802511,1.0068644881248474,-0.00198382077117761,0.0023299596893290677,-35.36326236666667,149.1652381,118294.66666666667,-0.3333333333333333,-2.0,100.33333333333333,0.0,74.33333333333333,-1007.3333333333334,1008.0,1.6666666666666667,5.0,43688.0
10:51:41,RTL,0.028303919980923336,0.002044214284978807,0.9844282269477844,1.040722668170929,-0.004241011260698239,0.0008827656662712494,-35.363262133333336,149.16523763333336,116260.0,0.3333333333333333,-3.0,100.33333333333333,-1.6666666666666667,21.666666666666668,-988.0,1039.0,0.0,4.0,43688.0
10:51:42,RTL,0.03749619051814079,0.001354989440490802,0.9837974309921265,0.46428338686625165,-0.0005867534006635348,-0.0012752759115149577,-35.363260966666665,149.1652366,114978.33333333333,-6.0,2.3333333333333335,101.33333333333333,-0.6666666666666666,-15.333333333333334,-969.3333333333334,462.3333333333333,3.0,1.3333333333333333,48547.0
10:51:43,RTL,0.038123721877733864,0.001498980273026973,0.9831024805704752,-0.16969928766290346,0.0016970693444212277,0.00832136464305222,-35.363260233333335,149.16523603333334,114214.0,-12.666666666666666,6.666666666666667,99.0,-2.6666666666666665,-39.333333333333336,-987.0,-170.66666666666666,5.666666666666667,10.666666666666666,48547.0
10:51:45,RTL,0.04011911774675051,0.004039016397049029,0.9845578273137411,-0.7511773308118185,-0.0012744134292006493,-0.004557542658100526,-35.36325886666667,149.16523506666667,112174.0,-28.333333333333332,17.666666666666668,99.66666666666667,0.0,-66.0,-962.3333333333334,-751.6666666666666,2.6666666666666665,-1.3333333333333333,37609.0
10:51:47,RTL,0.01453776378184557,0.006936895195394754,0.9841700792312622,-1.0878104170163472,-0.0035758857460071645,-0.005122372026865681,-35.36325946666667,149.1652357,110133.33333333333,-29.0,18.0,100.66666666666667,2.0,-79.66666666666667,-973.6666666666666,-1087.3333333333333,0.6666666666666666,-1.6666666666666667,37609.0
10:51:48,RTL,-0.01024565395588676,0.0065712287711600465,0.9834711750348409,-1.3603816032409668,-0.0046812735963612795,0.00750495803852876,-35.36326043333333,149.16523643333332,108858.0,-23.0,14.0,101.33333333333333,3.6666666666666665,-43.666666666666664,-989.0,-1357.0,-0.3333333333333333,10.666666666666666,128000.0
10:51:49,RTL,-0.010697408579289913,0.006947097834199667,0.9835216800371805,-0.4296078532934189,0.0006729418722291788,-0.00022085018766423067,-35.363261099999995,149.1652369,108081.0,-18.666666666666668,11.0,100.66666666666667,0.6666666666666666,22.0,-985.3333333333334,-425.3333333333333,4.0,2.6666666666666665,128000.0
10:51:51,RTL,0.011741050208608309,0.0037902561792482934,0.9831116596857706,0.9621935884157816,0.004127242369577289,0.0022956718845913806,-35.3632615,149.1652371,106030.33333333333,-10.0,5.666666666666667,99.0,0.0,71.33333333333333,-989.3333333333334,966.0,8.0,5.333333333333333,65102.0
10:51:53,RTL,0.02064315726359685,0.004944975022226572,0.9832043846448263,1.4167904059092205,0.00122937288445731,0.0009830762476970751,-35.363261533333336,149.16523703333334,103991.33333333333,-7.333333333333333,5.0,99.0,0.3333333333333333,66.0,-997.0,1419.6666666666667,5.0,4.333333333333333,65102.0
10:51:54,RTL,0.017731749763091404,0.006563402401904265,0.983007570107778,0.9935592810312907,-0.0022282133965442577,0.001363249107574423,-35.363262,149.16523759999998,102714.0,-5.0,2.6666666666666665,98.0,1.3333333333333333,9.0,-988.3333333333334,994.6666666666666,1.6666666666666667,4.0,219282.0
10:51:55,RTL,0.014530678900579611,0.005098934130122264,0.9827592174212137,0.6836402614911398,-0.0028786545929809413,-0.0047775675387432175,-35.36326233333333,149.1652379,101945.66666666667,-1.3333333333333333,-0.3333333333333333,100.0,1.0,-9.0,-984.0,684.0,1.3333333333333333,-1.0,219282.0
10:51:57,RTL,-0.011561492923647165,0.005816267337650061,0.9832897981007894,-1.23004283507665,0.002522175433114171,-0.004707474804793795,-35.363262633333335,149.16523816666668,99906.33333333333,3.6666666666666665,-3.6666666666666665,97.33333333333333,1.0,-71.33333333333333,-1000.6666666666666,-1228.6666666666667,6.333333333333333,-1.3333333333333333,74343.0
10:51:59,RTL,-0.045261273781458534,0.012452087365090847,0.9824787974357605,-0.7565606484810511,0.0002535576932132244,-0.007412671150329213,-35.363264199999996,149.1652399333333,97871.66666666667,12.333333333333334,-12.0,97.0,2.6666666666666665,-13.0,-1012.6666666666666,-752.6666666666666,4.0,-4.333333333333333,74343.0
10:52:00,RTL,-0.036412415405114494,0.0065711938465634985,0.9816893140474955,0.21955556298295656,-0.0018049459904432297,-0.0020120045325408378,-35.3632651,149.16524063333333,96595.33333333333,23.666666666666668,-22.333333333333332,98.66666666666667,-1.0,48.666666666666664,-1022.3333333333334,222.66666666666666,2.3333333333333335,1.0,208497.0
10:52:01,RTL,-0.012279646073390419,0.0023467561113648117,0.9816206296284994,0.895377000172933,-0.0017477509876092274,-0.0019581802965452275,-35.36326476666667,149.1652401,95834.66666666667,26.0,-24.333333333333332,96.66666666666667,-2.6666666666666665,67.0,-1027.3333333333333,898.6666666666666,2.0,1.0,208497.0
10:52:03,RTL,0.02103798867513736,0.0017436326015740633,0.9819636146227518,1.2672190268834431,0.004574981828530629,0.0027169734239578247,-35.3632627,149.16523803333334,93792.0,10.0,-8.666666666666666,96.66666666666667,-2.0,76.0,-997.3333333333334,1269.3333333333333,8.666666666666666,5.333333333333333,136157.0
10:52:05,RTL,0.03755442798137665,0.0017863878747448325,0.9820501208305359,0.3361023962497711,-0.0005710357800126076,-0.000534752655463914,-35.36326093333333,149.1652367,91754.66666666667,-4.666666666666667,1.6666666666666667,99.0,-1.3333333333333333,-19.0,-973.3333333333334,336.0,3.3333333333333335,2.6666666666666665,136157.0
10:52:06,RTL,0.03493604126075903,0.0035737475069860616,0.981001079082489,-0.07842815170685451,0.002230251751219233,0.0020713667230059705,-35.36326003333334,149.16523603333334,90496.66666666667,-16.333333333333332,9.333333333333334,98.0,-1.3333333333333333,-36.0,-973.6666666666666,-78.66666666666667,6.333333333333333,5.0,259154.0
10:52:07,RTL,0.028269856547315914,0.00294511835090816,0.981126626332601,-1.0197064479192097,-0.002294236949334542,0.0013151506039624412,-35.3632594,149.16523556666667,89736.0,-21.0,12.0,100.66666666666667,-2.3333333333333335,-64.0,-1005.0,-1018.6666666666666,1.6666666666666667,4.333333333333333,259154.0
10:52:09,RTL,0.021185095732410748,0.007298273810495933,0.9826484719912211,0.06008825947841009,0.0018580779433250427,0.010764956551914414,-35.363258566666666,149.16523493333332,87700.33333333333,-35.666666666666664,23.333333333333332,100.66666666666667,1.3333333333333333,37.666666666666664,-978.0,65.0,5.666666666666667,14.0,147467.0
10:52:11,RTL,-0.010444166022352874,0.012221223674714565,0.9830134113629659,1.0227185487747192,-0.0013965980615466833,0.007536621453861396,-35.3632617,149.16523766666668,85647.33333333333,-19.0,11.333333333333334,101.0,6.333333333333333,62.333333333333336,-1005.0,1026.6666666666667,2.6666666666666665,10.333333333333334,147467.0
10:52:12,RTL,-0.023300165310502052,0.007128225484242042,0.9825859069824219,1.107152263323466,-0.008877377025783062,0.008508585393428802,-35.363263999999994,149.1652394,84381.66666666667,3.6666666666666665,-5.666666666666667,100.33333333333333,0.6666666666666666,75.33333333333333,-1009.3333333333334,1111.3333333333333,-4.0,11.333333333333334,129120.0
10:52:13,RTL,-0.0031182197077820697,0.002932723262347281,0.9819363951683044,1.4041840235392253,-6.228949253757794e-05,0.00655954540707171,-35.36326436666666,149.1652395,83620.33333333333,12.666666666666666,-12.666666666666666,102.0,-2.0,62.0,-990.6666666666666,1406.6666666666667,4.0,9.666666666666666,129120.0
10:52:15,RTL,0.024316148832440376,-0.0003175301559773895,0.9818834265073141,-0.5671151777108511,0.0010321672695378463,0.0013395434555908043,-35.36326223333333,149.16523743333335,81564.66666666667,7.666666666666667,-6.0,101.66666666666667,-3.3333333333333335,-55.0,-985.6666666666666,-566.0,5.0,5.0,75848.0
10:52:17,RTL,0.008604890201240778,0.004496761908133824,0.983035683631897,-1.2700124979019165,0.007097024470567703,-0.005477591883391142,-35.36326,149.165236,79530.66666666667,-14.666666666666666,9.333333333333334,102.0,-1.0,-35.333333333333336,-982.0,-1266.0,11.0,-1.6666666666666667,75848.0
10:52:18,RTL,-5.3222329976658024e-05,0.008569442356626192,0.9826698104540507,-0.20084079603354135,0.005932101824631293,-0.002929429135595759,-35.363260233333335,149.16523643333335,78256.66666666667,-21.333333333333332,13.333333333333334,101.0,1.6666666666666667,30.333333333333332,-970.0,-195.33333333333334,10.0,0.6666666666666666,154717.0
10:52:19,RTL,-0.009017189964652061,0.009437813113133112,0.9828411738077799,0.14975358545780182,-0.0007979271467775106,0.005113023798912764,-35.36326093333333,149.16523713333333,77484.66666666667,-17.666666666666668,9.333333333333334,102.0,1.3333333333333333,41.333333333333336,-985.3333333333334,155.0,3.3333333333333335,8.333333333333334,154717.0
10:52:21,RTL,0.004122725299869974,0.005926752773423989,0.9828549226125082,1.074625313282013,-0.0026250025257468224,0.008825398283079267,-35.36326210000001,149.165238,75445.33333333333,-5.666666666666667,-0.6666666666666666,101.33333333333333,-0.6666666666666666,63.666666666666664,-1006.6666666666666,1078.6666666666667,2.0,11.666666666666666,178143.0
10:52:23,RTL,0.03868479405840238,0.001511776781020065,0.9823136925697327,1.3261274099349976,-0.0002232775247345368,0.0027208381798118353,-35.3632613,149.16523703333334,73394.66666666667,-6.333333333333333,0.6666666666666666,98.0,-2.0,52.0,-1008.0,1329.0,3.6666666666666665,6.0,178143.0
10:52:24,RTL,0.04424633830785751,0.002476334028566877,0.9822397629419962,1.4226528406143188,0.0008268788612137238,-3.707944415509701e-05,-35.363260399999994,149.1652361666667,72108.33333333333,-14.0,7.666666666666667,100.33333333333333,0.3333333333333333,56.333333333333336,-1036.3333333333333,1426.0,5.333333333333333,3.3333333333333335,274023.0
10:52:25,RTL,0.043115925043821335,0.004607494144390027,0.9824024041493734,1.4512804349263508,0.0034333299845457077,-0.0007568488363176584,-35.3632601,149.16523603333334,71348.0,-18.333333333333332,11.666666666666666,98.0,0.6666666666666666,48.666666666666664,-1004.0,1454.3333333333333,7.666666666666667,2.3333333333333335,274023.0
10:52:27,RTL,-0.0034617960142592588,0.008522263417641321,0.982792317867279,-0.7197317083676656,-0.005688003885249297,-0.004493266421680649,-35.36326163333333,149.1652375,69302.66666666667,-10.333333333333334,5.666666666666667,98.33333333333333,4.0,-70.0,-976.0,-717.0,-1.0,-0.6666666666666666,289077.0
10:52:29,RTL,-0.037585133065780006,0.004903568575779597,0.9824782411257426,-1.2643568118413289,-0.00349233679783841,0.0010197332206492622,-35.363263466666666,149.16523873333333,67243.66666666667,6.0,-5.666666666666667,96.66666666666667,0.6666666666666666,-29.666666666666668,-993.0,-1259.3333333333333,0.6666666666666666,4.666666666666667,289077.0
10:52:30,RTL,-0.01744630125661691,0.0022547258995473385,0.9823358456293741,0.23934088150660196,0.0003873412497341633,-0.002873802169536551,-35.363263866666664,149.16523883333332,65975.33333333333,12.333333333333334,-9.0,94.66666666666667,-1.6666666666666667,44.0,-996.0,244.66666666666666,5.0,0.6666666666666666,277198.0
10:52:31,RTL,0.0009365756219873825,0.0015503409473846357,0.9824333190917969,1.1405140161514282,0.00288740157460173,-0.001921774431442221,-35.3632636,149.16523859999998,65211.666666666664,12.333333333333334,-8.666666666666666,96.66666666666667,-1.6666666666666667,69.66666666666667,-1025.6666666666667,1145.0,7.333333333333333,1.6666666666666667,277198.0
10:52:33,RTL,0.02177760812143485,0.004199027704695861,0.9831415414810181,1.2130063772201538,0.004632806405425072,0.00449204429363211,-35.36326263333333,149.1652379,63176.666666666664,6.333333333333333,-3.3333333333333335,97.33333333333333,0.0,32.333333333333336,-1019.3333333333334,1215.3333333333333,9.0,7.666666666666667,110556.0
10:52:35,RTL,-0.017565395993491013,0.007773458181569974,0.9828737576802572,-0.7585515677928925,0.003277300391346216,-0.0075650284222016735,-35.3632634,149.16523876666668,61141.333333333336,9.333333333333334,-6.0,98.66666666666667,2.0,-69.33333333333333,-975.6666666666666,-756.6666666666666,8.0,-3.3333333333333335,110556.0
10:52:36,RTL,-0.03737241278092066,0.005960991606116295,0.9829619924227396,-1.2742977142333984,-0.003708108173062404,-0.002330813091248274,-35.363264433333335,149.16523960000004,59862.0,18.333333333333332,-13.333333333333334,97.33333333333333,0.3333333333333333,-67.33333333333333,-994.3333333333334,-1272.0,1.0,1.6666666666666667,180012.0
10:52:37,RTL,-0.03945719450712204,0.003062438297395905,0.9823016126950582,-1.40664803981781,-0.005429402847463886,0.0002551632933318615,-35.3632647,149.16523966666668,59102.0,23.333333333333332,-17.0,98.0,0.0,-57.333333333333336,-985.6666666666666,-1403.6666666666667,-0.6666666666666666,3.6666666666666665,180012.0
10:52:39,RTL,-0.03585671509305636,0.005378471997876962,0.982637882232666,-0.4094530859341224,0.002134638916080197,-0.003820504527539015,-35.363264799999996,149.1652397,57072.333333333336,24.333333333333332,-15.333333333333334,100.0,-0.6666666666666666,15.0,-1012.3333333333334,-405.0,6.333333333333333,0.0,82204.0
10:52:41,RTL,0.0009068584186024964,0.0007536185730714351,0.982556939125061,1.2612138191858928,0.00270177253211538,0.0038208162877708673,-35.3632643,149.16523923333332,55022.0,24.333333333333332,-16.666666666666668,101.0,-2.3333333333333335,74.0,-1004.6666666666666,1263.6666666666667,7.0,7.333333333333333,82204.0
10:52:42,RTL,0.010038181828955809,0.0018619366455823183,0.9830185969670614,1.3554906845092773,0.0004441550311942895,0.0033508713046709695,-35.36326343333334,149.1652385,53746.0,17.0,-11.0,99.66666666666667,-1.3333333333333333,71.33333333333333,-1002.0,1357.6666666666667,4.666666666666667,6.666666666666667,56092.0
10:52:43,RTL,0.015348807908594608,0.0030860929594685635,0.9833626747131348,1.3975811004638672,0.004531469972183307,0.0030280436233927808,-35.3632632,149.1652383,52980.333333333336,13.333333333333334,-7.666666666666667,96.33333333333333,0.6666666666666666,67.66666666666667,-1007.3333333333334,1399.0,8.666666666666666,6.0,56092.0
10:52:45,RTL,-0.0021742674871347845,0.005369163739184539,0.982286274433136,1.162564794222514,-0.0004676266883810361,0.0019289154248932998,-35.3632642,149.1652394,50951.666666666664,17.333333333333332,-12.333333333333334,101.0,-0.6666666666666666,26.333333333333332,-1021.3333333333334,1162.3333333333333,3.6666666666666665,5.666666666666667,86783.0
10:52:47,RTL,0.008427071540306011,-0.0005502891957197183,0.9824157555898031,-0.6300126152733961,-0.0030089334274331727,0.0008608757828672727,-35.3632628,149.16523800000002,48923.666666666664,13.0,-10.0,101.33333333333333,-2.3333333333333335,-48.333333333333336,-992.6666666666666,-630.3333333333334,1.3333333333333333,4.666666666666667,86783.0
10:52:48,RTL,0.006876503194992741,0.0003535226278472692,0.9826392730077108,-1.3509777784347534,0.0020237059021989503,-5.423037024835745e-05,-35.36326143333333,149.1652368,47652.333333333336,0.6666666666666666,0.0,101.33333333333333,-1.0,-64.33333333333333,-1004.6666666666666,-1350.6666666666667,6.333333333333333,3.3333333333333335,215936.0
10:52:49,RTL,-0.006642153486609459,0.002245577168650925,0.9828959703445435,-1.246679147084554,-0.0015569188011189301,0.004683537719150384,-35.36326103333334,149.1652365,46890.333333333336,-4.666666666666667,5.0,102.33333333333333,0.0,-30.0,-991.6666666666666,-1245.0,3.3333333333333335,8.0,215936.0
10:52:51,RTL,-0.013027082507809004,0.007327275816351175,0.9830248753229777,0.5656554698944092,0.0007482517200211684,0.0145872433980306,-35.3632622,149.1652376333333,44842.0,-4.666666666666667,5.666666666666667,102.33333333333333,3.0,55.333333333333336,-995.6666666666666,567.6666666666666,5.0,17.666666666666668,110984.0
10:52:53,RTL,-0.008404596243053675,0.0046724652250607806,0.9820749560991923,1.3479466835657756,-0.009819181791196266,-0.0019872340684135756,-35.363264533333336,149.16523946666666,42783.333333333336,15.666666666666666,-10.0,100.33333333333333,1.3333333333333333,49.0,-1038.6666666666667,1347.6666666666667,-5.0,1.6666666666666667,110984.0
10:52:54,RTL,-0.0033337828936055303,0.00023871229980917028,0.9828376770019531,-0.1416431643689672,-0.003371585470934709,-0.0001619563748439153,-35.363264533333336,149.16523916666668,41513.666666666664,23.666666666666668,-15.333333333333334,99.66666666666667,-1.0,-41.666666666666664,-974.3333333333334,-143.33333333333334,1.0,3.6666666666666665,5110.0
10:52:55,RTL,-0.006224389187991619,-0.00046595352857063216,0.9827195008595785,-0.8572252790133158,-0.0025909872880826392,-0.005124661217754086,-35.363264066666666,149.16523873333333,40739.333333333336,22.0,-13.0,100.33333333333333,-1.6666666666666667,-62.0,-1007.0,-858.6666666666666,2.0,-1.0,5110.0
10:52:57,RTL,-0.009755853408326706,0.0022890205339839063,0.9833822250366211,-1.3053998152414958,0.0005033064323167006,-0.0009422979783266783,-35.3632629,149.16523793333332,38689.666666666664,12.333333333333334,-5.666666666666667,98.0,-0.6666666666666666,-57.666666666666664,-1048.6666666666667,-1306.0,4.666666666666667,2.6666666666666665,116160.0
10:52:59,RTL,-0.01335746313755711,0.004224716064830621,0.9828989307085673,0.23198120296001434,0.0015630880370736122,-0.00011451534616450469,-35.36326283333333,149.16523806666666,36650.0,6.333333333333333,-2.6666666666666665,99.0,-0.3333333333333333,47.0,-1012.3333333333334,233.33333333333334,6.0,3.6666666666666665,116160.0
10:53:00,RTL,0.007463732734322548,0.0031187692657113075,0.9826492865880331,1.2418004274368286,0.0016502578121920426,0.0016672896842161815,-35.363262866666666,149.1652381,35374.0,6.333333333333333,-3.3333333333333335,98.33333333333333,-1.3333333333333333,72.66666666666667,-997.3333333333334,1242.3333333333333,5.666666666666667,5.0,140462.0
10:53:01,RTL,0.016858531317363184,0.001499354043820252,0.9829225540161133,1.2737139463424683,-0.0009010182693600655,0.002116339203591148,-35.36326246666667,149.16523776666665,34607.0,4.0,-2.6666666666666665,97.66666666666667,-2.0,69.33333333333333,-1030.3333333333333,1273.6666666666667,3.3333333333333335,6.0,140462.0
10:53:03,RTL,0.04045429825782776,0.0003920262776470433,0.9834412336349487,0.023408040404319763,5.762713650862376e-05,-0.0013925579842180014,-35.36326069999999,149.16523613333334,32583.0,-7.0,6.0,100.33333333333333,-0.6666666666666666,-38.0,-995.0,21.333333333333332,4.0,2.3333333333333335,208622.0
10:53:05,RTL,-0.0003622665341633062,0.005429664781937997,0.9838530619939169,-1.3369722763697307,-0.0018616005157430966,-0.0012921853922307491,-35.36326066666666,149.16523630000003,30563.0,-13.333333333333334,11.666666666666666,103.0,0.6666666666666666,-63.0,-1000.3333333333334,-1337.0,2.3333333333333335,3.0,208622.0
10:53:06,RTL,-0.023150835807124775,0.006340452780326207,0.9833246072133383,-1.0264748533566792,-0.0009478108646969,-0.00042885929966966313,-35.3632615,149.16523703333334,29287.666666666668,-11.666666666666666,9.0,102.0,0.6666666666666666,-5.333333333333333,-1023.0,-1025.0,3.3333333333333335,3.3333333333333335,156690.0
10:53:07,RTL,-0.013299025129526854,0.004567541802922885,0.983911951382955,0.10354604323705037,-0.0049643199890851974,0.005147845794757207,-35.3632619,149.16523736666667,28521.0,-7.666666666666667,5.0,101.0,0.3333333333333333,42.333333333333336,-985.3333333333334,105.66666666666667,0.0,8.666666666666666,156690.0
10:53:09,RTL,0.02702558288971583,0.0007281749858520925,0.9825401306152344,1.2393297751744587,-0.000885180818537871,0.0015274457012613614,-35.36326176666667,149.16523706666666,26485.0,-3.6666666666666665,2.3333333333333335,102.0,-3.3333333333333335,59.0,-1002.0,1239.3333333333333,3.0,5.0,41938.0
10:53:11,RTL,0.04369492828845978,0.0015704522763068478,0.9830352266629537,-0.14972581962744394,0.002423464320600033,0.002312509963909785,-35.36326006666667,149.1652357,24453.333333333332,-13.333333333333334,10.0,102.33333333333333,-1.0,-47.0,-980.6666666666666,-150.33333333333334,6.0,6.333333333333333,41938.0
10:53:12,RTL,0.0002342592148731152,0.005095494134972493,0.984324057896932,-1.3758143186569214,0.003667144880940517,-0.004387035965919495,-35.36325993333333,149.16523573333333,23173.0,-22.666666666666668,17.0,102.33333333333333,0.6666666666666666,-50.333333333333336,-1004.0,-1374.6666666666667,7.666666666666667,-0.3333333333333333,266291.0
10:53:13,RTL,-0.008870250700662533,0.006130348735799392,0.9827697078386942,-1.1824645797411601,-0.003703401113549868,-0.0016658556802819173,-35.36326043333333,149.1652361666667,22401.333333333332,-20.333333333333332,15.0,102.66666666666667,3.0,-41.333333333333336,-1028.3333333333333,-1180.6666666666667,1.0,2.0,266291.0
10:53:15,RTL,-0.008768389311929544,0.005955690207580726,0.9842074116071066,0.5127150292197863,0.00278282118961215,0.003379389178007841,-35.363261933333334,149.16523733333335,20356.666666666668,-9.333333333333334,7.333333333333333,102.0,2.3333333333333335,55.333333333333336,-976.3333333333334,515.6666666666666,6.666666666666667,7.0,193426.0
10:53:17,RTL,-0.014613373825947443,0.006608037743717432,0.9840719699859619,1.2695002555847168,-0.0008493160518507162,0.007630157129218181,-35.36326423333333,149.1652392,18302.0,9.666666666666666,-5.333333333333333,100.66666666666667,3.0,61.0,-1028.6666666666667,1271.0,3.3333333333333335,11.0,193426.0
10:53:18,RTL,0.0068689722490186495,0.001380284733992691,0.9840233524640402,1.1079689264297485,-0.0053272553874800605,0.0053478111512959,-35.3632647,149.1652394,17029.0,22.0,-15.0,101.0,-1.0,25.666666666666668,-999.3333333333334,1107.0,-1.3333333333333333,9.333333333333334,145195.0
10:53:19,RTL,0.012788991133371988,-0.0010929687899382163,0.983081579208374,0.6734790503978729,-0.0029569369896004596,-0.004011722980067134,-35.36326416666666,149.16523883333335,16264.333333333334,21.666666666666668,-14.333333333333334,101.33333333333333,-3.0,1.0,-979.0,672.3333333333334,1.3333333333333333,0.0,145195.0
10:53:21,RTL,0.0037365655104319253,0.000546944240340963,0.9833616415659586,-1.096654971440633,0.001122410874813795,-0.0030966890044510365,-35.3632623,149.16523729999997,14222.666666666666,6.0,-0.6666666666666666,102.0,-0.6666666666666666,-69.66666666666667,-975.0,-1097.0,5.0,1.0,257199.0
10:53:23,RTL,0.003992961874852578,0.0014460997190326452,0.9841612776120504,-0.1786506389422963,0.0018225073193510373,-0.0007183289465804895,-35.36326123333333,149.16523646666667,12168.666666666666,-5.666666666666667,7.0,99.0,-0.6666666666666666,29.666666666666668,-1008.0,-175.66666666666666,5.333333333333333,3.0,257199.0
10:53:24,RTL,0.017424778391917545,0.002554884102816383,0.9836654663085938,0.48873887956142426,-0.0019450872205197811,-0.0006009522670259079,-35.363261200000004,149.1652365333333,11275.333333333334,-9.333333333333334,9.0,33.333333333333336,0.0,8.666666666666666,-1049.0,489.3333333333333,2.0,2.6666666666666665,218817.0
10:53:25,RTL,-0.0001907146070152521,0.0035529017137984433,0.9843966762224833,-0.20528417328993478,-0.0014045077841728926,0.0024879599610964456,-35.363261466666664,149.16523676666668,11085.666666666666,-8.0,8.666666666666666,20.666666666666668,0.6666666666666666,2.0,-993.0,-203.66666666666666,3.0,6.333333333333333,218817.0
10:53:27,RTL,0.0025341666769236326,0.004525574545065562,0.9841991265614828,0.5503779600063959,0.0014287552330642939,0.000340033167352279,-35.3632622,149.1652374,10499.0,-1.6666666666666667,3.3333333333333335,32.0,0.6666666666666666,33.0,-995.6666666666666,551.6666666666666,5.333333333333333,3.6666666666666665,255497.0
10:53:29,RTL,0.0014895210818698008,0.003932691256826122,0.9836495518684387,0.5926738282044729,-0.003680267216016849,-0.0007421486855794986,-35.36326303333333,149.16523816666665,9818.666666666666,5.333333333333333,-2.3333333333333335,33.0,0.6666666666666666,19.333333333333332,-999.3333333333334,592.6666666666666,0.6666666666666666,2.6666666666666665,255497.0
10:53:30,RTL,-0.00768932366433243,0.002782238724951943,0.9843375285466512,-0.22495056688785553,-5.3610807905594506e-05,-0.0011624125763773918,-35.36326293333334,149.16523806666666,9395.333333333334,6.333333333333333,-3.3333333333333335,33.333333333333336,-1.3333333333333333,12.333333333333334,-1004.0,-223.0,3.6666666666666665,3.0,273358.0
