time_stamp,MODE,roll,pitch,yaw,rollspeed,pitchspeed,yawspeed,lat,lon,relative_alt,vx,vy,vz,xacc,yacc,zacc,xgyro,ygyro,zgyro,RTL_ALT
10:23:02,STABILIZE,-0.0004790151579072699,0.0009474760154262185,0.02361554093658924,0.00030768755823373795,0.00023991803755052388,0.001778903417289257,-35.3632621,149.1652374,0.0,-1.0,0.5,-2.0,0.0,1.0,-1000.0,0.0,0.0,0.0,1500.0
10:23:04,STABILIZE,-0.0003514183626975864,0.0009706700802780688,0.02295951545238495,0.00025160738732665777,0.000214884290471673,0.0017720016185194254,-35.3632622,149.1652375,0.0,-1.0,2.0,0.0,0.0,1.0,-1000.0,0.0,1.0,0.0,1500.0
10:23:09,AUTO,-0.0008550017373636365,0.0010236649541184306,0.02139946259558201,0.00030938143997142714,0.0003020205767825246,0.0014360604497293632,-35.363262166666665,149.1652375,6.0,-0.6666666666666666,1.0,1.0,0.0,1.0,-1000.0,0.6666666666666666,1.0,0.0,118821.0
10:23:11,AUTO,-0.00029598205583170056,0.0014327403623610735,0.02096179686486721,0.00030904596981902915,0.0003272527440761526,0.0013706627845143278,-35.3632621,149.1652375,0.0,0.0,0.0,2.0,0.0,1.6666666666666667,-1000.0,0.3333333333333333,0.6666666666666666,1.0,118821.0
10:23:12,AUTO,-0.0001184105337112366,0.0016548012693723042,0.020756012449661892,0.0002845709871811171,0.0002717386814765632,0.0013856595614925027,-35.3632621,149.16523746666667,0.0,0.0,0.0,1.6666666666666667,0.0,1.3333333333333333,-1000.0,0.0,0.0,0.3333333333333333,169087.0
10:23:14,AUTO,0.020647278055548668,-0.0006867442668105165,0.02012600501378377,0.04636467124025027,-0.006990547912816207,0.0019247417027751605,-35.363262066666664,149.16523756666666,1352.0,0.3333333333333333,5.0,-141.66666666666666,0.0,-0.3333333333333333,-1024.3333333333333,46.333333333333336,-6.0,1.0,169087.0
10:23:15,AUTO,0.04609270766377449,0.005985782714560628,-0.024862564634531736,-0.10788674280047417,0.06886226870119572,-0.08537629246711731,-35.3632614,149.16524075,3224.5,9.0,49.5,-145.0,1.5,-11.0,-990.5,-107.0,68.5,-85.0,189916.0
10:23:17,AUTO,-0.07516511902213097,0.02369274664670229,-0.12339549511671066,0.05085747689008713,0.005121549358591437,-0.05037231929600239,-35.363259850000006,149.1652458,6280.5,-3.5,-36.5,-148.0,-4.0,4.0,-1002.5,50.5,5.5,-50.0,189916.0
10:23:18,AUTO,-0.028368620318360627,0.026976029854267836,-0.1435740888118744,0.06947716325521469,0.006304128328338265,-0.017114922520704567,-35.3632608,149.16524125,7427.25,-26.75,-63.75,-148.25,-4.0,14.25,-1002.25,69.5,6.5,-16.75,254162.0
10:23:20,AUTO,0.04995141178369522,-0.05767896771430969,-0.05233424389734864,0.0380601710639894,-0.04192197462543845,0.07555454783141613,-35.363267925,149.165232125,10543.0,-15.75,1.25,-152.25,3.0,4.25,-1002.25,38.25,-40.75,74.75,254162.0
10:23:21,AUTO,0.029659921769052744,-0.053419096395373344,-0.026312231551855803,-0.1563737466931343,0.134019173681736,-0.10836979746818542,-35.36326495,149.16523595,12453.5,74.5,56.5,-143.0,-7.5,-18.0,-998.0,-155.0,134.5,-108.5,92553.0
10:23:23,AUTO,-0.050753453746438026,0.05489274114370346,-0.2093798890709877,0.05131214112043381,0.015589694026857615,-0.030983791686594486,-35.3632548,149.1652394,15542.5,1.5,-37.5,-152.5,-6.5,3.5,-999.5,51.5,15.5,-31.0,92553.0
10:23:24,AUTO,-0.005917765200138092,0.05948326364159584,-0.2194560281932354,0.06731474678963423,-0.0004971486632712185,-0.009625729988329113,-35.3632562,149.165235725,16706.25,-43.75,-42.0,-151.25,-1.5,12.5,-1001.0,67.5,0.25,-9.5,263951.0
10:23:25,AUTO,0.08004944398999214,0.030628145672380924,-0.21422556787729263,0.053151411935687065,-0.054835788905620575,0.020241413731127977,-35.36326355,149.1652328,18640.5,-80.5,23.0,-151.0,14.5,10.0,-1000.0,53.0,-53.5,19.5,263951.0
10:23:27,AUTO,-0.14236287400126457,-0.049674361012876034,-0.21090876311063766,-0.2419319525361061,0.18577049672603607,-0.29233524203300476,-35.3632643,149.1652456,21666.5,88.0,10.0,-143.5,-11.0,-19.5,-1013.0,-240.5,186.5,-292.5,181090.0
10:23:29,AUTO,0.10391674190759659,-0.02084564045071602,-0.07874451950192451,-0.013968073762953281,-0.029442897532135248,-0.033988822251558304,-35.3632623,149.1652298,23806.5,-30.0,-29.5,-55.0,0.5,10.5,-962.0,-13.5,-28.0,-33.5,98229.0
10:23:30,AUTO,0.05879648542031646,-0.018223963677883148,-0.08847051486372948,-0.08093817997723818,0.016826000181026757,-0.004205321092740633,-35.36326342500001,149.16523009999997,24113.75,-5.75,25.5,-31.25,4.25,-3.75,-976.5,-79.75,17.25,-3.75,85930.0
10:23:31,AUTO,-0.01521550863981247,0.004209326463751495,-0.09148430824279785,-0.265555277466774,0.011757385917007923,-0.0027424544969107956,-35.36326295,149.16523545,24323.5,10.0,38.0,-1.5,4.0,-10.0,-957.5,-264.0,12.0,-2.5,85930.0
10:23:33,AUTO,-0.04618113860487938,0.007459219777956605,-0.10055471211671829,0.3566420003771782,-0.00042393594048917294,-0.020398277905769646,-35.363263200000006,149.1652345,24037.5,-16.5,-46.5,1.5,-4.0,24.5,-1014.0,357.0,1.0,-20.5,152998.5
10:23:35,AUTO,-0.09417422115802765,-0.09983821585774422,-0.9468018114566803,0.35861751437187195,-0.04903435707092285,-0.4471231698989868,-35.3632702,149.16521215,23920.0,-59.0,-169.0,7.5,-36.5,38.5,-1000.5,359.5,-47.5,-447.0,220067.0
10:23:36,AUTO,-0.05120539618656039,-0.1611097864806652,-1.3569823801517487,-0.08590034116059542,-0.032883931417018175,-0.7133678868412971,-35.3632754,149.16519515,23813.25,-85.5,-246.5,12.25,-61.0,-7.75,-999.75,-85.0,-31.5,-713.0,289002.0
10:23:37,AUTO,0.06959553435444832,-0.18802879750728607,-1.9303199648857117,-0.037799760699272156,-0.014584482065401971,0.11891946196556091,-35.3632879,149.16515345,23576.5,-128.0,-376.5,19.5,-77.0,-57.0,-997.5,-37.0,-13.5,118.5,289002.0
10:23:39,AUTO,0.07838349044322968,-0.17804311215877533,-1.880606234073639,-0.01617063255980611,0.03163992706686258,-0.006240413058549166,-35.363316999999995,149.16504915000002,23038.5,-181.5,-561.5,24.0,-112.0,-72.0,-992.0,-14.5,32.0,-6.0,183843.0
10:23:42,AUTO,0.08782742917537689,-0.12686971202492714,-1.8824592232704163,0.0073592932894825935,-0.0028710438637062907,-0.003963304392527789,-35.36336805,149.16486237499998,22186.5,-211.25,-634.5,30.75,-129.25,-84.75,-982.75,8.0,-2.25,-3.75,80749.0
10:23:43,AUTO,0.0882519781589508,-0.1373157799243927,-1.8843522667884827,-0.006372663192451,-0.001514218281954527,-0.00393641518894583,-35.36339235,149.16477445,21736.5,-213.0,-639.0,36.5,-134.5,-84.5,-992.0,-5.0,-0.5,-3.5,80749.0
10:23:48,AUTO,0.05007856525480747,0.05007013864815235,-1.883269488811493,-0.31627389043569565,-0.0030106569174677134,0.01230457378551364,-35.363470525,149.16448760000003,20321.0,-111.5,-335.75,22.0,-69.5,-58.75,-1009.5,-315.25,-2.0,12.25,249381.0
10:23:49,AUTO,0.029061815701425076,0.06586476042866707,-1.8832982778549194,-0.6303127110004425,0.016399603337049484,0.0039217069279402494,-35.3634807,149.1644498,20098.0,-68.5,-206.5,11.5,-44.0,-53.0,-1017.5,-629.0,16.5,4.0,249381.0
10:23:51,AUTO,0.03095647692680359,0.0424120407551527,-1.8860334753990173,0.3244869280606508,-0.018981951288878918,-0.001711954129859805,-35.36348855,149.16442554999998,19974.5,-6.0,-46.0,2.0,-10.0,-3.0,-1007.5,325.0,-17.5,-2.5,189025.5
10:23:53,AUTO,0.03354246728122234,-0.005102958879433572,-1.8924322128295898,0.31226981431245804,-0.029403384774923325,0.01124297920614481,-35.363490999999996,149.16442445,19996.5,21.0,-4.0,-0.5,0.0,11.0,-1000.0,313.0,-28.0,10.5,128670.0
10:23:54,RTL,0.025457569863647223,-0.004482435382669792,-1.8931601643562317,0.004020228516310453,0.009832885698415339,0.014185416046530008,-35.363491249999996,149.1644248,20009.5,22.75,-9.5,-2.0,0.0,0.5,-1006.0,6.0,10.0,14.0,272376.0
10:23:55,RTL,0.01919107511639595,6.383388245012611e-05,-1.8926559090614319,0.030747756361961365,-0.0002991119399666786,0.008989924797788262,-35.363490999999996,149.16442485,20195.5,23.0,-11.0,-36.0,1.5,-6.5,-1048.0,32.5,0.0,9.0,272376.0
10:23:59,RTL,0.018128302413970232,0.017656836891546845,-1.9249747395515442,-0.17171268537640572,0.08813041262328625,-0.11496143043041229,-35.36348525,149.16442105,24945.0,40.5,-26.5,-145.0,2.5,-12.0,-992.5,-168.5,88.5,-113.5,98326.0
10:24:00,RTL,-0.05850603897124529,0.031071897596120834,-1.9908808767795563,-0.03684368880931288,-0.039586685597896576,-0.032658313401043415,-35.363482625,149.164419825,26081.5,19.5,6.25,-148.0,4.25,-6.0,-1006.75,-34.0,-38.75,-31.75,274174.0
10:24:01,RTL,-0.03411823511123657,-0.021314953453838825,-1.9628027081489563,0.058287421241402626,-0.0017266514478251338,0.01988400984555483,-35.363483,149.16442185,28008.0,-41.5,24.5,-149.5,-2.0,7.5,-1001.0,60.0,-1.0,20.5,274174.0
10:24:03,RTL,0.014980651438236237,0.009476640727370977,-1.9606661200523376,-0.0038808747194707394,0.009299692697823048,-0.009875602554529905,-35.36348955,149.16442285,31120.0,-25.5,3.5,-151.0,-4.5,3.0,-999.5,-1.0,9.5,-9.0,227355.5
10:24:05,RTL,0.004570059245452285,0.005773913115262985,-1.9714200496673584,-0.005604894366115332,-0.0034952331334352493,-0.009261318948119879,-35.3634908,149.164423,34232.5,0.5,8.0,-151.0,0.0,0.0,-1000.0,-3.0,-2.0,-7.5,180537.0
10:24:06,RTL,0.0016093219310278073,0.0029291383107192814,-1.9806843400001526,-0.0031038439483381808,-0.0018158072780352086,-0.014729112386703491,-35.363490675,149.1644232,35400.0,1.0,7.25,-151.5,1.0,0.0,-1000.0,-0.75,-0.75,-13.25,155383.0
10:24:07,RTL,0.0005634038971038535,0.0015457505360245705,-2.0035253763198853,-0.00046358449617400765,0.0018381616100668907,-0.01975011918693781,-35.363490350000006,149.1644234,37348.0,0.0,5.0,-152.0,0.0,0.0,-1000.0,1.0,2.5,-18.0,155383.0
10:24:09,RTL,0.003448567586019635,0.0043729739263653755,-2.0472534894943237,-0.001867388200480491,0.0003661140217445791,-0.020141679793596268,-35.3634902,149.1644234,40468.5,0.5,4.0,-152.0,0.0,0.0,-1000.0,0.0,1.0,-19.0,118177.0
10:24:11,RTL,0.0018293675384484231,0.003510569571517408,-2.0879628658294678,-0.0005776463658548892,0.00010952528100460768,-0.020493289455771446,-35.36348975,149.1644234,43590.0,2.0,4.0,-152.0,0.0,0.0,-1000.0,1.0,1.0,-19.0,80971.0
10:24:12,RTL,0.0016781586164142936,0.0031556793837808073,-2.103123188018799,-0.00025903675123117864,0.0009210657444782555,-0.020246010273694992,-35.36348962500001,149.164423425,44762.5,1.5,4.0,-152.25,0.0,0.0,-1000.0,1.75,2.0,-18.75,90389.0
10:24:13,RTL,0.0022049351828172803,0.0032203536247834563,-2.1286267042160034,0.00032572029158473015,0.00038625707384198904,-0.02014584094285965,-35.3634895,149.1644235,46707.0,1.0,4.0,-152.5,0.0,0.0,-1000.0,1.5,1.0,-18.5,90389.0
10:24:15,RTL,0.0058795923832803965,0.00522012822329998,-2.1496106386184692,-2.663204213604331e-05,0.002567782998085022,0.016321055591106415,-35.3634893,149.1644236,49818.5,2.5,3.0,-152.0,0.0,0.0,-999.5,1.5,3.5,17.0,72992.5
10:24:17,RTL,0.0014047498698346317,0.0014360079658217728,-2.098946690559387,0.0004573841579258442,0.0008332071010954678,0.02325071394443512,-35.363488649999994,149.1644238,52919.0,3.0,2.0,-152.0,0.0,0.0,-1000.0,2.0,2.0,23.5,55596.0
10:24:18,RTL,0.001356644235784188,0.001089746889192611,-2.083381950855255,-0.0005289193650241941,0.0002836559870047495,0.020427042618393898,-35.36348855,149.1644238,54091.0,1.0,2.0,-152.0,0.0,0.0,-999.75,1.0,1.25,21.0,44020.0
10:24:19,RTL,0.0023882040986791253,0.0012150952825322747,-2.0606366395950317,0.0004480679635889828,0.000939114426728338,0.01627730391919613,-35.3634885,149.1644238,56031.0,0.0,2.0,-152.0,0.0,0.0,-1000.0,2.0,2.0,17.0,44020.0
10:24:21,RTL,0.004544352181255817,0.001571472967043519,-2.032061457633972,-0.00036098778946325183,0.0005467725568450987,0.012678260449320078,-35.3634888,149.1644238,59137.0,0.0,1.0,-152.0,0.0,0.0,-1000.0,1.0,1.5,13.5,63263.0
10:24:23,RTL,0.0036865086294710636,0.0015706293052062392,-2.0113288164138794,-0.000910524046048522,0.0014081436092965305,0.010060141328722239,-35.363489,149.1644238,62241.5,0.0,1.0,-152.0,0.0,0.0,-999.5,1.0,3.0,11.0,82506.0
10:24:24,RTL,0.004005321650765836,0.0016417706501670182,-2.0049773454666138,0.0006553006242029369,0.00020213605603203177,0.008542315452359617,-35.363489,149.1644238,63405.5,0.0,1.0,-152.0,0.0,0.0,-1000.25,2.75,1.25,9.0,123528.0
10:24:25,RTL,0.004804051481187344,0.001874821784440428,-1.995282530784607,0.0002347197150811553,6.163882790133357e-05,0.007946704281494021,-35.3634891,149.1644238,65346.5,0.0,1.0,-152.0,0.0,0.0,-1000.5,1.5,1.0,9.0,123528.0
10:24:27,RTL,0.0041963751427829266,0.001815686235204339,-1.9822614789009094,-0.000548023555893451,0.0002427350846119225,0.007197248982265592,-35.3634892,149.1644238,68451.0,1.0,1.0,-152.0,0.0,0.0,-1000.0,1.0,1.5,8.0,68935.5
10:24:29,RTL,0.004067073343321681,0.002252751146443188,-1.9712432026863098,0.000513018574565649,0.0006316484650596976,0.005252645816653967,-35.3634892,149.1644238,71556.0,1.0,1.0,-152.0,0.0,0.0,-1000.0,1.5,2.0,6.0,14343.0
10:24:30,RTL,0.004043332184664905,0.0018670112185645849,-1.967357575893402,-0.0004850382392760366,-0.00012595212319865823,0.005296927411109209,-35.3634892,149.1644238,72720.25,1.0,1.0,-152.0,0.0,0.0,-1000.0,1.0,1.0,5.75,15455.0
10:24:31,RTL,0.004240803653374314,0.0016889201360754669,-1.96134752035141,-0.001219854224473238,0.00013536016922444105,0.004088095156475902,-35.3634892,149.1644238,74665.0,1.0,1.0,-152.0,0.0,0.0,-1000.0,0.5,1.5,5.0,15455.0
10:24:33,RTL,0.00498121720738709,0.001555496419314295,-1.9521403908729553,0.00023861939553171396,-0.00042340089567005634,0.004491915227845311,-35.3634892,149.1644238,77770.5,1.0,1.0,-152.0,0.0,0.0,-1000.0,2.0,1.0,5.0,48179.5
10:24:35,RTL,0.0046158533077687025,0.0017194076208397746,-1.9447354674339294,0.0006076855352148414,0.0011930802138522267,0.003705904819071293,-35.3634893,149.1644238,80879.0,1.0,0.0,-152.0,0.0,0.0,-1000.0,2.0,2.5,4.5,80904.0
10:24:36,RTL,0.0046695927157998085,0.0017828834825195372,-1.9420631527900696,0.0006709273147862405,0.0003383256553206593,0.004989474778994918,-35.3634893,149.1644238,82047.75,1.0,0.0,-152.0,0.0,0.0,-1000.0,2.5,1.75,5.75,255193.0
10:24:37,RTL,0.004609302384778857,0.0018018464907072484,-1.9381375908851624,0.0001540889497846365,0.0021542205358855426,0.0024672304280102253,-35.3634893,149.1644238,83981.0,1.0,0.0,-152.0,0.0,0.0,-999.5,1.5,3.5,3.5,255193.0
10:24:39,RTL,0.004713721806183457,0.0019539553322829306,-1.9325307607650757,0.0006918844301253557,5.157815758138895e-05,0.005560549441725016,-35.3634893,149.1644238,87094.5,1.0,1.0,-152.0,0.0,0.0,-999.5,2.5,1.5,6.5,183943.0
10:24:41,RTL,0.00448578386567533,0.0018145973444916308,-1.9277340769767761,-0.001364097639452666,-0.00028658180963248014,0.0015071305679157376,-35.3634893,149.1644238,90201.0,1.0,1.0,-152.0,0.0,0.0,-1000.0,0.5,1.0,2.5,112693.0
10:24:42,RTL,0.004732217639684677,0.0017395384493283927,-1.9261010885238647,0.0011996869288850576,0.0006586951203644276,0.0030925370228942484,-35.3634893,149.1644238,91365.5,1.0,1.0,-152.0,0.0,0.0,-999.75,2.5,2.0,4.0,149978.0
10:24:43,RTL,0.004818455083295703,0.0017133922665379941,-1.9234104752540588,-0.0011654097470454872,0.0004467988619580865,0.0013676906819455326,-35.3634893,149.1644238,93309.0,1.0,0.0,-152.0,0.0,0.0,-1000.0,0.5,2.0,2.5,149978.0
10:24:45,RTL,0.004668531706556678,0.0017676145653240383,-1.9195210337638855,-0.00016209378372877836,0.0004969342844560742,0.0024399012327194214,-35.3634893,149.1644238,96413.5,1.0,0.5,-152.0,0.0,0.0,-999.5,1.5,2.0,3.5,105181.5
10:24:47,RTL,0.004676783923059702,0.0017416400951333344,-1.9163531064987183,-0.0004975878982804716,0.0014513202477246523,0.001319634320680052,-35.3634893,149.1644238,99519.0,1.0,0.0,-152.0,0.0,0.0,-999.5,1.0,3.0,2.5,60385.0
10:24:48,RTL,0.004641801118850708,0.0018660830974113196,-1.9149408042430878,0.001086073723854497,0.0010705793392844498,0.004300311906263232,-35.3634893,149.1644238,100683.5,1.0,0.5,-152.0,0.0,0.0,-999.75,2.75,2.5,5.5,19103.0
10:24:49,RTL,0.004696281626820564,0.001433471159543842,-1.91283518075943,-0.00032717850990593433,-0.0011839980725198984,0.003150889417156577,-35.3634893,149.1644238,102624.5,1.0,0.5,-152.0,0.0,0.0,-1000.0,1.5,0.5,4.0,19103.0
10:24:51,RTL,0.004796783206984401,0.0017459639348089695,-1.9105145335197449,0.0012491554953157902,0.0005891522741876543,0.002461082360241562,-35.3634893,149.1644238,105732.5,1.0,0.0,-152.0,0.0,0.0,-1000.0,3.0,2.0,4.0,115348.5
10:24:53,RTL,0.004691049223765731,0.0017496030195616186,-1.908474087715149,0.00047725741751492023,0.0016903914511203766,0.0013484425144270062,-35.3634893,149.1644238,108843.0,1.0,0.0,-152.0,0.0,0.0,-999.5,2.0,3.0,2.5,211594.0
10:24:54,RTL,0.004783985437825322,0.0015228550910251215,-1.9076252579689026,0.0005826526612509042,-0.000690636778017506,0.0010406201472505927,-35.3634893,149.1644238,110007.5,1.0,0.0,-152.0,0.0,0.0,-1000.0,2.25,1.5,2.0,78986.0
10:24:55,RTL,0.005134623497724533,0.0008575066458433867,-1.9065130949020386,0.0011084213620051742,0.0006359436083585024,0.004316949285566807,-35.3634893,149.1644238,111950.5,1.0,0.0,-152.0,0.0,0.0,-999.5,3.0,2.0,5.5,78986.0
10:24:57,RTL,0.004725297214463353,0.002340638660825789,-1.904967486858368,-0.0001272555091418326,-7.431162521243095e-05,0.0007794228149577975,-35.3634893,149.1644238,115056.5,1.0,0.0,-152.0,0.0,0.0,-1000.0,1.5,1.0,1.5,106281.0
10:24:59,RTL,0.004722510930150747,0.0016376422718167305,-1.9036463499069214,-5.625502672046423e-05,0.0005160806467756629,7.780565647408366e-05,-35.3634893,149.1644238,118170.5,1.0,0.5,-152.0,0.0,0.0,-1000.0,1.5,2.0,1.5,133576.0
10:25:00,RTL,0.004797250614501536,0.0017162407166324556,-1.9030231833457947,-0.000406783539801836,0.00026777019957080483,0.0007843879284337163,-35.3634893,149.1644238,119336.0,1.0,0.0,-152.0,0.0,0.0,-1000.0,1.5,2.0,2.25,192365.0
10:25:01,RTL,0.004830519901588559,0.0016976178740151227,-1.9024183750152588,0.001744927023537457,0.00040747004095464945,0.0008850357262417674,-35.3634893,149.1644238,121277.5,1.0,0.0,-152.0,0.0,0.0,-999.5,3.5,2.5,2.0,192365.0
10:25:03,RTL,0.004814113490283489,0.0017816624604165554,-1.901177704334259,0.0010851171100512147,0.0007702653529122472,0.0001945072435773909,-35.3634893,149.1644238,124384.0,1.0,0.0,-152.0,0.0,0.0,-1000.0,3.0,2.5,1.5,103877.0
10:25:05,RTL,0.005199761828407645,0.0015524392947554588,-1.899679183959961,0.0018451117211952806,-0.000587279093451798,-3.368512261658907e-05,-35.3634893,149.1644238,127491.0,2.0,0.5,-152.0,0.0,0.0,-1000.5,4.0,1.5,1.5,15389.0
10:25:06,RTL,0.005258985911495984,0.0010062516521429643,-1.899469256401062,-0.0002942818100564182,0.0009431132348254323,0.0009245768887922168,-35.3634893,149.1644238,128656.75,2.0,0.0,-152.0,0.0,0.0,-999.5,1.75,2.75,2.25,88849.0
10:25:07,RTL,0.00502053601667285,0.0014421410742215812,-1.8991007208824158,0.002165839308872819,0.0013321824371814728,0.001666276715695858,-35.3634893,149.1644238,130596.5,2.0,0.0,-152.0,0.0,0.0,-1000.0,4.0,3.0,3.5,88849.0
10:25:09,RTL,0.004616171820089221,0.0020310538820922375,-1.8981454968452454,0.0006638793274760246,-0.0005834517069160938,0.0015385253354907036,-35.3634893,149.1644238,133702.5,1.0,0.0,-152.0,0.0,0.0,-1000.0,3.0,1.0,2.5,180971.5
10:25:11,RTL,0.004783162614330649,0.0017856393242254853,-1.8975771069526672,-0.0014270131359808147,-0.0002857192885130644,0.0009585828520357609,-35.3634893,149.1644238,136810.5,1.0,0.0,-152.0,0.0,0.0,-1000.0,0.5,1.5,2.5,273094.0
10:25:12,RTL,0.004804670577868819,0.0017844302346929908,-1.8975668549537659,-0.0004866676463279873,-0.00020104003488086164,0.00026916060596704483,-35.3634893,149.1644238,137977.5,1.0,0.0,-152.0,0.0,0.0,-999.75,1.5,1.75,1.75,92426.0
10:25:13,RTL,0.004870059201493859,0.0015253911260515451,-1.897382378578186,0.0001344963675364852,0.0011283085914328694,0.000483925745356828,-35.3634893,149.1644238,139925.0,1.0,0.0,-152.0,0.0,0.0,-999.5,2.0,3.0,2.0,92426.0
10:25:15,RTL,0.0049247718416154385,0.0017790358397178352,-1.896889328956604,0.0010228714672848582,-0.0003580278716981411,-0.00029272749088704586,-35.3634893,149.1644238,143026.5,1.0,0.0,-152.0,0.0,0.0,-1000.0,3.0,2.0,1.5,85570.5
10:25:17,RTL,0.00525329913944006,0.0013485198142006993,-1.8964964747428894,0.00031189783476293087,0.001382774906232953,0.0005620846059173346,-35.3634893,149.1644238,146133.0,1.0,0.0,-152.0,0.0,0.0,-1000.0,2.5,3.5,2.0,78715.0
10:25:18,RTL,0.005466136732138693,0.0016398631560150534,-1.8964102864265442,0.00089557099272497,0.0006831366335973144,0.001210481976158917,-35.3634893,149.1644238,147298.75,1.75,0.0,-152.0,0.0,0.0,-999.75,2.75,2.75,2.75,217555.0
10:25:19,RTL,0.004977649776265025,0.002541998983360827,-1.8962342143058777,-0.0014745669905096292,8.136394899338484e-05,0.0010117461206391454,-35.3634893,149.1644238,149247.0,2.0,0.0,-152.0,0.0,0.0,-1000.0,0.5,2.5,2.5,217555.0
10:25:21,RTL,0.004932781448587775,0.0016964767128229141,-1.8951058387756348,0.0016057082684710622,-0.00014752207789570093,-3.0267518013715744e-05,-35.3634893,149.1644238,152355.5,2.0,1.0,-152.0,0.0,0.0,-1000.0,3.5,2.0,1.5,225233.5
10:25:23,RTL,0.004787223180755973,0.0016699256375432014,-1.8949309587478638,0.0025050948606804013,0.0017064721323549747,0.00015606725355610251,-35.3634893,149.1644238,155460.5,1.0,0.0,-152.0,0.0,0.0,-1000.0,4.5,4.0,2.0,232912.0
10:25:24,RTL,0.004799456452019513,0.001740590261761099,-1.8949302732944489,-0.0002811599406413734,6.215990288183093e-05,0.0004079343634657562,-35.3634893,149.1644238,156627.0,1.0,0.0,-152.0,0.0,0.0,-1000.0,1.75,2.0,2.25,66446.0
10:25:25,RTL,0.004837199347093701,0.0018234956078231335,-1.8950819373130798,0.000457909656688571,-0.00013806053902953863,0.001024351455271244,-35.3634893,149.1644238,158566.5,1.0,0.0,-152.0,0.0,0.0,-1000.0,3.0,2.0,3.0,66446.0
10:25:27,RTL,0.005138358101248741,0.0012558434391394258,-1.8949440121650696,-0.0009810362244024873,-3.0637020245194435e-05,0.0005631949752569199,-35.3634893,149.1644238,161674.0,1.0,0.0,-152.0,0.0,0.0,-1000.0,1.0,2.0,2.5,59730.5
10:25:29,RTL,0.0048131130170077085,0.002250453573651612,-1.8945578336715698,-0.0017299808096140623,-0.00046868110075592995,0.000346964574418962,-35.3634893,149.1644238,164780.0,1.0,0.0,-152.0,0.0,0.0,-1000.0,0.5,2.0,2.0,53015.0
10:25:30,RTL,0.004807193879969418,0.0021199678885750473,-1.894661158323288,-0.00019573583267629147,-0.0005347515980247408,0.0006769958126824349,-35.3634893,149.1644238,165949.75,1.0,0.0,-152.0,0.0,0.0,-1000.25,2.0,1.5,2.5,74256.0
10:25:31,RTL,0.004972784547135234,0.0015856984537094831,-1.8945263028144836,7.403059862554073e-05,-0.00042303663212805986,0.001602477510459721,-35.3634893,149.1644238,167888.5,1.0,0.5,-152.0,0.0,0.0,-1000.0,2.0,2.0,3.5,74256.0
10:25:33,RTL,0.005114069441333413,0.0018771667964756489,-1.8945055603981018,-0.0006003609159961343,-0.00031643081456422806,0.0011363798985257745,-35.3634893,149.1644238,171000.0,2.0,0.0,-152.0,0.0,0.0,-1000.0,2.0,2.0,3.0,75547.0
10:25:35,RTL,0.005023980047553778,0.0014743803767487407,-1.8946573734283447,-0.00039053824730217457,-0.0006572856800630689,-0.0013129310100339353,-35.3634893,149.1644238,174105.5,2.0,0.0,-152.0,0.0,0.0,-999.5,2.0,1.5,0.5,76838.0
10:25:36,RTL,0.004859560634940863,0.0009509110968792811,-1.8944900929927826,-2.6050431188195944e-05,0.0006244883988983929,0.0011756894527934492,-35.3634893,149.1644238,175273.0,1.75,0.0,-152.0,0.0,0.0,-999.75,2.25,2.75,2.75,33773.0
10:25:37,RTL,0.005002723773941398,0.0013917937758378685,-1.8938562870025635,0.0021243304945528507,0.0002712929854169488,0.0013522986555472016,-35.3634893,149.1644238,177213.0,1.0,0.0,-152.0,0.0,0.0,-1000.5,4.5,2.5,3.5,33773.0
10:25:39,RTL,0.004737734328955412,0.0021241739159449935,-1.8939059972763062,-0.0005236348370090127,0.0010448715183883905,0.0005626003257930279,-35.3634893,149.1644238,180326.5,1.0,0.0,-152.0,0.0,0.0,-1000.5,2.5,3.5,2.5,37164.5
10:25:41,RTL,0.004925557877868414,0.0016602357500232756,-1.8937103152275085,0.00034700834657996893,-0.0006123550119809806,4.480208735913038e-05,-35.3634893,149.1644238,183434.5,1.0,0.0,-152.0,0.0,0.0,-1000.5,2.5,1.5,2.0,40556.0
10:25:42,RTL,0.004844044917263091,0.001664275594521314,-1.893928736448288,0.001086911652237177,0.00022575410548597574,0.0013138793874531984,-35.3634893,149.1644238,184601.25,1.0,0.0,-152.0,0.0,0.0,-1000.0,3.75,2.75,3.25,104108.0
10:25:43,RTL,0.004995719995349646,0.0015999104361981153,-1.8937526941299438,0.00018121954053640366,0.00048457388766109943,0.000503575021866709,-35.3634893,149.1644238,186540.0,1.0,0.0,-152.0,0.0,0.0,-1000.0,2.5,3.0,2.5,104108.0
10:25:45,RTL,0.0050557758659124374,0.001423566194716841,-1.8940221667289734,0.0017288988456130028,-0.0006739026866853237,0.0001288849744014442,-35.3634893,149.1644238,189647.5,1.0,0.0,-152.0,0.0,0.0,-1000.0,4.0,2.0,2.5,162677.5
10:25:47,RTL,0.005420370725914836,0.001526455394923687,-1.893970787525177,-0.001604897785000503,0.00037632707972079515,0.0010276356479153037,-35.3634893,149.1644238,192754.0,2.0,0.0,-152.0,0.0,0.0,-999.5,0.5,3.0,3.0,221247.0
10:25:48,RTL,0.0051239324966445565,0.001711375341983512,-1.8938137590885162,0.00014228493091650307,0.00015132810221984982,2.817664062604308e-05,-35.3634893,149.1644238,193918.5,2.0,0.0,-152.0,0.0,0.0,-1000.0,2.25,2.75,2.0,178147.0
10:25:49,RTL,0.005009180400520563,0.0026664567412808537,-1.8940028548240662,-0.0019242920679971576,-0.0005581250879913568,0.00024618173483759165,-35.3634893,149.1644238,195859.0,2.0,0.0,-152.0,0.0,0.0,-1000.0,1.0,2.0,2.5,178147.0
10:25:51,RTL,0.004903441993519664,0.0016074572340585291,-1.8936944603919983,-0.00032969453604891896,-0.00019859254825860262,0.0014617412816733122,-35.3634893,149.1644238,198966.0,1.0,0.5,-152.0,0.0,0.0,-1000.0,2.0,2.0,3.5,174115.5
10:25:53,RTL,0.0048076065722852945,0.0017623712192289531,-1.8931046724319458,0.00022606737911701202,-0.00025610870216041803,0.0013965248363092542,-35.3634893,149.1644238,202076.0,1.0,1.0,-152.0,0.0,0.0,-1000.0,3.0,2.0,3.5,170084.0
10:25:54,RTL,0.005074853077530861,0.0013136128400219604,-1.8932198882102966,0.0007703247829340398,2.8910289984196424e-05,0.0008036753279156983,-35.3634893,149.1644238,203245.0,1.0,0.5,-152.0,0.0,0.0,-1000.0,3.25,2.75,2.75,37669.0
10:25:55,RTL,0.005192610202357173,0.0010437913588248193,-1.893311858177185,0.00037083239294588566,0.0017380830831825733,-0.00017320684855803847,-35.3634893,149.1644238,205182.5,1.0,0.0,-152.0,0.0,0.0,-999.5,2.5,4.5,2.0,37669.0
10:25:57,RTL,0.005135165061801672,0.001368064375128597,-1.8932936787605286,0.0014194757677614689,0.0005444901762530208,0.00023373577278107405,-35.3634893,149.1644238,208289.0,1.0,0.0,-152.0,0.0,0.0,-1000.5,4.0,3.0,2.5,86683.0
10:25:59,RTL,0.004787985933944583,0.0019283867441117764,-1.893461525440216,0.00038428278639912605,-0.0005292145069688559,6.549723912030458e-05,-35.3634893,149.1644238,211399.5,1.0,0.5,-152.0,0.0,0.0,-1000.5,3.0,2.0,2.5,135697.0
10:26:00,RTL,0.005094586871564388,0.0017709352541714907,-1.893596202135086,0.0005084859440103173,0.0005968644982203841,-0.0001811447145882994,-35.3634893,149.1644238,212569.25,1.0,0.5,-152.0,0.0,0.0,-999.75,3.25,3.0,2.0,49738.0
10:26:01,RTL,0.005355949280783534,0.0018082382739521563,-1.8934229016304016,-0.0011338925687596202,5.374976899474859e-05,0.0014684641500934958,-35.3634893,149.1644238,214511.0,2.0,0.0,-152.0,0.0,0.0,-1000.0,1.5,3.0,4.0,49738.0
10:26:03,RTL,0.004970521898940206,0.001685921335592866,-1.8935595750808716,-5.33378915861249e-05,-0.00037773512303829193,0.0005182781023904681,-35.3634893,149.1644238,217616.5,2.0,0.0,-152.0,0.0,0.0,-1000.0,3.0,2.0,3.0,64340.0
10:26:05,RTL,0.005017966730520129,0.0013965739635750651,-1.8937212228775024,0.000305590801872313,0.000551645876839757,-0.0005285643273964524,-35.3634893,149.1644238,220723.5,1.0,0.0,-152.0,0.0,0.0,-1000.5,3.0,3.0,1.5,78942.0
10:26:06,RTL,0.005023373058065772,0.0014759918849449605,-1.8938407003879547,-0.0002987817279063165,0.0004093360039405525,0.001445579226128757,-35.3634893,149.1644238,221889.5,1.0,0.0,-152.0,0.0,0.0,-999.75,2.25,3.0,4.0,203157.0
10:26:07,RTL,0.00494971894659102,0.002295513520948589,-1.8937972784042358,-0.0006977127050049603,0.0005838508950546384,0.001851822598837316,-35.3634893,149.1644238,223830.5,1.0,0.0,-152.0,0.0,0.0,-1000.0,2.0,3.5,4.5,203157.0
10:26:09,RTL,0.004743132507428527,0.0018206690438091755,-1.8928780555725098,-0.0005127661861479282,-3.63299623131752e-05,-0.00017997424583882093,-35.3634893,149.1644238,226936.5,1.0,1.0,-152.0,0.0,0.0,-999.5,2.5,3.0,2.0,209240.5
10:26:11,RTL,0.004937236430123448,0.03851289674639702,-1.893172562122345,0.0009481724118813872,0.046811480075120926,-0.000903874053619802,-35.36348925,149.16442415,230036.5,6.0,13.0,-150.5,1.0,0.5,-999.5,3.5,49.5,1.5,215324.0
10:26:12,RTL,0.003192818840034306,0.06598884239792824,-1.8928654789924622,-0.0039022497949190438,0.032661219127476215,0.0015175044536590576,-35.363488525,149.164426575,231182.0,18.5,45.5,-148.25,7.5,4.0,-997.0,-0.25,35.5,4.0,164662.0
10:26:13,RTL,-0.005879635689780116,0.10964798182249069,-1.8922913670539856,-0.007061730604618788,0.04596015438437462,0.000534177990630269,-35.36348525,149.1644377,233027.5,47.5,124.5,-137.5,20.0,11.0,-989.0,-4.0,48.5,2.5,164662.0
10:26:15,RTL,0.08682101592421532,0.11577526107430458,-1.3581979870796204,0.01576147403102368,0.007013652473688126,0.08656301349401474,-35.36347445,149.16448955,234637.0,94.5,330.0,-11.5,74.5,2.5,-939.0,19.0,10.5,89.0,231787.5
10:26:17,RTL,0.06310798972845078,0.21207942068576813,-1.3380424976348877,0.11950948089361191,0.004791219253093004,-0.06160779669880867,-35.3634464,149.1645771,234211.0,209.0,495.0,18.0,125.0,-10.0,-1032.0,122.0,7.0,-58.0,298913.0
10:26:18,RTL,0.03380550490692258,0.21027939394116402,-1.367706149816513,-0.053777046501636505,-0.017794948304072022,-0.053643335588276386,-35.363434549999994,149.16461365,234133.25,216.5,550.25,5.25,134.25,-6.75,-1011.75,-50.0,-14.25,-50.0,103093.0
10:26:19,RTL,0.007922067384546002,0.18687476217746735,-1.4164432684580486,0.006005669012665749,-0.019929610813657444,-0.03707443053523699,-35.36341256666667,149.16468816666668,234124.33333333334,220.0,618.0,-5.666666666666667,141.33333333333334,5.666666666666667,-992.0,9.666666666666666,-16.333333333333332,-33.666666666666664,103093.0
10:26:21,RTL,-0.010110164992511272,0.16044510900974274,-1.5039969086647034,0.07849524542689323,0.006103210151195526,-0.03142277617007494,-35.3633692,149.16484765,234219.5,217.5,644.5,0.5,151.0,30.0,-982.0,82.0,9.0,-28.0,114002.0
10:26:23,RTL,-0.04005572944879532,0.11925327777862549,-1.558624505996704,0.11012230068445206,-0.037813372910022736,-0.015183957293629646,-35.3633308,149.164988,234218.0,218.0,641.0,-8.0,148.0,26.0,-988.0,113.0,-34.0,-11.0,124911.0
10:26:24,RTL,-0.052400930784642696,0.08797775767743587,-1.5729361176490784,-0.056593600660562515,-0.037896822206676006,-0.043382419971749187,-35.363319,149.165030725,234259.25,205.0,607.75,-5.75,148.25,30.75,-987.0,-53.0,-34.0,-39.5,65230.0
10:26:25,RTL,-0.06474098935723305,0.03505204121271769,-1.593883474667867,0.1837554077307383,-0.05051180223623911,-0.012901766846577326,-35.363299500000004,149.16510123333333,234276.0,171.66666666666666,518.6666666666666,0.0,127.0,40.333333333333336,-995.0,187.33333333333334,-46.666666666666664,-9.333333333333334,65230.0
10:26:27,RTL,-0.06970760971307755,-0.04560751095414162,-1.6249358654022217,-0.844012439250946,-0.023891765624284744,-0.05227312818169594,-35.3632723,149.1652005,234202.0,79.0,276.0,2.0,66.0,-4.0,-1004.0,-840.0,-20.0,-49.0,151539.0
10:26:29,RTL,-0.025628894567489624,-0.07041489519178867,-1.6426593661308289,0.13731646537780762,0.01037511881440878,-0.017908892361447215,-35.3632643,149.16523405,234174.5,26.0,108.0,0.0,24.5,12.0,-1008.0,140.5,13.0,-14.0,237848.0
10:26:30,RTL,0.0002954806805064436,-0.04923705291002989,-1.6526633501052856,-0.038367681205272675,0.016642229165881872,-0.008804788172710687,-35.363263025,149.1652424,234171.25,9.75,37.25,-0.5,7.25,2.75,-1001.0,-34.75,19.75,-5.5,278099.0
10:26:31,RTL,0.014383219182491302,-0.02767899166792631,-1.6603144407272339,0.04796984791755676,0.02592035010457039,-0.0032290092203766108,-35.363263149999995,149.1652445,234177.0,9.0,-1.0,-1.0,-0.5,5.5,-1011.5,52.0,29.0,0.0,278099.0
10:26:33,RTL,0.01738998107612133,-0.006504570483230054,-1.6722913980484009,-0.008203387260437012,-0.012709528906270862,-0.011910018045455217,-35.36326335,149.16524355,234193.5,17.5,-11.0,0.0,-2.0,2.5,-989.5,-4.5,-9.0,-8.5,200005.0
10:26:35,RTL,0.013032522052526474,-0.0019310316420160234,-1.6844297051429749,0.008061259984970093,0.004635558929294348,-0.008203520672395825,-35.36326305,149.16524134999997,234197.5,12.5,-15.5,0.0,-0.5,-3.0,-998.0,12.0,7.5,-5.0,121911.0
10:26:36,RTL,0.013241821201518178,0.0005870455170224886,-1.6902469992637634,0.31449324265122414,0.000716533453669399,-0.008428449393250048,-35.3632628,149.165240225,234196.5,10.5,-12.5,0.0,-0.25,8.0,-1000.25,318.75,3.75,-5.0,8921.0
10:26:37,RTL,0.007292679889360443,-0.000364130646630656,-1.6953729391098022,-0.03334641456604004,0.001767036970704794,-0.005619492847472429,-35.363262500000005,149.16523949999998,234197.5,6.5,-9.0,0.5,0.0,-15.5,-987.5,-29.5,5.0,-2.0,8921.0
10:26:39,RTL,-0.015376965049654245,0.00034761475399136543,-1.7049556970596313,-0.3392207846045494,0.00027525192126631737,0.004997221753001213,-35.363261800000004,149.1652386,233318.5,1.5,-6.0,99.5,1.0,21.0,-962.5,-332.5,3.0,7.5,111583.0
10:26:41,RTL,-0.015758343040943146,-0.004020902910269797,-1.7122268676757812,-0.7236936390399933,-0.0023908987641334534,-0.0019064606167376041,-35.363261300000005,149.1652383,231120.5,-6.5,-2.5,104.0,-1.5,9.5,-978.0,-717.0,1.0,1.5,214245.0
10:26:42,RTL,-0.00396662921866664,-0.006891666795127094,-1.7162222266197205,-0.3779068635776639,-0.0029699005535803735,-0.010653229313902557,-35.363262150000004,149.165238375,230086.5,-3.0,-3.0,100.75,-4.25,27.75,-975.0,-371.25,0.0,-7.25,240742.0
10:26:43,RTL,0.020144124049693346,-0.007842446211725473,-1.7187886238098145,-0.233082614839077,0.00047231558710336685,-0.010558921610936522,-35.3632638,149.1652387,229059.5,6.0,-5.5,96.5,-3.0,29.0,-1043.5,-226.5,3.5,-7.0,240742.0
10:26:45,RTL,0.0201071472838521,0.0019470084444037639,-1.7261932492256165,0.8001464903354645,0.007470712764188647,-0.0002054818905889988,-35.363264799999996,149.1652385,227032.0,27.0,-9.5,104.5,0.5,64.0,-948.5,806.5,10.0,3.0,127507.5
10:26:47,RTL,0.002800984715577215,0.0025372130912728608,-1.729248821735382,1.1832746863365173,-0.0012716391356661916,0.012021600501611829,-35.36326245,149.16523775000002,224987.0,12.0,-3.5,97.5,2.0,72.0,-1025.0,1189.0,2.0,15.0,14273.0
10:26:48,RTL,0.013009915594011545,-0.0005779430284746923,-1.7320019900798798,1.3755629062652588,-0.001847598934546113,-0.0007041367935016751,-35.36326185,149.1652377,223967.75,2.25,-1.25,100.75,1.0,62.5,-1006.25,1380.5,0.5,2.5,121360.0
10:26:49,RTL,0.01832342892885208,-0.0014126742025837302,-1.734147548675537,1.077397346496582,0.001635424210689962,-0.0018253648886457086,-35.3632615,149.16523775000002,222943.0,-3.0,-1.0,101.5,1.0,11.0,-999.0,1081.0,4.0,1.0,121360.0
10:26:51,RTL,0.013564934954047203,-0.0012671482400037348,-1.7384486198425293,1.0188978016376495,0.0017206779448315501,0.0020738387247547507,-35.3632611,149.1652377,220906.5,-9.0,-0.5,103.5,0.0,22.5,-1017.5,1022.5,4.0,5.0,192536.5
10:26:53,RTL,0.020726589486002922,-0.000979131888016127,-1.7412543892860413,0.21710555255413055,0.003410169738344848,0.003459145314991474,-35.36326175,149.1652377,218878.5,-7.5,0.0,105.0,-1.0,-26.5,-971.5,219.5,6.0,6.5,263713.0
10:26:54,RTL,0.02513968013226986,0.0008806418154563289,-1.7425774037837982,0.4588394387392327,0.0038954888586886227,0.001948957215063274,-35.363262125000006,149.1652377,217858.5,-4.5,0.0,99.5,0.25,-21.0,-999.25,461.5,6.25,5.25,88892.0
10:26:55,RTL,-0.0007381890900433064,0.0034599220380187035,-1.7443657517433167,-0.6915579289197922,0.005174259189516306,0.0057208973448723555,-35.3632619,149.1652375,216847.0,-2.5,0.0,103.0,2.0,-64.0,-949.5,-688.0,8.0,9.0,88892.0
10:26:57,RTL,-0.02175909001380205,0.001446491398382932,-1.7471505999565125,-1.3963826298713684,-0.005032913642935455,0.0036903414875268936,-35.3632607,149.16523715,214788.0,-13.5,3.0,101.5,0.0,-65.0,-1036.0,-1392.0,-2.0,7.0,85365.0
10:26:59,RTL,-0.029496708884835243,-0.0002476133740856312,-1.7491626739501953,-0.6074488386511803,0.0027722943341359496,-0.008804992772638798,-35.36326,149.1652372,212753.0,-19.5,3.0,99.5,-1.5,4.0,-1018.5,-601.0,5.0,-4.5,81838.0
10:27:00,RTL,-0.012234033551067114,-0.0001185398123197956,-1.75004181265831,0.4057112270966172,-0.00023061555111780763,0.003572917601559311,-35.363260175,149.1652372,211727.25,-20.25,3.0,101.0,-0.75,52.75,-1000.25,411.5,2.5,6.75,112269.0
10:27:01,RTL,0.00613408736535348,-0.0006303592526819557,-1.750597894191742,1.2750988006591797,-0.0021483476739376783,-0.005371141247451305,-35.363260499999996,149.16523725000002,210708.5,-18.0,3.0,101.0,-2.0,73.0,-1012.0,1279.5,0.5,-1.5,112269.0
10:27:03,RTL,0.029043840244412422,-0.0017988551990129054,-1.7532804608345032,1.3458802700042725,-0.00020045193377882242,-0.011692833271808922,-35.36326225,149.16523765,208666.0,-5.0,0.5,99.0,-1.5,52.5,-1059.0,1349.5,2.0,-7.5,61970.5
10:27:05,RTL,0.04549671709537506,-0.001366777520161122,-1.7543562650680542,1.1237172484397888,0.00030481035355478525,5.9992424212396145e-05,-35.36326405,149.165238,206610.5,11.0,-1.0,99.0,-2.5,37.0,-1061.5,1127.0,3.5,3.0,11672.0
10:27:06,RTL,0.03922602720558643,0.001419233129126951,-1.7551381289958954,0.300137335434556,0.004239118308760226,0.004982202895916998,-35.363264675,149.165238075,205590.25,18.75,-3.0,99.25,0.0,-23.25,-980.25,302.0,6.5,8.25,139135.0
10:27:07,RTL,0.024181964807212353,0.00400170439388603,-1.7559787034988403,-0.4366407096385956,0.006797265377826989,-0.0008029224118217826,-35.36326445,149.1652379,204569.5,21.0,-3.0,97.5,1.5,-60.0,-989.0,-434.0,9.0,3.0,139135.0
10:27:09,RTL,-0.02125876070931554,0.008628436829894781,-1.756653904914856,-0.5466648642905056,-6.941740866750479e-05,-0.0016460528131574392,-35.3632611,149.16523690000002,202514.0,0.5,1.5,97.5,4.5,-64.5,-1024.5,-544.0,2.5,2.0,162173.5
10:27:11,RTL,-0.030679247342050076,-0.0012124655186198652,-1.7570109367370605,-1.2421048879623413,-0.007036724826321006,-0.00012467626947909594,-35.36325895,149.16523669999998,200482.0,-28.5,8.5,100.0,-1.0,-70.5,-980.5,-1239.5,-3.5,3.5,185212.0
10:27:12,RTL,-0.0047392238629981875,-0.006856690626591444,-1.7574350237846375,-1.2218921780586243,-0.006130144000053406,0.001725679379887879,-35.363260249999996,149.1652374,199470.25,-28.25,7.25,99.75,-3.75,-65.25,-980.5,-1219.25,-2.75,5.5,93161.0
10:27:13,RTL,0.0069406291004270315,-0.006093686679378152,-1.7578557133674622,-1.420736849308014,0.0038703245809301734,0.00032422086223959923,-35.36326215,149.16523795,198457.0,-12.0,2.0,98.0,-3.0,-55.5,-1011.0,-1417.5,6.0,4.0,93161.0
10:27:15,RTL,-0.0030081284348852932,2.7460861019790173e-05,-1.7583496570587158,-1.347940981388092,-0.003229930647648871,-0.0005575981922447681,-35.363264,149.16523815,196421.0,11.5,-3.5,98.5,-0.5,-35.5,-1031.5,-1343.0,-0.5,3.0,122911.5
10:27:17,RTL,-0.01633546408265829,0.0035582997370511293,-1.7595188617706299,-0.9057384133338928,-0.004432491259649396,0.013383006677031517,-35.363263200000006,149.1652377,194384.5,14.5,-3.0,103.5,0.5,-2.0,-971.0,-900.0,-1.5,17.0,152662.0
10:27:18,RTL,-0.0160127782728523,0.001729674157104455,-1.759353905916214,-0.37783774733543396,-0.004350693081505597,0.00632736855186522,-35.3632625,149.1652376,193364.0,7.75,-0.5,101.25,1.75,21.25,-985.75,-371.5,-1.0,10.25,103695.0
10:27:19,RTL,-0.004669901391025633,-0.0005241863982519135,-1.7593406438827515,0.5615104213356972,-0.0015230465214699507,-0.00503252143971622,-35.3632622,149.16523765,192340.0,3.5,0.0,99.5,-0.5,55.0,-1008.0,567.0,1.5,-1.0,103695.0
10:27:21,RTL,0.029823722317814827,-0.000950365953030996,-1.7602475881576538,1.4877710938453674,0.0006474937545135617,-0.0008241445757448673,-35.36326245,149.16523784999998,190300.0,2.0,-1.5,101.0,0.5,46.5,-994.0,1491.0,3.0,3.0,72308.0
10:27:23,RTL,0.012133770156651735,0.002312110096681863,-1.7610871195793152,0.9901797473430634,0.0014663853798992932,0.004416086012497544,-35.36326175,149.1652376,188253.5,-1.0,-1.5,98.5,1.0,12.0,-1046.0,992.5,4.0,8.0,40921.0
10:27:24,RTL,0.0070253865560516715,0.0022655151260551065,-1.7611235082149506,1.4113571643829346,-9.32845869101584e-05,0.0030588055378757417,-35.36326085,149.165237325,187233.5,-7.0,0.25,100.5,0.75,49.75,-1029.0,1414.75,2.5,6.5,69257.0
10:27:25,RTL,0.01397000765427947,-0.0013361074234126136,-1.7602362036705017,0.9615684747695923,0.003061261842958629,0.0031833320390433073,-35.36326085,149.16523734999998,186217.5,-12.5,2.5,99.5,-2.5,18.0,-986.5,964.0,6.0,7.0,69257.0
10:27:27,RTL,0.042928170412778854,-0.005294542759656906,-1.7615887522697449,-0.15228758938610554,-0.0077407206408679485,-0.006360979517921805,-35.36326365,149.1652381,184170.5,2.5,0.0,104.0,-3.5,-45.0,-932.5,-149.5,-4.5,-2.5,76353.0
10:27:29,RTL,0.03869563341140747,-0.0015922327766020317,-1.7614096999168396,-1.0041187703609467,-0.00029271538369357586,0.003563079284504056,-35.363266499999995,149.1652387,182130.5,33.5,-7.5,98.0,-0.5,-67.0,-1018.0,-1000.5,2.0,7.0,83449.0
10:27:30,RTL,0.023347132606431842,0.0029853350715711713,-1.7620963752269745,-1.3204855918884277,0.005934513756074011,-0.005373638356104493,-35.3632668,149.165238625,181114.5,43.0,-9.75,100.25,1.25,-62.75,-1008.25,-1315.5,8.5,-1.0,219305.0
10:27:31,RTL,-0.010909724631346762,0.007218570448458195,-1.7620211839675903,-1.2455576658248901,0.0035439191851764917,-0.0013063466176390648,-35.36326535,149.16523805,180088.5,40.0,-8.5,101.5,4.5,-41.0,-1018.0,-1239.5,6.5,2.5,219305.0
10:27:33,RTL,-0.02510783914476633,0.005416468484327197,-1.7608520984649658,0.4401621697470546,-0.0029223435558378696,0.011846714653074741,-35.36326135,149.1652371,178049.0,7.0,0.5,101.0,4.0,59.5,-966.0,447.0,0.0,15.0,218203.5
10:27:35,RTL,-0.0034894163254648447,-0.0009936251008184627,-1.7610388398170471,1.1484050750732422,-0.001186724053695798,0.0011072021443396807,-35.36326,149.16523715,176018.5,-17.0,4.0,97.5,0.5,72.0,-1008.0,1154.5,1.0,4.5,217102.0
10:27:36,RTL,0.0027783206169260666,-0.0014465686108451337,-1.7608617842197418,1.220309540629387,-0.0024426780291832983,0.0022436146391555667,-35.36326025,149.16523735,175000.0,-17.25,2.5,102.0,-0.25,76.25,-990.0,1226.0,0.25,6.0,236154.0
10:27:37,RTL,-0.009705770527943969,-0.0034544463269412518,-1.76097571849823,0.5614825263619423,-0.005108254961669445,-0.0005742600187659264,-35.363260499999996,149.1652375,173975.5,-16.5,2.0,103.0,-0.5,63.0,-1033.5,567.0,-2.0,3.0,236154.0
10:27:39,RTL,0.020877868868410587,-0.0043015810661017895,-1.7609282732009888,1.3369974493980408,0.000999716343358159,-0.00046516419388353825,-35.36326225,149.16523805,171941.0,-3.5,-2.0,100.0,-1.5,74.5,-982.0,1343.0,3.5,3.5,166399.0
10:27:41,RTL,0.04034707695245743,-0.0028438710141927004,-1.7619107365608215,1.3208054900169373,-0.0010806851787492633,-0.007199283107183874,-35.3632638,149.16523834999998,169890.5,12.0,-5.5,102.0,0.0,51.0,-1049.5,1325.0,1.5,-3.0,96644.0
10:27:42,RTL,0.04376814607530832,-0.0023742704070173204,-1.7617084681987762,0.6363300383090973,0.002676893083844334,-8.9587876573205e-05,-35.36326445,149.1652384,168878.0,16.75,-6.0,100.75,-1.25,-5.0,-999.5,639.75,5.0,3.5,131073.0
10:27:43,RTL,0.04033674672245979,-0.0007693901206948794,-1.761822521686554,0.00852327048778534,0.004594201920554042,0.0031173836905509233,-35.36326495,149.1652384,167860.0,23.0,-6.5,101.0,-0.5,-39.0,-1009.0,12.5,7.0,6.5,131073.0
10:27:45,RTL,0.02112933248281479,-0.00046834329259581864,-1.7614640593528748,-1.0031392276287079,0.001572463195770979,0.0016164156841114163,-35.36326495,149.16523834999998,165805.5,26.5,-6.0,104.0,0.0,-72.5,-1005.5,-998.5,3.5,5.5,138341.5
10:27:47,RTL,0.014804997015744448,-0.0004960950609529391,-1.7620527148246765,-1.395273506641388,-0.0023960917023941875,-0.0017307376256212592,-35.3632654,149.16523855,163758.0,30.5,-7.5,103.0,0.5,-68.0,-1002.0,-1388.5,0.5,1.5,145610.0
10:27:48,RTL,0.004604005254805088,0.0007753426762064919,-1.762179285287857,-1.2557222843170166,-0.0026295072748325765,-0.0013127190759405494,-35.36326515,149.165238475,162733.5,31.5,-8.0,99.25,1.25,-41.75,-997.5,-1248.0,0.25,2.5,55738.0
10:27:49,RTL,-0.010262047639116645,0.0014338716282509267,-1.7619368433952332,-1.1065120100975037,0.0006030438235029578,-0.003350089769810438,-35.3632643,149.1652383,161709.0,27.5,-7.0,101.0,0.0,-23.5,-1000.0,-1098.0,3.0,0.5,55738.0
10:27:51,RTL,0.0008254495915025473,-0.00010756127448985353,-1.7624325156211853,-0.02853696048259735,-0.010473019909113646,0.00490173464640975,-35.3632632,149.165238,159665.0,14.0,-3.0,98.5,0.0,30.0,-1058.0,-19.5,-7.5,8.5,55738.0
10:27:52,RTL,0.005117526452522725,0.0009980941686080769,-1.7621201574802399,0.6016137599945068,0.0019931740243919194,0.0037418840220198035,-35.3632631,149.16523792499999,158647.0,12.5,-3.0,100.25,-0.25,60.75,-987.5,610.75,4.25,7.25,240593.0
10:27:53,RTL,0.011979070492088795,0.001356503868009895,-1.7620415091514587,0.9057731926441193,0.0006006164476275444,0.000500289024785161,-35.363263,149.16523784999998,157624.5,10.5,-2.0,96.0,0.5,62.5,-1050.5,914.0,2.5,3.5,240593.0
10:27:55,RTL,0.012785892700776458,0.002359934849664569,-1.7615699172019958,1.4129310250282288,0.0003714134218171239,-0.0008467414882034063,-35.36326175,149.16523755,155587.0,2.5,-0.5,98.5,1.5,44.0,-990.0,1420.0,2.0,3.0,286859.0
10:27:57,RTL,-0.004245989432092756,0.001623791438760236,-1.7618775367736816,0.7995698153972626,-0.001955465064384043,0.0029101644176989794,-35.36325975,149.16523715,153548.5,-17.0,2.0,98.5,1.5,5.5,-1031.5,805.0,0.5,6.5,286859.0
10:27:58,RTL,-0.006626891437917948,-0.0011706369932653615,-1.762008398771286,-0.13877706602215767,-0.003167846822179854,-0.002125025726854801,-35.3632594,149.16523715,152533.75,-26.5,4.0,100.5,0.25,-46.0,-981.5,-134.0,-0.5,1.5,210263.0
10:27:59,RTL,-0.019049019552767277,-0.001951096870470792,-1.7620325088500977,-1.1307938992977142,-0.0007387497462332249,-0.0037441630847752094,-35.363259549999995,149.16523725000002,151518.5,-27.0,3.5,97.0,0.0,-62.0,-1008.0,-1125.0,1.0,0.0,210263.0
10:28:01,RTL,-0.02416227851063013,-0.003309056512080133,-1.7622286081314087,-1.1599538326263428,-0.002867741510272026,-0.004301310516893864,-35.3632602,149.16523745,149473.5,-24.0,1.5,99.5,-1.5,-29.0,-1026.0,-1152.5,0.0,0.0,111661.0
10:28:03,RTL,-0.010872092097997665,-0.0008523694195901044,-1.7625162601470947,0.27046994864940643,0.005198063561692834,0.002301193540915847,-35.363261,149.1652376,147433.5,-13.0,0.0,98.5,0.5,50.5,-995.0,278.0,7.5,6.0,111661.0
10:28:04,RTL,-0.0055352027411572635,0.001391818979755044,-1.76163449883461,1.0527984946966171,0.0020266726496629417,0.0005877645453438163,-35.363260724999996,149.16523745,146419.5,-13.5,0.0,100.5,0.0,65.25,-1008.5,1059.75,4.0,4.0,257063.0
10:28:05,RTL,0.004339497070759535,-0.0002771880535874516,-1.7617380023002625,1.2322423458099365,0.004415565985254943,0.00626401649788022,-35.36326055,149.1652373,145397.5,-15.5,1.5,100.5,-2.0,56.0,-1069.5,1237.5,6.0,9.5,257063.0
10:28:07,RTL,0.022472099401056767,-0.001981350127607584,-1.76201331615448,0.40621087909676135,0.005149101372808218,-0.0029640018474310637,-35.363261699999995,149.1652376,143364.0,-11.5,0.5,102.0,-0.5,-20.0,-998.0,409.5,7.0,0.5,194116.0
10:28:09,RTL,-0.0049311271868646145,0.00021363533232943155,-1.7622685432434082,-1.050869196653366,-0.0003954626154154539,-0.002047955058515072,-35.36326215,149.16523765,141321.0,-3.0,0.0,102.0,-0.5,-72.5,-999.0,-1046.5,2.0,2.0,194116.0
10:28:10,RTL,-0.0028898249875055626,0.000277926143098739,-1.762189894914627,-1.3601790070533752,0.00023469177540391684,-0.006489165592938662,-35.3632623,149.1652376,140291.5,-2.25,0.0,100.0,-0.75,-72.0,-994.75,-1355.25,2.25,-2.0,215753.0
10:28:11,RTL,-0.004461581644136459,0.000512838210852351,-1.7620908617973328,-1.3042441010475159,-0.0016853554407134652,-0.0014389267889782786,-35.363262500000005,149.1652376,139266.5,0.0,0.0,98.0,0.5,-68.5,-1004.0,-1299.0,0.5,2.0,215753.0
10:28:13,RTL,-0.014295577071607113,0.0004677047108998522,-1.7620251178741455,-0.8354095220565796,-0.003821892198175192,0.004156559472903609,-35.3632626,149.1652377,137224.0,3.5,-1.0,99.0,1.0,-6.0,-1037.0,-828.0,-1.0,7.5,268839.0
10:28:15,RTL,-0.017856323160231113,-0.0010288823541486636,-1.762042224407196,-0.23995517566800117,-0.005370626458898187,0.008575943298637867,-35.36326175,149.1652377,135176.0,-1.5,-0.5,99.5,1.5,28.5,-1042.0,-232.0,-3.0,12.0,268839.0
10:28:16,RTL,0.002026082220254466,-0.0023859551292844117,-1.761532962322235,0.9158932864665985,-0.006808529724366963,-0.005805450433399528,-35.363261675000004,149.165237725,134166.75,-3.0,0.0,98.5,-1.0,70.25,-984.75,922.75,-4.0,-1.5,14878.0
10:28:17,RTL,0.017689958680421114,-0.0015593855641782284,-1.7627869844436646,1.3297611474990845,0.0003812233917415142,0.008453017100691795,-35.36326205,149.16523784999998,133144.5,-2.5,-1.5,98.5,0.0,69.0,-1004.0,1335.5,2.5,11.5,14878.0
10:28:19,RTL,-0.0028292661299929023,0.00376633380074054,-1.7624510526657104,0.4186595529317856,0.006127557251602411,-0.0009238893399015069,-35.363260749999995,149.16523740000002,131103.5,-9.0,-1.0,104.0,4.5,-34.5,-969.5,421.5,7.5,3.0,262812.0
10:28:21,RTL,-0.034359502606093884,0.003687003394588828,-1.7621665000915527,-0.22064714133739471,-0.0004329948569647968,-8.709169924259186e-05,-35.3632576,149.16523645,129069.5,-37.5,6.5,97.5,4.0,-49.0,-995.0,-218.0,1.0,3.5,262812.0
10:28:22,RTL,-0.04388716351240873,0.0010980478109559044,-1.762272298336029,-0.9045179039239883,-0.002769851067569107,-0.005737776285968721,-35.363256774999996,149.1652363,128050.5,-50.0,9.5,101.0,0.25,-70.0,-993.25,-902.0,-0.25,-1.75,269355.0
10:28:23,RTL,-0.038958823308348656,-0.0018013148801401258,-1.7622884511947632,-1.3157290816307068,-0.006288775708526373,-0.0003184204688295722,-35.363256899999996,149.1652365,127027.0,-56.0,10.5,102.0,-2.5,-82.0,-926.0,-1313.5,-3.5,3.0,269355.0
10:28:25,RTL,-0.03673941642045975,-0.0034567073453217745,-1.7618011236190796,-1.3167640566825867,-0.006699242861941457,-0.004457758739590645,-35.36325815,149.1652369,124979.0,-47.5,8.0,100.0,-2.0,-39.0,-977.0,-1313.5,-4.5,-0.5,1073.0
10:28:27,RTL,-0.007438246859237552,-0.004969717701897025,-1.761545479297638,0.30275725200772285,-0.0027258964837528765,-0.0018509606597945094,-35.3632604,149.1652375,122940.5,-27.5,3.0,100.0,-4.0,56.0,-966.5,307.0,-1.0,2.0,1073.0
10:28:28,RTL,0.013265996240079403,-0.005017646937631071,-1.7615220248699188,0.8981584906578064,0.001383114926284179,-0.00019972119480371475,-35.3632619,149.16523784999998,121910.5,-13.0,0.5,99.25,-4.5,77.75,-1010.75,901.5,2.75,3.25,94054.0
10:28:29,RTL,0.03319851215928793,-0.005645811790600419,-1.7617425918579102,1.3728004097938538,0.0026768608950078487,-0.007796947727911174,-35.363263599999996,149.1652383,120886.0,1.5,-2.0,98.5,-5.5,88.5,-955.0,1376.0,4.5,-4.0,94054.0
10:28:31,RTL,0.05237320251762867,-0.0008881791145540774,-1.7613374590873718,0.8418144434690475,0.003844110295176506,0.0015437229303643107,-35.36326605,149.16523875000001,118852.0,30.0,-9.0,97.0,0.0,14.0,-1011.0,843.5,5.5,4.5,33038.0
10:28:33,RTL,0.01806394848972559,0.0060705034993588924,-1.7614325284957886,0.1983186900615692,0.00809543370269239,-0.003900364274159074,-35.3632642,149.16523795,116806.5,26.5,-7.0,99.0,5.0,-37.5,-1017.0,199.5,9.5,0.0,33038.0
10:28:34,RTL,-0.012936238517795573,0.006521858042106032,-1.761740505695343,-0.5184216499328613,-0.003447812341619283,0.0013349645887501538,-35.363261975,149.16523734999998,115788.0,11.0,-2.25,98.75,5.25,-65.5,-990.25,-516.75,-1.5,4.25,148524.0
10:28:35,RTL,-0.03457379061728716,0.004549271543510258,-1.761444330215454,-1.0890608429908752,0.005575907533057034,0.0013175229541957378,-35.3632599,149.16523695,114772.0,-9.0,2.0,98.5,1.0,-70.0,-1009.0,-1087.0,7.0,4.5,148524.0
10:28:37,RTL,-0.02733304165303707,-0.0029011026490479708,-1.7615546584129333,-0.8902139961719513,-0.007534452714025974,-0.00357093068305403,-35.36325935,149.1652371,112731.0,-28.5,5.5,100.5,-2.5,-19.5,-1046.5,-886.0,-5.5,-0.5,165643.0
10:28:39,RTL,-0.01507800817489624,-0.0011176472180522978,-1.7614744305610657,0.32267481461167336,-0.0009537732694298029,0.0048850481398403645,-35.3632602,149.16523734999998,110689.0,-20.5,1.5,95.5,-1.0,48.5,-1014.0,326.5,0.5,8.0,165643.0
10:28:40,RTL,-0.008526593970600516,-0.0014308794925455004,-1.7606673538684845,0.7057768085505813,0.0007148835866246372,0.00440272392006591,-35.363260524999994,149.1652374,109666.75,-17.25,1.0,98.75,-1.5,62.25,-1003.0,709.5,2.5,7.5,5049.0
10:28:41,RTL,-0.0022236110671656206,-0.0020973129430785775,-1.7607259154319763,0.9894172549247742,0.003551031928509474,-6.527657387778163e-05,-35.3632609,149.16523745,108640.5,-14.5,1.0,100.0,-1.5,75.0,-1015.0,992.5,5.0,2.5,5049.0
10:28:43,RTL,0.02831965032964945,-0.0028001669561490417,-1.7612309455871582,0.6185884103178978,-0.001484042382799089,-0.002720238408073783,-35.363262500000005,149.1652379,106605.0,-3.5,-0.5,99.0,-1.0,1.0,-1011.0,618.5,0.0,0.5,246725.0
10:28:45,RTL,0.00824936293065548,-0.0003171811749780318,-1.7604125142097473,-0.9795931577682495,0.0016393494443036616,-0.0007813984993845224,-35.36326305,149.16523795,104553.0,5.0,-3.0,100.5,0.0,-67.5,-1028.5,-979.0,2.5,2.5,246725.0
10:28:46,RTL,0.0007131080710678361,-0.0004398082419356797,-1.7608251571655273,-1.2158570885658264,-0.006262257811613381,-0.004620107763912529,-35.363263025,149.16523792499999,103544.75,5.75,-2.25,97.75,0.25,-70.75,-984.25,-1214.75,-4.0,-1.25,22577.0
10:28:47,RTL,-0.006423848448321223,-0.00024156031668098876,-1.7609527111053467,-1.4824526906013489,-0.000996599905192852,-0.003832796006463468,-35.363263149999995,149.165238,102528.0,7.0,-2.5,100.0,0.5,-54.0,-975.5,-1480.5,0.5,0.0,22577.0
10:28:49,RTL,-0.020996199920773506,0.0012801417033188045,-1.7615250945091248,-0.8724092543125153,-0.0024995370768010616,0.003689918899908662,-35.36326235,149.16523775000002,100491.5,6.0,-2.0,99.5,1.0,-1.5,-994.5,-868.5,-0.5,7.0,294821.0
10:28:51,RTL,0.014991198666393757,-0.0003882729506585747,-1.761215329170227,1.0703215599060059,0.00327500666026026,-0.0005934473592787981,-35.363262500000005,149.1652377,98449.0,2.5,-0.5,97.0,-0.5,67.0,-981.0,1074.0,4.5,2.0,294821.0
10:28:52,RTL,0.02385234972462058,0.0004852101410506293,-1.7609902620315552,1.3394504487514496,0.0002644196501933038,0.0018679201020859182,-35.3632626,149.1652377,97427.5,4.0,-1.0,98.75,0.0,50.25,-1026.25,1341.25,1.75,5.0,142617.0
10:28:53,RTL,0.02620985172688961,0.00017347003449685872,-1.7609095573425293,0.876887321472168,0.0022585265105590224,0.0013842222979292274,-35.363262649999996,149.1652377,96408.0,4.0,-1.0,100.5,0.0,8.0,-969.0,877.5,3.5,4.5,142617.0
10:28:55,RTL,0.012470593675971031,0.00013085189857520163,-1.7610852718353271,-0.6794131249189377,-0.0006059918669052422,-0.0066441146191209555,-35.3632628,149.1652377,94368.0,4.5,-1.0,99.0,0.0,-55.5,-965.0,-678.5,0.5,-3.5,267994.0
10:28:57,RTL,-0.008045332971960306,-0.0005726230883738026,-1.7607151865959167,-1.2853072881698608,-0.004675789503380656,0.0057141376892104745,-35.363262750000004,149.1652378,92327.0,6.0,-1.0,98.0,-0.5,-50.0,-1030.5,-1282.5,-2.5,8.5,267994.0
10:28:58,RTL,-0.005182687658816576,-0.0016583000833634287,-1.7611683905124664,-0.8848811239004135,-0.0048455019714310765,-0.005360883427783847,-35.36326295,149.165237875,91305.75,7.0,-1.0,100.5,-1.25,-3.75,-985.0,-880.5,-2.75,-1.75,41865.0
10:28:59,RTL,0.011416771274525672,-0.005790662718936801,-1.7608147859573364,-0.9003793895244598,-0.004698129021562636,0.002252117730677128,-35.36326405,149.16523835,90290.0,12.5,-2.0,99.5,-3.5,-1.5,-1008.5,-896.0,-2.5,5.0,41865.0
10:29:01,RTL,0.06082924082875252,-0.005288553540594876,-1.7605279684066772,0.8105554580688477,0.002818931476213038,0.0048816564958542585,-35.3632677,149.16523934999998,88265.0,45.5,-11.5,100.0,-3.0,70.0,-1000.5,816.0,4.0,7.5,87593.0
10:29:03,RTL,0.05783001519739628,0.0007381851319223642,-1.7605078220367432,1.4109403491020203,0.0007117646746337414,-0.007039725547656417,-35.363268149999996,149.16523915,86219.0,63.0,-15.0,103.5,-0.5,74.5,-987.0,1416.5,2.0,-3.5,87593.0
10:29:04,RTL,0.06441662553697824,0.0004217281530145556,-1.7604024112224579,1.2495608925819397,0.0005873450718354434,0.0008475882932543755,-35.363268000000005,149.16523907500002,85189.25,61.25,-13.25,100.25,0.5,38.5,-1018.5,1254.5,1.75,3.5,254402.0
10:29:05,RTL,0.057078540325164795,0.0018203140352852643,-1.7608135342597961,1.1284778714179993,0.0038851143326610327,0.005430634133517742,-35.363267500000006,149.16523890000002,84168.5,59.0,-12.5,102.0,1.5,20.0,-958.5,1133.5,4.5,8.0,254402.0
10:29:07,RTL,0.0151426971424371,0.00443494669161737,-1.760131061077118,-0.7122540026903152,0.0020394015591591597,-0.005281637189909816,-35.363265,149.16523825000002,82120.0,40.5,-8.5,100.0,3.0,-72.5,-964.0,-707.0,3.5,-2.0,150034.0
10:29:09,RTL,-0.014616471715271473,0.002168938110116869,-1.7603837251663208,-1.3758978843688965,-0.0031080712797120214,-0.0055593266151845455,-35.36326235,149.16523775000002,80072.0,11.0,-2.5,98.5,3.0,-75.0,-986.5,-1369.5,-1.5,-2.0,150034.0
10:29:10,RTL,-0.026142611168324947,0.0016698455438017845,-1.760725975036621,-1.3034089505672455,-0.0021016488026361912,-0.0006062171305529773,-35.36326137500001,149.165237575,79055.25,0.75,-0.75,98.5,2.0,-44.5,-994.75,-1295.5,-0.5,1.75,193232.0
10:29:11,RTL,-0.02639020048081875,0.0017343959189020097,-1.7606238722801208,-0.01892685890197754,-0.0002141192671842873,0.0036783269606530666,-35.363260499999996,149.16523734999998,78039.5,-7.0,0.5,100.5,1.0,30.5,-966.0,-10.5,0.5,6.0,193232.0
10:29:13,RTL,-0.000694878923241049,0.0003500373422866687,-1.7608436346054077,1.2825394868850708,-0.0016009164974093437,-0.004576464649289846,-35.36325995,149.16523725000002,75996.5,-18.5,2.0,95.0,0.5,69.0,-968.0,1290.0,-0.5,-1.5,218497.0
10:29:15,RTL,-0.008720039622858167,0.003116428037174046,-1.7610215544700623,0.8637667894363403,0.0027220407500863075,0.0014007289428263903,-35.363259,149.16523695,73958.5,-28.0,3.5,99.5,2.5,5.5,-1073.0,868.0,4.0,4.0,218497.0
10:29:16,RTL,-0.02425545291043818,0.001257987714780029,-1.7610244154930115,-0.19974027760326862,-0.005802184634376317,-0.004783739568665624,-35.363258224999996,149.1652367,72952.0,-36.0,6.0,100.0,0.5,-45.0,-983.5,-196.0,-3.75,-1.75,185656.0
10:29:17,RTL,-0.026168249547481537,-0.0005750199343310669,-1.7601736783981323,-0.9143277704715729,-0.00043494015699252486,-0.010577838402241468,-35.3632583,149.16523675000002,71933.0,-42.0,7.5,102.5,0.0,-68.0,-997.5,-910.5,0.0,-7.0,185656.0
10:29:19,RTL,-0.047273846343159676,0.0015930231602396816,-1.760500967502594,-1.2593409419059753,0.0008803381933830678,0.00030530785443261266,-35.363258599999995,149.16523684999999,69902.5,-37.5,5.0,100.5,0.5,-36.5,-1012.5,-1253.5,2.0,3.0,19739.0
10:29:21,RTL,-0.041727254167199135,-0.0003903278266079724,-1.7602331042289734,-0.04061855375766754,-3.581738565117121e-05,0.0022606193087995052,-35.3632577,149.1652366,67855.5,-46.0,8.0,103.5,-0.5,33.5,-1026.0,-35.0,1.0,4.5,19739.0
10:29:22,RTL,-0.03808348719030619,-0.00026044818696391303,-1.7603179216384888,0.051553908502683043,0.00025760885910131037,0.003074338543228805,-35.3632578,149.1652367,66833.0,-45.75,7.5,99.75,0.25,40.25,-986.25,56.75,1.5,5.75,14160.0
10:29:23,RTL,-0.023232498206198215,-0.001396232401020825,-1.7602948546409607,1.109060287475586,0.0022326084435917437,0.002127491985447705,-35.3632578,149.16523675000002,65816.5,-45.5,7.5,103.0,-1.5,70.0,-984.5,1112.5,3.0,5.0,14160.0
10:29:25,RTL,0.007889485626947135,-0.004645799053832889,-1.7604662775993347,0.13507422804832458,-0.009550300426781178,-0.005457633640617132,-35.363259549999995,149.1652373,63712.0,-36.5,5.0,99.5,-0.5,-24.5,-973.5,135.0,-8.0,-3.0,192650.0
10:29:27,RTL,-0.0015260381042025983,-0.0025314507074654102,-1.7602232694625854,-1.3071476221084595,-0.002785764430882409,0.002984359161928296,-35.36326155,149.1652377,61616.5,-16.5,0.5,104.0,-2.5,-80.0,-958.5,-1306.0,-1.5,5.5,192650.0
10:29:28,RTL,0.0027699728962033987,-0.0015387866005767137,-1.7601079642772675,-1.2507905960083008,0.0028390595107339323,-0.002160203643143177,-35.36326235,149.1652378,60599.5,-7.75,0.0,98.5,-2.25,-68.75,-1028.25,-1249.5,4.25,0.5,281360.0
10:29:29,RTL,0.005707265227101743,0.0008939665640355088,-1.7601346373558044,-1.0842193067073822,-0.0020816895412281156,-0.004742085002362728,-35.363262950000006,149.1652378,59626.0,-0.5,-1.0,98.0,0.5,-64.5,-978.0,-1083.5,-1.0,-2.0,281360.0
10:29:31,RTL,-0.023701395839452744,0.0028208561707288027,-1.7599629163742065,-1.0721611678600311,-0.000855486374348402,-0.00073633948341012,-35.3632616,149.1652374,57583.0,-2.0,0.5,106.0,1.0,-37.5,-918.5,-1070.0,0.5,2.0,203114.0
10:29:33,RTL,-0.009815084049478173,-0.0010180426179431379,-1.7600128054618835,0.31553006917238235,0.00032932814792729914,-0.0017265190836042166,-35.363261050000006,149.16523745,55492.5,-9.5,1.5,97.5,0.0,50.5,-996.0,319.0,1.0,0.0,203114.0
