time_stamp,MODE,roll,pitch,yaw,rollspeed,pitchspeed,yawspeed,lat,lon,relative_alt,vx,vy,vz,xacc,yacc,zacc,xgyro,ygyro,zgyro,RTL_ALT
12:30:36,STABILIZE,-0.0009918338619172573,0.0009342257981188595,0.025287946686148643,0.00034401367884129286,0.00019156531197950244,0.0018909331411123276,-35.3632621,149.1652374,0.0,-1.0,0.0,-2.0,0.0,-25.0,-1041.0,0.0,0.0,0.0,1500.0
12:30:42,AUTO,-0.0005987424519844353,0.0009739214438013732,0.02318902499973774,0.0003938408335670829,0.00025993376038968563,0.0015710103325545788,-35.3632622,149.1652375,0.0,-1.0,1.0,-1.0,0.0,1.0,-1000.0,1.0,0.0,0.0,1500.0
12:30:43,AUTO,-0.0005315567541401833,0.00100715781445615,0.022834772244095802,0.0002295579615747556,0.00024774798657745123,0.001553575595607981,-35.36326215,149.1652375,5.0,-0.5,1.25,-0.25,0.0,1.25,-1000.25,0.0,0.5,0.0,232226.0
12:30:44,AUTO,-0.00043429015204310417,0.0011217983555980027,0.022585822269320488,0.00026703873299993575,0.0003255823685321957,0.0015215216553770006,-35.3632621,149.16523745,3.0,0.0,0.0,0.0,0.0,1.5,-1000.0,0.0,0.0,0.0,232226.0
12:30:46,AUTO,5.691109163308283e-05,0.0016921857604756951,0.021896391175687313,0.00040499254828318954,0.0003408856282476336,0.0015281931264325976,-35.3632621,149.1652374,0.0,0.0,0.0,0.0,0.0,2.0,-1000.0,0.5,1.0,0.0,232226.0
12:30:47,AUTO,0.004676905955420807,0.0009559999853081536,0.021646950393915176,0.010616604355163872,0.0007999730878509581,0.0011698246380547062,-35.3632621,149.1652374,577.5,0.0,0.25,-108.25,0.0,0.0,-1091.75,11.25,1.25,0.25,92519.0
12:30:48,AUTO,0.028787663206458092,-0.001837101299315691,0.021503509022295475,0.04585740529000759,-0.0074358051642775536,0.002705924562178552,-35.36326205,149.1652376,1574.0,0.5,8.0,-145.5,0.0,-0.5,-1012.0,46.0,-6.5,1.5,92519.0
12:30:50,AUTO,-0.04054168984293938,0.015935177449136972,-0.08453717455267906,-0.052497584372758865,-0.02629024302586913,-0.03351354319602251,-35.3632609,149.16524545,4611.5,-2.5,31.0,-148.0,4.0,-7.0,-1002.0,-51.5,-25.0,-33.5,92519.0
12:30:51,AUTO,-0.04692095052450895,-0.00985293893609196,-0.08789584413170815,0.05783586110919714,0.005038264353061095,-0.00036346538399811834,-35.363261175,149.16524415,6525.25,-0.75,-44.75,-148.25,-3.75,6.75,-1001.25,58.0,5.5,-0.75,300000.0
12:30:52,AUTO,-6.551295518875122e-05,-0.0020234666517353617,-0.0885372906923294,0.06483706831932068,0.014814394060522318,0.003619557246565819,-35.3632613,149.16523965,7678.5,-1.0,-59.0,-150.0,-7.5,13.5,-1003.5,65.0,14.5,2.5,300000.0
12:30:54,AUTO,0.011867613648064435,-0.0011453676706878468,-0.08276213705539703,-0.07032041437923908,-0.01348062139004469,-0.004811839578906074,-35.36326235,149.16523495,10792.0,-5.0,22.5,-148.5,3.5,-3.0,-1001.0,-69.0,-12.5,-4.5,300000.0
12:30:55,AUTO,-0.013261335203424096,-0.004347170179244131,-0.10835108160972595,0.011130461149150506,0.00397091027116403,-0.023885382805019617,-35.363262475,149.16523665000003,12721.5,2.5,2.5,-151.25,0.0,-0.75,-1000.75,11.25,4.75,-24.0,107249.0
12:30:56,AUTO,-0.0017582558211870492,-0.0001103547983802855,-0.12703490629792213,0.016721367835998535,0.008162414887920022,-0.023506494238972664,-35.363262250000005,149.1652365,13889.5,4.0,-5.5,-152.0,-1.5,0.0,-1000.0,17.0,8.0,-23.5,107249.0
12:30:58,AUTO,-0.047311242669820786,0.014146998059004545,-0.1462106928229332,-0.05255771824158728,0.04869258005055599,0.11158896377310157,-35.3632617,149.16523485,16998.0,-5.5,-17.5,-147.0,-2.0,2.0,-989.0,-51.5,49.0,111.0,107249.0
12:30:59,AUTO,0.05250751320272684,-0.025102136307395995,0.05090603604912758,0.06260915251914412,-0.04605103516951203,-0.013343488331884146,-35.3632636,149.16523055,18608.25,-19.25,-16.5,-101.25,1.0,7.0,-960.25,63.0,-45.0,-13.75,200.0
12:31:00,AUTO,0.05741109699010849,-0.02469561342149973,0.03386169485747814,-0.04358862154185772,0.029196537099778652,-0.009416284505277872,-35.3632642,149.16523045,19291.5,2.5,26.0,-74.0,1.0,-3.5,-971.0,-42.5,29.5,-9.0,200.0
12:31:02,AUTO,-0.012145204935222864,0.014126002788543701,0.029641726054251194,-0.0070803118869662285,0.0013901127967983484,-0.0010674132208805531,-35.363261800000004,149.16523834999998,20307.0,8.5,28.0,-26.0,0.0,-7.5,-974.5,-6.0,2.5,-0.5,200.0
12:31:03,AUTO,-0.02123587066307664,0.006262929644435644,0.026339089032262564,0.08891281485557556,-0.016009255312383175,-0.009174105944111943,-35.3632613,149.16524005,20366.25,-2.25,-2.0,14.0,-0.75,11.5,-984.5,90.0,-14.75,-8.75,1336.0
12:31:04,AUTO,0.04700602404773235,-0.03303482849150896,0.024539648555219173,0.14021340757608414,-0.04227280057966709,4.143780097365379e-05,-35.3632613,149.16523945,20226.0,5.0,-0.5,10.5,-3.0,-14.5,-1016.5,140.0,-41.0,0.0,1336.0
12:31:06,AUTO,0.027683955617249012,-0.14667583256959915,0.9445810616016388,0.25223889062181115,-0.04320884495973587,0.45090557634830475,-35.3632521,149.1652512,20172.5,106.5,137.5,-2.5,-34.5,-16.5,-1007.0,253.0,-41.5,450.0,1336.0
12:31:07,AUTO,0.028298636432737112,-0.16798607259988785,0.9436594545841217,0.0416955822147429,0.03282153722830117,-0.04215120803564787,-35.363235225,149.165278025,20186.25,196.0,248.25,-3.75,-64.0,-38.25,-1009.75,42.5,33.25,-41.75,78327.0
12:31:08,AUTO,0.038281410932540894,-0.13456470519304276,0.9365001618862152,-0.08616505470126867,0.019552408251911402,-0.00046509155072271824,-35.3632208,149.1653007,20226.0,236.5,295.5,-9.5,-79.5,-46.5,-1002.5,-84.5,19.5,-1.0,78327.0
12:31:10,AUTO,0.051536090672016144,-0.09694452583789825,0.9320510923862457,0.0075249820947647095,0.01854698872193694,0.0010777930729091167,-35.3631741,149.16537440000002,20399.5,278.5,349.5,-9.0,-92.5,-44.0,-995.0,8.5,18.5,1.0,78327.0
12:31:11,AUTO,0.05423710774630308,-0.07996240258216858,0.9296113848686218,0.00524334330111742,0.010076187551021576,-0.0011762294743675739,-35.36314305,149.16542347499998,20498.25,278.0,349.0,-6.75,-87.5,-53.5,-991.25,6.0,11.0,-0.75,244541.0
12:31:12,AUTO,0.057410918176174164,-0.052394792437553406,0.9295394122600555,-0.02011304348707199,0.06363611109554768,0.0018979207379743457,-35.36312445,149.16545255,20550.0,271.5,342.0,-7.5,-83.0,-58.5,-997.5,-19.5,64.0,1.5,244541.0
12:31:14,AUTO,0.04088341258466244,0.04673564434051514,0.9306387901306152,-0.5511277914047241,0.04953977093100548,0.009577671444276348,-35.3630823,149.16551915000002,20675.0,183.0,237.0,-1.0,-62.5,-67.5,-1000.0,-550.0,50.0,9.5,244541.0
12:31:15,AUTO,0.023720158729702234,0.08927875943481922,0.9288084208965302,-0.11891466192901134,-0.011775103033869527,-0.00012202328070998192,-35.363066849999996,149.165544475,20687.25,92.0,125.5,1.0,-33.0,-26.25,-1005.25,-118.25,-10.75,-0.25,193362.0
12:31:16,AUTO,0.014915149193257093,0.061695994809269905,0.9268907606601715,0.16566096246242523,-0.03943086601793766,0.005002324120141566,-35.363062049999996,149.165553,20674.0,49.0,68.0,1.5,-16.0,-16.0,-1006.0,166.0,-38.0,4.5,193362.0
12:31:18,AUTO,-0.0006113993586041033,0.021962675265967846,0.9250571429729462,0.41305896639823914,-0.01876997109502554,0.0005079515076431562,-35.3630584,149.16555985000002,20668.0,6.0,-2.0,0.0,-0.5,18.0,-1000.5,413.5,-17.0,0.5,193362.0
12:31:19,RTL,-0.005269742803648114,-0.0014772652793908492,0.9248858094215393,0.06109406054019928,-1.003616489470005e-05,-0.0013365813028940465,-35.363058375,149.16556012499998,20674.5,7.5,-5.75,0.5,0.0,-0.25,-999.25,61.25,0.75,-1.25,151364.0
12:31:20,RTL,-0.005182698019780219,0.008289023069664836,0.9258081018924713,0.37406840920448303,0.015183238545432687,-0.007104394491761923,-35.3630583,149.1655605,20678.5,9.0,-4.0,-1.0,0.0,13.0,-1014.5,374.5,15.5,-6.5,151364.0
12:31:22,RTL,-0.015665133483707905,0.005513060139492154,0.9225103855133057,-0.00457889586687088,-0.0013834883575327694,-0.008561046095564961,-35.3630588,149.1655616,21357.0,11.5,-15.5,-75.5,0.0,-2.0,-1046.0,-4.5,0.0,-8.0,151364.0
12:31:23,RTL,-0.006111940369009972,0.0014945473667467013,0.9201335161924362,0.017683200421743095,-0.0022253458155319095,-0.005584538273978978,-35.36305875000001,149.1655612,22699.25,12.25,-16.25,-129.5,-0.5,2.0,-1038.0,17.25,-0.5,-5.5,67333.0
12:31:24,RTL,0.023399952799081802,-0.0014579276903532445,0.9193316400051117,0.05187555402517319,-0.004650095943361521,-1.8315447960048914e-05,-35.3630585,149.16556085000002,23778.5,5.5,-9.5,-147.5,-0.5,1.5,-1006.5,51.0,-2.5,-0.5,67333.0
12:31:26,RTL,-0.059153610840439796,0.007832274539396167,0.8608773052692413,-0.016048563877120614,-0.014672748744487762,-0.028406196273863316,-35.3630616,149.16556495,26823.0,-14.0,8.5,-148.0,2.0,-4.5,-1007.5,-16.5,-12.5,-28.5,67333.0
12:31:27,RTL,-0.017028262373059988,0.0009456733750994317,0.8453356474637985,0.05893383454531431,0.0028574037132784724,0.0007955025066621602,-35.363059899999996,149.165563,28758.0,25.25,-28.5,-149.75,-4.0,9.5,-1001.5,58.0,3.75,0.5,300000.0
12:31:28,RTL,0.021224902011454105,-0.0023001929803285748,0.8540098667144775,0.03898252081125975,-0.019314506091177464,0.03400551341474056,-35.3630578,149.16556014999998,29925.5,19.5,-28.5,-151.0,-4.5,9.5,-1001.5,38.0,-17.5,33.5,300000.0
12:31:30,RTL,0.016783935017883778,0.0007985037445905618,0.863732248544693,-0.004199900315143168,0.0070489938370883465,-0.014306668192148209,-35.363055149999994,149.16555714999998,33036.0,-5.0,5.0,-151.0,-1.0,0.0,-1000.5,-4.0,8.0,-14.0,300000.0
12:31:31,RTL,0.011443814728409052,0.004430461674928665,0.8414286971092224,0.00023532954946858808,0.0015578519087284803,-0.016305703669786453,-35.363054749999996,149.16555745,34984.75,-9.25,7.75,-151.0,-0.25,-0.25,-1000.0,0.5,2.5,-15.75,252268.0
12:31:32,RTL,0.00966724008321762,0.005107277072966099,0.8271441161632538,0.0006953079137019813,0.0015077778953127563,-0.018092135898768902,-35.36305475,149.16555775,36154.0,-11.0,7.0,-151.5,0.0,-1.0,-999.5,0.5,2.5,-17.5,252268.0
12:31:34,RTL,0.006734924390912056,0.004204549361020327,0.7841915488243103,0.0011922367993975058,0.000340828497428447,-0.02197344321757555,-35.36305525,149.1655584,39279.5,-12.0,5.0,-152.0,0.5,0.0,-1000.0,1.0,1.0,-21.0,252268.0
12:31:35,RTL,0.005988299730233848,0.0033308754209429026,0.7549694627523422,-0.00019015869474969804,-0.0005128261254867539,-0.022266440093517303,-35.36305575,149.165558575,41225.75,-10.5,4.25,-152.0,0.25,-0.25,-999.25,0.5,0.25,-21.5,164002.0
12:31:36,RTL,0.005852467846125364,0.003001784556545317,0.7369377911090851,0.0027634321013465524,0.00019495247397571802,-0.022049345076084137,-35.36305605,149.1655586,42397.0,-10.0,4.0,-152.0,0.5,0.0,-1000.0,2.5,1.0,-21.0,164002.0
12:31:38,RTL,0.004804270109161735,0.003068736055865884,0.6882895231246948,0.002229276578873396,0.0006089626112952828,-0.023278750479221344,-35.3630566,149.1655588,45513.5,-7.5,3.0,-152.0,0.0,0.0,-1000.0,2.5,2.0,-22.0,164002.0
12:31:39,RTL,0.0049818604020401835,0.002960659156087786,0.6596850007772446,0.0009746926807565615,-4.194836947135627e-05,-0.020584477577358484,-35.363056775000004,149.16555887500002,47463.75,-6.5,3.0,-152.0,0.0,0.0,-999.75,1.5,1.0,-19.25,293645.0
12:31:40,RTL,0.004238871857523918,0.0030177333392202854,0.6429247856140137,0.0025422079488635063,0.0007565683335997164,-0.01968411635607481,-35.3630569,149.1655589,48633.0,-6.0,3.0,-152.0,0.0,0.0,-1000.0,3.0,2.0,-19.0,293645.0
12:31:42,RTL,0.005590662593021989,0.004515579203143716,0.6594691276550293,-0.0025134847965091467,-0.0025306878378614783,0.02883079554885626,-35.363057350000005,149.16555905,51736.5,-9.0,4.0,-152.0,0.0,0.0,-1000.5,-1.0,-0.5,29.5,293645.0
12:31:43,RTL,0.0019359492289368063,0.0019411556131672114,0.6923485994338989,0.0003973920247517526,-0.0011020759993698448,0.025942759588360786,-35.3630578,149.16555925,53671.75,-6.5,3.0,-152.0,0.0,0.0,-1000.25,1.25,0.5,26.5,32026.0
12:31:44,RTL,0.0018264400423504412,0.0014215550036169589,0.7092104256153107,0.0027568963123485446,0.0003286832361482084,0.022006213665008545,-35.3630579,149.1655593,54835.5,-4.5,2.0,-152.0,0.0,0.0,-1000.0,3.5,1.0,22.5,32026.0
12:31:46,RTL,0.0037195326294749975,0.0017108229221776128,0.7449549734592438,0.002072353148832917,0.001454562647268176,0.017490101046860218,-35.3630579,149.1655593,57943.0,-1.5,2.0,-152.0,0.0,0.0,-999.5,2.5,2.5,18.0,32026.0
12:31:47,RTL,0.004738682880997658,0.002358440397074446,0.7626810073852539,-9.380636038258672e-05,0.0013349344953894615,0.01409517228603363,-35.363057649999995,149.1655593,59884.25,-1.75,2.0,-152.0,0.0,0.0,-999.75,1.0,2.5,14.75,223306.0
12:31:48,RTL,0.004489918472245336,0.002579550491645932,0.7717613279819489,0.0031430020462721586,0.0003912615356966853,0.012423272244632244,-35.36305754999999,149.1655593,61048.0,-2.0,2.0,-152.0,0.0,0.0,-1000.5,3.5,1.0,13.0,223306.0
12:31:50,RTL,0.0039560586446896195,0.0025155507028102875,0.7921561300754547,0.002535577048547566,0.001347725628875196,0.009276157710701227,-35.3630574,149.1655593,64161.0,-3.0,2.0,-152.0,0.0,0.0,-1000.5,3.0,2.5,10.0,223306.0
12:31:51,RTL,0.003504044725559652,0.0025243604904972017,0.8018435835838318,0.00018690410070121288,0.0006451451336033642,0.008261048700660467,-35.3630574,149.1655593,66093.25,-3.0,1.0,-152.0,0.0,0.0,-999.5,1.25,2.0,9.0,272148.0
12:31:52,RTL,0.0036545799812301993,0.0027883793227374554,0.8072023093700409,0.0012832990032620728,0.000333653821144253,0.007457339204847813,-35.3630573,149.1655593,67260.5,-3.0,1.0,-152.0,0.0,0.0,-1000.5,2.5,1.5,8.0,272148.0
12:31:54,RTL,0.0028161327354609966,0.002939639729447663,0.8197076618671417,0.002547128708101809,0.0020498038502410054,0.006711082765832543,-35.3630573,149.1655594,70369.5,-3.0,1.0,-152.0,0.0,0.0,-999.5,3.5,3.5,7.5,272148.0
12:31:55,RTL,0.003008546365890652,0.0024840017431415617,0.8267785906791687,-5.984707968309522e-06,-4.367611836642027e-07,0.007197004393674433,-35.3630573,149.1655594,72311.0,-3.0,0.0,-152.0,0.0,0.0,-999.75,1.25,1.5,8.0,173966.0
12:31:56,RTL,0.0029708733782172203,0.0023133589420467615,0.8307268619537354,0.0022461488842964172,0.00012520607560873032,0.006740598939359188,-35.3630573,149.1655594,73475.0,-3.0,0.0,-152.0,0.0,0.0,-1000.0,3.5,1.5,7.5,173966.0
12:31:58,RTL,0.0027837264351546764,0.0021900113206356764,0.8411253690719604,0.0031299139373004436,0.00029372074641287327,0.005379072856158018,-35.3630573,149.1655594,76584.5,-3.0,0.0,-152.0,0.0,0.0,-1000.5,4.0,1.5,6.0,173966.0
12:31:59,RTL,0.00290369288995862,0.002119841461535543,0.8462758660316467,0.0015880618302617222,0.0002821969392243773,0.005648254998959601,-35.3630573,149.1655594,78521.25,-2.5,0.0,-152.0,0.0,0.0,-1000.5,2.75,1.75,6.5,103012.0
12:32:00,RTL,0.00303519144654274,0.0021512157982215285,0.8493696749210358,0.001345982716884464,-0.0003572222194634378,0.0057370399590581656,-35.3630573,149.1655594,79686.0,-2.0,0.0,-152.0,0.0,0.0,-1000.0,2.5,1.0,6.5,103012.0
12:32:02,RTL,0.0030181562760844827,0.0023387783439829946,0.8564076721668243,-6.142049096524715e-05,0.00023193826200440526,0.004519022302702069,-35.3630573,149.1655594,82791.0,-3.0,0.0,-152.0,0.0,0.0,-1000.0,1.5,1.5,5.5,103012.0
12:32:03,RTL,0.0026037421193905175,0.002735039102844894,0.860443651676178,-0.00017410954751539975,0.0017762247007340193,0.0040978280594572425,-35.3630573,149.165559425,84735.0,-2.5,0.0,-152.0,0.0,0.0,-999.5,1.0,3.0,4.75,217442.0
12:32:04,RTL,0.00277321832254529,0.002688786364160478,0.8627568483352661,0.0013342790771275759,-4.770449595525861e-05,0.004627448157407343,-35.3630573,149.1655595,85901.0,-3.0,0.0,-152.0,0.0,0.0,-1000.0,2.5,1.0,5.5,217442.0
12:32:06,RTL,0.002715212991461158,0.0023101114202290773,0.868379533290863,0.0018300298834219575,0.00013496138853952289,0.0033990468364208937,-35.3630573,149.1655595,89006.0,-2.0,0.0,-152.0,0.0,0.0,-1000.0,3.0,1.5,4.5,217442.0
12:32:07,RTL,0.002575302787590772,0.002447444072458893,0.8711489886045456,0.0012081724125891924,0.0005195777921471745,0.0037031875690445304,-35.3630573,149.1655595,90953.5,-2.0,0.0,-152.0,0.0,0.0,-999.75,2.75,2.0,4.5,300000.0
12:32:08,RTL,0.0025013621198013425,0.002615582663565874,0.8731354773044586,0.000805128482170403,0.000988444429822266,0.0028677269583567977,-35.3630573,149.1655595,92120.0,-2.0,0.0,-152.0,0.0,0.0,-1000.0,2.0,2.5,4.0,300000.0
12:32:10,RTL,0.002365596708841622,0.0024544053012505174,0.8773392140865326,-0.0006560809561051428,-0.0008196007111109793,0.002067037217784673,-35.3630573,149.1655595,95226.0,-2.0,0.0,-152.0,0.0,0.0,-1000.0,0.5,1.0,3.0,300000.0
12:32:11,RTL,0.0020080232352484018,0.0021462218137457967,0.8795281648635864,0.0007263195875566453,0.0002342417137697339,0.00297845879686065,-35.3630573,149.1655595,97158.5,-2.0,0.0,-152.0,0.0,0.0,-1000.0,2.0,1.75,4.25,300000.0
12:32:12,RTL,0.00220708514098078,0.0023700917372480035,0.8806621134281158,0.002988925902172923,-0.0008061739499680698,0.0025762111763469875,-35.3630573,149.1655595,98323.5,-2.0,0.0,-152.0,0.0,0.0,-1000.0,4.5,0.5,4.0,300000.0
12:32:14,RTL,0.002481110510416329,0.0022385851480066776,0.8847581148147583,0.0014215788687579334,0.0008234477136284113,0.0028817427810281515,-35.3630573,149.1655595,101436.5,-2.0,0.0,-152.0,0.0,0.0,-1000.0,3.0,2.5,4.0,300000.0
12:32:15,RTL,0.002367817040067166,0.0021381418919190764,0.8864721059799194,0.00038569566095247865,0.0008270051039289683,0.002908186404965818,-35.3630573,149.1655595,103380.5,-2.0,0.0,-152.0,0.0,0.0,-999.75,1.75,2.0,4.0,215862.0
12:32:16,RTL,0.002480373252183199,0.002441565738990903,0.8872773051261902,0.001593140885233879,0.001215155585668981,0.002746857702732086,-35.3630573,149.1655595,104546.0,-2.0,0.0,-152.0,0.0,0.0,-999.5,3.0,3.0,4.0,215862.0
12:32:18,RTL,-1.2823089491575956e-05,0.0558732096105814,0.8897081315517426,-0.0038465657271444798,0.035891348496079445,0.0019602544489316642,-35.363057999999995,149.16555855000001,107638.5,-21.0,-23.5,-149.5,3.0,1.5,-998.5,-1.5,37.5,3.0,215862.0
12:32:19,RTL,-0.010986873880028725,0.09869551472365856,0.891071006655693,-0.011043829843401909,0.03847042564302683,0.002838514366885647,-35.363062775,149.165551575,109501.25,-69.25,-83.0,-141.25,17.25,9.5,-992.0,-9.0,40.0,4.0,96961.0
12:32:20,RTL,-0.032722603529691696,0.15045544505119324,0.9356894493103027,-0.11095063015818596,0.153675127774477,0.2759892866015434,-35.3630684,149.16554315000002,110543.0,-106.0,-135.0,-123.0,27.5,9.0,-945.5,-108.5,155.0,277.0,96961.0
12:32:22,RTL,0.054735828191041946,0.10001835599541664,1.401723861694336,-0.1312868371605873,0.02858430240303278,-0.005354368593543768,-35.3630969,149.16549129999999,111625.0,-218.5,-277.0,6.5,83.0,4.5,-950.5,-129.0,30.0,-4.0,96961.0
12:32:23,RTL,0.008997465403808746,0.13788877800107002,1.3616513907909393,-0.11865290254354477,0.018884648161474615,-0.05002552573569119,-35.363125225,149.165451975,111330.5,-274.0,-300.5,21.5,97.5,5.25,-1012.5,-116.75,20.5,-47.75,42973.0
12:32:24,RTL,-0.01871203538030386,0.14146529138088226,1.3261104226112366,-0.29737742990255356,-0.015217208303511143,-0.04690856672823429,-35.3631442,149.1654262,111191.0,-285.0,-327.5,8.0,106.0,5.0,-1011.5,-295.0,-12.5,-44.0,42973.0
12:32:26,RTL,-0.04773719422519207,0.08508483693003654,1.2466424703598022,0.006955400109291077,-0.037209914065897465,-0.018680313369259238,-35.363194899999996,149.16535005,111154.5,-264.0,-354.0,-3.5,98.5,38.5,-1002.0,9.5,-34.5,-17.0,42973.0
12:32:27,RTL,-0.05204880516976118,0.02214461797848344,1.2085752487182617,0.07801838777959347,-0.042683664709329605,-0.031310793943703175,-35.363222825,149.16530435,111183.25,-221.5,-309.5,-2.25,83.5,32.75,-989.0,80.0,-40.0,-29.5,126928.0
12:32:28,RTL,-0.05936986021697521,-0.015696813352406025,1.1855616569519043,-0.6827616989612579,-0.05464042164385319,-0.043695189990103245,-35.363236799999996,149.16528069999998,111184.5,-184.5,-262.0,-0.5,71.5,1.5,-1000.5,-680.5,-52.0,-41.5,126928.0
12:32:30,RTL,-0.026935619302093983,-0.053719598799943924,1.137261986732483,-0.3466555718332529,0.04550022818148136,-0.008175353170372546,-35.363258,149.1652429,111147.0,-59.0,-89.5,0.5,21.0,11.0,-998.5,-344.0,47.5,-6.0,126928.0
12:32:31,RTL,-0.0013721660361625254,-0.024603568017482758,1.113520234823227,-0.21900121122598648,0.014378955820575356,-0.016326183220371604,-35.3632615,149.16523567500002,111137.0,-25.5,-31.0,-1.0,6.0,-7.0,-999.5,-217.25,16.25,-14.0,200.0
12:32:32,RTL,0.012644498609006405,-0.012771657668054104,1.1019889116287231,0.45817309617996216,0.018293464090675116,-0.01608104817569256,-35.363262250000005,149.16523425,111142.0,-15.5,-10.5,-1.5,1.5,16.0,-1009.5,459.5,20.5,-13.5,200.0
12:32:34,RTL,-0.002716124363359995,0.001165729932836257,1.0765241980552673,-0.2033226639032364,-0.0163033208809793,-0.006886736722663045,-35.36326285,149.16523425,111161.0,-13.5,-2.5,0.0,0.5,3.5,-999.0,-200.5,-13.0,-5.0,200.0
12:32:35,RTL,-0.007366813661064953,0.0017154730329593804,1.0633883774280548,-0.08102446026168764,0.006972808099817485,-0.00782910583075136,-35.363263375,149.16523515,111170.0,-2.5,1.75,0.0,0.0,-3.0,-999.25,-78.75,9.25,-5.5,118662.0
12:32:36,RTL,-0.005124783841893077,0.0057707063388079405,1.056662678718567,-0.18098313361406326,0.005217611789703369,-0.009363786783069372,-35.3632636,149.16523595,111172.0,1.5,1.0,0.0,0.0,-24.0,-993.0,-180.0,7.5,-7.0,118662.0
12:32:38,RTL,-0.008516286965459585,0.005817946279421449,1.0424352884292603,0.4456452280282974,0.0006400917773135006,-0.0030332899186760187,-35.3632634,149.1652375,111175.0,6.5,-4.0,0.5,0.0,30.0,-994.5,448.0,3.0,-0.5,118662.0
12:32:39,RTL,-0.026136809261515737,0.0056797132128849626,1.0334960222244263,-1.1020784974098206,0.0004389348905533552,-0.006816983193857595,-35.363263575000005,149.16523805,110872.75,8.75,-6.75,59.25,0.0,-50.0,-938.0,-1100.25,2.5,-4.75,170886.0
12:32:40,RTL,-0.03461460396647453,0.004242940805852413,1.0291774272918701,-1.3411287069320679,-0.0016983855748549104,-0.004073361633345485,-35.36326365,149.16523825000002,110279.0,10.5,-8.5,99.5,-1.0,-31.0,-975.5,-1338.5,1.0,-2.0,170886.0
12:32:42,RTL,-0.01645594323053956,-0.0004006322560599074,1.0185499787330627,-1.1261252760887146,0.0022879496682435274,-0.005564303777646273,-35.3632628,149.16523775000002,108034.0,7.5,-6.5,101.5,-3.5,-19.5,-1017.0,-1123.5,4.5,-3.5,170886.0
12:32:43,RTL,-0.008329012664034963,0.0009442813625355484,1.0127193331718445,-0.7002561688423157,0.0027970685623586178,-0.006410105968825519,-35.363261900000005,149.1652372,106756.25,0.25,-0.75,100.75,-0.75,4.25,-983.5,-696.75,5.25,-4.25,129828.0
12:32:44,RTL,0.0008685156280989759,0.0023381116334348917,1.0090335011482239,0.15948017686605453,0.0029915469931438565,-0.00027059740386903286,-35.3632615,149.165237,105994.0,-4.0,1.5,98.5,-2.0,52.0,-982.5,163.0,5.5,2.0,129828.0
12:32:46,RTL,0.02173592709004879,0.0038629412883892655,1.0018426179885864,1.1395444869995117,0.00016159750521183014,-0.0005776907783001661,-35.36326095,149.16523675000002,103969.5,-11.5,6.0,100.5,0.0,68.5,-1035.0,1142.0,3.0,1.5,129828.0
12:32:47,RTL,0.017043882980942726,0.0032177905086427927,0.9975535422563553,1.4401725232601166,-0.005262877617496997,-0.003883519093506038,-35.3632613,149.165237075,102689.25,-11.0,5.0,99.5,0.5,72.25,-1011.0,1442.5,-2.0,-1.5,200.0
12:32:48,RTL,0.019309660885483027,0.0011563896769075654,0.9942408800125122,1.4954718947410583,0.0018123398767784238,-0.0036342424573376775,-35.3632612,149.16523695,101917.5,-10.0,3.0,103.5,-3.0,76.5,-995.5,1498.0,4.5,-1.5,200.0
12:32:50,RTL,0.02295672334730625,0.002967159729450941,0.9879114031791687,1.4414563179016113,-0.0014436596538871527,-0.00676070898771286,-35.3632607,149.1652365,99874.5,-16.0,8.5,102.5,-2.0,74.0,-1009.0,1444.0,1.5,-4.0,200.0
12:32:51,RTL,0.030714515130966902,0.0013090978463878855,0.9848192185163498,1.3857201933860779,0.0013489695265889168,-1.4027900760993361e-05,-35.363260525,149.165236325,98589.0,-15.5,8.0,97.5,-0.5,65.0,-1037.25,1388.0,4.25,2.0,124236.0
12:32:52,RTL,0.03739715553820133,0.003729441436007619,0.9834889471530914,1.3650413751602173,0.001429929630830884,-0.005153456935659051,-35.3632604,149.1652363,97826.5,-16.5,9.5,97.5,0.5,43.5,-1004.5,1367.0,3.5,-3.0,124236.0
12:32:54,RTL,-0.020912679377943277,0.0053544254042208195,0.9785634577274323,-1.3604710102081299,0.004608397372066975,-0.0052601160714402795,-35.3632614,149.1652372,95682.0,-11.0,5.5,101.0,1.5,-47.0,-967.5,-1357.0,7.0,-3.0,124236.0
12:32:55,RTL,-0.03118123533204198,0.0069065309362486005,0.9765348732471466,-0.9700679033994675,0.002162486722227186,-0.007586453924886882,-35.363262500000005,149.1652381,94413.0,-2.75,0.5,97.5,2.75,-20.75,-1015.5,-966.0,5.0,-4.75,200.0
12:32:56,RTL,-0.04024245776236057,0.00644311448559165,0.9745014309883118,-0.6929388642311096,0.001551249180920422,-0.0010462342761456966,-35.3632634,149.1652388,93652.0,3.5,-4.5,101.0,3.5,-3.0,-987.0,-688.5,4.5,1.0,200.0
12:32:58,RTL,-0.07163350656628609,0.005762831540778279,0.9720172882080078,-1.1714757680892944,-0.0038885350804775953,0.0030311578884720802,-35.363266100000004,149.16524095,91719.5,29.0,-21.5,100.5,4.0,-26.5,-1007.5,-1168.5,-0.5,5.5,200.0
12:32:59,RTL,-0.06733495555818081,0.0028615914925467223,0.9692550301551819,-1.155848503112793,-0.0034668232838157564,-0.0016202956612687558,-35.363267,149.1652416,90455.25,43.5,-31.5,102.25,0.5,-23.75,-1004.0,-1153.0,0.0,0.25,87572.0
12:33:00,RTL,-0.06644455343484879,0.0013562996173277497,0.968251496553421,-0.955186128616333,-0.0032967239967547357,0.004543661489151418,-35.3632671,149.1652415,89696.0,47.0,-34.0,104.0,-0.5,-4.5,-955.5,-952.5,-0.5,6.0,87572.0
12:33:02,RTL,-0.012232386041432619,-0.0016364211915060878,0.9650617837905884,1.417167067527771,0.0008274639258161187,-0.0007079351344145834,-35.36326615,149.1652407,87538.5,44.0,-32.0,102.5,-4.0,72.0,-1038.5,1417.5,4.0,1.0,87572.0
12:33:03,RTL,0.012693871976807714,-0.0030930835637263954,0.9633605629205704,1.0012698620557785,-0.002043718472123146,2.580080763436854e-05,-35.3632645,149.1652393,86252.0,33.5,-24.25,101.5,-4.5,21.75,-1017.5,999.25,0.75,2.0,194627.0
12:33:04,RTL,0.023631230928003788,-0.0035004038363695145,0.9623916149139404,0.39998528361320496,-0.00027481355937197804,0.0010673738433979452,-35.363263200000006,149.16523825000002,85481.0,23.5,-17.0,100.0,-4.0,-14.0,-973.5,397.0,2.5,3.0,194627.0
12:33:06,RTL,0.021652158349752426,-0.0004382711631478742,0.9606833755970001,-1.1908778548240662,0.006631791125983,-0.001244963612407446,-35.3632602,149.16523585,83438.5,-7.0,4.5,100.0,-2.0,-70.5,-987.5,-1192.0,9.0,1.0,194627.0
12:33:07,RTL,0.008956076693721116,0.0027109847869724035,0.9604330062866211,-1.3480867445468903,0.0022262645070441067,-0.0020275272254366428,-35.363259525,149.165235475,82169.25,-20.0,13.0,99.5,-0.25,-57.0,-986.0,-1348.0,4.75,0.5,200.0
12:33:08,RTL,-0.0006621976208407432,0.004897041479125619,0.9595637619495392,-1.433195173740387,0.006409163470380008,-0.0026549603790044785,-35.36325945,149.16523554999998,81398.5,-23.0,15.5,101.0,1.0,-49.5,-993.5,-1432.0,9.0,0.0,200.0
12:33:10,RTL,-0.026796214282512665,0.007927457801997662,0.9587679803371429,-1.1461836695671082,-0.0009329826571047306,0.005268975393846631,-35.36326125,149.1652373,79367.0,-15.0,7.5,101.5,3.0,-23.5,-986.0,-1144.5,2.0,7.0,200.0
12:33:11,RTL,-0.03311580279842019,0.006044591078534722,0.9566124528646469,-0.6270528696477413,0.0016516855685040355,-0.0009315925126429647,-35.363262725,149.165238375,78082.5,-2.0,-1.5,99.75,2.0,-4.75,-1003.5,-625.25,4.5,1.25,300000.0
12:33:12,RTL,-0.03643694892525673,0.00531448726542294,0.956518828868866,-0.0947813019156456,0.004864242975600064,-0.00045145238982513547,-35.36326355,149.16523899999999,77321.5,4.5,-6.0,99.0,2.0,33.0,-1011.5,-92.0,7.5,1.5,300000.0
12:33:14,RTL,-0.0034511227859184146,5.305890226736665e-06,0.9557670652866364,1.4727746844291687,-0.008481861557811499,-0.006385708227753639,-35.3632645,149.16523945,75281.0,19.0,-16.0,99.5,-0.5,61.0,-1020.5,1472.5,-5.0,-3.5,300000.0
12:33:15,RTL,0.01279227458871901,-0.0018607031379360706,0.9550464600324631,0.6750290021300316,-0.0030228328541852534,1.4435499906539917e-05,-35.36326365,149.165238575,74007.25,18.25,-14.25,99.75,-3.0,-1.25,-1003.5,672.75,0.5,2.5,200.0
12:33:16,RTL,0.01499110134318471,-0.0020298590534366667,0.9545491635799408,0.15379473567008972,-0.0011982677970081568,-0.004426014027558267,-35.3632629,149.1652379,73245.5,13.0,-9.5,100.5,-1.0,-22.0,-994.5,151.0,1.5,-1.5,200.0
12:33:18,RTL,-0.009555099532008171,0.002219025860540569,0.9538246691226959,-1.3232178688049316,0.0021935004042461514,-0.0029491950990632176,-35.3632619,149.1652373,71200.0,0.0,0.0,99.5,-1.5,-65.5,-1023.5,-1324.5,5.0,-0.5,200.0
12:33:19,RTL,-0.0035035105101997033,-1.793618139345199e-05,0.9533672779798508,-1.455565631389618,-0.003619240946136415,0.0019179186201654375,-35.3632614,149.16523692500002,69924.75,-3.0,0.75,99.5,-1.75,-63.75,-998.25,-1456.25,-0.5,4.25,30108.0
12:33:20,RTL,-0.000491672195494175,0.0008376348705496639,0.9533159732818604,-1.3804564476013184,0.0009481352753937244,0.0023002291563898325,-35.3632609,149.1652365,69150.5,-8.0,4.0,101.0,-2.0,-49.5,-981.5,-1380.0,4.5,4.5,30108.0
12:33:22,RTL,0.023443405516445637,0.003409586031921208,0.9521520733833313,1.06028151512146,0.0018692536978051066,0.0008583854651078582,-35.363260049999994,149.1652359,67101.5,-19.5,12.0,97.0,0.0,68.5,-1021.0,1061.5,5.0,2.5,30108.0
12:33:23,RTL,0.030394426081329584,0.0035280215670354664,0.952200248837471,1.3837847411632538,0.0011522943968884647,0.0027015432133339345,-35.363260275,149.1652361,65815.0,-20.0,12.5,96.25,0.5,52.25,-1019.25,1384.25,4.0,4.75,37870.0
12:33:24,RTL,0.031620205380022526,0.004818361718207598,0.9521573483943939,1.1970470547676086,0.003283433150500059,0.002339522587135434,-35.363260499999996,149.16523635,65051.0,-19.0,12.0,97.5,2.0,23.5,-1030.0,1196.5,6.0,4.5,37870.0
12:33:26,RTL,0.0008902987101464532,0.0039207483641803265,0.9518747627735138,-0.4952753633260727,0.0010182736441493034,-0.007712244288995862,-35.363261949999995,149.1652375,63017.0,-6.0,2.5,97.0,3.5,-57.0,-964.0,-496.5,3.5,-5.0,37870.0
12:33:27,RTL,-0.024795974604785442,0.003981441434007138,0.9504723846912384,-1.2231264412403107,-0.003954009851440787,-0.005801935447379947,-35.363262925,149.165238275,61751.5,1.5,-2.25,98.5,0.5,-68.0,-994.5,-1223.25,-0.25,-3.25,300000.0
12:33:28,RTL,-0.028590062633156776,0.0009380740521010011,0.9515394270420074,-1.4780477285385132,-0.001260511577129364,-0.0017565004527568817,-35.3632633,149.1652385,60987.5,6.0,-6.0,100.0,0.0,-71.5,-972.0,-1478.0,1.5,0.5,300000.0
12:33:30,RTL,0.005578826065175235,-0.0038325792411342263,0.9498971998691559,-1.417378842830658,-0.003705297247506678,0.011738143395632505,-35.3632616,149.16523684999999,58967.5,2.0,-3.0,102.0,-4.5,-58.5,-975.0,-1417.0,0.0,14.0,300000.0
12:33:31,RTL,0.01290472224354744,0.0005022498735343106,0.9501319527626038,-0.8781940340995789,0.005272118898574263,-0.0002566752955317497,-35.36325995,149.16523545,57694.0,-14.5,10.75,100.25,-1.5,-3.25,-983.5,-875.75,8.25,2.5,254393.0
12:33:32,RTL,0.011296425946056843,0.004322334425523877,0.9503172636032104,-0.18764541298151016,0.009222361259162426,0.01275682495906949,-35.36325965,149.1652355,56926.5,-21.5,16.5,100.0,1.5,25.5,-983.5,-185.0,12.0,15.0,254393.0
12:33:34,RTL,0.0001332368701696396,0.007551240036264062,0.9509449005126953,1.4318705201148987,-0.004799896967597306,0.004427136504091322,-35.363261949999995,149.16523784999998,54871.0,-10.0,4.5,99.5,3.5,59.0,-1041.5,1433.0,-1.0,6.5,254393.0
12:33:35,RTL,-0.004445193946594372,0.004506076802499592,0.950499877333641,0.6019329521805048,-0.0029795041191391647,-0.0001755775883793831,-35.3632632,149.1652387,53585.75,3.25,-5.25,99.0,2.0,-7.25,-1019.5,601.0,0.5,2.0,200.0
12:33:36,RTL,-0.016177148558199406,0.0027473813388496637,0.9504963457584381,-0.46201062202453613,-0.0015086273197084665,-0.003607130260206759,-35.36326365,149.16523895,52818.5,9.5,-9.5,99.0,0.5,-61.0,-981.0,-463.0,1.5,-0.5,200.0
12:33:38,RTL,-0.02263961173593998,0.0031701847910881042,0.9500099122524261,-1.0886319875717163,-0.0027582490583881736,0.004887717543169856,-35.363263950000004,149.16523915,50768.5,15.0,-12.0,99.0,0.0,-74.0,-1028.5,-1089.5,0.5,6.5,200.0
12:33:39,RTL,-0.03075691219419241,0.0012271005107322708,0.949378177523613,-1.3685773015022278,-0.001654673251323402,-0.0028836929704993963,-35.36326385,149.1652391,49508.5,17.25,-14.75,101.0,-2.25,-50.25,-996.5,-1367.75,2.0,-0.25,259953.0
12:33:40,RTL,-0.019730924163013697,-0.0006339645624393597,0.9491215944290161,-1.261514961719513,-0.006362520391121507,0.0020820082863792777,-35.36326325,149.1652385,48740.5,15.5,-13.5,98.5,-3.0,-24.5,-1043.0,-1260.5,-2.5,4.5,259953.0
12:33:42,RTL,-0.009087215643376112,0.002510730060748756,0.949335128068924,0.18335853144526482,0.0021020942367613316,0.002252494217827916,-35.36326205,149.1652376,46713.0,-0.5,-0.5,98.0,-1.5,47.5,-995.0,186.0,5.0,5.0,259953.0
12:33:43,RTL,0.022301228251308203,0.0012432616931619123,0.9486570358276367,1.2803199291229248,0.0037832435336895287,0.0061781423282809556,-35.36326155,149.16523719999998,45435.25,-3.75,0.25,100.5,-2.75,70.5,-1014.25,1281.25,7.25,8.5,300000.0
12:33:44,RTL,0.035285649821162224,-0.00011487714482427691,0.9487514793872833,1.4249264001846313,-0.00311396480537951,0.0034215813502669334,-35.36326105,149.16523669999998,44665.0,-7.5,2.0,100.5,-2.0,51.0,-989.0,1424.5,1.0,6.0,300000.0
12:33:46,RTL,0.04177338257431984,0.0010883715585805476,0.9496350884437561,-0.07491548359394073,-0.0006521693430840969,-0.002887293230742216,-35.3632592,149.16523510000002,42632.0,-22.5,14.5,101.5,-0.5,-42.0,-979.0,-75.5,3.0,0.0,300000.0
12:33:47,RTL,0.015115518799575511,0.006858943379484117,0.9501830786466599,-1.0340209901332855,0.002045308065135032,-0.0030996156274341047,-35.363259275,149.165235425,41367.25,-27.75,19.0,101.0,3.0,-75.5,-963.75,-1033.75,5.25,0.0,92318.0
12:33:48,RTL,-0.008309929864481091,0.00783905340358615,0.9498599171638489,-1.3834774494171143,-0.006609531701542437,-0.010368707356974483,-35.36325995,149.16523619999998,40603.5,-26.0,16.0,100.5,3.0,-68.5,-1023.0,-1382.5,-3.0,-7.0,92318.0
12:33:50,RTL,-0.022144215181469917,0.002670141402631998,0.9490444958209991,-1.3107749819755554,-0.004508233163505793,-0.001372076105326414,-35.36326165,149.16523734999998,38559.0,-11.0,4.0,103.5,-0.5,-37.5,-1003.0,-1307.5,-0.5,1.0,92318.0
12:33:51,RTL,-0.003900820098351687,0.0006155020091682673,0.949088528752327,0.1441752202808857,-0.000796914508100599,0.004224355157930404,-35.363261775,149.165237225,37284.75,-8.0,2.75,102.5,-1.0,49.5,-979.5,147.75,2.75,6.75,300000.0
12:33:52,RTL,0.014575834386050701,-0.0006488102371804416,0.9484160244464874,0.9598361551761627,-0.0008695240831002593,-0.0035343372728675604,-35.363261449999996,149.16523684999999,36514.5,-8.0,3.5,101.5,-1.5,80.0,-939.0,963.0,2.5,-1.0,300000.0
12:33:54,RTL,0.02907942235469818,0.0038259736029431224,0.9493900835514069,1.2919172048568726,0.0036584112094715238,-0.002692764508537948,-35.36326055,149.16523615,34468.5,-16.5,11.5,97.5,0.0,64.5,-1023.0,1294.5,7.0,0.5,300000.0
12:33:55,RTL,0.022181881591677666,0.007311068824492395,0.9494507163763046,1.090736672282219,0.00093870545970276,0.0011201382440049201,-35.36326105,149.165237,33187.25,-14.0,8.0,99.5,2.0,24.0,-1003.75,1091.5,4.5,3.5,62186.0
12:33:56,RTL,0.013654468581080437,0.0069504473358392715,0.9496379792690277,0.5108663588762283,-0.0013014896539971232,0.0029139425605535507,-35.3632615,149.1652375,32411.5,-9.5,3.0,99.5,1.0,-15.5,-1032.5,511.0,2.5,5.5,62186.0
12:33:58,RTL,-0.007415884756483138,0.006154804956167936,0.9491396546363831,-0.2609964460134506,0.000991208478808403,-0.0012327516451478004,-35.36326295,149.1652386,30371.0,2.0,-5.0,99.5,2.5,-57.5,-980.5,-260.5,4.5,2.0,62186.0
12:33:59,RTL,-0.01998929399996996,0.004834480816498399,0.9487182348966599,-0.849405974149704,-0.003678172535728663,-0.0099477746989578,-35.363263749999994,149.165239225,29101.25,11.25,-11.75,98.5,2.25,-67.75,-992.0,-848.5,0.0,-6.25,94654.0
12:34:00,RTL,-0.03021568525582552,0.004291171906515956,0.9497380256652832,-1.2822260856628418,-0.003782298881560564,-0.0032418486662209034,-35.36326415,149.16523949999998,28344.0,15.0,-14.0,98.5,1.5,-73.5,-993.0,-1281.5,0.0,-0.5,94654.0
12:34:02,RTL,-0.027550837956368923,0.0004504560783971101,0.9498770534992218,-0.41060326993465424,0.0060714035062119365,-0.0021071394439786673,-35.36326405,149.16523915,26304.5,19.5,-15.5,100.0,-1.0,26.5,-986.5,-407.0,9.5,1.0,94654.0
12:34:03,RTL,-0.018573146080598235,-0.0008689009700901806,0.948414221405983,-0.28529828367754817,0.0021298356004990637,0.005130545643623918,-35.363263325000005,149.16523845,25018.0,13.25,-10.75,99.75,-2.25,30.0,-994.0,-281.5,5.75,8.0,211128.0
12:34:04,RTL,-0.008523693308234215,-0.0006737022922607139,0.9478316605091095,0.27434249222278595,0.0027718867640942335,0.015217690728604794,-35.3632628,149.1652379,24256.5,8.5,-6.5,100.0,-1.0,54.5,-964.5,277.5,6.0,18.0,211128.0
12:34:06,RTL,0.0048623132752254605,0.0044506317935884,0.9499456882476807,1.1660029292106628,0.006336865248158574,0.0018505791667848825,-35.363262250000005,149.1652377,22215.5,0.5,0.0,101.5,1.0,78.0,-964.5,1169.0,10.0,4.5,211128.0
12:34:07,RTL,-0.014836438931524754,0.006662272033281624,0.9490395784378052,1.0699024200439453,-0.00015947438078001142,0.004414715571328998,-35.363263225,149.165238775,20935.5,5.25,-4.75,97.25,2.0,65.25,-1012.25,1071.75,3.5,7.0,108866.0
12:34:08,RTL,-0.01095807971432805,0.004956575343385339,0.948846161365509,1.4359578490257263,-0.004894998739473522,0.007378181675449014,-35.3632639,149.16523940000002,20182.5,11.0,-10.0,97.5,1.0,57.5,-997.0,1436.5,-1.0,10.0,108866.0
12:34:10,RTL,0.007821184350177646,-0.004371789284050465,0.9483418166637421,-0.4921765476465225,-0.0012341318652033806,0.005778963910415769,-35.36326285,149.16523790000002,18151.0,12.5,-11.0,99.5,-4.5,-47.5,-1015.5,-492.5,2.5,9.0,108866.0
12:34:11,RTL,0.018125176429748535,-0.0039818776422180235,0.9487104117870331,-1.3611710667610168,0.000300624524243176,0.0038718627183698118,-35.36326065,149.165236,16877.75,-2.75,1.25,100.0,-5.25,-53.0,-1011.25,-1360.0,4.25,6.75,237688.0
12:34:12,RTL,0.021560599096119404,-0.0020281635806895792,0.9487063884735107,-1.169845998287201,0.0014445811975747347,0.003418260021135211,-35.363259400000004,149.165235,16119.0,-15.0,11.0,103.5,-4.0,-20.0,-973.5,-1167.0,5.0,6.5,237688.0
12:34:14,RTL,0.02172110229730606,0.007396880304440856,0.9503622055053711,0.5867463499307632,0.002273758640512824,0.00405939610209316,-35.3632586,149.16523485,14093.5,-37.0,26.5,103.0,1.5,55.0,-979.0,590.5,6.0,7.0,237688.0
12:34:15,RTL,0.015104796271771193,0.008105125278234482,0.9504312127828598,1.342764288187027,-0.0027459500124678016,0.005339931580238044,-35.36325995,149.1652362,12805.0,-29.75,18.5,103.75,3.25,69.25,-1005.5,1345.5,1.0,8.25,72981.0
12:34:16,RTL,0.016197838820517063,0.005996049614623189,0.9502400457859039,1.3404577374458313,-0.0037736250087618828,0.0002557049738243222,-35.3632608,149.16523684999999,12037.5,-21.5,11.5,98.0,3.0,42.5,-1025.5,1342.0,0.0,3.5,72981.0
12:34:18,RTL,-0.015313408803194761,0.005530067719519138,0.9503501653671265,0.4221082925796509,0.0022151621524244547,0.0031950146658346057,-35.3632628,149.1652383,10979.0,-2.5,-0.5,23.0,2.0,39.5,-994.5,424.5,6.0,6.0,72981.0
12:34:19,RTL,-0.025079607497900724,0.003451907425187528,0.9503676146268845,-0.2520563676953316,-0.0016062177019193769,0.0009188992553390563,-35.363263724999996,149.165238975,10645.5,8.75,-8.25,33.5,1.25,-1.0,-993.75,-249.25,1.75,4.0,171726.0
12:34:20,RTL,-0.01007014000788331,0.0022704446455463767,0.9503154754638672,0.5406935587525368,0.0008218310540542006,0.002355312230065465,-35.3632641,149.1652392,10402.0,14.0,-11.5,35.5,1.0,13.0,-992.5,541.5,4.5,5.0,171726.0
12:34:22,RTL,-0.007101584691554308,0.002416692324914038,0.9496018886566162,0.1669228971004486,-0.0027347347931936383,0.0017720295581966639,-35.363264150000006,149.1652393,9716.0,19.0,-15.0,37.0,-0.5,-15.5,-989.5,167.0,1.5,5.0,171726.0
12:34:23,RTL,-0.0027907951443921775,0.0007414530045934953,0.949769914150238,0.515732116997242,0.0010116065968759358,-0.00066370953572914,-35.3632636,149.16523882500002,9286.75,16.25,-13.5,36.0,-1.5,29.5,-1000.5,517.25,4.75,2.5,188067.0
12:34:24,RTL,-0.0025165074403048493,0.0013722534640692174,0.9504254460334778,-0.4480089768767357,0.0020671458914875984,0.002623740234412253,-35.3632631,149.16523845,9028.0,14.0,-11.5,35.5,-2.0,-36.5,-989.5,-447.5,5.5,5.5,188067.0
12:34:26,RTL,-0.00891994801349938,0.0037372176302596927,0.9504595100879669,-0.17225679755210876,0.0014945382717996836,0.002980442834086716,-35.3632624,149.1652381,8640.5,3.5,-4.5,-6.0,0.0,4.5,-996.5,-170.5,5.0,6.0,188067.0
12:34:27,RTL,-0.004048753180541098,0.0036906558671034873,0.9501681476831436,0.0752086341381073,-0.0003506271750666201,0.0017159897251985967,-35.3632623,149.1652381,8715.75,1.75,-4.5,-2.25,-0.25,6.75,-994.25,76.25,3.5,4.75,100542.0
12:34:28,RTL,-0.0072028826689347625,0.0030818815575912595,0.949684351682663,-0.4399557337164879,-0.001652515260502696,-0.00010665314039215446,-35.3632623,149.1652381,8733.0,2.0,-5.0,0.5,0.0,-23.0,-996.0,-439.0,2.5,3.0,100542.0
12:34:30,RTL,0.0036276205428293906,0.0033123234752565622,0.950602114200592,0.1465190351009369,0.0003951358376070857,0.0007763947360217571,-35.3632622,149.1652379,8736.5,0.0,-3.5,0.5,0.0,-6.0,-996.0,146.5,4.0,3.5,100542.0
12:34:31,RTL,-0.001560425153002143,0.0021771018800791353,0.9500197470188141,-0.05779202375560999,-0.0004892293363809586,0.001199032471049577,-35.3632622,149.165237775,8733.25,0.0,-2.75,0.5,0.0,-2.75,-1000.25,-57.0,3.5,4.25,41599.0
12:34:32,RTL,0.008394327713176608,0.0018904450698755682,0.9499347805976868,0.6910943984985352,0.0006612457800656557,5.7900091633200645e-05,-35.3632622,149.1652377,8723.5,-1.0,-1.0,6.5,0.0,32.5,-962.0,692.0,4.5,3.0,41599.0
12:34:34,RTL,0.031112557277083397,-0.0017127860337495804,0.9494593143463135,0.6825882494449615,7.38243106752634e-05,0.00385728245601058,-35.3632612,149.16523660000001,8011.5,-5.5,1.5,38.0,-3.5,13.0,-1007.5,682.5,4.5,7.0,41599.0
12:34:35,RTL,0.029220009688287973,-0.00039734572783345357,0.949617400765419,0.22532903496176004,0.0027959338622167706,0.0022732841898687184,-35.363259899999996,149.16523545,7561.75,-17.0,11.5,34.0,-1.5,26.25,-998.75,227.5,6.5,6.0,75588.0
12:34:36,RTL,0.034807855263352394,0.002248530858196318,0.9499947726726532,0.11192834377288818,0.004828971577808261,-0.0029167894972488284,-35.3632596,149.16523525000002,7305.0,-22.5,16.5,32.5,0.0,-12.0,-985.0,112.5,8.5,0.5,75588.0
12:34:38,RTL,0.008697932760696858,0.006889218930155039,0.9502418637275696,-0.17032918334007263,-0.0010412228293716908,-0.0030908642802387476,-35.363260499999996,149.16523645,6617.5,-21.0,13.5,31.5,3.0,-34.5,-994.5,-170.0,3.0,0.5,75588.0
12:34:39,RTL,-0.000349594047293067,0.00401516241254285,0.9497678875923157,0.31537896394729614,-0.005281208083033562,0.0019409978995099664,-35.363261425000005,149.165237225,6185.5,-13.5,6.0,31.5,1.25,21.0,-1000.25,317.75,-0.25,5.25,47127.0
12:34:40,RTL,0.0013456237502396107,0.001015899411868304,0.9502871036529541,-0.6741131693124771,-0.0040438632713630795,0.0010858384193852544,-35.3632616,149.16523725000002,5928.0,-8.0,2.0,32.0,0.0,-43.5,-992.5,-672.0,0.5,4.5,47127.0
12:34:42,RTL,0.006766785401850939,0.000731223844923079,0.9498058557510376,-0.8253767788410187,0.0015513603575527668,0.001430855831131339,-35.363261249999994,149.1652366,5244.5,-8.5,5.5,31.0,-0.5,-38.0,-1009.5,-823.0,5.5,5.0,47127.0
12:34:43,RTL,0.014086207142099738,0.0032498123473487794,0.9502699077129364,0.030837595462799072,0.0001695392420515418,0.0004938735510222614,-35.363261025,149.1652366,4823.5,-11.5,7.25,31.75,0.3333333333333333,-0.6666666666666666,-992.0,346.3333333333333,3.6666666666666665,4.333333333333333,300000.0
12:34:44,RTL,-0.006311794510111213,0.004291378892958164,0.950177013874054,-0.3940756022930145,0.003307539038360119,0.001402330119162798,-35.363261050000006,149.16523675000002,4569.0,-12.5,8.0,31.0,0.3333333333333333,-11.0,-996.3333333333334,-562.6666666666666,7.0,4.0,300000.0
12:34:46,RTL,-0.00966273977731665,0.0058323354460299015,0.9500286976496378,0.193395105501016,0.0012732719381650288,0.002778732761119803,-35.363261900000005,149.16523763333333,3928.3333333333335,-8.0,3.0,32.0,1.3333333333333333,25.0,-1000.3333333333334,197.33333333333334,5.333333333333333,6.0,300000.0
12:34:47,RTL,-0.009984506526961923,0.0036296510758499303,0.9502016107241312,-0.40489527583122253,-0.004896225330109398,0.0014979560704280932,-35.363262600000006,149.1652382,3500.0,0.0,-3.0,31.333333333333332,0.3333333333333333,-38.333333333333336,-981.6666666666666,-403.0,-0.6666666666666666,5.0,203420.0
12:34:48,RTL,-0.00893250162092348,0.0013008092549474288,0.9500512679417928,0.030861814816792805,-0.0006152749992907047,-0.0016331734756628673,-35.3632627,149.16523816666668,3245.3333333333335,1.3333333333333333,-5.0,30.666666666666668,-2.0,17.333333333333332,-997.0,34.0,3.6666666666666665,2.0,203420.0
12:34:50,RTL,0.022620808333158493,0.0015470111393369734,0.9501346349716187,0.740985780954361,0.00048744515515863895,-0.003616285277530551,-35.363261550000004,149.165237,2530.5,-4.0,1.5,32.0,-0.5,23.0,-1014.0,743.5,4.5,0.0,203420.0
12:34:51,RTL,0.006693645380437374,0.0025021848268806934,0.9501226097345352,0.23041735216975212,0.0010669106850400567,0.0003082610201090574,-35.363261324999996,149.1652369,2109.75,-7.75,4.0,32.25,-0.3333333333333333,18.666666666666668,-993.0,37.666666666666664,5.0,2.3333333333333335,190846.0
12:34:52,RTL,0.008670804323628545,0.0025551888393238187,0.9502637982368469,-0.2048223614692688,0.00015389639884233475,-0.0005261183250695467,-35.3632614,149.1652369,1856.5,-7.0,4.0,32.5,0.0,-10.0,-996.3333333333334,139.0,5.0,4.0,190846.0
12:34:54,RTL,-0.007258205519368251,0.003981802534932892,0.9509759147961935,-0.6886210739612579,0.0025598271749913692,-0.0010583218342314165,-35.3632617,149.16523716666669,1221.0,-6.333333333333333,4.333333333333333,32.666666666666664,1.3333333333333333,-37.333333333333336,-1007.0,-685.3333333333334,7.0,2.3333333333333335,190846.0
12:34:55,RTL,-0.007776865755052616,0.0049967472441494465,0.9504448970158895,0.14468745390574136,0.0002575459269185861,-0.0002781462389975786,-35.363262600000006,149.16523809999998,795.6666666666666,0.0,-0.3333333333333333,32.333333333333336,2.0,-12.666666666666666,-1005.6666666666666,146.33333333333334,4.333333333333333,3.0,200.0
12:34:56,RTL,-0.028075775131583214,0.0039630373163769645,0.9501915176709493,-0.5175013182063898,-0.002153588536505898,0.0003515953042854865,-35.3632632,149.16523853333334,535.6666666666666,4.666666666666667,-4.666666666666667,33.0,1.3333333333333333,-14.333333333333334,-995.0,-514.0,2.3333333333333335,4.0,200.0
12:34:58,RTL,-0.0017171879298985004,0.0007624609667497376,0.9499921202659607,0.0013177702979495127,-0.0003748595093687375,0.00016921339556574821,-35.363264466666664,149.1652394666667,43.0,-11.666666666666666,10.666666666666666,3.0,0.0,0.0,-1000.0,3.6666666666666665,4.0,3.3333333333333335,200.0
12:34:59,RTL,-0.0020092145229379335,0.0008439484712046882,0.9502161741256714,0.0011122117284685373,-0.00040578221281369525,0.00016955728642642498,-35.3632647,149.1652397,15.666666666666666,-4.666666666666667,5.0,3.0,0.0,0.0,-1000.0,3.6666666666666665,4.0,4.0,63291.0
12:35:00,RTL,-0.0018836444554229577,0.000695099103419731,0.9502213994661967,0.0010285734509428341,-0.0004940149374306202,0.0001136468102534612,-35.36326463333334,149.16523963333333,5.333333333333333,-1.0,2.3333333333333335,2.3333333333333335,0.0,0.0,-1000.0,3.6666666666666665,4.0,4.0,63291.0
12:35:02,RTL,-0.0003642465308075771,0.0002686478498314197,0.9498747785886129,0.001009665351981918,-0.0005122049090762933,0.00011823341871301334,-35.3632645,149.1652395,0.0,1.0,0.6666666666666666,1.6666666666666667,0.0,0.0,-1000.0,4.0,3.6666666666666665,3.6666666666666665,63291.0
12:35:04,RTL,0.001396412611939013,8.89431539690122e-05,0.9492645064989725,0.0008961198230584463,-0.0004773358814418316,5.0426616022984185e-05,-35.3632645,149.1652395,0.0,0.0,2.0,1.0,0.0,0.0,-1000.0,3.0,4.0,3.0,63291.0
