time_stamp,MODE,lat,lon,relative_alt,roll,pitch,yaw,rollspeed,pitchspeed,yawspeed,xacc,yacc,zacc,xgyro,ygyro,zgyro,vx,vy,vz,LAND_SPEED_HIGH,WPNAV_SPEED_DN,RTL_ALT
13:33:34.561,GUIDED,-35.3632621,149.1652374,0,0.00030144170159474015,0.0014601160073652864,0.026563698425889015,0.0002722589997574687,0.00029271439416334033,0.002275003120303154,0,1,-1000,0,0,0,0,1,1,160.0,90.0,1500.0
13:33:34.766,GUIDED,-35.3632621,149.1652374,0,0.000291495060082525,0.001575747737661004,0.026004085317254066,0.00013424632197711617,0.00019521545618772507,0.0023399945348501205,0,1,-1000,0,0,0,-1,2,1,160.0,90.0,1500.0
13:33:34.968,GUIDED,-35.3632621,149.1652375,0,0.0001446086826035753,0.0015699504874646664,0.025482501834630966,0.0004248667391948402,0.00026747642550617456,0.002115098526701331,0,1,-1000,0,0,0,-1,2,1,160.0,90.0,1500.0
13:33:35.171,GUIDED,-35.3632621,149.1652375,0,6.96891438565217e-05,0.0015404297737404704,0.025305433198809624,0.00030285335378721356,0.00023155100643634796,0.0021642930805683136,0,1,-1000,0,0,0,-2,2,1,160.0,90.0,1500.0
13:33:35.375,GUIDED,-35.3632621,149.1652375,0,6.96891438565217e-05,0.0015404297737404704,0.025305433198809624,0.00030285335378721356,0.00023155100643634796,0.0021642930805683136,0,1,-1000,0,0,0,-2,2,1,160.0,90.0,1500.0
13:33:35.578,GUIDED,-35.3632621,149.1652375,0,6.96891438565217e-05,0.0015404297737404704,0.025305433198809624,0.00030285335378721356,0.00023155100643634796,0.0021642930805683136,0,1,-1000,0,0,0,-2,2,1,160.0,90.0,1500.0
13:33:35.781,GUIDED,-35.3632621,149.1652375,0,6.96891438565217e-05,0.0015404297737404704,0.025305433198809624,0.00030285335378721356,0.00023155100643634796,0.0021642930805683136,0,1,-1000,0,0,0,-2,2,1,160.0,90.0,1500.0
13:33:35.983,GUIDED,-35.3632621,149.1652375,0,6.96891438565217e-05,0.0015404297737404704,0.025305433198809624,0.00030285335378721356,0.00023155100643634796,0.0021642930805683136,0,1,-1000,0,0,0,-2,2,1,160.0,90.0,1500.0
13:33:36.187,GUIDED,-35.3632621,149.1652375,0,6.96891438565217e-05,0.0015404297737404704,0.025305433198809624,0.00030285335378721356,0.00023155100643634796,0.0021642930805683136,0,1,-1000,0,0,0,-2,2,1,160.0,90.0,1500.0
13:33:36.393,GUIDED,-35.3632621,149.1652375,0,6.96891438565217e-05,0.0015404297737404704,0.025305433198809624,0.00030285335378721356,0.00023155100643634796,0.0021642930805683136,0,1,-1000,0,0,0,-2,2,1,160.0,90.0,1500.0
13:33:36.594,GUIDED,-35.3632621,149.1652375,0,6.96891438565217e-05,0.0015404297737404704,0.025305433198809624,0.00030285335378721356,0.00023155100643634796,0.0021642930805683136,0,1,-1000,0,0,0,-2,2,1,160.0,90.0,1500.0
13:33:36.797,GUIDED,-35.3632621,149.1652375,0,6.96891438565217e-05,0.0015404297737404704,0.025305433198809624,0.00030285335378721356,0.00023155100643634796,0.0021642930805683136,0,1,-1000,0,0,0,-2,2,1,160.0,90.0,1500.0
13:33:37.003,GUIDED,-35.3632621,149.1652375,0,6.96891438565217e-05,0.0015404297737404704,0.025305433198809624,0.00030285335378721356,0.00023155100643634796,0.0021642930805683136,0,1,-1000,0,0,0,-2,2,1,160.0,90.0,1500.0
13:33:37.208,GUIDED,-35.3632621,149.1652375,0,6.96891438565217e-05,0.0015404297737404704,0.025305433198809624,0.00030285335378721356,0.00023155100643634796,0.0021642930805683136,0,1,-1000,0,0,0,-2,2,1,160.0,90.0,1500.0
13:33:37.410,GUIDED,-35.3632621,149.1652375,0,6.96891438565217e-05,0.0015404297737404704,0.025305433198809624,0.00030285335378721356,0.00023155100643634796,0.0021642930805683136,0,1,-1000,0,0,0,-2,2,1,160.0,90.0,1500.0
13:33:37.613,GUIDED,-35.3632621,149.1652375,0,6.96891438565217e-05,0.0015404297737404704,0.025305433198809624,0.00030285335378721356,0.00023155100643634796,0.0021642930805683136,0,1,-1000,0,0,0,-2,2,1,160.0,90.0,1500.0
13:33:37.820,GUIDED,-35.3632622,149.1652375,5,-0.00043664933764375746,0.0013203677954152226,0.024517003446817398,0.0003112350532319397,0.0003317685332149267,0.0020218424033373594,0,1,-1000,0,0,0,-1,1,0,160.0,90.0,1500.0
13:33:38.024,GUIDED,-35.3632621,149.1652375,4,-0.0004087153647560626,0.0014428531285375357,0.024034636095166206,0.00029697708669118583,0.0002747282269410789,0.0019803717732429504,0,1,-1000,0,0,0,0,0,0,160.0,90.0,1500.0
13:33:38.226,GUIDED,-35.3632621,149.1652375,4,-0.0004087153647560626,0.0014428531285375357,0.024034636095166206,0.00029697708669118583,0.0002747282269410789,0.0019803717732429504,0,1,-1000,0,0,0,0,0,0,160.0,90.0,1500.0
13:33:38.431,GUIDED,-35.3632621,149.1652375,4,-0.0004087153647560626,0.0014428531285375357,0.024034636095166206,0.00029697708669118583,0.0002747282269410789,0.0019803717732429504,0,1,-1000,0,0,0,0,0,0,160.0,90.0,1500.0
13:33:38.636,GUIDED,-35.3632621,149.1652375,4,-0.0004087153647560626,0.0014428531285375357,0.024034636095166206,0.00029697708669118583,0.0002747282269410789,0.0019803717732429504,0,1,-1000,0,0,0,0,0,0,160.0,90.0,1500.0
13:33:38.838,GUIDED,-35.3632621,149.1652375,4,-0.0004087153647560626,0.0014428531285375357,0.024034636095166206,0.00029697708669118583,0.0002747282269410789,0.0019803717732429504,0,1,-1000,0,0,0,0,0,0,160.0,90.0,1500.0
13:33:39.044,GUIDED,-35.3632621,149.1652375,4,-0.0004087153647560626,0.0014428531285375357,0.024034636095166206,0.00029697708669118583,0.0002747282269410789,0.0019803717732429504,0,1,-1000,0,0,0,0,0,0,160.0,90.0,1500.0
13:33:39.246,GUIDED,-35.3632621,149.1652375,4,-0.0004087153647560626,0.0014428531285375357,0.024034636095166206,0.00029697708669118583,0.0002747282269410789,0.0019803717732429504,0,1,-1000,0,0,0,0,0,0,160.0,90.0,1500.0
13:33:39.452,GUIDED,-35.3632621,149.1652375,4,-0.0004087153647560626,0.0014428531285375357,0.024034636095166206,0.00029697708669118583,0.0002747282269410789,0.0019803717732429504,0,1,-1000,0,0,0,0,0,0,160.0,90.0,1500.0
13:33:39.658,GUIDED,-35.3632621,149.1652375,4,-0.0004087153647560626,0.0014428531285375357,0.024034636095166206,0.00029697708669118583,0.0002747282269410789,0.0019803717732429504,0,1,-1000,0,0,0,0,0,0,160.0,90.0,1500.0
13:33:39.863,GUIDED,-35.3632621,149.1652375,4,-0.0004087153647560626,0.0014428531285375357,0.024034636095166206,0.00029697708669118583,0.0002747282269410789,0.0019803717732429504,0,1,-1000,0,0,0,0,0,0,160.0,90.0,1500.0
13:33:40.070,GUIDED,-35.3632621,149.1652375,4,-0.0004087153647560626,0.0014428531285375357,0.024034636095166206,0.00029697708669118583,0.0002747282269410789,0.0019803717732429504,0,1,-1000,0,0,0,0,0,0,160.0,90.0,1500.0
13:33:40.272,GUIDED,-35.3632621,149.1652375,4,-0.0004087153647560626,0.0014428531285375357,0.024034636095166206,0.00029697708669118583,0.0002747282269410789,0.0019803717732429504,0,1,-1000,0,0,0,0,0,0,160.0,90.0,1500.0
13:33:40.474,GUIDED,-35.3632621,149.1652374,3,-0.0002626666100695729,0.0016556528862565756,0.023653732612729073,0.0002843557158485055,0.0002452104527037591,0.001960169989615679,0,1,-1000,0,0,0,0,0,0,160.0,90.0,1500.0
13:33:40.679,GUIDED,-35.3632621,149.1652374,3,-0.00014251757238525897,0.0017814172897487879,0.023411227390170097,0.000387030653655529,0.0003101452603004873,0.001815734663978219,0,2,-1000,0,0,0,0,0,0,160.0,90.0,1500.0
13:33:40.882,GUIDED,-35.3632621,149.1652374,3,-2.7699601560016163e-05,0.0019329037750139832,0.023161055520176888,0.00022392955725081265,0.0004041818610858172,0.0018961390014737844,0,1,-1000,0,0,0,0,0,0,160.0,90.0,1500.0
13:33:41.084,GUIDED,-35.3632621,149.1652374,3,-2.7699601560016163e-05,0.0019329037750139832,0.023161055520176888,0.00022392955725081265,0.0004041818610858172,0.0018961390014737844,0,1,-1000,0,0,0,0,0,0,160.0,90.0,1500.0
13:33:41.287,GUIDED,-35.3632621,149.1652374,3,-2.7699601560016163e-05,0.0019329037750139832,0.023161055520176888,0.00022392955725081265,0.0004041818610858172,0.0018961390014737844,0,1,-1000,0,0,0,0,0,0,160.0,90.0,1500.0
13:33:41.488,GUIDED,-35.3632621,149.1652374,3,-2.7699601560016163e-05,0.0019329037750139832,0.023161055520176888,0.00022392955725081265,0.0004041818610858172,0.0018961390014737844,0,1,-1000,0,0,0,0,0,0,160.0,90.0,1500.0
13:33:41.691,GUIDED,-35.3632621,149.1652374,3,-2.7699601560016163e-05,0.0019329037750139832,0.023161055520176888,0.00022392955725081265,0.0004041818610858172,0.0018961390014737844,0,1,-1000,0,0,0,0,0,0,160.0,90.0,1500.0
13:33:41.896,GUIDED,-35.3632621,149.1652374,3,-2.7699601560016163e-05,0.0019329037750139832,0.023161055520176888,0.00022392955725081265,0.0004041818610858172,0.0018961390014737844,0,1,-1000,0,0,0,0,0,0,160.0,90.0,1500.0
13:33:42.099,GUIDED,-35.3632621,149.1652374,3,-2.7699601560016163e-05,0.0019329037750139832,0.023161055520176888,0.00022392955725081265,0.0004041818610858172,0.0018961390014737844,0,1,-1000,0,0,0,0,0,0,160.0,90.0,1500.0
13:33:42.301,GUIDED,-35.3632621,149.1652374,3,-2.7699601560016163e-05,0.0019329037750139832,0.023161055520176888,0.00022392955725081265,0.0004041818610858172,0.0018961390014737844,0,1,-1000,0,0,0,0,0,0,160.0,90.0,1500.0
13:33:42.504,GUIDED,-35.3632621,149.1652374,3,-2.7699601560016163e-05,0.0019329037750139832,0.023161055520176888,0.00022392955725081265,0.0004041818610858172,0.0018961390014737844,0,1,-1000,0,0,0,0,0,0,160.0,90.0,1500.0
13:33:42.706,GUIDED,-35.3632621,149.1652374,3,-2.7699601560016163e-05,0.0019329037750139832,0.023161055520176888,0.00022392955725081265,0.0004041818610858172,0.0018961390014737844,0,1,-1000,0,0,0,0,0,0,160.0,90.0,1500.0
13:33:42.909,GUIDED,-35.3632621,149.1652374,3,-2.7699601560016163e-05,0.0019329037750139832,0.023161055520176888,0.00022392955725081265,0.0004041818610858172,0.0018961390014737844,0,1,-1000,0,0,0,0,0,0,160.0,90.0,1500.0
13:33:43.113,GUIDED,-35.3632621,149.1652374,3,-2.7699601560016163e-05,0.0019329037750139832,0.023161055520176888,0.00022392955725081265,0.0004041818610858172,0.0018961390014737844,0,1,-1000,0,0,0,0,0,0,160.0,90.0,1500.0
13:33:43.317,GUIDED,-35.3632621,149.1652375,3,0.0001845817459980026,0.0021887379698455334,0.02271653153002262,0.0003289802698418498,0.0003264577535446733,0.0018237428739666939,0,1,-1000,0,0,0,0,0,0,160.0,90.0,1500.0
13:33:43.519,GUIDED,-35.3632621,149.1652375,3,0.00044205589802004397,0.0024919386487454176,0.022161409258842468,0.0003607457038015127,0.00026776851154863834,0.0016835317946970463,0,1,-1000,0,0,0,0,0,0,160.0,90.0,1500.0
13:33:43.721,GUIDED,-35.3632621,149.1652375,15,0.001845911261625588,-0.0008167707710526884,0.021874092519283295,0.007692444138228893,-0.017619315534830093,0.00218012323603034,0,0,-1137,7,-17,1,0,0,-16,160.0,90.0,1500.0
13:33:43.924,GUIDED,-35.3632621,149.1652375,15,0.001845911261625588,-0.0008167707710526884,0.021874092519283295,0.007692444138228893,-0.017619315534830093,0.00218012323603034,0,0,-1137,7,-17,1,0,0,-16,160.0,90.0,1500.0
13:33:44.126,GUIDED,-35.3632621,149.1652375,15,0.001845911261625588,-0.0008167707710526884,0.021874092519283295,0.007692444138228893,-0.017619315534830093,0.00218012323603034,0,0,-1137,7,-17,1,0,0,-16,160.0,90.0,1500.0
13:33:44.329,GUIDED,-35.3632621,149.1652375,15,0.001845911261625588,-0.0008167707710526884,0.021874092519283295,0.007692444138228893,-0.017619315534830093,0.00218012323603034,0,0,-1137,7,-17,1,0,0,-16,160.0,90.0,1500.0
13:33:44.532,GUIDED,-35.3632621,149.1652375,15,0.001845911261625588,-0.0008167707710526884,0.021874092519283295,0.007692444138228893,-0.017619315534830093,0.00218012323603034,0,0,-1137,7,-17,1,0,0,-16,160.0,90.0,1500.0
13:33:44.736,GUIDED,-35.3632621,149.1652375,15,0.001845911261625588,-0.0008167707710526884,0.021874092519283295,0.007692444138228893,-0.017619315534830093,0.00218012323603034,0,0,-1137,7,-17,1,0,0,-16,160.0,90.0,1500.0
13:33:44.939,GUIDED,-35.3632621,149.1652375,15,0.001845911261625588,-0.0008167707710526884,0.021874092519283295,0.007692444138228893,-0.017619315534830093,0.00218012323603034,0,0,-1137,7,-17,1,0,0,-16,160.0,90.0,1500.0
13:33:45.146,GUIDED,-35.3632621,149.1652375,15,0.001845911261625588,-0.0008167707710526884,0.021874092519283295,0.007692444138228893,-0.017619315534830093,0.00218012323603034,0,0,-1137,7,-17,1,0,0,-16,160.0,90.0,1500.0
13:33:45.349,GUIDED,-35.3632621,149.1652375,15,0.001845911261625588,-0.0008167707710526884,0.021874092519283295,0.007692444138228893,-0.017619315534830093,0.00218012323603034,0,0,-1137,7,-17,1,0,0,-16,160.0,90.0,1500.0
13:33:45.554,GUIDED,-35.3632621,149.1652375,15,0.001845911261625588,-0.0008167707710526884,0.021874092519283295,0.007692444138228893,-0.017619315534830093,0.00218012323603034,0,0,-1137,7,-17,1,0,0,-16,160.0,90.0,1500.0
13:33:45.756,GUIDED,-35.3632621,149.1652375,15,0.001845911261625588,-0.0008167707710526884,0.021874092519283295,0.007692444138228893,-0.017619315534830093,0.00218012323603034,0,0,-1137,7,-17,1,0,0,-16,160.0,90.0,1500.0
13:33:45.960,GUIDED,-35.3632621,149.1652375,15,0.001845911261625588,-0.0008167707710526884,0.021874092519283295,0.007692444138228893,-0.017619315534830093,0.00218012323603034,0,0,-1137,7,-17,1,0,0,-16,160.0,90.0,1500.0
13:33:46.163,GUIDED,-35.3632621,149.1652375,15,0.001845911261625588,-0.0008167707710526884,0.021874092519283295,0.007692444138228893,-0.017619315534830093,0.00218012323603034,0,0,-1137,7,-17,1,0,0,-16,160.0,90.0,1500.0
13:33:46.368,GUIDED,-35.363262,149.1652375,1307,0.019830012694001198,0.0011063801357522607,0.021654289215803146,0.047620076686143875,-0.006034256890416145,0.0025222713593393564,0,0,-1022,47,-5,1,0,3,-143,160.0,90.0,1500.0
13:33:46.574,GUIDED,-35.3632619,149.1652376,1684,0.03138965740799904,-0.0005957391113042831,0.021734151989221573,0.04581799358129501,-0.006841437425464392,0.003017291659489274,0,-1,-1009,45,-6,2,1,9,-146,160.0,90.0,1500.0
13:33:46.782,GUIDED,-35.3632619,149.1652376,1684,0.03138965740799904,-0.0005957391113042831,0.021734151989221573,0.04581799358129501,-0.006841437425464392,0.003017291659489274,0,-1,-1009,45,-6,2,1,9,-146,160.0,90.0,1500.0
13:33:46.986,GUIDED,-35.3632619,149.1652376,1684,0.03138965740799904,-0.0005957391113042831,0.021734151989221573,0.04581799358129501,-0.006841437425464392,0.003017291659489274,0,-1,-1009,45,-6,2,1,9,-146,160.0,90.0,1500.0
13:33:47.189,GUIDED,-35.3632619,149.1652376,1684,0.03138965740799904,-0.0005957391113042831,0.021734151989221573,0.04581799358129501,-0.006841437425464392,0.003017291659489274,0,-1,-1009,45,-6,2,1,9,-146,160.0,90.0,1500.0
13:33:47.393,GUIDED,-35.3632619,149.1652376,1684,0.03138965740799904,-0.0005957391113042831,0.021734151989221573,0.04581799358129501,-0.006841437425464392,0.003017291659489274,0,-1,-1009,45,-6,2,1,9,-146,160.0,90.0,1500.0
13:33:47.595,GUIDED,-35.3632619,149.1652376,1684,0.03138965740799904,-0.0005957391113042831,0.021734151989221573,0.04581799358129501,-0.006841437425464392,0.003017291659489274,0,-1,-1009,45,-6,2,1,9,-146,160.0,90.0,1500.0
13:33:47.799,GUIDED,-35.3632619,149.1652376,1684,0.03138965740799904,-0.0005957391113042831,0.021734151989221573,0.04581799358129501,-0.006841437425464392,0.003017291659489274,0,-1,-1009,45,-6,2,1,9,-146,160.0,90.0,1500.0
13:33:48.005,GUIDED,-35.3632619,149.1652376,1684,0.03138965740799904,-0.0005957391113042831,0.021734151989221573,0.04581799358129501,-0.006841437425464392,0.003017291659489274,0,-1,-1009,45,-6,2,1,9,-146,160.0,90.0,1500.0
13:33:48.207,GUIDED,-35.3632619,149.1652376,1684,0.03138965740799904,-0.0005957391113042831,0.021734151989221573,0.04581799358129501,-0.006841437425464392,0.003017291659489274,0,-1,-1009,45,-6,2,1,9,-146,160.0,90.0,1500.0
13:33:48.414,GUIDED,-35.3632619,149.1652376,1684,0.03138965740799904,-0.0005957391113042831,0.021734151989221573,0.04581799358129501,-0.006841437425464392,0.003017291659489274,0,-1,-1009,45,-6,2,1,9,-146,160.0,90.0,1500.0
13:33:48.620,GUIDED,-35.3632619,149.1652376,1684,0.03138965740799904,-0.0005957391113042831,0.021734151989221573,0.04581799358129501,-0.006841437425464392,0.003017291659489274,0,-1,-1009,45,-6,2,1,9,-146,160.0,90.0,1500.0
13:33:48.829,GUIDED,-35.3632619,149.1652376,1684,0.03138965740799904,-0.0005957391113042831,0.021734151989221573,0.04581799358129501,-0.006841437425464392,0.003017291659489274,0,-1,-1009,45,-6,2,1,9,-146,160.0,90.0,1500.0
13:33:49.037,GUIDED,-35.3632616,149.1652393,2840,0.062314774841070175,-0.007951056584715843,-0.006103504914790392,0.036239441484212875,-0.012382443994283676,0.004202097188681364,1,-7,-999,36,-11,3,6,39,-148,160.0,90.0,1500.0
13:33:49.240,GUIDED,-35.3632609,149.1652435,3978,-0.007247628178447485,0.03776822239160538,-0.073368601500988,-0.054918255656957626,0.024175191298127174,-0.10211612284183502,6,-10,-1009,-54,24,-102,1,54,-146,160.0,90.0,1500.0
13:33:49.442,GUIDED,-35.3632609,149.1652448,4360,-0.01660829968750477,0.03910806030035019,-0.09562993794679642,-0.022110169753432274,0.0030384634155780077,-0.0920444205403328,6,-8,-1006,-22,3,-92,-5,48,-148,160.0,90.0,1500.0
13:33:49.644,GUIDED,-35.3632609,149.1652448,4360,-0.01660829968750477,0.03910806030035019,-0.09562993794679642,-0.022110169753432274,0.0030384634155780077,-0.0920444205403328,6,-8,-1006,-22,3,-92,-5,48,-148,160.0,90.0,1500.0
13:33:49.847,GUIDED,-35.3632609,149.1652448,4360,-0.01660829968750477,0.03910806030035019,-0.09562993794679642,-0.022110169753432274,0.0030384634155780077,-0.0920444205403328,6,-8,-1006,-22,3,-92,-5,48,-148,160.0,90.0,1500.0
13:33:50.050,GUIDED,-35.3632609,149.1652448,4360,-0.01660829968750477,0.03910806030035019,-0.09562993794679642,-0.022110169753432274,0.0030384634155780077,-0.0920444205403328,6,-8,-1006,-22,3,-92,-5,48,-148,160.0,90.0,1500.0
13:33:50.256,GUIDED,-35.3632609,149.1652448,4360,-0.01660829968750477,0.03910806030035019,-0.09562993794679642,-0.022110169753432274,0.0030384634155780077,-0.0920444205403328,6,-8,-1006,-22,3,-92,-5,48,-148,160.0,90.0,1500.0
13:33:50.459,GUIDED,-35.3632609,149.1652448,4360,-0.01660829968750477,0.03910806030035019,-0.09562993794679642,-0.022110169753432274,0.0030384634155780077,-0.0920444205403328,6,-8,-1006,-22,3,-92,-5,48,-148,160.0,90.0,1500.0
13:33:50.662,GUIDED,-35.3632609,149.1652448,4360,-0.01660829968750477,0.03910806030035019,-0.09562993794679642,-0.022110169753432274,0.0030384634155780077,-0.0920444205403328,6,-8,-1006,-22,3,-92,-5,48,-148,160.0,90.0,1500.0
13:33:50.864,GUIDED,-35.3632609,149.1652448,4360,-0.01660829968750477,0.03910806030035019,-0.09562993794679642,-0.022110169753432274,0.0030384634155780077,-0.0920444205403328,6,-8,-1006,-22,3,-92,-5,48,-148,160.0,90.0,1500.0
13:33:51.070,GUIDED,-35.3632609,149.1652448,4360,-0.01660829968750477,0.03910806030035019,-0.09562993794679642,-0.022110169753432274,0.0030384634155780077,-0.0920444205403328,6,-8,-1006,-22,3,-92,-5,48,-148,160.0,90.0,1500.0
13:33:51.274,GUIDED,-35.3632609,149.1652448,4360,-0.01660829968750477,0.03910806030035019,-0.09562993794679642,-0.022110169753432274,0.0030384634155780077,-0.0920444205403328,6,-8,-1006,-22,3,-92,-5,48,-148,160.0,90.0,1500.0
13:33:51.477,GUIDED,-35.3632609,149.1652448,4360,-0.01660829968750477,0.03910806030035019,-0.09562993794679642,-0.022110169753432274,0.0030384634155780077,-0.0920444205403328,6,-8,-1006,-22,3,-92,-5,48,-148,160.0,90.0,1500.0
13:33:51.680,GUIDED,-35.3632609,149.1652448,4360,-0.01660829968750477,0.03910806030035019,-0.09562993794679642,-0.022110169753432274,0.0030384634155780077,-0.0920444205403328,6,-8,-1006,-22,3,-92,-5,48,-148,160.0,90.0,1500.0
13:33:51.883,GUIDED,-35.3632609,149.1652448,4360,-0.01660829968750477,0.03910806030035019,-0.09562993794679642,-0.022110169753432274,0.0030384634155780077,-0.0920444205403328,6,-8,-1006,-22,3,-92,-5,48,-148,160.0,90.0,1500.0
13:33:52.086,GUIDED,-35.3632625,149.1652481,5814,-0.07279648631811142,-0.005804302170872688,-0.12319493293762207,-0.02845575474202633,-0.12347080558538437,0.06564074754714966,7,1,-1006,-28,-122,64,-30,6,-148,160.0,90.0,1500.0
13:33:52.288,GUIDED,-35.3632639,149.1652464,6970,-0.038682401180267334,-0.0455656573176384,-0.07030078023672104,0.06264591962099075,0.004168007988482714,0.03115214966237545,-1,9,-1001,61,-6,38,-7,-45,-149,160.0,90.0,1500.0
13:33:52.493,GUIDED,-35.3632632,149.1652399,8514,0.00830919574946165,-0.03223909065127373,-0.058633074164390564,0.06270089745521545,0.025867821648716927,0.014929326251149178,-12,10,-1003,63,26,14,25,-62,-150,160.0,90.0,1500.0
13:33:52.695,GUIDED,-35.3632632,149.1652399,8514,0.00830919574946165,-0.03223909065127373,-0.058633074164390564,0.06270089745521545,0.025867821648716927,0.014929326251149178,-12,10,-1003,63,26,14,25,-62,-150,160.0,90.0,1500.0
13:33:52.898,GUIDED,-35.3632632,149.1652399,8514,0.00830919574946165,-0.03223909065127373,-0.058633074164390564,0.06270089745521545,0.025867821648716927,0.014929326251149178,-12,10,-1003,63,26,14,25,-62,-150,160.0,90.0,1500.0
13:33:53.101,GUIDED,-35.3632632,149.1652399,8514,0.00830919574946165,-0.03223909065127373,-0.058633074164390564,0.06270089745521545,0.025867821648716927,0.014929326251149178,-12,10,-1003,63,26,14,25,-62,-150,160.0,90.0,1500.0
13:33:53.306,GUIDED,-35.3632632,149.1652399,8514,0.00830919574946165,-0.03223909065127373,-0.058633074164390564,0.06270089745521545,0.025867821648716927,0.014929326251149178,-12,10,-1003,63,26,14,25,-62,-150,160.0,90.0,1500.0
13:33:53.510,GUIDED,-35.3632632,149.1652399,8514,0.00830919574946165,-0.03223909065127373,-0.058633074164390564,0.06270089745521545,0.025867821648716927,0.014929326251149178,-12,10,-1003,63,26,14,25,-62,-150,160.0,90.0,1500.0
13:33:53.714,GUIDED,-35.3632632,149.1652399,8514,0.00830919574946165,-0.03223909065127373,-0.058633074164390564,0.06270089745521545,0.025867821648716927,0.014929326251149178,-12,10,-1003,63,26,14,25,-62,-150,160.0,90.0,1500.0
13:33:53.915,GUIDED,-35.3632632,149.1652399,8514,0.00830919574946165,-0.03223909065127373,-0.058633074164390564,0.06270089745521545,0.025867821648716927,0.014929326251149178,-12,10,-1003,63,26,14,25,-62,-150,160.0,90.0,1500.0
13:33:54.119,GUIDED,-35.3632632,149.1652399,8514,0.00830919574946165,-0.03223909065127373,-0.058633074164390564,0.06270089745521545,0.025867821648716927,0.014929326251149178,-12,10,-1003,63,26,14,25,-62,-150,160.0,90.0,1500.0
13:33:54.329,GUIDED,-35.3632632,149.1652399,8514,0.00830919574946165,-0.03223909065127373,-0.058633074164390564,0.06270089745521545,0.025867821648716927,0.014929326251149178,-12,10,-1003,63,26,14,25,-62,-150,160.0,90.0,1500.0
13:33:54.536,GUIDED,-35.3632616,149.1652362,9451,0.04251924902200699,-0.013445522636175156,-0.0554347038269043,0.032168805599212646,0.05005919188261032,-0.015330726280808449,-12,4,-1001,32,50,-16,33,-44,-152,160.0,90.0,1500.0
13:33:54.742,GUIDED,-35.3632594,149.1652337,11026,0.050426729023456573,0.05780957639217377,-0.11511048674583435,0.013124728575348854,0.041935864835977554,-0.06847447156906128,-3,-1,-1000,13,42,-69,6,3,-152,160.0,90.0,1500.0
13:33:54.949,GUIDED,-35.3632594,149.1652337,11026,0.050426729023456573,0.05780957639217377,-0.11511048674583435,0.013124728575348854,0.041935864835977554,-0.06847447156906128,-3,-1,-1000,13,42,-69,6,3,-152,160.0,90.0,1500.0
13:33:55.153,GUIDED,-35.3632594,149.1652337,11026,0.050426729023456573,0.05780957639217377,-0.11511048674583435,0.013124728575348854,0.041935864835977554,-0.06847447156906128,-3,-1,-1000,13,42,-69,6,3,-152,160.0,90.0,1500.0
13:33:55.362,GUIDED,-35.3632594,149.1652337,11026,0.050426729023456573,0.05780957639217377,-0.11511048674583435,0.013124728575348854,0.041935864835977554,-0.06847447156906128,-3,-1,-1000,13,42,-69,6,3,-152,160.0,90.0,1500.0
13:33:55.567,GUIDED,-35.3632594,149.1652337,11026,0.050426729023456573,0.05780957639217377,-0.11511048674583435,0.013124728575348854,0.041935864835977554,-0.06847447156906128,-3,-1,-1000,13,42,-69,6,3,-152,160.0,90.0,1500.0
13:33:58.172,GUIDED,-35.3632594,149.1652337,11026,0.050426729023456573,0.05780957639217377,-0.11511048674583435,0.013124728575348854,0.041935864835977554,-0.06847447156906128,-3,-1,-1000,13,42,-69,6,3,-152,160.0,90.0,1500.0
13:33:58.374,GUIDED,-35.3632594,149.1652337,11026,0.050426729023456573,0.05780957639217377,-0.11511048674583435,0.013124728575348854,0.041935864835977554,-0.06847447156906128,-3,-1,-1000,13,42,-69,6,3,-152,160.0,90.0,1500.0
13:33:58.576,GUIDED,-35.3632594,149.1652337,11026,0.050426729023456573,0.05780957639217377,-0.11511048674583435,0.013124728575348854,0.041935864835977554,-0.06847447156906128,-3,-1,-1000,13,42,-69,6,3,-152,160.0,90.0,1500.0
13:33:58.779,GUIDED,-35.3632594,149.1652337,11026,0.050426729023456573,0.05780957639217377,-0.11511048674583435,0.013124728575348854,0.041935864835977554,-0.06847447156906128,-3,-1,-1000,13,42,-69,6,3,-152,160.0,90.0,1500.0
13:33:58.990,GUIDED,-35.3632598,149.1652348,12110,0.014024827629327774,0.027784433215856552,-0.11491788923740387,-0.06752870231866837,-0.06513239443302155,0.034265898168087006,-3,-1,-1000,13,42,-69,-20,27,-149,160.0,90.0,1500.0
13:33:59.192,GUIDED,-35.363262,149.1652376,14048,-0.018059449270367622,-0.011050622910261154,-0.09686771780252457,0.004016748629510403,-0.0074263024143874645,-0.009779108688235283,5,0,-1001,4,-6,-10,-14,9,-152,160.0,90.0,1500.0
13:33:59.394,GUIDED,-35.363262,149.1652376,14048,-0.018059449270367622,-0.011050622910261154,-0.09686771780252457,0.004016748629510403,-0.0074263024143874645,-0.009779108688235283,5,0,-1001,4,-6,-10,-14,9,-152,160.0,90.0,1500.0
13:33:59.599,GUIDED,-35.363262,149.1652376,14048,-0.018059449270367622,-0.011050622910261154,-0.09686771780252457,0.004016748629510403,-0.0074263024143874645,-0.009779108688235283,5,0,-1001,4,-6,-10,-14,9,-152,160.0,90.0,1500.0
13:33:59.800,GUIDED,-35.363262,149.1652376,14048,-0.018059449270367622,-0.011050622910261154,-0.09686771780252457,0.004016748629510403,-0.0074263024143874645,-0.009779108688235283,5,0,-1001,4,-6,-10,-14,9,-152,160.0,90.0,1500.0
13:34:00.006,GUIDED,-35.363262,149.1652376,14048,-0.018059449270367622,-0.011050622910261154,-0.09686771780252457,0.004016748629510403,-0.0074263024143874645,-0.009779108688235283,5,0,-1001,4,-6,-10,-14,9,-152,160.0,90.0,1500.0
13:34:00.211,GUIDED,-35.363262,149.1652376,14048,-0.018059449270367622,-0.011050622910261154,-0.09686771780252457,0.004016748629510403,-0.0074263024143874645,-0.009779108688235283,5,0,-1001,4,-6,-10,-14,9,-152,160.0,90.0,1500.0
13:34:00.418,GUIDED,-35.363262,149.1652376,14048,-0.018059449270367622,-0.011050622910261154,-0.09686771780252457,0.004016748629510403,-0.0074263024143874645,-0.009779108688235283,5,0,-1001,4,-6,-10,-14,9,-152,160.0,90.0,1500.0
13:34:00.626,GUIDED,-35.363262,149.1652376,14048,-0.018059449270367622,-0.011050622910261154,-0.09686771780252457,0.004016748629510403,-0.0074263024143874645,-0.009779108688235283,5,0,-1001,4,-6,-10,-14,9,-152,160.0,90.0,1500.0
13:34:00.831,GUIDED,-35.363262,149.1652376,14048,-0.018059449270367622,-0.011050622910261154,-0.09686771780252457,0.004016748629510403,-0.0074263024143874645,-0.009779108688235283,5,0,-1001,4,-6,-10,-14,9,-152,160.0,90.0,1500.0
13:34:01.040,GUIDED,-35.3632626,149.165237,16635,0.003939490299671888,-0.0031266682781279087,-0.13403402268886566,0.011076879687607288,0.011177211999893188,-0.02516821026802063,-2,1,-1000,11,11,-26,3,-8,-153,160.0,90.0,1500.0
13:34:01.243,GUIDED,-35.3632621,149.165236,18206,0.010367130860686302,0.005633929744362831,-0.15741018950939178,0.003338517853990197,0.006970892660319805,-0.020244628190994263,-2,0,-1000,3,7,-20,3,-3,-153,160.0,90.0,1500.0
13:34:01.447,GUIDED,-35.3632621,149.165236,18206,0.010367130860686302,0.005633929744362831,-0.15741018950939178,0.003338517853990197,0.006970892660319805,-0.020244628190994263,-2,0,-1000,3,7,-20,3,-3,-153,160.0,90.0,1500.0
13:34:01.651,GUIDED,-35.3632621,149.165236,18206,0.010367130860686302,0.005633929744362831,-0.15741018950939178,0.003338517853990197,0.006970892660319805,-0.020244628190994263,-2,0,-1000,3,7,-20,3,-3,-153,160.0,90.0,1500.0
13:34:01.855,GUIDED,-35.3632621,149.165236,18206,0.010367130860686302,0.005633929744362831,-0.15741018950939178,0.003338517853990197,0.006970892660319805,-0.020244628190994263,-2,0,-1000,3,7,-20,3,-3,-153,160.0,90.0,1500.0
13:34:02.060,GUIDED,-35.3632621,149.165236,18206,0.010367130860686302,0.005633929744362831,-0.15741018950939178,0.003338517853990197,0.006970892660319805,-0.020244628190994263,-2,0,-1000,3,7,-20,3,-3,-153,160.0,90.0,1500.0
13:34:02.262,GUIDED,-35.3632621,149.165236,18206,0.010367130860686302,0.005633929744362831,-0.15741018950939178,0.003338517853990197,0.006970892660319805,-0.020244628190994263,-2,0,-1000,3,7,-20,3,-3,-153,160.0,90.0,1500.0
13:34:02.467,GUIDED,-35.3632621,149.165236,18206,0.010367130860686302,0.005633929744362831,-0.15741018950939178,0.003338517853990197,0.006970892660319805,-0.020244628190994263,-2,0,-1000,3,7,-20,3,-3,-153,160.0,90.0,1500.0
13:34:02.675,GUIDED,-35.3632621,149.165236,18206,0.010367130860686302,0.005633929744362831,-0.15741018950939178,0.003338517853990197,0.006970892660319805,-0.020244628190994263,-2,0,-1000,3,7,-20,3,-3,-153,160.0,90.0,1500.0
13:34:02.877,GUIDED,-35.3632621,149.165236,18206,0.010367130860686302,0.005633929744362831,-0.15741018950939178,0.003338517853990197,0.006970892660319805,-0.020244628190994263,-2,0,-1000,3,7,-20,3,-3,-153,160.0,90.0,1500.0
13:34:03.089,GUIDED,-35.3632621,149.165236,18206,0.010367130860686302,0.005633929744362831,-0.15741018950939178,0.003338517853990197,0.006970892660319805,-0.020244628190994263,-2,0,-1000,3,7,-20,3,-3,-153,160.0,90.0,1500.0
13:34:03.294,GUIDED,-35.3632618,149.1652358,19926,0.007487297989428043,0.007175953593105078,-0.17467275261878967,-0.0033890390768647194,0.0003331549814902246,-0.013140451163053513,0,0,-1000,-2,0,-13,0,3,-153,160.0,90.0,1500.0
13:34:03.497,GUIDED,-35.3632618,149.1652358,19926,0.007487297989428043,0.007175953593105078,-0.17467275261878967,-0.0033890390768647194,0.0003331549814902246,-0.013140451163053513,0,0,-1000,-2,0,-13,0,3,-153,160.0,90.0,1500.0
13:34:03.699,GUIDED,-35.3632618,149.1652358,19926,0.007487297989428043,0.007175953593105078,-0.17467275261878967,-0.0033890390768647194,0.0003331549814902246,-0.013140451163053513,0,0,-1000,-2,0,-13,0,3,-153,160.0,90.0,1500.0
13:34:03.908,GUIDED,-35.3632618,149.1652358,19926,0.007487297989428043,0.007175953593105078,-0.17467275261878967,-0.0033890390768647194,0.0003331549814902246,-0.013140451163053513,0,0,-1000,-2,0,-13,0,3,-153,160.0,90.0,1500.0
13:34:04.119,GUIDED,-35.3632618,149.1652358,19926,0.007487297989428043,0.007175953593105078,-0.17467275261878967,-0.0033890390768647194,0.0003331549814902246,-0.013140451163053513,0,0,-1000,-2,0,-13,0,3,-153,160.0,90.0,1500.0
13:34:04.320,GUIDED,-35.3632618,149.1652358,19926,0.007487297989428043,0.007175953593105078,-0.17467275261878967,-0.0033890390768647194,0.0003331549814902246,-0.013140451163053513,0,0,-1000,-2,0,-13,0,3,-153,160.0,90.0,1500.0
13:34:04.525,GUIDED,-35.3632618,149.1652358,19926,0.007487297989428043,0.007175953593105078,-0.17467275261878967,-0.0033890390768647194,0.0003331549814902246,-0.013140451163053513,0,0,-1000,-2,0,-13,0,3,-153,160.0,90.0,1500.0
13:34:04.730,GUIDED,-35.3632618,149.1652358,19926,0.007487297989428043,0.007175953593105078,-0.17467275261878967,-0.0033890390768647194,0.0003331549814902246,-0.013140451163053513,0,0,-1000,-2,0,-13,0,3,-153,160.0,90.0,1500.0
13:34:04.936,GUIDED,-35.3632618,149.1652358,19926,0.007487297989428043,0.007175953593105078,-0.17467275261878967,-0.0033890390768647194,0.0003331549814902246,-0.013140451163053513,0,0,-1000,-2,0,-13,0,3,-153,160.0,90.0,1500.0
13:34:05.139,GUIDED,-35.3632618,149.1652358,19926,0.007487297989428043,0.007175953593105078,-0.17467275261878967,-0.0033890390768647194,0.0003331549814902246,-0.013140451163053513,0,0,-1000,-2,0,-13,0,3,-153,160.0,90.0,1500.0
13:34:05.347,GUIDED,-35.3632618,149.1652358,19926,0.007487297989428043,0.007175953593105078,-0.17467275261878967,-0.0033890390768647194,0.0003331549814902246,-0.013140451163053513,0,0,-1000,-2,0,-13,0,3,-153,160.0,90.0,1500.0
13:34:05.551,GUIDED,-35.3632617,149.1652361,21650,0.003658381989225745,0.005188144277781248,-0.19089707732200623,-0.0028696043882519007,-0.0010070179123431444,-0.016063904389739037,0,0,-1000,-2,0,-16,-2,5,-153,160.0,90.0,1500.0
13:34:05.755,GUIDED,-35.3632617,149.1652363,22826,0.0020178440026938915,0.003974575083702803,-0.20343369245529175,-0.0029141483828425407,-0.0003994739381596446,-0.019588910043239594,0,0,-999,-2,0,-20,-3,5,-153,160.0,90.0,1500.0
13:34:05.959,GUIDED,-35.3632617,149.1652363,22826,0.0020178440026938915,0.003974575083702803,-0.20343369245529175,-0.0029141483828425407,-0.0003994739381596446,-0.019588910043239594,0,0,-999,-2,0,-20,-3,5,-153,160.0,90.0,1500.0
13:34:06.163,GUIDED,-35.3632617,149.1652363,22826,0.0020178440026938915,0.003974575083702803,-0.20343369245529175,-0.0029141483828425407,-0.0003994739381596446,-0.019588910043239594,0,0,-999,-2,0,-20,-3,5,-153,160.0,90.0,1500.0
13:34:06.366,GUIDED,-35.3632617,149.1652363,22826,0.0020178440026938915,0.003974575083702803,-0.20343369245529175,-0.0029141483828425407,-0.0003994739381596446,-0.019588910043239594,0,0,-999,-2,0,-20,-3,5,-153,160.0,90.0,1500.0
13:34:06.568,GUIDED,-35.3632617,149.1652363,22826,0.0020178440026938915,0.003974575083702803,-0.20343369245529175,-0.0029141483828425407,-0.0003994739381596446,-0.019588910043239594,0,0,-999,-2,0,-20,-3,5,-153,160.0,90.0,1500.0
13:34:06.774,GUIDED,-35.3632617,149.1652363,22826,0.0020178440026938915,0.003974575083702803,-0.20343369245529175,-0.0029141483828425407,-0.0003994739381596446,-0.019588910043239594,0,0,-999,-2,0,-20,-3,5,-153,160.0,90.0,1500.0
13:34:06.978,GUIDED,-35.3632617,149.1652363,22826,0.0020178440026938915,0.003974575083702803,-0.20343369245529175,-0.0029141483828425407,-0.0003994739381596446,-0.019588910043239594,0,0,-999,-2,0,-20,-3,5,-153,160.0,90.0,1500.0
13:34:07.188,GUIDED,-35.3632617,149.1652363,22826,0.0020178440026938915,0.003974575083702803,-0.20343369245529175,-0.0029141483828425407,-0.0003994739381596446,-0.019588910043239594,0,0,-999,-2,0,-20,-3,5,-153,160.0,90.0,1500.0
13:34:07.395,GUIDED,-35.3632617,149.1652363,22826,0.0020178440026938915,0.003974575083702803,-0.20343369245529175,-0.0029141483828425407,-0.0003994739381596446,-0.019588910043239594,0,0,-999,-2,0,-20,-3,5,-153,160.0,90.0,1500.0
13:34:07.604,GUIDED,-35.3632617,149.1652363,22826,0.0020178440026938915,0.003974575083702803,-0.20343369245529175,-0.0029141483828425407,-0.0003994739381596446,-0.019588910043239594,0,0,-999,-2,0,-20,-3,5,-153,160.0,90.0,1500.0
13:34:07.810,GUIDED,-35.3632617,149.1652363,22826,0.0020178440026938915,0.003974575083702803,-0.20343369245529175,-0.0029141483828425407,-0.0003994739381596446,-0.019588910043239594,0,0,-999,-2,0,-20,-3,5,-153,160.0,90.0,1500.0
13:34:08.015,GUIDED,-35.3632618,149.1652367,24626,0.0013786618364974856,0.0027828786987811327,-0.22494028508663177,-0.0011891862377524376,-0.00012177065946161747,-0.019005874171853065,0,0,-1000,0,0,-19,-3,3,-153,160.0,90.0,1500.0
13:34:08.219,GUIDED,-35.3632619,149.1652366,26189,-0.0007011184352450073,0.004609912633895874,-0.2389543354511261,0.0396156944334507,0.00368030508980155,0.004053312819451094,0,1,-1001,39,4,3,-5,-4,-153,160.0,90.0,1500.0
13:34:08.421,GUIDED,-35.3632619,149.1652366,26189,-0.0007011184352450073,0.004609912633895874,-0.2389543354511261,0.0396156944334507,0.00368030508980155,0.004053312819451094,0,1,-1001,39,4,3,-5,-4,-153,160.0,90.0,1500.0
13:34:08.631,GUIDED,-35.3632619,149.1652366,26189,-0.0007011184352450073,0.004609912633895874,-0.2389543354511261,0.0396156944334507,0.00368030508980155,0.004053312819451094,0,1,-1001,39,4,3,-5,-4,-153,160.0,90.0,1500.0
13:34:08.834,GUIDED,-35.3632619,149.1652366,26189,-0.0007011184352450073,0.004609912633895874,-0.2389543354511261,0.0396156944334507,0.00368030508980155,0.004053312819451094,0,1,-1001,39,4,3,-5,-4,-153,160.0,90.0,1500.0
13:34:09.041,GUIDED,-35.3632619,149.1652366,26189,-0.0007011184352450073,0.004609912633895874,-0.2389543354511261,0.0396156944334507,0.00368030508980155,0.004053312819451094,0,1,-1001,39,4,3,-5,-4,-153,160.0,90.0,1500.0
13:34:09.245,GUIDED,-35.3632619,149.1652366,26189,-0.0007011184352450073,0.004609912633895874,-0.2389543354511261,0.0396156944334507,0.00368030508980155,0.004053312819451094,0,1,-1001,39,4,3,-5,-4,-153,160.0,90.0,1500.0
13:34:09.450,GUIDED,-35.3632619,149.1652366,26189,-0.0007011184352450073,0.004609912633895874,-0.2389543354511261,0.0396156944334507,0.00368030508980155,0.004053312819451094,0,1,-1001,39,4,3,-5,-4,-153,160.0,90.0,1500.0
13:34:09.660,GUIDED,-35.3632619,149.1652366,26189,-0.0007011184352450073,0.004609912633895874,-0.2389543354511261,0.0396156944334507,0.00368030508980155,0.004053312819451094,0,1,-1001,39,4,3,-5,-4,-153,160.0,90.0,1500.0
13:34:09.869,GUIDED,-35.3632619,149.1652366,26189,-0.0007011184352450073,0.004609912633895874,-0.2389543354511261,0.0396156944334507,0.00368030508980155,0.004053312819451094,0,1,-1001,39,4,3,-5,-4,-153,160.0,90.0,1500.0
13:34:10.072,GUIDED,-35.3632622,149.1652363,27836,0.01318768784403801,0.0022871249821037054,-0.2177688628435135,-0.006128751672804356,-0.0022158166393637657,0.02618628740310669,0,0,-999,-5,-1,25,-4,5,-153,160.0,90.0,1500.0
13:34:10.280,GUIDED,-35.3632623,149.165237,29393,0.003541307058185339,0.0020290068350732327,-0.19450315833091736,-0.008083940483629704,0.0029439995996654034,0.01880851574242115,1,-1,-1000,-7,3,18,-1,10,-153,160.0,90.0,1500.0
13:34:10.481,GUIDED,-35.3632623,149.165237,29393,0.003541307058185339,0.0020290068350732327,-0.19450315833091736,-0.008083940483629704,0.0029439995996654034,0.01880851574242115,1,-1,-1000,-7,3,18,-1,10,-153,160.0,90.0,1500.0
13:34:10.685,GUIDED,-35.3632623,149.165237,29393,0.003541307058185339,0.0020290068350732327,-0.19450315833091736,-0.008083940483629704,0.0029439995996654034,0.01880851574242115,1,-1,-1000,-7,3,18,-1,10,-153,160.0,90.0,1500.0
13:34:10.889,GUIDED,-35.3632623,149.165237,29393,0.003541307058185339,0.0020290068350732327,-0.19450315833091736,-0.008083940483629704,0.0029439995996654034,0.01880851574242115,1,-1,-1000,-7,3,18,-1,10,-153,160.0,90.0,1500.0
13:34:11.095,GUIDED,-35.3632623,149.165237,29393,0.003541307058185339,0.0020290068350732327,-0.19450315833091736,-0.008083940483629704,0.0029439995996654034,0.01880851574242115,1,-1,-1000,-7,3,18,-1,10,-153,160.0,90.0,1500.0
13:34:11.301,GUIDED,-35.3632623,149.165237,29393,0.003541307058185339,0.0020290068350732327,-0.19450315833091736,-0.008083940483629704,0.0029439995996654034,0.01880851574242115,1,-1,-1000,-7,3,18,-1,10,-153,160.0,90.0,1500.0
13:34:11.507,GUIDED,-35.3632623,149.165237,29393,0.003541307058185339,0.0020290068350732327,-0.19450315833091736,-0.008083940483629704,0.0029439995996654034,0.01880851574242115,1,-1,-1000,-7,3,18,-1,10,-153,160.0,90.0,1500.0
13:34:11.713,GUIDED,-35.3632623,149.165237,29393,0.003541307058185339,0.0020290068350732327,-0.19450315833091736,-0.008083940483629704,0.0029439995996654034,0.01880851574242115,1,-1,-1000,-7,3,18,-1,10,-153,160.0,90.0,1500.0
13:34:11.914,GUIDED,-35.3632623,149.165237,29393,0.003541307058185339,0.0020290068350732327,-0.19450315833091736,-0.008083940483629704,0.0029439995996654034,0.01880851574242115,1,-1,-1000,-7,3,18,-1,10,-153,160.0,90.0,1500.0
13:34:12.116,GUIDED,-35.3632623,149.165237,29393,0.003541307058185339,0.0020290068350732327,-0.19450315833091736,-0.008083940483629704,0.0029439995996654034,0.01880851574242115,1,-1,-1000,-7,3,18,-1,10,-153,160.0,90.0,1500.0
13:34:12.320,GUIDED,-35.3632623,149.165238,31581,-0.001553890760987997,0.0014745560474693775,-0.16656477749347687,-0.0012652359437197447,0.00014543620636686683,0.018984736874699593,0,0,-1000,-1,0,18,0,5,-153,160.0,90.0,1500.0
13:34:12.524,GUIDED,-35.3632623,149.1652381,32362,-0.0009293120237998664,0.001366996206343174,-0.15816086530685425,0.002594990422949195,0.0010976898483932018,0.01779659278690815,0,0,-1000,3,1,17,0,2,-153,160.0,90.0,1500.0
13:34:12.733,GUIDED,-35.3632623,149.1652381,32362,-0.0009293120237998664,0.001366996206343174,-0.15816086530685425,0.002594990422949195,0.0010976898483932018,0.01779659278690815,0,0,-1000,3,1,17,0,2,-153,160.0,90.0,1500.0
13:34:12.938,GUIDED,-35.3632623,149.1652381,32362,-0.0009293120237998664,0.001366996206343174,-0.15816086530685425,0.002594990422949195,0.0010976898483932018,0.01779659278690815,0,0,-1000,3,1,17,0,2,-153,160.0,90.0,1500.0
13:34:13.140,GUIDED,-35.3632623,149.1652381,32362,-0.0009293120237998664,0.001366996206343174,-0.15816086530685425,0.002594990422949195,0.0010976898483932018,0.01779659278690815,0,0,-1000,3,1,17,0,2,-153,160.0,90.0,1500.0
13:34:13.344,GUIDED,-35.3632623,149.1652381,32362,-0.0009293120237998664,0.001366996206343174,-0.15816086530685425,0.002594990422949195,0.0010976898483932018,0.01779659278690815,0,0,-1000,3,1,17,0,2,-153,160.0,90.0,1500.0
13:34:13.551,GUIDED,-35.3632623,149.1652381,32362,-0.0009293120237998664,0.001366996206343174,-0.15816086530685425,0.002594990422949195,0.0010976898483932018,0.01779659278690815,0,0,-1000,3,1,17,0,2,-153,160.0,90.0,1500.0
13:34:13.755,GUIDED,-35.3632623,149.1652381,32362,-0.0009293120237998664,0.001366996206343174,-0.15816086530685425,0.002594990422949195,0.0010976898483932018,0.01779659278690815,0,0,-1000,3,1,17,0,2,-153,160.0,90.0,1500.0
13:34:13.958,GUIDED,-35.3632623,149.1652381,32362,-0.0009293120237998664,0.001366996206343174,-0.15816086530685425,0.002594990422949195,0.0010976898483932018,0.01779659278690815,0,0,-1000,3,1,17,0,2,-153,160.0,90.0,1500.0
13:34:14.168,GUIDED,-35.3632623,149.1652381,32362,-0.0009293120237998664,0.001366996206343174,-0.15816086530685425,0.002594990422949195,0.0010976898483932018,0.01779659278690815,0,0,-1000,3,1,17,0,2,-153,160.0,90.0,1500.0
13:34:14.372,GUIDED,-35.3632623,149.1652381,32362,-0.0009293120237998664,0.001366996206343174,-0.15816086530685425,0.002594990422949195,0.0010976898483932018,0.01779659278690815,0,0,-1000,3,1,17,0,2,-153,160.0,90.0,1500.0
13:34:14.583,GUIDED,-35.3632623,149.1652381,34152,0.0011176306288689375,0.0011768919648602605,-0.14063870906829834,0.0012942913454025984,0.0030888780020177364,0.01440066285431385,0,0,-999,1,3,13,0,0,-153,160.0,90.0,1500.0
13:34:14.787,GUIDED,-35.3632623,149.165238,35722,0.0017050144961103797,0.0013221552362665534,-0.1276128739118576,0.001997983083128929,-0.00037587349652312696,0.013414092361927032,0,0,-1000,2,0,13,0,0,-153,160.0,90.0,1500.0
13:34:14.995,GUIDED,-35.3632623,149.165238,35722,0.0017050144961103797,0.0013221552362665534,-0.1276128739118576,0.001997983083128929,-0.00037587349652312696,0.013414092361927032,0,0,-1000,2,0,13,0,0,-153,160.0,90.0,1500.0
13:34:15.198,GUIDED,-35.3632623,149.165238,35722,0.0017050144961103797,0.0013221552362665534,-0.1276128739118576,0.001997983083128929,-0.00037587349652312696,0.013414092361927032,0,0,-1000,2,0,13,0,0,-153,160.0,90.0,1500.0
13:34:15.400,GUIDED,-35.3632623,149.165238,35722,0.0017050144961103797,0.0013221552362665534,-0.1276128739118576,0.001997983083128929,-0.00037587349652312696,0.013414092361927032,0,0,-1000,2,0,13,0,0,-153,160.0,90.0,1500.0
13:34:15.602,GUIDED,-35.3632623,149.165238,35722,0.0017050144961103797,0.0013221552362665534,-0.1276128739118576,0.001997983083128929,-0.00037587349652312696,0.013414092361927032,0,0,-1000,2,0,13,0,0,-153,160.0,90.0,1500.0
13:34:15.808,GUIDED,-35.3632623,149.165238,35722,0.0017050144961103797,0.0013221552362665534,-0.1276128739118576,0.001997983083128929,-0.00037587349652312696,0.013414092361927032,0,0,-1000,2,0,13,0,0,-153,160.0,90.0,1500.0
13:34:16.014,GUIDED,-35.3632623,149.165238,35722,0.0017050144961103797,0.0013221552362665534,-0.1276128739118576,0.001997983083128929,-0.00037587349652312696,0.013414092361927032,0,0,-1000,2,0,13,0,0,-153,160.0,90.0,1500.0
13:34:16.220,GUIDED,-35.3632623,149.165238,35722,0.0017050144961103797,0.0013221552362665534,-0.1276128739118576,0.001997983083128929,-0.00037587349652312696,0.013414092361927032,0,0,-1000,2,0,13,0,0,-153,160.0,90.0,1500.0
13:34:16.425,GUIDED,-35.3632623,149.165238,35722,0.0017050144961103797,0.0013221552362665534,-0.1276128739118576,0.001997983083128929,-0.00037587349652312696,0.013414092361927032,0,0,-1000,2,0,13,0,0,-153,160.0,90.0,1500.0
13:34:16.632,GUIDED,-35.3632623,149.165238,35722,0.0017050144961103797,0.0013221552362665534,-0.1276128739118576,0.001997983083128929,-0.00037587349652312696,0.013414092361927032,0,0,-1000,2,0,13,0,0,-153,160.0,90.0,1500.0
13:34:16.834,GUIDED,-35.3632622,149.1652376,38921,0.0025087001267820597,0.0016151791205629706,-0.10659347474575043,-0.003208666108548641,-0.0007940107607282698,0.0080826785415411,0,0,-1000,-2,0,7,0,0,-153,160.0,90.0,1500.0
13:34:17.041,GUIDED,-35.3632622,149.1652376,38921,0.0025087001267820597,0.0016151791205629706,-0.10659347474575043,-0.003208666108548641,-0.0007940107607282698,0.0080826785415411,0,0,-1000,-2,0,7,0,0,-153,160.0,90.0,1500.0
13:34:17.242,GUIDED,-35.3632622,149.1652376,38921,0.0025087001267820597,0.0016151791205629706,-0.10659347474575043,-0.003208666108548641,-0.0007940107607282698,0.0080826785415411,0,0,-1000,-2,0,7,0,0,-153,160.0,90.0,1500.0
13:34:17.445,GUIDED,-35.3632622,149.1652376,38921,0.0025087001267820597,0.0016151791205629706,-0.10659347474575043,-0.003208666108548641,-0.0007940107607282698,0.0080826785415411,0,0,-1000,-2,0,7,0,0,-153,160.0,90.0,1500.0
13:34:17.651,GUIDED,-35.3632622,149.1652376,38921,0.0025087001267820597,0.0016151791205629706,-0.10659347474575043,-0.003208666108548641,-0.0007940107607282698,0.0080826785415411,0,0,-1000,-2,0,7,0,0,-153,160.0,90.0,1500.0
13:34:17.857,GUIDED,-35.3632622,149.1652376,38921,0.0025087001267820597,0.0016151791205629706,-0.10659347474575043,-0.003208666108548641,-0.0007940107607282698,0.0080826785415411,0,0,-1000,-2,0,7,0,0,-153,160.0,90.0,1500.0
13:34:18.059,GUIDED,-35.3632622,149.1652376,38921,0.0025087001267820597,0.0016151791205629706,-0.10659347474575043,-0.003208666108548641,-0.0007940107607282698,0.0080826785415411,0,0,-1000,-2,0,7,0,0,-153,160.0,90.0,1500.0
13:34:18.264,GUIDED,-35.3632622,149.1652376,38921,0.0025087001267820597,0.0016151791205629706,-0.10659347474575043,-0.003208666108548641,-0.0007940107607282698,0.0080826785415411,0,0,-1000,-2,0,7,0,0,-153,160.0,90.0,1500.0
13:34:18.469,GUIDED,-35.3632622,149.1652376,38921,0.0025087001267820597,0.0016151791205629706,-0.10659347474575043,-0.003208666108548641,-0.0007940107607282698,0.0080826785415411,0,0,-1000,-2,0,7,0,0,-153,160.0,90.0,1500.0
13:34:18.676,GUIDED,-35.3632622,149.1652376,38921,0.0025087001267820597,0.0016151791205629706,-0.10659347474575043,-0.003208666108548641,-0.0007940107607282698,0.0080826785415411,0,0,-1000,-2,0,7,0,0,-153,160.0,90.0,1500.0
13:34:18.883,GUIDED,-35.3632622,149.1652376,38921,0.0025087001267820597,0.0016151791205629706,-0.10659347474575043,-0.003208666108548641,-0.0007940107607282698,0.0080826785415411,0,0,-1000,-2,0,7,0,0,-153,160.0,90.0,1500.0
13:34:19.086,GUIDED,-35.3632621,149.1652375,40706,0.002348695881664753,0.0014147735200822353,-0.09675046056509018,0.001168280141428113,-0.0005219996673986316,0.011550034396350384,0,0,-1000,1,0,11,0,0,-153,160.0,90.0,1500.0
13:34:19.292,GUIDED,-35.3632621,149.1652374,42267,0.002006955910474062,0.0012403485598042607,-0.0900043398141861,-0.0021518347784876823,0.0010515390895307064,0.008083912543952465,0,0,-999,-1,1,7,-1,1,-153,160.0,90.0,1500.0
13:34:19.498,GUIDED,-35.3632621,149.1652374,42658,0.002129501663148403,0.0010269528720527887,-0.08827745169401169,0.00189491780474782,-0.0010117103811353445,0.00868542492389679,0,0,-1001,2,0,8,-1,1,-153,160.0,90.0,1500.0
13:34:19.700,GUIDED,-35.3632621,149.1652374,42658,0.002129501663148403,0.0010269528720527887,-0.08827745169401169,0.00189491780474782,-0.0010117103811353445,0.00868542492389679,0,0,-1001,2,0,8,-1,1,-153,160.0,90.0,1500.0
13:34:19.902,GUIDED,-35.3632621,149.1652374,42658,0.002129501663148403,0.0010269528720527887,-0.08827745169401169,0.00189491780474782,-0.0010117103811353445,0.00868542492389679,0,0,-1001,2,0,8,-1,1,-153,160.0,90.0,1500.0
13:34:20.107,GUIDED,-35.3632621,149.1652374,42658,0.002129501663148403,0.0010269528720527887,-0.08827745169401169,0.00189491780474782,-0.0010117103811353445,0.00868542492389679,0,0,-1001,2,0,8,-1,1,-153,160.0,90.0,1500.0
13:34:20.309,GUIDED,-35.3632621,149.1652374,42658,0.002129501663148403,0.0010269528720527887,-0.08827745169401169,0.00189491780474782,-0.0010117103811353445,0.00868542492389679,0,0,-1001,2,0,8,-1,1,-153,160.0,90.0,1500.0
13:34:20.516,GUIDED,-35.3632621,149.1652374,42658,0.002129501663148403,0.0010269528720527887,-0.08827745169401169,0.00189491780474782,-0.0010117103811353445,0.00868542492389679,0,0,-1001,2,0,8,-1,1,-153,160.0,90.0,1500.0
13:34:20.723,GUIDED,-35.3632621,149.1652374,42658,0.002129501663148403,0.0010269528720527887,-0.08827745169401169,0.00189491780474782,-0.0010117103811353445,0.00868542492389679,0,0,-1001,2,0,8,-1,1,-153,160.0,90.0,1500.0
13:34:20.927,GUIDED,-35.3632621,149.1652374,42658,0.002129501663148403,0.0010269528720527887,-0.08827745169401169,0.00189491780474782,-0.0010117103811353445,0.00868542492389679,0,0,-1001,2,0,8,-1,1,-153,160.0,90.0,1500.0
13:34:21.137,GUIDED,-35.3632621,149.1652374,42658,0.002129501663148403,0.0010269528720527887,-0.08827745169401169,0.00189491780474782,-0.0010117103811353445,0.00868542492389679,0,0,-1001,2,0,8,-1,1,-153,160.0,90.0,1500.0
13:34:21.340,GUIDED,-35.3632621,149.1652374,43516,0.0021861030254513025,0.0008524798904545605,-0.08462320268154144,0.0043632034212350845,0.0019135682377964258,0.00904360506683588,0,0,-1001,2,0,8,-1,1,-153,160.0,90.0,1500.0
13:34:21.544,GUIDED,-35.3632621,149.1652374,44693,0.0024335181806236506,0.0015547454822808504,-0.07977006584405899,9.206740651279688e-05,0.0034233499318361282,0.0076168496161699295,0,0,-999,0,4,7,-1,1,-153,160.0,90.0,1500.0
13:34:21.748,GUIDED,-35.3632621,149.1652374,44693,0.0024335181806236506,0.0015547454822808504,-0.07977006584405899,9.206740651279688e-05,0.0034233499318361282,0.0076168496161699295,0,0,-999,0,4,7,-1,1,-153,160.0,90.0,1500.0
13:34:21.952,GUIDED,-35.3632621,149.1652374,44693,0.0024335181806236506,0.0015547454822808504,-0.07977006584405899,9.206740651279688e-05,0.0034233499318361282,0.0076168496161699295,0,0,-999,0,4,7,-1,1,-153,160.0,90.0,1500.0
13:34:22.158,GUIDED,-35.3632621,149.1652374,44693,0.0024335181806236506,0.0015547454822808504,-0.07977006584405899,9.206740651279688e-05,0.0034233499318361282,0.0076168496161699295,0,0,-999,0,4,7,-1,1,-153,160.0,90.0,1500.0
13:34:22.363,GUIDED,-35.3632621,149.1652374,44693,0.0024335181806236506,0.0015547454822808504,-0.07977006584405899,9.206740651279688e-05,0.0034233499318361282,0.0076168496161699295,0,0,-999,0,4,7,-1,1,-153,160.0,90.0,1500.0
13:34:22.572,GUIDED,-35.3632621,149.1652374,44693,0.0024335181806236506,0.0015547454822808504,-0.07977006584405899,9.206740651279688e-05,0.0034233499318361282,0.0076168496161699295,0,0,-999,0,4,7,-1,1,-153,160.0,90.0,1500.0
13:34:22.774,GUIDED,-35.3632621,149.1652374,44693,0.0024335181806236506,0.0015547454822808504,-0.07977006584405899,9.206740651279688e-05,0.0034233499318361282,0.0076168496161699295,0,0,-999,0,4,7,-1,1,-153,160.0,90.0,1500.0
13:34:22.981,GUIDED,-35.3632621,149.1652374,44693,0.0024335181806236506,0.0015547454822808504,-0.07977006584405899,9.206740651279688e-05,0.0034233499318361282,0.0076168496161699295,0,0,-999,0,4,7,-1,1,-153,160.0,90.0,1500.0
13:34:23.184,GUIDED,-35.3632621,149.1652374,45704,0.0021223851945251226,0.0014681824250146747,-0.07582851499319077,0.0011878518853336573,0.000551739358343184,0.006903833709657192,0,0,-1000,1,1,7,-1,1,-153,160.0,90.0,1500.0
13:34:23.389,LAND,-35.3632621,149.1652374,47659,0.0019294160883873701,0.001135550090111792,-0.06883743405342102,0.0016332876402884722,-0.0003597575705498457,0.005672055762261152,0,0,-1000,1,1,7,-1,1,-153,160.0,90.0,1500.0
13:34:23.593,LAND,-35.3632623,149.1652369,49138,-0.06753361225128174,0.0800316110253334,0.18796105682849884,-0.050254203379154205,-0.05716325715184212,0.481699138879776,0,0,-955,-187,183,553,-21,-20,-121,500.0,90.0,1500.0
13:34:23.796,LAND,-35.3632635,149.165235,49645,-0.018996281549334526,-0.011969094164669514,0.32501211762428284,0.11924206465482712,-0.17998744547367096,0.12703803181648254,4,7,-914,120,-179,127,-30,-40,-77,500.0,90.0,1500.0
13:34:24.001,LAND,-35.3632647,149.1652324,50018,0.03813466057181358,-0.05985567346215248,0.34478190541267395,0.01339771319180727,0.008446208201348782,-0.021998010575771332,0,11,-930,131,-29,2,-3,-15,-21,500.0,90.0,1500.0
13:34:24.209,LAND,-35.3632643,149.1652324,49990,0.029534725472331047,-0.03098488040268421,0.3181939125061035,-0.1096029207110405,0.049898773431777954,-0.037864141166210175,-4,21,-948,-98,50,-37,16,20,26,500.0,90.0,1500.0
13:34:24.413,LAND,-35.3632635,149.1652337,49812,0.019685687497258186,0.0007333336398005486,0.29097801446914673,0.7457985877990723,0.03698880970478058,-0.040163394063711166,-3,51,-945,733,48,-36,20,31,43,500.0,90.0,1500.0
13:34:24.624,LAND,-35.3632618,149.1652373,49175,-0.014832753688097,0.01635926589369774,0.2676263153553009,0.1131923496723175,0.007628395687788725,-0.04914481192827225,0,39,-962,128,8,-48,14,28,81,500.0,90.0,1500.0
13:34:24.830,LAND,-35.3632612,149.1652395,48314,-0.030658366158604622,0.018057549372315407,0.24688220024108887,-1.9676822423934937,-0.0028614599723368883,-0.040145352482795715,2,-92,-814,-1971,-1,-40,6,14,162,500.0,90.0,1500.0
13:34:25.040,LAND,-35.3632612,149.1652409,46254,-0.022693226113915443,0.007518585305660963,0.21826301515102386,-1.5722895860671997,-0.009493069723248482,-0.024763591587543488,1,-100,-947,-1744,-15,-25,0,3,341,500.0,90.0,1500.0
13:34:25.243,LAND,-35.3632614,149.1652412,43446,-0.04079635813832283,0.0031569034326821566,0.207040935754776,-1.8968414068222046,-0.010911740362644196,-0.021253757178783417,0,-62,-997,-1900,-9,-20,-2,-3,375,500.0,90.0,1500.0
13:34:25.449,LAND,-35.3632614,149.1652412,43446,-0.04079635813832283,0.0031569034326821566,0.207040935754776,-1.8968414068222046,-0.010911740362644196,-0.021253757178783417,0,-62,-997,-1900,-9,-20,-2,-3,375,500.0,90.0,1500.0
13:34:25.659,LAND,-35.3632614,149.1652412,43446,-0.04079635813832283,0.0031569034326821566,0.207040935754776,-1.8968414068222046,-0.010911740362644196,-0.021253757178783417,0,-62,-997,-1900,-9,-20,-2,-3,375,500.0,90.0,1500.0
13:34:25.863,LAND,-35.3632614,149.1652412,43446,-0.04079635813832283,0.0031569034326821566,0.207040935754776,-1.8968414068222046,-0.010911740362644196,-0.021253757178783417,0,-62,-997,-1900,-9,-20,-2,-3,375,500.0,90.0,1500.0
13:34:26.067,LAND,-35.3632614,149.1652412,43446,-0.04079635813832283,0.0031569034326821566,0.207040935754776,-1.8968414068222046,-0.010911740362644196,-0.021253757178783417,0,-62,-997,-1900,-9,-20,-2,-3,375,500.0,90.0,1500.0
13:34:26.270,LAND,-35.3632614,149.1652412,43446,-0.04079635813832283,0.0031569034326821566,0.207040935754776,-1.8968414068222046,-0.010911740362644196,-0.021253757178783417,0,-62,-997,-1900,-9,-20,-2,-3,375,500.0,90.0,1500.0
13:34:26.474,LAND,-35.3632614,149.1652412,43446,-0.04079635813832283,0.0031569034326821566,0.207040935754776,-1.8968414068222046,-0.010911740362644196,-0.021253757178783417,0,-62,-997,-1900,-9,-20,-2,-3,375,500.0,90.0,1500.0
13:34:26.682,LAND,-35.3632614,149.1652412,43446,-0.04079635813832283,0.0031569034326821566,0.207040935754776,-1.8968414068222046,-0.010911740362644196,-0.021253757178783417,0,-62,-997,-1900,-9,-20,-2,-3,375,500.0,90.0,1500.0
13:34:26.887,LAND,-35.3632614,149.1652412,43446,-0.04079635813832283,0.0031569034326821566,0.207040935754776,-1.8968414068222046,-0.010911740362644196,-0.021253757178783417,0,-62,-997,-1900,-9,-20,-2,-3,375,500.0,90.0,1500.0
13:34:27.090,LAND,-35.3632614,149.1652412,43446,-0.04079635813832283,0.0031569034326821566,0.207040935754776,-1.8968414068222046,-0.010911740362644196,-0.021253757178783417,0,-62,-997,-1900,-9,-20,-2,-3,375,500.0,90.0,1500.0
13:34:27.297,LAND,-35.3632614,149.1652412,43446,-0.04079635813832283,0.0031569034326821566,0.207040935754776,-1.8968414068222046,-0.010911740362644196,-0.021253757178783417,0,-62,-997,-1900,-9,-20,-2,-3,375,500.0,90.0,1500.0
13:34:27.501,LAND,-35.3632614,149.1652412,43446,-0.04079635813832283,0.0031569034326821566,0.207040935754776,-1.8968414068222046,-0.010911740362644196,-0.021253757178783417,0,-62,-997,-1900,-9,-20,-2,-3,375,500.0,90.0,1500.0
13:34:27.703,LAND,-35.3632614,149.1652412,43446,-0.04079635813832283,0.0031569034326821566,0.207040935754776,-1.8968414068222046,-0.010911740362644196,-0.021253757178783417,0,-62,-997,-1900,-9,-20,-2,-3,375,500.0,90.0,1500.0
13:34:27.906,LAND,-35.3632614,149.1652412,43446,-0.04079635813832283,0.0031569034326821566,0.207040935754776,-1.8968414068222046,-0.010911740362644196,-0.021253757178783417,0,-62,-997,-1900,-9,-20,-2,-3,375,500.0,90.0,1500.0
13:34:28.108,LAND,-35.3632614,149.1652412,43446,-0.04079635813832283,0.0031569034326821566,0.207040935754776,-1.8968414068222046,-0.010911740362644196,-0.021253757178783417,0,-62,-997,-1900,-9,-20,-2,-3,375,500.0,90.0,1500.0
13:34:28.317,LAND,-35.3632617,149.1652401,39617,-0.012311585247516632,-0.002590194111689925,0.18856802582740784,-1.3122751712799072,-0.005011134315282106,-0.014405847527086735,0,-32,-1000,-1301,-4,-13,-1,-7,357,500.0,90.0,1500.0
13:34:28.520,LAND,-35.3632617,149.1652401,39617,-0.012311585247516632,-0.002590194111689925,0.18856802582740784,-1.3122751712799072,-0.005011134315282106,-0.014405847527086735,0,-32,-1000,-1301,-4,-13,-1,-7,357,500.0,90.0,1500.0
13:34:28.723,LAND,-35.3632617,149.1652401,39617,-0.012311585247516632,-0.002590194111689925,0.18856802582740784,-1.3122751712799072,-0.005011134315282106,-0.014405847527086735,0,-32,-1000,-1301,-4,-13,-1,-7,357,180.0,90.0,1500.0
13:34:28.926,LAND,-35.3632618,149.1652395,37848,-0.011071501299738884,-0.002241763286292553,0.18244099617004395,-2.294287919998169,-0.018333913758397102,-0.0014411050360649824,4,-119,-1436,-2303,-17,-1,0,-7,280,180.0,90.0,1500.0
13:34:29.128,LAND,-35.363262,149.1652386,36478,-0.005641731899231672,-0.002881249412894249,0.16644223034381866,-0.8616980910301208,-0.0008867652504704893,-0.01262917835265398,-1,-58,-1005,-872,0,-12,2,-9,63,180.0,90.0,1500.0
13:34:29.332,LAND,-35.3632622,149.1652384,35363,0.01382454764097929,-0.0019836595747619867,0.15063761174678802,1.025665044784546,-0.0019626468420028687,-0.0074405549094080925,0,32,-958,1018,-1,-7,2,-8,102,180.0,90.0,1500.0
13:34:29.539,LAND,-35.3632622,149.1652377,33945,-0.01146961934864521,-0.004109404515475035,0.13579662144184113,0.2069251835346222,-0.004126186016947031,-0.007736656814813614,-1,48,-1101,307,3,-3,2,-4,116,180.0,90.0,1500.0
13:34:29.747,LAND,-35.3632623,149.1652367,32757,-0.002250314923003316,-0.003364828648045659,0.1283940076828003,-1.4810848236083984,-0.011293092742562294,-0.012645717710256577,0,-68,-1033,-1485,-10,-12,3,-1,114,180.0,90.0,1500.0
13:34:29.949,LAND,-35.3632622,149.1652364,31247,0.02323097735643387,0.0009602513746358454,0.11895772069692612,0.28579938411712646,0.0069914343766868114,-0.015803618356585503,0,-40,-1071,-10,0,-13,2,6,122,180.0,90.0,1500.0
13:34:30.157,LAND,-35.3632622,149.1652367,30325,0.013535985723137856,-0.0003604755620472133,0.11230596154928207,1.7774137258529663,-0.0060849981382489204,-0.013500768691301346,0,80,-986,1781,-5,-12,1,8,128,180.0,90.0,1500.0
13:34:32.859,LAND,-35.3632622,149.1652367,30325,0.013535985723137856,-0.0003604755620472133,0.11230596154928207,1.7774137258529663,-0.0060849981382489204,-0.013500768691301346,0,80,-986,1781,-5,-12,1,8,128,180.0,90.0,1500.0
13:34:33.062,LAND,-35.3632622,149.1652367,30325,0.013535985723137856,-0.0003604755620472133,0.11230596154928207,1.7774137258529663,-0.0060849981382489204,-0.013500768691301346,0,80,-986,1781,-5,-12,1,8,128,90.0,90.0,1500.0
13:34:33.267,LAND,-35.3632622,149.1652367,30325,0.013535985723137856,-0.0003604755620472133,0.11230596154928207,1.7774137258529663,-0.0060849981382489204,-0.013500768691301346,0,80,-986,1781,-5,-12,1,8,128,90.0,90.0,1500.0
13:34:33.479,LAND,-35.3632622,149.1652367,30325,0.013535985723137856,-0.0003604755620472133,0.11230596154928207,1.7774137258529663,-0.0060849981382489204,-0.013500768691301346,0,80,-986,1781,-5,-12,1,8,128,90.0,90.0,1500.0
13:34:33.684,LAND,-35.3632622,149.1652367,30325,0.013535985723137856,-0.0003604755620472133,0.11230596154928207,1.7774137258529663,-0.0060849981382489204,-0.013500768691301346,0,80,-986,1781,-5,-12,1,8,128,90.0,90.0,1500.0
13:34:33.888,LAND,-35.3632622,149.1652367,30325,0.013535985723137856,-0.0003604755620472133,0.11230596154928207,1.7774137258529663,-0.0060849981382489204,-0.013500768691301346,0,80,-986,1781,-5,-12,1,8,128,90.0,90.0,1500.0
13:34:34.093,LAND,-35.3632622,149.1652367,30325,0.013535985723137856,-0.0003604755620472133,0.11230596154928207,1.7774137258529663,-0.0060849981382489204,-0.013500768691301346,0,80,-986,1781,-5,-12,1,8,128,90.0,90.0,1500.0
