time_stamp,MODE,lat,lon,relative_alt,roll,pitch,yaw,rollspeed,pitchspeed,yawspeed,xacc,yacc,zacc,xgyro,ygyro,zgyro,vx,vy,vz,RTL_ALT
04:06:11.386,STABILIZE,-35.3632621,149.1652374,0,0.00013322984159458429,0.0013625536812469363,0.027896415442228317,0.00016048926045186818,0.00019870480173267424,0.002463226206600666,0,1,-1000,0,0,0,0,0,1,28264.0
04:06:11.587,STABILIZE,-35.3632621,149.1652374,0,0.00022318797709885985,0.0015349624445661902,0.027400735765695572,0.00011920917313545942,0.00033814148628152907,0.002406701212748885,0,1,-1000,0,1,0,-1,1,1,28264.0
04:06:11.787,STABILIZE,-35.3632621,149.1652374,0,0.00022318797709885985,0.0015349624445661902,0.027400735765695572,0.00011920917313545942,0.00033814148628152907,0.002406701212748885,0,1,-1000,0,1,0,-1,1,1,28264.0
04:06:11.988,STABILIZE,-35.3632621,149.1652374,0,0.00023563862487208098,0.0015701903030276299,0.027200747281312943,0.00021585469949059188,0.0002252263657283038,0.002362061757594347,0,1,-1000,0,0,0,-1,1,1,28264.0
04:06:12.189,STABILIZE,-35.3632621,149.1652374,0,0.00023466467973776162,0.0015964184422045946,0.027036184445023537,0.00022662195260636508,0.00020091579062864184,0.0022143120877444744,0,1,-1000,0,0,0,-1,1,1,28264.0
04:06:12.390,STABILIZE,-35.3632621,149.1652374,0,0.00023466467973776162,0.0015964184422045946,0.027036184445023537,0.00022662195260636508,0.00020091579062864184,0.0022143120877444744,0,1,-1000,0,0,0,-1,1,1,28264.0
04:06:12.593,STABILIZE,-35.3632621,149.1652374,0,0.00023466467973776162,0.0015964184422045946,0.027036184445023537,0.00022662195260636508,0.00020091579062864184,0.0022143120877444744,0,1,-1000,0,0,0,-1,1,1,28264.0
04:06:12.794,STABILIZE,-35.3632621,149.1652374,0,0.00023466467973776162,0.0015964184422045946,0.027036184445023537,0.00022662195260636508,0.00020091579062864184,0.0022143120877444744,0,1,-1000,0,0,0,-1,1,1,28264.0
04:06:12.996,STABILIZE,-35.3632621,149.1652374,0,0.00023466467973776162,0.0015964184422045946,0.027036184445023537,0.00022662195260636508,0.00020091579062864184,0.0022143120877444744,0,1,-1000,0,0,0,-1,1,1,28264.0
04:06:13.197,STABILIZE,-35.3632621,149.1652375,0,0.00041209132177755237,0.0015660790959373116,0.02638532780110836,0.0001221477286890149,0.00022210300085134804,0.0022593794856220484,0,1,-1000,0,0,0,-2,2,1,28264.0
04:06:13.399,STABILIZE,-35.3632621,149.1652375,0,0.00034969838452525437,0.0015254069585353136,0.026219720020890236,0.00026614294620230794,0.00020716805011034012,0.0020866577979177237,0,1,-1000,0,0,0,-2,2,0,28264.0
04:06:13.601,STABILIZE,-35.3632622,149.1652375,0,0.00026671262457966805,0.001478512305766344,0.026066673919558525,0.00027833032072521746,0.00039760919753462076,0.002186199650168419,0,1,-1000,0,0,0,-2,2,0,28264.0
04:06:13.802,STABILIZE,-35.3632622,149.1652375,0,0.00026671262457966805,0.001478512305766344,0.026066673919558525,0.00027833032072521746,0.00039760919753462076,0.002186199650168419,0,1,-1000,0,0,0,-2,2,0,28264.0
04:06:14.003,STABILIZE,-35.3632622,149.1652375,0,0.00018047053890768439,0.0014283154159784317,0.025921881198883057,0.00036768283462151885,0.0002365362597629428,0.002224217401817441,0,1,-1000,0,0,0,-2,2,0,28264.0
04:06:14.205,STABILIZE,-35.3632622,149.1652375,0,8.253577107097954e-05,0.001377438078634441,0.025786923244595528,0.0002471013576723635,0.00017151510110124946,0.002131765941157937,0,1,-1000,0,0,0,-2,2,0,28264.0
04:06:14.406,STABILIZE,-35.3632622,149.1652375,0,8.253577107097954e-05,0.001377438078634441,0.025786923244595528,0.0002471013576723635,0.00017151510110124946,0.002131765941157937,0,1,-1000,0,0,0,-2,2,0,28264.0
04:06:14.607,STABILIZE,-35.3632622,149.1652375,0,8.253577107097954e-05,0.001377438078634441,0.025786923244595528,0.0002471013576723635,0.00017151510110124946,0.002131765941157937,0,1,-1000,0,0,0,-2,2,0,28264.0
04:06:14.809,STABILIZE,-35.3632622,149.1652375,0,8.253577107097954e-05,0.001377438078634441,0.025786923244595528,0.0002471013576723635,0.00017151510110124946,0.002131765941157937,0,1,-1000,0,0,0,-2,2,0,28264.0
04:06:15.010,STABILIZE,-35.3632622,149.1652375,0,8.253577107097954e-05,0.001377438078634441,0.025786923244595528,0.0002471013576723635,0.00017151510110124946,0.002131765941157937,0,1,-1000,0,0,0,-2,2,0,28264.0
04:06:15.211,STABILIZE,-35.3632622,149.1652375,0,-0.0002845447161234915,0.0011729815742000937,0.02524431049823761,0.00010289798956364393,0.00029561776318587363,0.0021033580414950848,0,1,-1000,0,0,0,-1,1,0,28264.0
04:06:15.413,STABILIZE,-35.3632622,149.1652375,0,-0.0002845447161234915,0.0011729815742000937,0.02524431049823761,0.00010289798956364393,0.00029561776318587363,0.0021033580414950848,0,1,-1000,0,0,0,-1,1,0,28264.0
04:06:15.614,STABILIZE,-35.3632622,149.1652375,0,-0.00043724646093323827,0.001091994228772819,0.025015149265527725,0.0003384824376553297,0.0002865424030460417,0.0020615949761122465,0,1,-1000,0,0,0,-1,1,0,28264.0
04:06:15.815,STABILIZE,-35.3632622,149.1652375,0,-0.00043724646093323827,0.001091994228772819,0.025015149265527725,0.0003384824376553297,0.0002865424030460417,0.0020615949761122465,0,1,-1000,0,0,0,-1,1,0,28264.0
04:06:16.016,STABILIZE,-35.3632622,149.1652375,0,-0.00043724646093323827,0.001091994228772819,0.025015149265527725,0.0003384824376553297,0.0002865424030460417,0.0020615949761122465,0,1,-1000,0,0,0,-1,1,0,28264.0
04:06:16.217,STABILIZE,-35.3632622,149.1652375,0,-0.000569655850995332,0.0010210631880909204,0.024809205904603004,0.00038742489414289594,0.0002835197956301272,0.002122532343491912,0,1,-1000,0,0,0,-1,1,0,28264.0
04:06:16.418,STABILIZE,-35.3632622,149.1652375,0,-0.000569655850995332,0.0010210631880909204,0.024809205904603004,0.00038742489414289594,0.0002835197956301272,0.002122532343491912,0,1,-1000,0,0,0,-1,1,0,28264.0
04:06:16.620,STABILIZE,-35.3632622,149.1652375,0,-0.000569655850995332,0.0010210631880909204,0.024809205904603004,0.00038742489414289594,0.0002835197956301272,0.002122532343491912,0,1,-1000,0,0,0,-1,1,0,28264.0
04:06:16.821,STABILIZE,-35.3632622,149.1652375,0,-0.000569655850995332,0.0010210631880909204,0.024809205904603004,0.00038742489414289594,0.0002835197956301272,0.002122532343491912,0,1,-1000,0,0,0,-1,1,0,28264.0
04:06:17.022,STABILIZE,-35.3632621,149.1652375,0,-0.0005575617542490363,0.0009504664340056479,0.024498922750353813,0.0002089754561893642,0.00014371395809575915,0.0020186426118016243,0,1,-1000,1,0,0,-1,1,0,28264.0
04:06:17.223,STABILIZE,-35.3632621,149.1652375,0,-0.0006031861994415522,0.0009328738669864833,0.02441667765378952,0.00023095594951882958,0.00029198708944022655,0.002006093505769968,0,1,-1000,0,0,0,-1,1,0,28264.0
04:06:17.425,STABILIZE,-35.3632621,149.1652375,0,-0.0006031861994415522,0.0009328738669864833,0.02441667765378952,0.00023095594951882958,0.00029198708944022655,0.002006093505769968,0,1,-1000,0,0,0,-1,1,0,28264.0
04:06:17.626,STABILIZE,-35.3632621,149.1652375,0,-0.0006744326674379408,0.0009300678502768278,0.024239089339971542,0.00037438777508214116,0.00035796471638605,0.001964012160897255,0,1,-1000,0,0,0,-1,1,0,28264.0
04:06:17.827,STABILIZE,-35.3632621,149.1652375,0,-0.0006744326674379408,0.0009300678502768278,0.024239089339971542,0.00037438777508214116,0.00035796471638605,0.001964012160897255,0,1,-1000,0,0,0,-1,1,0,28264.0
04:06:18.029,STABILIZE,-35.3632621,149.1652375,0,-0.0006744326674379408,0.0009300678502768278,0.024239089339971542,0.00037438777508214116,0.00035796471638605,0.001964012160897255,0,1,-1000,0,0,0,-1,1,0,28264.0
04:06:18.231,STABILIZE,-35.3632621,149.1652375,0,-0.0007382498588413,0.0009222386288456619,0.024065900593996048,0.0002647501532919705,0.00022065837401896715,0.001903086667880416,0,1,-1000,0,0,0,-1,1,0,28264.0
04:06:18.432,STABILIZE,-35.3632621,149.1652375,0,-0.0007382498588413,0.0009222386288456619,0.024065900593996048,0.0002647501532919705,0.00022065837401896715,0.001903086667880416,0,1,-1000,0,0,0,-1,1,0,28264.0
04:06:18.634,STABILIZE,-35.3632621,149.1652375,0,-0.0007382498588413,0.0009222386288456619,0.024065900593996048,0.0002647501532919705,0.00022065837401896715,0.001903086667880416,0,1,-1000,0,0,0,-1,1,0,28264.0
04:06:18.838,STABILIZE,-35.3632621,149.1652375,0,-0.0007382498588413,0.0009222386288456619,0.024065900593996048,0.0002647501532919705,0.00022065837401896715,0.001903086667880416,0,1,-1000,0,0,0,-1,1,0,28264.0
04:06:19.039,STABILIZE,-35.3632621,149.1652375,0,-0.0007382498588413,0.0009222386288456619,0.024065900593996048,0.0002647501532919705,0.00022065837401896715,0.001903086667880416,0,1,-1000,0,0,0,-1,1,0,28264.0
04:06:19.241,STABILIZE,-35.3632621,149.1652375,0,-0.0008720670593902469,0.0009193533915095031,0.023728111758828163,7.059302879497409e-05,0.00029353995341807604,0.0018184904474765062,0,1,-1000,0,0,0,-1,1,0,28264.0
04:06:19.442,STABILIZE,-35.3632621,149.1652375,0,-0.0008988262852653861,0.000917482771910727,0.023629315197467804,0.00013168738223612309,0.000370064633898437,0.0018261868972331285,0,1,-1000,1,0,0,-1,1,0,28264.0
04:06:19.643,STABILIZE,-35.3632621,149.1652375,0,-0.0009177958127111197,0.0009294555056840181,0.023557869717478752,0.00025926611851900816,0.0002441630931571126,0.0017471769824624062,0,1,-1000,0,0,0,-1,1,0,28264.0
04:06:19.844,STABILIZE,-35.3632621,149.1652375,0,-0.0009177958127111197,0.0009294555056840181,0.023557869717478752,0.00025926611851900816,0.0002441630931571126,0.0017471769824624062,0,1,-1000,0,0,0,-1,1,0,28264.0
04:06:20.046,STABILIZE,-35.3632621,149.1652375,0,-0.0009177958127111197,0.0009294555056840181,0.023557869717478752,0.00025926611851900816,0.0002441630931571126,0.0017471769824624062,0,1,-1000,0,0,0,-1,1,0,28264.0
04:06:20.247,STABILIZE,-35.3632621,149.1652375,0,-0.0009177958127111197,0.0009294555056840181,0.023557869717478752,0.00025926611851900816,0.0002441630931571126,0.0017471769824624062,0,1,-1000,0,0,0,-1,1,0,28264.0
04:06:20.451,STABILIZE,-35.3632621,149.1652375,0,-0.0009177958127111197,0.0009294555056840181,0.023557869717478752,0.00025926611851900816,0.0002441630931571126,0.0017471769824624062,0,1,-1000,0,0,0,-1,1,0,28264.0
04:06:20.652,STABILIZE,-35.3632621,149.1652375,0,-0.0009177958127111197,0.0009294555056840181,0.023557869717478752,0.00025926611851900816,0.0002441630931571126,0.0017471769824624062,0,1,-1000,0,0,0,-1,1,0,28264.0
04:06:20.854,STABILIZE,-35.3632621,149.1652374,0,-0.0008938569808378816,0.00096769945230335,0.023237664252519608,0.00018433359218761325,0.00019611569587141275,0.001797690405510366,0,2,-1000,0,0,0,-1,0,-2,28264.0
04:06:21.055,STABILIZE,-35.3632621,149.1652374,0,-0.0008938569808378816,0.00096769945230335,0.023237664252519608,0.00018433359218761325,0.00019611569587141275,0.001797690405510366,0,2,-1000,0,0,0,-1,0,-2,28264.0
04:06:21.257,STABILIZE,-35.3632621,149.1652375,0,-0.0008938569808378816,0.00096769945230335,0.023237664252519608,0.00018433359218761325,0.00019611569587141275,0.001797690405510366,0,1,-1000,0,1,0,-1,0,-2,28264.0
04:06:21.458,STABILIZE,-35.3632621,149.1652375,0,-0.0008938569808378816,0.00096769945230335,0.023237664252519608,0.00018433359218761325,0.00019611569587141275,0.001797690405510366,0,1,-1000,0,1,0,-1,0,-2,28264.0
04:06:21.659,STABILIZE,-35.3632621,149.1652375,0,-0.0008938569808378816,0.00096769945230335,0.023237664252519608,0.00018433359218761325,0.00019611569587141275,0.001797690405510366,0,1,-1000,0,0,0,-1,0,-2,28264.0
04:06:21.861,STABILIZE,-35.3632621,149.1652375,0,-0.0007519109058193862,0.0009910587687045336,0.02295399270951748,0.00024978385772556067,0.00030841666739434004,0.0017260463209822774,0,1,-1000,0,0,0,-1,0,-2,28264.0
04:06:22.064,STABILIZE,-35.3632621,149.1652375,0,-0.0007519109058193862,0.0009910587687045336,0.02295399270951748,0.00024978385772556067,0.00030841666739434004,0.0017260463209822774,0,1,-1000,0,0,0,-1,0,-2,28264.0
04:06:22.266,STABILIZE,-35.3632621,149.1652375,0,-0.0007519109058193862,0.0009910587687045336,0.02295399270951748,0.00024978385772556067,0.00030841666739434004,0.0017260463209822774,0,1,-1000,0,0,0,-1,0,-2,28264.0
04:06:22.467,STABILIZE,-35.3632621,149.1652375,0,-0.0007519109058193862,0.0009910587687045336,0.02295399270951748,0.00024978385772556067,0.00030841666739434004,0.0017260463209822774,0,1,-1000,0,0,0,-1,0,-2,28264.0
04:06:22.668,STABILIZE,-35.3632621,149.1652375,0,-0.0007519109058193862,0.0009910587687045336,0.02295399270951748,0.00024978385772556067,0.00030841666739434004,0.0017260463209822774,0,1,-1000,0,0,0,-1,0,-2,28264.0
04:06:22.870,STABILIZE,-35.3632621,149.1652375,0,-0.0007519109058193862,0.0009910587687045336,0.02295399270951748,0.00024978385772556067,0.00030841666739434004,0.0017260463209822774,0,1,-1000,0,0,0,-1,0,-2,28264.0
04:06:23.071,STABILIZE,-35.3632621,149.1652375,0,-0.0007519109058193862,0.0009910587687045336,0.02295399270951748,0.00024978385772556067,0.00030841666739434004,0.0017260463209822774,0,1,-1000,0,0,0,-1,0,-2,28264.0
04:06:23.272,STABILIZE,-35.3632622,149.1652375,0,-0.0007165799615904689,0.0009899699361994863,0.022592192515730858,0.0002139449934475124,0.0002431421889923513,0.0015830148477107286,0,2,-1000,0,0,0,-1,1,-1,28264.0
04:06:23.473,STABILIZE,-35.3632622,149.1652375,0,-0.0007165799615904689,0.0009899699361994863,0.022592192515730858,0.0002139449934475124,0.0002431421889923513,0.0015830148477107286,0,2,-1000,0,0,0,-1,1,-1,28264.0
04:06:23.675,STABILIZE,-35.3632622,149.1652375,0,-0.00041369246901012957,0.0009922155877575278,0.02243059128522873,0.00037652795435860753,0.00028614106122404337,0.0015974079724401236,0,1,-1000,0,0,0,-1,3,1,28264.0
04:06:23.876,STABILIZE,-35.3632622,149.1652375,0,-0.00041369246901012957,0.0009922155877575278,0.02243059128522873,0.00037652795435860753,0.00028614106122404337,0.0015974079724401236,0,1,-1000,0,0,0,-1,3,1,28264.0
04:06:24.077,STABILIZE,-35.3632622,149.1652375,0,-0.00041369246901012957,0.0009922155877575278,0.02243059128522873,0.00037652795435860753,0.00028614106122404337,0.0015974079724401236,0,1,-1000,0,0,0,-1,3,1,28264.0
04:06:24.278,STABILIZE,-35.3632622,149.1652375,0,-0.0005187077331356704,0.0009855901589617133,0.022268082946538925,0.0002559394924901426,0.00021903094602748752,0.0016636510845273733,0,1,-1000,0,0,0,-1,3,1,28264.0
04:06:24.479,STABILIZE,-35.3632622,149.1652375,0,-0.0005187077331356704,0.0009855901589617133,0.022268082946538925,0.0002559394924901426,0.00021903094602748752,0.0016636510845273733,0,1,-1000,0,0,0,-1,3,1,28264.0
04:06:24.681,STABILIZE,-35.3632622,149.1652375,0,-0.0005187077331356704,0.0009855901589617133,0.022268082946538925,0.0002559394924901426,0.00021903094602748752,0.0016636510845273733,0,1,-1000,0,0,0,-1,3,1,28264.0
04:06:24.882,STABILIZE,-35.3632622,149.1652375,0,-0.0005187077331356704,0.0009855901589617133,0.022268082946538925,0.0002559394924901426,0.00021903094602748752,0.0016636510845273733,0,1,-1000,0,0,0,-1,3,1,28264.0
04:06:25.083,STABILIZE,-35.3632622,149.1652375,0,-0.0005187077331356704,0.0009855901589617133,0.022268082946538925,0.0002559394924901426,0.00021903094602748752,0.0016636510845273733,0,1,-1000,0,0,0,-1,3,1,28264.0
04:06:25.284,STABILIZE,-35.3632622,149.1652376,0,-0.0007883335347287357,0.0009810508927330375,0.021932797506451607,0.00037693517515435815,0.0002457567607052624,0.0015702706295996904,0,1,-1000,1,0,0,-1,2,1,28264.0
04:06:25.490,AUTO,-35.3632622,149.1652376,0,-0.0008570637437514961,0.000983049743808806,0.02185925841331482,0.00024106859927996993,0.00028279516845941544,0.0016129640862345695,0,1,-1000,1,0,0,-1,2,1,28264.0
04:06:25.694,AUTO,-35.3632622,149.1652376,3,-0.0009059549774974585,0.0009892024099826813,0.021821916103363037,0.00016258988762274384,0.00027353805489838123,0.001522615784779191,0,1,-1000,1,0,1,-1,2,1,28264.0
04:06:25.896,AUTO,-35.3632622,149.1652375,2,-0.0009490287629887462,0.0009855838725343347,0.02175319567322731,0.00020189030328765512,0.0002510140184313059,0.0016706841997802258,0,2,-1000,1,0,0,-1,1,1,28264.0
04:06:26.097,AUTO,-35.3632622,149.1652375,1,-0.0009940806776285172,0.0009898061398416758,0.021694280207157135,0.00018193171126767993,0.00015943334437906742,0.0015827028546482325,0,1,-1000,0,0,0,-1,1,1,28264.0
04:06:26.299,AUTO,-35.3632622,149.1652375,1,-0.0009940806776285172,0.0009898061398416758,0.021694280207157135,0.00018193171126767993,0.00015943334437906742,0.0015827028546482325,0,1,-1000,0,0,0,-1,1,1,28264.0
04:06:26.501,AUTO,-35.3632622,149.1652375,1,-0.0009940806776285172,0.0009898061398416758,0.021694280207157135,0.00018193171126767993,0.00015943334437906742,0.0015827028546482325,0,1,-1000,0,0,0,-1,1,1,28264.0
04:06:26.702,AUTO,-35.3632622,149.1652375,1,-0.0009940806776285172,0.0009898061398416758,0.021694280207157135,0.00018193171126767993,0.00015943334437906742,0.0015827028546482325,0,1,-1000,0,0,0,-1,1,1,28264.0
04:06:26.904,AUTO,-35.3632621,149.1652375,0,-0.000973490416072309,0.0010930810822173953,0.021551121026277542,0.0002095118397846818,0.00018323736730962992,0.0016300014685839415,0,2,-1000,0,0,0,0,0,1,28264.0
04:06:27.105,AUTO,-35.3632621,149.1652374,9,-0.000773182197008282,0.0011460799723863602,0.02149762213230133,0.0002897133235819638,0.0001750923111103475,0.0014724996872246265,0,1,-1000,0,0,1,0,-4,-4,28264.0
04:06:27.307,AUTO,-35.3632621,149.1652374,9,-0.000773182197008282,0.0011460799723863602,0.02149762213230133,0.0002897133235819638,0.0001750923111103475,0.0014724996872246265,0,1,-1000,0,0,1,0,-4,-4,28264.0
04:06:27.514,AUTO,-35.3632621,149.1652374,16,-0.0007181690889410675,0.0012012423248961568,0.021443616598844528,0.00041448965203016996,0.0002464120043441653,0.0014561767457053065,0,1,-1000,0,0,0,0,-3,-4,28264.0
04:06:27.764,AUTO,-35.3632621,149.1652374,20,-0.0006681320373900235,0.0012692484306171536,0.02137882076203823,0.00023351283743977547,0.0003531205584295094,0.001559052150696516,0,1,-1000,0,1,0,0,-2,-4,28264.0
04:06:27.980,AUTO,-35.3632621,149.1652374,22,-0.0006085329805500805,0.0013327792985364795,0.021311208605766296,0.00016568182036280632,0.0003080629394389689,0.001393257174640894,0,1,-1000,1,0,0,0,-1,-4,28264.0
04:06:28.194,AUTO,-35.3632621,149.1652374,23,-0.0005507933674380183,0.0014027799479663372,0.021255509927868843,0.0003413320519030094,0.00028826482594013214,0.001529062632471323,0,2,-1000,0,0,0,0,0,-3,28264.0
04:06:28.446,AUTO,-35.3632621,149.1652374,23,-0.0005507933674380183,0.0014027799479663372,0.021255509927868843,0.0003413320519030094,0.00028826482594013214,0.001529062632471323,0,2,-1000,0,0,0,0,0,-3,28264.0
04:06:28.666,AUTO,-35.3632621,149.1652374,23,-0.0005507933674380183,0.0014027799479663372,0.021255509927868843,0.0003413320519030094,0.00028826482594013214,0.001529062632471323,0,2,-1000,0,0,0,0,0,-3,28264.0
04:06:28.867,AUTO,-35.3632621,149.1652375,24,-0.0003727735311258584,0.0016187006840482354,0.02105710655450821,0.0003094967105425894,0.0002750938874669373,0.0014780635247007012,0,2,-1000,0,0,0,0,0,-3,28264.0
04:06:29.073,AUTO,-35.3632621,149.1652375,24,-0.0003727735311258584,0.0016187006840482354,0.02105710655450821,0.0003094967105425894,0.0002750938874669373,0.0014780635247007012,0,2,-1000,0,0,0,0,0,-3,28264.0
04:06:29.275,AUTO,-35.3632621,149.1652375,24,-0.000310620351228863,0.0016986561240628362,0.020992571488022804,0.00039574329275637865,0.0003479021252132952,0.0014617937849834561,0,1,-1000,1,0,1,0,0,-2,17169.0
04:06:29.476,AUTO,-35.3632621,149.1652375,27,-0.000671620829962194,0.0008457559742964804,0.02093362621963024,-0.0028762726578861475,-0.007865957915782928,0.0015734016196802258,0,0,-1111,-2,-7,1,0,0,-10,17169.0
04:06:29.678,AUTO,-35.3632621,149.1652375,91,-0.0003721021057572216,-0.0005321803037077188,0.02091710828244686,0.0007637437665835023,0.00011490331962704659,0.001465842593461275,0,0,-1143,1,0,1,0,0,-44,17169.0
04:06:29.880,AUTO,-35.3632621,149.1652375,241,0.00010459779878146946,0.00023450635490007699,0.020891407504677773,0.007320645730942488,0.0038868216797709465,0.001852303510531783,0,0,-1130,8,4,1,0,0,-78,17169.0
04:06:30.081,AUTO,-35.3632621,149.1652375,241,0.00010459779878146946,0.00023450635490007699,0.020891407504677773,0.007320645730942488,0.0038868216797709465,0.001852303510531783,0,0,-1130,8,4,1,0,0,-78,17169.0
04:06:30.283,AUTO,-35.3632621,149.1652375,465,0.0003146361268591136,0.0010146256536245346,0.02073914185166359,-0.002251573372632265,0.002794526517391205,0.001187388552352786,0,0,-1108,-1,3,0,0,0,-106,17169.0
04:06:30.485,AUTO,-35.3632621,149.1652375,465,0.0003146361268591136,0.0010146256536245346,0.02073914185166359,-0.002251573372632265,0.002794526517391205,0.001187388552352786,0,0,-1108,-1,3,0,0,0,-106,17169.0
04:06:30.687,AUTO,-35.3632621,149.1652375,465,0.0003146361268591136,0.0010146256536245346,0.02073914185166359,-0.002251573372632265,0.002794526517391205,0.001187388552352786,0,0,-1108,-1,3,0,0,0,-106,17169.0
04:06:30.888,AUTO,-35.3632621,149.1652374,1477,0.025698743760585785,-0.0013877699384465814,0.020552782341837883,0.0468008890748024,-0.006629860959947109,0.0024428979959338903,0,0,-1014,47,-6,2,1,6,-147,17169.0
04:06:31.090,AUTO,-35.3632621,149.1652374,1477,0.025698743760585785,-0.0013877699384465814,0.020552782341837883,0.0468008890748024,-0.006629860959947109,0.0024428979959338903,0,0,-1014,47,-6,2,1,6,-147,17169.0
04:06:31.291,AUTO,-35.363262,149.1652375,1856,0.03720560669898987,-0.0032063026446849108,0.02074763923883438,0.04494575038552284,-0.007640482392162085,0.0032033941242843866,0,-1,-1006,45,-7,2,1,13,-148,17169.0
04:06:31.493,AUTO,-35.3632619,149.165238,2239,0.04799973964691162,-0.005387222860008478,0.021000277251005173,0.04340016841888428,-0.009158744476735592,0.0036145367193967104,0,-2,-1001,44,-8,3,3,22,-149,17169.0
04:06:31.694,AUTO,-35.3632618,149.1652387,2623,0.05803544074296951,-0.008022354915738106,0.021280480548739433,0.038527898490428925,-0.010992830619215965,0.0036429003812372684,0,-6,-999,39,-10,3,5,34,-149,17169.0
04:06:31.896,AUTO,-35.3632616,149.1652397,3007,0.06179917976260185,-0.006665392313152552,-0.009922707453370094,-0.04164228215813637,0.048352696001529694,-0.0718642994761467,1,-8,-990,-40,48,-72,8,46,-147,17169.0
04:06:32.098,AUTO,-35.3632614,149.165241,3385,0.03536512330174446,0.01620608940720558,-0.03293535113334656,-0.1600412130355835,0.0734417513012886,-0.09112410247325897,4,-12,-992,-159,73,-91,9,55,-145,17169.0
04:06:32.300,AUTO,-35.3632614,149.165241,3385,0.03536512330174446,0.01620608940720558,-0.03293535113334656,-0.1600412130355835,0.0734417513012886,-0.09112410247325897,4,-12,-992,-159,73,-91,9,55,-145,17169.0
04:06:32.502,AUTO,-35.3632614,149.165241,3385,0.03536512330174446,0.01620608940720558,-0.03293535113334656,-0.1600412130355835,0.0734417513012886,-0.09112410247325897,4,-12,-992,-159,73,-91,9,55,-145,17169.0
04:06:32.704,AUTO,-35.3632614,149.165241,3385,0.03536512330174446,0.01620608940720558,-0.03293535113334656,-0.1600412130355835,0.0734417513012886,-0.09112410247325897,4,-12,-992,-159,73,-91,9,55,-145,17169.0
04:06:32.906,AUTO,-35.363261,149.165245,4518,-0.03126249089837074,0.016240451484918594,-0.07684485614299774,-0.04499087482690811,-0.01576179265975952,-0.04290817305445671,6,-10,-1003,-44,-14,-43,0,38,-149,17169.0
04:06:33.108,AUTO,-35.363261,149.1652459,4902,-0.048045042902231216,0.009086753241717815,-0.0831989273428917,-0.08016505092382431,-0.0346350334584713,-0.01880895346403122,4,-6,-1000,-79,-34,-18,-2,26,-149,17169.0
04:06:33.346,AUTO,-35.363261,149.1652464,5284,-0.0711735263466835,-0.0011918400414288044,-0.08374328911304474,-0.10049115121364594,-0.043054211884737015,0.0024922380689531565,4,-6,-1000,-79,-34,-18,-3,10,-148,17169.0
04:06:33.566,AUTO,-35.363261,149.1652464,5284,-0.0711735263466835,-0.0011918400414288044,-0.08374328911304474,-0.10049115121364594,-0.043054211884737015,0.0024922380689531565,2,-3,-999,-99,-42,1,-3,10,-148,17169.0
04:06:33.773,AUTO,-35.363261,149.1652464,5666,-0.08224548399448395,-0.008374867960810661,-0.08433035761117935,0.01370222307741642,-0.009719066321849823,-0.01342780515551567,1,0,-1006,14,-9,-13,-2,-9,-148,17169.0
04:06:33.975,AUTO,-35.3632611,149.1652458,6054,-0.07219532132148743,-0.009690729901194572,-0.08685680478811264,0.050554536283016205,-0.003865252947434783,-0.0058328090235590935,-1,3,-1002,51,-3,-6,-1,-29,-148,17169.0
04:06:34.177,AUTO,-35.3632611,149.165245,6437,-0.05853869393467903,-0.00990230217576027,-0.08900407701730728,0.05692969635128975,0.0023179068230092525,-0.0031073633581399918,-3,7,-1000,57,2,-3,-1,-44,-148,17169.0
04:06:34.379,AUTO,-35.3632611,149.165245,6437,-0.05853869393467903,-0.00990230217576027,-0.08900407701730728,0.05692969635128975,0.0023179068230092525,-0.0031073633581399918,-3,7,-1000,57,2,-3,-1,-44,-148,17169.0
04:06:34.581,AUTO,-35.3632611,149.165245,6437,-0.05853869393467903,-0.00990230217576027,-0.08900407701730728,0.05692969635128975,0.0023179068230092525,-0.0031073633581399918,-3,7,-1000,57,2,-3,-1,-44,-148,17169.0
04:06:34.783,AUTO,-35.3632611,149.165245,6437,-0.05853869393467903,-0.00990230217576027,-0.08900407701730728,0.05692969635128975,0.0023179068230092525,-0.0031073633581399918,-3,7,-1000,57,2,-3,-1,-44,-148,17169.0
04:06:34.985,AUTO,-35.3632612,149.1652403,7581,-0.011783125810325146,-0.002404620172455907,-0.0921672135591507,0.06699185818433762,0.015285990200936794,0.0016532976878806949,-8,13,-1003,67,15,1,-2,-63,-149,32400.0
04:06:35.187,AUTO,-35.3632613,149.1652386,7967,0.004744268022477627,0.001465827808715403,-0.0919751301407814,0.06724739074707031,0.015464717522263527,0.0029383383225649595,-7,11,-1004,67,16,2,-3,-61,-150,32400.0
04:06:35.389,AUTO,-35.3632614,149.1652369,8356,0.021358242258429527,0.005237122531980276,-0.09137828648090363,0.06502911448478699,0.013949365355074406,0.0032374029979109764,-8,14,-1004,65,14,2,-5,-55,-151,32400.0
04:06:35.591,AUTO,-35.3632614,149.1652369,8356,0.021358242258429527,0.005237122531980276,-0.09137828648090363,0.06502911448478699,0.013949365355074406,0.0032374029979109764,-8,14,-1004,65,14,2,-5,-55,-151,32400.0
04:06:35.792,AUTO,-35.3632615,149.1652355,8747,0.03770901635289192,0.00839233584702015,-0.09043283015489578,0.06420787423849106,0.01103190891444683,0.0036385220009833574,-6,12,-1004,64,11,3,-7,-45,-152,32400.0
04:06:35.994,AUTO,-35.3632617,149.1652344,9139,0.05342743918299675,0.010427317582070827,-0.08921822905540466,0.06256571412086487,0.00644830334931612,0.004326476249843836,-3,8,-1002,63,6,3,-9,-31,-152,32400.0
04:06:36.196,AUTO,-35.3632619,149.1652337,9533,0.06830878555774689,0.011099470779299736,-0.08806993812322617,0.057891279458999634,0.0002717209281399846,0.004369062837213278,-2,7,-1001,58,0,3,-10,-15,-152,32400.0
04:06:36.398,AUTO,-35.3632619,149.1652337,9533,0.06830878555774689,0.011099470779299736,-0.08806993812322617,0.057891279458999634,0.0002717209281399846,0.004369062837213278,-2,7,-1001,58,0,3,-10,-15,-152,32400.0
04:06:36.600,AUTO,-35.3632619,149.1652337,9533,0.06830878555774689,0.011099470779299736,-0.08806993812322617,0.057891279458999634,0.0002717209281399846,0.004369062837213278,-2,7,-1001,58,0,3,-10,-15,-152,32400.0
04:06:36.802,AUTO,-35.3632619,149.1652337,9533,0.06830878555774689,0.011099470779299736,-0.08806993812322617,0.057891279458999634,0.0002717209281399846,0.004369062837213278,-2,7,-1001,58,0,3,-10,-15,-152,32400.0
04:06:37.004,AUTO,-35.3632626,149.1652344,10692,0.03090539202094078,-0.008272411301732063,-0.07555241137742996,-0.12267382442951202,-0.004563418682664633,-0.0013164981501176953,4,-3,-998,-121,-4,-1,-5,30,-147,32400.0
04:06:37.206,AUTO,-35.3632626,149.1652351,11072,0.004018703475594521,-0.0081362659111619,-0.07857695966959,-0.0895179882645607,0.003016615752130747,-0.016343941912055016,4,-4,-1003,-88,3,-16,-1,32,-147,32400.0
04:06:37.408,AUTO,-35.3632626,149.1652359,11452,-0.013239881955087185,-0.007179546635597944,-0.08500447869300842,-0.05313638225197792,0.005940815433859825,-0.030317561700940132,3,-4,-1005,-52,6,-30,1,28,-148,32400.0
04:06:37.609,AUTO,-35.3632626,149.1652366,11835,-0.02369346283376217,-0.0062880502082407475,-0.09299890697002411,-0.028882503509521484,0.004245104268193245,-0.03358536213636398,3,-5,-1005,-28,4,-34,4,22,-149,32400.0
04:06:37.811,AUTO,-35.3632626,149.1652366,11835,-0.02369346283376217,-0.0062880502082407475,-0.09299890697002411,-0.028882503509521484,0.004245104268193245,-0.03358536213636398,3,-5,-1005,-28,4,-34,4,22,-149,32400.0
04:06:38.031,AUTO,-35.3632625,149.1652371,12222,-0.027309756726026535,-0.004811993800103664,-0.10244687646627426,-0.004433666355907917,0.006835963577032089,-0.035610150545835495,1,-3,-1003,-3,7,-35,5,13,-150,32400.0
04:06:38.307,AUTO,-35.3632624,149.1652373,12610,-0.02628427743911743,-0.0033839098177850246,-0.11175218224525452,0.010438680648803711,0.0065399035811424255,-0.03478440269827843,0,-2,-1002,11,6,-35,6,5,-151,32400.0
04:06:38.552,AUTO,-35.3632624,149.1652373,12610,-0.02628427743911743,-0.0033839098177850246,-0.11175218224525452,0.010438680648803711,0.0065399035811424255,-0.03478440269827843,0,-2,-1002,11,6,-35,6,5,-151,32400.0
04:06:38.760,AUTO,-35.3632624,149.1652373,12610,-0.02628427743911743,-0.0033839098177850246,-0.11175218224525452,0.010438680648803711,0.0065399035811424255,-0.03478440269827843,0,-2,-1002,11,6,-35,6,5,-151,32400.0
04:06:38.982,AUTO,-35.3632619,149.165237,13778,-0.00933722872287035,0.002590632764622569,-0.13637509942054749,0.024466263130307198,0.0086869727820158,-0.025914685800671577,-2,0,-1000,25,9,-26,5,-9,-151,32400.0
04:06:39.184,AUTO,-35.3632618,149.1652368,14168,-0.0029874928295612335,0.004422388505190611,-0.14261090755462646,0.023517267778515816,0.007350049912929535,-0.021948127076029778,-3,1,-1000,24,8,-22,4,-10,-151,32400.0
04:06:39.386,AUTO,-35.3632617,149.1652365,14557,0.0025233773048967123,0.005722808185964823,-0.1475139558315277,0.01864791102707386,0.00475566741079092,-0.01708259806036949,-2,1,-1000,19,5,-17,2,-10,-151,32400.0
04:06:39.588,AUTO,-35.3632617,149.1652365,14557,0.0025233773048967123,0.005722808185964823,-0.1475139558315277,0.01864791102707386,0.00475566741079092,-0.01708259806036949,-2,1,-1000,19,5,-17,2,-10,-151,111162.0
04:06:39.789,AUTO,-35.3632616,149.1652362,14947,0.006521282251924276,0.0068487864919006824,-0.15165095031261444,0.01531168445944786,0.004276175517588854,-0.015838857740163803,-2,1,-1000,15,4,-16,1,-9,-151,111162.0
04:06:39.991,AUTO,-35.3632616,149.1652359,15340,0.009219881147146225,0.007177795749157667,-0.15478797256946564,0.0092424675822258,0.0011183044407516718,-0.013087967410683632,-1,1,-999,10,1,-13,0,-7,-151,111162.0
04:06:40.192,AUTO,-35.3632616,149.1652357,15729,0.010421021841466427,0.0073442645370960236,-0.15746934711933136,0.00162977771833539,-0.00019571708980947733,-0.00947295967489481,-1,1,-999,2,0,-9,0,-4,-151,111162.0
04:06:40.394,AUTO,-35.3632616,149.1652357,15729,0.010421021841466427,0.0073442645370960236,-0.15746934711933136,0.00162977771833539,-0.00019571708980947733,-0.00947295967489481,-1,1,-999,2,0,-9,0,-4,-151,111162.0
04:06:40.596,AUTO,-35.3632616,149.1652357,15729,0.010421021841466427,0.0073442645370960236,-0.15746934711933136,0.00162977771833539,-0.00019571708980947733,-0.00947295967489481,-1,1,-999,2,0,-9,0,-4,-151,111162.0
04:06:40.798,AUTO,-35.3632616,149.1652357,15729,0.010421021841466427,0.0073442645370960236,-0.15746934711933136,0.00162977771833539,-0.00019571708980947733,-0.00947295967489481,-1,1,-999,2,0,-9,0,-4,-151,111162.0
04:06:40.999,AUTO,-35.3632616,149.1652355,16890,-0.002555968938395381,0.006218837108463049,-0.16497255861759186,-0.08009830117225647,0.00012311118189245462,-0.013119325041770935,0,0,-995,-79,0,-13,-3,0,-150,111162.0
04:06:41.201,AUTO,-35.3632615,149.1652354,17275,-0.026810836046934128,0.005612528882920742,-0.16811120510101318,-0.10648495703935623,-0.001744783716276288,-0.012086279690265656,0,0,-996,-106,-1,-12,-4,-2,-149,111162.0
04:06:41.402,AUTO,-35.3632616,149.1652352,17657,-0.05189378187060356,0.007712184451520443,-0.16562066972255707,-0.06588970124721527,0.04323443025350571,0.0839402824640274,0,2,-985,-65,43,83,-7,-12,-147,111162.0
04:06:41.604,AUTO,-35.3632618,149.1652346,18029,-0.05622202157974243,0.033091749995946884,-0.11053204536437988,-0.00225973897613585,0.1090570017695427,0.3525554835796356,-1,4,-980,-1,109,352,-12,-25,-142,111162.0
04:06:41.806,AUTO,-35.3632618,149.1652346,18029,-0.05622202157974243,0.033091749995946884,-0.11053204536437988,-0.00225973897613585,0.1090570017695427,0.3525554835796356,-1,4,-980,-1,109,352,-12,-25,-142,111162.0
04:06:42.008,AUTO,-35.3632621,149.1652337,18387,-0.04309037700295448,0.049861036241054535,-0.010989630594849586,0.09973054379224777,-0.05848012492060661,0.343199759721756,0,8,-954,100,-57,342,-23,-35,-134,111162.0
04:06:42.210,AUTO,-35.3632627,149.1652326,18718,-0.005364447832107544,0.01663312315940857,0.048179544508457184,0.15191350877285004,-0.16258764266967773,0.14166054129600525,0,11,-953,152,-161,141,-31,-39,-122,111162.0
04:06:42.411,AUTO,-35.3632627,149.1652326,18718,-0.005364447832107544,0.01663312315940857,0.048179544508457184,0.15191350877285004,-0.16258764266967773,0.14166054129600525,0,11,-953,152,-161,141,-31,-39,-122,111162.0
04:06:42.613,AUTO,-35.3632627,149.1652326,18718,-0.005364447832107544,0.01663312315940857,0.048179544508457184,0.15191350877285004,-0.16258764266967773,0.14166054129600525,0,11,-953,152,-161,141,-31,-39,-122,111162.0
04:06:42.815,AUTO,-35.3632627,149.1652326,18718,-0.005364447832107544,0.01663312315940857,0.048179544508457184,0.15191350877285004,-0.16258764266967773,0.14166054129600525,0,11,-953,152,-161,141,-31,-39,-122,111162.0
04:06:43.017,AUTO,-35.3632642,149.1652303,19539,0.06409715116024017,-0.03783520311117172,0.04997173696756363,0.024541016668081284,-0.0009649235289543867,-0.03897906094789505,1,4,-963,25,0,-39,-14,-6,-90,111162.0
04:06:43.226,AUTO,-35.3632644,149.1652302,19761,0.06395439803600311,-0.03487048298120499,0.042095113545656204,-0.0200786292552948,0.017430633306503296,-0.024587295949459076,1,0,-967,-19,18,-24,-5,9,-81,111162.0
04:06:43.443,AUTO,-35.3632644,149.1652305,19960,0.05648401007056236,-0.02860749512910843,0.038017116487026215,-0.0385076068341732,0.027593519538640976,-0.010051517747342587,1,-3,-971,-37,28,-10,2,22,-73,111162.0
04:06:43.665,AUTO,-35.3632643,149.1652311,20141,0.04531136155128479,-0.020723043009638786,0.03639324754476547,-0.04311984404921532,0.0339164137840271,-0.0018273770110681653,1,-6,-974,-42,34,-1,8,33,-66,111162.0
04:06:43.931,AUTO,-35.3632641,149.165232,20304,0.0334029495716095,-0.012175538577139378,0.035843897610902786,-0.052470095455646515,0.03604181855916977,0.0024095659609884024,1,-8,-976,-51,36,2,13,39,-60,111162.0
04:06:44.133,AUTO,-35.3632638,149.1652331,20451,0.020872127264738083,-0.004040212836116552,0.03568144515156746,-0.05081653594970703,0.0304862130433321,0.004111635033041239,0,-10,-977,-49,31,3,15,43,-54,111162.0
04:06:44.336,AUTO,-35.3632638,149.1652331,20451,0.020872127264738083,-0.004040212836116552,0.03568144515156746,-0.05081653594970703,0.0304862130433321,0.004111635033041239,0,-10,-977,-49,31,3,15,43,-54,111162.0
04:06:44.543,AUTO,-35.3632638,149.1652331,20451,0.020872127264738083,-0.004040212836116552,0.03568144515156746,-0.05081653594970703,0.0304862130433321,0.004111635033041239,0,-10,-977,-49,31,3,15,43,-54,111162.0
04:06:44.747,AUTO,-35.3632638,149.1652331,20451,0.020872127264738083,-0.004040212836116552,0.03568144515156746,-0.05081653594970703,0.0304862130433321,0.004111635033041239,0,-10,-977,-49,31,3,15,43,-54,85991.0
04:06:44.953,AUTO,-35.3632625,149.1652364,20804,-0.004418178927153349,0.012010147795081139,0.0343979187309742,-0.02680755965411663,0.01397040393203497,0.0018171644769608974,0,-10,-977,-25,14,1,15,38,-37,85991.0
04:06:45.155,AUTO,-35.3632622,149.1652373,20893,-0.00908525101840496,0.014339703135192394,0.033819280564785004,-0.03275839239358902,0.007625107187777758,0.002275718143209815,0,-8,-976,-31,8,1,12,33,-31,85991.0
04:06:45.356,AUTO,-35.3632619,149.1652381,20966,-0.011589111760258675,0.015269252471625805,0.033227499574422836,0.02207673154771328,-3.393529914319515e-05,-0.00012719942606054246,1,-5,-975,22,0,0,10,28,-25,85991.0
04:06:45.558,AUTO,-35.3632619,149.1652381,20966,-0.011589111760258675,0.015269252471625805,0.033227499574422836,0.02207673154771328,-3.393529914319515e-05,-0.00012719942606054246,1,-5,-975,22,0,0,10,28,-25,85991.0
04:06:45.759,AUTO,-35.3632616,149.1652387,21023,-0.013248876668512821,0.014887873083353043,0.03278176486492157,-0.018928440287709236,-0.002314035315066576,-0.0012188229011371732,0,-7,-973,-18,-1,-1,7,23,-19,85991.0
04:06:45.961,AUTO,-35.3632614,149.1652393,21064,-0.015496437437832355,0.013825137168169022,0.03226010128855705,-0.06270923465490341,-0.005246452055871487,-0.001610750099644065,0,-5,-971,-61,-4,-1,5,18,-12,85991.0
04:06:46.162,AUTO,-35.3632613,149.1652397,21084,-0.011463558301329613,0.012418684549629688,0.03168654069304466,0.19168482720851898,-0.005160951521247625,-0.0035844105295836926,0,5,-966,192,-4,-3,2,13,-4,85991.0
04:06:46.364,AUTO,-35.3632613,149.1652397,21084,-0.011463558301329613,0.012418684549629688,0.03168654069304466,0.19168482720851898,-0.005160951521247625,-0.0035844105295836926,0,5,-966,192,-4,-3,2,13,-4,85991.0
04:06:46.566,AUTO,-35.3632613,149.1652397,21084,-0.011463558301329613,0.012418684549629688,0.03168654069304466,0.19168482720851898,-0.005160951521247625,-0.0035844105295836926,0,5,-966,192,-4,-3,2,13,-4,85991.0
04:06:46.768,AUTO,-35.3632613,149.1652397,21084,-0.011463558301329613,0.012418684549629688,0.03168654069304466,0.19168482720851898,-0.005160951521247625,-0.0035844105295836926,0,5,-966,192,-4,-3,2,13,-4,85991.0
04:06:46.969,AUTO,-35.3632614,149.1652396,20977,-0.054944928735494614,0.018384208902716637,0.028506005182862282,-0.606514036655426,-0.007353455293923616,-0.007834854535758495,-1,-5,-1007,-604,-6,-7,-9,-16,21,85991.0
04:06:47.171,AUTO,-35.3632615,149.1652391,20923,-0.04242469370365143,0.016684243455529213,0.027996094897389412,0.12621833384037018,-0.003278746735304594,-0.0011837200727313757,-1,35,-997,128,-2,-1,-13,-25,18,85991.0
04:06:47.373,AUTO,-35.3632618,149.1652383,20879,-0.02901945263147354,0.015423011966049671,0.027807436883449554,0.70363450050354,-0.003775726305320859,-0.003983468282967806,0,37,-1029,704,-2,-4,-16,-32,13,85991.0
04:06:47.575,AUTO,-35.3632618,149.1652383,20879,-0.02901945263147354,0.015423011966049671,0.027807436883449554,0.70363450050354,-0.003775726305320859,-0.003983468282967806,0,37,-1029,704,-2,-4,-16,-32,13,85991.0
04:06:47.815,AUTO,-35.3632622,149.1652373,20850,-0.03037181869149208,0.014871117658913136,0.02648196928203106,0.1851152926683426,0.0012850041966885328,-0.007123145740479231,0,0,-1013,185,2,-7,-20,-40,8,85991.0
04:06:48.083,AUTO,-35.3632626,149.1652362,20833,-0.03705587238073349,0.01583884097635746,0.025161053985357285,-0.10406952351331711,0.0050420742481946945,-0.004567171446979046,0,-17,-1016,-104,5,-4,-23,-49,4,85991.0
04:06:48.316,AUTO,-35.3632632,149.1652349,20820,-0.05481603369116783,0.017305701971054077,0.02327597327530384,-0.2819027602672577,0.011169171892106533,-0.006269239820539951,-1,-15,-1016,-281,11,-6,-27,-56,4,85991.0
04:06:48.523,AUTO,-35.3632632,149.1652349,20820,-0.05481603369116783,0.017305701971054077,0.02327597327530384,-0.2819027602672577,0.011169171892106533,-0.006269239820539951,-1,-15,-1016,-281,11,-6,-27,-56,4,85991.0
04:06:48.765,AUTO,-35.3632632,149.1652349,20820,-0.05481603369116783,0.017305701971054077,0.02327597327530384,-0.2819027602672577,0.011169171892106533,-0.006269239820539951,-1,-15,-1016,-281,11,-6,-27,-56,4,85991.0
04:06:48.968,AUTO,-35.3632659,149.1652285,20813,-0.07876686751842499,-0.035903990268707275,-0.6293907761573792,0.5296757817268372,-0.04749845713376999,-1.4343504905700684,-18,46,-1006,530,-46,-1434,-43,-96,0,85991.0
04:06:49.172,AUTO,-35.3632659,149.1652285,20813,-0.07876686751842499,-0.035903990268707275,-0.6293907761573792,0.5296757817268372,-0.04749845713376999,-1.4343504905700684,-18,46,-1006,530,-46,-1434,-43,-96,0,85991.0
04:06:49.374,AUTO,-35.363267,149.1652257,20814,-0.06767646968364716,-0.07145243883132935,-0.986731231212616,0.5543643832206726,-0.05988331884145737,-1.4107141494750977,-23,29,-1008,554,-59,-1410,-50,-112,-1,85991.0
04:06:49.577,AUTO,-35.3632682,149.1652225,20814,-0.0499664731323719,-0.10037048906087875,-1.3245247602462769,-0.007656399626284838,-0.029003798961639404,-1.292683482170105,-33,-11,-1005,-7,-28,-1292,-59,-130,0,149072.0
04:06:49.779,AUTO,-35.3632697,149.1652187,20813,-0.01774207316339016,-0.11902592331171036,-1.6647429466247559,-0.4809015989303589,-0.019049612805247307,-1.336896300315857,-42,-26,-1008,-480,-18,-1337,-67,-149,0,149072.0
04:06:49.981,AUTO,-35.3632713,149.1652143,20816,0.020122503861784935,-0.12987999618053436,-1.9385801553726196,0.2194419503211975,-0.051689811050891876,-0.8413005471229553,-39,-2,-999,221,-50,-841,-75,-169,0,149072.0
04:06:50.183,AUTO,-35.3632713,149.1652143,20816,0.020122503861784935,-0.12987999618053436,-1.9385801553726196,0.2194419503211975,-0.051689811050891876,-0.8413005471229553,-39,-2,-999,221,-50,-841,-75,-169,0,149072.0
04:06:50.385,AUTO,-35.3632732,149.1652093,20815,0.042008716613054276,-0.14074547588825226,-2.0602221488952637,0.3646233081817627,-0.03783704712986946,-0.194564089179039,-37,-24,-999,365,-36,-194,-86,-191,1,149072.0
04:06:50.586,AUTO,-35.3632732,149.1652093,20815,0.042008716613054276,-0.14074547588825226,-2.0602221488952637,0.3646233081817627,-0.03783704712986946,-0.194564089179039,-37,-24,-999,365,-36,-194,-86,-191,1,149072.0
04:06:50.788,AUTO,-35.3632732,149.1652093,20815,0.042008716613054276,-0.14074547588825226,-2.0602221488952637,0.3646233081817627,-0.03783704712986946,-0.194564089179039,-37,-24,-999,365,-36,-194,-86,-191,1,149072.0
04:06:50.990,AUTO,-35.36328,149.1651904,20799,0.04256223514676094,-0.16815514862537384,-1.9810587167739868,0.3828100562095642,-0.007685757242143154,0.11672064661979675,-59,-16,-1003,383,-6,116,-117,-266,2,149072.0
04:06:51.192,AUTO,-35.36328,149.1651904,20799,0.04256223514676094,-0.16815514862537384,-1.9810587167739868,0.3828100562095642,-0.007685757242143154,0.11672064661979675,-59,-16,-1003,383,-6,116,-117,-266,2,149072.0
04:06:51.394,AUTO,-35.3632826,149.1651827,20792,0.03671778738498688,-0.1707354336977005,-1.9594024419784546,-0.07566804438829422,-0.011652333661913872,0.06475601345300674,-62,-51,-1003,-75,-10,64,-127,-291,2,149072.0
04:06:51.596,AUTO,-35.3632855,149.1651743,20786,0.03207867965102196,-0.17360006272792816,-1.953366994857788,-0.2274569422006607,-0.00878159236162901,0.0032748018857091665,-70,-50,-1004,-226,-7,3,-137,-315,1,149072.0
04:06:51.797,AUTO,-35.3632886,149.1651651,20780,0.037989288568496704,-0.1760091930627823,-1.9549609422683716,0.2516345977783203,-0.000997090945020318,-0.026768745854496956,-69,-34,-1003,252,0,-27,-148,-339,2,149072.0
04:06:51.999,AUTO,-35.363292,149.1651554,20774,0.04066338762640953,-0.17979349195957184,-1.9590555429458618,-0.020466074347496033,-0.023120680823922157,-0.01590133085846901,-73,-60,-997,-19,-22,-16,-159,-362,2,149072.0
04:06:52.201,AUTO,-35.3632956,149.165145,20767,0.04095141962170601,-0.19005689024925232,-1.9624749422073364,-0.10781104117631912,-0.041150689125061035,-0.00890315417200327,-74,-56,-992,-107,-40,-9,-169,-385,3,149072.0
04:06:52.403,AUTO,-35.3632956,149.165145,20767,0.04095141962170601,-0.19005689024925232,-1.9624749422073364,-0.10781104117631912,-0.041150689125061035,-0.00890315417200327,-74,-56,-992,-107,-40,-9,-169,-385,3,149072.0
04:06:52.605,AUTO,-35.3632956,149.165145,20767,0.04095141962170601,-0.19005689024925232,-1.9624749422073364,-0.10781104117631912,-0.041150689125061035,-0.00890315417200327,-74,-56,-992,-107,-40,-9,-169,-385,3,149072.0
04:06:52.807,AUTO,-35.3632956,149.165145,20767,0.04095141962170601,-0.19005689024925232,-1.9624749422073364,-0.10781104117631912,-0.041150689125061035,-0.00890315417200327,-74,-56,-992,-107,-40,-9,-169,-385,3,149072.0
04:06:53.009,AUTO,-35.3633079,149.1651099,20736,0.04940759018063545,-0.2065558135509491,-1.9663574695587158,-0.005504879169166088,-0.007083091884851456,-0.004942113533616066,-108,-59,-1006,-4,-6,-5,-203,-459,3,149072.0
04:06:53.210,AUTO,-35.3633125,149.1650969,20728,0.053943708539009094,-0.20515841245651245,-1.9668911695480347,0.02539173886179924,0.00811920315027237,-0.0011067133164033294,-106,-60,-1007,26,8,-1,-214,-482,2,149072.0
04:06:53.441,AUTO,-35.3633125,149.1650969,20728,0.053943708539009094,-0.20515841245651245,-1.9668911695480347,0.02539173886179924,0.00811920315027237,-0.0011067133164033294,-106,-60,-1007,26,8,-1,-214,-482,2,149072.0
04:06:53.676,AUTO,-35.3633174,149.1650833,20724,0.05698342248797417,-0.20024174451828003,-1.9666943550109863,0.016796734184026718,0.04111264646053314,-0.009677075780928135,-108,-64,-1004,17,42,-9,-223,-504,1,149072.0
04:06:53.911,AUTO,-35.3633225,149.165069,20723,0.05943681299686432,-0.18969310820102692,-1.9669785499572754,0.010416011326014996,0.04763578251004219,-0.006337679456919432,-126,-82,-1012,11,48,-6,-232,-524,-1,149072.0
04:06:54.131,AUTO,-35.3633277,149.1650543,20729,0.06093389913439751,-0.18168707191944122,-1.9672744274139404,0.0011246290523558855,0.001250837231054902,-0.0016173110343515873,-134,-56,-1003,1,2,-2,-237,-540,-3,149072.0
04:06:54.348,AUTO,-35.3633331,149.1650393,20739,0.06545773893594742,-0.18341538310050964,-1.9686970710754395,0.04377727583050728,0.00229743798263371,-0.012338673695921898,-121,-64,-990,44,3,-12,-244,-554,-2,149072.0
04:06:54.581,AUTO,-35.3633331,149.1650393,20739,0.06545773893594742,-0.18341538310050964,-1.9686970710754395,0.04377727583050728,0.00229743798263371,-0.012338673695921898,-121,-64,-990,44,3,-12,-244,-554,-2,149072.0
04:06:54.786,AUTO,-35.3633331,149.1650393,20739,0.06545773893594742,-0.18341538310050964,-1.9686970710754395,0.04377727583050728,0.00229743798263371,-0.012338673695921898,-121,-64,-990,44,3,-12,-244,-554,-2,149072.0
04:06:54.988,AUTO,-35.3633502,149.1649917,20766,0.07886166125535965,-0.1686781495809555,-1.9701846837997437,0.012064067646861076,-0.006298048887401819,0.001895153196528554,-139,-68,-991,12,-5,1,-258,-589,-5,149072.0
04:06:55.190,AUTO,-35.3633502,149.1649917,20766,0.07886166125535965,-0.1686781495809555,-1.9701846837997437,0.012064067646861076,-0.006298048887401819,0.001895153196528554,-139,-68,-991,12,-5,1,-258,-589,-5,22857.0
04:06:55.391,AUTO,-35.3633561,149.1649754,20777,0.08250259608030319,-0.16843870282173157,-1.9700868129730225,0.03229193761944771,0.03272364288568497,-0.0021329622250050306,-124,-67,-984,33,33,-2,-261,-599,-3,22857.0
04:06:55.593,AUTO,-35.363362,149.1649589,20784,0.08054710924625397,-0.16280429065227509,-1.9698474407196045,-0.03573982045054436,0.01714382879436016,0.008848633617162704,-137,-63,-989,-35,17,8,-262,-607,-2,22857.0
04:06:55.795,AUTO,-35.3633679,149.164942,20790,0.07879573106765747,-0.15688073635101318,-1.9696087837219238,-0.0038037309423089027,0.047497257590293884,0.0015705772675573826,-126,-93,-994,-3,48,1,-266,-615,-2,22857.0
04:06:55.997,AUTO,-35.3633739,149.164925,20797,0.0800565630197525,-0.1466660052537918,-1.9699580669403076,-0.0004968006396666169,0.02206294797360897,0.0035208496265113354,-135,-80,-993,0,22,3,-266,-620,-3,22857.0
04:06:56.199,AUTO,-35.3633798,149.1649079,20806,0.07879115641117096,-0.1400594711303711,-1.9695043563842773,-0.01357216015458107,0.03840580955147743,0.001416030223481357,-125,-77,-982,-12,39,1,-267,-622,-3,22857.0
04:06:56.401,AUTO,-35.3633798,149.1649079,20806,0.07879115641117096,-0.1400594711303711,-1.9695043563842773,-0.01357216015458107,0.03840580955147743,0.001416030223481357,-125,-77,-982,-12,39,1,-267,-622,-3,22857.0
04:06:56.603,AUTO,-35.3633798,149.1649079,20806,0.07879115641117096,-0.1400594711303711,-1.9695043563842773,-0.01357216015458107,0.03840580955147743,0.001416030223481357,-125,-77,-982,-12,39,1,-267,-622,-3,22857.0
04:06:56.805,AUTO,-35.3633798,149.1649079,20806,0.07879115641117096,-0.1400594711303711,-1.9695043563842773,-0.01357216015458107,0.03840580955147743,0.001416030223481357,-125,-77,-982,-12,39,1,-267,-622,-3,22857.0
04:06:57.007,AUTO,-35.3633978,149.1648563,20826,0.08250577747821808,-0.12552347779273987,-1.9701522588729858,0.0010050274431705475,-0.011188671924173832,0.00013198926171753556,-127,-79,-976,1,-10,0,-267,-620,-1,22857.0
04:06:57.209,AUTO,-35.3634038,149.1648392,20825,0.08219645172357559,-0.13295422494411469,-1.971206784248352,-0.033192526549100876,-0.03348928689956665,0.001028959872201085,-124,-78,-968,-32,-32,0,-267,-619,2,22857.0
04:06:57.410,AUTO,-35.3634038,149.1648392,20825,0.08219645172357559,-0.13295422494411469,-1.971206784248352,-0.033192526549100876,-0.03348928689956665,0.001028959872201085,-124,-78,-968,-32,-32,0,-267,-619,2,22857.0
04:06:57.612,AUTO,-35.3634097,149.1648222,20816,0.08077714592218399,-0.14347797632217407,-1.9718122482299805,0.011873459443449974,-0.04350123554468155,-0.0006667643319815397,-128,-73,-969,12,-42,0,-267,-619,5,22857.0
04:06:57.814,AUTO,-35.3634158,149.1648047,20798,0.07835393399000168,-0.1448022574186325,-1.9715849161148071,-0.02890740893781185,0.02491372637450695,0.0010179486125707626,-131,-85,-992,-28,25,0,-268,-622,6,22857.0
04:06:58.016,AUTO,-35.3634218,149.1647875,20781,0.07643949240446091,-0.14027079939842224,-1.970986008644104,0.007936166599392891,0.014471222646534443,0.0006759895477443933,-132,-82,-995,8,15,0,-269,-624,5,22857.0
04:06:58.218,AUTO,-35.3634279,149.1647703,20768,0.07986422628164291,-0.14252568781375885,-1.9716254472732544,0.011357095092535019,-0.007905966602265835,-0.010975293815135956,-136,-81,-989,12,-7,-11,-270,-625,4,22857.0
04:06:58.419,AUTO,-35.3634279,149.1647703,20768,0.07986422628164291,-0.14252568781375885,-1.9716254472732544,0.011357095092535019,-0.007905966602265835,-0.010975293815135956,-136,-81,-989,12,-7,-11,-270,-625,4,22857.0
04:06:58.621,AUTO,-35.3634279,149.1647703,20768,0.07986422628164291,-0.14252568781375885,-1.9716254472732544,0.011357095092535019,-0.007905966602265835,-0.010975293815135956,-136,-81,-989,12,-7,-11,-270,-625,4,22857.0
04:06:58.823,AUTO,-35.3634279,149.1647703,20768,0.07986422628164291,-0.14252568781375885,-1.9716254472732544,0.011357095092535019,-0.007905966602265835,-0.010975293815135956,-136,-81,-989,12,-7,-11,-270,-625,4,22857.0
04:06:59.025,AUTO,-35.3634459,149.164719,20744,0.08026432245969772,-0.1184040829539299,-1.9720124006271362,0.02116055227816105,0.056102506816387177,-0.003123166272416711,-161,-85,-1020,21,56,-3,-270,-625,-2,22857.0
04:06:59.279,AUTO,-35.3634519,149.1647019,20752,0.08082830905914307,-0.10283110290765762,-1.9716367721557617,-0.019361359998583794,0.06842919439077377,-0.0018942486494779587,-144,-77,-1000,-18,69,-1,-267,-619,-5,22857.0
04:06:59.589,AUTO,-35.3634579,149.1646849,20765,0.08154662698507309,-0.08660345524549484,-1.9711668491363525,0.008424445055425167,0.06590162962675095,-0.002608019858598709,-131,-79,-992,9,66,-2,-264,-610,-7,22857.0
04:06:59.885,AUTO,-35.3634638,149.1646683,20781,0.08537507802248001,-0.07158008217811584,-1.9711172580718994,0.042760588228702545,0.04278530552983284,-0.0006316035869531333,-130,-80,-992,43,43,0,-259,-598,-7,22857.0
04:07:00.123,AUTO,-35.3634696,149.1646518,20796,0.08640133589506149,-0.05702003091573715,-1.9708086252212524,0.06692160665988922,0.046036724001169205,-0.003936761058866978,-129,-74,-991,67,46,-4,-253,-584,-7,22857.0
04:07:00.325,AUTO,-35.3634753,149.1646358,20810,0.0823415219783783,-0.03950042277574539,-1.9702723026275635,-0.1418886035680771,0.061034683138132095,0.0028417606372386217,-121,-86,-993,-141,61,2,-246,-569,-7,22857.0
04:07:00.527,AUTO,-35.3634753,149.1646358,20810,0.0823415219783783,-0.03950042277574539,-1.9702723026275635,-0.1418886035680771,0.061034683138132095,0.0028417606372386217,-121,-86,-993,-141,61,2,-246,-569,-7,22857.0
04:07:00.729,AUTO,-35.3634753,149.1646358,20810,0.0823415219783783,-0.03950042277574539,-1.9702723026275635,-0.1418886035680771,0.061034683138132095,0.0028417606372386217,-121,-86,-993,-141,61,2,-246,-569,-7,69435.0
04:07:00.934,AUTO,-35.3634753,149.1646358,20810,0.0823415219783783,-0.03950042277574539,-1.9702723026275635,-0.1418886035680771,0.061034683138132095,0.0028417606372386217,-121,-86,-993,-141,61,2,-246,-569,-7,69435.0
04:07:01.136,AUTO,-35.363491,149.1645907,20827,0.07387653738260269,-0.009307444095611572,-1.968005657196045,-0.24451912939548492,0.0903635323047638,0.04695659130811691,-107,-97,-974,-244,91,47,-217,-510,1,69435.0
04:07:01.338,AUTO,-35.3634958,149.1645769,20820,0.0627211332321167,0.007419546600431204,-1.9676402807235718,-0.8447157144546509,0.06092561036348343,0.03052467852830887,-107,-94,-994,-844,61,30,-206,-486,1,69435.0
04:07:01.540,AUTO,-35.3635004,149.1645637,20810,0.060557156801223755,0.01715266890823841,-1.968872308731079,-0.128202423453331,0.03212539851665497,-0.028168806806206703,-97,-45,-991,-126,32,-28,-194,-461,2,69435.0
04:07:01.743,AUTO,-35.3635047,149.1645514,20800,0.07317475229501724,0.027146168053150177,-1.9672236442565918,0.6561785936355591,0.031980663537979126,-0.04072381928563118,-97,-26,-1008,657,32,-40,-183,-434,2,69435.0
04:07:01.946,AUTO,-35.3635047,149.1645514,20800,0.07317475229501724,0.027146168053150177,-1.9672236442565918,0.6561785936355591,0.031980663537979126,-0.04072381928563118,-97,-26,-1008,657,32,-40,-183,-434,2,69435.0
04:07:02.148,AUTO,-35.3635088,149.1645399,20788,0.07632768154144287,0.03644871711730957,-1.9668699502944946,0.39120978116989136,0.044188905507326126,0.005060297902673483,-86,-56,-985,391,45,4,-172,-407,5,69435.0
04:07:02.350,AUTO,-35.3635127,149.164529,20774,0.06517902761697769,0.04682110622525215,-1.9648163318634033,-0.5024183988571167,0.031266726553440094,0.042600687593221664,-80,-99,-988,-502,31,42,-159,-379,4,69435.0
04:07:02.552,AUTO,-35.3635127,149.164529,20774,0.06517902761697769,0.04682110622525215,-1.9648163318634033,-0.5024183988571167,0.031266726553440094,0.042600687593221664,-80,-99,-988,-502,31,42,-159,-379,4,69435.0
04:07:02.755,AUTO,-35.3635127,149.164529,20774,0.06517902761697769,0.04682110622525215,-1.9648163318634033,-0.5024183988571167,0.031266726553440094,0.042600687593221664,-80,-99,-988,-502,31,42,-159,-379,4,69435.0
04:07:02.957,AUTO,-35.3635127,149.164529,20774,0.06517902761697769,0.04682110622525215,-1.9648163318634033,-0.5024183988571167,0.031266726553440094,0.042600687593221664,-80,-99,-988,-502,31,42,-159,-379,4,69435.0
04:07:03.159,AUTO,-35.3635226,149.1645013,20728,0.05720643326640129,0.04549120366573334,-1.9670206308364868,0.549008309841156,0.017468353733420372,-0.04792608693242073,-61,4,-1009,550,18,-48,-118,-299,6,69435.0
04:07:03.360,AUTO,-35.3635254,149.1644936,20713,0.061070412397384644,0.0488055944442749,-1.9662795066833496,0.6425738334655762,0.016625691205263138,-0.018504513427615166,-62,-9,-1026,643,17,-18,-106,-275,4,69435.0
04:07:03.562,AUTO,-35.363528,149.1644865,20704,0.0547945573925972,0.0519757904112339,-1.9650014638900757,-0.1564893126487732,0.025075992569327354,0.005248437635600567,-50,-59,-1005,-156,26,4,-96,-250,2,69435.0
04:07:03.769,AUTO,-35.3635304,149.1644801,20697,0.04438633471727371,0.05897272750735283,-1.9650167226791382,-0.7071881890296936,0.01512084435671568,0.005219648592174053,-48,-47,-1003,-706,16,4,-84,-226,2,69435.0
04:07:04.023,AUTO,-35.3635327,149.1644746,20689,0.04540322721004486,0.0636710673570633,-1.964943528175354,-0.3454800844192505,0.011874418705701828,-0.010562226176261902,-48,-17,-1005,-343,12,-11,-72,-202,3,69435.0
04:07:04.244,AUTO,-35.3635347,149.1644697,20684,0.047635890543460846,0.07058435678482056,-1.964449405670166,-0.019958846271038055,0.0311269611120224,-0.020158767700195312,-38,3,-987,-17,31,-20,-58,-178,2,69435.0
04:07:04.447,AUTO,-35.3635347,149.1644697,20684,0.047635890543460846,0.07058435678482056,-1.964449405670166,-0.019958846271038055,0.0311269611120224,-0.020158767700195312,-38,3,-987,-17,31,-20,-58,-178,2,69435.0
04:07:04.708,AUTO,-35.3635347,149.1644697,20684,0.047635890543460846,0.07058435678482056,-1.964449405670166,-0.019958846271038055,0.0311269611120224,-0.020158767700195312,-38,3,-987,-17,31,-20,-58,-178,2,69435.0
04:07:04.910,AUTO,-35.3635347,149.1644697,20684,0.047635890543460846,0.07058435678482056,-1.964449405670166,-0.019958846271038055,0.0311269611120224,-0.020158767700195312,-38,3,-987,-17,31,-20,-58,-178,2,69435.0
04:07:05.116,AUTO,-35.3635394,149.1644591,20680,0.05249777436256409,0.06078391522169113,-1.9663610458374023,-0.20344580709934235,-0.039151664823293686,0.005059215240180492,-24,-30,-994,-203,-38,4,-20,-110,1,69435.0
04:07:05.318,AUTO,-35.3635405,149.1644568,20676,0.0464046411216259,0.053487714380025864,-1.9665857553482056,-0.6758455038070679,-0.023628296330571175,0.0027656869497150183,-22,-43,-1004,-675,-22,2,-9,-93,1,69435.0
04:07:05.520,AUTO,-35.3635414,149.1644549,20675,0.04002333804965019,0.047581739723682404,-1.9671533107757568,-0.735662043094635,-0.023402685299515724,-0.005700763314962387,-16,-35,-982,-734,-22,-6,0,-79,1,60718.0
04:07:05.722,AUTO,-35.3635421,149.1644534,20675,0.04225480929017067,0.043214838951826096,-1.9683218002319336,0.08690004795789719,-0.019137032330036163,-0.010731376707553864,-13,10,-1003,89,-18,-11,9,-66,0,60718.0
04:07:05.924,AUTO,-35.3635421,149.1644534,20675,0.04225480929017067,0.043214838951826096,-1.9683218002319336,0.08690004795789719,-0.019137032330036163,-0.010731376707553864,-13,10,-1003,89,-18,-11,9,-66,0,60718.0
04:07:06.125,AUTO,-35.3635428,149.1644523,20678,0.05012715235352516,0.039473991841077805,-1.9696563482284546,0.5954932570457458,-0.011782524175941944,-0.006538478657603264,-9,27,-1007,597,-11,-7,17,-55,0,60718.0
04:07:06.327,AUTO,-35.3635434,149.1644515,20682,0.04150645434856415,0.03570543974637985,-1.9710490703582764,-0.14284835755825043,-0.019675156101584435,0.005336312111467123,-9,-20,-1001,-141,-18,4,22,-43,0,60718.0
04:07:06.529,AUTO,-35.3635434,149.1644515,20682,0.04150645434856415,0.03570543974637985,-1.9710490703582764,-0.14284835755825043,-0.019675156101584435,0.005336312111467123,-9,-20,-1001,-141,-18,4,22,-43,0,60718.0
04:07:06.731,AUTO,-35.3635434,149.1644515,20682,0.04150645434856415,0.03570543974637985,-1.9710490703582764,-0.14284835755825043,-0.019675156101584435,0.005336312111467123,-9,-20,-1001,-141,-18,4,22,-43,0,60718.0
04:07:06.935,AUTO,-35.3635434,149.1644515,20682,0.04150645434856415,0.03570543974637985,-1.9710490703582764,-0.14284835755825043,-0.019675156101584435,0.005336312111467123,-9,-20,-1001,-141,-18,4,22,-43,0,60718.0
04:07:07.137,AUTO,-35.3635443,149.1644506,20690,0.04809235781431198,0.020938850939273834,-1.9749313592910767,0.5881508588790894,-0.023019585758447647,0.008117690682411194,-2,36,-1009,591,-22,7,39,-22,0,60718.0
04:07:07.338,AUTO,-35.3635447,149.1644508,20692,0.0497119203209877,0.014921654015779495,-1.9765417575836182,0.5983774065971375,-0.01687472127377987,0.02070843242108822,0,9,-992,600,-16,20,40,-17,1,60718.0
04:07:07.540,AUTO,-35.3635449,149.164451,20694,0.043470799922943115,0.008000380359590054,-1.977254033088684,-0.23492613434791565,-0.02642078697681427,0.021858029067516327,0,-25,-998,-233,-25,21,43,-14,0,60718.0
04:07:07.742,AUTO,-35.3635449,149.1644511,20697,0.033831194043159485,0.0007342498283833265,-1.9776909351348877,-0.5470380187034607,-0.034243322908878326,0.018997376784682274,1,-21,-994,-544,-33,18,46,-14,0,60718.0
04:07:07.944,AUTO,-35.3635449,149.1644511,20697,0.033831194043159485,0.0007342498283833265,-1.9776909351348877,-0.5470380187034607,-0.034243322908878326,0.018997376784682274,1,-21,-994,-544,-33,18,46,-14,0,60718.0
04:07:08.145,AUTO,-35.3635448,149.1644512,20700,0.03550391271710396,-0.00575921218842268,-1.9781649112701416,0.12281681597232819,-0.02196090668439865,0.01885082572698593,0,22,-994,126,-21,18,48,-16,0,60718.0
04:07:08.348,AUTO,-35.3635448,149.1644514,20700,0.03498901054263115,-0.008823196403682232,-1.9783697128295898,0.5651288628578186,0.0050887493416666985,0.0223222803324461,4,28,-1014,568,5,22,47,-18,0,60718.0
04:07:08.551,RTL,-35.3635448,149.1644514,20700,0.03498901054263115,-0.008823196403682232,-1.9783697128295898,0.5651288628578186,0.0050887493416666985,0.0223222803324461,4,28,-1014,568,5,22,47,-18,0,60718.0
04:07:08.753,RTL,-35.3635448,149.1644514,20700,0.03498901054263115,-0.008823196403682232,-1.9783697128295898,0.5651288628578186,0.0050887493416666985,0.0223222803324461,4,28,-1014,568,5,22,47,-18,0,60718.0
04:07:08.955,RTL,-35.3635448,149.1644514,20700,0.03498901054263115,-0.008823196403682232,-1.9783697128295898,0.5651288628578186,0.0050887493416666985,0.0223222803324461,4,28,-1014,568,5,22,47,-18,0,60718.0
04:07:09.156,RTL,-35.3635441,149.1644511,20702,0.01240693498402834,-0.0002473157655913383,-1.977110743522644,-0.5225245356559753,-4.473340231925249e-05,0.01882953569293022,1,-10,-999,-518,0,18,43,-19,0,60718.0
