time_stamp,MODE,lat,lon,relative_alt,roll,pitch,yaw,rollspeed,pitchspeed,yawspeed,xacc,yacc,zacc,xgyro,ygyro,zgyro,vx,vy,vz,RTL_ALT
13:51:09.168,STABILIZE,-35.3632622,149.1652374,0,-0.00040411297231912613,0.0014949525939300656,0.028233563527464867,0.00043154560262337327,0.00021509465295821428,0.0022779074497520924,0,1,-1000,0,0,0,-2,0,-1,11652.0
13:51:09.368,STABILIZE,-35.3632622,149.1652374,0,-0.00040411297231912613,0.0014949525939300656,0.028233563527464867,0.00043154560262337327,0.00021509465295821428,0.0022779074497520924,0,1,-1000,0,0,0,-2,0,-1,11652.0
13:51:09.569,STABILIZE,-35.3632622,149.1652374,0,-0.00040411297231912613,0.0014949525939300656,0.028233563527464867,0.00043154560262337327,0.00021509465295821428,0.0022779074497520924,0,1,-1000,0,0,0,-2,0,-1,11652.0
13:51:09.770,STABILIZE,-35.3632622,149.1652374,0,-0.00040411297231912613,0.0014949525939300656,0.028233563527464867,0.00043154560262337327,0.00021509465295821428,0.0022779074497520924,0,1,-1000,0,0,0,-2,0,-1,11652.0
13:51:09.970,STABILIZE,-35.3632622,149.1652374,0,-0.00040411297231912613,0.0014949525939300656,0.028233563527464867,0.00043154560262337327,0.00021509465295821428,0.0022779074497520924,0,1,-1000,0,0,0,-2,0,-1,11652.0
13:51:10.171,STABILIZE,-35.3632622,149.1652374,0,-0.00040411297231912613,0.0014949525939300656,0.028233563527464867,0.00043154560262337327,0.00021509465295821428,0.0022779074497520924,0,1,-1000,0,0,0,-2,0,-1,11652.0
13:51:10.372,STABILIZE,-35.3632622,149.1652374,0,-0.00040411297231912613,0.0014949525939300656,0.028233563527464867,0.00043154560262337327,0.00021509465295821428,0.0022779074497520924,0,1,-1000,0,0,0,-2,0,-1,11652.0
13:51:10.573,STABILIZE,-35.3632622,149.1652374,0,-0.00040411297231912613,0.0014949525939300656,0.028233563527464867,0.00043154560262337327,0.00021509465295821428,0.0022779074497520924,0,1,-1000,0,0,0,-2,0,-1,11652.0
13:51:10.773,STABILIZE,-35.3632622,149.1652374,0,-0.00040411297231912613,0.0014949525939300656,0.028233563527464867,0.00043154560262337327,0.00021509465295821428,0.0022779074497520924,0,1,-1000,0,0,0,-2,0,-1,11652.0
13:51:10.974,STABILIZE,-35.3632622,149.1652374,0,-0.00040411297231912613,0.0014949525939300656,0.028233563527464867,0.00043154560262337327,0.00021509465295821428,0.0022779074497520924,0,1,-1000,0,0,0,-2,0,-1,11652.0
13:51:11.175,STABILIZE,-35.3632622,149.1652374,4,-0.0005959823029115796,0.0010977811180055141,0.027201291173696518,0.0003020150470547378,0.0003273712645750493,0.0022547198459506035,0,1,-1000,0,0,1,-1,1,-1,11652.0
13:51:11.376,STABILIZE,-35.3632622,149.1652374,4,-0.0005959823029115796,0.0010977811180055141,0.027201291173696518,0.0003020150470547378,0.0003273712645750493,0.0022547198459506035,0,1,-1000,0,0,1,-1,1,-1,11652.0
13:51:11.577,STABILIZE,-35.3632622,149.1652374,4,-0.0005959823029115796,0.0010977811180055141,0.027201291173696518,0.0003020150470547378,0.0003273712645750493,0.0022547198459506035,0,1,-1000,0,0,1,-1,1,-1,11652.0
13:51:11.778,STABILIZE,-35.3632622,149.1652374,4,-0.0005959823029115796,0.0010977811180055141,0.027201291173696518,0.0003020150470547378,0.0003273712645750493,0.0022547198459506035,0,1,-1000,0,0,1,-1,1,-1,11652.0
13:51:11.980,STABILIZE,-35.3632622,149.1652374,4,-0.0005959823029115796,0.0010977811180055141,0.027201291173696518,0.0003020150470547378,0.0003273712645750493,0.0022547198459506035,0,1,-1000,0,0,1,-1,1,-1,11652.0
13:51:12.181,STABILIZE,-35.3632622,149.1652374,4,-0.0005959823029115796,0.0010977811180055141,0.027201291173696518,0.0003020150470547378,0.0003273712645750493,0.0022547198459506035,0,1,-1000,0,0,1,-1,1,-1,11652.0
13:51:12.382,STABILIZE,-35.3632622,149.1652374,4,-0.0005959823029115796,0.0010977811180055141,0.027201291173696518,0.0003020150470547378,0.0003273712645750493,0.0022547198459506035,0,1,-1000,0,0,1,-1,1,-1,11652.0
13:51:12.584,STABILIZE,-35.3632622,149.1652374,4,-0.0005959823029115796,0.0010977811180055141,0.027201291173696518,0.0003020150470547378,0.0003273712645750493,0.0022547198459506035,0,1,-1000,0,0,1,-1,1,-1,11652.0
13:51:12.785,STABILIZE,-35.3632621,149.1652375,6,-0.00044846246601082385,0.0009307086002081633,0.026476379483938217,0.00035869586281478405,0.0003300499520264566,0.002074671443551779,0,1,-1000,0,0,1,-1,2,0,11652.0
13:51:12.987,STABILIZE,-35.3632621,149.1652375,6,-0.00044846246601082385,0.0009307086002081633,0.026476379483938217,0.00035869586281478405,0.0003300499520264566,0.002074671443551779,0,1,-1000,0,0,0,-1,2,0,11652.0
13:51:13.189,STABILIZE,-35.3632621,149.1652375,6,-0.00044846246601082385,0.0009307086002081633,0.026476379483938217,0.00035869586281478405,0.0003300499520264566,0.002074671443551779,0,1,-1000,0,0,1,-1,2,0,11652.0
13:51:13.390,STABILIZE,-35.3632621,149.1652375,6,-0.00044846246601082385,0.0009307086002081633,0.026476379483938217,0.00035869586281478405,0.0003300499520264566,0.002074671443551779,0,1,-1000,0,0,1,-1,2,0,11652.0
13:51:13.591,STABILIZE,-35.3632621,149.1652375,3,-0.0006183821824379265,0.0009099786402657628,0.026130955666303635,0.00021481490693986416,0.00020771013805642724,0.001987903844565153,0,1,-1000,0,0,0,-1,2,0,11652.0
13:51:13.793,STABILIZE,-35.3632621,149.1652375,3,-0.0006687445566058159,0.0009104326018132269,0.026020660996437073,0.0002521188580431044,0.0002777092158794403,0.001929128309711814,0,1,-1000,0,0,0,-1,2,0,11652.0
13:51:13.994,STABILIZE,-35.3632621,149.1652375,3,-0.0006687445566058159,0.0009104326018132269,0.026020660996437073,0.0002521188580431044,0.0002777092158794403,0.001929128309711814,0,1,-1000,0,0,0,-1,2,0,11652.0
13:51:14.195,STABILIZE,-35.3632621,149.1652375,3,-0.0006687445566058159,0.0009104326018132269,0.026020660996437073,0.0002521188580431044,0.0002777092158794403,0.001929128309711814,0,1,-1000,0,0,0,-1,2,0,11652.0
13:51:14.397,STABILIZE,-35.3632621,149.1652375,3,-0.0006687445566058159,0.0009104326018132269,0.026020660996437073,0.0002521188580431044,0.0002777092158794403,0.001929128309711814,0,1,-1000,0,0,0,-1,2,0,11652.0
13:51:14.598,STABILIZE,-35.3632621,149.1652375,3,-0.0008247498772107065,0.0009143395000137389,0.02564276196062565,0.0002562789595685899,0.00019529450219124556,0.0019057904137298465,0,1,-1000,0,0,0,-1,1,0,11652.0
13:51:14.801,STABILIZE,-35.3632621,149.1652375,3,-0.0008718505850993097,0.0009131103870458901,0.025529492646455765,0.00018221623031422496,0.00020250101806595922,0.001939981710165739,0,1,-1000,0,0,0,-1,1,0,11652.0
13:51:15.003,STABILIZE,-35.3632621,149.1652375,3,-0.0008718505850993097,0.0009131103870458901,0.025529492646455765,0.00018221623031422496,0.00020250101806595922,0.001939981710165739,0,1,-1000,0,0,0,-1,1,0,11652.0
13:51:15.204,STABILIZE,-35.3632621,149.1652375,3,-0.0008718505850993097,0.0009131103870458901,0.025529492646455765,0.00018221623031422496,0.00020250101806595922,0.001939981710165739,0,1,-1000,0,0,0,-1,1,0,11652.0
13:51:15.405,STABILIZE,-35.3632621,149.1652375,3,-0.0009418489644303918,0.0009108438971452415,0.025347700342535973,0.00031330023193731904,0.0002963790320791304,0.00198547076433897,0,1,-1000,0,0,0,-1,1,0,11652.0
13:51:15.607,STABILIZE,-35.3632621,149.1652375,3,-0.0009418489644303918,0.0009108438971452415,0.025347700342535973,0.00031330023193731904,0.0002963790320791304,0.00198547076433897,0,1,-1000,0,0,0,-1,1,0,11652.0
13:51:15.809,STABILIZE,-35.3632621,149.1652375,3,-0.000998993986286223,0.0009317721123807132,0.025166014209389687,0.00021879997802898288,0.00021152844419702888,0.0019397769356146455,0,1,-1000,0,0,0,-1,1,0,11652.0
13:51:16.010,STABILIZE,-35.3632621,149.1652375,3,-0.000998993986286223,0.0009317721123807132,0.025166014209389687,0.00021879997802898288,0.00021152844419702888,0.0019397769356146455,0,1,-1000,0,0,0,-1,1,0,11652.0
13:51:16.212,STABILIZE,-35.3632621,149.1652375,3,-0.000998993986286223,0.0009317721123807132,0.025166014209389687,0.00021879997802898288,0.00021152844419702888,0.0019397769356146455,0,1,-1000,0,0,0,-1,1,0,11652.0
13:51:16.414,STABILIZE,-35.3632621,149.1652375,3,-0.000998993986286223,0.0009317721123807132,0.025166014209389687,0.00021879997802898288,0.00021152844419702888,0.0019397769356146455,0,1,-1000,0,0,0,-1,1,0,11652.0
13:51:16.616,STABILIZE,-35.3632621,149.1652375,0,-0.000794590509030968,0.0009624484810046852,0.024883054196834564,0.00022782688029110432,0.00032770197140052915,0.0018056436674669385,0,1,-1000,0,0,0,-1,2,1,11652.0
13:51:16.818,STABILIZE,-35.3632621,149.1652375,0,-0.0008570725913159549,0.0009641178185120225,0.024800419807434082,0.00019693851936608553,0.00033895374508574605,0.0017820281209424138,0,1,-1000,0,0,0,-1,2,0,11652.0
13:51:17.019,STABILIZE,-35.3632621,149.1652375,0,-0.0008570725913159549,0.0009641178185120225,0.024800419807434082,0.00019693851936608553,0.00033895374508574605,0.0017820281209424138,0,1,-1000,0,0,0,-1,2,0,11652.0
13:51:17.221,STABILIZE,-35.3632621,149.1652375,0,-0.0009126770310103893,0.0009668228449299932,0.02472044713795185,0.0003049799706786871,0.00019193539628759027,0.0018191069830209017,0,1,-1000,0,0,0,-1,1,0,11652.0
13:51:17.422,STABILIZE,-35.3632621,149.1652375,0,-0.0009126770310103893,0.0009668228449299932,0.02472044713795185,0.0003049799706786871,0.00019193539628759027,0.0018191069830209017,0,1,-1000,0,0,0,-1,1,0,11652.0
13:51:17.623,STABILIZE,-35.3632621,149.1652375,0,-0.0009126770310103893,0.0009668228449299932,0.02472044713795185,0.0003049799706786871,0.00019193539628759027,0.0018191069830209017,0,1,-1000,0,0,0,-1,1,0,11652.0
13:51:17.824,STABILIZE,-35.3632621,149.1652375,0,-0.0010419903555884957,0.0009875274263322353,0.02447548508644104,0.00029714341508224607,0.000203968258574605,0.0018730070441961288,0,1,-1000,0,0,0,-1,1,0,11652.0
13:51:18.026,STABILIZE,-35.3632621,149.1652375,0,-0.0010419903555884957,0.0009875274263322353,0.02447548508644104,0.00029714341508224607,0.000203968258574605,0.0018730070441961288,0,1,-1000,0,0,0,-1,1,0,11652.0
13:51:18.227,STABILIZE,-35.3632621,149.1652375,0,-0.0010419903555884957,0.0009875274263322353,0.02447548508644104,0.00029714341508224607,0.000203968258574605,0.0018730070441961288,0,1,-1000,0,0,0,-1,1,0,11652.0
13:51:18.428,STABILIZE,-35.3632621,149.1652375,0,-0.0010419903555884957,0.0009875274263322353,0.02447548508644104,0.00029714341508224607,0.000203968258574605,0.0018730070441961288,0,1,-1000,0,0,0,-1,1,0,11652.0
13:51:18.629,STABILIZE,-35.3632621,149.1652375,0,-0.0010419903555884957,0.0009875274263322353,0.02447548508644104,0.00029714341508224607,0.000203968258574605,0.0018730070441961288,0,1,-1000,0,0,0,-1,1,0,11652.0
13:51:18.831,STABILIZE,-35.3632621,149.1652375,0,-0.0010419903555884957,0.0009875274263322353,0.02447548508644104,0.00029714341508224607,0.000203968258574605,0.0018730070441961288,0,1,-1000,0,0,0,-1,1,0,11652.0
13:51:19.032,STABILIZE,-35.3632621,149.1652375,0,-0.0010419903555884957,0.0009875274263322353,0.02447548508644104,0.00029714341508224607,0.000203968258574605,0.0018730070441961288,0,1,-1000,0,0,0,-1,1,0,11652.0
13:51:19.233,STABILIZE,-35.3632621,149.1652375,0,-0.0010419903555884957,0.0009875274263322353,0.02447548508644104,0.00029714341508224607,0.000203968258574605,0.0018730070441961288,0,1,-1000,0,0,0,-1,1,0,11652.0
13:51:19.434,STABILIZE,-35.3632621,149.1652375,0,-0.0010419903555884957,0.0009875274263322353,0.02447548508644104,0.00029714341508224607,0.000203968258574605,0.0018730070441961288,0,1,-1000,0,0,0,-1,1,0,11652.0
13:51:19.636,STABILIZE,-35.3632621,149.1652375,0,-0.0010419903555884957,0.0009875274263322353,0.02447548508644104,0.00029714341508224607,0.000203968258574605,0.0018730070441961288,0,1,-1000,0,0,0,-1,1,0,11652.0
13:51:19.837,STABILIZE,-35.3632622,149.1652375,0,-0.0009546001092530787,0.0009945195633918047,0.023890482261776924,0.00024459336418658495,0.00019031675765290856,0.0016328548081219196,0,1,-1000,0,0,0,-1,2,2,11652.0
13:51:20.038,STABILIZE,-35.3632622,149.1652375,0,-0.0009546001092530787,0.0009945195633918047,0.023890482261776924,0.00024459336418658495,0.00019031675765290856,0.0016328548081219196,0,1,-1000,0,0,0,-1,2,2,11652.0
13:51:20.239,STABILIZE,-35.3632622,149.1652375,0,-0.0009546001092530787,0.0009945195633918047,0.023890482261776924,0.00024459336418658495,0.00019031675765290856,0.0016328548081219196,0,1,-1000,0,0,0,-1,2,2,11652.0
13:51:20.440,STABILIZE,-35.3632622,149.1652375,0,-0.0009546001092530787,0.0009945195633918047,0.023890482261776924,0.00024459336418658495,0.00019031675765290856,0.0016328548081219196,0,1,-1000,0,0,0,-1,2,2,11652.0
13:51:20.641,STABILIZE,-35.3632622,149.1652375,0,-0.0011403358075767756,0.0009907754138112068,0.023666486144065857,0.00029527407605201006,0.00027351989410817623,0.0016519284108653665,0,1,-1000,0,1,0,-1,2,2,11652.0
13:51:20.842,STABILIZE,-35.3632622,149.1652375,0,-0.0011403358075767756,0.0009907754138112068,0.023666486144065857,0.00029527407605201006,0.00027351989410817623,0.0016519284108653665,0,1,-1000,0,1,0,-1,2,2,11652.0
13:51:21.043,STABILIZE,-35.3632622,149.1652375,0,-0.0011403358075767756,0.0009907754138112068,0.023666486144065857,0.00029527407605201006,0.00027351989410817623,0.0016519284108653665,0,1,-1000,0,1,0,-1,2,2,11652.0
13:51:21.245,STABILIZE,-35.3632622,149.1652375,0,-0.0011403358075767756,0.0009907754138112068,0.023666486144065857,0.00029527407605201006,0.00027351989410817623,0.0016519284108653665,0,1,-1000,0,1,0,-1,2,2,11652.0
13:51:21.446,STABILIZE,-35.3632622,149.1652375,0,-0.0012922121677547693,0.0009892185917124152,0.023475755006074905,0.00020358350593596697,0.00033628189703449607,0.0015791351906955242,0,1,-1000,0,0,0,-1,1,1,11652.0
13:51:21.647,STABILIZE,-35.3632622,149.1652375,0,-0.0012922121677547693,0.0009892185917124152,0.023475755006074905,0.00020358350593596697,0.00033628189703449607,0.0015791351906955242,0,1,-1000,0,0,0,-1,1,1,11652.0
13:51:21.848,STABILIZE,-35.3632622,149.1652375,0,-0.0012922121677547693,0.0009892185917124152,0.023475755006074905,0.00020358350593596697,0.00033628189703449607,0.0015791351906955242,0,1,-1000,0,0,0,-1,1,1,11652.0
13:51:22.056,STABILIZE,-35.3632622,149.1652375,0,-0.0012922121677547693,0.0009892185917124152,0.023475755006074905,0.00020358350593596697,0.00033628189703449607,0.0015791351906955242,0,1,-1000,0,0,0,-1,1,1,11652.0
13:51:22.257,STABILIZE,-35.3632622,149.1652375,0,-0.0012922121677547693,0.0009892185917124152,0.023475755006074905,0.00020358350593596697,0.00033628189703449607,0.0015791351906955242,0,1,-1000,0,0,0,-1,1,1,11652.0
13:51:22.458,STABILIZE,-35.3632622,149.1652375,0,-0.0012922121677547693,0.0009892185917124152,0.023475755006074905,0.00020358350593596697,0.00033628189703449607,0.0015791351906955242,0,1,-1000,0,0,0,-1,1,1,11652.0
13:51:22.659,STABILIZE,-35.3632622,149.1652375,0,-0.001413305988535285,0.0009817915270105004,0.02321377769112587,0.0002955932286567986,0.00024551781825721264,0.001553995069116354,0,2,-1000,1,0,0,-1,0,0,11652.0
13:51:22.860,STABILIZE,-35.3632622,149.1652375,0,-0.001421947032213211,0.0009714250336401165,0.023178571835160255,0.00019637146033346653,0.00018455641111359,0.0016701335553079844,0,2,-1000,1,0,0,-1,0,0,11652.0
13:51:23.062,STABILIZE,-35.3632622,149.1652375,0,-0.001421947032213211,0.0009714250336401165,0.023178571835160255,0.00019637146033346653,0.00018455641111359,0.0016701335553079844,0,2,-1000,1,0,0,-1,0,0,11652.0
13:51:23.263,STABILIZE,-35.3632622,149.1652375,0,-0.001421947032213211,0.0009714250336401165,0.023178571835160255,0.00019637146033346653,0.00018455641111359,0.0016701335553079844,0,2,-1000,1,0,0,-1,0,0,11652.0
13:51:23.464,STABILIZE,-35.3632622,149.1652375,0,-0.001421947032213211,0.0009714250336401165,0.023178571835160255,0.00019637146033346653,0.00018455641111359,0.0016701335553079844,0,2,-1000,1,0,0,-1,0,0,11652.0
13:51:23.665,STABILIZE,-35.3632622,149.1652375,0,-0.0014255814021453261,0.0009682485251687467,0.023037221282720566,0.00024115515407174826,0.000275632890406996,0.0014581711729988456,0,1,-1000,0,0,0,-1,0,0,11652.0
13:51:23.867,STABILIZE,-35.3632622,149.1652375,0,-0.0014255814021453261,0.0009682485251687467,0.023037221282720566,0.00024115515407174826,0.000275632890406996,0.0014581711729988456,0,1,-1000,0,0,0,-1,0,0,11652.0
13:51:24.068,STABILIZE,-35.3632622,149.1652375,0,-0.0014255814021453261,0.0009682485251687467,0.023037221282720566,0.00024115515407174826,0.000275632890406996,0.0014581711729988456,0,1,-1000,0,0,0,-1,0,0,11652.0
13:51:24.269,STABILIZE,-35.3632622,149.1652375,0,-0.0014255814021453261,0.0009682485251687467,0.023037221282720566,0.00024115515407174826,0.000275632890406996,0.0014581711729988456,0,1,-1000,0,0,0,-1,0,0,11652.0
13:51:24.471,STABILIZE,-35.3632622,149.1652375,0,-0.0014255814021453261,0.0009682485251687467,0.023037221282720566,0.00024115515407174826,0.000275632890406996,0.0014581711729988456,0,1,-1000,0,0,0,-1,0,0,11652.0
13:51:24.673,STABILIZE,-35.3632622,149.1652375,0,-0.0014255814021453261,0.0009682485251687467,0.023037221282720566,0.00024115515407174826,0.000275632890406996,0.0014581711729988456,0,1,-1000,0,0,0,-1,0,0,11652.0
13:51:24.875,STABILIZE,-35.3632622,149.1652375,0,-0.0014255814021453261,0.0009682485251687467,0.023037221282720566,0.00024115515407174826,0.000275632890406996,0.0014581711729988456,0,1,-1000,0,0,0,-1,0,0,11652.0
13:51:25.076,STABILIZE,-35.3632622,149.1652375,0,-0.0014255814021453261,0.0009682485251687467,0.023037221282720566,0.00024115515407174826,0.000275632890406996,0.0014581711729988456,0,1,-1000,0,0,0,-1,0,0,11652.0
13:51:25.277,STABILIZE,-35.3632622,149.1652375,0,-0.0014255814021453261,0.0009682485251687467,0.023037221282720566,0.00024115515407174826,0.000275632890406996,0.0014581711729988456,0,1,-1000,0,0,0,-1,0,0,11652.0
13:51:25.478,STABILIZE,-35.3632622,149.1652375,0,-0.0013445350341498852,0.0009667373378761113,0.022764090448617935,0.0002198844449594617,0.00025472871493548155,0.0015893105883151293,0,2,-1000,1,1,0,-1,0,0,11652.0
13:51:25.680,STABILIZE,-35.3632622,149.1652375,0,-0.0013358598807826638,0.0009719161316752434,0.022726459428668022,0.00025903916684910655,0.0002900011604651809,0.001467645401135087,0,1,-1000,0,0,0,-1,0,0,11652.0
13:51:25.881,STABILIZE,-35.3632622,149.1652375,0,-0.0013230600161477923,0.0009756090585142374,0.02267681434750557,0.00019841204630210996,0.00032378348987549543,0.0014311361592262983,0,1,-1000,0,0,1,-1,0,0,11652.0
13:51:26.082,STABILIZE,-35.3632622,149.1652375,0,-0.0013230600161477923,0.0009756090585142374,0.02267681434750557,0.00019841204630210996,0.00032378348987549543,0.0014311361592262983,0,1,-1000,0,0,1,-1,0,0,11652.0
13:51:26.283,STABILIZE,-35.3632622,149.1652375,0,-0.0013230600161477923,0.0009756090585142374,0.02267681434750557,0.00019841204630210996,0.00032378348987549543,0.0014311361592262983,0,1,-1000,0,0,1,-1,0,0,11652.0
13:51:26.485,STABILIZE,-35.3632622,149.1652375,0,-0.0013230600161477923,0.0009756090585142374,0.02267681434750557,0.00019841204630210996,0.00032378348987549543,0.0014311361592262983,0,1,-1000,0,0,1,-1,0,0,11652.0
13:51:26.686,STABILIZE,-35.3632622,149.1652375,0,-0.0009550985996611416,0.0009725448326207697,0.022515494376420975,0.00016950955614447594,0.00022336223628371954,0.001482145395129919,0,1,-1000,0,1,0,-1,2,2,11652.0
13:51:26.888,STABILIZE,-35.3632622,149.1652375,0,-0.000984949292615056,0.0009716335334815085,0.02245352603495121,0.00039049400947988033,0.00024622405180707574,0.0013765934854745865,0,1,-1000,0,0,1,-1,2,1,11652.0
13:51:27.094,AUTO,-35.3632622,149.1652375,0,-0.001037670997902751,0.0009663540404289961,0.02240230143070221,0.00023197487462311983,0.00022862263722345233,0.0014881233219057322,0,1,-1000,0,0,1,-1,2,1,11652.0
13:51:27.296,AUTO,-35.3632622,149.1652375,0,-0.001037670997902751,0.0009663540404289961,0.02240230143070221,0.00023197487462311983,0.00022862263722345233,0.0014881233219057322,0,1,-1000,0,0,1,-1,2,1,26446.0
13:51:27.497,AUTO,-35.3632622,149.1652375,5,-0.0011041786056011915,0.0009602385107427835,0.022336190566420555,0.00024473119992762804,0.00021766615100204945,0.00152879417873919,0,2,-1000,0,1,0,-1,2,1,26446.0
13:51:27.699,AUTO,-35.3632622,149.1652375,4,-0.0011391208972781897,0.0009639787604101002,0.022292420268058777,0.00023238477297127247,0.0002523154253140092,0.0015121670439839363,0,2,-1000,0,1,1,-1,2,1,26446.0
13:51:27.900,AUTO,-35.3632622,149.1652375,3,-0.0011733908904716372,0.0009715954074636102,0.02226039581000805,0.00024301267694681883,0.0002660701866261661,0.001450380776077509,0,1,-1000,0,0,1,-1,1,1,26446.0
13:51:28.102,AUTO,-35.3632622,149.1652375,3,-0.0011733908904716372,0.0009715954074636102,0.02226039581000805,0.00024301267694681883,0.0002660701866261661,0.001450380776077509,0,1,-1000,0,0,1,-1,1,1,26446.0
13:51:28.303,AUTO,-35.3632622,149.1652375,3,-0.0011733908904716372,0.0009715954074636102,0.02226039581000805,0.00024301267694681883,0.0002660701866261661,0.001450380776077509,0,1,-1000,0,0,1,-1,1,1,26446.0
13:51:28.505,AUTO,-35.3632622,149.1652375,3,-0.0011733908904716372,0.0009715954074636102,0.02226039581000805,0.00024301267694681883,0.0002660701866261661,0.001450380776077509,0,1,-1000,0,0,1,-1,1,1,26446.0
13:51:28.707,AUTO,-35.3632621,149.1652375,4,-0.0011343288933858275,0.0010898285545408726,0.02212602086365223,0.0002772613661363721,0.0003528141533024609,0.0013776998966932297,0,1,-1000,0,0,1,0,0,0,26446.0
13:51:28.909,AUTO,-35.3632621,149.1652375,4,-0.0011130186030641198,0.001151036354713142,0.0220912154763937,0.00014614500105381012,0.0002858827356249094,0.0014279827009886503,0,2,-1000,0,0,1,0,0,0,26446.0
13:51:29.111,AUTO,-35.3632621,149.1652375,4,-0.0010716519318521023,0.0012007515178993344,0.022030707448720932,0.0002090710331685841,0.0001620710245333612,0.0014145609457045794,0,1,-1000,1,0,0,0,0,0,26446.0
13:51:29.313,AUTO,-35.3632621,149.1652375,5,-0.0010239083785563707,0.0012596562737599015,0.02198534458875656,0.0003082604962401092,0.0002606264897622168,0.0013186767464503646,0,1,-1000,0,0,1,0,0,0,26446.0
13:51:29.515,AUTO,-35.3632621,149.1652375,5,-0.0010239083785563707,0.0012596562737599015,0.02198534458875656,0.0003082604962401092,0.0002606264897622168,0.0013186767464503646,0,1,-1000,0,0,1,0,0,0,26446.0
13:51:29.716,AUTO,-35.3632621,149.1652375,5,-0.0009712576284073293,0.0013350064400583506,0.02195139229297638,0.00032247696071863174,0.000249717035330832,0.001461908221244812,0,2,-1000,1,1,0,0,0,0,26446.0
13:51:29.919,AUTO,-35.3632621,149.1652374,6,-0.0007678107358515263,0.0014078713720664382,0.021900631487369537,-0.00010775594273582101,0.00026168941985815763,0.0013666131999343634,0,-18,-1030,0,1,0,0,-1,-1,26446.0
13:51:30.120,AUTO,-35.3632621,149.1652374,6,-0.0007678107358515263,0.0014078713720664382,0.021900631487369537,-0.00010775594273582101,0.00026168941985815763,0.0013666131999343634,0,-18,-1030,0,1,0,0,-1,-1,209519.0
13:51:30.322,AUTO,-35.3632621,149.1652374,6,-0.0007678107358515263,0.0014078713720664382,0.021900631487369537,-0.00010775594273582101,0.00026168941985815763,0.0013666131999343634,0,-18,-1030,0,1,0,0,-1,-1,209519.0
13:51:30.524,AUTO,-35.3632621,149.1652374,6,-0.0007678107358515263,0.0014078713720664382,0.021900631487369537,-0.00010775594273582101,0.00026168941985815763,0.0013666131999343634,0,-18,-1030,0,1,0,0,-1,-1,209519.0
13:51:30.727,AUTO,-35.3632621,149.1652374,13,-0.0005990323843434453,0.0016242980491369963,0.021744661033153534,0.00035947252763435245,0.0002902091946452856,0.0013515056343749166,0,1,-1000,1,0,1,0,0,-1,209519.0
13:51:30.928,AUTO,-35.3632621,149.1652374,14,-0.0005300449556671083,0.0017046696739271283,0.021675627678632736,0.0002478757523931563,0.0003792127827182412,0.001360334805212915,0,1,-1000,1,0,0,0,0,-1,209519.0
13:51:31.130,AUTO,-35.3632621,149.1652374,45,0.0034146893303841352,-0.00012888394121546298,0.021566133946180344,-0.0017338667530566454,-0.006069451570510864,0.0024057927075773478,0,0,-1167,0,-5,2,0,0,-31,209519.0
13:51:31.331,AUTO,-35.3632621,149.1652374,174,0.003464309498667717,-5.615004192804918e-05,0.021542590111494064,-0.0011667769867926836,0.0038401696365326643,0.000481276074424386,0,0,-1152,0,4,0,0,0,-71,209519.0
13:51:31.533,AUTO,-35.3632621,149.1652374,174,0.003464309498667717,-5.615004192804918e-05,0.021542590111494064,-0.0011667769867926836,0.0038401696365326643,0.000481276074424386,0,0,-1152,0,4,0,0,0,-71,209519.0
13:51:31.734,AUTO,-35.3632621,149.1652375,392,0.001911236671730876,0.0008619956206530333,0.02151433564722538,0.0005284966318868101,0.00460403598845005,0.0012430764036253095,0,0,-1117,1,5,0,0,0,-103,209519.0
13:51:31.936,AUTO,-35.3632621,149.1652375,679,0.0005961388815194368,0.0017511596670374274,0.021579399704933167,-0.0063286758959293365,0.001668452867306769,0.00048649657401256263,0,0,-1080,-5,2,0,0,0,-126,209519.0
13:51:32.137,AUTO,-35.3632621,149.1652375,679,0.0005961388815194368,0.0017511596670374274,0.021579399704933167,-0.0063286758959293365,0.001668452867306769,0.00048649657401256263,0,0,-1080,-5,2,0,0,0,-126,209519.0
13:51:32.339,AUTO,-35.3632621,149.1652375,679,0.0005961388815194368,0.0017511596670374274,0.021579399704933167,-0.0063286758959293365,0.001668452867306769,0.00048649657401256263,0,0,-1080,-5,2,0,0,0,-126,209519.0
13:51:32.540,AUTO,-35.3632621,149.1652375,679,0.0005961388815194368,0.0017511596670374274,0.021579399704933167,-0.0063286758959293365,0.001668452867306769,0.00048649657401256263,0,0,-1080,-5,2,0,0,0,-126,209519.0
13:51:32.742,AUTO,-35.363262,149.1652376,1757,0.027989661321043968,-0.0016681237611919641,0.02019924856722355,0.045754946768283844,-0.0075620925053954124,0.0017020318191498518,0,0,-1007,46,-6,1,1,8,-149,209519.0
13:51:32.943,AUTO,-35.363262,149.1652379,2142,0.039074722677469254,-0.003705905517563224,0.020228378474712372,0.0436718724668026,-0.008478149771690369,0.0024334576446563005,0,-2,-1002,44,-8,1,2,15,-150,209519.0
13:51:33.145,AUTO,-35.3632619,149.1652384,2528,0.04956948012113571,-0.006176165770739317,0.020365728065371513,0.04044879600405693,-0.010291416198015213,0.003122657770290971,1,-4,-1000,40,-9,2,4,25,-150,100565.0
13:51:33.346,AUTO,-35.3632617,149.1652393,2915,0.05918619781732559,-0.008941982872784138,-0.0055475435219705105,0.03725946694612503,-0.011564182117581367,0.0031369938515126705,1,-7,-999,38,-11,2,6,37,-150,100565.0
13:51:33.548,AUTO,-35.3632615,149.1652404,3298,0.05368410423398018,0.00046508220839314163,-0.018655288964509964,-0.08272653073072433,0.09590870887041092,-0.10851098597049713,1,-10,-991,-82,96,-108,9,49,-148,100565.0
13:51:33.750,AUTO,-35.3632615,149.1652404,3298,0.05368410423398018,0.00046508220839314163,-0.018655288964509964,-0.08272653073072433,0.09590870887041092,-0.10851098597049713,1,-10,-991,-82,96,-108,9,49,-148,100565.0
13:51:33.952,AUTO,-35.3632613,149.1652418,3676,0.016472414135932922,0.021078117191791534,-0.04161865636706352,-0.1835208684206009,0.036003660410642624,-0.08220573514699936,4,-12,-993,-182,36,-82,8,54,-146,100565.0
13:51:34.157,AUTO,-35.3632613,149.1652418,3676,0.016472414135932922,0.021078117191791534,-0.04161865636706352,-0.1835208684206009,0.036003660410642624,-0.08220573514699936,4,-12,-993,-182,36,-82,8,54,-146,100565.0
13:51:34.365,AUTO,-35.3632613,149.1652418,3676,0.016472414135932922,0.021078117191791534,-0.04161865636706352,-0.1835208684206009,0.036003660410642624,-0.08220573514699936,4,-12,-993,-182,36,-82,8,54,-146,100565.0
13:51:34.568,AUTO,-35.3632609,149.165245,4809,-0.08308076113462448,0.007198546081781387,-0.07783179730176926,-0.03733954578638077,-0.013757617212831974,-0.038692500442266464,2,-5,-1008,-36,-13,-38,0,13,-150,100565.0
13:51:34.769,AUTO,-35.3632609,149.165245,4809,-0.08308076113462448,0.007198546081781387,-0.07783179730176926,-0.03733954578638077,-0.013757617212831974,-0.038692500442266464,2,-5,-1008,-36,-13,-38,0,13,-150,100565.0
13:51:34.971,AUTO,-35.3632609,149.1652451,5193,-0.08271805942058563,0.0036164773628115654,-0.08554647117853165,0.02665824256837368,-0.009131364524364471,-0.02864452637732029,0,0,-1004,27,-8,-28,-1,-8,-150,100565.0
13:51:35.173,AUTO,-35.3632609,149.1652447,5579,-0.0718524381518364,0.0013554096221923828,-0.0915837436914444,0.05061432719230652,-0.005349617917090654,-0.01917719841003418,-1,2,-1001,51,-4,-19,-3,-27,-150,100565.0
13:51:35.375,AUTO,-35.363261,149.1652437,5963,-0.058247845619916916,0.0006354764336720109,-0.09608429670333862,0.0571395568549633,0.0007598524098284543,-0.012900452129542828,-3,7,-1000,57,1,-13,-5,-41,-150,100565.0
13:51:35.577,AUTO,-35.3632612,149.1652425,6347,-0.04333251714706421,0.0013481375062838197,-0.09920430928468704,0.06208117678761482,0.004758169408887625,-0.007820749655365944,-5,9,-1001,62,5,-8,-7,-52,-150,100565.0
13:51:35.778,AUTO,-35.3632612,149.1652425,6347,-0.04333251714706421,0.0013481375062838197,-0.09920430928468704,0.06208117678761482,0.004758169408887625,-0.007820749655365944,-5,9,-1001,62,5,-8,-7,-52,-150,100565.0
13:51:35.980,AUTO,-35.3632614,149.1652409,6732,-0.02741720899939537,0.003067439654842019,-0.10111843049526215,0.0652194544672966,0.00869930163025856,-0.004244910553097725,-4,12,-1002,65,9,-4,-9,-58,-150,100565.0
13:51:36.182,AUTO,-35.3632614,149.1652409,6732,-0.02741720899939537,0.003067439654842019,-0.10111843049526215,0.0652194544672966,0.00869930163025856,-0.004244910553097725,-4,12,-1002,65,9,-4,-9,-58,-150,113259.0
13:51:36.385,AUTO,-35.3632614,149.1652409,6732,-0.02741720899939537,0.003067439654842019,-0.10111843049526215,0.0652194544672966,0.00869930163025856,-0.004244910553097725,-4,12,-1002,65,9,-4,-9,-58,-150,113259.0
13:51:36.587,AUTO,-35.3632623,149.165236,7895,0.023043209686875343,0.009947778657078743,-0.10165610164403915,0.06790958344936371,0.00723497848957777,0.002120827091857791,-3,13,-1004,68,8,1,-17,-51,-153,113259.0
13:51:36.788,AUTO,-35.3632623,149.165236,7895,0.023043209686875343,0.009947778657078743,-0.10165610164403915,0.06790958344936371,0.00723497848957777,0.002120827091857791,-3,13,-1004,68,8,1,-17,-51,-153,113259.0
13:51:36.991,AUTO,-35.3632627,149.1652347,8286,0.03970065712928772,0.011289562098681927,-0.1006985753774643,0.06611267477273941,0.00360172800719738,0.0028186694253236055,-3,11,-1003,66,4,2,-19,-41,-154,113259.0
13:51:37.193,AUTO,-35.3632631,149.1652337,8678,0.05585301294922829,0.011434805579483509,-0.09940976649522781,0.06332655251026154,-0.0018377506639808416,0.004546544048935175,0,10,-1002,64,-1,4,-20,-27,-154,113259.0
13:51:37.395,AUTO,-35.3632636,149.1652331,9075,0.06574548035860062,0.005756738595664501,-0.0932275727391243,0.0019349278882145882,-0.054476670920848846,0.05295442417263985,1,7,-996,2,-53,52,-21,-10,-153,113259.0
13:51:37.596,AUTO,-35.363264,149.1652329,9466,0.05980117619037628,-0.017455456778407097,-0.07425130158662796,-0.027778372168540955,-0.1021122932434082,0.09460007399320602,3,4,-998,-27,-101,94,-17,5,-152,113259.0
13:51:37.798,AUTO,-35.363264,149.1652329,9466,0.05980117619037628,-0.017455456778407097,-0.07425130158662796,-0.027778372168540955,-0.1021122932434082,0.09460007399320602,3,4,-998,-27,-101,94,-17,5,-152,113259.0
13:51:38.000,AUTO,-35.3632643,149.1652331,9853,0.04909313842654228,-0.04697249084711075,-0.04626888036727905,-0.05029190331697464,-0.11924123764038086,0.12831102311611176,4,0,-998,-49,-118,127,-7,17,-151,113259.0
13:51:38.203,AUTO,-35.3632643,149.1652331,9853,0.04909313842654228,-0.04697249084711075,-0.04626888036727905,-0.05029190331697464,-0.11924123764038086,0.12831102311611176,4,0,-998,-49,-118,127,-7,17,-151,113259.0
13:51:38.405,AUTO,-35.3632643,149.1652331,9853,0.04909313842654228,-0.04697249084711075,-0.04626888036727905,-0.05029190331697464,-0.11924123764038086,0.12831102311611176,4,0,-998,-49,-118,127,-7,17,-151,113259.0
13:51:38.607,AUTO,-35.3632636,149.1652349,10995,-0.014428239315748215,-0.021164271980524063,-0.056372132152318954,-0.047910068184137344,0.07568949460983276,-0.07858411222696304,-2,-6,-1005,-47,76,-78,28,20,-150,113259.0
13:51:38.809,AUTO,-35.3632629,149.1652353,11378,-0.02203333005309105,-0.0059165265411138535,-0.07723648101091385,-0.020840398967266083,0.05387513339519501,-0.08162283897399902,-3,-6,-1005,-20,54,-81,30,13,-151,113259.0
13:51:39.012,AUTO,-35.3632629,149.1652353,11378,-0.02203333005309105,-0.0059165265411138535,-0.07723648101091385,-0.020840398967266083,0.05387513339519501,-0.08162283897399902,-3,-6,-1005,-20,54,-81,30,13,-151,113259.0
13:51:39.214,AUTO,-35.3632622,149.1652355,11764,-0.0235533956438303,0.004528766963630915,-0.09779749810695648,0.004320729523897171,0.03634389862418175,-0.07413887232542038,-3,-6,-1004,5,37,-74,29,5,-152,116245.0
13:51:39.416,AUTO,-35.3632616,149.1652355,12152,-0.020885227248072624,0.012560849077999592,-0.11671901494264603,0.017475396394729614,0.028897110372781754,-0.06563878804445267,-5,-4,-1003,18,29,-66,25,-1,-153,116245.0
13:51:39.618,AUTO,-35.363261,149.1652354,12542,-0.015229415148496628,0.017950458452105522,-0.13185381889343262,0.027526840567588806,0.018597673624753952,-0.05078313499689102,-5,-2,-1002,28,19,-51,20,-6,-153,116245.0
13:51:39.821,AUTO,-35.3632606,149.1652353,12933,-0.007950153201818466,0.02125081606209278,-0.1433172971010208,0.028460493311285973,0.010457529686391354,-0.03719471022486687,-5,0,-1000,29,11,-37,14,-9,-153,116245.0
13:51:40.023,AUTO,-35.3632606,149.1652353,12933,-0.007950153201818466,0.02125081606209278,-0.1433172971010208,0.028460493311285973,0.010457529686391354,-0.03719471022486687,-5,0,-1000,29,11,-37,14,-9,-153,116245.0
13:51:40.224,AUTO,-35.3632606,149.1652353,12933,-0.007950153201818466,0.02125081606209278,-0.1433172971010208,0.028460493311285973,0.010457529686391354,-0.03719471022486687,-5,0,-1000,29,11,-37,14,-9,-153,116245.0
13:51:40.426,AUTO,-35.3632606,149.1652353,12933,-0.007950153201818466,0.02125081606209278,-0.1433172971010208,0.028460493311285973,0.010457529686391354,-0.03719471022486687,-5,0,-1000,29,11,-37,14,-9,-153,116245.0
13:51:40.628,AUTO,-35.3632601,149.1652344,14110,0.011086544021964073,0.021832095459103584,-0.15868344902992249,0.01499005127698183,-0.006711448077112436,-0.006509038154035807,-2,1,-999,15,-6,-6,-2,-6,-153,116245.0
13:51:40.830,AUTO,-35.3632601,149.1652343,14501,0.013830633834004402,0.019432373344898224,-0.15925370156764984,0.008203545585274696,-0.00977502204477787,-0.002435428323224187,0,0,-999,9,-9,-2,-6,-2,-153,116245.0
13:51:41.031,AUTO,-35.3632601,149.1652343,14501,0.013830633834004402,0.019432373344898224,-0.15925370156764984,0.008203545585274696,-0.00977502204477787,-0.002435428323224187,0,0,-999,9,-9,-2,-6,-2,-153,116245.0
13:51:41.233,AUTO,-35.3632602,149.1652342,14890,0.014897260814905167,0.016584856435656548,-0.15883620083332062,0.0017701906617730856,-0.01261142548173666,0.0010689548216760159,0,1,-999,2,-12,0,-9,1,-153,116245.0
13:51:41.435,AUTO,-35.3632604,149.1652342,15279,0.014279618859291077,0.013183544389903545,-0.15805703401565552,-0.004697461146861315,-0.012558144517242908,0.0006275796331465244,1,0,-999,-3,-12,0,-11,4,-153,116245.0
13:51:41.637,AUTO,-35.3632606,149.1652343,15668,0.011912375688552856,0.00976263266056776,-0.157465860247612,-0.011259382590651512,-0.012866895645856857,0.0005613177781924605,2,0,-999,-10,-12,0,-12,7,-152,116245.0
13:51:41.838,AUTO,-35.3632609,149.1652344,16064,0.009006011299788952,0.006684463005512953,-0.1577923744916916,-0.011010420508682728,-0.008527225814759731,-0.005424952134490013,2,0,-1000,-10,-7,-5,-12,9,-152,116245.0
13:51:42.040,AUTO,-35.3632609,149.1652344,16064,0.009006011299788952,0.006684463005512953,-0.1577923744916916,-0.011010420508682728,-0.008527225814759731,-0.005424952134490013,2,0,-1000,-10,-7,-5,-12,9,-152,116245.0
13:51:42.242,AUTO,-35.3632609,149.1652344,16064,0.009006011299788952,0.006684463005512953,-0.1577923744916916,-0.011010420508682728,-0.008527225814759731,-0.005424952134490013,2,0,-1000,-10,-7,-5,-12,9,-152,175476.0
13:51:42.444,AUTO,-35.3632609,149.1652344,16064,0.009006011299788952,0.006684463005512953,-0.1577923744916916,-0.011010420508682728,-0.008527225814759731,-0.005424952134490013,2,0,-1000,-10,-7,-5,-12,9,-152,175476.0
13:51:42.646,AUTO,-35.3632615,149.1652351,17221,0.001810688991099596,0.0005243489285930991,-0.1647307127714157,-0.0074632251635193825,-0.0036180675961077213,-0.016262009739875793,2,0,-1000,-6,-2,-16,-10,11,-153,175476.0
13:51:42.848,AUTO,-35.3632617,149.1652353,17610,0.0003133629506919533,-0.0006700042868033051,-0.16895708441734314,-0.0049033397808671,-0.003927647601813078,-0.017807940021157265,2,0,-1000,-4,-3,-17,-8,10,-153,175476.0
13:51:43.050,AUTO,-35.3632618,149.1652355,17997,-0.0009190214332193136,-0.0014188769273459911,-0.17400935292243958,-0.004026798997074366,-0.0014671033713966608,-0.022398967295885086,1,0,-1000,-3,0,-23,-7,9,-153,175476.0
13:51:43.252,AUTO,-35.3632618,149.1652355,17997,-0.0009190214332193136,-0.0014188769273459911,-0.17400935292243958,-0.004026798997074366,-0.0014671033713966608,-0.022398967295885086,1,0,-1000,-3,0,-23,-7,9,-153,175476.0
13:51:43.453,AUTO,-35.3632619,149.1652357,18387,-0.001424913527444005,-0.0014661684399470687,-0.17999044060707092,0.0020618506241589785,0.002080922480672598,-0.026137052103877068,1,0,-1001,2,2,-26,-6,7,-153,175476.0
13:51:43.655,AUTO,-35.363262,149.1652359,18776,-0.0013201655820012093,-0.0011899310629814863,-0.1864279806613922,0.0008890493190847337,0.002510730642825365,-0.026879524812102318,1,0,-1000,1,3,-27,-4,6,-153,175476.0
13:51:43.857,AUTO,-35.3632621,149.165236,19166,-0.0009433384402655065,-0.0006865000468678772,-0.19315148890018463,0.0009758351952768862,0.0029034684412181377,-0.02570752240717411,0,0,-1000,1,3,-25,-3,5,-153,175476.0
13:51:44.060,AUTO,-35.3632621,149.165236,19166,-0.0009433384402655065,-0.0006865000468678772,-0.19315148890018463,0.0009758351952768862,0.0029034684412181377,-0.02570752240717411,0,0,-1000,1,3,-25,-3,5,-153,175476.0
13:51:44.262,AUTO,-35.3632621,149.165236,19166,-0.0009433384402655065,-0.0006865000468678772,-0.19315148890018463,0.0009758351952768862,0.0029034684412181377,-0.02570752240717411,0,0,-1000,1,3,-25,-3,5,-153,175476.0
13:51:44.465,AUTO,-35.3632621,149.165236,19166,-0.0009433384402655065,-0.0006865000468678772,-0.19315148890018463,0.0009758351952768862,0.0029034684412181377,-0.02570752240717411,0,0,-1000,1,3,-25,-3,5,-153,175476.0
13:51:44.666,AUTO,-35.3632621,149.1652361,20333,0.001350007951259613,0.000820539949927479,-0.21279217302799225,0.003657191526144743,0.0024120109155774117,-0.0245533287525177,0,0,-1000,4,3,-24,-1,3,-153,175476.0
13:51:44.868,AUTO,-35.3632621,149.1652362,20730,0.00213123532012105,0.0014995844103395939,-0.21927280724048615,0.003272198373451829,0.003650115802884102,-0.024260833859443665,0,0,-1000,4,4,-24,-1,2,-153,175476.0
13:51:45.069,AUTO,-35.3632621,149.1652362,21120,0.0027675621677190065,0.0020508775487542152,-0.22530925273895264,0.002274347236379981,0.0018961646128445864,-0.02327135019004345,0,0,-1000,3,2,-23,-1,2,-153,175476.0
13:51:45.271,AUTO,-35.3632621,149.1652362,21120,0.0027675621677190065,0.0020508775487542152,-0.22530925273895264,0.002274347236379981,0.0018961646128445864,-0.02327135019004345,0,0,-1000,3,2,-23,-1,2,-153,246988.0
13:51:45.472,AUTO,-35.3632621,149.1652362,21509,0.0032131995540112257,0.0024720770306885242,-0.2312171757221222,0.0016918063629418612,0.0047570159658789635,-0.025556087493896484,0,0,-1000,2,5,-25,0,2,-153,246988.0
13:51:45.674,AUTO,-35.3632621,149.1652362,21899,0.003648434765636921,0.0032246140763163567,-0.23703989386558533,0.0019320441642776132,0.0020896224305033684,-0.022660214453935623,0,0,-1000,3,3,-22,0,3,-153,246988.0
13:51:45.875,AUTO,-35.3632621,149.1652362,22289,0.003988749347627163,0.0035211301874369383,-0.24255317449569702,0.0019986028783023357,0.0013520927168428898,-0.02092108130455017,0,0,-1000,2,1,-21,-1,3,-153,246988.0
13:51:46.077,AUTO,-35.3632621,149.1652362,22289,0.003988749347627163,0.0035211301874369383,-0.24255317449569702,0.0019986028783023357,0.0013520927168428898,-0.02092108130455017,0,0,-1000,2,1,-21,-1,3,-153,246988.0
13:51:46.279,AUTO,-35.3632621,149.1652362,22289,0.003988749347627163,0.0035211301874369383,-0.24255317449569702,0.0019986028783023357,0.0013520927168428898,-0.02092108130455017,0,0,-1000,2,1,-21,-1,3,-153,246988.0
13:51:46.480,AUTO,-35.3632621,149.1652362,22289,0.003988749347627163,0.0035211301874369383,-0.24255317449569702,0.0019986028783023357,0.0013520927168428898,-0.02092108130455017,0,0,-1000,2,1,-21,-1,3,-153,246988.0
13:51:46.682,AUTO,-35.3632621,149.1652363,23449,0.0031108222901821136,0.0036919608246535063,-0.25772133469581604,-0.0002399904769845307,0.0019553108140826225,-0.019471749663352966,0,0,-1000,0,2,-19,-1,4,-153,246988.0
13:51:46.883,AUTO,-35.3632621,149.1652364,23839,0.002432112116366625,0.0034717777743935585,-0.26241323351860046,-0.001057342509739101,-0.0004057919140905142,-0.016224825754761696,0,0,-1000,0,0,-16,-1,4,-153,246988.0
13:51:47.085,AUTO,-35.3632621,149.1652365,24227,0.0019346527988091111,0.0033618593588471413,-0.2671884298324585,-0.0023883392568677664,-0.00160973088350147,-0.017515845596790314,0,0,-1000,-1,0,-17,-1,4,-153,246988.0
13:51:47.286,AUTO,-35.3632621,149.1652365,24227,0.0019346527988091111,0.0033618593588471413,-0.2671884298324585,-0.0023883392568677664,-0.00160973088350147,-0.017515845596790314,0,0,-1000,-1,0,-17,-1,4,-153,246988.0
13:51:47.488,AUTO,-35.3632621,149.1652365,24615,0.0017026340356096625,0.0032282103784382343,-0.27204465866088867,-0.0005640142480842769,0.0011699078604578972,-0.01944841630756855,0,0,-1000,0,1,-19,-1,4,-153,246988.0
13:51:47.689,AUTO,-35.3632621,149.1652366,25013,0.001485902932472527,0.0030381688848137856,-0.27677100896835327,-0.00012116372818127275,0.0005120574496686459,-0.016855919733643532,0,0,-1000,0,1,-17,-1,4,-153,246988.0
13:51:47.891,AUTO,-35.3632621,149.1652366,25399,-0.010439835488796234,0.006865174509584904,-0.2729159891605377,-0.01130426861345768,0.012700359337031841,0.02249865233898163,0,0,-1003,-10,13,22,-2,2,-152,246988.0
13:51:48.092,AUTO,-35.3632621,149.1652366,25399,-0.010439835488796234,0.006865174509584904,-0.2729159891605377,-0.01130426861345768,0.012700359337031841,0.02249865233898163,0,0,-1003,-10,13,22,-2,2,-152,246988.0
13:51:48.294,AUTO,-35.3632621,149.1652366,25399,-0.010439835488796234,0.006865174509584904,-0.2729159891605377,-0.01130426861345768,0.012700359337031841,0.02249865233898163,0,0,-1003,-10,13,22,-2,2,-152,101829.0
13:51:48.496,AUTO,-35.3632621,149.1652366,25399,-0.010439835488796234,0.006865174509584904,-0.2729159891605377,-0.01130426861345768,0.012700359337031841,0.02249865233898163,0,0,-1003,-10,13,22,-2,2,-152,101829.0
13:51:48.697,AUTO,-35.3632622,149.1652366,26563,0.006819175090640783,0.004160868003964424,-0.25033146142959595,0.016523214057087898,-0.0026305506471544504,0.03256751224398613,0,1,-999,17,-1,32,-5,0,-153,101829.0
13:51:48.899,AUTO,-35.3632623,149.1652366,26952,0.009183003567159176,0.002954237163066864,-0.24249809980392456,0.005123043432831764,-0.005169368814677,0.02971038781106472,0,0,-1000,5,-4,29,-5,2,-153,101829.0
13:51:49.100,AUTO,-35.3632624,149.1652366,27340,0.009351350367069244,0.0017159221461042762,-0.23545536398887634,-0.005110328551381826,-0.004139836877584457,0.025882849469780922,0,0,-999,-4,-3,25,-4,4,-153,101829.0
13:51:49.302,AUTO,-35.3632624,149.1652366,27340,0.009351350367069244,0.0017159221461042762,-0.23545536398887634,-0.005110328551381826,-0.004139836877584457,0.025882849469780922,0,0,-999,-4,-3,25,-4,4,-153,101829.0
13:51:49.503,AUTO,-35.3632624,149.1652366,27728,0.008410642854869366,0.001082963077351451,-0.22919872403144836,-0.004485879559069872,-0.0011340142227709293,0.0246624406427145,0,0,-999,-3,0,24,-3,5,-153,101829.0
13:51:49.705,AUTO,-35.3632624,149.1652368,28116,0.007133942563086748,0.0010321761947125196,-0.22324518859386444,-0.004113450180739164,0.002148925792425871,0.023522473871707916,0,0,-1000,-3,3,23,-2,7,-153,101829.0
13:51:49.908,AUTO,-35.3632624,149.1652369,28503,0.005304430611431599,0.0013992787571623921,-0.21785664558410645,-0.008552253246307373,0.0006285408744588494,0.021105343475937843,0,0,-1000,-7,1,21,-2,7,-153,101829.0
13:51:50.111,AUTO,-35.3632624,149.1652369,28503,0.005304430611431599,0.0013992787571623921,-0.21785664558410645,-0.008552253246307373,0.0006285408744588494,0.021105343475937843,0,0,-1000,-7,1,21,-2,7,-153,101829.0
13:51:50.312,AUTO,-35.3632624,149.1652369,28503,0.005304430611431599,0.0013992787571623921,-0.21785664558410645,-0.008552253246307373,0.0006285408744588494,0.021105343475937843,0,0,-1000,-7,1,21,-2,7,-153,101829.0
13:51:50.514,AUTO,-35.3632624,149.1652369,28503,0.005304430611431599,0.0013992787571623921,-0.21785664558410645,-0.008552253246307373,0.0006285408744588494,0.021105343475937843,0,0,-1000,-7,1,21,-2,7,-153,101829.0
13:51:50.716,AUTO,-35.3632624,149.1652374,29666,0.000892066746018827,0.0015311314491555095,-0.2026551216840744,-0.004302741028368473,0.0019697684329003096,0.019713088870048523,0,-1,-1000,-3,2,19,0,7,-153,101829.0
13:51:50.918,AUTO,-35.3632624,149.1652375,30055,4.86440840177238e-05,0.0017216256819665432,-0.19836510717868805,-0.0024485867470502853,0.00023875024635344744,0.017104631289839745,0,-1,-1000,-1,1,16,0,6,-153,101829.0
13:51:51.120,AUTO,-35.3632624,149.1652377,30443,-0.0008272792329080403,0.0014859148068353534,-0.19383232295513153,-0.006190045271068811,-0.0016024454962462187,0.017968295142054558,0,-1,-1000,-5,0,17,0,6,-153,101829.0
13:51:51.321,AUTO,-35.3632624,149.1652378,30830,-0.0011956063099205494,0.0012576834997162223,-0.18940800428390503,0.00486171618103981,0.0004298489075154066,0.01920398697257042,0,0,-1001,5,1,18,0,5,-153,86245.0
13:51:51.523,AUTO,-35.3632624,149.1652378,30830,-0.0011956063099205494,0.0012576834997162223,-0.18940800428390503,0.00486171618103981,0.0004298489075154066,0.01920398697257042,0,0,-1001,5,1,18,0,5,-153,86245.0
13:51:51.724,AUTO,-35.3632624,149.1652378,31218,-0.0009555710712447762,0.0012894381070509553,-0.1850195676088333,-0.0011190928053110838,0.0009127847151830792,0.01671786792576313,0,0,-1000,0,1,16,0,4,-153,86245.0
13:51:51.926,AUTO,-35.3632624,149.1652379,31606,-0.0008265941869467497,0.0012937959982082248,-0.18083766102790833,-0.002282975474372506,0.0005964286392554641,0.016295231878757477,0,0,-999,-1,1,16,0,3,-153,86245.0
13:51:52.128,AUTO,-35.3632624,149.1652379,31606,-0.0008265941869467497,0.0012937959982082248,-0.18083766102790833,-0.002282975474372506,0.0005964286392554641,0.016295231878757477,0,0,-999,-1,1,16,0,3,-153,86245.0
13:51:52.329,AUTO,-35.3632624,149.1652379,31606,-0.0008265941869467497,0.0012937959982082248,-0.18083766102790833,-0.002282975474372506,0.0005964286392554641,0.016295231878757477,0,0,-999,-1,1,16,0,3,-153,86245.0
13:51:52.531,AUTO,-35.3632624,149.1652379,31606,-0.0008265941869467497,0.0012937959982082248,-0.18083766102790833,-0.002282975474372506,0.0005964286392554641,0.016295231878757477,0,0,-999,-1,1,16,0,3,-153,86245.0
13:51:52.733,AUTO,-35.3632623,149.1652379,32769,-9.504598710918799e-05,0.001127707539126277,-0.1697547286748886,0.0001611076295375824,0.0004918915219604969,0.013065500184893608,0,0,-1000,1,1,12,0,1,-153,86245.0
13:51:52.934,AUTO,-35.3632623,149.1652379,33158,-4.667362372856587e-05,0.000981913530267775,-0.16640254855155945,-0.0017624767497181892,-0.0020088148303329945,0.012439819052815437,0,0,-1000,0,0,12,0,1,-153,86245.0
13:51:53.135,AUTO,-35.3632623,149.1652379,33545,-3.2714404369471595e-05,0.0006963497144170105,-0.16301144659519196,-0.0008427478605881333,-0.0019074836745858192,0.013164812698960304,0,0,-1000,0,-1,13,0,0,-153,86245.0
13:51:53.337,AUTO,-35.3632623,149.1652379,33934,0.0004097670898772776,0.0009117142180912197,-0.15978629887104034,-0.00042046280577778816,0.0016200051177293062,0.015097660012543201,0,0,-999,0,2,15,0,0,-153,86245.0
13:51:53.539,AUTO,-35.3632623,149.1652379,33934,0.0004097670898772776,0.0009117142180912197,-0.15978629887104034,-0.00042046280577778816,0.0016200051177293062,0.015097660012543201,0,0,-999,0,2,15,0,0,-153,86245.0
13:51:53.740,AUTO,-35.3632623,149.1652379,34326,0.0007186534930951893,0.0011790317948907614,-0.1564682275056839,0.0057966457679867744,0.0017265186179429293,0.014811853878200054,0,0,-1000,6,2,14,0,0,-153,86245.0
13:51:53.942,AUTO,-35.3632623,149.1652379,34715,0.00092715845676139,0.0012134395074099302,-0.15338370203971863,0.0020957281813025475,0.00024955125991255045,0.01370468083769083,0,0,-1000,3,1,13,0,0,-153,86245.0
13:51:54.143,AUTO,-35.3632623,149.1652379,34715,0.00092715845676139,0.0012134395074099302,-0.15338370203971863,0.0020957281813025475,0.00024955125991255045,0.01370468083769083,0,0,-1000,3,1,13,0,0,-153,86245.0
13:51:54.345,AUTO,-35.3632623,149.1652379,34715,0.00092715845676139,0.0012134395074099302,-0.15338370203971863,0.0020957281813025475,0.00024955125991255045,0.01370468083769083,0,0,-1000,3,1,13,0,0,-153,219080.0
13:51:54.547,AUTO,-35.3632623,149.1652379,34715,0.00092715845676139,0.0012134395074099302,-0.15338370203971863,0.0020957281813025475,0.00024955125991255045,0.01370468083769083,0,0,-1000,3,1,13,0,0,-153,219080.0
13:51:54.748,AUTO,-35.3632622,149.1652378,35874,0.001370862708427012,0.0011264618951827288,-0.14478211104869843,0.0036431020125746727,0.0015216331230476499,0.011893155053257942,0,0,-1000,4,2,11,0,0,-153,219080.0
13:51:54.950,AUTO,-35.3632622,149.1652377,36262,0.0012762026162818074,0.0011338023468852043,-0.14220328629016876,-0.004294329788535833,-0.0005812298622913659,0.009515070356428623,0,0,-1000,-3,0,9,0,0,-153,219080.0
13:51:55.151,AUTO,-35.3632622,149.1652377,36651,0.0014969048788771033,0.0011795480968430638,-0.13958893716335297,-0.0001744931796565652,0.0010211378103122115,0.010393333621323109,0,0,-1000,0,2,10,0,0,-153,219080.0
13:51:55.353,AUTO,-35.3632622,149.1652376,37040,0.0017263292102143168,0.0012515827547758818,-0.13718724250793457,0.0009792337659746408,0.0004327732603996992,0.011613300070166588,0,0,-1000,2,1,11,0,0,-153,219080.0
13:51:55.554,AUTO,-35.3632622,149.1652376,37040,0.001980734523385763,0.0014077241066843271,-0.13463447988033295,0.004076982848346233,0.002108860993757844,0.01119779422879219,0,0,-1000,2,1,11,0,0,-153,219080.0
13:51:55.756,AUTO,-35.3632622,149.1652376,37428,0.001980734523385763,0.0014077241066843271,-0.13463447988033295,0.004076982848346233,0.002108860993757844,0.01119779422879219,0,0,-1000,5,3,11,0,0,-153,219080.0
13:51:55.958,AUTO,-35.3632622,149.1652376,37817,0.001888031023554504,0.0014780680648982525,-0.1322823166847229,-0.0018465580651536584,0.0005642852047458291,0.009503472596406937,0,0,-1000,0,1,9,0,0,-153,219080.0
13:51:56.160,AUTO,-35.3632622,149.1652376,37817,0.001888031023554504,0.0014780680648982525,-0.1322823166847229,-0.0018465580651536584,0.0005642852047458291,0.009503472596406937,0,0,-1000,0,1,9,0,0,-153,219080.0
13:51:56.369,AUTO,-35.3632622,149.1652376,37817,0.001888031023554504,0.0014780680648982525,-0.1322823166847229,-0.0018465580651536584,0.0005642852047458291,0.009503472596406937,0,0,-1000,0,1,9,0,0,-153,219080.0
13:51:56.571,AUTO,-35.3632621,149.1652375,38980,-0.0009206550312228501,0.003823920153081417,-0.12105847895145416,-0.052713025361299515,0.04788469150662422,0.1131025105714798,-1,-1,-972,-51,48,113,0,0,-151,219080.0
13:51:56.773,AUTO,-35.3632621,149.1652375,38980,-0.0009206550312228501,0.003823920153081417,-0.12105847895145416,-0.052713025361299515,0.04788469150662422,0.1131025105714798,-1,-1,-972,-51,48,113,0,0,-151,219080.0
13:51:56.975,AUTO,-35.3632621,149.1652374,39349,-0.0350683219730854,0.03931710124015808,-0.04071199893951416,-0.19540013372898102,0.17464420199394226,0.4960528612136841,0,-1,-953,-194,175,496,-5,-3,-140,219080.0
13:51:57.176,AUTO,-35.3632623,149.1652371,39688,-0.06625715643167496,0.07958509773015976,0.10623501241207123,-0.07407520711421967,0.002237000036984682,0.5177026987075806,2,2,-922,-72,3,517,-18,-16,-125,219080.0
13:51:57.378,AUTO,-35.3632628,149.1652364,39980,-0.05112171173095703,0.04758135601878166,0.19707608222961426,0.0873483344912529,-0.21308937668800354,0.2442355453968048,3,7,-928,88,-212,244,-30,-31,-105,148811.0
13:51:57.579,AUTO,-35.3632635,149.1652354,40231,-0.02049696072936058,-0.003083014627918601,0.2371583878993988,0.15270479023456573,-0.18004149198532104,0.09560363739728928,3,10,-944,153,-178,95,-33,-38,-91,148811.0
13:51:57.781,AUTO,-35.3632635,149.1652354,40231,-0.02049696072936058,-0.003083014627918601,0.2371583878993988,0.15270479023456573,-0.18004149198532104,0.09560363739728928,3,10,-944,153,-178,95,-33,-38,-91,148811.0
13:51:57.983,AUTO,-35.3632641,149.1652344,40447,0.005670841317623854,-0.03654106706380844,0.24918591976165771,0.0625896155834198,-0.09408839046955109,0.021354755386710167,3,6,-949,63,-93,21,-27,-35,-78,148811.0
13:51:58.185,AUTO,-35.3632641,149.1652344,40447,0.005670841317623854,-0.03654106706380844,0.24918591976165771,0.0625896155834198,-0.09408839046955109,0.021354755386710167,3,6,-949,63,-93,21,-27,-35,-78,148811.0
13:51:58.387,AUTO,-35.3632641,149.1652344,40447,0.005670841317623854,-0.03654106706380844,0.24918591976165771,0.0625896155834198,-0.09408839046955109,0.021354755386710167,3,6,-949,63,-93,21,-27,-35,-78,148811.0
13:51:58.589,AUTO,-35.3632649,149.1652326,40917,0.04135926440358162,-0.04886607453227043,0.23114675283432007,-0.21482478082180023,0.034137919545173645,-0.03514552488923073,0,-14,-971,-214,35,-34,2,-4,-48,148811.0
13:51:58.794,AUTO,-35.3632649,149.1652326,40917,0.04135926440358162,-0.04886607453227043,0.23114675283432007,-0.21482478082180023,0.034137919545173645,-0.03514552488923073,0,-14,-971,-214,35,-34,2,-4,-48,148811.0
13:51:58.995,AUTO,-35.3632648,149.1652326,41029,0.03319501131772995,-0.04016397148370743,0.2221619188785553,-0.5053642392158508,0.036295823752880096,-0.031769175082445145,-2,-12,-978,-503,37,-31,10,7,-40,148811.0
13:51:59.197,AUTO,-35.3632646,149.1652328,41123,0.02841508388519287,-0.029748039320111275,0.21270327270030975,-0.23658807575702667,0.04407496377825737,-0.024356095120310783,-1,1,-997,-234,45,-24,16,18,-36,148811.0
13:51:59.399,AUTO,-35.3632641,149.1652333,41209,0.02877965196967125,-0.017471306025981903,0.20535145699977875,0.31737521290779114,0.040273867547512054,-0.023247169330716133,-2,16,-996,319,41,-23,20,24,-33,148811.0
13:51:59.600,AUTO,-35.3632636,149.165234,41288,0.028505634516477585,-0.007423296570777893,0.19872121512889862,0.508936882019043,0.035858891904354095,-0.02360648475587368,-2,10,-996,510,37,-23,21,28,-30,148811.0
13:51:59.802,AUTO,-35.3632636,149.165234,41288,0.028505634516477585,-0.007423296570777893,0.19872121512889862,0.508936882019043,0.035858891904354095,-0.02360648475587368,-2,10,-996,510,37,-23,21,28,-30,148811.0
13:52:00.004,AUTO,-35.3632631,149.1652347,41361,0.018370628356933594,0.0013909783447161317,0.19249403476715088,0.10441332310438156,0.03272641450166702,-0.023393429815769196,-2,-18,-971,104,33,-23,21,29,-27,148811.0
13:52:00.206,AUTO,-35.3632631,149.1652347,41361,0.018370628356933594,0.0013909783447161317,0.19249403476715088,0.10441332310438156,0.03272641450166702,-0.023393429815769196,-2,-18,-971,104,33,-23,21,29,-27,148811.0
13:52:00.415,AUTO,-35.3632631,149.1652347,41361,0.018370628356933594,0.0013909783447161317,0.19249403476715088,0.10441332310438156,0.03272641450166702,-0.023393429815769196,-2,-18,-971,104,33,-23,21,29,-27,284452.0
13:52:00.617,AUTO,-35.3632618,149.1652369,41462,-0.024611633270978928,0.03484058752655983,0.17109225690364838,-0.4855473041534424,0.11788227409124374,0.05595090612769127,0,0,-898,-483,119,56,13,24,7,284452.0
13:52:00.818,AUTO,-35.3632616,149.1652374,41429,-0.015863236039876938,0.042686834931373596,0.16907979547977448,0.4328453540802002,-0.044040340930223465,-0.01571650803089142,0,28,-999,435,-43,-15,5,16,12,284452.0
13:52:01.020,AUTO,-35.3632616,149.1652374,41429,-0.015863236039876938,0.042686834931373596,0.16907979547977448,0.4328453540802002,-0.044040340930223465,-0.01571650803089142,0,28,-999,435,-43,-15,5,16,12,284452.0
13:52:01.221,AUTO,-35.3632615,149.1652378,41397,0.011163376271724701,0.026493452489376068,0.1664707064628601,0.794792652130127,-0.06101246550679207,-0.008695580065250397,2,31,-1044,796,-59,-8,-2,13,7,284452.0
13:52:01.423,AUTO,-35.3632616,149.1652382,41382,0.03220706433057785,0.015198097564280033,0.16371940076351166,0.8105543851852417,-0.04075824096798897,-0.008626319468021393,4,18,-1039,811,-39,-8,-6,14,1,284452.0
13:52:01.625,AUTO,-35.3632617,149.1652387,41382,0.046191003173589706,0.008245996199548244,0.16028746962547302,0.13668715953826904,-0.026540517807006836,-0.013341358862817287,3,-15,-1025,137,-25,-13,-9,21,-5,284452.0
13:52:01.826,AUTO,-35.363262,149.1652394,41395,0.05100603401660919,0.004526827018707991,0.1564805656671524,-0.5714951753616333,-0.0038717803545296192,-0.018919365480542183,7,-38,-1000,-571,-2,-18,-11,31,-7,284452.0
13:52:02.028,AUTO,-35.363262,149.1652394,41395,0.05100603401660919,0.004526827018707991,0.1564805656671524,-0.5714951753616333,-0.0038717803545296192,-0.018919365480542183,7,-38,-1000,-571,-2,-18,-11,31,-7,284452.0
13:52:02.231,AUTO,-35.363262,149.1652394,41395,0.05100603401660919,0.004526827018707991,0.1564805656671524,-0.5714951753616333,-0.0038717803545296192,-0.018919365480542183,7,-38,-1000,-571,-2,-18,-11,31,-7,284452.0
13:52:02.433,AUTO,-35.363262,149.1652394,41395,0.05100603401660919,0.004526827018707991,0.1564805656671524,-0.5714951753616333,-0.0038717803545296192,-0.018919365480542183,7,-38,-1000,-571,-2,-18,-11,31,-7,284452.0
13:52:02.634,AUTO,-35.3632631,149.165244,41415,0.0952051430940628,-0.007796740159392357,0.3003735840320587,0.7351616621017456,0.03195332735776901,0.7576901316642761,6,19,-974,736,33,757,-15,79,0,284452.0
13:52:02.836,AUTO,-35.3632635,149.1652466,41414,0.10519788414239883,-0.02712806686758995,0.5047681927680969,0.46786290407180786,0.019103210419416428,0.8468554615974426,6,-19,-1009,468,20,847,-17,98,-2,284452.0
13:52:03.038,AUTO,-35.3632635,149.1652466,41414,0.10519788414239883,-0.02712806686758995,0.5047681927680969,0.46786290407180786,0.019103210419416428,0.8468554615974426,6,-19,-1009,468,20,847,-17,98,-2,284452.0
13:52:03.239,AUTO,-35.3632639,149.1652497,41415,0.10471093654632568,-0.048039600253105164,0.7138305902481079,-0.07553474605083466,-0.008388484828174114,0.8246721625328064,4,-54,-997,-75,-7,825,-18,119,-1,175306.0
13:52:03.441,AUTO,-35.3632645,149.1652535,41416,0.09395230561494827,-0.07141713798046112,0.9118901491165161,-0.5765816569328308,-0.02606329880654812,0.7755507230758667,-1,-68,-992,-575,-25,775,-21,142,-2,175306.0
13:52:03.643,AUTO,-35.3632651,149.165258,41415,0.09076517820358276,-0.09308627992868423,1.0995348691940308,-0.04368659853935242,-0.02448364533483982,0.7279798984527588,-13,-37,-1002,-41,-23,728,-24,167,-1,175306.0
13:52:03.845,AUTO,-35.3632658,149.1652632,41411,0.09048145264387131,-0.1156693771481514,1.2787925004959106,0.4963824450969696,-0.006661488674581051,0.6969452500343323,-24,-19,-1017,498,-5,697,-28,192,0,175306.0
13:52:04.047,AUTO,-35.3632658,149.1652632,41411,0.09048145264387131,-0.1156693771481514,1.2787925004959106,0.4963824450969696,-0.006661488674581051,0.6969452500343323,-24,-19,-1017,498,-5,697,-28,192,0,175306.0
13:52:04.249,AUTO,-35.3632658,149.1652632,41411,0.09048145264387131,-0.1156693771481514,1.2787925004959106,0.4963824450969696,-0.006661488674581051,0.6969452500343323,-24,-19,-1017,498,-5,697,-28,192,0,175306.0
13:52:04.451,AUTO,-35.3632658,149.1652632,41411,0.09048145264387131,-0.1156693771481514,1.2787925004959106,0.4963824450969696,-0.006661488674581051,0.6969452500343323,-24,-19,-1017,498,-5,697,-28,192,0,175306.0
13:52:04.653,AUTO,-35.3632687,149.1652837,41399,0.020527714863419533,-0.16418148577213287,1.8061091899871826,-0.1785164624452591,0.029600203037261963,0.6633015275001526,-63,-32,-1010,-176,30,663,-43,278,-1,175306.0
13:52:04.855,AUTO,-35.3632699,149.1652922,41399,0.013807464390993118,-0.1605718433856964,1.9315732717514038,0.38571280241012573,0.012666034512221813,0.29821619391441345,-73,-7,-1009,386,13,298,-48,306,-4,175306.0
13:52:05.057,AUTO,-35.3632699,149.1652922,41399,0.013807464390993118,-0.1605718433856964,1.9315732717514038,0.38571280241012573,0.012666034512221813,0.29821619391441345,-73,-7,-1009,386,13,298,-48,306,-4,175306.0
13:52:05.259,AUTO,-35.3632713,149.1653014,41402,0.009721172973513603,-0.16420137882232666,1.9699009656906128,0.03223999962210655,-0.03330700099468231,0.06585584580898285,-81,-36,-1004,32,-32,66,-52,332,-4,175306.0
13:52:05.460,AUTO,-35.3632727,149.1653114,41406,0.0062017496675252914,-0.17002175748348236,1.9590543508529663,-0.3607521951198578,0.004886834882199764,-0.0781482607126236,-88,-41,-1004,-359,5,-78,-58,357,-4,175306.0
13:52:05.662,AUTO,-35.3632742,149.1653221,41411,0.016398631036281586,-0.16862556338310242,1.929344654083252,0.05519271269440651,0.03377710282802582,-0.143385648727417,-90,-24,-1008,56,34,-143,-63,383,-5,175306.0
