time_stamp,MODE,lat,lon,relative_alt,roll,pitch,yaw,rollspeed,pitchspeed,yawspeed,xacc,yacc,zacc,xgyro,ygyro,zgyro,vx,vy,vz,alt,VFR_HUD_alt,EK2_ALT_SOURCE,RTL_ALT
14:10:56.815,AUTO,-35.3632622,149.1652374,6,0.0005413442850112915,0.0016975055914372206,0.021030107513070107,0.003969757817685604,-0.0017462823307141662,0.0015053781680762768,0,1,-1006,4,-1,1,0,0,-1,584000,584.0,0.0,1500.0
14:10:57.019,AUTO,-35.3632622,149.1652374,6,0.0005413442850112915,0.0016975055914372206,0.021030107513070107,0.003969757817685604,-0.0017462823307141662,0.0015053781680762768,0,1,-1006,4,-1,1,0,0,-1,584000,584.0,0.0,1500.0
14:10:57.220,AUTO,-35.3632621,149.1652375,1385,0.02330765128135681,-0.0011389614082872868,0.02070293202996254,0.04744771122932434,-0.006741809193044901,0.0021698942873626947,0,0,-1018,48,-6,1,1,5,-145,585380,585.3800048828125,0.0,1500.0
14:10:57.422,AUTO,-35.3632621,149.1652375,1385,0.02330765128135681,-0.0011389614082872868,0.02070293202996254,0.04744771122932434,-0.006741809193044901,0.0021698942873626947,0,0,-1018,48,-6,1,1,5,-145,585380,585.3800048828125,0.0,1500.0
14:10:57.623,AUTO,-35.3632621,149.1652375,1385,0.02330765128135681,-0.0011389614082872868,0.02070293202996254,0.04744771122932434,-0.006741809193044901,0.0021698942873626947,0,0,-1018,48,-6,1,1,5,-145,585380,585.3800048828125,0.0,1500.0
14:10:57.825,AUTO,-35.3632621,149.1652375,1385,0.02330765128135681,-0.0011389614082872868,0.02070293202996254,0.04744771122932434,-0.006741809193044901,0.0021698942873626947,0,0,-1018,48,-6,1,1,5,-145,585380,585.3800048828125,0.0,1500.0
14:10:58.034,AUTO,-35.3632621,149.1652375,1385,0.02330765128135681,-0.0011389614082872868,0.02070293202996254,0.04744771122932434,-0.006741809193044901,0.0021698942873626947,0,0,-1018,48,-6,1,1,5,-145,585380,585.3800048828125,0.0,1500.0
14:10:58.237,AUTO,-35.3632621,149.1652375,1385,0.02330765128135681,-0.0011389614082872868,0.02070293202996254,0.04744771122932434,-0.006741809193044901,0.0021698942873626947,0,0,-1018,48,-6,1,1,5,-145,585380,585.3800048828125,0.0,1500.0
14:10:58.439,AUTO,-35.3632621,149.1652375,1385,0.02330765128135681,-0.0011389614082872868,0.02070293202996254,0.04744771122932434,-0.006741809193044901,0.0021698942873626947,0,0,-1018,48,-6,1,1,5,-145,585380,585.3800048828125,0.0,1500.0
14:10:58.641,AUTO,-35.3632621,149.1652375,1385,0.02330765128135681,-0.0011389614082872868,0.02070293202996254,0.04744771122932434,-0.006741809193044901,0.0021698942873626947,0,0,-1018,48,-6,1,1,5,-145,585380,585.3800048828125,0.0,1500.0
14:10:58.843,AUTO,-35.3632614,149.1652407,3203,0.05005032569169998,0.006689157802611589,-0.02557184174656868,-0.10767757892608643,0.11291356384754181,-0.11126713454723358,2,-9,-991,-106,113,-111,10,52,-146,587200,587.2000122070312,0.0,1500.0
14:10:59.046,AUTO,-35.3632609,149.1652447,4334,-0.026621883735060692,0.005686436779797077,-0.06177419051527977,-0.02794857695698738,-0.028004208579659462,-0.02828037180006504,4,-9,-1006,-27,-26,-28,3,41,-148,588330,588.3300170898438,0.0,1500.0
14:10:59.247,AUTO,-35.3632609,149.1652447,4334,-0.026621883735060692,0.005686436779797077,-0.06177419051527977,-0.02794857695698738,-0.028004208579659462,-0.02828037180006504,4,-9,-1006,-27,-26,-28,3,41,-148,588330,588.3300170898438,0.0,1500.0
14:10:59.452,AUTO,-35.3632608,149.1652457,4718,-0.03861239179968834,0.0024933910463005304,-0.06904877722263336,-0.06553346663713455,0.00131837313529104,-0.03929103538393974,3,-7,-1000,-64,2,-39,3,30,-149,588710,588.7099609375,0.0,1500.0
14:10:59.664,AUTO,-35.3632608,149.1652457,4718,-0.03861239179968834,0.0024933910463005304,-0.06904877722263336,-0.06553346663713455,0.00131837313529104,-0.03929103538393974,3,-7,-1000,-64,2,-39,3,30,-149,588710,588.7099609375,0.0,1500.0
14:10:59.867,AUTO,-35.3632608,149.1652457,4718,-0.03861239179968834,0.0024933910463005304,-0.06904877722263336,-0.06553346663713455,0.00131837313529104,-0.03929103538393974,3,-7,-1000,-64,2,-39,3,30,-149,588710,588.7099609375,0.0,1500.0
14:11:00.068,AUTO,-35.3632608,149.1652457,4718,-0.03861239179968834,0.0024933910463005304,-0.06904877722263336,-0.06553346663713455,0.00131837313529104,-0.03929103538393974,3,-7,-1000,-64,2,-39,3,30,-149,588710,588.7099609375,0.0,1500.0
14:11:00.270,AUTO,-35.3632608,149.1652457,4718,-0.03861239179968834,0.0024933910463005304,-0.06904877722263336,-0.06553346663713455,0.00131837313529104,-0.03929103538393974,3,-7,-1000,-64,2,-39,3,30,-149,588710,588.7099609375,0.0,1500.0
14:11:00.473,AUTO,-35.3632608,149.1652457,4718,-0.03861239179968834,0.0024933910463005304,-0.06904877722263336,-0.06553346663713455,0.00131837313529104,-0.03929103538393974,3,-7,-1000,-64,2,-39,3,30,-149,588710,588.7099609375,0.0,1500.0
14:11:00.676,AUTO,-35.3632608,149.1652457,4718,-0.03861239179968834,0.0024933910463005304,-0.06904877722263336,-0.06553346663713455,0.00131837313529104,-0.03929103538393974,3,-7,-1000,-64,2,-39,3,30,-149,588710,588.7099609375,0.0,1500.0
14:11:00.877,AUTO,-35.3632608,149.1652457,4718,-0.03861239179968834,0.0024933910463005304,-0.06904877722263336,-0.06553346663713455,0.00131837313529104,-0.03929103538393974,3,-7,-1000,-64,2,-39,3,30,-149,588710,588.7099609375,0.0,1500.0
14:11:01.079,AUTO,-35.3632612,149.1652408,7401,-0.01569589599967003,0.008132490329444408,-0.11290246993303299,0.06768158078193665,0.01034175232052803,-0.00431453064084053,-6,12,-1002,68,10,-4,-13,-62,-149,591400,591.3999633789062,0.0,1500.0
14:11:01.281,AUTO,-35.3632612,149.1652408,7401,-0.01569589599967003,0.008132490329444408,-0.11290246993303299,0.06768158078193665,0.01034175232052803,-0.00431453064084053,-6,12,-1002,68,10,-4,-13,-62,-149,591400,591.3999633789062,0.0,1500.0
14:11:01.485,AUTO,-35.3632615,149.165239,7788,0.001349775935523212,0.010696950368583202,-0.11344779282808304,0.06886996328830719,0.010263387113809586,-0.001660158857703209,-5,14,-1004,69,10,-2,-16,-61,-150,591780,591.7799682617188,0.0,1500.0
14:11:01.688,AUTO,-35.3632615,149.165239,7788,0.001349775935523212,0.010696950368583202,-0.11344779282808304,0.06886996328830719,0.010263387113809586,-0.001660158857703209,-5,14,-1004,69,10,-2,-16,-61,-150,591780,591.7799682617188,0.0,1500.0
14:11:01.892,AUTO,-35.3632615,149.165239,7788,0.001349775935523212,0.010696950368583202,-0.11344779282808304,0.06886996328830719,0.010263387113809586,-0.001660158857703209,-5,14,-1004,69,10,-2,-16,-61,-150,591780,591.7799682617188,0.0,1500.0
14:11:02.095,AUTO,-35.3632615,149.165239,7788,0.001349775935523212,0.010696950368583202,-0.11344779282808304,0.06886996328830719,0.010263387113809586,-0.001660158857703209,-5,14,-1004,69,10,-2,-16,-61,-150,591780,591.7799682617188,0.0,1500.0
14:11:02.299,AUTO,-35.3632615,149.165239,7788,0.001349775935523212,0.010696950368583202,-0.11344779282808304,0.06886996328830719,0.010263387113809586,-0.001660158857703209,-5,14,-1004,69,10,-2,-16,-61,-150,591780,591.7799682617188,0.0,1500.0
14:11:02.501,AUTO,-35.3632615,149.165239,7788,0.001349775935523212,0.010696950368583202,-0.11344779282808304,0.06886996328830719,0.010263387113809586,-0.001660158857703209,-5,14,-1004,69,10,-2,-16,-61,-150,591780,591.7799682617188,0.0,1500.0
14:11:02.705,AUTO,-35.3632615,149.165239,7788,0.001349775935523212,0.010696950368583202,-0.11344779282808304,0.06886996328830719,0.010263387113809586,-0.001660158857703209,-5,14,-1004,69,10,-2,-16,-61,-150,591780,591.7799682617188,0.0,1500.0
14:11:02.908,AUTO,-35.3632639,149.1652338,9596,0.0722494050860405,0.007937552407383919,-0.10492829978466034,-0.002939743222668767,-0.05998660996556282,0.05897460877895355,2,6,-995,-2,-59,58,-26,-5,-152,593590,593.5899658203125,0.0,1500.0
14:11:03.109,AUTO,-35.3632648,149.1652343,10372,0.05472468212246895,-0.04897109046578407,-0.057977765798568726,-0.019979314878582954,-0.1026831716299057,0.11743994057178497,5,0,-1001,-19,-101,117,-10,24,-149,594370,594.3699951171875,0.0,1500.0
14:11:03.311,AUTO,-35.3632648,149.1652349,10758,0.04296493902802467,-0.07249432802200317,-0.03186160698533058,-0.08931493014097214,-0.05148862674832344,0.07348467409610748,3,-5,-993,-88,-50,73,6,33,-148,594750,594.75,0.0,1500.0
14:11:03.513,AUTO,-35.3632648,149.1652349,10758,0.04296493902802467,-0.07249432802200317,-0.03186160698533058,-0.08931493014097214,-0.05148862674832344,0.07348467409610748,3,-5,-993,-88,-50,73,6,33,-148,594750,594.75,0.0,1500.0
14:11:03.726,AUTO,-35.3632648,149.1652349,10758,0.04296493902802467,-0.07249432802200317,-0.03186160698533058,-0.08931493014097214,-0.05148862674832344,0.07348467409610748,3,-5,-993,-88,-50,73,6,33,-148,594750,594.75,0.0,1500.0
14:11:03.932,AUTO,-35.3632648,149.1652349,10758,0.04296493902802467,-0.07249432802200317,-0.03186160698533058,-0.08931493014097214,-0.05148862674832344,0.07348467409610748,3,-5,-993,-88,-50,73,6,33,-148,594750,594.75,0.0,1500.0
14:11:04.135,AUTO,-35.3632648,149.1652349,10758,0.04296493902802467,-0.07249432802200317,-0.03186160698533058,-0.08931493014097214,-0.05148862674832344,0.07348467409610748,3,-5,-993,-88,-50,73,6,33,-148,594750,594.75,0.0,1500.0
14:11:04.348,AUTO,-35.3632648,149.1652349,10758,0.04296493902802467,-0.07249432802200317,-0.03186160698533058,-0.08931493014097214,-0.05148862674832344,0.07348467409610748,3,-5,-993,-88,-50,73,6,33,-148,594750,594.75,0.0,1500.0
14:11:04.552,AUTO,-35.3632648,149.1652349,10758,0.04296493902802467,-0.07249432802200317,-0.03186160698533058,-0.08931493014097214,-0.05148862674832344,0.07348467409610748,3,-5,-993,-88,-50,73,6,33,-148,594750,594.75,0.0,1500.0
14:11:04.756,AUTO,-35.3632648,149.1652349,10758,0.04296493902802467,-0.07249432802200317,-0.03186160698533058,-0.08931493014097214,-0.05148862674832344,0.07348467409610748,3,-5,-993,-88,-50,73,6,33,-148,594750,594.75,0.0,1500.0
14:11:04.959,AUTO,-35.3632648,149.1652349,10758,0.04296493902802467,-0.07249432802200317,-0.03186160698533058,-0.08931493014097214,-0.05148862674832344,0.07348467409610748,3,-5,-993,-88,-50,73,6,33,-148,594750,594.75,0.0,1500.0
14:11:05.161,AUTO,-35.3632604,149.1652378,13067,-0.03134894743561745,0.02159653976559639,-0.15046970546245575,0.034777965396642685,0.02336905524134636,-0.06364655494689941,-6,-3,-1003,35,24,-63,29,-11,-152,597060,597.0599975585938,0.0,1500.0
14:11:05.362,AUTO,-35.3632594,149.1652369,13853,-0.010554947890341282,0.028962435200810432,-0.1746729612350464,0.04764699190855026,0.012732407078146935,-0.03360338136553764,-6,1,-1001,48,13,-33,12,-21,-153,597850,597.8499755859375,0.0,1500.0
14:11:05.564,AUTO,-35.3632594,149.1652369,13853,-0.010554947890341282,0.028962435200810432,-0.1746729612350464,0.04764699190855026,0.012732407078146935,-0.03360338136553764,-6,1,-1001,48,13,-33,12,-21,-153,597850,597.8499755859375,0.0,1500.0
14:11:05.765,AUTO,-35.3632594,149.1652369,13853,-0.010554947890341282,0.028962435200810432,-0.1746729612350464,0.04764699190855026,0.012732407078146935,-0.03360338136553764,-6,1,-1001,48,13,-33,12,-21,-153,597850,597.8499755859375,0.0,1500.0
14:11:05.967,AUTO,-35.3632594,149.1652369,13853,-0.010554947890341282,0.028962435200810432,-0.1746729612350464,0.04764699190855026,0.012732407078146935,-0.03360338136553764,-6,1,-1001,48,13,-33,12,-21,-153,597850,597.8499755859375,0.0,1500.0
14:11:06.169,AUTO,-35.3632594,149.1652369,13853,-0.010554947890341282,0.028962435200810432,-0.1746729612350464,0.04764699190855026,0.012732407078146935,-0.03360338136553764,-6,1,-1001,48,13,-33,12,-21,-153,597850,597.8499755859375,0.0,1500.0
14:11:06.371,AUTO,-35.3632594,149.1652369,13853,-0.010554947890341282,0.028962435200810432,-0.1746729612350464,0.04764699190855026,0.012732407078146935,-0.03360338136553764,-6,1,-1001,48,13,-33,12,-21,-153,597850,597.8499755859375,0.0,1500.0
14:11:06.575,AUTO,-35.3632594,149.1652369,13853,-0.010554947890341282,0.028962435200810432,-0.1746729612350464,0.04764699190855026,0.012732407078146935,-0.03360338136553764,-6,1,-1001,48,13,-33,12,-21,-153,597850,597.8499755859375,0.0,1500.0
14:11:06.779,AUTO,-35.3632594,149.1652369,13853,-0.010554947890341282,0.028962435200810432,-0.1746729612350464,0.04764699190855026,0.012732407078146935,-0.03360338136553764,-6,1,-1001,48,13,-33,12,-21,-153,597850,597.8499755859375,0.0,1500.0
14:11:06.983,AUTO,-35.3632601,149.165235,16204,0.018252886831760406,0.011632144451141357,-0.17211633920669556,-0.01600009948015213,-0.017311273142695427,0.01250365935266018,1,2,-998,-14,-21,16,-19,6,-151,600200,599.8099975585938,0.0,1500.0
14:11:07.184,AUTO,-35.3632605,149.1652351,16593,0.013559388928115368,0.007098801899701357,-0.1693519800901413,-0.018095949664711952,-0.016123229637742043,0.007097717374563217,4,1,-1000,-17,-15,6,-19,9,-151,600590,600.5899658203125,0.0,1500.0
14:11:07.387,AUTO,-35.3632608,149.1652352,16986,0.008849774487316608,0.0032905172556638718,-0.1683531552553177,-0.016555162146687508,-0.014195525087416172,-0.00038140840479172766,4,1,-1001,-15,-13,0,-18,11,-151,600980,600.97998046875,0.0,1500.0
14:11:07.590,AUTO,-35.3632608,149.1652352,16986,0.008849774487316608,0.0032905172556638718,-0.1683531552553177,-0.016555162146687508,-0.014195525087416172,-0.00038140840479172766,4,1,-1001,-15,-13,0,-18,11,-151,600980,600.97998046875,0.0,1500.0
14:11:07.791,AUTO,-35.3632608,149.1652352,16986,0.008849774487316608,0.0032905172556638718,-0.1683531552553177,-0.016555162146687508,-0.014195525087416172,-0.00038140840479172766,4,1,-1001,-15,-13,0,-18,11,-151,600980,600.97998046875,0.0,1500.0
14:11:07.992,AUTO,-35.3632608,149.1652352,16986,0.008849774487316608,0.0032905172556638718,-0.1683531552553177,-0.016555162146687508,-0.014195525087416172,-0.00038140840479172766,4,1,-1001,-15,-13,0,-18,11,-151,600980,600.97998046875,0.0,1500.0
14:11:08.194,AUTO,-35.3632608,149.1652352,16986,0.008849774487316608,0.0032905172556638718,-0.1683531552553177,-0.016555162146687508,-0.014195525087416172,-0.00038140840479172766,4,1,-1001,-15,-13,0,-18,11,-151,600980,600.97998046875,0.0,1500.0
14:11:08.401,AUTO,-35.3632608,149.1652352,16986,0.008849774487316608,0.0032905172556638718,-0.1683531552553177,-0.016555162146687508,-0.014195525087416172,-0.00038140840479172766,4,1,-1001,-15,-13,0,-18,11,-151,600980,600.97998046875,0.0,1500.0
14:11:08.605,AUTO,-35.3632608,149.1652352,16986,0.008849774487316608,0.0032905172556638718,-0.1683531552553177,-0.016555162146687508,-0.014195525087416172,-0.00038140840479172766,4,1,-1001,-15,-13,0,-18,11,-151,600980,600.97998046875,0.0,1500.0
14:11:08.811,AUTO,-35.3632608,149.1652352,16986,0.008849774487316608,0.0032905172556638718,-0.1683531552553177,-0.016555162146687508,-0.014195525087416172,-0.00038140840479172766,4,1,-1001,-15,-13,0,-18,11,-151,600980,600.97998046875,0.0,1500.0
14:11:09.013,AUTO,-35.3632621,149.1652363,18933,-0.0023320280015468597,-0.005144083872437477,-0.1854841262102127,0.0032436163164675236,0.0013173657935112715,-0.0255133006721735,2,0,-1000,-5,-2,-21,-7,6,-152,602930,602.5399780273438,0.0,1500.0
14:11:09.214,AUTO,-35.3632623,149.1652365,19717,-0.0009117471636272967,-0.003541590180248022,-0.19933584332466125,0.004276207648217678,0.004254101309925318,-0.026696305721998215,0,0,-1000,4,5,-27,-4,3,-152,603710,603.7099609375,0.0,1500.0
14:11:09.418,AUTO,-35.3632623,149.1652365,20109,0.0002149254287360236,-0.002560071414336562,-0.20659136772155762,0.004546554293483496,0.003403209615498781,-0.028435101732611656,0,0,-1000,5,4,-28,-2,2,-152,604100,604.0999755859375,0.0,1500.0
14:11:09.620,AUTO,-35.3632623,149.1652365,20109,0.0002149254287360236,-0.002560071414336562,-0.20659136772155762,0.004546554293483496,0.003403209615498781,-0.028435101732611656,0,0,-1000,5,4,-28,-2,2,-152,604100,604.0999755859375,0.0,1500.0
14:11:09.822,AUTO,-35.3632623,149.1652365,20109,0.0002149254287360236,-0.002560071414336562,-0.20659136772155762,0.004546554293483496,0.003403209615498781,-0.028435101732611656,0,0,-1000,5,4,-28,-2,2,-152,604100,604.0999755859375,0.0,1500.0
14:11:10.028,AUTO,-35.3632623,149.1652365,20109,0.0002149254287360236,-0.002560071414336562,-0.20659136772155762,0.004546554293483496,0.003403209615498781,-0.028435101732611656,0,0,-1000,5,4,-28,-2,2,-152,604100,604.0999755859375,0.0,1500.0
14:11:10.231,AUTO,-35.3632623,149.1652365,20109,0.0002149254287360236,-0.002560071414336562,-0.20659136772155762,0.004546554293483496,0.003403209615498781,-0.028435101732611656,0,0,-1000,5,4,-28,-2,2,-152,604100,604.0999755859375,0.0,1500.0
14:11:10.433,AUTO,-35.3632623,149.1652365,20109,0.0002149254287360236,-0.002560071414336562,-0.20659136772155762,0.004546554293483496,0.003403209615498781,-0.028435101732611656,0,0,-1000,5,4,-28,-2,2,-152,604100,604.0999755859375,0.0,1500.0
14:11:10.634,AUTO,-35.3632623,149.1652365,20109,0.0002149254287360236,-0.002560071414336562,-0.20659136772155762,0.004546554293483496,0.003403209615498781,-0.028435101732611656,0,0,-1000,5,4,-28,-2,2,-152,604100,604.0999755859375,0.0,1500.0
14:11:10.836,AUTO,-35.3632623,149.1652365,20109,0.0002149254287360236,-0.002560071414336562,-0.20659136772155762,0.004546554293483496,0.003403209615498781,-0.028435101732611656,0,0,-1000,5,4,-28,-2,2,-152,604100,604.0999755859375,0.0,1500.0
14:11:11.039,AUTO,-35.3632623,149.1652365,22071,0.004735779482871294,0.002675266470760107,-0.24070753157138824,0.0025390004739165306,0.0027347810100764036,-0.023036662489175797,0,0,-1000,3,3,-23,0,1,-153,606070,606.0700073242188,0.0,1500.0
14:11:11.240,AUTO,-35.3632622,149.1652364,22853,0.005782329011708498,0.003909848164767027,-0.25200000405311584,0.0022825186606496572,0.002401175210252404,-0.02131291665136814,0,0,-1000,3,3,-21,0,2,-153,606850,606.8499755859375,0.0,1500.0
14:11:11.449,AUTO,-35.3632622,149.1652364,23244,0.005789688788354397,0.004035132937133312,-0.2569713294506073,-0.00027434295043349266,-0.0006168985273689032,-0.020219434052705765,0,0,-1000,0,0,-20,0,2,-153,607240,607.239990234375,0.0,1500.0
14:11:11.653,AUTO,-35.3632622,149.1652364,23244,0.005789688788354397,0.004035132937133312,-0.2569713294506073,-0.00027434295043349266,-0.0006168985273689032,-0.020219434052705765,0,0,-1000,0,0,-20,0,2,-153,607240,607.239990234375,0.0,1500.0
14:11:11.857,AUTO,-35.3632622,149.1652364,23244,0.005789688788354397,0.004035132937133312,-0.2569713294506073,-0.00027434295043349266,-0.0006168985273689032,-0.020219434052705765,0,0,-1000,0,0,-20,0,2,-153,607240,607.239990234375,0.0,1500.0
14:11:12.061,AUTO,-35.3632622,149.1652364,23244,0.005789688788354397,0.004035132937133312,-0.2569713294506073,-0.00027434295043349266,-0.0006168985273689032,-0.020219434052705765,0,0,-1000,0,0,-20,0,2,-153,607240,607.239990234375,0.0,1500.0
14:11:12.262,AUTO,-35.3632622,149.1652364,23244,0.005789688788354397,0.004035132937133312,-0.2569713294506073,-0.00027434295043349266,-0.0006168985273689032,-0.020219434052705765,0,0,-1000,0,0,-20,0,2,-153,607240,607.239990234375,0.0,1500.0
14:11:12.463,AUTO,-35.3632622,149.1652364,23244,0.005789688788354397,0.004035132937133312,-0.2569713294506073,-0.00027434295043349266,-0.0006168985273689032,-0.020219434052705765,0,0,-1000,0,0,-20,0,2,-153,607240,607.239990234375,0.0,1500.0
14:11:12.665,AUTO,-35.3632622,149.1652364,23244,0.005789688788354397,0.004035132937133312,-0.2569713294506073,-0.00027434295043349266,-0.0006168985273689032,-0.020219434052705765,0,0,-1000,0,0,-20,0,2,-153,607240,607.239990234375,0.0,1500.0
14:11:12.866,AUTO,-35.3632622,149.1652366,25591,-0.010343769565224648,0.006107197143137455,-0.2769702672958374,0.01849297620356083,0.004258656874299049,0.009257156401872635,0,0,-1004,19,5,9,-3,0,-152,609590,609.5899658203125,0.0,1500.0
14:11:13.068,AUTO,-35.3632622,149.1652365,25981,-0.0018863911973312497,0.006155537907034159,-0.2732808589935303,0.034699697047472,-0.0016842713812366128,0.018096979707479477,0,0,-1004,19,5,9,-4,0,-153,609980,609.97998046875,0.0,1500.0
14:11:13.270,AUTO,-35.3632622,149.1652365,25981,-0.0018863911973312497,0.006155537907034159,-0.2732808589935303,0.034699697047472,-0.0016842713812366128,0.018096979707479477,0,0,-1002,35,0,17,-4,0,-153,609980,609.97998046875,0.0,1500.0
14:11:13.474,AUTO,-35.3632622,149.1652365,26372,0.00608893483877182,0.005360690411180258,-0.26787105202674866,0.02655625529587269,-0.005122660659253597,0.025099318474531174,0,0,-1000,27,-4,24,-5,0,-153,610370,610.3699951171875,0.0,1500.0
14:11:13.677,AUTO,-35.3632622,149.1652365,26372,0.00608893483877182,0.005360690411180258,-0.26787105202674866,0.02655625529587269,-0.005122660659253597,0.025099318474531174,0,0,-1000,27,-4,24,-5,0,-153,610370,610.3699951171875,0.0,1500.0
14:11:13.881,AUTO,-35.3632622,149.1652365,26372,0.00608893483877182,0.005360690411180258,-0.26787105202674866,0.02655625529587269,-0.005122660659253597,0.025099318474531174,0,0,-1000,27,-4,24,-5,0,-153,610370,610.3699951171875,0.0,1500.0
14:11:14.082,AUTO,-35.3632622,149.1652365,26372,0.00608893483877182,0.005360690411180258,-0.26787105202674866,0.02655625529587269,-0.005122660659253597,0.025099318474531174,0,0,-1000,27,-4,24,-5,0,-153,610370,610.3699951171875,0.0,1500.0
14:11:14.290,AUTO,-35.3632622,149.1652365,26372,0.00608893483877182,0.005360690411180258,-0.26787105202674866,0.02655625529587269,-0.005122660659253597,0.025099318474531174,0,0,-1000,27,-4,24,-5,0,-153,610370,610.3699951171875,0.0,1500.0
14:11:14.493,AUTO,-35.3632622,149.1652365,26372,0.00608893483877182,0.005360690411180258,-0.26787105202674866,0.02655625529587269,-0.005122660659253597,0.025099318474531174,0,0,-1000,27,-4,24,-5,0,-153,610370,610.3699951171875,0.0,1500.0
14:11:14.700,AUTO,-35.3632622,149.1652365,26372,0.00608893483877182,0.005360690411180258,-0.26787105202674866,0.02655625529587269,-0.005122660659253597,0.025099318474531174,0,0,-1000,27,-4,24,-5,0,-153,610370,610.3699951171875,0.0,1500.0
14:11:14.901,AUTO,-35.3632624,149.1652368,28567,0.007438363041728735,0.0017527022864669561,-0.23368331789970398,-0.007821226492524147,-0.0014992498327046633,0.021502379328012466,1,0,-1001,-7,0,21,-2,9,-152,612560,612.5599975585938,0.0,1500.0
14:11:15.103,AUTO,-35.3632624,149.165237,28957,0.005049890372902155,0.0014581779250875115,-0.22837533056735992,-0.005533779505640268,-0.0009127008379437029,0.021827440708875656,1,-1,-1000,-4,0,21,-1,10,-152,612950,612.9500122070312,0.0,1500.0
14:11:15.305,AUTO,-35.3632624,149.1652372,29347,0.003232118207961321,0.001392453908920288,-0.22328484058380127,-0.0069326357915997505,0.0006880155415274203,0.021294131875038147,0,-1,-1000,-5,1,21,0,9,-152,613340,613.3399658203125,0.0,1500.0
14:11:15.508,AUTO,-35.3632624,149.1652372,29347,0.003232118207961321,0.001392453908920288,-0.22328484058380127,-0.0069326357915997505,0.0006880155415274203,0.021294131875038147,0,-1,-1000,-5,1,21,0,9,-152,613340,613.3399658203125,0.0,1500.0
14:11:15.709,AUTO,-35.3632624,149.1652372,29347,0.003232118207961321,0.001392453908920288,-0.22328484058380127,-0.0069326357915997505,0.0006880155415274203,0.021294131875038147,0,-1,-1000,-5,1,21,0,9,-152,613340,613.3399658203125,0.0,1500.0
14:11:15.915,AUTO,-35.3632624,149.1652372,29347,0.003232118207961321,0.001392453908920288,-0.22328484058380127,-0.0069326357915997505,0.0006880155415274203,0.021294131875038147,0,-1,-1000,-5,1,21,0,9,-152,613340,613.3399658203125,0.0,1500.0
14:11:16.116,AUTO,-35.3632624,149.1652372,29347,0.003232118207961321,0.001392453908920288,-0.22328484058380127,-0.0069326357915997505,0.0006880155415274203,0.021294131875038147,0,-1,-1000,-5,1,21,0,9,-152,613340,613.3399658203125,0.0,1500.0
14:11:16.319,AUTO,-35.3632624,149.1652372,29347,0.003232118207961321,0.001392453908920288,-0.22328484058380127,-0.0069326357915997505,0.0006880155415274203,0.021294131875038147,0,-1,-1000,-5,1,21,0,9,-152,613340,613.3399658203125,0.0,1500.0
14:11:16.527,AUTO,-35.3632624,149.1652372,29347,0.003232118207961321,0.001392453908920288,-0.22328484058380127,-0.0069326357915997505,0.0006880155415274203,0.021294131875038147,0,-1,-1000,-5,1,21,0,9,-152,613340,613.3399658203125,0.0,1500.0
14:11:16.731,AUTO,-35.3632624,149.1652372,29347,0.003232118207961321,0.001392453908920288,-0.22328484058380127,-0.0069326357915997505,0.0006880155415274203,0.021294131875038147,0,-1,-1000,-5,1,21,0,9,-152,613340,613.3399658203125,0.0,1500.0
14:11:16.933,AUTO,-35.3632624,149.165238,31444,-0.0005091605125926435,0.0012304914416745305,-0.19852511584758759,0.002715611830353737,0.0007626737933605909,0.017463533207774162,0,0,-1000,3,1,17,0,4,-153,615440,615.4400024414062,0.0,1500.0
14:11:17.135,AUTO,-35.3632624,149.1652381,32225,-0.0001931910665007308,0.0009022961603477597,-0.19058986008167267,0.0030196569859981537,-0.0009197322651743889,0.014606529846787453,0,0,-1001,3,0,14,0,2,-153,616220,616.219970703125,0.0,1500.0
14:11:17.341,AUTO,-35.3632624,149.1652381,32615,0.00045131941442377865,0.0008542162249796093,-0.18689943850040436,0.0047914087772369385,-0.0005079360562376678,0.01403325330466032,0,0,-1001,5,0,13,0,2,-153,616610,616.6099853515625,0.0,1500.0
14:11:17.543,AUTO,-35.3632624,149.1652381,32615,0.00045131941442377865,0.0008542162249796093,-0.18689943850040436,0.0047914087772369385,-0.0005079360562376678,0.01403325330466032,0,0,-1001,5,0,13,0,2,-153,616610,616.6099853515625,0.0,1500.0
14:11:17.746,AUTO,-35.3632624,149.1652381,32615,0.00045131941442377865,0.0008542162249796093,-0.18689943850040436,0.0047914087772369385,-0.0005079360562376678,0.01403325330466032,0,0,-1001,5,0,13,0,2,-153,616610,616.6099853515625,0.0,1500.0
14:11:17.947,AUTO,-35.3632624,149.1652381,32615,0.00045131941442377865,0.0008542162249796093,-0.18689943850040436,0.0047914087772369385,-0.0005079360562376678,0.01403325330466032,0,0,-1001,5,0,13,0,2,-153,616610,616.6099853515625,0.0,1500.0
14:11:18.154,AUTO,-35.3632624,149.1652381,32615,0.00045131941442377865,0.0008542162249796093,-0.18689943850040436,0.0047914087772369385,-0.0005079360562376678,0.01403325330466032,0,0,-1001,5,0,13,0,2,-153,616610,616.6099853515625,0.0,1500.0
14:11:18.358,AUTO,-35.3632624,149.1652381,32615,0.00045131941442377865,0.0008542162249796093,-0.18689943850040436,0.0047914087772369385,-0.0005079360562376678,0.01403325330466032,0,0,-1001,5,0,13,0,2,-153,616610,616.6099853515625,0.0,1500.0
14:11:18.560,AUTO,-35.3632624,149.1652381,32615,0.00045131941442377865,0.0008542162249796093,-0.18689943850040436,0.0047914087772369385,-0.0005079360562376678,0.01403325330466032,0,0,-1001,5,0,13,0,2,-153,616610,616.6099853515625,0.0,1500.0
14:11:18.762,AUTO,-35.3632624,149.1652381,32615,0.00045131941442377865,0.0008542162249796093,-0.18689943850040436,0.0047914087772369385,-0.0005079360562376678,0.01403325330466032,0,0,-1001,5,0,13,0,2,-153,616610,616.6099853515625,0.0,1500.0
14:11:18.965,AUTO,-35.3632623,149.165238,34809,0.0024573509581387043,0.0008152706432156265,-0.1680547595024109,0.0031736523378640413,-0.001155189354903996,0.013791718520224094,0,0,-1001,3,0,13,0,0,-153,618800,618.7999877929688,0.0,1500.0
14:11:19.169,AUTO,-35.3632623,149.165238,35199,0.002522651804611087,0.0007037583854980767,-0.1650228649377823,0.0035738444421440363,0.0006229702848941088,0.011515655554831028,0,0,-1000,4,1,11,0,0,-153,619190,619.1900024414062,0.0,1500.0
14:11:19.371,AUTO,-35.3632623,149.165238,35590,0.0022300214041024446,0.0009380578994750977,-0.16214163601398468,-0.0048811063170433044,0.001192077761515975,0.010918265208601952,0,0,-999,-3,2,11,0,0,-153,619590,619.5899658203125,0.0,1500.0
14:11:19.576,AUTO,-35.3632623,149.165238,35590,0.0022300214041024446,0.0009380578994750977,-0.16214163601398468,-0.0048811063170433044,0.001192077761515975,0.010918265208601952,0,0,-999,-3,2,11,0,0,-153,619590,619.5899658203125,0.0,1500.0
14:11:19.779,AUTO,-35.3632623,149.165238,35590,0.0022300214041024446,0.0009380578994750977,-0.16214163601398468,-0.0048811063170433044,0.001192077761515975,0.010918265208601952,0,0,-999,-3,2,11,0,0,-153,619590,619.5899658203125,0.0,1500.0
14:11:19.984,AUTO,-35.3632623,149.165238,35590,0.0022300214041024446,0.0009380578994750977,-0.16214163601398468,-0.0048811063170433044,0.001192077761515975,0.010918265208601952,0,0,-999,-3,2,11,0,0,-153,619590,619.5899658203125,0.0,1500.0
14:11:20.188,AUTO,-35.3632623,149.165238,35590,0.0022300214041024446,0.0009380578994750977,-0.16214163601398468,-0.0048811063170433044,0.001192077761515975,0.010918265208601952,0,0,-999,-3,2,11,0,0,-153,619590,619.5899658203125,0.0,1500.0
14:11:20.390,AUTO,-35.3632623,149.165238,35590,0.0022300214041024446,0.0009380578994750977,-0.16214163601398468,-0.0048811063170433044,0.001192077761515975,0.010918265208601952,0,0,-999,-3,2,11,0,0,-153,619590,619.5899658203125,0.0,1500.0
14:11:20.591,AUTO,-35.3632623,149.165238,35590,0.0022300214041024446,0.0009380578994750977,-0.16214163601398468,-0.0048811063170433044,0.001192077761515975,0.010918265208601952,0,0,-999,-3,2,11,0,0,-153,619590,619.5899658203125,0.0,1500.0
14:11:20.795,AUTO,-35.3632622,149.1652379,36761,0.0019924778025597334,0.0010977932251989841,-0.15424202382564545,-0.003550211200490594,0.00013800861779600382,0.009667578153312206,0,0,-999,-3,2,11,0,0,-153,620760,619.5899658203125,0.0,1500.0
14:11:20.997,AUTO,-35.3632622,149.1652378,37935,0.0027316133491694927,0.0009569787653163075,-0.1470852643251419,0.001958545297384262,0.0007983541581779718,0.0120568061247468,0,0,-1000,3,1,12,0,0,-153,621930,621.9299926757812,0.0,1500.0
14:11:21.198,AUTO,-35.3632622,149.1652377,38325,0.002923860214650631,0.001032745698466897,-0.14477479457855225,0.0014207072090357542,0.002115916460752487,0.011574149131774902,0,0,-999,2,3,11,0,0,-153,622320,622.3200073242188,0.0,1500.0
14:11:21.400,AUTO,-35.3632622,149.1652377,38716,0.0033069292549043894,0.001386868068948388,-0.14255693554878235,-0.0011175855761393905,0.0006703687831759453,0.007798445876687765,0,0,-1000,0,1,8,0,0,-153,622710,622.7099609375,0.0,1500.0
14:11:21.603,AUTO,-35.3632622,149.1652377,38716,0.0033069292549043894,0.001386868068948388,-0.14255693554878235,-0.0011175855761393905,0.0006703687831759453,0.007798445876687765,0,0,-1000,0,1,8,0,0,-153,622710,622.7099609375,0.0,1500.0
14:11:21.805,AUTO,-35.3632622,149.1652377,38716,0.0033069292549043894,0.001386868068948388,-0.14255693554878235,-0.0011175855761393905,0.0006703687831759453,0.007798445876687765,0,0,-1000,0,1,8,0,0,-153,622710,622.7099609375,0.0,1500.0
14:11:22.009,AUTO,-35.3632622,149.1652377,38716,0.0033069292549043894,0.001386868068948388,-0.14255693554878235,-0.0011175855761393905,0.0006703687831759453,0.007798445876687765,0,0,-1000,0,1,8,0,0,-153,622710,622.7099609375,0.0,1500.0
14:11:22.211,AUTO,-35.3632622,149.1652377,38716,0.0033069292549043894,0.001386868068948388,-0.14255693554878235,-0.0011175855761393905,0.0006703687831759453,0.007798445876687765,0,0,-1000,0,1,8,0,0,-153,622710,622.7099609375,0.0,1500.0
14:11:22.416,AUTO,-35.3632622,149.1652377,38716,0.0033069292549043894,0.001386868068948388,-0.14255693554878235,-0.0011175855761393905,0.0006703687831759453,0.007798445876687765,0,0,-1000,0,1,8,0,0,-153,622710,622.7099609375,0.0,1500.0
14:11:22.620,AUTO,-35.3632622,149.1652377,38716,0.0033069292549043894,0.001386868068948388,-0.14255693554878235,-0.0011175855761393905,0.0006703687831759453,0.007798445876687765,0,0,-1000,0,1,8,0,0,-153,622710,622.7099609375,0.0,1500.0
14:11:22.824,AUTO,-35.3632622,149.1652377,38716,0.0033069292549043894,0.001386868068948388,-0.14255693554878235,-0.0011175855761393905,0.0006703687831759453,0.007798445876687765,0,0,-1000,0,1,8,0,0,-153,622710,622.7099609375,0.0,1500.0
14:11:23.028,AUTO,-35.3632621,149.1652375,40663,0.002793277148157358,0.0015521530294790864,-0.1328689157962799,-0.0003486380446702242,-0.0008304804796352983,0.007459452375769615,0,0,-1000,0,0,7,0,1,-153,624660,624.6599731445312,0.0,1500.0
14:11:23.229,AUTO,-35.3632621,149.1652375,41444,0.0025037347804754972,0.0014790522400289774,-0.12941239774227142,-0.002067466266453266,0.0006086294306442142,0.008078034035861492,0,0,-999,-1,1,8,0,1,-153,625440,625.4400024414062,0.0,1500.0
14:11:23.430,AUTO,-35.3632621,149.1652375,41833,0.002720777178183198,0.00141005904879421,-0.1277073174715042,0.0068895770236849785,0.0013760775327682495,0.007808040827512741,0,0,-1000,8,2,7,0,1,-153,625830,625.8299560546875,0.0,1500.0
14:11:23.633,AUTO,-35.3632621,149.1652375,41833,0.002720777178183198,0.00141005904879421,-0.1277073174715042,0.0068895770236849785,0.0013760775327682495,0.007808040827512741,0,0,-1000,8,2,7,0,1,-153,625830,625.8299560546875,0.0,1500.0
14:11:23.842,AUTO,-35.3632621,149.1652375,41833,0.002720777178183198,0.00141005904879421,-0.1277073174715042,0.0068895770236849785,0.0013760775327682495,0.007808040827512741,0,0,-1000,8,2,7,0,1,-153,625830,625.8299560546875,0.0,1500.0
14:11:24.044,AUTO,-35.3632621,149.1652375,41833,0.002720777178183198,0.00141005904879421,-0.1277073174715042,0.0068895770236849785,0.0013760775327682495,0.007808040827512741,0,0,-1000,8,2,7,0,1,-153,625830,625.8299560546875,0.0,1500.0
14:11:24.245,AUTO,-35.3632621,149.1652375,41833,0.002720777178183198,0.00141005904879421,-0.1277073174715042,0.0068895770236849785,0.0013760775327682495,0.007808040827512741,0,0,-1000,8,2,7,0,1,-153,625830,625.8299560546875,0.0,1500.0
14:11:24.454,AUTO,-35.3632621,149.1652375,41833,0.002720777178183198,0.00141005904879421,-0.1277073174715042,0.0068895770236849785,0.0013760775327682495,0.007808040827512741,0,0,-1000,8,2,7,0,1,-153,625830,625.8299560546875,0.0,1500.0
14:11:24.657,AUTO,-35.3632621,149.1652375,41833,0.002720777178183198,0.00141005904879421,-0.1277073174715042,0.0068895770236849785,0.0013760775327682495,0.007808040827512741,0,0,-1000,8,2,7,0,1,-153,625830,625.8299560546875,0.0,1500.0
14:11:24.861,AUTO,-35.3632621,149.1652375,41833,0.002720777178183198,0.00141005904879421,-0.1277073174715042,0.0068895770236849785,0.0013760775327682495,0.007808040827512741,0,0,-1000,8,2,7,0,1,-153,625830,625.8299560546875,0.0,1500.0
14:11:25.065,AUTO,-35.363262,149.1652374,44174,0.0023182660806924105,0.0013441803166642785,-0.11820146441459656,0.0006933644181117415,0.00033338775392621756,0.003573312424123287,0,0,-1000,2,1,3,-1,1,-153,628170,628.1699829101562,0.0,1500.0
14:11:25.267,AUTO,-35.363262,149.1652374,44564,0.00236648041754961,0.0013367856154218316,-0.11665783077478409,-0.0012034307001158595,0.00029697909485548735,0.007141317706555128,0,0,-999,0,1,7,-1,1,-153,628560,628.5599975585938,0.0,1500.0
14:11:25.469,AUTO,-35.363262,149.1652374,44955,0.002474391832947731,0.001340815331786871,-0.11534205824136734,-0.002296697348356247,0.000238636857829988,0.006285935174673796,0,0,-999,-1,1,6,-1,1,-153,628950,628.9500122070312,0.0,1500.0
14:11:25.670,AUTO,-35.363262,149.1652374,44955,0.002474391832947731,0.001340815331786871,-0.11534205824136734,-0.002296697348356247,0.000238636857829988,0.006285935174673796,0,0,-999,-1,1,6,-1,1,-153,628950,628.9500122070312,0.0,1500.0
14:11:25.878,AUTO,-35.363262,149.1652374,44955,0.002474391832947731,0.001340815331786871,-0.11534205824136734,-0.002296697348356247,0.000238636857829988,0.006285935174673796,0,0,-999,-1,1,6,-1,1,-153,628950,628.9500122070312,0.0,1500.0
14:11:26.080,AUTO,-35.363262,149.1652374,44955,0.002474391832947731,0.001340815331786871,-0.11534205824136734,-0.002296697348356247,0.000238636857829988,0.006285935174673796,0,0,-999,-1,1,6,-1,1,-153,628950,628.9500122070312,0.0,1500.0
14:11:26.285,AUTO,-35.363262,149.1652374,44955,0.002474391832947731,0.001340815331786871,-0.11534205824136734,-0.002296697348356247,0.000238636857829988,0.006285935174673796,0,0,-999,-1,1,6,-1,1,-153,628950,628.9500122070312,0.0,1500.0
14:11:26.487,AUTO,-35.363262,149.1652374,44955,0.002474391832947731,0.001340815331786871,-0.11534205824136734,-0.002296697348356247,0.000238636857829988,0.006285935174673796,0,0,-999,-1,1,6,-1,1,-153,628950,628.9500122070312,0.0,1500.0
14:11:26.692,AUTO,-35.363262,149.1652374,44955,0.002474391832947731,0.001340815331786871,-0.11534205824136734,-0.002296697348356247,0.000238636857829988,0.006285935174673796,0,0,-999,-1,1,6,-1,1,-153,628950,628.9500122070312,0.0,1500.0
14:11:26.895,AUTO,-35.363262,149.1652374,46515,0.002599049359560013,0.0010608530137687922,-0.10952076315879822,0.002937490586191416,0.0007535724435001612,0.006474575027823448,0,0,-999,1,2,8,-1,1,-153,630510,630.1199951171875,0.0,1500.0
14:11:27.098,AUTO,-35.363262,149.1652373,47690,0.0020450518932193518,0.0012727315770462155,-0.10482720285654068,-0.01186816580593586,0.010804378427565098,0.030245907604694366,0,0,-993,-10,11,30,-1,1,-152,631690,631.6900024414062,0.0,1500.0
14:11:27.300,AUTO,-35.363262,149.1652373,47690,0.0020450518932193518,0.0012727315770462155,-0.10482720285654068,-0.01186816580593586,0.010804378427565098,0.030245907604694366,0,0,-993,-10,11,30,-1,1,-152,631690,631.6900024414062,0.0,1500.0
14:11:27.502,AUTO,-35.363262,149.1652373,48067,-0.025517424568533897,0.028781333938241005,-0.04430275037884712,-0.2114611119031906,0.1874352991580963,0.48231709003448486,-1,-2,-932,-210,188,482,-3,-1,-141,632060,632.0599975585938,0.0,1500.0
14:11:27.704,AUTO,-35.363262,149.1652373,48067,-0.025517424568533897,0.028781333938241005,-0.04430275037884712,-0.2114611119031906,0.1874352991580963,0.48231709003448486,-1,-2,-932,-210,188,482,-3,-1,-141,632060,632.0599975585938,0.0,1500.0
14:11:27.905,AUTO,-35.363262,149.1652373,48067,-0.025517424568533897,0.028781333938241005,-0.04430275037884712,-0.2114611119031906,0.1874352991580963,0.48231709003448486,-1,-2,-932,-210,188,482,-3,-1,-141,632060,632.0599975585938,0.0,1500.0
14:11:28.107,AUTO,-35.363262,149.1652373,48067,-0.025517424568533897,0.028781333938241005,-0.04430275037884712,-0.2114611119031906,0.1874352991580963,0.48231709003448486,-1,-2,-932,-210,188,482,-3,-1,-141,632060,632.0599975585938,0.0,1500.0
14:11:28.311,AUTO,-35.363262,149.1652373,48067,-0.025517424568533897,0.028781333938241005,-0.04430275037884712,-0.2114611119031906,0.1874352991580963,0.48231709003448486,-1,-2,-932,-210,188,482,-3,-1,-141,632060,632.0599975585938,0.0,1500.0
14:11:28.515,AUTO,-35.363262,149.1652373,48067,-0.025517424568533897,0.028781333938241005,-0.04430275037884712,-0.2114611119031906,0.1874352991580963,0.48231709003448486,-1,-2,-932,-210,188,482,-3,-1,-141,632060,632.0599975585938,0.0,1500.0
14:11:28.716,AUTO,-35.363262,149.1652373,48067,-0.025517424568533897,0.028781333938241005,-0.04430275037884712,-0.2114611119031906,0.1874352991580963,0.48231709003448486,-1,-2,-932,-210,188,482,-3,-1,-141,632060,632.0599975585938,0.0,1500.0
14:11:28.924,AUTO,-35.3632637,149.1652349,49010,-0.007915313355624676,-0.021702460944652557,0.2801831364631653,0.15125849843025208,-0.14702069759368896,0.08056976646184921,4,12,-945,152,-145,80,-30,-38,-69,633010,633.010009765625,0.0,1500.0
14:11:29.126,ALT_HOLD,-35.3632648,149.1652326,49425,0.03704841062426567,-0.05399477854371071,0.2820769250392914,0.25842756032943726,0.00961995031684637,-0.02185899019241333,0,24,-970,265,11,-21,-2,-10,-40,633420,633.4199829101562,0.0,1500.0
14:11:29.329,ALT_HOLD,-35.3632648,149.1652324,49517,0.015452589839696884,-0.012283742427825928,0.2663424015045166,0.29657405614852905,0.3443596661090851,-0.08531927317380905,0,28,-977,301,344,-84,5,0,-32,633510,633.510009765625,0.0,1500.0
14:11:29.531,ALT_HOLD,-35.3632648,149.1652324,49517,0.015452589839696884,-0.012283742427825928,0.2663424015045166,0.29657405614852905,0.3443596661090851,-0.08531927317380905,0,28,-977,301,344,-84,5,0,-32,633510,633.510009765625,0.0,1500.0
14:11:29.733,ALT_HOLD,-35.3632648,149.1652324,49517,0.015452589839696884,-0.012283742427825928,0.2663424015045166,0.29657405614852905,0.3443596661090851,-0.08531927317380905,0,28,-977,301,344,-84,5,0,-32,633510,633.510009765625,0.0,1500.0
14:11:29.948,ALT_HOLD,-35.3632648,149.1652324,49517,0.015452589839696884,-0.012283742427825928,0.2663424015045166,0.29657405614852905,0.3443596661090851,-0.08531927317380905,0,28,-977,301,344,-84,5,0,-32,633510,633.510009765625,0.0,1500.0
14:11:30.152,ALT_HOLD,-35.3632648,149.1652324,49517,0.015452589839696884,-0.012283742427825928,0.2663424015045166,0.29657405614852905,0.3443596661090851,-0.08531927317380905,0,28,-977,301,344,-84,5,0,-32,633510,633.510009765625,0.0,1500.0
14:11:30.366,ALT_HOLD,-35.3632648,149.1652324,49517,0.015452589839696884,-0.012283742427825928,0.2663424015045166,0.29657405614852905,0.3443596661090851,-0.08531927317380905,0,28,-977,301,344,-84,5,0,-32,633510,633.510009765625,0.0,1500.0
14:11:30.568,ALT_HOLD,-35.3632648,149.1652324,49517,0.015452589839696884,-0.012283742427825928,0.2663424015045166,0.29657405614852905,0.3443596661090851,-0.08531927317380905,0,28,-977,301,344,-84,5,0,-32,633510,633.510009765625,0.0,1500.0
14:11:30.771,ALT_HOLD,-35.3632648,149.1652324,49517,0.015452589839696884,-0.012283742427825928,0.2663424015045166,0.29657405614852905,0.3443596661090851,-0.08531927317380905,0,28,-977,301,344,-84,5,0,-32,633510,633.510009765625,0.0,1500.0
14:11:30.974,ALT_HOLD,-35.3632648,149.1652324,49517,0.015452589839696884,-0.012283742427825928,0.2663424015045166,0.29657405614852905,0.3443596661090851,-0.08531927317380905,0,28,-977,301,344,-84,5,0,-32,633510,633.510009765625,0.0,1500.0
14:11:31.180,ALT_HOLD,-35.3632648,149.1652324,49517,0.015452589839696884,-0.012283742427825928,0.2663424015045166,0.29657405614852905,0.3443596661090851,-0.08531927317380905,0,28,-977,301,344,-84,5,0,-32,633510,633.510009765625,0.0,1500.0
14:11:31.384,ALT_HOLD,-35.3632664,149.1652277,48957,0.00673729507252574,0.026395535096526146,0.2119223028421402,1.3747657537460327,-0.02569570392370224,-0.023084746673703194,0,-15,-915,171,-23,-35,-30,-49,122,632950,632.9500122070312,0.0,1500.0
14:11:31.587,ALT_HOLD,-35.3632689,149.1652231,47882,-0.020088957622647285,0.014889546670019627,0.1930205076932907,-0.16232560575008392,-0.01214488036930561,-0.013481823727488518,2,115,-981,1338,0,-5,-43,-47,144,631880,631.8800048828125,0.0,1500.0
14:11:31.810,ALT_HOLD,-35.3632689,149.1652231,47882,-0.020088957622647285,0.014889546670019627,0.1930205076932907,-0.16232560575008392,-0.01214488036930561,-0.013481823727488518,6,71,-1024,-143,-10,-13,-43,-47,144,631880,631.8800048828125,0.0,1500.0
14:11:32.013,ALT_HOLD,-35.3632689,149.1652231,47882,-0.020088957622647285,0.014889546670019627,0.1930205076932907,-0.16232560575008392,-0.01214488036930561,-0.013481823727488518,6,71,-1024,-143,-10,-13,-43,-47,144,631880,631.8800048828125,0.0,1500.0
14:11:32.217,ALT_HOLD,-35.3632689,149.1652231,47882,-0.020088957622647285,0.014889546670019627,0.1930205076932907,-0.16232560575008392,-0.01214488036930561,-0.013481823727488518,6,71,-1024,-143,-10,-13,-43,-47,144,631880,631.8800048828125,0.0,1500.0
14:11:32.419,ALT_HOLD,-35.3632689,149.1652231,47882,-0.020088957622647285,0.014889546670019627,0.1930205076932907,-0.16232560575008392,-0.01214488036930561,-0.013481823727488518,6,71,-1024,-143,-10,-13,-43,-47,144,631880,631.8800048828125,0.0,1500.0
14:11:32.620,ALT_HOLD,-35.3632689,149.1652231,47882,-0.020088957622647285,0.014889546670019627,0.1930205076932907,-0.16232560575008392,-0.01214488036930561,-0.013481823727488518,6,71,-1024,-143,-10,-13,-43,-47,144,631880,631.8800048828125,0.0,1500.0
14:11:32.828,ALT_HOLD,-35.3632689,149.1652231,47882,-0.020088957622647285,0.014889546670019627,0.1930205076932907,-0.16232560575008392,-0.01214488036930561,-0.013481823727488518,6,71,-1024,-143,-10,-13,-43,-47,144,631880,631.8800048828125,0.0,1500.0
14:11:33.031,ALT_HOLD,-35.3632689,149.1652231,47882,-0.020088957622647285,0.014889546670019627,0.1930205076932907,-0.16232560575008392,-0.01214488036930561,-0.013481823727488518,6,71,-1024,-143,-10,-13,-43,-47,144,631880,631.8800048828125,0.0,1500.0
14:11:33.238,ALT_HOLD,-35.3632689,149.1652231,47882,-0.020088957622647285,0.014889546670019627,0.1930205076932907,-0.16232560575008392,-0.01214488036930561,-0.013481823727488518,6,71,-1024,-143,-10,-13,-43,-47,144,631880,631.8800048828125,0.0,1500.0
14:11:33.441,ALT_HOLD,-35.363277,149.1652138,44976,-0.015325582586228848,0.0036428351886570454,0.15384787321090698,-1.982965111732483,0.007028568536043167,-0.0449257418513298,5,-58,-991,-1982,8,-44,-53,-20,161,628970,628.969970703125,0.0,1500.0
14:11:33.655,ALT_HOLD,-35.363277,149.1652138,44976,-0.015325582586228848,0.0036428351886570454,0.15384787321090698,-1.982965111732483,0.007028568536043167,-0.0449257418513298,5,-58,-991,-1982,8,-44,-53,-20,161,628970,628.969970703125,0.0,1500.0
14:11:33.860,ALT_HOLD,-35.363277,149.1652138,44976,-0.015325582586228848,0.0036428351886570454,0.15384787321090698,-1.982965111732483,0.007028568536043167,-0.0449257418513298,5,-58,-991,-1982,8,-44,-53,-20,161,628970,628.969970703125,0.0,1500.0
14:11:34.061,ALT_HOLD,-35.363277,149.1652138,44976,-0.015325582586228848,0.0036428351886570454,0.15384787321090698,-1.982965111732483,0.007028568536043167,-0.0449257418513298,5,-58,-991,-1982,8,-44,-53,-20,161,628970,628.969970703125,0.0,1500.0
14:11:34.262,ALT_HOLD,-35.363277,149.1652138,44976,-0.015325582586228848,0.0036428351886570454,0.15384787321090698,-1.982965111732483,0.007028568536043167,-0.0449257418513298,5,-58,-991,-1982,8,-44,-53,-20,161,628970,628.969970703125,0.0,1500.0
14:11:34.464,ALT_HOLD,-35.363277,149.1652138,44976,-0.015325582586228848,0.0036428351886570454,0.15384787321090698,-1.982965111732483,0.007028568536043167,-0.0449257418513298,5,-58,-991,-1982,8,-44,-53,-20,161,628970,628.969970703125,0.0,1500.0
14:11:34.666,ALT_HOLD,-35.363277,149.1652138,44976,-0.015325582586228848,0.0036428351886570454,0.15384787321090698,-1.982965111732483,0.007028568536043167,-0.0449257418513298,5,-58,-991,-1982,8,-44,-53,-20,161,628970,628.969970703125,0.0,1500.0
14:11:34.870,ALT_HOLD,-35.363277,149.1652138,44976,-0.015325582586228848,0.0036428351886570454,0.15384787321090698,-1.982965111732483,0.007028568536043167,-0.0449257418513298,5,-58,-991,-1982,8,-44,-53,-20,161,628970,628.969970703125,0.0,1500.0
14:11:35.073,AUTO,-35.3632844,149.1652072,41759,0.03605802357196808,-0.04062950983643532,0.12280405312776566,-1.1189459562301636,0.008315948769450188,-0.02266925759613514,3,-84,-1103,-1134,9,-22,-39,-5,167,625750,625.75,0.0,1500.0
14:11:35.276,AUTO,-35.3632851,149.1652063,41359,0.041258811950683594,-0.03298449516296387,0.12339796870946884,1.2790952920913696,0.015171032398939133,0.003197894897311926,4,38,-1263,1273,16,3,-29,0,133,625350,625.3499755859375,0.0,1500.0
14:11:35.480,AUTO,-35.3632851,149.1652063,41359,0.041258811950683594,-0.03298449516296387,0.12339796870946884,1.2790952920913696,0.015171032398939133,0.003197894897311926,4,38,-1263,1273,16,3,-29,0,133,625350,625.3499755859375,0.0,1500.0
14:11:35.682,AUTO,-35.3632851,149.1652063,41359,0.041258811950683594,-0.03298449516296387,0.12339796870946884,1.2790952920913696,0.015171032398939133,0.003197894897311926,4,38,-1263,1273,16,3,-29,0,133,625350,625.3499755859375,0.0,1500.0
14:11:35.885,AUTO,-35.3632851,149.1652063,41359,0.041258811950683594,-0.03298449516296387,0.12339796870946884,1.2790952920913696,0.015171032398939133,0.003197894897311926,4,38,-1263,1273,16,3,-29,0,133,625350,625.3499755859375,0.0,1500.0
14:11:36.092,AUTO,-35.3632851,149.1652063,41359,0.041258811950683594,-0.03298449516296387,0.12339796870946884,1.2790952920913696,0.015171032398939133,0.003197894897311926,4,38,-1263,1273,16,3,-29,0,133,625350,625.3499755859375,0.0,1500.0
14:11:36.303,AUTO,-35.3632851,149.1652063,41359,0.041258811950683594,-0.03298449516296387,0.12339796870946884,1.2790952920913696,0.015171032398939133,0.003197894897311926,4,38,-1263,1273,16,3,-29,0,133,625350,625.3499755859375,0.0,1500.0
14:11:36.507,AUTO,-35.3632851,149.1652063,41359,0.041258811950683594,-0.03298449516296387,0.12339796870946884,1.2790952920913696,0.015171032398939133,0.003197894897311926,4,38,-1263,1273,16,3,-29,0,133,625350,625.3499755859375,0.0,1500.0
14:11:36.711,AUTO,-35.3632851,149.1652063,41359,0.041258811950683594,-0.03298449516296387,0.12339796870946884,1.2790952920913696,0.015171032398939133,0.003197894897311926,4,38,-1263,1273,16,3,-29,0,133,625350,625.3499755859375,0.0,1500.0
14:11:36.914,AUTO,-35.3632851,149.1652063,41359,0.041258811950683594,-0.03298449516296387,0.12339796870946884,1.2790952920913696,0.015171032398939133,0.003197894897311926,4,38,-1263,1273,16,3,-29,0,133,625350,625.3499755859375,0.0,1500.0
14:11:37.121,AUTO,-35.3632851,149.1652063,41359,0.041258811950683594,-0.03298449516296387,0.12339796870946884,1.2790952920913696,0.015171032398939133,0.003197894897311926,4,38,-1263,1273,16,3,-29,0,133,625350,625.3499755859375,0.0,1500.0
14:11:37.326,AUTO,-35.3632869,149.1652053,40365,0.012734778225421906,-0.0049013132229447365,0.10112268477678299,0.7835399508476257,0.010720171965658665,-0.00828840583562851,3,32,-1028,769,6,-2,2,25,9,624360,624.3599853515625,0.0,1500.0
14:11:37.528,AUTO,-35.3632869,149.1652059,40348,0.007446288131177425,-0.0016633720370009542,0.09945721924304962,0.46656927466392517,0.01156600285321474,-0.013763055205345154,5,0,-1060,465,12,-13,3,23,-1,624340,624.3399658203125,0.0,1500.0
14:11:37.734,AUTO,-35.3632869,149.1652059,40348,0.007446288131177425,-0.0016633720370009542,0.09945721924304962,0.46656927466392517,0.01156600285321474,-0.013763055205345154,5,0,-1060,465,12,-13,3,23,-1,624340,624.3399658203125,0.0,1500.0
14:11:37.937,AUTO,-35.3632869,149.1652059,40348,0.007446288131177425,-0.0016633720370009542,0.09945721924304962,0.46656927466392517,0.01156600285321474,-0.013763055205345154,5,0,-1060,465,12,-13,3,23,-1,624340,624.3399658203125,0.0,1500.0
14:11:38.142,AUTO,-35.3632869,149.1652059,40348,0.007446288131177425,-0.0016633720370009542,0.09945721924304962,0.46656927466392517,0.01156600285321474,-0.013763055205345154,5,0,-1060,465,12,-13,3,23,-1,624340,624.3399658203125,0.0,1500.0
14:11:38.344,AUTO,-35.3632869,149.1652059,40348,0.007446288131177425,-0.0016633720370009542,0.09945721924304962,0.46656927466392517,0.01156600285321474,-0.013763055205345154,5,0,-1060,465,12,-13,3,23,-1,624340,624.3399658203125,0.0,1500.0
14:11:38.546,AUTO,-35.3632869,149.1652059,40348,0.007446288131177425,-0.0016633720370009542,0.09945721924304962,0.46656927466392517,0.01156600285321474,-0.013763055205345154,5,0,-1060,465,12,-13,3,23,-1,624340,624.3399658203125,0.0,1500.0
14:11:38.747,AUTO,-35.3632869,149.1652059,40348,0.007446288131177425,-0.0016633720370009542,0.09945721924304962,0.46656927466392517,0.01156600285321474,-0.013763055205345154,5,0,-1060,465,12,-13,3,23,-1,624340,624.3399658203125,0.0,1500.0
14:11:38.956,AUTO,-35.3632871,149.1652096,40707,-0.026520220562815666,0.0034253967460244894,0.08653370290994644,0.30378833413124084,0.0014471015892922878,-0.012473061680793762,5,8,-1041,307,2,-11,5,0,-58,624700,624.7000122070312,0.0,1500.0
14:11:39.157,AUTO,-35.3632872,149.1652106,41033,-0.03550959378480911,0.000979504082351923,0.08114011585712433,-0.2200455516576767,-0.00429170299321413,-0.007779371924698353,4,-14,-1039,-218,-3,-7,5,-11,-77,625030,625.0299682617188,0.0,1500.0
14:11:39.359,AUTO,-35.3632872,149.1652111,41232,-0.035927072167396545,-0.00023189833154901862,0.07814732193946838,0.0753779485821724,-0.0035281633026897907,-0.0066512469202280045,4,-14,-1039,-218,-3,-7,5,-15,-83,625230,625.22998046875,0.0,1500.0
14:11:39.560,AUTO,-35.3632872,149.1652111,41232,-0.035927072167396545,-0.00023189833154901862,0.07814732193946838,0.0753779485821724,-0.0035281633026897907,-0.0066512469202280045,3,3,-1011,79,-2,-5,5,-15,-83,625230,625.22998046875,0.0,1500.0
14:11:39.762,AUTO,-35.3632872,149.1652111,41232,-0.035927072167396545,-0.00023189833154901862,0.07814732193946838,0.0753779485821724,-0.0035281633026897907,-0.0066512469202280045,3,3,-1011,79,-2,-5,5,-15,-83,625230,625.22998046875,0.0,1500.0
14:11:39.964,AUTO,-35.3632872,149.1652111,41232,-0.035927072167396545,-0.00023189833154901862,0.07814732193946838,0.0753779485821724,-0.0035281633026897907,-0.0066512469202280045,3,3,-1011,79,-2,-5,5,-15,-83,625230,625.22998046875,0.0,1500.0
14:11:40.170,AUTO,-35.3632872,149.1652111,41232,-0.035927072167396545,-0.00023189833154901862,0.07814732193946838,0.0753779485821724,-0.0035281633026897907,-0.0066512469202280045,3,3,-1011,79,-2,-5,5,-15,-83,625230,625.22998046875,0.0,1500.0
14:11:40.371,AUTO,-35.3632872,149.1652111,41232,-0.035927072167396545,-0.00023189833154901862,0.07814732193946838,0.0753779485821724,-0.0035281633026897907,-0.0066512469202280045,3,3,-1011,79,-2,-5,5,-15,-83,625230,625.22998046875,0.0,1500.0
14:11:40.575,AUTO,-35.3632872,149.1652111,41232,-0.035927072167396545,-0.00023189833154901862,0.07814732193946838,0.0753779485821724,-0.0035281633026897907,-0.0066512469202280045,3,3,-1011,79,-2,-5,5,-15,-83,625230,625.22998046875,0.0,1500.0
14:11:40.776,AUTO,-35.3632872,149.1652111,41232,-0.035927072167396545,-0.00023189833154901862,0.07814732193946838,0.0753779485821724,-0.0035281633026897907,-0.0066512469202280045,3,3,-1011,79,-2,-5,5,-15,-83,625230,625.22998046875,0.0,1500.0
14:11:40.979,AUTO,-35.3632872,149.1652111,41232,-0.035927072167396545,-0.00023189833154901862,0.07814732193946838,0.0753779485821724,-0.0035281633026897907,-0.0066512469202280045,3,3,-1011,79,-2,-5,5,-15,-83,625230,625.22998046875,0.0,1500.0
14:11:41.180,AUTO,-35.3632877,149.1652126,42608,-0.032008808106184006,-0.006981346756219864,0.06413167715072632,-0.23513148725032806,-0.0013653880450874567,0.003139107720926404,0,-12,-996,-138,0,4,6,-38,-72,626600,626.5999755859375,0.0,1500.0
14:11:41.384,AUTO,-35.3632877,149.1652125,42796,-0.02337954007089138,-0.006140867713838816,0.06264007836580276,0.19241954386234283,0.002812744351103902,-0.00011157453991472721,-1,14,-999,197,3,0,6,-38,-72,626790,626.7899780273438,0.0,1500.0
14:11:41.587,AUTO,-35.3632877,149.1652125,42796,-0.02337954007089138,-0.006140867713838816,0.06264007836580276,0.19241954386234283,0.002812744351103902,-0.00011157453991472721,-1,14,-999,197,3,0,6,-38,-72,626790,626.7899780273438,0.0,1500.0
14:11:41.788,AUTO,-35.3632877,149.1652125,42796,-0.02337954007089138,-0.006140867713838816,0.06264007836580276,0.19241954386234283,0.002812744351103902,-0.00011157453991472721,-1,14,-999,197,3,0,6,-38,-72,626790,626.7899780273438,0.0,1500.0
14:11:41.994,AUTO,-35.3632877,149.1652125,42796,-0.02337954007089138,-0.006140867713838816,0.06264007836580276,0.19241954386234283,0.002812744351103902,-0.00011157453991472721,-1,14,-999,197,3,0,6,-38,-72,626790,626.7899780273438,0.0,1500.0
14:11:42.196,AUTO,-35.3632877,149.1652125,42796,-0.02337954007089138,-0.006140867713838816,0.06264007836580276,0.19241954386234283,0.002812744351103902,-0.00011157453991472721,-1,14,-999,197,3,0,6,-38,-72,626790,626.7899780273438,0.0,1500.0
14:11:42.399,AUTO,-35.3632877,149.1652125,42796,-0.02337954007089138,-0.006140867713838816,0.06264007836580276,0.19241954386234283,0.002812744351103902,-0.00011157453991472721,-1,14,-999,197,3,0,6,-38,-72,626790,626.7899780273438,0.0,1500.0
14:11:42.603,AUTO,-35.3632877,149.1652125,42796,-0.02337954007089138,-0.006140867713838816,0.06264007836580276,0.19241954386234283,0.002812744351103902,-0.00011157453991472721,-1,14,-999,197,3,0,6,-38,-72,626790,626.7899780273438,0.0,1500.0
14:11:42.805,AUTO,-35.3632877,149.1652125,42796,-0.02337954007089138,-0.006140867713838816,0.06264007836580276,0.19241954386234283,0.002812744351103902,-0.00011157453991472721,-1,14,-999,197,3,0,6,-38,-72,626790,626.7899780273438,0.0,1500.0
14:11:43.008,AUTO,-35.3632875,149.1652117,43544,-0.015171797946095467,-0.005282815080136061,0.05639830604195595,0.1979946345090866,0.001243358594365418,-5.246984073892236e-05,-2,15,-1000,201,2,0,5,-37,-71,627540,627.5399780273438,0.0,1500.0
14:11:43.210,AUTO,-35.3632873,149.1652106,44105,-0.009059999138116837,-0.005260230042040348,0.05225352197885513,-0.19812987744808197,0.0009338223026134074,-0.0010882619535550475,-3,1,-999,-195,1,0,4,-32,-71,628100,628.0999755859375,0.0,1500.0
14:11:43.412,AUTO,-35.3632872,149.1652103,44291,-0.0009298952063545585,-0.0049277679063379765,0.05092940479516983,0.2448427379131317,0.0018014898523688316,-0.002771283034235239,-3,18,-1004,248,2,-2,3,-29,-71,628290,628.2899780273438,0.0,1500.0
14:11:43.620,AUTO,-35.3632872,149.1652103,44291,-0.0009298952063545585,-0.0049277679063379765,0.05092940479516983,0.2448427379131317,0.0018014898523688316,-0.002771283034235239,-3,18,-1004,248,2,-2,3,-29,-71,628290,628.2899780273438,0.0,1500.0
14:11:43.821,AUTO,-35.3632872,149.1652103,44291,-0.0009298952063545585,-0.0049277679063379765,0.05092940479516983,0.2448427379131317,0.0018014898523688316,-0.002771283034235239,-3,18,-1004,248,2,-2,3,-29,-71,628290,628.2899780273438,0.0,1500.0
14:11:44.023,AUTO,-35.3632872,149.1652103,44291,-0.0009298952063545585,-0.0049277679063379765,0.05092940479516983,0.2448427379131317,0.0018014898523688316,-0.002771283034235239,-3,18,-1004,248,2,-2,3,-29,-71,628290,628.2899780273438,0.0,1500.0
14:11:44.225,AUTO,-35.3632872,149.1652103,44291,-0.0009298952063545585,-0.0049277679063379765,0.05092940479516983,0.2448427379131317,0.0018014898523688316,-0.002771283034235239,-3,18,-1004,248,2,-2,3,-29,-71,628290,628.2899780273438,0.0,1500.0
14:11:44.428,AUTO,-35.3632872,149.1652103,44291,-0.0009298952063545585,-0.0049277679063379765,0.05092940479516983,0.2448427379131317,0.0018014898523688316,-0.002771283034235239,-3,18,-1004,248,2,-2,3,-29,-71,628290,628.2899780273438,0.0,1500.0
14:11:44.631,AUTO,-35.3632872,149.1652103,44291,-0.0009298952063545585,-0.0049277679063379765,0.05092940479516983,0.2448427379131317,0.0018014898523688316,-0.002771283034235239,-3,18,-1004,248,2,-2,3,-29,-71,628290,628.2899780273438,0.0,1500.0
14:11:44.835,AUTO,-35.3632872,149.1652103,44291,-0.0009298952063545585,-0.0049277679063379765,0.05092940479516983,0.2448427379131317,0.0018014898523688316,-0.002771283034235239,-3,18,-1004,248,2,-2,3,-29,-71,628290,628.2899780273438,0.0,1500.0
14:11:45.036,AUTO,-35.3632869,149.1652081,45442,0.0122193219140172,-0.004425822291523218,0.0436091348528862,-0.002480287803336978,0.0009058198193088174,-0.0012787714367732406,-2,-3,-996,-5,1,0,0,-12,-72,629440,629.4400024414062,0.0,1500.0
14:11:45.239,AUTO,-35.3632869,149.1652079,45630,0.005377340596169233,-0.004491508472710848,0.042618729174137115,-0.28760433197021484,0.00034261192195117474,-0.0009943005861714482,-1,-8,-998,-286,1,0,0,-9,-71,629630,629.6300048828125,0.0,1500.0
14:11:45.441,AUTO,-35.3632869,149.1652077,45817,0.010221554897725582,-0.004241215530782938,0.04142756387591362,0.18507401645183563,3.396492684260011e-05,-0.005107812583446503,-1,16,-988,188,0,-4,0,-6,-70,629810,629.8099975585938,0.0,1500.0
14:11:45.642,AUTO,-35.3632869,149.1652077,45817,0.010221554897725582,-0.004241215530782938,0.04142756387591362,0.18507401645183563,3.396492684260011e-05,-0.005107812583446503,-1,16,-988,188,0,-4,0,-6,-70,629810,629.8099975585938,0.0,1500.0
14:11:45.845,AUTO,-35.3632869,149.1652077,45817,0.010221554897725582,-0.004241215530782938,0.04142756387591362,0.18507401645183563,3.396492684260011e-05,-0.005107812583446503,-1,16,-988,188,0,-4,0,-6,-70,629810,629.8099975585938,0.0,1500.0
14:11:46.047,AUTO,-35.3632869,149.1652077,45817,0.010221554897725582,-0.004241215530782938,0.04142756387591362,0.18507401645183563,3.396492684260011e-05,-0.005107812583446503,-1,16,-988,188,0,-4,0,-6,-70,629810,629.8099975585938,0.0,1500.0
14:11:46.251,AUTO,-35.3632869,149.1652077,45817,0.010221554897725582,-0.004241215530782938,0.04142756387591362,0.18507401645183563,3.396492684260011e-05,-0.005107812583446503,-1,16,-988,188,0,-4,0,-6,-70,629810,629.8099975585938,0.0,1500.0
14:11:46.454,AUTO,-35.3632869,149.1652077,45817,0.010221554897725582,-0.004241215530782938,0.04142756387591362,0.18507401645183563,3.396492684260011e-05,-0.005107812583446503,-1,16,-988,188,0,-4,0,-6,-70,629810,629.8099975585938,0.0,1500.0
14:11:46.659,AUTO,-35.3632869,149.1652077,45817,0.010221554897725582,-0.004241215530782938,0.04142756387591362,0.18507401645183563,3.396492684260011e-05,-0.005107812583446503,-1,16,-988,188,0,-4,0,-6,-70,629810,629.8099975585938,0.0,1500.0
14:11:46.860,AUTO,-35.3632869,149.1652077,45817,0.010221554897725582,-0.004241215530782938,0.04142756387591362,0.18507401645183563,3.396492684260011e-05,-0.005107812583446503,-1,16,-988,188,0,-4,0,-6,-70,629810,629.8099975585938,0.0,1500.0
14:11:47.064,AUTO,-35.3632867,149.165207,46803,0.010199036449193954,-0.0024384534917771816,0.0342506468296051,0.31314224004745483,0.0014636805281043053,-0.002786608412861824,0,10,-1007,-15,4,-1,0,2,-71,630800,630.6099853515625,0.0,1500.0
14:11:47.265,AUTO,-35.3632867,149.1652069,46991,0.010581309907138348,-0.00273781456053257,0.03351689130067825,0.07779381424188614,-0.0018980922177433968,-0.0032571828924119473,0,-4,-1000,75,-1,-2,0,2,-72,630990,630.989990234375,0.0,1500.0
