time_stamp,MODE,RTL_ALT,lat,lon,relative_alt,vx,vy,vz,xacc,yacc,zacc,xgyro,ygyro,zgyro,roll,pitch,yaw,rollspeed,pitchspeed,yawspeed
03:44:00,AUTO,61558.5,-35.3632622,149.1652375,3.0,-1.0,0.0,-1.0,0.0,1.0,-1000.0,1.0,0.0,0.0,-0.0006335123325698078,0.0009829765185713768,0.0215719947591424,0.000278794759651646,0.0002684284409042448,0.0015013592783361673
03:44:02,AUTO,121617.0,-35.3632621,149.1652375,2.0,0.0,0.5,0.5,0.0,1.0,-1000.0,1.0,0.0,0.0,-0.00010278481931891292,0.001248879765626043,0.021020282059907913,0.00031268896418623626,0.0002258748863823712,0.0014171851216815412
03:44:03,AUTO,14483.0,-35.3632621,149.1652375,0.0,0.0,0.25,1.0,0.0,1.0,-1000.0,0.5,0.75,0.0,0.00030244392110034823,0.001521791418781504,0.020693610422313213,0.00032545908470638096,0.0003162142966175452,0.0013970280706416816
03:44:04,AUTO,14483.0,-35.3632621,149.1652375,87.0,0.0,0.5,-34.0,0.0,0.5,-1065.5,3.5,2.0,0.5,0.0021658218174707144,0.0009325442661065608,0.020360266789793968,0.003904285404132679,0.0022036977752577513,0.0018894565873779356
03:44:06,AUTO,119035.0,-35.363261800000004,149.1652387,2310.0,4.5,26.5,-146.0,0.5,-5.0,-1000.5,25.5,1.0,-15.5,0.048551829531788826,-0.006200385396368802,0.006825068267062306,0.025139230070635676,-0.00018342724069952965,-0.014896386303007603
03:44:08,AUTO,223587.0,-35.3632608,149.1652459,4783.0,1.0,28.0,-148.0,4.0,-8.0,-1001.0,-27.0,-13.0,-29.0,-0.03497840836644173,0.004093839321285486,-0.07523389905691147,-0.027800703421235085,-0.013491472229361534,-0.029261872172355652
03:44:09,AUTO,184692.0,-35.363260849999996,149.1652445,6649.75,-4.0,-45.25,-147.25,-4.5,7.5,-1001.75,57.75,5.25,-12.25,-0.051662893034517765,0.0008926512145990273,-0.1046290285885334,0.05767612252384424,0.00464627321343869,-0.01233633328229189
03:44:10,AUTO,184692.0,-35.3632617,149.16523826666665,8204.0,-14.333333333333334,-53.333333333333336,-149.66666666666666,-5.0,12.333333333333334,-1003.3333333333334,67.66666666666667,9.0,0.0,0.013607390535374483,0.009719888214021921,-0.10876457144816716,0.06759100655714671,0.008902744390070438,0.00028358328563626856
03:44:12,AUTO,140795.5,-35.36326355,149.1652365,11524.5,19.5,28.0,-147.5,0.0,-7.0,-1001.5,-82.0,35.0,-34.5,-0.0031173862516880035,-0.036735362373292446,-0.06517650187015533,-0.08323023840785027,0.03512533754110336,-0.033997406251728535
03:44:14,AUTO,96899.0,-35.36325995,149.16523619999998,14631.5,0.5,-13.0,-152.0,-3.0,2.0,-1000.0,29.0,-1.0,-12.5,0.007699598092585802,0.02336658164858818,-0.1768914833664894,0.02860954450443387,-0.0016962392255663872,-0.012506391853094101
03:44:15,AUTO,110542.0,-35.363260325,149.16523525000002,16190.5,-13.75,2.75,-151.0,1.0,1.5,-999.25,-9.0,-14.75,6.0,0.016762012848630548,0.012620078516192734,-0.17564167827367783,-0.0102032870054245,-0.015899176010861993,0.006669771100860089
03:44:16,AUTO,110542.0,-35.363261,149.1652354,17162.0,-14.0,9.0,-151.0,3.0,0.0,-1000.0,-10.0,-10.0,-3.0,0.008650747127830982,0.003131215926259756,-0.1722346693277359,-0.010760584846138954,-0.011092615313827991,-0.0032399441115558147
03:44:18,AUTO,193777.0,-35.3632622,149.1652365,20241.0,-2.5,2.5,-152.0,0.0,0.0,-1000.0,3.5,3.0,-25.5,0.0007857641758164391,-0.0015077945427037776,-0.2092798352241516,0.0030826510628685355,0.0025698152603581548,-0.025432181544601917
03:44:20,AUTO,277012.0,-35.3632622,149.1652365,23359.5,0.0,2.5,-152.0,0.0,0.0,-999.5,-0.5,2.5,-19.5,0.0048560646828264,0.0035170831251889467,-0.2572406679391861,-0.0016746874898672104,0.0018017870606854558,-0.019833858124911785
03:44:21,AUTO,261882.0,-35.3632621,149.165236675,25305.25,-2.25,1.25,-151.5,0.0,0.0,-999.25,-4.75,3.5,2.25,-0.0031023716437630355,0.005238618468865752,-0.27529526501893997,-0.005607442755717784,0.0028161813970655203,0.002697831005207263
03:44:22,AUTO,261882.0,-35.36326215,149.1652366,26471.5,-5.0,0.5,-152.0,0.0,0.0,-999.5,18.5,-1.0,23.5,0.008499754825606942,0.0049095144495368,-0.2643945664167404,0.01828276552259922,-0.002675310359336436,0.024430985562503338
03:44:24,AUTO,159908.5,-35.3632623,149.1652375,29580.5,-0.5,8.5,-152.0,0.0,-1.0,-1000.0,-3.5,1.5,20.0,0.0018198349280282855,0.0019606304704211652,-0.2174692451953888,-0.004858328029513359,0.0011164700263179839,0.0205057542771101
03:44:26,AUTO,57935.0,-35.3632623,149.1652382,32682.5,0.0,1.5,-152.0,0.0,0.0,-999.5,2.5,0.5,14.5,0.0006328138697426766,0.001198117039166391,-0.18336961418390274,0.0020661778980866075,0.00019736980902962387,0.015195594169199467
03:44:27,AUTO,43700.0,-35.3632623,149.165238125,34625.25,0.0,0.0,-152.0,0.0,0.0,-999.75,1.25,1.25,11.5,0.002126819919794798,0.0009305208077421412,-0.1663203313946724,0.000288543407805264,0.0008713840506970882,0.012233728542923927
03:44:28,AUTO,43700.0,-35.3632623,149.165238,35790.5,0.0,0.0,-152.0,0.0,0.0,-1000.0,2.0,0.5,11.5,0.0022080232156440616,0.0010297997505404055,-0.1576598584651947,0.0012056563282385468,0.00010943860979750752,0.012013973202556372
03:44:30,AUTO,157139.5,-35.3632622,149.1652377,38900.0,0.0,0.0,-152.0,0.0,0.0,-999.5,1.0,2.0,9.5,0.0031757763354107738,0.0010408561502117664,-0.13852060586214066,8.880702080205083e-05,0.0013453708961606026,0.00985972722992301
03:44:32,AUTO,270579.0,-35.36326205,149.1652375,41998.5,-1.5,0.5,-148.5,-0.5,-1.0,-979.0,-68.0,68.5,170.5,-0.007827358203940094,0.012460461584851146,-0.10079580545425415,-0.06986892130225897,0.06762894941493869,0.17101421020925045
03:44:33,AUTO,161929.0,-35.363264025,149.165234575,43554.25,-24.0,-31.0,-91.25,2.75,9.0,-953.0,85.0,-101.75,60.25,0.002334161545149982,-0.026303586084395647,0.24764952063560486,0.0843240600079298,-0.10333996382541955,0.0605114777572453
03:44:34,AUTO,161929.0,-35.3632649,149.16523275,44155.0,3.0,-2.5,-62.5,-0.5,0.0,-970.5,-39.0,30.0,-32.0,0.040626877918839455,-0.048364054411649704,0.24517741799354553,-0.04009971767663956,0.02954065427184105,-0.03245287761092186
03:44:36,AUTO,189761.0,-35.36326175,149.16523705,44930.0,14.5,25.5,-17.0,-1.0,-32.0,-974.0,-499.0,10.5,-20.0,-0.003981010057032108,0.014415523037314415,0.18585415184497833,-0.4997975379228592,0.010096360929310322,-0.020882703363895416
03:44:38,AUTO,217593.0,-35.3632613,149.1652374,44782.0,5.5,-32.0,7.0,-3.0,30.0,-1002.0,254.5,-30.0,-16.5,-0.04522445239126682,-0.027439072728157043,0.14748930931091309,0.2525036782026291,-0.03173726052045822,-0.017020309809595346
03:44:39,AUTO,99518.0,-35.363258625,149.165230175,44647.75,52.5,-85.25,12.25,-20.75,-8.75,-991.0,-297.5,-23.0,-794.0,-0.045130458660423756,-0.08432445861399174,-0.27599175088107586,-0.29852302744984627,-0.024550333619117737,-0.7949172109365463
03:44:40,AUTO,99518.0,-35.3632544,149.16522220000002,44516.5,87.0,-130.5,21.5,-31.5,-7.5,-995.5,353.0,-56.0,-417.5,0.012074336875230074,-0.1292058564722538,-0.83791783452034,0.35255117528140545,-0.05754160322248936,-0.41810526698827744
03:44:42,AUTO,155965.5,-35.36322925,149.16517615,43717.5,209.0,-301.0,55.0,-75.5,-43.5,-978.0,-408.0,-22.5,-22.5,0.029215040616691113,-0.18919990211725235,-0.8533876240253448,-0.4100477918982506,-0.023942873813211918,-0.023262465838342905
03:44:44,AUTO,212413.0,-35.36318165,149.1650923,42262.5,321.5,-460.5,82.5,-115.0,-79.5,-978.5,-25.0,7.0,26.0,0.06259573623538017,-0.19403572380542755,-0.8730344772338867,-0.025482259690761566,0.005797497928142548,0.026034520007669926
03:44:45,AUTO,247795.0,-35.363143025,149.16502515000002,41113.5,360.25,-514.75,94.0,-128.75,-74.75,-982.75,63.5,26.25,5.5,0.07240705005824566,-0.17576663941144943,-0.8793760389089584,0.06291085109114647,0.025948764756321907,0.00474782264791429
03:44:46,AUTO,247795.0,-35.3631178,149.1649821,40366.0,372.5,-534.5,96.5,-133.5,-51.0,-988.5,213.5,19.0,-46.5,0.06458930112421513,-0.15534212440252304,-0.8840809762477875,0.21142135560512543,0.018557326402515173,-0.04728683643043041
03:44:48,AUTO,140831.0,-35.36305025,149.16486445,38315.5,369.0,-545.0,99.0,-140.0,-84.0,-988.5,155.5,-4.5,28.0,0.0853310078382492,-0.15539612621068954,-0.8945823609828949,0.15614770352840424,-0.005694922350812703,0.027074696961790323
03:44:50,AUTO,33867.0,-35.3629838,149.16474334999998,36270.0,390.5,-547.0,94.0,-137.5,-101.0,-995.5,-654.0,12.0,-13.0,0.09383415430784225,-0.14717000722885132,-0.9012421667575836,-0.6551677584648132,0.011463034898042679,-0.01394091546535492
03:44:51,AUTO,200003.0,-35.362942175,149.16466837500002,35048.0,382.25,-516.5,89.5,-125.0,-96.25,-975.25,33.25,48.75,30.5,0.11863811127841473,-0.08578924462199211,-0.9056324809789658,0.033265456557273865,0.04875819897279143,0.029857737594284117
03:44:52,AUTO,200003.0,-35.362918,149.1646264,34340.5,359.0,-473.5,84.5,-123.0,-129.0,-1023.5,-1114.5,55.5,37.5,0.0912390947341919,-0.04875912517309189,-0.9055625200271606,-1.1154218316078186,0.05539439432322979,0.03764862800016999
03:44:54,AUTO,172746.0,-35.362864599999995,149.16453869999998,32794.0,232.0,-307.0,54.5,-74.5,0.0,-1028.0,496.0,2.5,-50.5,0.04678763635456562,0.048007482662796974,-0.9125755727291107,0.49295032024383545,0.001768819522112608,-0.05163135379552841
03:44:56,AUTO,145489.0,-35.3628359,149.16449175,31983.5,91.0,-133.5,21.0,-32.5,9.0,-1016.5,155.5,-9.0,-10.0,0.015213183127343655,0.06926408037543297,-0.9183502793312073,0.15342331677675247,-0.009289626497775316,-0.011118268477730453
03:44:57,AUTO,244556.0,-35.36282995,149.164480225,31823.25,32.25,-53.75,4.5,-14.0,-16.0,-1003.5,-206.75,-17.75,1.5,0.013810751726850867,0.03803358320146799,-0.9216185957193375,-0.20809442549943924,-0.01880688453093171,0.0007315943948924541
03:44:58,AUTO,244556.0,-35.362828949999994,149.16447705000002,31810.5,13.5,-22.5,0.0,-6.0,2.0,-1003.0,251.5,-20.0,-1.0,0.022352113388478756,0.026521259918808937,-0.9245135486125946,0.25037621706724167,-0.020518384873867035,-0.0016015285800676793
03:45:00,RTL,161133.5,-35.3628302,149.1644753,31862.0,10.0,4.5,-0.5,-1.0,27.5,-1006.0,430.5,-7.5,7.5,0.021710339933633804,-0.013271886855363846,-0.9313725531101227,0.4281066581606865,-0.007570554502308369,0.007046748884022236
03:45:02,RTL,77711.0,-35.362829950000005,149.16447415,32048.5,15.0,7.0,-34.0,0.5,-11.5,-1048.0,-235.5,-0.5,5.5,0.01225305488333106,0.001982452697120607,-0.9351005852222443,-0.2379225715994835,-0.0012977421574760228,0.004776854300871491
03:45:03,RTL,218796.0,-35.362829675,149.1644743,32884.5,10.25,9.25,-91.25,0.0,-1.75,-1044.75,-27.0,-2.0,5.0,0.007564641535282135,-0.0004462425470137532,-0.9355192631483078,-0.02909824252128601,-0.0030885532614775,0.004058124439325184
03:45:04,RTL,218796.0,-35.36282955,149.16447455000002,33707.5,8.0,8.5,-124.0,0.0,0.5,-1044.5,28.0,1.0,1.0,0.00618754280731082,-0.0019413810805417597,-0.9366183876991272,0.026091950945556164,0.0013742473674938083,1.815386349335313e-05
03:45:06,RTL,237351.5,-35.36282645,149.16447620000002,36680.5,49.0,26.5,-144.0,1.5,-11.5,-992.5,-118.5,75.5,-95.5,0.039995492435991764,0.007665158715099096,-0.9636529982089996,-0.12129097431898117,0.0759006142616272,-0.09746724367141724
03:45:08,RTL,255907.0,-35.362825,149.16447695,39730.5,-48.5,-18.5,-148.0,-4.5,9.0,-1000.5,61.5,7.0,-4.0,-0.03872949257493019,0.0011972897627856582,-1.031150221824646,0.05955846607685089,0.0071065041702240705,-0.006132117006927729
03:45:09,RTL,147877.0,-35.362830249999995,149.16447397500002,41671.5,-42.0,-1.75,-151.0,-3.25,9.0,-1001.25,54.0,-4.0,11.75,0.03968555433675647,0.009494025027379394,-1.0292392671108246,0.05212486116215587,-0.004263140552211553,0.011048623389797285
03:45:10,RTL,147877.0,-35.3628318,149.16447405,42847.5,-7.0,18.0,-149.5,2.0,1.5,-995.5,-59.0,-79.0,82.5,0.048546917736530304,-0.02485881233587861,-0.998129814863205,-0.06193924508988857,-0.0800179410725832,0.08165808767080307
03:45:12,RTL,89981.0,-35.3628294,149.1644731,45945.0,-4.0,-8.0,-151.0,-3.0,-1.5,-1000.0,20.0,10.5,-33.5,-0.01062221359461546,0.010659282095730305,-1.063214659690857,0.018078694120049477,0.010546679608523846,-0.035393740981817245
03:45:14,RTL,32085.0,-35.3628296,149.16447255,49074.5,-6.5,12.5,-151.0,0.5,0.0,-999.5,-5.0,-4.0,-8.0,0.006011603400111198,0.005154867889359593,-1.094495713710785,-0.007943167351186275,-0.005412560421973467,-0.009967405814677477
03:45:15,RTL,189952.0,-35.362829575,149.1644737,51019.0,-3.25,11.5,-151.0,1.0,0.0,-1000.25,0.0,0.0,-19.0,-0.00046648443094454706,-0.0014549876359524205,-1.113685131072998,-0.0025013467529788613,-0.00078124477295205,-0.021090494003146887
03:45:16,RTL,189952.0,-35.3628295,149.16447415,52190.0,-3.0,7.5,-151.5,0.5,0.0,-1000.0,0.0,2.0,-22.5,-0.0008851271704770625,-0.0022795236436650157,-1.1310408115386963,-0.001911433006171137,0.001677093154285103,-0.024501824751496315
03:45:18,RTL,221595.5,-35.3628294,149.16447455000002,55320.0,-3.0,4.5,-152.0,0.0,0.0,-999.0,0.5,3.0,-22.5,0.0013778117718175054,0.00039909122278913856,-1.181213915348053,-0.0018855482921935618,0.0025422711623832583,-0.0244637131690979
03:45:20,RTL,253239.0,-35.3628292,149.1644748,58434.5,-2.0,5.0,-152.0,0.0,0.0,-999.5,-1.5,3.0,-19.5,0.0005413328763097525,0.00019410682580200955,-1.2227864861488342,-0.003170117153786123,0.0019381044548936188,-0.02122465707361698
03:45:21,RTL,280180.0,-35.362829075,149.164475,60375.0,-1.0,7.0,-151.0,0.0,0.0,-999.75,2.0,0.75,22.0,0.0037756013334728777,0.0021456664835568517,-1.220798820257187,-9.990885155275464e-05,-0.00025108175759669393,0.02088774903677404
03:45:22,RTL,280180.0,-35.362828949999994,149.16447534999998,61538.5,0.0,8.0,-151.0,0.0,0.0,-999.5,-1.5,-1.0,27.0,0.0021767421276308596,-9.83996142167598e-05,-1.202397882938385,-0.0038024511886760592,-0.002116227289661765,0.026308990083634853
03:45:24,RTL,283061.5,-35.3628288,149.16447585,64650.0,-1.5,3.5,-151.5,0.0,0.0,-999.5,3.0,2.5,21.0,-2.2369567886926234e-06,-0.0022204836132004857,-1.1564065217971802,0.0012288178550079465,0.0019224733114242554,0.01982961967587471
03:45:26,RTL,285943.0,-35.3628288,149.1644758,67760.0,-2.0,1.0,-152.0,0.0,0.0,-999.5,2.5,4.0,17.0,0.0013409123639576137,-0.0017104223370552063,-1.1223968267440796,0.0005962047725915909,0.003384543815627694,0.016228197142481804
03:45:27,RTL,220639.0,-35.3628288,149.1644756,69697.5,-2.0,1.0,-152.0,0.0,0.0,-999.75,1.75,2.5,13.0,0.0018715866026468575,-0.0009196987375617027,-1.1059116125106812,-9.201123612001538e-05,0.0013710096245631576,0.012029347708448768
03:45:28,RTL,220639.0,-35.3628288,149.1644755,70863.0,-2.0,1.0,-152.0,0.0,0.0,-1000.0,1.5,1.5,13.0,0.0016657299711368978,-0.0013414821005426347,-1.097325325012207,0.0001028822734951973,-0.0005594306858256459,0.01206477452069521
03:45:30,RTL,124709.5,-35.3628289,149.1644754,73968.5,-2.0,1.0,-152.0,0.0,0.0,-1000.0,2.5,2.0,9.0,0.0022319044219329953,-0.0018701243679970503,-1.0784491300582886,0.0006923249457031488,0.0005260935286059976,0.007879045093432069
03:45:32,RTL,28780.0,-35.362829,149.1644753,77073.5,-1.0,2.0,-152.0,0.0,0.0,-999.5,2.0,1.5,8.5,0.0031323202420026064,-0.002459877636283636,-1.0635485649108887,0.0003024913603439927,0.0006541528273373842,0.007629107451066375
03:45:33,RTL,46147.0,-35.362829,149.1644753,79016.25,-0.25,1.0,-152.0,0.0,0.0,-999.75,0.5,1.75,7.5,0.002672395436093211,-0.0017610426293686032,-1.0556897521018982,-0.0011435208143666387,0.0003972587001044303,0.006399324280209839
03:45:34,RTL,46147.0,-35.362829,149.16447525,80184.0,-1.0,2.0,-152.0,0.0,0.0,-1000.0,1.0,2.0,7.0,0.002784572192467749,-0.0011303751380182803,-1.0516201853752136,-0.0010568834841251373,0.0005316695314832032,0.005534003488719463
03:45:36,RTL,68835.5,-35.362829,149.1644752,83285.0,0.0,2.0,-152.0,0.0,0.0,-1000.0,1.5,1.5,8.0,0.0027488120831549168,-0.001678682689089328,-1.0407901406288147,-0.0004480017232708633,0.00022295810049399734,0.007098248461261392
03:45:38,RTL,91524.0,-35.362829,149.1644752,86403.0,0.0,1.5,-152.0,0.0,0.0,-1000.0,0.5,1.0,5.5,0.0025584338000044227,-0.0021264251554384828,-1.0317259430885315,-0.0010905179078690708,7.8956363722682e-06,0.004737612092867494
03:45:39,RTL,149043.0,-35.362829,149.1644752,88335.75,-0.75,1.0,-152.0,0.0,0.0,-999.75,1.25,2.0,6.25,0.002849492826499045,-0.0020191471558064222,-1.0267075300216675,-0.0006138111057225615,0.00040813355008140206,0.0050073928432539105
03:45:40,RTL,149043.0,-35.362829,149.1644752,89500.0,0.0,1.5,-152.0,0.0,0.0,-1000.0,2.0,2.5,4.5,0.003071010112762451,-0.001914506545290351,-1.0237888097763062,0.0003342234995216131,0.001112754747737199,0.003500783583149314
03:45:42,RTL,149932.0,-35.3628291,149.1644752,92606.0,0.0,2.0,-152.0,0.0,0.0,-999.5,1.0,3.0,5.0,0.003577197319827974,-0.0015741571551188827,-1.0166049599647522,-0.001073273248039186,0.0015251397853717208,0.0039213106501847506
03:45:44,RTL,150821.0,-35.3628291,149.1644752,95720.0,0.0,2.0,-152.0,0.0,0.0,-1000.0,3.0,2.0,4.0,0.003074717940762639,-0.001899701077491045,-1.0104515552520752,0.001516070100478828,0.00047870061825960875,0.0023679087753407657
03:45:45,RTL,87403.0,-35.3628291,149.1644752,97661.75,0.0,2.0,-152.0,0.0,0.0,-999.5,1.0,2.0,4.25,0.002963918959721923,-0.002557553816586733,-1.0072048008441925,-0.0006705945706926286,0.0006506195059046149,0.003004593279911205
03:45:46,RTL,87403.0,-35.3628291,149.1644752,98830.5,0.0,1.5,-152.0,0.0,0.0,-999.5,2.0,1.5,5.5,0.002849827753379941,-0.0024461019784212112,-1.0053805112838745,0.00024970003869384527,-0.00030265498207882047,0.004383816965855658
03:45:48,RTL,93650.0,-35.3628291,149.1644752,101933.0,0.0,1.0,-152.0,0.0,0.0,-999.0,1.5,1.5,4.5,0.003405909170396626,-0.0022730245254933834,-0.9999596774578094,-0.0007309572538360953,0.0002447582664899528,0.0026716477004811168
03:45:50,RTL,99897.0,-35.3628291,149.1644752,105040.0,0.0,1.0,-152.0,0.0,0.0,-1000.0,1.5,2.0,4.0,0.003364057862199843,-0.0021465537138283253,-0.9960464835166931,-0.0003594242734834552,0.0004314546240493655,0.002649271977134049
03:45:51,RTL,6157.0,-35.3628291,149.1644752,106983.5,0.0,1.0,-152.0,0.0,0.0,-1000.0,2.75,1.5,4.5,0.0033708406263031065,-0.002253043930977583,-0.9936841428279877,0.000999797397525981,-6.501944153569639e-05,0.0031660011154599488
03:45:52,RTL,6157.0,-35.3628291,149.1644752,108150.0,0.0,1.0,-152.0,0.0,0.0,-999.5,3.0,3.0,5.0,0.0037085425574332476,-0.0020330611150711775,-0.9924123287200928,0.0012920963345095515,0.0014554683584719896,0.003572253044694662
03:45:54,RTL,36469.0,-35.3628291,149.1644752,111255.0,0.0,2.0,-152.0,0.0,0.0,-1000.0,2.0,1.5,4.0,0.003268672968260944,-0.0017693310510367155,-0.989407479763031,-9.983178460970521e-05,0.00013679201947525144,0.0028421891620382667
03:45:56,RTL,66781.0,-35.3628291,149.1644752,114359.0,0.0,1.5,-152.0,0.0,0.0,-1000.0,2.0,2.0,5.0,0.002946114749647677,-0.0026031737215816975,-0.9868375658988953,0.0002439750824123621,0.00018939899746328592,0.0034383273450657725
03:45:57,RTL,114034.0,-35.3628291,149.1644752,116304.75,0.0,1.0,-152.0,0.0,0.0,-999.75,2.25,2.0,3.0,0.0034352512448094785,-0.0029022845556028187,-0.9853682965040207,0.0007098381174728274,0.0003452705277595669,0.0016658773820381612
03:45:58,RTL,114034.0,-35.3628292,149.1644752,117474.0,0.0,1.0,-152.0,0.0,0.0,-999.5,0.5,1.5,2.5,0.003762695356272161,-0.002768229809589684,-0.9843568205833435,-0.0009485459886491299,-7.276434917002916e-05,0.0007978030480444431
03:46:00,RTL,77705.5,-35.3628292,149.1644752,120577.0,0.0,1.0,-152.0,0.0,0.0,-999.5,3.5,2.0,3.5,0.0035895219771191478,-0.002222770592197776,-0.9824294447898865,0.0011845363769680262,0.0005130697973072529,0.0024546135682612658
03:46:02,RTL,41377.0,-35.3628292,149.1644752,123683.0,0.0,2.0,-152.0,0.0,0.0,-1000.0,1.5,2.0,2.0,0.0037215102929621935,-0.0017637342680245638,-0.9808047115802765,-0.000885907793417573,0.0004936871118843555,0.0005370284197852015
03:46:03,RTL,139513.0,-35.3628292,149.1644752,125627.75,0.0,2.0,-152.0,0.0,0.0,-999.75,1.25,1.75,3.75,0.0033139357110485435,-0.00213507137959823,-0.9794181138277054,-0.0006805689772590995,-0.0002716551534831524,0.0021572827245108783
03:46:04,RTL,139513.0,-35.3628292,149.1644752,126799.0,0.0,2.0,-152.0,0.0,0.0,-999.5,1.5,1.5,2.5,0.0030262147774919868,-0.0028438257286325097,-0.9783240258693695,-0.00012032495578750968,-0.00047952716704458,0.0008935654768720269
03:46:06,RTL,138297.0,-35.3628292,149.16447525,129906.0,0.0,1.0,-152.0,0.0,0.0,-1000.0,2.0,1.5,2.0,0.0032808162504807115,-0.0028057530289515853,-0.9770779311656952,9.059789590537548e-06,-0.0003135798033326864,0.0002599530853331089
03:46:08,RTL,137081.0,-35.3628292,149.1644752,133013.5,0.0,1.0,-152.0,0.0,0.0,-1000.5,3.0,2.0,2.5,0.0039708486292511225,-0.002212301827967167,-0.9763823747634888,0.0010426705703139305,2.2293534129858017e-06,0.00081792869605124
03:46:09,RTL,17188.0,-35.3628292,149.1644752,134958.75,0.0,2.0,-152.0,0.0,0.0,-999.75,2.25,3.75,3.0,0.0037165250978432596,-0.0021088287176098675,-0.9753508120775223,0.00018788769375532866,0.001620813156478107,0.0013927383406553417
03:46:10,RTL,17188.0,-35.3628292,149.1644752,136125.0,0.0,2.0,-152.0,0.0,0.0,-1000.0,0.5,0.5,2.5,0.0037752330536022782,-0.0011673441622406244,-0.9751848578453064,-0.0020609443308785558,-0.0012917559361085296,0.0007948225829750299
03:46:12,RTL,155089.0,-35.3628292,149.1644752,139232.0,0.0,2.0,-152.0,0.0,0.0,-999.5,2.5,1.5,4.0,0.0033939738059416413,-0.0024262985680252314,-0.974329024553299,0.0004556571366265416,-0.0005030231550335884,0.0025227642618119717
03:46:14,RTL,292990.0,-35.3628292,149.1644752,142335.0,0.0,1.0,-152.0,0.0,0.0,-1000.0,0.5,1.0,2.5,0.0032192538492381573,-0.002830262645147741,-0.9735272824764252,-0.001170669449493289,-0.0008975329110398889,0.0007697833934798837
03:46:15,RTL,206701.0,-35.3628292,149.1644752,144276.5,0.0,1.0,-152.0,0.0,0.0,-999.75,2.5,2.0,2.75,0.0034881221945397556,-0.002500449598301202,-0.9732307195663452,0.0004135488998144865,0.00023738160962238908,0.0011146757169626653
03:46:16,RTL,206701.0,-35.3628292,149.1644752,145441.5,0.0,1.0,-152.0,0.0,0.0,-1000.0,2.0,2.5,2.5,0.003589918720535934,-0.002453446853905916,-0.9729617238044739,-0.00017421564552932978,6.711098831146955e-05,0.0011987077305093408
03:46:18,RTL,153622.5,-35.3628292,149.1644752,148552.5,0.0,2.0,-152.0,0.0,0.0,-1000.0,0.5,1.5,3.0,0.0038866306422278285,-0.0027060897555202246,-0.9724701642990112,-0.0017246429342776537,-0.0007263353909365833,0.0011542892316356301
03:46:20,RTL,100544.0,-35.3628292,149.1644752,151658.5,0.0,1.0,-152.0,0.0,0.0,-1000.0,2.0,1.0,3.5,0.0035318793961778283,-0.0021868032636120915,-0.9712046980857849,-0.0002771493745967746,-0.001044505916070193,0.0015464556636288762
03:46:21,RTL,41167.0,-35.3628292,149.1644752,153603.5,0.0,1.25,-152.0,0.0,0.0,-999.75,2.5,2.75,2.75,0.003698650049045682,-0.002502666669897735,-0.9710296094417572,2.9875256586819887e-05,0.0006647034897468984,0.0007254328229464591
03:46:22,RTL,41167.0,-35.3628292,149.1644752,154769.5,0.0,1.0,-152.0,0.0,0.0,-1000.0,2.5,1.5,3.5,0.003512064809910953,-0.002263985574245453,-0.9708414375782013,0.0004699722630903125,-0.0006528222002089024,0.001572231063619256
03:46:24,RTL,62861.5,-35.3628292,149.1644752,157876.0,0.0,1.0,-152.0,0.0,0.0,-1000.5,4.0,2.5,3.5,0.003434038837440312,-0.0024506092304363847,-0.9707111418247223,0.001242471276782453,0.00011009234003722668,0.0013101388467475772
03:46:26,RTL,84556.0,-35.3628292,149.1644752,160990.0,0.0,1.0,-152.0,0.0,0.0,-1000.0,2.5,2.5,4.5,0.003531506867147982,-0.0023253284161910415,-0.9702373147010803,0.0005914020584896207,0.0001645644661039114,0.002268504351377487
03:46:27,RTL,176447.0,-35.3628292,149.1644752,162924.75,0.0,1.0,-152.0,0.0,0.0,-1000.0,2.5,2.25,2.0,0.0034283690620213747,-0.0023488288279622793,-0.97020423412323,1.789536327123642e-05,8.342106593772769e-05,0.00022366835037246346
03:46:28,RTL,176447.0,-35.3628292,149.1644752,164093.5,0.0,1.0,-152.0,0.0,0.0,-1000.0,3.5,1.5,1.5,0.0034678763477131724,-0.0023144989972934127,-0.970237672328949,0.0010836378205567598,-0.000485632277559489,2.290029078722e-05
03:46:30,RTL,190731.5,-35.3628292,149.1644752,167196.0,0.0,1.0,-152.0,0.0,0.0,-999.5,0.5,2.0,2.0,0.003538509481586516,-0.002373915514908731,-0.9700585305690765,-0.002086445048917085,-4.613981582224369e-05,-0.00017160334391519427
03:46:32,RTL,205016.0,-35.3628292,149.1644752,170311.5,0.0,1.0,-152.0,0.0,0.0,-1000.5,3.0,3.0,2.0,0.0037269899621605873,-0.0024465040769428015,-0.9699734747409821,0.0007534277392551303,0.00046265253331512213,1.2816628441214561e-05
03:46:33,RTL,27386.0,-35.3628292,149.1644752,172255.5,0.0,1.0,-152.0,0.0,0.0,-999.75,2.5,3.25,2.25,0.003567077044863254,-0.002324977540411055,-0.9698232710361481,0.00020905426936224103,0.0008779357885941863,0.0005093705258332193
03:46:34,RTL,27386.0,-35.3628292,149.1644752,173423.0,0.0,1.0,-152.0,0.0,0.0,-1000.0,4.0,2.5,3.0,0.003600560361519456,-0.0023539758985862136,-0.9699702858924866,0.0012810848420485854,5.028559826314449e-06,0.0009628938278183341
03:46:36,RTL,26574.5,-35.3628292,149.1644752,176527.0,0.0,2.0,-152.0,0.0,0.0,-1000.0,1.5,2.5,3.0,0.002951663569547236,-0.001744704321026802,-0.9690830409526825,-0.0008579620043747127,-0.0003325529978610575,0.000837125233374536
03:46:38,RTL,25763.0,-35.3628292,149.1644752,179632.5,0.0,1.0,-152.0,0.0,0.0,-1000.0,4.0,3.5,4.0,0.0035870791180059314,-0.002308291383087635,-0.9689412117004395,0.001868722727522254,0.0007622335106134415,0.0017068622400984168
03:46:39,RTL,273744.0,-35.3628292,149.1644752,181574.25,0.0,1.0,-152.0,0.0,0.0,-1000.0,2.75,2.25,3.5,0.0032773235579952598,-0.0025685434229671955,-0.9687846750020981,0.00019575253827497363,-0.0001817809243220836,0.0013594115152955055
03:46:40,RTL,273744.0,-35.3628292,149.1644753,182739.5,0.0,1.0,-152.0,0.0,0.0,-1000.0,3.0,2.5,2.5,0.003226807457394898,-0.0026838653720915318,-0.9686475992202759,0.0004036611062474549,0.00045108702033758163,0.0007487571565434337
03:46:42,RTL,184512.5,-35.3628292,149.1644753,185850.0,0.0,1.0,-152.0,0.0,0.0,-1000.0,4.5,2.0,1.0,0.003800570499151945,-0.002642115345224738,-0.9688681364059448,0.00208648678380996,-0.0002277567982673645,-0.0009781018598005176
03:46:44,RTL,95281.0,-35.3628292,149.1644753,188953.0,0.0,1.0,-152.0,0.0,0.0,-1000.0,1.0,1.5,3.5,0.003816036507487297,-0.0021817695815116167,-0.9686930179595947,-0.0012385043082758784,-0.0008878451772034168,0.0010426795342937112
03:46:45,RTL,145016.0,-35.3628292,149.1644753,190901.0,0.0,1.5,-152.0,0.0,0.0,-1000.0,3.75,3.0,3.25,0.003623430209700018,-0.002331078751012683,-0.9689299315214157,0.0011365034733898938,0.00039808632573112845,0.0013360139564611018
03:46:46,RTL,145016.0,-35.3628292,149.1644753,192072.5,0.0,1.5,-152.0,0.0,0.0,-1000.0,3.0,3.5,2.0,0.003766932524740696,-0.002375778742134571,-0.9688370227813721,0.0003147739917039871,0.0006286893039941788,-0.00022529391571879387
03:46:48,RTL,145016.0,-35.3628292,149.1644753,195171.5,0.0,1.5,-152.0,0.0,0.0,-1000.0,4.0,1.5,3.5,0.0035915288608521223,-0.002619070466607809,-0.968826174736023,0.0010895024752244353,-0.0008037442457862198,0.0009908528300002217
03:46:49,RTL,10270.0,-35.3628292,149.1644753,197112.75,0.0,1.0,-152.0,0.0,0.0,-1000.0,3.25,3.0,3.25,0.003215234144590795,-0.002082990889903158,-0.9687407314777374,0.0006326657603494823,0.00043947395170107484,0.0011284626089036465
03:46:50,RTL,10270.0,-35.3628292,149.1644753,198278.0,0.0,1.0,-152.0,0.0,0.0,-1000.0,2.5,2.0,2.5,0.003273317590355873,-0.002129496308043599,-0.9688987135887146,0.00011588644701987505,-0.0003573345020413399,0.00038326613139361143
03:46:52,RTL,260532.0,-35.3628292,149.1644753,201391.0,0.0,1.0,-152.0,0.0,0.0,-1000.0,2.0,2.5,3.5,0.003151797456666827,-0.0021163005148991942,-0.9679957926273346,-0.0007949949358589947,-5.757261533290148e-05,0.0013345859479159117
03:46:54,RTL,260532.0,-35.3628292,149.1644753,204503.0,0.0,1.0,-152.0,0.0,0.0,-1000.0,4.0,2.0,3.5,0.0037724801804870367,-0.002909962204284966,-0.9681331217288971,0.0010140795493498445,-0.0006699195364490151,0.001126584131270647
03:46:55,RTL,209764.0,-35.3628292,149.1644753,206441.25,0.0,1.0,-152.0,0.0,0.0,-1000.0,3.0,3.0,4.0,0.0037138027837499976,-0.0026666815392673016,-0.968194842338562,2.914050128310919e-06,0.00020663303439505398,0.0014542669523507357
03:46:56,RTL,209764.0,-35.3628292,149.1644753,207606.0,0.0,1.0,-152.0,0.0,0.0,-999.5,3.5,3.5,2.5,0.0037660078378394246,-0.0022847652435302734,-0.9683558940887451,0.0008654105477035046,0.0008671754039824009,0.00023743521887809038
03:46:58,RTL,299179.0,-35.3628292,149.1644753,210712.5,0.0,1.0,-152.0,0.0,0.0,-1000.0,3.5,3.5,2.5,0.0039924271404743195,-0.0022658483358100057,-0.9681918025016785,0.0005535436794161797,0.000495437067002058,0.0003862715093418956
03:47:00,RTL,299179.0,-35.3628292,149.1644753,213824.5,0.0,1.5,-152.0,0.0,0.0,-1000.0,5.0,3.5,4.0,0.0036687934771180153,-0.0022433378035202622,-0.9683226048946381,0.002191443578340113,0.0009291430469602346,0.0016793585382401943
03:47:01,RTL,69528.0,-35.3628292,149.1644753,215917.5,0.0,2.0,-152.0,0.0,0.0,-1000.25,3.25,3.25,3.0,0.0034825511393137276,-0.0021945751504972577,-0.9681543111801147,0.0006493190012406558,0.0006799119291827083,0.0005102556315250695
03:47:02,RTL,69528.0,-35.3628292,149.1644753,217086.5,0.0,1.0,-152.0,0.0,0.0,-1000.0,4.5,3.5,4.0,0.003097276668995619,-0.002016451966483146,-0.9685801863670349,0.0014143075095489621,0.0008605903713032603,0.001341662835329771
03:47:04,RTL,159291.0,-35.3628292,149.1644753,220189.5,0.0,1.5,-152.0,0.0,0.0,-999.5,3.0,4.0,3.5,0.0034808925120159984,-0.0024685492971912026,-0.9686541557312012,-7.368612568825483e-05,0.0007421777117997408,0.0010920916683971882
03:47:06,RTL,159291.0,-35.3628292,149.1644753,223307.5,0.0,1.0,-152.0,0.0,0.0,-1000.0,3.0,3.0,2.0,0.003292771289125085,-0.0023657040437683463,-0.9684299826622009,0.00011570623610168695,-5.1533919759094715e-05,-0.0006747481529600918
03:47:07,RTL,214290.0,-35.3628292,149.1644753,225241.75,0.0,1.0,-152.0,0.0,0.0,-1000.0,3.0,3.75,3.5,0.0037120029446668923,-0.002910535258706659,-0.9683322608470917,-7.858895696699619e-05,0.001060113834682852,0.0011006518616341054
03:47:08,RTL,214290.0,-35.3628292,149.1644753,226407.0,0.0,1.0,-152.0,0.0,0.0,-1000.0,0.0,3.5,4.0,0.003282918711192906,-0.002469664439558983,-0.967932790517807,-0.002734820358455181,0.0005391222657635808,0.0017505981959402561
03:47:10,RTL,130843.0,-35.3628292,149.1644753,229513.0,0.0,1.0,-152.0,0.0,0.0,-1000.0,1.5,2.0,3.5,0.0036791161401197314,-0.002483590040355921,-0.9678333103656769,-0.0014130247291177511,-0.0006673118332400918,0.0008220468880608678
03:47:12,RTL,130843.0,-35.3628292,149.1644753,232626.5,0.0,1.0,-152.0,0.0,0.0,-1000.0,3.5,2.5,3.0,0.0037662737304344773,-0.0020049443701282144,-0.9679910838603973,0.0002235708525404334,-0.0005184778710827231,0.00030995928682386875
03:47:13,RTL,134426.0,-35.3628292,149.1644753,234568.25,0.0,1.0,-152.0,0.0,0.0,-1000.0,3.75,3.5,2.5,0.003665690601337701,-0.0023268911754712462,-0.9680051207542419,0.0007685445598326623,0.0005686761578544974,-3.6390061723068357e-05
03:47:14,RTL,134426.0,-35.3628292,149.1644753,235735.0,0.0,2.0,-152.0,0.0,0.0,-1000.0,4.0,3.0,4.0,0.0037337102694436908,-0.0022114557214081287,-0.9681069552898407,0.0011509991018101573,-8.902279660105705e-05,0.0015255906619131565
03:47:16,RTL,65413.0,-35.3628292,149.1644753,238840.0,0.0,1.0,-152.0,0.0,0.0,-1000.0,2.5,3.0,2.5,0.0031804778845980763,-0.0020324186189100146,-0.9681892395019531,-0.0007379403105005622,0.0001270256470888853,-0.00010375975398346782
03:47:18,RTL,65413.0,-35.3628292,149.1644753,241947.0,0.0,1.0,-152.0,0.0,0.0,-1000.0,4.0,3.5,3.0,0.0035879607312381268,-0.0024312769528478384,-0.9683439135551453,0.0006518394220620394,0.00013582047540694475,0.0006824735319241881
03:47:19,RTL,74037.0,-35.3628292,149.1644753,243892.0,0.0,1.0,-152.0,0.0,0.0,-999.75,4.0,2.75,4.0,0.003550884604919702,-0.0024599473690614104,-0.9683240652084351,0.0008997360127978027,-0.00042520108399912715,0.001306433230638504
03:47:20,RTL,74037.0,-35.3628292,149.1644753,245058.0,0.0,1.0,-152.0,0.0,0.0,-1000.0,3.5,2.5,3.0,0.0035637381952255964,-0.0029322027694433928,-0.9684106111526489,0.0007350833620876074,-0.00040800950955599546,0.0005299173062667251
03:47:22,RTL,273882.0,-35.3628292,149.1644753,248162.0,-1.0,4.0,-151.0,0.0,0.0,-998.5,1.5,55.5,3.0,0.0035503209801390767,0.014062311733141541,-0.9681601226329803,-0.002317496226169169,0.052523182705044746,0.00031694816425442696
03:47:24,RTL,273882.0,-35.362833550000005,149.16448325,251186.5,-56.0,86.5,-142.0,18.5,8.5,-993.0,-5.0,37.0,4.5,-0.005505440756678581,0.09072976186871529,-0.9674814343452454,-0.008228307939134538,0.0342808086425066,0.001355178072117269
03:47:25,RTL,265657.0,-35.362844675,149.16450112500002,252719.5,-155.5,176.25,-84.25,48.5,12.5,-939.25,17.5,-36.5,394.5,-0.01171769987558946,0.1830759383738041,-0.6437828242778778,0.013906185980886221,-0.04044381435960531,0.3916611671447754
03:47:26,RTL,265657.0,-35.36285695,149.16451784999998,253207.5,-199.0,236.5,-35.5,67.0,5.5,-940.5,45.5,-38.0,129.5,0.07510677352547646,0.11349460855126381,-0.44426050782203674,0.04245481267571449,-0.04247079137712717,0.12696610763669014
03:47:28,RTL,45943.0,-35.3628949,149.16459079999998,253024.5,-252.5,427.0,25.5,112.0,-12.5,-1016.5,128.5,48.0,-32.5,0.07412324473261833,0.21328198909759521,-0.37642429769039154,0.12493364047259092,0.04477103240787983,-0.03658909164369106
03:47:30,RTL,45943.0,-35.36295215,149.16470020000003,252858.0,-373.5,534.5,-5.0,142.0,2.5,-996.0,-16.5,-21.0,-42.0,-0.002262445632368326,0.18593917787075043,-0.4644295275211334,-0.01976945623755455,-0.025315205100923777,-0.045647675171494484
03:47:31,RTL,56712.0,-35.36299585,149.164776125,252929.25,-397.5,548.0,-6.0,151.25,12.5,-989.0,-14.25,-21.0,-35.25,-0.012015524785965681,0.15477002784609795,-0.5136437118053436,-0.017562196706421673,-0.025011201505549252,-0.03881771629676223
03:47:32,RTL,56712.0,-35.36302235,149.16482175,252972.5,-397.5,546.5,-1.5,148.5,14.5,-974.5,19.5,20.0,-31.5,-0.019066808745265007,0.15133067965507507,-0.541207492351532,0.015985787846148014,0.01684858533553779,-0.03535489924252033
03:47:34,RTL,156036.0,-35.36309345,149.16494404999997,252955.5,-402.0,559.0,3.0,147.5,40.5,-986.5,47.5,-4.0,-15.5,-0.0194650087505579,0.15860702097415924,-0.6023287177085876,0.04445948824286461,-0.007677909568883479,-0.019428210332989693
03:47:36,RTL,156036.0,-35.3631636,149.16506475,253040.5,-364.0,519.0,-3.0,146.0,46.5,-984.0,67.0,-33.5,-5.5,-0.053306667134165764,0.07467660307884216,-0.6453673839569092,0.06304521858692169,-0.03778245113790035,-0.008469145279377699
03:47:37,RTL,233120.0,-35.36320105,149.1651295,253041.0,-300.0,429.5,5.25,119.25,52.0,-997.0,254.75,-39.25,10.0,-0.06024930253624916,0.018186061002779752,-0.6661988794803619,0.2510358542203903,-0.04324575560167432,0.006927878363057971
03:47:38,RTL,233120.0,-35.363220049999995,149.16516225,253011.0,-253.0,360.5,5.0,98.5,3.5,-994.5,-572.0,-45.5,-63.5,-0.06662444211542606,-0.018842404708266258,-0.6761992275714874,-0.575402706861496,-0.04968230985105038,-0.06754650920629501
03:47:40,RTL,118119.0,-35.3632537,149.16522005000002,252943.5,-122.5,170.5,2.5,47.5,1.5,-1009.0,-576.5,-31.5,-10.0,-0.05285297706723213,-0.06681133806705475,-0.6980127990245819,-0.5808918923139572,-0.03576541971415281,-0.013545764610171318
03:47:42,RTL,118119.0,-35.3632652,149.1652413,252935.0,-21.5,24.0,1.5,11.5,25.0,-1008.5,580.5,18.5,1.5,-0.018086380790919065,-0.04886484332382679,-0.7160484492778778,0.5776731371879578,0.015566689893603325,-0.002067588735371828
03:47:43,RTL,194304.0,-35.363265825,149.1652436,252940.0,0.25,-13.25,1.0,0.25,11.5,-996.25,156.75,29.5,-0.25,-0.012737052726151887,-0.024213169934228063,-0.7264940738677979,0.15336884558200836,0.026505232322961092,-0.0032398076145909727
03:47:44,RTL,194304.0,-35.3632656,149.16524345,252943.5,1.5,-19.0,1.0,-1.5,-25.5,-998.0,-543.5,19.5,-3.5,-0.009821244981139898,-0.005297287832945585,-0.7320606708526611,-0.5466269254684448,0.016716558020561934,-0.0077507710084319115
03:47:46,RTL,18006.0,-35.36326495,149.16524225,252939.5,7.5,-20.5,0.0,-2.5,16.0,-1007.5,518.5,9.0,-1.5,0.006693398579955101,-0.015371715649962425,-0.7428773641586304,0.516134575009346,0.006116270087659359,-0.005420255707576871
03:47:48,RTL,18006.0,-35.363263849999996,149.1652397,252932.5,9.0,-13.5,0.0,-1.5,-29.5,-998.0,-571.5,5.5,0.0,-2.3544300347566605e-05,-0.004864089423790574,-0.7526658177375793,-0.5742035210132599,0.002684802166186273,-0.0029727258952334523
03:47:49,RTL,82317.0,-35.363262899999995,149.1652392,252918.25,5.25,-10.0,8.0,0.0,-15.0,-969.25,-239.75,2.0,0.75,-0.005621503369184211,-0.0021507883502636105,-0.7585597038269043,-0.24224797310307622,-0.000977659597992897,-0.002600913227070123
03:47:50,RTL,82317.0,-35.36326235,149.1652392,252741.5,2.5,-8.5,48.0,0.0,35.5,-935.5,161.0,-1.0,2.0,-0.014107339549809694,-0.0024952742969617248,-0.761783093214035,0.15660178661346436,-0.0045407970901578665,-0.0013930905843153596
03:47:52,RTL,130395.0,-35.3632623,149.16523855,250766.0,-1.0,-6.5,106.0,-2.5,81.0,-1021.0,1083.5,-1.0,10.0,0.006687600864097476,-0.007718053413555026,-0.7681845128536224,1.0794540643692017,-0.004323647823184729,0.006858193781226873
03:47:54,RTL,130395.0,-35.3632643,149.1652359,248660.0,15.0,8.5,96.5,-2.0,72.0,-1031.0,963.0,9.0,7.0,0.03449185565114021,-0.008740535471588373,-0.7754086554050446,0.9585424959659576,0.006231855135411024,0.004258602391928434
03:47:55,RTL,11566.0,-35.36326475,149.165235225,247386.5,23.75,16.25,97.75,-0.75,68.75,-1018.75,886.75,2.25,3.25,0.027511070482432842,-0.007066635647788644,-0.7793067544698715,0.8821220099925995,-0.0005808457499369979,-0.0002620683517307043
03:47:56,RTL,11566.0,-35.3632648,149.16523504999998,246616.5,27.0,19.5,96.5,0.0,75.0,-988.5,924.5,7.5,6.5,0.026409858837723732,-0.005486392416059971,-0.7807838916778564,0.9194567501544952,0.0049937478033825755,0.0030329700093716383
03:47:58,RTL,203784.0,-35.36326365,149.16523619999998,244587.0,23.0,16.5,98.0,2.5,67.0,-1027.5,1088.0,2.5,3.0,0.00976719195023179,-0.001637691690120846,-0.7859955728054047,1.0826745927333832,-0.0003368257312104106,-0.0006995601579546928
03:48:00,RTL,203784.0,-35.3632634,149.16523669999998,242555.5,11.0,7.5,99.0,-1.5,62.5,-999.5,1473.0,-1.0,4.0,0.03498727083206177,-0.008060645079240203,-0.7912895977497101,1.4685533046722412,-0.0037694942438974977,0.0004993312759324908
03:48:01,RTL,41788.0,-35.363264175,149.16523577499999,241279.75,17.75,12.25,98.75,-0.75,48.25,-1004.25,1454.0,0.25,-6.25,0.04767660517245531,-0.006889712298288941,-0.7939060181379318,1.4498720467090607,-0.00212099906639196,-0.010166677529923618
03:48:02,RTL,41788.0,-35.36326445,149.1652354,240511.0,21.5,15.0,97.0,-0.5,42.0,-1071.5,1305.5,1.5,1.5,0.04844672046601772,-0.005971491103991866,-0.7951316237449646,1.3010185360908508,-0.0005464095156639814,-0.0017984044970944524
03:48:04,RTL,111927.0,-35.36326295,149.16523665,238467.5,19.0,13.0,98.0,5.5,24.5,-1025.0,1111.0,0.0,-3.5,0.011725720949470997,0.0025983337545767426,-0.7967051267623901,1.1071153283119202,-0.0027160504832863808,-0.006974235409870744
03:48:06,RTL,111927.0,-35.36326085,149.16523934999998,236435.5,-9.5,-9.5,101.0,0.0,2.0,-1001.5,893.0,-6.0,4.0,0.00042715389281511307,-0.0038999748649075627,-0.800891101360321,0.8903064131736755,-0.009452348109334707,0.0005447011208161712
03:48:07,RTL,46874.0,-35.363261449999996,149.165238975,235166.0,-9.75,-11.0,99.25,-1.25,23.0,-1015.25,1071.25,-1.0,2.25,0.019369733287021518,-0.008289987687021494,-0.8024184852838516,1.0678653568029404,-0.003957584907766432,-0.0012959084124304354
03:48:08,RTL,46874.0,-35.36326215,149.16523825000002,234408.0,-6.0,-9.0,100.5,-3.0,8.0,-1012.5,826.5,-1.0,1.5,0.029509647749364376,-0.009604077320545912,-0.8036239743232727,0.8236385583877563,-0.0036749017890542746,-0.0021257586777210236
03:48:10,RTL,29450.0,-35.36326485,149.16523510000002,232383.5,15.0,10.0,104.0,-5.0,-30.5,-1010.0,60.5,2.0,4.0,0.059031348675489426,-0.010043753776699305,-0.8060097992420197,0.05736332992091775,-9.387452155351639e-05,0.0007380240131169558
03:48:12,RTL,29450.0,-35.3632662,149.16523295000002,230343.0,40.5,33.5,103.0,1.0,-73.5,-994.0,-831.0,4.0,-10.0,0.05041640065610409,-0.0016522174410056323,-0.8066583573818207,-0.8357871174812317,0.0020939487731084228,-0.014728162437677383
03:48:13,RTL,283580.0,-35.3632652,149.165233875,229067.5,35.5,31.0,102.25,3.0,-39.0,-976.75,211.5,-1.0,-5.25,0.038997177965939045,0.0001364757463306887,-0.8069986552000046,0.20713482797145844,-0.0037515642470680177,-0.009378519258461893
03:48:14,RTL,283580.0,-35.36326455,149.16523465,228296.0,31.0,27.5,99.0,3.0,-61.5,-1009.5,-571.5,4.0,-3.5,0.022795061580836773,0.000570791118661873,-0.8075714111328125,-0.5767726302146912,0.0015354211209341884,-0.007483146502636373
03:48:16,RTL,159856.0,-35.3632627,149.165237,226240.5,12.0,10.5,99.0,2.5,-54.0,-970.0,-255.5,0.0,-2.0,0.00359246606240049,-0.0009808218310354277,-0.8102373480796814,-0.2612884119153023,-0.0026778336614370346,-0.006534299347549677
03:48:18,RTL,159856.0,-35.363261800000004,149.1652385,224189.5,0.0,-3.5,97.5,2.0,-69.5,-1014.0,-1501.5,0.5,-2.0,-0.0286286361515522,-0.0031034204876050353,-0.8109860122203827,-1.5085909366607666,-0.001887093880213797,-0.006179350544698536
03:48:19,RTL,150962.0,-35.3632609,149.165239525,222912.5,-6.75,-10.75,98.5,1.25,-13.25,-1011.25,-872.0,-0.75,5.5,-0.03641990292817354,-0.0026241043233312666,-0.811672568321228,-0.8804752081632614,-0.0029664304747711867,0.0022508109686896205
03:48:20,RTL,150962.0,-35.3632606,149.16523995,222150.5,-12.0,-14.5,102.0,0.0,30.0,-989.0,-127.0,-2.5,6.0,-0.03355110250413418,-0.003969523590058088,-0.8118661940097809,-0.13682680949568748,-0.005028286133892834,0.0025722970021888614
03:48:22,RTL,215894.0,-35.3632604,149.1652401,220100.5,-17.0,-19.0,99.5,-1.0,62.0,-963.0,456.5,-0.5,1.5,-0.02412104606628418,-0.004732812289148569,-0.8134463131427765,0.4485063999891281,-0.0025461888872087,-0.0023513170890510082
03:48:24,RTL,215894.0,-35.3632606,149.16523975,218050.5,-17.0,-20.5,99.0,0.5,-59.0,-974.0,-1520.0,0.5,3.5,-0.03278111480176449,-0.003313242457807064,-0.8137809336185455,-1.5265072584152222,-0.0010055159218609333,-2.2002728655934334e-05
03:48:25,RTL,641.0,-35.363260249999996,149.165240075,216800.0,-18.0,-20.25,98.0,-0.25,-25.25,-983.75,-1108.0,-1.5,2.5,-0.040592994540929794,-0.0032273591496050358,-0.8145184516906738,-1.1147327572107315,-0.004141420358791947,-0.0013492232537828386
03:48:26,RTL,641.0,-35.363260249999996,149.16524015,216029.0,-20.0,-21.0,100.5,-1.5,-11.5,-1008.5,-1078.0,-1.0,6.5,-0.040703706443309784,-0.005967981647700071,-0.8148757219314575,-1.0849765837192535,-0.0037043063202872872,0.0031727568712085485
03:48:28,RTL,148510.0,-35.36326135,149.1652388,213980.5,-13.5,-16.0,101.0,-1.0,-16.5,-985.0,-1068.5,4.0,10.5,-0.017335153184831142,-0.0057458095252513885,-0.8155403435230255,-1.0751823782920837,0.0020262064645066857,0.006705619161948562
03:48:30,RTL,148510.0,-35.3632618,149.16523815,211942.5,-5.0,-7.5,96.5,0.0,11.5,-994.0,-564.5,1.0,5.0,-0.01831076852977276,-0.0037985638482496142,-0.8158718347549438,-0.5711203962564468,-0.0015938669675961137,0.0019359870348125696
03:48:31,RTL,175681.0,-35.36326165,149.16523835,210668.5,-4.0,-6.75,98.0,0.75,27.0,-991.75,-193.25,0.25,2.25,-0.022657891269773245,-0.002781683811917901,-0.8157850354909897,-0.200009448453784,-0.0022842715261504054,-0.0013906602398492396
03:48:32,RTL,175681.0,-35.3632614,149.16523865,209903.5,-6.0,-8.0,99.5,0.0,56.5,-976.5,442.5,-3.0,13.0,-0.018634606152772903,-0.0035985810682177544,-0.815849244594574,0.4363573342561722,-0.0052246833220124245,0.009794038953259587
03:48:34,RTL,158255.0,-35.36326175,149.1652385,207838.0,-5.5,-8.0,95.0,-3.0,81.0,-974.5,1216.0,6.0,11.5,0.004080869373865426,-0.006312218494713306,-0.816031813621521,1.2109947204589844,0.004416474839672446,0.007799638202413917
03:48:36,RTL,158255.0,-35.363262950000006,149.16523705,205807.5,4.5,0.0,96.0,0.0,71.5,-997.0,1197.5,0.5,5.5,0.020098090171813965,-0.0041850286070257425,-0.817901998758316,1.1919732689857483,-0.0018123877234756947,0.001458978746086359
03:48:37,RTL,127303.0,-35.3632631,149.16523675000002,204531.5,8.25,4.0,98.25,0.0,65.5,-1027.25,1409.0,0.5,6.25,0.023874592036008835,-0.004406223946716636,-0.8169178813695908,1.4044983088970184,-0.0015557835286017507,0.00295697629917413
03:48:38,RTL,127303.0,-35.3632632,149.1652367,203769.0,8.5,5.0,98.5,0.0,60.0,-972.0,1478.5,0.0,4.0,0.027430069632828236,-0.0050083601381629705,-0.8172686696052551,1.4738802313804626,-0.0020752958953380585,0.00013116386253386736
03:48:40,RTL,88679.0,-35.3632634,149.1652364,201745.0,11.0,7.0,100.0,1.5,-9.0,-981.0,618.5,1.5,-2.0,0.029606323689222336,-0.0034943982027471066,-0.8184069097042084,0.6158653795719147,0.0001585978316143155,-0.00599159742705524
03:48:42,RTL,88679.0,-35.363262399999996,149.1652373,199695.5,5.5,2.5,100.0,2.5,-60.5,-961.5,-286.5,1.5,1.0,0.0059917757753282785,0.0009441858856007457,-0.8173353970050812,-0.2897702008485794,-0.0006291146855801344,-0.0030115810222923756
03:48:43,RTL,235435.0,-35.3632614,149.16523840000002,198429.25,-2.75,-3.5,99.75,0.25,-61.75,-972.75,-551.75,-1.75,-3.0,-0.008645253954455256,-0.0016188950758078136,-0.8178828954696655,-0.5546645820140839,-0.003864964150125161,-0.006705814739689231
03:48:44,RTL,235435.0,-35.3632612,149.1652387,197659.0,-7.0,-7.0,101.5,0.0,-67.5,-995.0,-781.5,-2.0,4.0,-0.011542418971657753,-0.004260325338691473,-0.8184825479984283,-0.7848568856716156,-0.004253217892255634,6.085960194468498e-05
03:48:46,RTL,173248.0,-35.3632617,149.16523834999998,195621.0,-5.5,-7.5,100.5,0.0,-51.0,-1002.5,-237.0,1.5,-2.0,0.010539534501731396,-0.003001648699864745,-0.8186606764793396,-0.2399679496884346,0.0003104339702986181,-0.006450623273849487
03:48:48,RTL,173248.0,-35.3632614,149.1652387,193586.5,-7.5,-9.0,100.0,0.5,-60.5,-982.0,-576.0,-2.5,0.0,-0.008087934693321586,-0.0029601077549159527,-0.8174902498722076,-0.5790081173181534,-0.004686556872911751,-0.0035555583890527487
03:48:49,RTL,145861.0,-35.3632613,149.16523865,192309.75,-9.75,-10.0,100.5,-0.25,-74.5,-974.0,-1045.75,-0.25,3.75,-0.009094769600778818,-0.0031352827209047973,-0.8191007077693939,-1.0485647320747375,-0.0022740936547052115,0.00016490858979523182
03:48:50,RTL,145861.0,-35.3632613,149.1652386,191542.5,-9.5,-10.0,101.0,-0.5,-77.5,-962.5,-1153.5,-1.5,-5.5,-0.010777347022667527,-0.0031875851564109325,-0.8186591863632202,-1.1563556790351868,-0.003409281140193343,-0.009955183137208223
03:48:52,RTL,217245.0,-35.36326185,149.16523775000002,189508.5,-6.5,-4.5,101.0,-0.5,-60.0,-992.0,-1469.5,-0.5,1.0,-0.013190330006182194,-0.0032648752676323056,-0.8189964890480042,-1.4735559821128845,-0.002221997594460845,-0.0023678477155044675
03:48:54,RTL,217245.0,-35.36326235,149.1652373,187452.5,0.0,0.0,100.5,0.0,-23.0,-1021.5,-1137.0,4.0,-2.5,-0.011773372069001198,-0.003496281336992979,-0.8177377879619598,-1.1423672139644623,0.0022504302323795855,-0.006506165023893118
03:48:55,RTL,247318.0,-35.363262225,149.165237475,186176.75,1.0,0.0,98.25,0.75,-11.5,-1016.0,-884.25,5.25,8.75,-0.02173302974551916,-0.001486793604271952,-0.8187065273523331,-0.8898291066288948,0.0033201280748471618,0.00505758635699749
03:48:56,RTL,247318.0,-35.363261699999995,149.165238,185413.0,0.0,-0.5,99.0,0.5,28.5,-957.5,-157.5,2.5,-1.0,-0.022901161573827267,-8.558557874494e-05,-0.8183131217956543,-0.1640038564801216,0.001420008484274149,-0.005073999520391226
03:48:58,RTL,118694.0,-35.363261,149.1652388,183380.0,-9.5,-8.5,97.0,0.0,66.0,-1008.5,852.5,3.0,6.5,-0.009259362472221255,-0.0020234474213793874,-0.8188350796699524,0.8475177586078644,0.0014138160040602088,0.003126119845546782
03:49:00,RTL,118694.0,-35.363260833333335,149.16523926666667,181471.33333333334,-11.333333333333334,-11.333333333333334,98.0,-0.6666666666666666,68.66666666666667,-997.6666666666666,819.3333333333334,1.6666666666666667,9.333333333333334,-0.014060483934978643,-0.003094951855018735,-0.8191239833831787,0.814734160900116,0.0007181498222053051,0.006187178427353501
03:49:01,RTL,4722.0,-35.36326105,149.1652392,180068.25,-12.75,-13.25,98.75,-1.0,69.0,-1025.0,1382.6666666666667,0.0,3.0,0.006894526653923094,-0.006236110464669764,-0.8183881193399429,1.3784815073013306,-0.0031641904497519135,-0.00035152415512129664
03:49:02,RTL,4722.0,-35.363261449999996,149.16523895,179304.5,-11.5,-13.0,98.5,-1.6666666666666667,25.666666666666668,-1010.3333333333334,1133.3333333333333,-2.6666666666666665,0.3333333333333333,0.016850916668772697,-0.007206878857687116,-0.8178646564483643,1.0093839764595032,-0.004404856823384762,-0.005455761915072799
03:49:04,RTL,277497.0,-35.3632622,149.16523803333334,177378.0,-2.6666666666666665,-7.0,100.33333333333333,0.3333333333333333,-2.3333333333333335,-1000.0,861.0,2.6666666666666665,3.0,0.025153483574589092,-0.0051760002970695496,-0.8189804951349894,0.8597590923309326,0.0014690831303596497,7.600771884123485e-05
03:49:06,RTL,277497.0,-35.363262066666664,149.165238,175357.66666666666,-0.6666666666666666,-4.666666666666667,102.33333333333333,1.6666666666666667,15.333333333333334,-1017.3333333333334,1092.0,1.6666666666666667,9.333333333333334,0.01615400891751051,-0.002620498649775982,-0.8188842236995697,1.0154196619987488,0.0012727229623124003,0.004397384589537978
03:49:07,RTL,41513.0,-35.36326183333333,149.16523823333333,174095.66666666666,-3.0,-6.333333333333333,101.66666666666667,0.6666666666666666,3.0,-994.0,876.0,2.0,1.3333333333333333,0.014144388337930044,-0.0031887645988414683,-0.8188160260518392,0.8751717209815979,0.000521138853703936,-0.0021130677002171674
03:49:08,RTL,41513.0,-35.3632617,149.1652384,173333.66666666666,-5.333333333333333,-8.333333333333334,101.66666666666667,0.6666666666666666,-14.0,-988.3333333333334,526.6666666666666,1.0,-1.6666666666666667,0.010358092375099659,-0.0034951569978147745,-0.8188294967015585,0.5261668215195338,-0.0009415066645791134,-0.005627129382143418
03:49:10,RTL,56135.0,-35.36326113333333,149.165239,171296.66666666666,-10.666666666666666,-11.666666666666666,103.0,-1.3333333333333333,-57.666666666666664,-977.0,-584.6666666666666,-1.0,3.6666666666666665,-0.008714471478015184,-0.004488121795778473,-0.8181039889653524,-0.5859569236636162,-0.003138610511086881,0.0003265039995312691
03:49:12,RTL,56135.0,-35.3632627,149.16523736666667,169259.66666666666,-1.3333333333333333,-3.6666666666666665,103.66666666666667,-1.3333333333333333,-69.66666666666667,-990.3333333333334,-1110.3333333333333,-0.3333333333333333,2.0,0.006884962009886901,-0.0059061599895358086,-0.8195330103238424,-1.1117229064305623,-0.0017850329556191962,-0.0015045281033962965
03:49:13,RTL,276783.0,-35.3632631,149.1652367,167981.66666666666,5.333333333333333,2.6666666666666665,103.0,-2.3333333333333335,-60.0,-1007.6666666666666,-1300.0,-0.3333333333333333,4.333333333333333,-0.00015060526008407274,-0.004438336317737897,-0.8184442718823751,-1.3018005688985188,-0.0021501357356707254,0.0010216372708479564
03:49:14,RTL,276783.0,-35.36326343333334,149.16523623333333,167219.66666666666,7.0,5.666666666666667,102.0,-2.0,-48.333333333333336,-994.0,-1467.6666666666667,-2.0,6.666666666666667,-0.002532436978071928,-0.005671021683762471,-0.8191432952880859,-1.4706017176310222,-0.003909672338825961,0.0032776199902097383
03:49:16,RTL,76806.0,-35.3632641,149.16523533333336,165160.66666666666,19.666666666666668,16.0,102.33333333333333,-0.3333333333333333,-20.666666666666668,-996.3333333333334,-1140.0,7.333333333333333,-8.333333333333334,-0.0042493311533083515,-0.001200264455595364,-0.8188949028650919,-1.1444854338963826,0.0061429952426503105,-0.012050822687645754
03:49:18,RTL,76806.0,-35.36326243333334,149.16523703333334,163103.33333333334,10.0,8.333333333333334,100.66666666666667,2.0,18.0,-1016.3333333333334,-407.0,0.6666666666666666,3.3333333333333335,-0.022196880852182705,0.001068075109894077,-0.8188556035359701,-0.41240813334782916,-0.001041546172928065,-0.00022845172012845674
03:49:19,RTL,7713.0,-35.3632617,149.16523800000002,161824.0,0.0,0.3333333333333333,100.33333333333333,-1.0,-0.6666666666666666,-1020.0,-751.3333333333334,-7.333333333333333,17.333333333333332,-0.027488081405560177,-0.002722228799636165,-0.8192848364512125,-0.7564501961072286,-0.008892072675128778,0.014315731823444366
03:49:20,RTL,7713.0,-35.36326173333333,149.16523813333333,161059.33333333334,-4.0,-2.3333333333333335,101.66666666666667,-1.6666666666666667,-3.3333333333333335,-998.0,-888.3333333333334,-1.3333333333333333,3.3333333333333335,-0.021394359568754833,-0.004439189952487747,-0.8189775943756104,-0.893238385518392,-0.0032404178443054357,0.00022181891836225986
03:49:22,RTL,265276.0,-35.3632636,149.16523623333333,159018.66666666666,6.0,4.666666666666667,98.0,-3.0,-7.666666666666667,-1009.6666666666666,-952.0,0.3333333333333333,10.333333333333334,0.007724238365578155,-0.006988884415477514,-0.8195183277130127,-0.9568595886230469,-0.0008074266370385885,0.007215445473169287
03:49:24,RTL,265276.0,-35.36326436666666,149.16523513333334,156981.0,23.666666666666668,18.333333333333332,99.33333333333333,1.3333333333333333,47.0,-993.6666666666666,239.33333333333334,5.333333333333333,8.666666666666666,0.013776366288463274,-0.0021184638996298113,-0.8183655341466268,0.23381319145361582,0.004018766262258093,0.005718966557954748
03:49:25,RTL,81941.0,-35.363263366666665,149.16523623333333,155696.0,19.333333333333332,14.333333333333334,99.66666666666667,3.3333333333333335,54.0,-968.3333333333334,354.3333333333333,8.666666666666666,9.666666666666666,-0.007725757624333103,0.0009757766383700073,-0.8182185292243958,0.3491394718488057,0.007536018538909654,0.006473984258870284
03:49:26,RTL,81941.0,-35.3632622,149.1652375,154927.66666666666,12.666666666666666,8.333333333333334,98.66666666666667,4.666666666666667,58.0,-993.6666666666666,567.3333333333334,5.333333333333333,19.666666666666668,-0.019485018216073513,0.0017152887691433232,-0.8181434273719788,0.5619593461354574,0.004313927803499003,0.016357979426781338
03:49:28,RTL,106958.0,-35.3632598,149.16524056666665,152884.0,-14.333333333333334,-16.0,99.0,2.6666666666666665,39.666666666666664,-1006.6666666666666,173.66666666666666,-0.3333333333333333,8.0,-0.04450155173738798,-0.0013268163311295211,-0.8188413977622986,0.16854496051867804,-0.0019328378451367219,0.005220493612190087
03:49:30,RTL,106958.0,-35.3632594,149.16524136666666,150853.0,-28.0,-28.666666666666668,97.66666666666667,-2.6666666666666665,61.0,-996.6666666666666,444.0,1.3333333333333333,1.3333333333333333,-0.033920525262753166,-0.006753566364447276,-0.8191242019335429,0.43968161940574646,-6.505788769572973e-05,-0.0019143885001540184
03:49:31,RTL,235426.0,-35.3632605,149.1652401,149585.0,-23.0,-25.0,99.0,-3.6666666666666665,68.66666666666667,-1003.6666666666666,698.6666666666666,4.333333333333333,7.0,-0.007811503640065591,-0.007741883862763643,-0.8179899056752523,0.6947973569234213,0.0035375754814594984,0.003941038080180685
03:49:32,RTL,235426.0,-35.36326126666666,149.1652391,148814.66666666666,-17.0,-19.333333333333332,99.0,-3.0,69.0,-1021.6666666666666,996.6666666666666,3.6666666666666665,1.6666666666666667,0.008653515173743168,-0.007268064810583989,-0.818122923374176,0.9931401511033376,0.002750118263065815,-0.0015565565942476194
03:49:34,RTL,165663.0,-35.36326223333333,149.1652377,146780.33333333334,-3.3333333333333335,-5.333333333333333,98.66666666666667,-2.6666666666666665,54.666666666666664,-1027.6666666666667,1362.0,-3.0,0.3333333333333333,0.02392260419825713,-0.005419872390727202,-0.8187491297721863,1.360133171081543,-0.0044101431461361544,-0.002979912872736653
03:49:36,RTL,165663.0,-35.363263966666665,149.1652356333333,144737.66666666666,11.333333333333334,8.333333333333334,101.0,-0.6666666666666666,-39.0,-1000.6666666666666,-24.0,2.3333333333333335,4.0,0.03752994289000829,-0.005344081359604995,-0.8186371723810831,-0.024766719434410334,0.0010885183388988178,0.0002871180574099223
03:49:37,RTL,163386.0,-35.363264433333335,149.16523506666667,143458.33333333334,18.333333333333332,15.0,100.0,-0.3333333333333333,-58.666666666666664,-1007.3333333333334,-675.6666666666666,0.3333333333333333,0.0,0.026873804007967312,-0.0049218259130915,-0.817827026049296,-0.6773782049616178,-0.0010318825176606576,-0.003270386951044202
03:49:38,RTL,163386.0,-35.36326466666667,149.1652348,142683.66666666666,20.666666666666668,17.333333333333332,103.66666666666667,0.6666666666666666,-64.33333333333333,-959.0,-552.3333333333334,2.6666666666666665,-4.333333333333333,0.03611446171998978,-0.0045926375314593315,-0.8181249896685282,-0.5538961738348007,0.0018275165930390358,-0.008328336291015148
03:49:40,RTL,175414.0,-35.36326376666667,149.16523576666665,140645.33333333334,20.0,16.0,99.66666666666667,1.6666666666666667,-60.0,-973.3333333333334,-353.0,1.3333333333333333,-2.3333333333333335,0.017770202209552128,-0.000694528348200644,-0.8180539806683859,-0.3549777368704478,0.000304289860650897,-0.006026994514589508
03:49:42,RTL,175414.0,-35.363263233333335,149.1652366666667,138605.66666666666,11.0,8.0,98.0,-0.6666666666666666,-67.0,-1005.3333333333334,-1342.3333333333333,0.0,0.3333333333333333,-0.0016993832444616903,-0.00442410446703434,-0.818142811457316,-1.3455968697865803,-0.0012626649501423042,-0.002865772849569718
03:49:43,RTL,216216.0,-35.3632633,149.1652366333333,137336.66666666666,10.666666666666666,7.0,99.33333333333333,-1.0,-24.666666666666668,-981.6666666666666,-1186.0,0.6666666666666666,4.666666666666667,-0.009699763730168343,-0.004876481213917335,-0.8183691700299581,-1.1912376085917156,-0.0003869038967726131,0.001630103021549682
03:49:44,RTL,216216.0,-35.3632633,149.1652366,136565.66666666666,10.333333333333334,6.333333333333333,102.0,-0.3333333333333333,-22.666666666666668,-1010.6666666666666,-1102.6666666666667,2.0,2.0,-0.005647548474371433,-0.003517490578815341,-0.8181127905845642,-1.1082175175348918,0.0011758341764410336,-0.001417510366688172
03:49:46,RTL,289192.0,-35.36326233333333,149.16523736666667,134509.33333333334,8.0,5.333333333333333,100.33333333333333,1.0,45.333333333333336,-977.0,42.0,7.0,4.333333333333333,-0.018791602303584416,-7.724850244509678e-05,-0.8184600671132406,0.035724081099033356,0.006196437054313719,0.0016400286306937535
03:49:48,RTL,289192.0,-35.363261466666664,149.16523836666667,132465.33333333334,-2.6666666666666665,-2.3333333333333335,98.0,-0.3333333333333333,50.666666666666664,-972.3333333333334,110.0,0.3333333333333333,6.666666666666667,-0.019712094217538834,-0.0029860105520735183,-0.8182932337125143,0.10389940937360127,-0.0010517498400683205,0.00398086531398197
03:49:49,RTL,284668.0,-35.3632618,149.1652382,131189.0,-4.666666666666667,-5.0,98.33333333333333,-0.6666666666666666,57.0,-989.3333333333334,387.0,2.0,7.0,-0.006120679434388876,-0.004763353305558364,-0.8184072772661845,0.38164297739664715,0.0012496084285279114,0.004038475453853607
03:49:50,RTL,284668.0,-35.36326186666667,149.1652381,130425.33333333333,-2.3333333333333335,-4.0,97.33333333333333,0.6666666666666666,65.33333333333333,-983.3333333333334,654.3333333333334,9.0,10.666666666666666,-0.0034195459447801113,-0.002758246846497059,-0.8185961643854777,0.6489080786705017,0.008747265907004476,0.00767873910566171
03:49:52,RTL,105701.0,-35.36326056666667,149.16523959999998,128378.33333333333,-10.0,-12.333333333333334,96.66666666666667,3.3333333333333335,38.333333333333336,-1032.3333333333333,1335.6666666666667,1.6666666666666667,6.0,-0.006860295000175635,-0.000725734542356804,-0.8175672888755798,1.3327885866165161,0.0008922479173634201,0.003421598191683491
03:49:54,RTL,105701.0,-35.363258933333334,149.16524156666665,126368.33333333333,-30.0,-30.0,99.33333333333333,0.0,-24.333333333333332,-968.3333333333334,285.0,-3.0,-3.0,-0.022755480681856472,-0.003379034111276269,-0.8182831009229025,0.28462935735781986,-0.003544351551681757,-0.006181557507564624
03:49:55,RTL,246733.0,-35.363259500000005,149.1652411,125096.33333333333,-33.666666666666664,-32.666666666666664,102.0,-1.6666666666666667,-62.0,-980.0,-745.3333333333334,-4.333333333333333,2.3333333333333335,-0.017415880225598812,-0.007559465399632852,-0.818079928557078,-0.7459876736005148,-0.0057502709872399764,-9.307478709767263e-05
03:49:56,RTL,246733.0,-35.363260266666664,149.1652402666667,124334.0,-28.666666666666668,-28.666666666666668,100.0,-2.6666666666666665,-73.0,-978.3333333333334,-1133.0,1.3333333333333333,4.0,-0.011391322128474712,-0.008367572911083698,-0.8179118633270264,-1.1340003808339436,0.0006761649274267256,0.001290018204599619
03:49:58,RTL,61147.0,-35.36326160000001,149.16523853333334,122280.33333333333,-12.333333333333334,-14.666666666666666,100.0,-2.0,-70.33333333333333,-1000.6666666666666,-1294.0,-3.6666666666666665,2.3333333333333335,-0.011944247720142206,-0.005139792493234078,-0.8173458576202393,-1.2951942284901936,-0.004355079086963087,-0.000519573533286651
