time_stamp,RTL_ALT,roll,pitch,yaw,rollspeed,pitchspeed,yawspeed,lat,lon,relative_alt,vx,vy,vz,xacc,yacc,zacc,xgyro,ygyro,zgyro,MODE
19:11:36,1500.0,-4.464808080228977e-05,0.0015602140920236707,0.029166260734200478,0.0001899426570162177,0.00010517888586036861,0.002353937830775976,-35.3632621,149.1652374,28.0,-1.0,1.0,0.0,0.0,1.0,-1000.0,0.0,0.0,0.0,STABILIZE
19:11:46,1500.0,-0.0011925934813916683,0.0009040108998306096,0.024720482528209686,0.00020812283037230372,0.00022740353597328067,0.0018240857170894742,-35.3632621,149.1652375,5.0,-1.0,1.0,0.0,0.0,1.0,-1000.0,0.0,0.0,1.0,STABILIZE
19:11:48,1500.0,-0.0013658805983141065,0.0009403625153936446,0.024161221459507942,0.00023275596322491765,0.000305019726511091,0.00160064990632236,-35.3632621,149.1652375,16.0,-1.0,-1.0,-3.0,0.0,1.0,-1000.0,0.0,0.0,0.0,STABILIZE
19:11:52,1500.0,-0.00034091994166374207,0.0009965005447156727,0.023027919232845306,0.0002537225082051009,0.0003418729465920478,0.0016393724945373833,-35.3632621,149.16523734999998,17.5,-1.0,-0.5,-7.5,0.0,1.0,-1000.0,0.5,0.0,0.0,AUTO
19:11:54,1500.0,0.00026242157036904246,0.0013900154735893011,0.022260128520429134,0.00036561579327099025,0.00021468588965944946,0.0015029156347736716,-35.3632621,149.1652374,31.0,0.0,2.0,-3.5,0.0,1.0,-1000.0,0.0,0.5,0.5,AUTO
19:11:55,252578.0,0.0018773827760014683,0.0009449125791434199,0.021774645429104567,0.005899450305150822,-0.0025403228646609932,0.0015556375728920102,-35.3632621,149.1652374,51.5,0.0,0.25,-15.75,0.0,0.5,-1060.0,6.25,-2.25,0.75,AUTO
19:11:56,252578.0,0.002976293209940195,0.0006732557958457619,0.02177927177399397,-0.007621882250532508,0.0035473189782351255,0.0023165735183283687,-35.3632621,149.1652374,347.5,0.0,2.0,-92.5,0.0,0.0,-1122.0,-6.5,3.5,1.0,AUTO
19:11:58,252578.0,0.03218049509450793,0.013680099276825786,-0.03472625184804201,-0.14029094576835632,0.06639532279223204,-0.09555940330028534,-35.3632613,149.1652414,3291.0,8.0,54.0,-145.0,2.0,-10.0,-992.5,-139.5,66.5,-95.5,AUTO
19:12:00,252578.0,-0.04499237984418869,-6.608550029341131e-05,-0.09708766266703606,0.059543078765273094,0.0034303900320082903,-0.008808101993054152,-35.36326095,149.16524420000002,6314.0,-5.0,-45.5,-148.0,-4.5,8.0,-1000.5,59.5,3.5,-8.5,AUTO
19:12:01,24889.0,0.035002540331333876,0.008367946022190154,-0.098224813118577,0.05522331316024065,-0.002672414993867278,0.011357782466802746,-35.363262175,149.1652371,8247.25,-14.75,-37.75,-150.5,-4.0,11.5,-1002.0,55.5,-2.0,10.25,AUTO
19:12:02,24889.0,0.049408456310629845,-0.021888742223381996,-0.06790441274642944,-0.043423425406217575,-0.08085060492157936,0.08119071274995804,-35.3632632,149.16523504999998,9412.5,-11.5,-0.5,-148.5,1.5,3.5,-996.5,-42.0,-80.0,80.5,AUTO
19:12:04,24889.0,-0.005254844669252634,0.01049188431352377,-0.12018239498138428,0.01656404510140419,0.008346202783286572,-0.031217406503856182,-35.363261449999996,149.1652359,12491.0,10.5,-4.0,-149.5,-2.5,-1.0,-1000.5,16.5,8.5,-31.5,AUTO
19:12:06,24889.0,0.0086852484382689,0.007041163044050336,-0.14859484881162643,-0.0057596126571297646,-0.005333456676453352,-0.008180581266060472,-35.36326115,149.16523525000002,15593.5,-6.0,4.5,-150.0,0.5,0.0,-1000.0,-4.5,-4.0,-8.0,AUTO
19:12:07,235184.0,0.0029428534326143563,0.0021763587719760835,-0.1664128340780735,-0.002096927768434398,-0.0021158820600248873,-0.01889995951205492,-35.36326162500001,149.16523585,17533.25,-5.25,6.75,-150.0,1.0,0.0,-1000.0,-1.0,-1.25,-18.75,AUTO
19:12:08,235184.0,0.0016030693077482283,0.001107086951378733,-0.1813090816140175,-0.0012027255725115538,0.00018280016956850886,-0.020686653442680836,-35.36326185,149.16523625000002,18699.5,-3.5,5.5,-150.0,0.0,0.0,-1000.0,-0.5,0.5,-20.5,AUTO
19:12:10,235184.0,0.0035546302096918225,0.003191345720551908,-0.22562924772500992,0.0019418859155848622,0.0016990959993563592,-0.021962360478937626,-35.363261949999995,149.1652366,21816.5,-1.0,3.0,-151.0,0.0,0.0,-1000.0,2.5,2.5,-21.5,AUTO
19:12:12,235184.0,-0.0010660119587555528,0.003558651194907725,-0.2635285556316376,-0.03222347775590606,0.005896172835491598,-0.006809848826378584,-35.363262,149.1652369,24928.0,-1.5,3.0,-150.5,0.0,0.0,-997.5,-31.0,6.0,-7.5,AUTO
19:12:13,63070.0,0.009103536373004317,0.0033036359527613968,-0.2421908713877201,0.009794248064281419,-0.003175819234456867,0.026097199879586697,-35.363262225,149.16523684999999,26868.75,-4.5,1.25,-151.0,0.0,0.5,-999.5,10.5,-2.0,25.5,AUTO
19:12:14,63070.0,0.009352806024253368,0.0013555983314290643,-0.2229665070772171,-0.007206237060017884,0.0001275472022825852,0.024589354172348976,-35.3632624,149.16523695,28035.0,-2.5,6.5,-150.5,0.0,0.0,-999.0,-5.5,0.5,23.5,AUTO
19:12:16,63070.0,-0.0007070634455885738,0.001595531648490578,-0.1837339624762535,0.0011119128321297467,-0.00018507859203964472,0.016790246590971947,-35.3632624,149.1652381,31142.5,0.0,4.5,-151.0,0.0,-0.5,-1000.0,1.5,0.5,16.0,AUTO
19:12:18,63070.0,0.0013416044530458748,0.0012166197993792593,-0.1541491597890854,0.002840692992322147,0.0011515113001223654,0.013856829144060612,-35.3632623,149.1652382,34256.0,0.0,0.0,-151.0,0.0,0.0,-1000.5,3.5,1.5,13.0,AUTO
19:12:19,122964.0,0.002671755792107433,0.0011281871993560344,-0.13975995406508446,-9.384762961417437e-05,0.0006090285314712673,0.011739814653992653,-35.3632622,149.165238,36195.0,0.0,0.0,-151.0,0.0,0.0,-999.5,0.75,1.0,11.25,AUTO
19:12:20,122964.0,0.002449573832564056,0.0013870145776309073,-0.13197501003742218,-0.00217072363011539,0.0010444616782478988,0.009910352062433958,-35.3632622,149.1652379,37362.0,0.0,0.0,-151.0,0.0,0.0,-1000.0,-0.5,1.5,9.0,AUTO
19:12:22,122964.0,0.0025520166382193565,0.0014829646097496152,-0.11569821089506149,-0.0008631935343146324,-0.0011366929684299976,0.007471920922398567,-35.3632621,149.16523765,40468.0,-1.0,1.0,-151.0,0.0,0.0,-1000.0,0.5,0.0,7.0,AUTO
19:12:24,96215.0,0.002074868301860988,0.0014565338497050107,-0.10225110873579979,0.002170782594475895,-0.0005633954133372754,0.007197918137535453,-35.363262,149.1652376,43579.5,-1.0,1.0,-151.0,0.0,0.0,-1000.5,3.0,0.0,7.0,AUTO
19:12:26,69466.0,-0.001359409186989069,0.004246516793500632,-0.08407485485076904,-0.03582015255233273,0.03662014362635091,0.08243378065526485,-35.363262,149.1652375,46685.5,-1.0,0.5,-149.5,0.0,0.0,-986.5,-35.0,37.0,82.0,AUTO
19:12:28,69466.0,0.03741002269089222,-0.05272744782269001,0.2994864732027054,0.029529449064284563,0.01819842169061303,-0.024423867464065552,-35.36326475,149.16523275,48987.0,-1.0,-9.0,-68.0,-0.5,3.0,-968.0,30.5,19.0,-24.0,AUTO
19:12:30,25493.0,0.007367095582594629,0.014625984244048595,0.23128624260425568,-0.042891472578048706,0.012727231718599796,-0.022867223247885704,-35.36326185,149.16523665,49850.5,14.5,28.0,-19.5,-1.0,-20.5,-973.5,-43.0,13.0,-21.5,AUTO
19:12:32,25493.0,0.020623695105314255,-0.03503683768212795,0.18724067509174347,-0.509969636797905,-0.03304430190473795,-0.015608911868184805,-35.363261050000006,149.16523855,49756.5,4.5,6.0,8.5,-1.5,-31.0,-1012.5,-509.0,-31.5,-14.5,AUTO
19:12:34,25493.0,0.005398491397500038,-0.14804159849882126,0.9205046594142914,0.19293512403964996,-0.047946035861968994,0.3748246431350708,-35.36325225,149.1652462,49582.5,111.0,110.0,14.5,-31.5,10.5,-983.5,196.0,-46.5,374.5,AUTO
19:12:35,27334.0,0.025640481617301702,-0.08213244657963514,0.9016356617212296,-0.28911861777305603,0.08332173153758049,-0.06283453572541475,-35.363235325000005,149.16526455,49348.75,174.5,172.5,20.25,-53.25,-30.25,-992.25,-287.0,83.75,-61.75,AUTO
19:12:36,27334.0,0.05124272592365742,-0.03542221710085869,0.8749157190322876,0.8156173527240753,0.02608773671090603,-0.025082684122025967,-35.36322335,149.16527775,49189.0,169.5,171.5,22.0,-51.5,5.5,-995.0,817.5,26.5,-24.0,AUTO
19:12:38,27334.0,0.035741960629820824,0.025984504260122776,0.862185001373291,0.6284150183200836,0.0028619859367609024,-0.036286408081650734,-35.3631975,149.16530825,48777.0,99.0,114.0,14.5,-30.5,17.0,-1017.0,631.0,4.0,-35.5,AUTO
19:12:40,79264.0,0.030406360514461994,-0.07427078671753407,0.8421614170074463,0.5520409196615219,-0.27379612624645233,0.008124304004013538,-35.3631775,149.16533135,48491.0,110.0,115.5,15.0,-33.0,-8.5,-978.5,553.0,-272.0,8.5,AUTO
19:12:42,131194.0,0.038017500191926956,-0.12695623934268951,0.826526403427124,0.3159235776402056,-0.06671125441789627,-0.009305818006396294,-35.363149449999995,149.16536265000002,48100.5,153.0,150.5,28.0,-46.5,-31.5,-1004.0,317.5,-66.0,-9.0,AUTO
19:12:44,131194.0,0.04844800382852554,-0.017171818763017654,0.8199251890182495,0.5210400074720383,0.3909422606229782,-0.042779749259352684,-35.36312255,149.16539225,47686.5,125.5,135.5,18.5,-39.5,-17.5,-1023.0,522.0,391.5,-42.0,AUTO
19:12:45,25229.0,0.017401362769305706,-0.07950475951656699,0.8127950429916382,0.02494233101606369,0.11619277205318213,0.012000497277767863,-35.36310935,149.1654081,47472.75,116.5,125.75,18.75,-35.0,-12.75,-1001.75,28.25,117.25,11.75,AUTO
19:12:46,25229.0,0.03897011590500673,0.0363272987306118,0.807999312877655,0.4668665196125706,-0.2106058051188787,0.03628415148705244,-35.3630997,149.16541940000002,47342.666666666664,95.66666666666667,100.0,11.333333333333334,-26.333333333333332,-17.666666666666668,-1004.3333333333334,468.6666666666667,-209.0,36.333333333333336,AUTO
19:12:48,25229.0,0.022461383137851954,0.04015786821643511,0.8006609082221985,-0.6024310489495596,-0.17997044324874878,0.017482653260231018,-35.36307876666667,149.16544393333334,47035.0,117.33333333333333,109.0,12.0,-32.0,-61.333333333333336,-989.0,-599.6666666666666,-178.66666666666666,17.333333333333332,AUTO
19:12:50,25229.0,0.023996989553173382,-0.005954637657850981,0.7918168306350708,-0.025712193300326664,-0.3587333063284556,-0.053109414875507355,-35.363054500000004,149.16547126666669,46679.0,112.66666666666667,101.0,16.333333333333332,-32.666666666666664,-11.333333333333334,-992.6666666666666,-21.666666666666668,-356.6666666666667,-52.666666666666664,AUTO
19:12:51,98428.0,0.01750918881346782,0.05541367130354047,0.7891418735186259,-0.5145507554213206,0.13103878498077393,-0.040207096530745425,-35.36303976666667,149.16548843333334,46438.666666666664,137.0,121.0,12.333333333333334,-35.666666666666664,-46.666666666666664,-1005.0,-511.6666666666667,132.0,-39.333333333333336,AUTO
19:12:52,98428.0,0.010857113326589266,-0.12138998508453369,0.7862881422042847,0.35534954940279323,-0.3333379675944646,-0.0470781202117602,-35.3630319,149.16549783333335,46324.666666666664,120.33333333333333,106.0,20.666666666666668,-32.333333333333336,2.6666666666666665,-991.6666666666666,358.3333333333333,-331.3333333333333,-46.0,AUTO
19:12:54,98428.0,0.012293263571336865,-0.13487486292918524,0.7788221836090088,0.2980404868721962,-0.1641989847024282,0.006033774775763352,-35.36300656666667,149.16552760000002,45939.666666666664,141.0,111.66666666666667,24.666666666666668,-36.666666666666664,-26.0,-994.0,299.3333333333333,-162.33333333333334,6.0,AUTO
19:12:56,98428.0,0.0008889898890629411,-0.1547530988852183,0.7742407321929932,-0.1370947907368342,0.029764351124564808,0.017794878066827852,-35.3629821,149.16555636666666,45554.666666666664,155.0,113.33333333333333,24.333333333333332,-40.666666666666664,-46.666666666666664,-1012.0,-135.66666666666666,31.333333333333332,18.0,AUTO
19:12:57,202699.0,0.018021481732527416,0.02326366739968459,0.7723370989163717,0.6939583818117777,-0.32888854543368023,-0.02837888648112615,-35.36296586666666,149.1655746,45335.666666666664,126.0,83.66666666666667,14.666666666666666,-30.666666666666668,15.0,-992.6666666666666,696.0,-327.0,-27.333333333333332,AUTO
19:12:58,202699.0,0.004564883963515361,-0.09395996263871591,0.7687409321467081,-0.29731169094642,0.21541432042916617,-0.011288293326894442,-35.3629578,149.16558346666667,45187.0,148.66666666666666,104.66666666666667,18.0,-38.666666666666664,-45.0,-1018.3333333333334,-296.0,217.0,-10.333333333333334,AUTO
19:13:00,202699.0,0.019712221653511126,-0.011084437447910508,0.7685004870096842,0.14142403503259024,0.40319862961769104,0.01601266224558155,-35.36293493333333,149.16560726666668,44859.333333333336,152.0,118.0,13.0,-41.666666666666664,-9.0,-1027.3333333333333,143.33333333333334,404.3333333333333,16.666666666666668,AUTO
19:13:02,202699.0,0.030890888224045437,0.06206250935792923,0.764675239721934,0.5784444610277811,0.04554000993569692,0.032521098386496305,-35.362911966666665,149.1656322,44543.333333333336,126.0,104.66666666666667,10.0,-32.0,-9.0,-1011.3333333333334,579.0,47.0,33.333333333333336,AUTO
19:13:03,171363.0,0.01844886605006953,-0.1348394863307476,0.7609349489212036,0.31776798764864606,0.26801204929749173,0.009934083248178164,-35.362898566666665,149.16564733333334,44321.333333333336,159.0,135.66666666666666,21.333333333333332,-46.0,-12.0,-1016.3333333333334,319.6666666666667,269.6666666666667,10.333333333333334,AUTO
19:13:04,171363.0,0.032838953038056694,0.08012265339493752,0.7622348864873251,-0.271242360273997,-0.017881641785303753,0.023176811635494232,-35.362888,149.16565873333334,44198.666666666664,136.33333333333334,113.66666666666667,11.0,-36.0,-50.0,-1009.0,-270.6666666666667,-16.333333333333332,23.666666666666668,AUTO
19:13:06,171363.0,0.00854432990308851,0.06440615809212129,0.7602527340253195,-0.6041409273942312,-0.16255521774291992,-0.016084859768549602,-35.36286486666666,149.16568553333335,43852.0,117.0,99.33333333333333,11.666666666666666,-30.333333333333332,-44.333333333333336,-1008.3333333333334,-602.3333333333334,-160.66666666666666,-15.0,AUTO
19:13:08,171363.0,0.02427547549208005,-0.020759531607230503,0.7566914359728495,0.4312254339456558,-0.3416767517725627,-0.03347997119029363,-35.36284186666666,149.16571163333333,43512.666666666664,127.66666666666667,103.33333333333333,16.0,-31.666666666666668,0.3333333333333333,-991.0,432.0,-339.6666666666667,-32.333333333333336,AUTO
19:13:09,54896.0,0.018855769808093708,0.04863329231739044,0.7559157808621725,-0.2959914455811183,0.2507459716871381,-0.012665265938267112,-35.36282503333334,149.16573016666666,43251.0,163.33333333333334,135.33333333333334,14.0,-43.333333333333336,-24.333333333333332,-1012.6666666666666,-294.0,252.0,-11.666666666666666,AUTO
19:13:10,54896.0,0.031581876799464226,-0.06633200620611508,0.7539785703023275,0.5605520109335581,-0.398323118686676,0.004422720832129319,-35.36281603333333,149.16573986666666,43140.0,120.0,101.66666666666667,19.333333333333332,-28.666666666666668,1.6666666666666667,-979.6666666666666,561.0,-396.0,5.666666666666667,AUTO
19:13:12,54896.0,0.016975481373568375,-0.1221191721657912,0.7519434094429016,-0.47920356194178265,-0.28374885270992917,0.04317258484661579,-35.36279116666666,149.1657676,42760.0,124.0,110.66666666666667,22.333333333333332,-33.0,-48.0,-984.0,-478.6666666666667,-281.6666666666667,43.666666666666664,AUTO
19:13:14,54896.0,0.01775232081611951,-0.1384542634089788,0.7515515883763632,-0.22023417552312216,-0.09498879313468933,0.019319862748185795,-35.36276646666667,149.1657948,42384.666666666664,125.0,117.0,22.0,-34.333333333333336,-27.666666666666668,-1005.6666666666666,-219.0,-93.0,20.333333333333332,AUTO
19:13:15,109922.0,0.017390896721432608,-0.0032072963658720255,0.7509000500043234,-0.6123876869678497,-0.3356242775917053,0.04210723129411539,-35.36275146666667,149.1658122,42180.0,110.33333333333333,101.0,14.0,-29.0,-56.666666666666664,-991.3333333333334,-611.6666666666666,-333.3333333333333,43.333333333333336,AUTO
19:13:16,109922.0,0.015292209883530935,-0.15984153747558594,0.7503996094067892,0.2952955327928066,0.1464885820945104,-0.01727670927842458,-35.36274316666667,149.16582219999998,42024.0,154.66666666666666,139.0,23.666666666666668,-40.333333333333336,-12.333333333333334,-1009.6666666666666,296.3333333333333,148.33333333333334,-15.666666666666666,AUTO
19:13:18,109922.0,0.026612718279163044,-0.09770743859310944,0.7475203076998392,-0.05522725855310758,0.3405986974636714,-0.018995842741181452,-35.36271553333333,149.1658532,41621.333333333336,179.66666666666666,153.33333333333334,23.333333333333332,-53.333333333333336,-44.666666666666664,-1024.3333333333333,-55.666666666666664,341.6666666666667,-17.0,AUTO
19:13:20,109922.0,0.02264333764712016,0.04694908608992895,0.7496123711268107,-0.5629342397054037,0.30731310198704404,-0.02564742648974061,-35.362688633333335,149.16588253333333,41230.0,137.66666666666666,125.0,14.0,-38.333333333333336,-44.666666666666664,-1021.6666666666666,-562.3333333333334,308.3333333333333,-23.666666666666668,AUTO
19:13:21,5604.0,0.02662990304330985,-0.15751464168230692,0.7469684878985087,-0.012616351246833801,0.01213418443997701,-0.007050904134909312,-35.36267633333333,149.16589593333333,41036.0,118.0,112.33333333333333,20.0,-33.0,-30.666666666666668,-1005.0,-12.333333333333334,14.0,-5.0,AUTO
19:13:22,5604.0,0.03541053831577301,0.04374070341388384,0.7478862206141154,0.39291514952977497,0.14934112628300986,0.006093386250237624,-35.36266693333334,149.16590583333334,40910.333333333336,128.66666666666666,123.66666666666667,10.333333333333334,-37.0,2.6666666666666665,-1019.3333333333334,394.0,151.0,7.666666666666667,AUTO
19:13:24,5604.0,0.04970474789539973,0.04654170572757721,0.7460352182388306,0.5681757926940918,-0.10404016077518463,0.04780001721034447,-35.36264216666666,149.16593246666667,40577.666666666664,129.0,133.0,13.0,-32.0,-11.0,-996.6666666666666,568.0,-102.0,49.666666666666664,AUTO
19:13:26,5604.0,0.030149168024460476,0.01876007206737995,0.7474807302157084,-0.37701986233393353,-0.29695243140061695,0.06349530008931954,-35.36261643333333,149.16596259999997,40196.666666666664,119.33333333333333,121.66666666666667,16.666666666666668,-30.666666666666668,-57.0,-989.6666666666666,-377.3333333333333,-294.6666666666667,64.66666666666667,AUTO
19:13:27,107090.0,0.037262345353762306,0.03811106209953626,0.7460894385973612,-0.0755148579676946,0.25895808823406696,-0.0038750885675350824,-35.3626004,149.16598083333335,39931.0,147.33333333333334,141.33333333333334,14.333333333333334,-43.333333333333336,-46.0,-1021.3333333333334,-75.33333333333333,260.3333333333333,-2.0,AUTO
19:13:28,107090.0,0.02612132082382838,-0.06586550300319989,0.7440747221310934,-0.3981588234504064,-0.3672221899032593,-0.009371159598231316,-35.362591599999995,149.16599033333333,39813.0,108.0,110.66666666666667,19.0,-31.0,-29.0,-986.0,-396.0,-364.6666666666667,-7.333333333333333,AUTO
19:13:30,107090.0,0.02113802544772625,-0.1399135316411654,0.7452672918637594,0.23081788420677185,-0.04704023400942484,-0.017416739836335182,-35.36256923333333,149.16601626666667,39461.666666666664,121.33333333333333,122.66666666666667,20.666666666666668,-34.333333333333336,-4.333333333333333,-1005.0,232.66666666666666,-45.0,-15.666666666666666,AUTO
19:13:32,107090.0,0.021627083731194336,-0.08315844771762688,0.744859000047048,-0.11877427995204926,0.2794315467278163,-0.02710075583308935,-35.36254496666666,149.1660446333333,39097.666666666664,153.0,139.0,19.666666666666668,-43.0,-42.666666666666664,-1011.3333333333334,-118.0,280.6666666666667,-25.0,AUTO
19:13:33,222288.0,0.012373176403343678,-0.08290694529811542,0.7439561486244202,0.37559028963247937,-0.12236832578976949,-0.034864230935151376,-35.3625302,149.16606226666667,38883.0,123.66666666666667,108.66666666666667,19.333333333333332,-33.333333333333336,3.6666666666666665,-999.3333333333334,377.6666666666667,-120.0,-32.666666666666664,AUTO
19:13:34,222288.0,0.00807899422943592,0.03654073613385359,0.7448949019114176,-0.35356218616167706,0.13256977498531342,-0.007531409462292989,-35.3625218,149.16607263333333,38745.666666666664,128.66666666666666,104.66666666666667,13.333333333333334,-30.0,-53.666666666666664,-1004.3333333333334,-353.3333333333333,134.33333333333334,-5.666666666666667,AUTO
19:13:36,222288.0,-0.0024989666999317706,-0.003874703155209621,0.7445982694625854,-0.43830670168002445,-0.1377012332280477,-0.020934040347735088,-35.36250163333333,149.16609686666666,38442.666666666664,128.66666666666666,87.33333333333333,13.0,-30.666666666666668,-28.666666666666668,-987.3333333333334,-437.3333333333333,-135.33333333333334,-18.666666666666668,AUTO
19:13:38,222288.0,0.01233785847822825,-0.06629838980734348,0.7431681752204895,0.09512654443581899,-0.09195160369078319,-0.023215242040654022,-35.36247916666667,149.1661207,38122.333333333336,127.33333333333333,92.33333333333333,17.666666666666668,-31.666666666666668,2.0,-987.0,96.33333333333333,-89.66666666666667,-21.333333333333332,AUTO
19:13:39,104652.0,0.010892700869590044,0.0018539646019538243,0.7441153327624003,-0.5771093567212423,-0.12171199793616931,0.017634987520674866,-35.3624657,149.16613506666667,37928.333333333336,108.33333333333333,80.0,13.333333333333334,-29.333333333333332,-41.666666666666664,-996.3333333333334,-577.0,-119.33333333333333,19.333333333333332,AUTO
19:13:40,104652.0,0.023480135016143322,-0.00717938132584095,0.743264893690745,0.5383240679899851,0.10969740897417068,0.006999839485312502,-35.362458833333335,149.16614189999999,37823.0,97.66666666666667,77.66666666666667,12.0,-27.666666666666668,16.333333333333332,-1008.0,539.0,111.0,8.666666666666666,AUTO
19:13:42,104652.0,0.02421119560798009,0.03519097901880741,0.7444851199785868,0.19885127743085226,0.034768080338835716,-0.0014048504332701366,-35.36244556666667,149.16615493333333,37639.0,38.666666666666664,43.333333333333336,5.333333333333333,-12.0,-7.666666666666667,-1005.3333333333334,198.66666666666666,36.333333333333336,0.6666666666666666,AUTO
19:13:44,104652.0,-0.007771830113294224,-0.00841159516130574,0.744141141573588,-0.40241604050000507,-0.0339222215116024,0.0001360295961300532,-35.36244366666667,149.16615773333334,37610.666666666664,-10.666666666666666,1.3333333333333333,0.0,1.0,-12.333333333333334,-996.6666666666666,-401.3333333333333,-31.666666666666668,1.6666666666666667,RTL
19:13:45,5585.0,0.0053601789598663645,-0.005458918244888385,0.7437316377957662,0.12814843654632568,0.0037013531352082887,0.0025553022666523852,-35.362443766666665,149.1661577,37639.333333333336,-1.6666666666666667,5.0,-6.666666666666667,-1.0,14.666666666666666,-1026.0,129.33333333333334,5.333333333333333,4.333333333333333,RTL
19:13:46,5585.0,0.006730030834053953,-0.0037123527533064284,0.7432433168093363,-0.15190290411313376,0.0012574533466249704,0.0009759229142218828,-35.36244356666666,149.1661576,37772.333333333336,-4.0,5.0,-29.0,0.0,-8.333333333333334,-1039.6666666666667,-151.33333333333334,3.0,2.6666666666666665,RTL
19:13:48,5585.0,-0.0034050976391881704,-0.0030298331597199044,0.7437038818995158,-0.0064510951439539594,-0.00015837171425422034,0.00019547009530166784,-35.36244390000001,149.1661582,39040.666666666664,-5.0,2.0,-77.66666666666667,0.3333333333333333,-2.6666666666666665,-1002.0,-5.666666666666667,1.6666666666666667,1.6666666666666667,RTL
19:13:50,5585.0,-0.00038589141331613064,-0.005435324894885222,0.7436020970344543,-0.006905123591423035,0.0002867410269876321,0.0006368355825543404,-35.3624443,149.1661585,40437.666666666664,-2.0,-1.0,-54.0,0.0,-0.6666666666666666,-973.6666666666666,-6.0,2.0,2.0,RTL
19:13:51,46505.0,0.00589652262472858,-0.007257422897964716,0.7437160809834799,-2.509107192357381e-05,-0.0011827767205735047,0.00157651553551356,-35.362444266666664,149.1661582,40956.666666666664,-2.0,-1.0,-16.0,-1.0,-6.666666666666667,-970.3333333333334,0.3333333333333333,0.6666666666666666,3.0,RTL
19:13:52,46505.0,0.006690516912688811,-0.007082740776240826,0.7438596884409586,0.23024083177248636,0.0011988152206564944,0.0018453008960932493,-35.36244406666666,149.1661579,41018.0,-3.3333333333333335,1.0,1.3333333333333333,-0.6666666666666666,20.0,-988.3333333333334,231.66666666666666,2.6666666666666665,3.6666666666666665,RTL
19:13:54,46505.0,0.0029125410752991834,-0.002100602723658085,0.7435150941212972,0.10210706293582916,0.002094320564841231,-0.002538297480593125,-35.36244396666667,149.1661581,41011.0,-5.333333333333333,2.3333333333333335,-17.333333333333332,0.3333333333333333,-2.6666666666666665,-1037.6666666666667,102.66666666666667,4.0,-0.6666666666666666,RTL
19:13:56,74263.0,-0.0059920349934448796,-0.005398779176175594,0.7427116433779398,-0.07267584403355916,0.0004251341645916303,0.0007825384382158518,-35.3624446,149.16615886666668,41890.666666666664,-0.3333333333333333,-3.6666666666666665,-42.0,-0.3333333333333333,-2.6666666666666665,-966.6666666666666,-72.0,2.6666666666666665,2.6666666666666665,RTL
19:13:58,102021.0,0.012477742682676762,-0.007595512239883344,0.7432360251744589,0.31282516817251843,0.0015778315719217062,-0.0014430276739100616,-35.36244406666666,149.16615773333334,42126.666666666664,-2.6666666666666665,0.3333333333333333,3.6666666666666665,-1.0,19.333333333333332,-1002.3333333333334,314.0,3.3333333333333335,0.6666666666666666,RTL
19:14:00,102021.0,-0.0004219036006058256,-0.0032806014642119408,0.7428417801856995,-0.11287609239419301,-0.0008506259958570203,0.0010769929504022002,-35.36244383333334,149.16615773333334,42475.0,-7.0,5.333333333333333,-48.333333333333336,0.6666666666666666,-7.0,-1026.6666666666667,-111.66666666666667,1.3333333333333333,2.6666666666666665,RTL
19:14:01,157747.0,-0.002852200142418345,-0.003745722584426403,0.742963989575704,0.1312077889839808,-0.0011235843412578106,-0.0011071272504826386,-35.3624443,149.16615836666668,43123.666666666664,-4.0,1.0,-38.0,0.3333333333333333,3.3333333333333335,-963.6666666666666,132.0,0.6666666666666666,0.6666666666666666,RTL
19:14:02,157747.0,-0.012665320498247942,-0.004220620884249608,0.7429187695185343,-0.23681631684303284,-0.0021525219393273196,-0.0006676182383671403,-35.36244453333334,149.16615866666666,43310.666666666664,-1.3333333333333333,-1.3333333333333333,-9.0,0.3333333333333333,-3.6666666666666665,-966.3333333333334,-235.33333333333334,0.0,1.6666666666666667,RTL
19:14:04,157747.0,0.0033096881428112588,-0.006051872546474139,0.7423665324846903,0.31575773159662884,-0.0010707940285404522,0.0005977252343048652,-35.36244476666666,149.16615879999998,43313.666666666664,1.0,-5.0,-8.0,-0.3333333333333333,12.333333333333334,-1037.3333333333333,316.3333333333333,1.3333333333333333,2.3333333333333335,RTL
19:14:06,157747.0,0.006815918488427997,-0.0065792726042370004,0.742765466372172,0.16326908518870673,-0.002243855812897285,0.00015571895831574997,-35.36244416666667,149.1661579,44105.666666666664,-2.0,0.0,-49.0,0.0,9.666666666666666,-979.0,164.33333333333334,0.0,2.0,RTL
19:14:07,177453.0,0.00933534000068903,-0.005903417244553566,0.7430400252342224,0.5587312678496043,0.0035198225329319635,0.002208704361692071,-35.362444,149.16615773333334,44474.0,-4.0,3.0,-5.0,-0.6666666666666666,22.0,-973.6666666666666,559.6666666666666,5.666666666666667,4.0,RTL
19:14:08,177453.0,-0.00229728315025568,-0.004705019139995177,0.7427981495857239,-0.4755672613779704,0.004045010932410757,-0.001709354614528517,-35.36244403333333,149.16615786666668,44476.666666666664,-3.3333333333333335,2.3333333333333335,3.3333333333333335,-0.6666666666666666,-25.0,-995.3333333333334,-474.3333333333333,5.666666666666667,0.3333333333333333,RTL
19:14:10,177453.0,-0.004102493871566064,-0.003411978638420502,0.7425513664881388,0.1102521816889445,-0.0022805891931056976,-0.0008303496288135648,-35.36244443333334,149.16615863333334,44695.333333333336,-2.0,-1.0,-40.666666666666664,0.3333333333333333,2.0,-1029.3333333333333,111.0,0.0,1.0,RTL
19:14:12,177453.0,9.561966483791669e-05,-0.006313801898310582,0.7427362402280172,0.039780497550964355,-0.0006359872252990802,0.000913379481062293,-35.3624446,149.16615866666666,45605.0,0.3333333333333333,-3.6666666666666665,-18.666666666666668,0.0,-8.0,-960.0,40.0,1.3333333333333333,3.0,RTL
19:14:13,42336.0,0.002623673683653275,-0.004624831024557352,0.7431405186653137,0.49746206402778625,0.0027751456946134567,0.0006427712893734375,-35.36244453333334,149.1661585,45656.333333333336,0.0,-2.3333333333333335,3.6666666666666665,-0.3333333333333333,21.333333333333332,-1010.0,498.3333333333333,4.666666666666667,2.6666666666666665,RTL
19:14:14,42336.0,-0.0024426959765454135,-0.004252907199164231,0.7429376641909281,-0.3628501867254575,0.0004531752783805132,-0.002268240243817369,-35.3624445,149.1661585,45643.0,0.0,-2.3333333333333335,-2.6666666666666665,0.6666666666666666,-22.0,-1022.6666666666666,-361.6666666666667,2.6666666666666665,0.0,RTL
19:14:16,42336.0,-0.004619430740907167,-0.005731681361794472,0.742378850777944,-0.0030173732278247676,-0.0015380732559909422,0.0004804864681015412,-35.36244463333333,149.1661587,46350.333333333336,0.0,-3.0,-50.666666666666664,0.0,-1.0,-989.0,-1.6666666666666667,0.6666666666666666,2.0,RTL
19:14:18,42336.0,0.0026380993270625672,-0.006352168042212725,0.7423779964447021,0.2465803027153015,-0.002115789490441481,0.002508234620715181,-35.3624447,149.16615856666667,46802.333333333336,0.6666666666666666,-2.3333333333333335,3.0,-0.3333333333333333,3.6666666666666665,-992.0,246.66666666666666,0.3333333333333333,4.333333333333333,RTL
19:14:19,113952.0,0.014196176392336687,-0.007712341845035553,0.7421465118726095,0.41204435750842094,-0.0019018430806075533,0.0019242580359180768,-35.36244426666667,149.1661579,46786.333333333336,-0.6666666666666666,-0.6666666666666666,-7.0,-3.0,15.0,-1035.3333333333333,412.3333333333333,0.6666666666666666,3.6666666666666665,RTL
19:14:20,113952.0,0.014727212799092134,-0.008123192625741163,0.7422481179237366,-0.12842744092146555,0.001005802381162842,0.00025451571370164555,-35.36244376666667,149.16615723333334,46950.0,-4.0,3.0,-35.0,-2.0,0.6666666666666666,-1036.0,-126.66666666666667,3.3333333333333335,2.3333333333333335,RTL
19:14:22,113952.0,0.0207961102326711,-0.006200165177385013,0.7423043052355448,0.18427740534146628,0.0018277388686935108,0.0004291979130357504,-35.3624428,149.16615606666667,47865.333333333336,-14.666666666666666,15.333333333333334,-22.0,-0.3333333333333333,13.666666666666666,-961.3333333333334,186.0,4.333333333333333,2.3333333333333335,RTL
19:14:24,108978.5,0.013646048493683338,-0.0016936315611625712,0.7426813443501791,0.31239176789919537,0.0011636146809905767,0.001290174899622798,-35.3624431,149.1661568333333,47921.666666666664,-15.333333333333334,14.666666666666666,2.3333333333333335,2.0,-5.0,-1015.0,313.3333333333333,3.3333333333333335,3.3333333333333335,RTL
19:14:26,104005.0,-0.01819443640609582,-0.0016746850063403447,0.7429833809534708,0.052039881547292076,-0.001384836466362079,0.0007031460603078207,-35.362444833333335,149.1661591666667,48499.666666666664,-3.0,0.0,-50.666666666666664,3.0,1.0,-1001.0,54.0,1.3333333333333333,2.6666666666666665,RTL
19:14:28,104005.0,-0.015790669868389767,-0.006818312841157119,0.7423139810562134,-0.5664688050746918,0.0008927744347602129,0.00042573145280281704,-35.3624457,149.16615993333335,49039.0,9.666666666666666,-14.333333333333334,2.3333333333333335,0.0,-33.666666666666664,-989.3333333333334,-565.0,3.0,2.3333333333333335,RTL
19:14:30,149288.0,-0.010318617957333723,-0.004428933064142863,0.742400586605072,0.17451320526500544,-0.0005526688182726502,-0.000505880219861865,-35.3624457,149.16615993333332,49123.0,10.333333333333334,-13.666666666666666,-27.333333333333332,0.0,6.333333333333333,-1042.6666666666667,175.33333333333334,2.0,1.6666666666666667,RTL
19:14:32,149288.0,-0.00784275991221269,-0.0058260356696943445,0.7424232363700867,0.1730090876420339,-0.003604428027756512,-0.0006850677697608868,-35.3624456,149.16615996666667,50041.333333333336,11.0,-16.0,-30.333333333333332,-0.6666666666666666,7.0,-955.3333333333334,173.66666666666666,-1.0,1.3333333333333333,RTL
19:14:34,149288.0,-0.004969537335758408,-0.005226559316118558,0.7423161268234253,-0.25293296575546265,0.0009068133464703957,0.0016197008080780506,-35.36244493333333,149.1661591333333,50157.333333333336,5.0,-9.0,2.6666666666666665,-0.6666666666666666,-18.333333333333332,-1008.0,-253.0,3.3333333333333335,3.6666666666666665,RTL
19:14:35,248344.0,0.004867100156843662,-0.006567341275513172,0.7418840726216634,0.003851706782976786,-0.0030645812706400952,0.0011396353753904502,-35.3624445,149.16615850000002,50335.666666666664,1.6666666666666667,-6.0,-36.0,-1.6666666666666667,-1.0,-1039.6666666666667,4.333333333333333,0.0,3.3333333333333335,RTL
19:14:36,248344.0,0.011545964206258455,-0.007647705419609944,0.7425372203191122,0.07880360881487529,-0.0011870775294179718,0.0011650531863172848,-35.362444066666676,149.16615786666668,50696.333333333336,-1.0,-1.6666666666666667,-54.0,-1.3333333333333333,4.333333333333333,-1008.6666666666666,79.33333333333333,1.3333333333333333,3.3333333333333335,RTL
19:14:38,248344.0,0.012830800687273344,-0.0056515818772216635,0.7428125341733297,0.35496454934279126,0.003769128738592068,0.002132034550110499,-35.3624434,149.16615693333335,51397.333333333336,-8.666666666666666,8.0,-2.3333333333333335,0.0,23.333333333333332,-981.0,356.6666666666667,6.333333333333333,4.333333333333333,RTL
19:14:40,248344.0,-0.006514125464794536,-0.0015156217850744724,0.7425553997357687,-0.07897983988126119,-0.001124811281139652,-0.0005646377103403211,-35.3624441,149.1661581666667,51446.0,-6.333333333333333,5.0,-22.333333333333332,2.0,-11.0,-1039.6666666666667,-78.0,1.6666666666666667,1.6666666666666667,RTL
19:14:41,264619.0,-0.012159286998212337,-0.004443835777541001,0.7427036960919698,-0.12438776592413585,-0.0037769846773395934,3.81425100689133e-05,-35.3624448,149.166159,51989.0,-0.3333333333333333,-2.0,-54.333333333333336,0.6666666666666666,-5.0,-997.0,-123.33333333333333,-0.3333333333333333,2.3333333333333335,RTL
19:14:42,264619.0,-0.009892854141071439,-0.006235842903455098,0.742664118607839,-0.07660520325104396,-0.0033348361806323132,-3.125099465250969e-05,-35.36244503333334,149.16615906666664,52378.333333333336,1.6666666666666667,-4.666666666666667,-40.666666666666664,0.3333333333333333,-3.0,-964.0,-75.66666666666667,0.0,2.3333333333333335,RTL
19:14:44,264619.0,0.006506525193496297,-0.007044026783357064,0.7426492770512899,0.46671555439631146,0.0024507373260955014,-0.00039927610972275335,-35.36244466666667,149.1661583,52590.333333333336,1.3333333333333333,-2.3333333333333335,3.3333333333333335,-1.0,23.333333333333332,-1007.6666666666666,467.6666666666667,4.666666666666667,2.3333333333333335,RTL
19:14:46,264619.0,0.006468583596870303,-0.006042402082433303,0.7424482703208923,-0.059761758893728256,-0.0007636907200018564,0.0007037034180636207,-35.362444133333334,149.16615779999998,53003.666666666664,-2.3333333333333335,1.3333333333333333,-51.333333333333336,-1.3333333333333333,-2.3333333333333335,-1017.0,-58.666666666666664,1.6666666666666667,3.0,RTL
19:14:47,255342.0,0.015724998743583758,-0.006458730747302373,0.7426066398620605,0.19594702124595642,0.0008118927168349425,0.0018066947037974994,-35.362443633333335,149.16615723333334,53641.666666666664,-6.666666666666667,4.666666666666667,-34.666666666666664,-2.0,10.0,-965.0,197.33333333333334,3.3333333333333335,4.0,RTL
19:14:48,255342.0,0.012320972979068756,-0.006227804813534021,0.7423968116442362,-0.38015464941660565,1.1175405234098434e-05,0.0014495427409807842,-35.36244333333334,149.16615686666668,53800.666666666664,-9.0,7.333333333333333,-6.333333333333333,-1.0,-15.333333333333334,-970.0,-378.6666666666667,2.6666666666666665,3.6666666666666665,RTL
19:14:50,255342.0,0.014686383306980133,-0.0045057302340865135,0.7434368332227071,0.2209813048442205,0.0010864767245948315,0.0032409162571032843,-35.362443033333335,149.16615653333335,53812.333333333336,-14.666666666666666,14.0,-11.666666666666666,0.0,12.0,-1032.3333333333333,222.66666666666666,3.6666666666666665,5.666666666666667,RTL
19:14:53,222871.0,0.009739965200424194,-0.004827009746804833,0.7427556812763214,0.5353661179542542,-0.0003830813802778721,0.0005313084693625569,-35.36244405,149.1661579,55026.0,-6.5,4.0,-4.5,0.0,14.5,-982.0,536.0,2.5,3.0,RTL
19:14:55,190400.0,-0.002975775394588709,-0.004163376055657864,0.7425755262374878,-0.405391663312912,0.0021867987234145403,-0.001591258798725903,-35.3624442,149.1661581,55032.5,-4.0,1.5,-14.5,0.0,-15.5,-1037.5,-403.0,5.0,1.0,RTL
19:14:57,190400.0,-0.003352810279466212,-0.0057772379368543625,0.742863118648529,-0.24937628954648972,-0.0011510301264934242,-0.0008192413370124996,-35.3624443,149.1661582,55930.5,-2.5,0.0,-50.5,0.0,-13.0,-974.5,-247.0,1.5,1.5,RTL
19:14:58,11307.0,0.0016285567435261328,-0.006246334873139858,0.7426181584596634,0.019963901489973068,7.769954390823841e-05,0.0012422504951246083,-35.3624444,149.1661582,56207.75,-1.75,0.0,-22.25,-0.5,-1.25,-958.5,21.75,3.0,3.5,RTL
19:14:59,11307.0,0.011375128757208586,-0.0051856420468539,0.7431974411010742,0.3710493165999651,0.003273934358730912,-0.0019130597356706858,-35.3624444,149.1661582,56284.0,-1.0,0.0,3.5,-0.5,4.0,-991.5,371.5,5.5,0.5,RTL
19:15:01,11307.0,-0.005257383221760392,-0.0036167363869026303,0.7427505552768707,-0.13534308969974518,-0.00012032652739435434,0.0003127761883661151,-35.3624444,149.1661585,56529.5,-2.0,-1.0,-44.0,0.5,0.5,-1032.0,-133.0,2.5,3.0,RTL
19:15:03,11307.0,-0.01006384170614183,-0.0058450468350201845,0.7428863346576691,0.05926220118999481,-0.0007569844601675868,0.0009308521402999759,-35.3624447,149.1661588,57467.5,0.0,-3.5,-18.0,0.5,14.0,-962.5,62.5,2.0,3.5,RTL
19:15:04,20198.0,-0.0068245213478803635,-0.005654697539284825,0.7425196170806885,-0.2675986737012863,-0.001683204434812069,0.0008380768704228103,-35.3624448,149.16615885000002,57519.25,1.75,-5.0,0.5,0.0,-17.25,-986.5,-265.75,1.5,3.5,RTL
19:15:05,20198.0,0.007506087422370911,-0.006909925024956465,0.7425321042537689,0.4792860075831413,0.0006248578429222107,0.002173494780436158,-35.362444749999995,149.16615865,57486.5,1.0,-4.0,-2.5,-1.5,13.5,-1030.0,480.5,4.0,5.0,RTL
19:15:07,20198.0,0.007838339544832706,-0.006154370727017522,0.7426913380622864,0.16891707479953766,-0.0003708035219460726,0.0015785337891429663,-35.362444,149.1661576,58200.0,-3.5,2.0,-52.5,-0.5,13.5,-988.0,172.0,2.5,4.0,RTL
19:15:09,20198.0,-0.010603507049381733,-0.0025025857612490654,0.7432928681373596,-0.5723603069782257,0.0009521575411781669,-0.0004999289521947503,-35.362444249999996,149.16615819999998,58673.0,-3.0,2.5,3.0,1.0,-27.0,-989.0,-570.0,4.0,2.0,RTL
19:15:10,66840.0,-0.0074530106503516436,-0.002005162590648979,0.7431739121675491,0.26188975758850574,-0.0010669748880900443,-0.0011373319430276752,-35.36244465,149.16615885000002,58647.0,-1.5,-0.5,1.75,2.0,8.25,-1014.0,264.0,2.25,1.75,RTL
19:15:11,66840.0,-0.01143108494579792,-0.0038919851649552584,0.7423823773860931,0.3238571286201477,-0.003123341011814773,0.0002828576834872365,-35.36244535,149.1661597,58823.5,3.5,-8.0,-36.5,0.0,14.5,-1041.0,325.5,0.0,2.5,RTL
19:15:13,66840.0,0.010140047641471028,-0.008866758085787296,0.7427900731563568,0.36229120939970016,-0.0038772490806877613,9.55372815951705e-05,-35.3624449,149.16615869999998,59768.5,4.5,-8.0,-24.5,-1.5,10.5,-957.5,363.5,0.0,3.0,RTL
19:15:15,66840.0,0.007582103833556175,-0.007108612684533,0.7425645887851715,-0.6472033858299255,-0.000125784776173532,0.0009988666279241443,-35.3624436,149.1661571,59824.5,-3.5,2.5,1.5,-2.0,-25.0,-1018.5,-645.0,3.0,3.5,RTL
19:15:16,148662.0,0.021966914646327496,-0.006633747951127589,0.7429490983486176,0.13739858474582434,0.002382862730883062,0.00041656458051875234,-35.36244325,149.166156675,59909.25,-8.5,8.0,-22.5,-1.0,6.25,-1037.0,139.5,5.25,3.0,RTL
19:15:17,148662.0,0.014130097348242998,-0.0034843600587919354,0.7430675029754639,-0.005942679941654205,0.0003052902175113559,-0.0003358740941621363,-35.362443,149.16615654999998,60444.5,-14.0,13.5,-54.5,0.5,-7.0,-1002.0,-4.0,3.0,2.5,RTL
19:15:19,148662.0,0.008756195660680532,-0.0034620926016941667,0.7433140575885773,0.34356970712542534,0.00018717290367931128,0.003174239653162658,-35.36244365,149.16615754999998,61035.5,-10.0,8.0,1.5,1.5,-5.5,-972.0,344.0,3.0,6.0,RTL
19:15:21,148662.0,-0.021140829659998417,-0.0031838336726650596,0.7429843544960022,-0.363319456577301,-0.00032542040571570396,-0.0005306300008669496,-35.362445,149.16615915,61120.0,-0.5,-2.0,-30.0,0.5,-13.5,-1037.0,-360.0,2.5,2.0,RTL
19:15:22,85370.0,-0.01544799841940403,-0.0046177784679457545,0.7429559230804443,-0.020167594775557518,-0.002258229593280703,0.001293144654482603,-35.362445325,149.166159525,61453.0,3.25,-6.75,-51.75,0.5,1.25,-1017.0,-17.75,1.25,4.0,RTL
19:15:23,85370.0,-0.013613163027912378,-0.006518529728055,0.7427969574928284,-0.23357662558555603,-0.0008603025926277041,0.00018724356777966022,-35.3624455,149.16615954999997,62104.0,7.5,-10.5,-35.5,0.0,-6.0,-955.0,-230.5,2.5,2.5,RTL
19:15:25,85370.0,0.012992128729820251,-0.007114481413736939,0.7428615093231201,0.39724481850862503,0.0007538344943895936,-0.0004924706881865859,-35.362444749999995,149.16615854999998,62247.0,4.5,-6.5,4.0,-1.0,4.5,-1005.5,398.0,4.0,2.0,RTL
19:15:27,85370.0,0.0019469137769192457,-0.005060333292931318,0.7428779006004333,0.0602928027510643,0.0017600730061531067,0.0009328993037343025,-35.36244415,149.1661579,62715.0,-2.5,1.5,-53.5,0.0,10.0,-1015.5,63.0,5.0,3.5,RTL
19:15:28,36286.0,0.001379799796268344,-0.0042463281424716115,0.74314945936203,0.034304915461689234,0.0003156568855047226,-0.0008064322173595428,-35.362444124999996,149.166158,63118.25,-3.0,1.25,-46.75,0.0,-1.75,-975.25,36.5,3.5,2.0,RTL
19:15:29,36286.0,1.80806964635849e-05,-0.005394492298364639,0.7428829371929169,0.3868257515132427,-0.0006290510063990951,0.0012816651724278927,-35.3624443,149.1661582,63461.5,-2.5,0.0,-3.5,0.0,28.0,-980.0,389.5,2.0,4.0,RTL
19:15:31,36286.0,0.01279674144461751,-0.006275116465985775,0.7428026795387268,0.03478096425533295,-0.00075348443351686,0.0013123741373419762,-35.362444100000005,149.1661579,63473.0,-2.0,0.0,-16.5,-0.5,-9.0,-1036.5,36.5,3.0,4.5,RTL
19:15:33,36286.0,0.013292416464537382,-0.0050871900748461485,0.7428700029850006,0.30123183131217957,0.001208845293149352,0.0012240775395184755,-35.36244375,149.16615745000001,64374.0,-7.0,5.0,-43.5,0.0,10.0,-973.5,303.0,4.5,4.5,RTL
19:15:34,241152.0,0.005845506821060553,-0.005266453372314572,0.7430903911590576,0.03906192630529404,-0.00036241079214960337,0.00045671913539990783,-35.3624437,149.1661574,64591.0,-7.75,5.75,-14.25,0.25,7.75,-964.5,41.75,3.0,3.25,RTL
19:15:35,241152.0,-0.004486536257900298,-0.004029606468975544,0.7431595325469971,-0.7817273736000061,-0.0018046294571831822,0.0015106702921912074,-35.36244375,149.16615754999998,64622.0,-7.0,5.0,5.0,0.5,-34.0,-992.5,-779.0,2.0,4.5,RTL
19:15:37,241152.0,-0.0008995693642646074,-0.004904587520286441,0.7427728772163391,-0.14965268410742283,0.0010811915853992105,0.0009610886918380857,-35.36244405,149.1661579,65014.5,-5.5,3.0,-49.0,0.0,-7.0,-1016.0,-147.0,4.0,4.0,RTL
19:15:39,241152.0,0.006743112578988075,-0.005383762996643782,0.7431726157665253,0.16762202233076096,0.0010400264291092753,-6.516824942082167e-05,-35.3624441,149.1661579,65720.5,-4.0,1.5,-2.0,-1.0,-6.5,-980.0,169.5,4.5,2.5,RTL
19:15:40,11888.0,0.0012387242168188095,-0.005230405833572149,0.7429485470056534,-0.06817740947008133,-0.0014652833924628794,0.0022496968740597367,-35.3624441,149.1661579,65713.0,-4.25,2.0,3.0,0.0,3.5,-998.25,-64.75,2.0,5.25,RTL
19:15:41,11888.0,0.0014385277754627168,-0.006609023083001375,0.7426299154758453,-0.2587848352268338,0.001769405324012041,-0.0009380938718095422,-35.36244405,149.16615775000002,65748.0,-4.5,2.5,-18.0,-1.0,-0.5,-1037.5,-255.0,5.5,2.5,RTL
19:15:43,11888.0,0.006913298275321722,-0.005999860353767872,0.7431056499481201,-0.12517932802438736,-0.0022910605184733868,0.0011108331382274628,-35.36244365,149.1661571,66640.0,-8.5,8.5,-39.5,0.0,1.5,-961.5,-121.5,1.0,4.0,RTL
19:15:45,11888.0,0.01064237323589623,-0.003808025154285133,0.7434356808662415,0.26518022269010544,0.000980788143351674,-0.0024161902256309986,-35.3624438,149.1661575,66840.0,-7.5,6.5,3.5,0.0,-4.0,-993.5,268.0,4.5,1.5,RTL
19:15:46,260214.0,-0.0053889510163571686,-0.002486402925569564,0.7434308677911758,-0.3219197988510132,0.0013080626376904547,-0.001022961747366935,-35.362444,149.16615792500002,66855.25,-5.75,5.0,-10.5,1.25,-15.0,-1036.0,-318.25,4.75,2.0,RTL
19:15:47,260214.0,-0.015903573017567396,-0.001977431937120855,0.743392676115036,0.07888875901699066,0.003537572920322418,-5.956506356596947e-05,-35.36244485,149.16615910000002,67262.0,-1.0,-0.5,-52.5,2.0,5.5,-1019.5,83.0,7.0,3.0,RTL
19:15:49,260214.0,-0.015452145598828793,-0.004793936153873801,0.7432376742362976,0.6738551259040833,-0.0034881018800660968,8.474121568724513e-05,-35.36244605,149.16616055,68037.0,10.5,-15.5,-5.0,0.0,26.5,-983.0,677.0,0.0,3.0,RTL
19:15:51,260214.0,-0.007703182986006141,-0.006968531059101224,0.7432717382907867,-0.433001846075058,0.002420730423182249,-0.0005048770690336823,-35.3624456,149.16615969999998,68062.5,12.5,-16.5,-18.0,-0.5,-16.0,-1031.0,-430.0,6.0,3.0,RTL
19:15:52,75108.0,-0.003781913605052978,-0.006288052420131862,0.7428734749555588,0.09441759996116161,-0.0009413204388692975,0.00019095384050160646,-35.3624454,149.166159425,68318.5,9.5,-12.5,-45.5,0.0,4.75,-1031.0,97.0,2.75,3.5,RTL
19:15:53,75108.0,-0.007969606667757034,-0.0059214625507593155,0.7432157695293427,-0.24327403120696545,-0.0007882094942033291,0.0004930747672915459,-35.36244515,149.1661592,69006.5,7.5,-10.0,-51.5,-0.5,-10.5,-971.0,-240.0,2.5,4.0,RTL
19:15:55,75108.0,0.0030941778677515686,-0.004830027697607875,0.7429791986942291,0.6263346672058105,-0.0006657958729192615,0.0025785817997530103,-35.3624448,149.1661589,69351.5,3.0,-5.5,2.5,-0.5,27.5,-998.5,628.5,3.0,6.0,RTL
19:15:57,75108.0,-0.006750717759132385,-0.004865484777837992,0.7428589165210724,-0.2111244983971119,-0.0013545823749154806,0.002211644547060132,-35.3624448,149.1661589,69625.5,3.0,-6.0,-47.0,0.0,-14.5,-1031.5,-209.0,2.5,5.5,RTL
19:15:58,86979.0,-0.005511268798727542,-0.005281962221488357,0.7435075640678406,-0.05294825602322817,0.0008476478978991508,0.0010124258697032928,-35.3624448,149.1661589,70039.0,2.5,-5.5,-56.0,0.25,-2.5,-994.5,-50.5,4.25,4.25,RTL
19:15:59,86979.0,-0.004836591084313113,-0.007115783169865608,0.7428801953792572,-0.3658362589776516,0.0018253459129482508,0.0002285580849274993,-35.362444749999995,149.16615865,70587.5,2.5,-5.5,-19.0,-0.5,-18.5,-963.0,-363.5,5.5,3.5,RTL
19:16:01,86979.0,-0.0026585383457131684,-0.0051574609242379665,0.7433679401874542,0.37829289585351944,0.0017899118829518557,0.0032434890745207667,-35.36244465,149.1661585,70614.0,0.5,-1.0,-1.5,0.5,25.5,-1021.5,380.5,5.0,6.5,RTL
19:16:03,86979.0,-0.0038618738180957735,-0.006580109009519219,0.7429867386817932,0.10785993188619614,7.45836878195405e-05,0.0011514397338032722,-35.3624449,149.1661588,71311.5,3.0,-5.0,-54.5,0.0,12.0,-993.0,110.5,4.0,4.5,RTL
19:16:04,104254.0,0.0003398784901946783,-0.00829723512288183,0.7430071979761124,0.010703176259994507,-0.0018311630701646209,0.0012910017976537347,-35.362444849999996,149.16615855,71663.0,2.5,-4.25,-34.0,-0.25,2.0,-961.5,12.75,2.0,4.75,RTL
19:16:05,104254.0,-0.004318022751249373,-0.008276495151221752,0.7432386875152588,-0.6090095341205597,0.0013499330962076783,0.0007087576668709517,-35.36244465,149.16615810000002,71842.5,1.5,-1.5,2.0,-1.0,-22.5,-996.0,-607.0,5.0,4.5,RTL
19:16:07,104254.0,0.01405705651268363,-0.006607922725379467,0.7432374358177185,0.3552016466856003,0.0005060909315943718,-0.0002418006770312786,-35.362443999999996,149.1661574,71963.5,-2.5,4.5,-33.0,-1.0,10.5,-1034.5,357.0,4.5,3.0,RTL
19:16:09,104254.0,0.01114888396114111,-0.006429094821214676,0.7432401776313782,0.43290331959724426,-0.0009229306597262621,-0.0012608682736754417,-35.362444,149.1661575,72913.5,-4.0,5.0,-27.5,0.5,12.0,-955.0,434.5,3.0,2.5,RTL
19:16:10,169290.0,-0.002009590207308065,-0.006658493890427053,0.7431040853261948,-0.11198968929238617,-0.002068643399979919,4.2611558455973864e-05,-35.36244415,149.1661576,73018.75,-4.0,5.5,-3.5,0.25,2.25,-975.0,-109.5,1.75,3.5,RTL
19:16:11,169290.0,-0.006172411376610398,-0.006985242012888193,0.7433741986751556,-0.5640604048967361,0.0032213039230555296,0.00019982829689979553,-35.3624444,149.1661578,72995.0,-1.0,2.0,1.5,-0.5,-34.0,-1010.5,-562.0,6.5,3.5,RTL
19:16:13,169290.0,0.0033365762792527676,-0.006640840554609895,0.7434049248695374,0.08570601046085358,0.0030759626533836126,0.001905138953588903,-35.3624444,149.16615785,73580.5,-1.0,3.0,-54.5,-1.0,-0.5,-1000.5,87.5,6.5,5.0,RTL
19:16:15,169290.0,0.021160174161195755,-0.0085240937769413,0.7433461546897888,0.5047022700309753,0.0006012329831719398,-0.0003473013639450073,-35.3624442,149.1661575,74216.0,-1.0,3.0,0.0,0.0,5.0,-997.0,506.0,4.0,3.0,RTL
19:16:16,27956.0,0.010609538643620908,-0.008806339697912335,0.7430525720119476,-0.38632800430059433,-0.004441468452569097,8.777703624218702e-05,-35.3624439,149.16615704999998,74198.5,-3.75,5.75,3.25,-0.5,-16.5,-1003.25,-383.5,-0.25,3.25,RTL
19:16:17,27956.0,0.02164741512387991,-0.009427281096577644,0.7429758012294769,-0.045041173696517944,-0.0013710441999137402,-0.0019786424236372113,-35.36244325,149.1661562,74221.5,-9.5,11.5,-11.5,-1.5,5.5,-1016.0,-42.0,2.5,1.5,RTL
19:16:19,27956.0,0.020508979447185993,-0.007070026360452175,0.7438817322254181,-0.21334334276616573,0.0011518108658492565,-7.217051461338997e-06,-35.3624425,149.1661553,75012.5,-19.0,23.5,-43.5,0.0,-10.0,-977.0,-210.0,4.5,3.5,RTL
19:16:21,27956.0,0.00735037075355649,-0.004447602666914463,0.7437531054019928,-0.07354515790939331,0.0014824175741523504,0.000823838752694428,-35.362443049999996,149.1661563,75348.5,-17.0,20.0,2.5,0.5,-5.5,-998.5,-69.5,5.0,4.5,RTL
19:16:22,100814.0,0.007625522339367308,-0.004833076731301844,0.7437617182731628,0.10562872141599655,-0.0009615554008632898,-0.0012646453687921166,-35.36244345,149.16615685,75350.5,-13.0,14.75,-8.5,1.0,-1.25,-1026.75,109.0,2.5,2.5,RTL
19:16:23,100814.0,-0.0014461116952588782,-0.00534233869984746,0.7437236905097961,-0.22881895303726196,-0.0027450022753328085,-0.0010878611356019974,-35.36244395,149.16615735,75634.0,-9.0,11.0,-42.5,1.5,-11.5,-1024.5,-224.0,1.0,2.5,RTL
19:16:25,100814.0,-0.008164816768839955,-0.006371169118210673,0.7434776425361633,-0.25421242415905,0.0007201444823294878,-0.0013224361464381218,-35.362444749999995,149.1661583,76455.5,-1.0,2.0,-14.0,0.5,-10.5,-969.5,-250.5,4.0,3.0,RTL
19:16:27,100814.0,-0.006340654683299363,-0.005991145968437195,0.7437999546527863,0.06481407955288887,0.0007423346396535635,0.0003218872006982565,-35.3624452,149.16615885,76502.5,4.0,-3.0,-8.0,0.0,-1.5,-1030.5,68.5,4.0,4.0,RTL
19:16:28,238688.0,-0.012308872421272099,-0.005498428596183658,0.7435355335474014,0.0338396355509758,-0.001500195183325559,-0.0018331239698454738,-35.362445425000004,149.166159225,76746.5,6.0,-4.5,-42.0,0.75,-1.5,-1031.25,37.75,2.0,1.25,RTL
19:16:29,238688.0,-0.015493180602788925,-0.006358765996992588,0.7434767186641693,0.25029637664556503,0.00022115360479801893,0.0005831521702930331,-35.3624458,149.16615965,77257.0,9.5,-8.5,-48.5,0.0,15.5,-986.5,254.5,3.5,3.5,RTL
19:16:31,238688.0,-0.013262869790196419,-0.007513655116781592,0.7435711026191711,-0.11578510701656342,0.0018041165312752128,-0.0015194718725979328,-35.36244585,149.16615965,77678.5,12.5,-12.5,2.0,-1.0,-1.5,-991.5,-112.0,5.0,2.0,RTL
19:16:33,238688.0,-0.009501368273049593,-0.006239012349396944,0.7435473799705505,0.22242511808872223,-0.0006631647702306509,-0.0021119825541973114,-35.362445750000006,149.16615965,77876.0,11.5,-11.0,-37.5,0.0,7.0,-1033.5,225.0,2.5,2.0,RTL
19:16:34,256569.0,-0.014345483388751745,-0.006406755070202053,0.7434741705656052,0.02037377655506134,-0.000555541948415339,-0.00043287762673571706,-35.362445825,149.1661598,78369.75,12.0,-12.0,-53.5,0.0,1.5,-993.25,23.25,2.75,3.0,RTL
19:16:35,256569.0,-0.013538129162043333,-0.007386617129668593,0.7435089349746704,0.13310911739245057,-0.002690443187020719,0.0006803777068853378,-35.3624459,149.1661598,78791.5,13.0,-13.0,-24.5,0.0,9.0,-958.0,136.0,0.5,4.0,RTL
19:16:37,256569.0,0.0009718430228531361,-0.010145436506718397,0.743242472410202,-0.05799907445907593,3.218068741261959e-05,0.0014311557170003653,-35.36244525,149.16615875,78881.5,10.0,-9.5,-2.0,-2.5,3.5,-1021.5,-55.5,3.0,5.0,RTL
19:16:39,256569.0,0.011590822134166956,-0.008323985384777188,0.7437102794647217,0.29910244047641754,-0.001451177173294127,0.0008133626542985439,-35.362444100000005,149.1661573,79510.0,-1.0,4.0,-52.0,-0.5,16.5,-1003.5,301.5,2.0,4.0,RTL
19:16:40,211629.0,0.0035367996606510133,-0.006782551645301282,0.7438048273324966,-0.001979127526283264,0.0009268809226341546,-0.0009029594366438687,-35.362444025,149.16615735,79966.75,-2.5,6.25,-27.75,0.0,1.5,-960.5,0.75,4.25,2.75,RTL
19:16:41,211629.0,-0.00036530010402202606,-0.006097006145864725,0.7437182366847992,-0.013412147760391235,-0.0016071373829618096,-0.00025976100005209446,-35.3624442,149.16615769999999,80085.5,-2.0,5.0,0.0,1.0,-0.5,-987.5,-10.5,1.5,3.5,RTL
19:16:43,211629.0,-0.005139490123838186,-0.006424108752980828,0.7438018918037415,-0.18787941336631775,0.00469004490878433,-0.0028473094571381807,-35.36244465,149.16615815,80198.5,0.0,1.0,-27.5,0.5,-13.0,-1037.0,-186.0,8.0,0.5,RTL
19:16:45,211629.0,-0.014170819194987416,-0.006468658801168203,0.7434796392917633,-0.032030120491981506,0.0011448482982814312,-0.0014628225471824408,-35.3624454,149.16615919999998,81089.0,6.0,-5.5,-30.5,0.0,-7.0,-967.0,-30.0,4.5,2.0,RTL
19:16:46,96893.0,-0.01396600715816021,-0.007397664012387395,0.7435651421546936,-0.332939013838768,-0.0013882873463444412,0.0007353310938924551,-35.362445449999996,149.166159225,81255.25,8.25,-8.25,-1.5,-0.5,-11.75,-984.25,-330.25,1.75,4.0,RTL
19:16:47,96893.0,0.001188786467537284,-0.00856536440551281,0.7439166009426117,0.03350609540939331,0.00018382573034614325,0.0009421708527952433,-35.36244515,149.16615875,81236.5,7.5,-7.0,0.0,-0.5,3.0,-1015.0,35.5,3.0,4.0,RTL
19:16:49,96893.0,-0.0013152856336091645,-0.007739939959719777,0.7437890470027924,-0.23575836047530174,-0.0009530694223940372,0.00026165309827774763,-35.3624447,149.16615804999998,81773.5,2.0,0.0,-53.5,-0.5,-14.0,-1007.5,-233.5,2.0,3.5,RTL
19:16:51,96893.0,0.0033026798628270626,-0.008237403817474842,0.7434243261814117,0.053575366735458374,-0.0015137488953769207,0.0010943744564428926,-35.3624445,149.1661579,82504.0,0.5,0.5,-5.5,-1.0,3.5,-968.0,55.5,1.5,4.5,RTL
19:16:52,9834.0,0.006346055350149982,-0.008537320420145988,0.7434472888708115,-0.35813730023801327,-0.0005710592668037862,-0.00028149090940132737,-35.362444175,149.166157475,82497.5,-0.75,2.5,2.5,-1.0,-18.25,-1003.75,-356.0,2.5,3.0,RTL
19:16:53,9834.0,0.010839806869626045,-0.007672130828723311,0.7437605559825897,0.29381804168224335,0.0010618633823469281,-6.210093852132559e-05,-35.3624439,149.16615704999998,82594.0,-5.0,7.5,-23.5,-0.5,26.5,-1030.5,297.0,4.0,3.5,RTL
19:16:55,9834.0,0.0030752203019801527,-0.00634321104735136,0.7438395321369171,0.3089360073208809,-3.7539051845669746e-05,-0.001726233633235097,-35.362444100000005,149.16615745000001,83530.0,-5.5,8.5,-41.5,0.0,11.5,-973.5,311.5,3.0,1.5,RTL
19:16:57,9834.0,-0.001988903386518359,-0.006721030687913299,0.7438410520553589,-0.0028020739555358887,-0.006130815949290991,0.002223544754087925,-35.36244445,149.16615795,83780.5,-1.0,3.0,1.5,3.0,1.0,-1004.5,0.0,-2.0,5.5,RTL
19:16:58,41774.0,-0.002526703989133239,-0.007109031663276255,0.7440313696861267,-0.11823966726660728,-0.002819701738189906,-0.0012188020627945662,-35.362444575000005,149.166158,83829.75,0.0,1.75,-19.75,0.5,-6.0,-1037.5,-115.5,0.5,2.25,RTL
19:16:59,41774.0,0.002548266784287989,-0.008002952672541142,0.7434719800949097,0.13133296743035316,-0.0036652287235483527,-0.0016255058581009507,-35.36244465,149.16615804999998,84216.0,0.5,1.0,-51.5,0.5,0.0,-1021.5,132.5,0.0,1.5,RTL
19:17:01,41774.0,0.0012426117900758982,-0.008227281738072634,0.7436535656452179,-0.13363978266716003,-0.0017951069166883826,-0.0005755965830758214,-35.362444749999995,149.16615804999998,85073.5,1.5,0.0,-13.5,-0.5,-12.0,-975.5,-132.0,1.5,2.5,RTL
19:17:03,41774.0,0.004128279164433479,-0.006433800561353564,0.7439432144165039,0.1350526362657547,-0.00017592869699001312,-3.27663728967309e-05,-35.3624444,149.1661579,85123.5,-0.5,2.5,-13.0,0.0,4.5,-1040.0,137.5,3.0,3.5,RTL
19:17:04,130996.0,0.0008237950678449124,-0.006622889544814825,0.7437618672847748,0.03839747793972492,-0.0015461619477719069,-0.0005866276333108544,-35.3624444,149.1661579,85412.0,-1.0,2.5,-47.5,0.0,0.75,-1030.25,41.0,1.5,2.75,RTL
19:17:05,130996.0,-0.002669860376045108,-0.0072948557790368795,0.7439275085926056,0.055533524602651596,-0.002078874269500375,0.00015096808783710003,-35.362444550000006,149.16615795,85960.0,-0.5,2.5,-52.0,0.0,10.0,-981.0,59.0,0.5,3.0,RTL
19:17:07,130996.0,-0.0026574351359158754,-0.007601609220728278,0.7439743876457214,0.052126034745015204,-0.0003486308269202709,0.0005650555249303579,-35.362444749999995,149.1661582,86419.5,1.5,0.0,1.5,0.0,2.5,-980.5,55.0,2.5,3.5,RTL
19:17:09,130996.0,-0.008982843166450039,-0.005189994815737009,0.7435142695903778,0.21158649027347565,-0.0024511590017937124,0.00024171057157218456,-35.36244515,149.16615885,86618.5,4.0,-2.0,-38.5,1.5,6.0,-1037.0,213.5,0.5,3.5,RTL
19:17:10,64486.0,-0.016027330420911312,-0.0063176845433190465,0.7436444908380508,0.0651787780225277,-0.0027589068340603262,0.0002819045912474394,-35.362445675000004,149.1661595,87118.5,8.25,-7.25,-55.25,0.75,1.5,-996.0,67.5,0.5,3.5,RTL
19:17:11,64486.0,-0.01249330909922719,-0.00777072855271399,0.7437131106853485,0.26623524725437164,-0.0009071258828043938,0.0012049211654812098,-35.36244585,149.16615965,87558.5,11.5,-10.5,-27.0,0.0,15.5,-965.0,268.5,1.5,4.0,RTL
19:17:13,64486.0,-0.006724101142026484,-0.007920989068225026,0.743976503610611,0.00938364863395691,0.000834815320558846,-0.0013415671419352293,-35.362445550000004,149.16615919999998,87664.0,11.5,-9.5,-0.5,0.0,1.0,-1019.5,12.0,3.5,1.5,RTL
19:17:15,64486.0,-0.004152443249040516,-0.008682533632963896,0.7437811493873596,-0.010286852717399597,-0.0015436643734574318,0.0003689953591674566,-35.36244525,149.16615875000002,88243.0,7.5,-5.5,-52.5,-0.5,-5.0,-1004.5,-9.0,1.0,3.5,RTL
19:17:16,104948.0,0.001570160617120564,-0.009590527042746544,0.7437467277050018,0.05130932852625847,-0.0010459888144396245,0.0004129160661250353,-35.362445050000005,149.166158375,88734.25,6.0,-3.75,-34.0,-1.25,2.75,-962.5,52.75,1.75,3.5,RTL
19:17:17,104948.0,0.007400163158308715,-0.00970769440755248,0.7436465620994568,0.02095934748649597,0.001711239805445075,0.0005273035494610667,-35.3624446,149.16615775,88898.5,3.0,-0.5,-3.0,-1.5,4.0,-983.5,23.0,4.5,3.5,RTL
19:17:19,104948.0,0.00681737344712019,-0.007286452921107411,0.7436293065547943,-0.08136311173439026,-0.0018770275637507439,-0.0004958685021847486,-35.3624439,149.16615704999998,88961.5,-4.5,8.5,-21.5,0.0,2.5,-1036.5,-79.0,1.0,2.5,RTL
19:17:21,104948.0,-0.0057924301363527775,-0.005684773670509458,0.7440823912620544,-0.3604879006743431,0.00022506504319608212,5.5188313126564026e-05,-35.362444249999996,149.16615769999999,89839.5,-3.0,6.0,-37.5,1.0,-14.0,-972.5,-358.0,2.5,3.0,RTL
19:17:22,92671.0,-0.005976930539645764,-0.006004529073834419,0.7436493933200836,0.17432670667767525,-0.00045108026824891567,0.0011633444228209555,-35.36244465,149.16615825,90063.25,-0.5,2.0,-3.75,0.0,5.5,-976.25,176.25,2.25,4.25,RTL
19:17:23,92671.0,-0.0050340123707428575,-0.0071826474741101265,0.743987500667572,-0.14783722162246704,-0.004214891232550144,0.0025045638903975487,-35.3624448,149.16615835,90049.0,1.5,-0.5,2.5,0.0,-3.5,-998.5,-145.5,-1.0,5.0,RTL
19:17:25,92671.0,0.005987313576042652,-0.00855508679524064,0.7438251972198486,0.11644580960273743,0.00044348795199766755,-0.0005578944692388177,-35.3624444,149.16615769999999,90479.0,-0.5,2.5,-49.0,-0.5,12.0,-1017.5,119.0,3.0,2.5,RTL
19:17:27,92671.0,0.008197496528737247,-0.008182094432413578,0.7436766028404236,-0.0641445517539978,0.0014717893209308386,-0.00119829794857651,-35.36244405,149.1661572,91229.0,-3.5,6.5,-8.0,0.0,-3.0,-977.5,-62.0,4.0,1.5,RTL
19:17:28,19573.0,0.005699244677089155,-0.005463467910885811,0.7442874908447266,0.2793123535811901,0.0037836410920135677,-0.0009580057812854648,-35.362444124999996,149.16615745000001,91233.5,-3.75,7.5,3.75,0.5,7.5,-1000.0,281.75,6.25,2.25,RTL
19:17:29,19573.0,-0.005828470923006535,-0.004043172695674002,0.7440147399902344,0.08647023886442184,-0.0006344693247228861,-0.003194910241290927,-35.36244465,149.1661583,91281.5,-1.0,3.5,-16.0,2.0,-10.0,-1028.5,88.5,2.0,0.0,RTL
19:17:31,19573.0,-0.007765406451653689,-0.008090850431472063,0.7438936531543732,0.20693107694387436,-0.003961205715313554,-0.0013451142003759742,-35.362445550000004,149.16615925000002,92099.0,8.0,-7.5,-38.0,0.5,1.5,-973.5,208.0,-0.5,1.5,RTL
19:17:33,19573.0,0.0032461313530802727,-0.009115791879594326,0.7441752552986145,0.7046593427658081,0.0019757773261517286,-0.0008872640319168568,-35.3624453,149.1661588,92355.0,8.0,-6.0,5.0,0.0,38.0,-1010.0,707.0,5.0,2.0,RTL
