time_stamp,MODE,lat,lon,relative_alt,roll,pitch,yaw,rollspeed,pitchspeed,yawspeed,xacc,yacc,zacc,xgyro,ygyro,zgyro,vx,vy,vz,RTL_ALT
19:11:36.800,STABILIZE,-35.3632621,149.1652374,28,-4.464808080228977e-05,0.0015602140920236707,0.029166260734200478,0.0001899426570162177,0.00010517888586036861,0.002353937830775976,0,1,-1000,0,0,0,-1,1,0,1500.0
19:11:37.001,STABILIZE,-35.3632621,149.1652374,28,-4.464808080228977e-05,0.0015602140920236707,0.029166260734200478,0.0001899426570162177,0.00010517888586036861,0.002353937830775976,0,1,-1000,0,0,0,-1,1,0,1500.0
19:11:37.201,STABILIZE,-35.3632621,149.1652374,28,-4.464808080228977e-05,0.0015602140920236707,0.029166260734200478,0.0001899426570162177,0.00010517888586036861,0.002353937830775976,0,1,-1000,0,0,0,-1,1,0,1500.0
19:11:37.402,STABILIZE,-35.3632621,149.1652375,24,0.00017928647866938263,0.00153337512165308,0.028550414368510246,-8.4256986156106e-05,0.0003441845183260739,0.0023954829666763544,0,2,-999,0,0,0,-2,2,0,1500.0
19:11:37.603,STABILIZE,-35.3632621,149.1652375,24,0.00017928647866938263,0.00153337512165308,0.028550414368510246,-8.4256986156106e-05,0.0003441845183260739,0.0023954829666763544,0,2,-999,0,0,0,-2,2,0,1500.0
19:11:37.804,STABILIZE,-35.3632621,149.1652375,24,0.00017928647866938263,0.00153337512165308,0.028550414368510246,-8.4256986156106e-05,0.0003441845183260739,0.0023954829666763544,0,2,-999,0,0,0,-2,2,0,1500.0
19:11:38.004,STABILIZE,-35.3632621,149.1652375,24,0.00017928647866938263,0.00153337512165308,0.028550414368510246,-8.4256986156106e-05,0.0003441845183260739,0.0023954829666763544,0,2,-999,0,0,0,-2,2,0,1500.0
19:11:38.205,STABILIZE,-35.3632622,149.1652375,16,-0.00010938976629404351,0.001414290745742619,0.028040597215294838,0.00022119659115560353,0.00026675130357034504,0.0021620243787765503,0,2,-999,0,0,0,-2,2,0,1500.0
19:11:38.406,STABILIZE,-35.3632622,149.1652375,15,-0.00010938976629404351,0.001414290745742619,0.028040597215294838,0.00022119659115560353,0.00026675130357034504,0.0021620243787765503,0,1,-1000,0,0,0,-2,2,0,1500.0
19:11:38.608,STABILIZE,-35.3632622,149.1652375,15,-0.00010938976629404351,0.001414290745742619,0.028040597215294838,0.00022119659115560353,0.00026675130357034504,0.0021620243787765503,0,1,-1000,0,0,0,-2,2,0,1500.0
19:11:38.809,STABILIZE,-35.3632622,149.1652375,15,-0.00010938976629404351,0.001414290745742619,0.028040597215294838,0.00022119659115560353,0.00026675130357034504,0.0021620243787765503,0,1,-1000,0,0,0,-2,2,0,1500.0
19:11:39.011,STABILIZE,-35.3632622,149.1652375,15,-0.00010938976629404351,0.001414290745742619,0.028040597215294838,0.00022119659115560353,0.00026675130357034504,0.0021620243787765503,0,1,-1000,0,0,0,-2,2,0,1500.0
19:11:39.213,STABILIZE,-35.3632622,149.1652375,14,-0.0005420729285106063,0.0012127161026000977,0.02743384800851345,0.0002216941793449223,0.00020274156122468412,0.0022514492738991976,0,1,-1000,0,0,0,-1,1,0,1500.0
19:11:39.414,STABILIZE,-35.3632622,149.1652375,13,-0.0006126255611889064,0.00116828887257725,0.027295688167214394,0.00022114429157227278,0.0002696701558306813,0.0021803476847708225,0,1,-1000,0,0,0,-1,1,0,1500.0
19:11:39.616,STABILIZE,-35.3632622,149.1652375,13,-0.0006126255611889064,0.00116828887257725,0.027295688167214394,0.00022114429157227278,0.0002696701558306813,0.0021803476847708225,0,1,-1000,0,0,0,-1,1,0,1500.0
19:11:39.818,STABILIZE,-35.3632622,149.1652375,13,-0.0007720548892393708,0.001070149359293282,0.027041489258408546,0.0001656091189943254,0.0001385982905048877,0.002208613557741046,0,1,-1000,0,0,0,-1,1,0,1500.0
19:11:40.019,STABILIZE,-35.3632622,149.1652375,13,-0.0007720548892393708,0.001070149359293282,0.027041489258408546,0.0001656091189943254,0.0001385982905048877,0.002208613557741046,0,1,-1000,0,0,0,-1,1,0,1500.0
19:11:40.221,STABILIZE,-35.3632622,149.1652375,13,-0.0007720548892393708,0.001070149359293282,0.027041489258408546,0.0001656091189943254,0.0001385982905048877,0.002208613557741046,0,1,-1000,0,0,0,-1,1,0,1500.0
19:11:40.423,STABILIZE,-35.3632622,149.1652375,13,-0.0007720548892393708,0.001070149359293282,0.027041489258408546,0.0001656091189943254,0.0001385982905048877,0.002208613557741046,0,1,-1000,0,0,0,-1,1,0,1500.0
19:11:40.625,STABILIZE,-35.3632622,149.1652375,13,-0.0007720548892393708,0.001070149359293282,0.027041489258408546,0.0001656091189943254,0.0001385982905048877,0.002208613557741046,0,1,-1000,0,0,0,-1,1,0,1500.0
19:11:40.827,STABILIZE,-35.3632622,149.1652375,13,-0.0007720548892393708,0.001070149359293282,0.027041489258408546,0.0001656091189943254,0.0001385982905048877,0.002208613557741046,0,1,-1000,0,0,0,-1,1,0,1500.0
19:11:41.029,STABILIZE,-35.3632622,149.1652375,13,-0.0007720548892393708,0.001070149359293282,0.027041489258408546,0.0001656091189943254,0.0001385982905048877,0.002208613557741046,0,1,-1000,0,0,0,-1,1,0,1500.0
19:11:41.231,STABILIZE,-35.3632621,149.1652375,15,-0.0007720548892393708,0.001070149359293282,0.027041489258408546,0.0001656091189943254,0.0001385982905048877,0.002208613557741046,0,1,-1000,0,0,0,-1,1,0,1500.0
19:11:41.433,STABILIZE,-35.3632621,149.1652375,15,-0.000997555791400373,0.0009406480239704251,0.0263799037784338,0.00026771327247843146,0.00022291179629974067,0.0020256787538528442,0,1,-1000,0,0,0,-1,0,0,1500.0
19:11:41.635,STABILIZE,-35.3632621,149.1652375,15,-0.000997555791400373,0.0009406480239704251,0.0263799037784338,0.00026771327247843146,0.00022291179629974067,0.0020256787538528442,0,1,-1000,0,0,0,-1,0,0,1500.0
19:11:41.837,STABILIZE,-35.3632621,149.1652375,15,-0.000997555791400373,0.0009406480239704251,0.0263799037784338,0.00026771327247843146,0.00022291179629974067,0.0020256787538528442,0,1,-1000,0,0,0,-1,0,0,1500.0
19:11:42.038,STABILIZE,-35.3632621,149.1652375,15,-0.000997555791400373,0.0009406480239704251,0.0263799037784338,0.00026771327247843146,0.00022291179629974067,0.0020256787538528442,0,1,-1000,0,0,0,-1,0,0,1500.0
19:11:42.241,STABILIZE,-35.3632621,149.1652375,15,-0.000997555791400373,0.0009406480239704251,0.0263799037784338,0.00026771327247843146,0.00022291179629974067,0.0020256787538528442,0,1,-1000,0,0,0,-1,0,0,1500.0
19:11:42.443,STABILIZE,-35.3632621,149.1652375,17,-0.0010587995639070868,0.0008978746482171118,0.02600749209523201,0.00028979225317016244,0.00028497830498963594,0.0019493578001856804,0,1,-1000,0,1,0,-1,0,0,1500.0
19:11:42.645,STABILIZE,-35.3632621,149.1652375,17,-0.0010587995639070868,0.0008978746482171118,0.02600749209523201,0.00028979225317016244,0.00028497830498963594,0.0019493578001856804,0,1,-1000,0,1,0,-1,0,0,1500.0
19:11:42.846,STABILIZE,-35.3632621,149.1652375,17,-0.0010587995639070868,0.0008978746482171118,0.02600749209523201,0.00028979225317016244,0.00028497830498963594,0.0019493578001856804,0,1,-1000,0,1,0,-1,0,0,1500.0
19:11:43.048,STABILIZE,-35.3632621,149.1652375,17,-0.0010587995639070868,0.0008978746482171118,0.02600749209523201,0.00028979225317016244,0.00028497830498963594,0.0019493578001856804,0,1,-1000,0,1,0,-1,0,0,1500.0
19:11:43.249,STABILIZE,-35.3632621,149.1652375,18,-0.0010921992361545563,0.0008994280360639095,0.025731893256306648,0.0002194617409259081,0.0001767346984706819,0.00192089076153934,0,1,-1000,1,0,0,-1,0,0,1500.0
19:11:43.451,STABILIZE,-35.3632621,149.1652375,18,-0.0010921992361545563,0.0008994280360639095,0.025731893256306648,0.0002194617409259081,0.0001767346984706819,0.00192089076153934,0,1,-1000,0,0,0,-1,0,0,1500.0
19:11:43.653,STABILIZE,-35.3632621,149.1652375,19,-0.0011088501196354628,0.0009046978084370494,0.025544805452227592,0.0002704255748540163,0.00023900112137198448,0.0018944572657346725,0,1,-1000,0,0,0,-1,0,0,1500.0
19:11:43.854,STABILIZE,-35.3632621,149.1652375,20,-0.0011219059815630317,0.000900514074601233,0.025476062670350075,0.00014998199185356498,0.00024120777379721403,0.0019327171612530947,0,1,-1000,0,0,0,-1,0,0,1500.0
19:11:44.056,STABILIZE,-35.3632621,149.1652375,20,-0.0011219059815630317,0.000900514074601233,0.025476062670350075,0.00014998199185356498,0.00024120777379721403,0.0019327171612530947,0,1,-1000,0,0,0,-1,0,0,1500.0
19:11:44.261,STABILIZE,-35.3632621,149.1652375,20,-0.0011219059815630317,0.000900514074601233,0.025476062670350075,0.00014998199185356498,0.00024120777379721403,0.0019327171612530947,0,1,-1000,0,0,0,-1,0,0,1500.0
19:11:44.462,STABILIZE,-35.3632621,149.1652375,17,-0.0008091372437775135,0.0009069610969163477,0.025310173630714417,0.00020721019245684147,0.00021931208902969956,0.0018085050396621227,0,0,-1002,0,0,0,-1,2,2,1500.0
19:11:44.668,STABILIZE,-35.3632621,149.1652375,17,-0.0008091372437775135,0.0009069610969163477,0.025310173630714417,0.00020721019245684147,0.00021931208902969956,0.0018085050396621227,0,0,-1002,0,0,0,-1,2,2,1500.0
19:11:44.870,STABILIZE,-35.3632621,149.1652375,17,-0.0008091372437775135,0.0009069610969163477,0.025310173630714417,0.00020721019245684147,0.00021931208902969956,0.0018085050396621227,0,0,-1002,0,0,0,-1,2,2,1500.0
19:11:45.074,STABILIZE,-35.3632621,149.1652375,8,-0.000984925078228116,0.0008867845172062516,0.025048861280083656,0.0002381761441938579,0.00024028681218624115,0.0019039945909753442,0,1,-1000,0,0,0,-1,2,1,1500.0
19:11:45.276,STABILIZE,-35.3632621,149.1652375,8,-0.000984925078228116,0.0008867845172062516,0.025048861280083656,0.0002381761441938579,0.00024028681218624115,0.0019039945909753442,0,1,-1000,0,0,0,-1,2,1,1500.0
19:11:45.478,STABILIZE,-35.3632621,149.1652375,8,-0.000984925078228116,0.0008867845172062516,0.025048861280083656,0.0002381761441938579,0.00024028681218624115,0.0019039945909753442,0,1,-1000,0,0,0,-1,2,1,1500.0
19:11:45.679,STABILIZE,-35.3632621,149.1652375,6,-0.0010968868155032396,0.000903177831787616,0.02488214708864689,0.00014245737111195922,0.00025212723994627595,0.0018130831886082888,0,1,-1000,0,1,0,-1,2,1,1500.0
19:11:45.881,STABILIZE,-35.3632621,149.1652375,5,-0.0011481445981189609,0.000905472319573164,0.024799853563308716,0.00030447792960330844,0.00018319603987038136,0.0017671264940872788,0,1,-1000,0,0,0,-1,1,1,1500.0
19:11:46.082,STABILIZE,-35.3632621,149.1652375,5,-0.0011925934813916683,0.0009040108998306096,0.024720482528209686,0.00020812283037230372,0.00022740353597328067,0.0018240857170894742,0,1,-1000,0,0,1,-1,1,0,1500.0
19:11:46.284,STABILIZE,-35.3632621,149.1652375,5,-0.0011925934813916683,0.0009040108998306096,0.024720482528209686,0.00020812283037230372,0.00022740353597328067,0.0018240857170894742,0,1,-1000,0,0,1,-1,1,0,1500.0
19:11:46.486,STABILIZE,-35.3632621,149.1652375,5,-0.0011925934813916683,0.0009040108998306096,0.024720482528209686,0.00020812283037230372,0.00022740353597328067,0.0018240857170894742,0,1,-1000,0,0,1,-1,1,0,1500.0
19:11:46.688,STABILIZE,-35.3632621,149.1652375,5,-0.0011925934813916683,0.0009040108998306096,0.024720482528209686,0.00020812283037230372,0.00022740353597328067,0.0018240857170894742,0,1,-1000,0,0,1,-1,1,0,1500.0
19:11:46.890,STABILIZE,-35.3632621,149.1652375,5,-0.0011925934813916683,0.0009040108998306096,0.024720482528209686,0.00020812283037230372,0.00022740353597328067,0.0018240857170894742,0,1,-1000,0,0,1,-1,1,0,1500.0
19:11:47.091,STABILIZE,-35.3632621,149.1652375,4,-0.001325032557360828,0.0009298442746512592,0.02443518675863743,0.0003023548051714897,0.0002706836094148457,0.0017909252783283591,0,1,-1000,1,0,0,-1,1,0,1500.0
19:11:47.293,STABILIZE,-35.3632621,149.1652375,4,-0.001325032557360828,0.0009298442746512592,0.02443518675863743,0.0003023548051714897,0.0002706836094148457,0.0017909252783283591,0,1,-1000,1,0,0,-1,1,0,1500.0
19:11:47.494,STABILIZE,-35.3632621,149.1652375,5,-0.001342272968031466,0.0009355792426504195,0.024347001686692238,0.000331892108079046,0.00035507441498339176,0.0016153191681951284,0,2,-1000,0,0,0,-1,1,0,1500.0
19:11:47.696,STABILIZE,-35.3632621,149.1652375,5,-0.001342272968031466,0.0009355792426504195,0.024347001686692238,0.000331892108079046,0.00035507441498339176,0.0016153191681951284,0,2,-1000,0,0,0,-1,1,0,1500.0
19:11:47.897,STABILIZE,-35.3632621,149.1652375,5,-0.001342272968031466,0.0009355792426504195,0.024347001686692238,0.000331892108079046,0.00035507441498339176,0.0016153191681951284,0,2,-1000,0,0,0,-1,1,0,1500.0
19:11:48.099,STABILIZE,-35.3632621,149.1652375,16,-0.0013658805983141065,0.0009403625153936446,0.024161221459507942,0.00023275596322491765,0.000305019726511091,0.00160064990632236,0,1,-1000,0,0,0,-1,-1,-3,1500.0
19:11:48.301,STABILIZE,-35.3632621,149.1652375,16,-0.0013658805983141065,0.0009403625153936446,0.024161221459507942,0.00023275596322491765,0.000305019726511091,0.00160064990632236,0,1,-1000,0,0,0,-1,-1,-3,1500.0
19:11:48.502,STABILIZE,-35.3632621,149.1652375,16,-0.0013658805983141065,0.0009403625153936446,0.024161221459507942,0.00023275596322491765,0.000305019726511091,0.00160064990632236,0,1,-1000,0,0,0,-1,-1,-3,1500.0
19:11:48.704,STABILIZE,-35.3632621,149.1652375,16,-0.0013658805983141065,0.0009403625153936446,0.024161221459507942,0.00023275596322491765,0.000305019726511091,0.00160064990632236,0,1,-1000,0,0,0,-1,-1,-3,1500.0
19:11:48.906,STABILIZE,-35.3632621,149.1652375,16,-0.0013658805983141065,0.0009403625153936446,0.024161221459507942,0.00023275596322491765,0.000305019726511091,0.00160064990632236,0,1,-1000,0,0,0,-1,-1,-3,1500.0
19:11:49.107,STABILIZE,-35.3632622,149.1652374,28,-0.001115475664846599,0.0009558277088217437,0.023925280198454857,0.0002206261269748211,0.0002785783144645393,0.001629596808925271,0,2,-1000,0,0,0,-1,0,-2,1500.0
19:11:49.309,STABILIZE,-35.3632622,149.1652374,28,-0.001115475664846599,0.0009558277088217437,0.023925280198454857,0.0002206261269748211,0.0002785783144645393,0.001629596808925271,0,2,-1000,0,0,0,-1,0,-2,1500.0
19:11:49.511,STABILIZE,-35.3632622,149.1652374,28,-0.001115475664846599,0.0009558277088217437,0.023925280198454857,0.0002206261269748211,0.0002785783144645393,0.001629596808925271,0,2,-1000,0,0,0,-1,0,-2,1500.0
19:11:49.712,STABILIZE,-35.3632622,149.1652374,28,-0.001115475664846599,0.0009558277088217437,0.023925280198454857,0.0002206261269748211,0.0002785783144645393,0.001629596808925271,0,1,-1000,0,0,0,-1,0,-2,1500.0
19:11:49.914,STABILIZE,-35.3632622,149.1652375,31,-0.0009704671101644635,0.0009619397460483015,0.023721452802419662,0.00032646069303154945,0.00030348601285368204,0.001667127013206482,0,1,-1000,0,0,0,-1,0,-2,1500.0
19:11:50.115,STABILIZE,-35.3632622,149.1652375,31,-0.0009704671101644635,0.0009619397460483015,0.023721452802419662,0.00032646069303154945,0.00030348601285368204,0.001667127013206482,0,1,-1000,0,0,0,-1,0,-2,1500.0
19:11:50.317,STABILIZE,-35.3632622,149.1652375,33,-0.0009090915555134416,0.0009728651493787766,0.0235795509070158,0.0003608792903833091,0.0001981982495635748,0.0015945184277370572,0,1,-1000,1,1,0,-1,0,-2,1500.0
19:11:50.519,STABILIZE,-35.3632622,149.1652375,33,-0.0009090915555134416,0.0009728651493787766,0.0235795509070158,0.0003608792903833091,0.0001981982495635748,0.0015945184277370572,0,1,-1000,1,1,0,-1,0,-2,1500.0
19:11:50.720,STABILIZE,-35.3632622,149.1652375,33,-0.0009090915555134416,0.0009728651493787766,0.0235795509070158,0.0003608792903833091,0.0001981982495635748,0.0015945184277370572,0,1,-1000,1,1,0,-1,0,-2,1500.0
19:11:50.922,STABILIZE,-35.3632622,149.1652375,33,-0.0009090915555134416,0.0009728651493787766,0.0235795509070158,0.0003608792903833091,0.0001981982495635748,0.0015945184277370572,0,1,-1000,1,1,0,-1,0,-2,1500.0
19:11:51.123,STABILIZE,-35.3632622,149.1652375,35,-0.0008421278325840831,0.0009768846211954951,0.023337673395872116,0.00030697922920808196,0.0002461802796460688,0.0015757301589474082,0,1,-1000,0,0,0,-1,1,-1,1500.0
19:11:51.325,STABILIZE,-35.3632622,149.1652375,35,-0.0008421278325840831,0.0009768846211954951,0.023337673395872116,0.00030697922920808196,0.0002461802796460688,0.0015757301589474082,0,1,-1000,0,0,1,-1,1,-1,1500.0
19:11:51.527,STABILIZE,-35.3632622,149.1652375,35,-0.0008421278325840831,0.0009768846211954951,0.023337673395872116,0.00030697922920808196,0.0002461802796460688,0.0015757301589474082,0,1,-1000,0,0,1,-1,1,-1,1500.0
19:11:51.729,AUTO,-35.3632622,149.1652374,60,-0.0007148279109969735,0.0009917349088937044,0.0231877863407135,0.000256745726801455,0.0002754375454969704,0.001465352950617671,0,1,-1000,0,0,1,-1,-3,-9,1500.0
19:11:51.931,AUTO,-35.3632622,149.1652373,9,-0.0005582757876254618,0.000994652509689331,0.02313123270869255,0.0002813051105476916,0.0003239770303480327,0.0015718525974079967,0,1,-1000,1,1,1,-1,-2,-8,1500.0
19:11:52.133,AUTO,-35.3632621,149.1652373,15,-0.0004008209507446736,0.0009911158122122288,0.023074619472026825,0.00023363163927569985,0.0003261553938500583,0.0016378657892346382,0,1,-1000,1,0,0,-1,-1,-8,1500.0
19:11:52.335,AUTO,-35.3632621,149.1652374,20,-0.0002810189325828105,0.0010018852772191167,0.022981218993663788,0.00027381337713450193,0.0003575904993340373,0.0016408791998401284,0,1,-1000,0,0,0,-1,0,-7,1500.0
19:11:52.537,AUTO,-35.3632621,149.1652374,20,-0.0002810189325828105,0.0010018852772191167,0.022981218993663788,0.00027381337713450193,0.0003575904993340373,0.0016408791998401284,0,1,-1000,0,0,0,-1,0,-7,1500.0
19:11:52.739,AUTO,-35.3632621,149.1652374,20,-0.0002810189325828105,0.0010018852772191167,0.022981218993663788,0.00027381337713450193,0.0003575904993340373,0.0016408791998401284,0,1,-1000,0,0,0,-1,0,-7,1500.0
19:11:52.941,AUTO,-35.3632621,149.1652374,20,-0.0002810189325828105,0.0010018852772191167,0.022981218993663788,0.00027381337713450193,0.0003575904993340373,0.0016408791998401284,0,1,-1000,0,0,0,-1,0,-7,1500.0
19:11:53.143,AUTO,-35.3632621,149.1652374,28,-2.8213384211994708e-05,0.0011155114043504,0.02272493578493595,0.0002607630449347198,0.00029566389275714755,0.001512688584625721,0,1,-1000,0,0,0,0,1,-6,1500.0
19:11:53.356,AUTO,-35.3632621,149.1652374,30,2.7644513465929776e-05,0.0011726553784683347,0.022621257230639458,0.0002688561216928065,0.0002998854033648968,0.0015925199259072542,0,2,-1000,0,0,1,0,1,-5,1500.0
19:11:53.581,AUTO,-35.3632621,149.1652374,31,9.267800487577915e-05,0.0012303576804697514,0.02253376878798008,0.0003352499334141612,0.0002535417443141341,0.0015439058188349009,0,1,-1000,1,1,1,0,1,-5,1500.0
19:11:53.910,AUTO,-35.3632621,149.1652374,31,0.00015650232671760023,0.0012920822482556105,0.02242606319487095,0.0003323457785882056,0.00022854551207274199,0.0015298721846193075,0,2,-1000,0,0,0,0,2,-4,1500.0
19:11:54.172,AUTO,-35.3632621,149.1652374,31,0.00022350478684529662,0.0013549409341067076,0.022310586646199226,0.00038469041464850307,0.00022189226001501083,0.001533180708065629,0,1,-1000,0,0,1,0,2,-4,1500.0
19:11:54.483,AUTO,-35.3632621,149.1652374,31,0.0003013383538927883,0.0014250900130718946,0.022209670394659042,0.00034654117189347744,0.00020747951930388808,0.0014726505614817142,0,1,-1000,0,1,0,0,2,-3,1500.0
19:11:54.721,AUTO,-35.3632621,149.1652374,31,0.0003013383538927883,0.0014250900130718946,0.022209670394659042,0.00034654117189347744,0.00020747951930388808,0.0014726505614817142,0,1,-1000,0,1,0,0,2,-3,1500.0
19:11:54.924,AUTO,-35.3632621,149.1652374,31,0.0003013383538927883,0.0014250900130718946,0.022209670394659042,0.00034654117189347744,0.00020747951930388808,0.0014726505614817142,0,1,-1000,0,1,0,0,2,-3,1500.0
19:11:55.126,AUTO,-35.3632621,149.1652374,36,0.0005242298939265311,0.001647442695684731,0.021869758144021034,0.00030836352379992604,0.00033423479180783033,0.0014480981044471264,0,1,-1000,1,0,1,0,0,-5,1500.0
19:11:55.329,AUTO,-35.3632621,149.1652374,37,0.0006084564956836402,0.001723916968330741,0.021773843094706535,0.00037999387132003903,0.0003865663893520832,0.0014538737013936043,0,1,-1000,1,1,1,0,0,-4,1500.0
19:11:55.532,AUTO,-35.3632621,149.1652374,37,0.0006084564956836402,0.001723916968330741,0.021773843094706535,0.00037999387132003903,0.0003865663893520832,0.0014538737013936043,0,1,-1000,1,1,1,0,0,-4,252578.0
19:11:55.734,AUTO,-35.3632621,149.1652374,38,0.0018322415417060256,0.0010386130306869745,0.021756939589977264,0.010079230181872845,-0.010901657864451408,0.00124644348397851,0,0,-1095,10,-10,0,0,0,-10,252578.0
19:11:55.936,AUTO,-35.3632621,149.1652374,95,0.004544603172689676,-0.000630322378128767,0.021698040887713432,0.012830213643610477,1.9565224647521973e-05,0.0020741350017488003,0,0,-1145,13,0,1,0,1,-44,252578.0
19:11:56.138,AUTO,-35.3632621,149.1652374,237,0.0035649051424115896,0.00013339630095288157,0.02179906703531742,-0.004230549093335867,0.0027310000732541084,0.0021924462635070086,0,0,-1133,-3,3,1,0,2,-78,252578.0
19:11:56.340,AUTO,-35.3632621,149.1652374,458,0.0023876812774688005,0.0012131152907386422,0.021759476512670517,-0.011013215407729149,0.004363637883216143,0.0024407007731497288,0,0,-1111,-10,4,1,0,2,-107,252578.0
19:11:56.542,AUTO,-35.3632621,149.1652374,458,0.0023876812774688005,0.0012131152907386422,0.021759476512670517,-0.011013215407729149,0.004363637883216143,0.0024407007731497288,0,0,-1111,-10,4,1,0,2,-107,252578.0
19:11:56.745,AUTO,-35.3632621,149.1652374,458,0.0023876812774688005,0.0012131152907386422,0.021759476512670517,-0.011013215407729149,0.004363637883216143,0.0024407007731497288,0,0,-1111,-10,4,1,0,2,-107,252578.0
19:11:56.947,AUTO,-35.3632621,149.1652374,458,0.0023876812774688005,0.0012131152907386422,0.021759476512670517,-0.011013215407729149,0.004363637883216143,0.0024407007731497288,0,0,-1111,-10,4,1,0,2,-107,252578.0
19:11:57.150,AUTO,-35.3632621,149.1652374,458,0.0023876812774688005,0.0012131152907386422,0.021759476512670517,-0.011013215407729149,0.004363637883216143,0.0024407007731497288,0,0,-1111,-10,4,1,0,2,-107,252578.0
19:11:57.351,AUTO,-35.363262,149.1652377,1585,0.03099299781024456,-0.0023072881158441305,0.021836554631590843,0.0457497201859951,-0.007976775988936424,0.0029330288525670767,0,0,-1010,46,-7,2,1,10,-148,252578.0
19:11:57.553,AUTO,-35.363262,149.165238,1960,0.04206651821732521,-0.004428326152265072,0.02205781452357769,0.04341500252485275,-0.009082842618227005,0.0034255243372172117,0,-2,-1004,44,-8,2,2,18,-149,252578.0
19:11:57.755,AUTO,-35.3632618,149.1652386,2339,0.05244375392794609,-0.006852671038359404,0.022326264530420303,0.04041618853807449,-0.010952658019959927,0.00358721986413002,0,-3,-1001,41,-10,3,4,28,-149,252578.0
19:11:57.956,AUTO,-35.3632617,149.1652395,2720,0.06192930415272713,-0.009842146188020706,0.02242806740105152,0.03553883731365204,-0.011353911831974983,-0.0007386719807982445,2,-7,-998,36,-10,-1,7,40,-149,252578.0
19:11:58.158,AUTO,-35.3632617,149.1652395,2720,0.06192930415272713,-0.009842146188020706,0.02242806740105152,0.03553883731365204,-0.011353911831974983,-0.0007386719807982445,2,-7,-998,36,-10,-1,7,40,-149,252578.0
19:11:58.360,AUTO,-35.3632614,149.1652407,3105,0.05190868303179741,0.004476272966712713,-0.023831913247704506,-0.09274473786354065,0.10758695751428604,-0.1130697950720787,1,-9,-991,-92,108,-113,9,52,-146,252578.0
19:11:58.562,AUTO,-35.3632612,149.1652421,3477,0.012452307157218456,0.022883925586938858,-0.04562059044837952,-0.187837153673172,0.025203688070178032,-0.07804901152849197,3,-11,-994,-187,25,-78,7,56,-144,252578.0
19:11:58.773,AUTO,-35.3632612,149.1652421,3477,0.012452307157218456,0.022883925586938858,-0.04562059044837952,-0.187837153673172,0.025203688070178032,-0.07804901152849197,3,-11,-994,-187,25,-78,7,56,-144,252578.0
19:11:58.976,AUTO,-35.3632612,149.1652421,3477,0.012452307157218456,0.022883925586938858,-0.04562059044837952,-0.187837153673172,0.025203688070178032,-0.07804901152849197,3,-11,-994,-187,25,-78,7,56,-144,252578.0
19:11:59.179,AUTO,-35.3632609,149.1652457,4600,-0.05386265739798546,0.006568557117134333,-0.07214595377445221,-0.10419796407222748,-0.0118340365588665,-0.0379747599363327,5,-10,-1001,-103,-11,-38,1,29,-148,252578.0
19:11:59.411,AUTO,-35.3632608,149.1652462,4979,-0.07792263478040695,0.0039101531729102135,-0.07983715832233429,-0.051568809896707535,-0.007090791594237089,-0.03385571762919426,5,-10,-1001,-103,-11,-38,0,10,-148,252578.0
19:11:59.699,AUTO,-35.3632608,149.1652462,5361,-0.0776033103466034,0.001813202747143805,-0.08668620139360428,0.03422529995441437,-0.006261886563152075,-0.025250863283872604,0,0,-1005,34,-5,-25,-1,-9,-148,252578.0
19:11:59.989,AUTO,-35.3632609,149.1652457,5742,-0.06607489287853241,2.691651025088504e-05,-0.09176609665155411,0.05144868046045303,-0.004281862173229456,-0.01683029718697071,-1,3,-1001,52,-3,-17,-3,-27,-148,252578.0
19:12:00.360,AUTO,-35.3632609,149.1652448,6123,-0.05244726687669754,-0.0004801388131454587,-0.095637746155262,0.05729835107922554,0.0011715763248503208,-0.010962948203086853,-4,6,-1000,57,1,-11,-4,-41,-148,252578.0
19:12:00.635,AUTO,-35.363261,149.1652436,6505,-0.03753749281167984,0.00034796781255863607,-0.09853757917881012,0.06178780645132065,0.00568920373916626,-0.00665325578302145,-5,10,-1001,62,6,-6,-6,-50,-148,252578.0
19:12:00.838,AUTO,-35.363261,149.1652436,6505,-0.03753749281167984,0.00034796781255863607,-0.09853757917881012,0.06178780645132065,0.00568920373916626,-0.00665325578302145,-5,10,-1001,62,6,-6,-6,-50,-148,252578.0
19:12:01.041,AUTO,-35.363261,149.1652436,6505,-0.03753749281167984,0.00034796781255863607,-0.09853757917881012,0.06178780645132065,0.00568920373916626,-0.00665325578302145,-5,10,-1001,62,6,-6,-6,-50,-148,252578.0
19:12:01.245,AUTO,-35.3632617,149.165239,7664,0.011348990723490715,0.006835069973021746,-0.10038874298334122,0.06633909791707993,0.008722914382815361,0.0018103145994246006,-6,14,-1003,66,9,1,-12,-52,-150,252578.0
19:12:01.447,AUTO,-35.363262,149.1652375,8052,0.02784005180001259,0.008790056221187115,-0.09955969452857971,0.06567864120006561,0.006416880059987307,0.003376044100150466,-6,13,-1004,66,7,2,-14,-45,-150,24889.0
19:12:01.649,AUTO,-35.363262,149.1652375,8052,0.02784005180001259,0.008790056221187115,-0.09955969452857971,0.06567864120006561,0.006416880059987307,0.003376044100150466,-6,13,-1004,66,7,2,-14,-45,-150,24889.0
19:12:01.851,AUTO,-35.3632623,149.1652364,8441,0.04386890307068825,0.00984195526689291,-0.0982646495103836,0.06341242790222168,0.002368068788200617,0.004255844280123711,-2,10,-1003,64,3,3,-16,-34,-151,24889.0
19:12:02.052,AUTO,-35.3632627,149.1652355,8832,0.05695221573114395,0.008004702627658844,-0.09468616545200348,0.025463085621595383,-0.028197523206472397,0.03598892688751221,-2,9,-998,26,-27,35,-17,-20,-151,24889.0
19:12:02.254,AUTO,-35.3632631,149.1652351,9220,0.054963383823633194,-0.009332403540611267,-0.07913907617330551,-0.02462875097990036,-0.08914101123809814,0.08876988291740417,2,6,-997,-23,-88,88,-15,-6,-149,24889.0
19:12:02.456,AUTO,-35.3632633,149.165235,9605,0.043853528797626495,-0.034445080906152725,-0.056669749319553375,-0.06221809983253479,-0.07256019860506058,0.0736115425825119,1,1,-996,-61,-72,73,-8,5,-148,24889.0
19:12:02.658,AUTO,-35.3632633,149.165235,9605,0.043853528797626495,-0.034445080906152725,-0.056669749319553375,-0.06221809983253479,-0.07256019860506058,0.0736115425825119,1,1,-996,-61,-72,73,-8,5,-148,24889.0
19:12:02.861,AUTO,-35.3632633,149.165235,9605,0.043853528797626495,-0.034445080906152725,-0.056669749319553375,-0.06221809983253479,-0.07256019860506058,0.0736115425825119,1,1,-996,-61,-72,73,-8,5,-148,24889.0
19:12:03.063,AUTO,-35.3632633,149.165235,9605,0.043853528797626495,-0.034445080906152725,-0.056669749319553375,-0.06221809983253479,-0.07256019860506058,0.0736115425825119,1,1,-996,-61,-72,73,-8,5,-148,24889.0
19:12:03.265,AUTO,-35.363263,149.1652357,10750,-0.005004094913601875,-0.01269806269556284,-0.06738545745611191,-0.03043268620967865,0.04135580733418465,-0.05196988582611084,-1,-4,-1003,-29,41,-52,15,11,-147,24889.0
19:12:03.467,AUTO,-35.3632627,149.1652359,11134,-0.010058550164103508,-0.004618988372385502,-0.08002130687236786,-0.014666430652141571,0.027025116607546806,-0.05227410048246384,-2,-4,-1002,-14,27,-52,17,7,-148,24889.0
19:12:03.669,AUTO,-35.3632623,149.165236,11519,-0.011372392065823078,0.0013327706838026643,-0.0930914655327797,0.0020907134748995304,0.022367099300026894,-0.04984891414642334,-2,-3,-1002,2,22,-50,16,3,-149,24889.0
19:12:03.871,AUTO,-35.3632623,149.165236,11519,-0.011372392065823078,0.0013327706838026643,-0.0930914655327797,0.0020907134748995304,0.022367099300026894,-0.04984891414642334,-2,-3,-1002,2,22,-50,16,3,-149,24889.0
19:12:04.073,AUTO,-35.3632619,149.165236,11906,-0.010223297402262688,0.0062943194061517715,-0.10552946478128433,0.00938269030302763,0.018060293048620224,-0.041700929403305054,-3,-2,-1002,10,18,-42,15,0,-149,24889.0
19:12:04.275,AUTO,-35.3632616,149.1652359,12297,-0.00729269627481699,0.009388650767505169,-0.11594453454017639,0.016078980639576912,0.010093722492456436,-0.035736799240112305,-2,-2,-1001,16,10,-36,12,-3,-149,24889.0
19:12:04.477,AUTO,-35.3632613,149.1652359,12685,-0.003216993063688278,0.01159511785954237,-0.12442025542259216,0.017049109563231468,0.006598683074116707,-0.02669801376760006,-3,0,-1000,17,7,-27,9,-5,-150,24889.0
19:12:04.679,AUTO,-35.3632613,149.1652359,12685,-0.003216993063688278,0.01159511785954237,-0.12442025542259216,0.017049109563231468,0.006598683074116707,-0.02669801376760006,-3,0,-1000,17,7,-27,9,-5,-150,24889.0
19:12:04.881,AUTO,-35.3632613,149.1652359,12685,-0.003216993063688278,0.01159511785954237,-0.12442025542259216,0.017049109563231468,0.006598683074116707,-0.02669801376760006,-3,0,-1000,17,7,-27,9,-5,-150,24889.0
19:12:05.082,AUTO,-35.3632613,149.1652359,12685,-0.003216993063688278,0.01159511785954237,-0.12442025542259216,0.017049109563231468,0.006598683074116707,-0.02669801376760006,-3,0,-1000,17,7,-27,9,-5,-150,24889.0
19:12:05.284,AUTO,-35.363261,149.1652354,13846,0.008063364773988724,0.012778231874108315,-0.13910828530788422,0.010333076119422913,-0.0021068041678518057,-0.010855077765882015,-1,0,-999,10,-1,-11,0,-4,-150,24889.0
19:12:05.498,AUTO,-35.3632609,149.1652352,14234,0.009757373481988907,0.012334204278886318,-0.14201277494430542,0.005930599756538868,-0.0030727379489690065,-0.008688199333846569,-1,0,-1000,6,-2,-8,-1,-2,-150,24889.0
19:12:05.781,AUTO,-35.3632609,149.1652352,14623,0.010716850869357586,0.011165035888552666,-0.14412984251976013,0.004054959863424301,-0.0055550467222929,-0.00703440560027957,0,0,-1000,4,-4,-7,-4,0,-150,24889.0
19:12:06.055,AUTO,-35.363261,149.1652352,15011,0.010688911192119122,0.009505811147391796,-0.14578348398208618,-0.002568855881690979,-0.006568399257957935,-0.005122809670865536,0,0,-999,-2,-5,-5,-5,2,-150,24889.0
19:12:06.400,AUTO,-35.3632611,149.1652352,15399,0.00947114173322916,0.00773736834526062,-0.147474467754364,-0.00456868764013052,-0.005832163151353598,-0.0071710688062012196,1,0,-1000,-3,-4,-7,-6,4,-150,24889.0
19:12:06.675,AUTO,-35.3632612,149.1652353,15788,0.00789935514330864,0.006344957742840052,-0.14971522986888885,-0.006950537674129009,-0.004834750201553106,-0.009190093725919724,0,0,-1000,-6,-4,-9,-6,5,-150,24889.0
19:12:06.881,AUTO,-35.3632612,149.1652353,15788,0.00789935514330864,0.006344957742840052,-0.14971522986888885,-0.006950537674129009,-0.004834750201553106,-0.009190093725919724,0,0,-1000,-6,-4,-9,-6,5,-150,24889.0
19:12:07.084,AUTO,-35.3632612,149.1652353,15788,0.00789935514330864,0.006344957742840052,-0.14971522986888885,-0.006950537674129009,-0.004834750201553106,-0.009190093725919724,0,0,-1000,-6,-4,-9,-6,5,-150,24889.0
19:12:07.289,AUTO,-35.3632615,149.1652357,16951,0.003958552610129118,0.003285135142505169,-0.1597958654165268,-0.0049895369447767735,-0.002921318868175149,-0.015409808605909348,1,0,-1000,-4,-2,-16,-6,7,-150,24889.0
19:12:07.491,AUTO,-35.3632616,149.1652358,17339,0.0030438504181802273,0.0022935073357075453,-0.1638406217098236,-0.0015595103614032269,-0.0040008085779845715,-0.01638401485979557,1,0,-1000,0,-3,-16,-6,7,-150,24889.0
19:12:07.692,AUTO,-35.3632617,149.1652359,17727,0.002582395449280739,0.0017380827339366078,-0.16853179037570953,-0.0011719745816662908,-0.0017116395756602287,-0.0215768925845623,1,0,-1000,0,0,-21,-5,7,-150,235184.0
19:12:07.894,AUTO,-35.3632617,149.1652359,17727,0.002582395449280739,0.0017380827339366078,-0.16853179037570953,-0.0011719745816662908,-0.0017116395756602287,-0.0215768925845623,1,0,-1000,0,0,-21,-5,7,-150,235184.0
19:12:08.096,AUTO,-35.3632617,149.165236,18116,0.002186615252867341,0.001388709875755012,-0.17348305881023407,-0.0006666891858913004,0.00017023878172039986,-0.02222912199795246,1,0,-1000,0,0,-22,-4,6,-150,235184.0
19:12:08.298,AUTO,-35.3632618,149.1652362,18505,0.0016943957889452577,0.001122782938182354,-0.17860561609268188,-0.003167884424328804,-0.00033796363277360797,-0.020267333835363388,0,0,-1000,-2,0,-20,-4,6,-150,235184.0
19:12:08.499,AUTO,-35.3632619,149.1652363,18894,0.001511742826551199,0.0010913909645751119,-0.1840125471353531,0.0007624332793056965,0.0007035639719106257,-0.021105973049998283,0,0,-1000,1,1,-21,-3,5,-150,235184.0
19:12:08.701,AUTO,-35.3632619,149.1652363,18894,0.001511742826551199,0.0010913909645751119,-0.1840125471353531,0.0007624332793056965,0.0007035639719106257,-0.021105973049998283,0,0,-1000,1,1,-21,-3,5,-150,235184.0
19:12:08.903,AUTO,-35.3632619,149.1652363,18894,0.001511742826551199,0.0010913909645751119,-0.1840125471353531,0.0007624332793056965,0.0007035639719106257,-0.021105973049998283,0,0,-1000,1,1,-21,-3,5,-150,235184.0
19:12:09.104,AUTO,-35.3632619,149.1652363,18894,0.001511742826551199,0.0010913909645751119,-0.1840125471353531,0.0007624332793056965,0.0007035639719106257,-0.021105973049998283,0,0,-1000,1,1,-21,-3,5,-150,235184.0
19:12:09.306,AUTO,-35.3632619,149.1652364,20062,0.0023771575652062893,0.0018400235567241907,-0.20106175541877747,0.002373994793742895,0.0001275378162972629,-0.02192702889442444,0,0,-1000,3,1,-22,-2,4,-150,235184.0
19:12:09.508,AUTO,-35.3632619,149.1652365,20451,0.0027916275430470705,0.0017634363612160087,-0.2063816487789154,0.001965007744729519,0.00037777848774567246,-0.02252093143761158,0,0,-1000,2,1,-23,-2,3,-150,235184.0
19:12:09.709,AUTO,-35.3632619,149.1652365,20840,0.002720522927120328,0.002175599569454789,-0.2119165062904358,0.0014342544600367546,0.00152326631359756,-0.021464180201292038,0,0,-1000,2,2,-21,-1,3,-151,235184.0
19:12:09.911,AUTO,-35.3632619,149.1652365,20840,0.002720522927120328,0.002175599569454789,-0.2119165062904358,0.0014342544600367546,0.00152326631359756,-0.021464180201292038,0,0,-1000,2,2,-21,-1,3,-151,235184.0
19:12:10.115,AUTO,-35.363262,149.1652366,21229,0.0030961153097450733,0.002427540486678481,-0.2173704355955124,0.004022685810923576,0.004277808126062155,-0.024121331050992012,0,0,-1000,4,5,-24,-1,3,-151,235184.0
19:12:10.317,AUTO,-35.363262,149.1652366,21622,0.003535309573635459,0.002930626505985856,-0.22285233438014984,0.0022947960533201694,0.0012733930489048362,-0.02234850451350212,0,0,-1000,3,2,-22,-1,3,-151,235184.0
19:12:10.519,AUTO,-35.3632619,149.1652366,22011,0.003573950845748186,0.00345206493511796,-0.22840616106987,0.001588975777849555,0.0021247989498078823,-0.02157621644437313,0,0,-1000,2,3,-21,-1,3,-151,235184.0
19:12:10.722,AUTO,-35.3632619,149.1652366,22011,0.003573950845748186,0.00345206493511796,-0.22840616106987,0.001588975777849555,0.0021247989498078823,-0.02157621644437313,0,0,-1000,2,3,-21,-1,3,-151,235184.0
19:12:10.924,AUTO,-35.3632619,149.1652366,22011,0.003573950845748186,0.00345206493511796,-0.22840616106987,0.001588975777849555,0.0021247989498078823,-0.02157621644437313,0,0,-1000,2,3,-21,-1,3,-151,235184.0
19:12:11.126,AUTO,-35.3632619,149.1652366,22011,0.003573950845748186,0.00345206493511796,-0.22840616106987,0.001588975777849555,0.0021247989498078823,-0.02157621644437313,0,0,-1000,2,3,-21,-1,3,-151,235184.0
19:12:11.327,AUTO,-35.363262,149.1652367,23176,0.003686486976221204,0.003445930313318968,-0.24335840344429016,0.0007456765742972493,-0.0001751341624185443,-0.01928139291703701,0,0,-1000,1,0,-19,-1,3,-151,235184.0
19:12:11.542,AUTO,-35.363262,149.1652368,23566,0.0034209792502224445,0.003169277450069785,-0.2478991001844406,-0.0016600691014900804,-0.0022521154023706913,-0.016373760998249054,0,0,-1000,0,-1,-16,-1,3,-151,235184.0
19:12:11.889,AUTO,-35.363262,149.1652368,23955,0.003065460594370961,0.0028639505617320538,-0.252454549074173,-0.0006204737583175302,-0.0007935920148156583,-0.018377508968114853,0,0,-1000,0,0,-18,-1,3,-151,235184.0
19:12:12.182,AUTO,-35.363262,149.1652369,24734,0.0028920790646225214,0.003141131019219756,-0.2621055245399475,0.00040084164356812835,0.001031892141327262,-0.016827113926410675,0,0,-1000,1,1,-17,-1,3,-151,235184.0
19:12:12.425,AUTO,-35.363262,149.1652369,25122,-0.005024102982133627,0.003976171370595694,-0.26495158672332764,-0.06484779715538025,0.010760453529655933,0.0032074162736535072,0,0,-995,-63,11,2,-2,3,-150,235184.0
19:12:12.703,AUTO,-35.363262,149.1652369,25122,-0.005024102982133627,0.003976171370595694,-0.26495158672332764,-0.06484779715538025,0.010760453529655933,0.0032074162736535072,0,0,-995,-63,11,2,-2,3,-150,235184.0
19:12:12.905,AUTO,-35.363262,149.1652369,25122,-0.005024102982133627,0.003976171370595694,-0.26495158672332764,-0.06484779715538025,0.010760453529655933,0.0032074162736535072,0,0,-995,-63,11,2,-2,3,-150,235184.0
19:12:13.108,AUTO,-35.363262,149.1652369,25122,-0.005024102982133627,0.003976171370595694,-0.26495158672332764,-0.06484779715538025,0.010760453529655933,0.0032074162736535072,0,0,-995,-63,11,2,-2,3,-150,235184.0
19:12:13.311,AUTO,-35.3632621,149.1652369,26285,0.0047899894416332245,0.005030670668929815,-0.25244906544685364,0.0261349156498909,-0.0027445009909570217,0.027118761092424393,0,1,-1000,27,-1,27,-5,-1,-151,235184.0
19:12:13.513,AUTO,-35.3632622,149.1652368,26674,0.009227119386196136,0.003899230156093836,-0.24550247192382812,0.010644335299730301,-0.0058384970761835575,0.026012877002358437,0,1,-1000,11,-5,25,-5,0,-151,63070.0
19:12:13.715,AUTO,-35.3632623,149.1652368,27063,0.011106358841061592,0.0024474994279444218,-0.23868955671787262,0.0033624223433434963,-0.003549903864040971,0.02687135525047779,0,0,-999,4,-2,26,-4,2,-151,63070.0
19:12:13.916,AUTO,-35.3632623,149.1652369,27453,0.011290677823126316,0.0018371435580775142,-0.23212239146232605,-0.0009646810358390212,-0.0005703750066459179,0.024385806173086166,0,0,-999,0,0,24,-4,4,-151,63070.0
19:12:14.118,AUTO,-35.3632623,149.1652369,27453,0.011290677823126316,0.0018371435580775142,-0.23212239146232605,-0.0009646810358390212,-0.0005703750066459179,0.024385806173086166,0,0,-999,0,0,24,-4,4,-151,63070.0
19:12:14.320,AUTO,-35.3632624,149.1652369,27841,0.010157855227589607,0.0013724183663725853,-0.22592097520828247,-0.0035862226504832506,0.0007238212856464088,0.025079622864723206,0,0,-999,-2,1,24,-3,6,-151,63070.0
19:12:14.522,AUTO,-35.3632624,149.165237,28229,0.00854775682091713,0.0013387782964855433,-0.22001203894615173,-0.010826251469552517,-0.0004687268810812384,0.024099085479974747,0,0,-999,-9,0,23,-2,7,-150,63070.0
19:12:14.724,AUTO,-35.3632624,149.165237,28229,0.00854775682091713,0.0013387782964855433,-0.22001203894615173,-0.010826251469552517,-0.0004687268810812384,0.024099085479974747,0,0,-999,-9,0,23,-2,7,-150,63070.0
19:12:14.926,AUTO,-35.3632624,149.165237,28229,0.00854775682091713,0.0013387782964855433,-0.22001203894615173,-0.010826251469552517,-0.0004687268810812384,0.024099085479974747,0,0,-999,-9,0,23,-2,7,-150,63070.0
19:12:15.129,AUTO,-35.3632624,149.165237,28229,0.00854775682091713,0.0013387782964855433,-0.22001203894615173,-0.010826251469552517,-0.0004687268810812384,0.024099085479974747,0,0,-999,-9,0,23,-2,7,-150,63070.0
19:12:15.331,AUTO,-35.3632624,149.1652375,29392,0.0023486267309635878,0.0016773527022451162,-0.20459428429603577,-0.007436465471982956,0.001924098702147603,0.02152302674949169,0,-1,-1000,-6,2,21,0,8,-151,63070.0
19:12:15.532,AUTO,-35.3632624,149.1652377,29779,0.0009697242057882249,0.001632027211599052,-0.19968347251415253,-0.0036931924987584352,-0.0013409650418907404,0.02033309079706669,0,-1,-1001,-2,0,20,0,8,-151,63070.0
19:12:15.735,AUTO,-35.3632624,149.1652378,30167,3.268710497650318e-05,0.0018240247154608369,-0.194850891828537,-0.001831764355301857,0.0020974779035896063,0.01883014664053917,0,-1,-1000,-1,2,18,0,7,-151,63070.0
19:12:15.937,AUTO,-35.3632624,149.165238,30559,-0.0005007850704714656,0.0018645189702510834,-0.19021016359329224,-0.002939289202913642,0.0019718403927981853,0.020225917920470238,0,-1,-1000,-1,2,19,0,6,-151,63070.0
19:12:16.139,AUTO,-35.3632624,149.165238,30559,-0.0005007850704714656,0.0018645189702510834,-0.19021016359329224,-0.002939289202913642,0.0019718403927981853,0.020225917920470238,0,-1,-1000,-1,2,19,0,6,-151,63070.0
19:12:16.342,AUTO,-35.3632624,149.1652381,30948,-0.0006920556188561022,0.0016968767158687115,-0.18583929538726807,0.0012306495336815715,-0.0012401256244629622,0.016605524346232414,0,0,-1001,2,0,16,0,5,-151,63070.0
19:12:16.544,AUTO,-35.3632624,149.1652381,31337,-0.0007220712723210454,0.0014941865811124444,-0.18162862956523895,0.0009931761305779219,0.0008699684403836727,0.01697496883571148,0,-1,-999,1,1,16,0,4,-151,63070.0
19:12:16.748,AUTO,-35.3632624,149.1652381,31337,-0.0007220712723210454,0.0014941865811124444,-0.18162862956523895,0.0009931761305779219,0.0008699684403836727,0.01697496883571148,0,-1,-999,1,1,16,0,4,-151,63070.0
19:12:16.950,AUTO,-35.3632624,149.1652381,31337,-0.0007220712723210454,0.0014941865811124444,-0.18162862956523895,0.0009931761305779219,0.0008699684403836727,0.01697496883571148,0,-1,-999,1,1,16,0,4,-151,63070.0
19:12:17.157,AUTO,-35.3632624,149.1652381,31337,-0.0007220712723210454,0.0014941865811124444,-0.18162862956523895,0.0009931761305779219,0.0008699684403836727,0.01697496883571148,0,-1,-999,1,1,16,0,4,-151,63070.0
19:12:17.409,AUTO,-35.3632623,149.1652382,32504,0.00011054943024646491,0.00108738720882684,-0.16986273229122162,-0.0034303602296859026,-0.0012094618286937475,0.01553056389093399,0,0,-999,-2,0,15,0,2,-151,63070.0
19:12:17.673,AUTO,-35.3632623,149.1652382,32895,0.0002927929745055735,0.0009338565869256854,-0.1660996526479721,0.003967802505940199,0.00026259844889864326,0.017005153000354767,0,0,-1000,4,1,16,0,1,-151,63070.0
19:12:17.882,AUTO,-35.3632623,149.1652382,33283,0.0006466200575232506,0.0008858151268213987,-0.1625000536441803,0.003840528428554535,9.54478164203465e-05,0.01655246503651142,0,0,-1000,4,1,16,0,0,-151,63070.0
19:12:18.099,AUTO,-35.3632623,149.1652382,33672,0.0008565917378291488,0.000869852548930794,-0.15912607312202454,-0.0007134306943044066,0.001022846670821309,0.014368918724358082,0,0,-1000,0,2,14,0,0,-151,63070.0
19:12:18.395,AUTO,-35.3632623,149.1652382,34062,0.001237203017808497,0.0011632221285253763,-0.1557120382785797,0.00552464509382844,0.002182033844292164,0.015227872878313065,0,0,-1001,6,3,14,0,0,-151,63070.0
19:12:18.602,AUTO,-35.3632623,149.1652382,34450,0.0014460058882832527,0.0012700174702331424,-0.15258628129959106,0.00015674089081585407,0.00012098875595256686,0.012485785409808159,0,0,-1000,1,0,12,0,0,-151,63070.0
19:12:18.805,AUTO,-35.3632623,149.1652382,34450,0.0014460058882832527,0.0012700174702331424,-0.15258628129959106,0.00015674089081585407,0.00012098875595256686,0.012485785409808159,0,0,-1000,1,0,12,0,0,-151,63070.0
19:12:19.008,AUTO,-35.3632623,149.1652382,34450,0.0014460058882832527,0.0012700174702331424,-0.15258628129959106,0.00015674089081585407,0.00012098875595256686,0.012485785409808159,0,0,-1000,1,0,12,0,0,-151,63070.0
19:12:19.210,AUTO,-35.3632622,149.1652381,35613,0.0024474330712109804,0.0012093029217794538,-0.14389222860336304,-0.0013634628849104047,-0.0010868922108784318,0.012346704490482807,0,0,-999,0,0,12,0,0,-151,122964.0
19:12:19.412,AUTO,-35.3632622,149.1652381,35613,0.0024474330712109804,0.0012093029217794538,-0.14389222860336304,-0.0013634628849104047,-0.0010868922108784318,0.012346704490482807,0,0,-999,0,0,12,0,0,-151,122964.0
19:12:19.613,AUTO,-35.3632622,149.165238,36001,0.0026617622934281826,0.0011060176184400916,-0.14106251299381256,-0.0014081601984798908,-4.036189056932926e-05,0.009872310794889927,0,0,-1000,0,0,9,0,0,-151,122964.0
19:12:19.815,AUTO,-35.3632622,149.165238,36389,0.002768033416941762,0.0011174092069268227,-0.13841462135314941,0.002534093800932169,0.0009806528687477112,0.012457781471312046,0,0,-1000,3,1,12,0,0,-151,122964.0
19:12:20.017,AUTO,-35.3632622,149.1652379,36777,0.0028097943868488073,0.0010800190502777696,-0.13567045331001282,-0.00013786123599857092,0.0025827153585851192,0.012282461859285831,0,0,-999,0,3,12,0,0,-151,122964.0
19:12:20.220,AUTO,-35.3632622,149.1652379,37166,0.0025942204520106316,0.0013585524866357446,-0.13312436640262604,-0.00216445280238986,0.0026991344057023525,0.010016500018537045,0,0,-1000,-1,3,9,0,0,-151,122964.0
19:12:20.421,AUTO,-35.3632622,149.1652379,37166,0.0025942204520106316,0.0013585524866357446,-0.13312436640262604,-0.00216445280238986,0.0026991344057023525,0.010016500018537045,0,0,-1000,-1,3,9,0,0,-151,122964.0
19:12:20.625,AUTO,-35.3632622,149.1652379,37558,0.0023049272131174803,0.00141547666862607,-0.13082565367221832,-0.0021769944578409195,-0.0006102110492065549,0.009804204106330872,0,0,-1000,0,0,9,0,0,-151,122964.0
19:12:20.827,AUTO,-35.3632622,149.1652379,37558,0.0023049272131174803,0.00141547666862607,-0.13082565367221832,-0.0021769944578409195,-0.0006102110492065549,0.009804204106330872,0,0,-1000,0,0,9,0,0,-151,122964.0
19:12:21.029,AUTO,-35.3632622,149.1652379,37558,0.0023049272131174803,0.00141547666862607,-0.13082565367221832,-0.0021769944578409195,-0.0006102110492065549,0.009804204106330872,0,0,-1000,0,0,9,0,0,-151,122964.0
19:12:21.231,AUTO,-35.3632621,149.1652378,38720,0.0024990825913846493,0.001641604001633823,-0.12396547943353653,-0.0013800414744764566,0.0012192527065053582,0.009608034044504166,0,0,-1000,0,2,9,0,0,-151,122964.0
19:12:21.433,AUTO,-35.3632621,149.1652377,39109,0.002458791481330991,0.0016761183505877852,-0.12226618826389313,0.0021723711397498846,-4.3120235204696655e-06,0.006050193216651678,0,0,-1001,3,0,5,0,0,-151,122964.0
19:12:21.635,AUTO,-35.3632621,149.1652377,39109,0.002458791481330991,0.0016761183505877852,-0.12226618826389313,0.0021723711397498846,-4.3120235204696655e-06,0.006050193216651678,0,0,-1001,3,0,5,0,0,-151,122964.0
19:12:21.837,AUTO,-35.3632621,149.1652377,39497,0.0026843464002013206,0.0019001738401129842,-0.12034965306520462,-0.00033593003172427416,0.0010748599888756871,0.007888833992183208,0,0,-999,0,2,8,0,0,-151,122964.0
19:12:22.039,AUTO,-35.3632621,149.1652377,39885,0.002747850026935339,0.0019129066495224833,-0.11828780174255371,-0.0016779727302491665,0.00036698475014418364,0.009133984334766865,0,0,-999,0,1,9,0,0,-151,122964.0
19:12:22.242,AUTO,-35.3632621,149.1652377,40274,0.002698505762964487,0.0016061796341091394,-0.11653635650873184,0.00404713861644268,-0.00030289037385955453,0.008555499836802483,0,0,-1001,5,0,8,-1,1,-151,122964.0
19:12:22.444,AUTO,-35.3632621,149.1652376,40662,0.002405527513474226,0.001359749585390091,-0.11486006528139114,-0.005773525685071945,-0.0019704955630004406,0.006388342007994652,0,0,-999,-4,0,6,-1,1,-151,122964.0
19:12:22.645,AUTO,-35.3632621,149.1652376,40662,0.002405527513474226,0.001359749585390091,-0.11486006528139114,-0.005773525685071945,-0.0019704955630004406,0.006388342007994652,0,0,-999,-4,0,6,-1,1,-151,122964.0
19:12:22.850,AUTO,-35.3632621,149.1652376,40662,0.002405527513474226,0.001359749585390091,-0.11486006528139114,-0.005773525685071945,-0.0019704955630004406,0.006388342007994652,0,0,-999,-4,0,6,-1,1,-151,122964.0
19:12:23.052,AUTO,-35.3632621,149.1652376,40662,0.002405527513474226,0.001359749585390091,-0.11486006528139114,-0.005773525685071945,-0.0019704955630004406,0.006388342007994652,0,0,-999,-4,0,6,-1,1,-151,122964.0
19:12:23.320,AUTO,-35.3632621,149.1652376,41827,0.002021636115387082,0.001686813193373382,-0.10965599119663239,-0.0015575406141579151,0.00017875619232654572,0.00478845089673996,0,0,-1000,0,1,4,-1,1,-151,122964.0
19:12:23.667,AUTO,-35.363262,149.1652376,42220,0.0019259756663814187,0.001517907134257257,-0.10792510956525803,0.0021632183343172073,-0.0007286624750122428,0.0071643334813416,0,0,-1000,3,0,7,-1,1,-151,122964.0
19:12:23.885,AUTO,-35.363262,149.1652376,42608,0.0018190103583037853,0.0014214677503332496,-0.10632236301898956,-0.0015292279422283173,9.247800335288048e-05,0.0049054864794015884,0,0,-1000,0,1,4,-1,1,-151,122964.0
19:12:24.110,AUTO,-35.363262,149.1652376,42997,0.0020108413882553577,0.0015925499610602856,-0.10464999079704285,0.0008895420469343662,0.0006964064668864012,0.007024307269603014,0,0,-1000,1,1,7,-1,1,-151,122964.0
19:12:24.312,AUTO,-35.363262,149.1652376,43385,0.0019927897956222296,0.0015262269880622625,-0.10305718332529068,0.003171001560986042,-0.000927580171264708,0.007283511571586132,0,0,-1001,4,0,7,-1,1,-151,122964.0
19:12:24.515,AUTO,-35.363262,149.1652376,43774,0.0021569468080997467,0.0013868407113477588,-0.1014450341463089,0.0011705636279657483,-0.00019921065540984273,0.007112324703484774,0,0,-1000,2,0,7,-1,1,-151,122964.0
19:12:24.719,AUTO,-35.363262,149.1652376,43774,0.0021569468080997467,0.0013868407113477588,-0.1014450341463089,0.0011705636279657483,-0.00019921065540984273,0.007112324703484774,0,0,-1000,2,0,7,-1,1,-151,122964.0
19:12:24.923,AUTO,-35.363262,149.1652376,43774,0.0021569468080997467,0.0013868407113477588,-0.1014450341463089,0.0011705636279657483,-0.00019921065540984273,0.007112324703484774,0,0,-1000,2,0,7,-1,1,-151,122964.0
19:12:25.125,AUTO,-35.363262,149.1652376,43774,0.0021569468080997467,0.0013868407113477588,-0.1014450341463089,0.0011705636279657483,-0.00019921065540984273,0.007112324703484774,0,0,-1000,2,0,7,-1,1,-151,69466.0
19:12:25.327,AUTO,-35.363262,149.1652375,44939,0.0023989530745893717,0.0013399015879258513,-0.09712040424346924,-0.0004488766426220536,-0.000323691638186574,0.003721721237525344,0,0,-1000,0,0,3,-1,1,-151,69466.0
19:12:25.529,AUTO,-35.363262,149.1652375,45327,0.0022068761754781008,0.0011109312763437629,-0.09575434774160385,-0.001980565022677183,-0.0004828803357668221,0.0067863259464502335,0,0,-1000,0,0,6,-1,1,-151,69466.0
19:12:25.730,AUTO,-35.363262,149.1652375,45716,0.0021029876079410315,0.0010095661273226142,-0.09421800822019577,0.0025613305624574423,-0.0007381419418379664,0.007324038539081812,0,0,-1001,3,0,7,-1,1,-151,69466.0
19:12:25.932,AUTO,-35.363262,149.1652375,46104,0.002076701959595084,0.0011280160397291183,-0.09299105405807495,-0.0010025139199569821,0.0017367737600579858,0.005493824370205402,0,0,-1000,0,2,5,-1,1,-151,69466.0
19:12:26.133,AUTO,-35.363262,149.1652375,46104,0.002076701959595084,0.0011280160397291183,-0.09299105405807495,-0.0010025139199569821,0.0017367737600579858,0.005493824370205402,0,0,-1000,0,2,5,-1,1,-151,69466.0
19:12:26.335,AUTO,-35.363262,149.1652375,46492,0.002070391084998846,0.001168475835584104,-0.09156801551580429,0.0017561764689162374,-7.715856190770864e-05,0.009434264153242111,0,0,-1000,2,0,9,-1,1,-151,69466.0
19:12:26.538,AUTO,-35.363262,149.1652375,46879,-0.004789209458976984,0.00732455775141716,-0.0765816941857338,-0.0733964815735817,0.07331744581460953,0.1554332971572876,0,0,-973,-72,74,155,-1,0,-148,69466.0
19:12:26.740,AUTO,-35.363262,149.1652375,46879,-0.004789209458976984,0.00732455775141716,-0.0765816941857338,-0.0733964815735817,0.07331744581460953,0.1554332971572876,0,0,-973,-72,74,155,-1,0,-148,69466.0
19:12:26.942,AUTO,-35.363262,149.1652375,46879,-0.004789209458976984,0.00732455775141716,-0.0765816941857338,-0.0733964815735817,0.07331744581460953,0.1554332971572876,0,0,-973,-72,74,155,-1,0,-148,69466.0
19:12:27.144,AUTO,-35.363262,149.1652375,46879,-0.004789209458976984,0.00732455775141716,-0.0765816941857338,-0.0733964815735817,0.07331744581460953,0.1554332971572876,0,0,-973,-72,74,155,-1,0,-148,69466.0
19:12:27.346,AUTO,-35.3632628,149.1652365,47928,-0.05038587749004364,0.04754078388214111,0.22444938123226166,0.07443207502365112,-0.20369847118854523,0.2892966866493225,4,8,-942,75,-202,289,-29,-30,-118,69466.0
19:12:27.548,AUTO,-35.3632634,149.1652355,48215,-0.02240295521914959,-0.0026646603364497423,0.2770344913005829,0.12288224697113037,-0.18638606369495392,0.1441904902458191,3,11,-947,124,-185,144,-31,-37,-105,69466.0
19:12:27.750,AUTO,-35.3632641,149.1652344,48469,0.00321100652217865,-0.03694566339254379,0.30000555515289307,0.09516937285661697,-0.09636939316987991,0.058604538440704346,3,10,-954,96,-95,58,-25,-35,-93,69466.0
19:12:27.952,AUTO,-35.3632645,149.1652335,48700,0.021976526826620102,-0.05248022824525833,0.30581969022750854,0.0537530817091465,-0.03396116942167282,0.007449842523783445,2,7,-960,54,-32,7,-15,-27,-82,69466.0
19:12:28.199,AUTO,-35.3632647,149.1652329,48899,0.034700848162174225,-0.055361438542604446,0.30290675163269043,0.06319218873977661,0.004929208196699619,-0.018734289333224297,0,6,-966,64,6,-18,-5,-15,-72,69466.0
19:12:28.427,AUTO,-35.3632647,149.1652329,48899,0.034700848162174225,-0.055361438542604446,0.30290675163269043,0.06319218873977661,0.004929208196699619,-0.018734289333224297,0,6,-966,64,6,-18,-5,-15,-72,69466.0
19:12:28.647,AUTO,-35.3632648,149.1652326,49075,0.040119197219610214,-0.050093457102775574,0.29606619477272034,-0.004133290611207485,0.031467635184526443,-0.030113445594906807,-1,0,-970,-3,32,-30,3,-3,-64,69466.0
19:12:28.861,AUTO,-35.3632648,149.1652326,49075,0.040119197219610214,-0.050093457102775574,0.29606619477272034,-0.004133290611207485,0.031467635184526443,-0.030113445594906807,-1,0,-970,-3,32,-30,3,-3,-64,69466.0
19:12:29.115,AUTO,-35.3632648,149.1652326,49075,0.040119197219610214,-0.050093457102775574,0.29606619477272034,-0.004133290611207485,0.031467635184526443,-0.030113445594906807,-1,0,-970,-3,32,-30,3,-3,-64,69466.0
19:12:29.391,AUTO,-35.363264,149.1652332,49491,0.031222263351082802,-0.018860623240470886,0.26866021752357483,-0.15577332675457,0.04585181176662445,-0.03436373546719551,-3,-16,-978,-155,46,-34,19,24,-45,69466.0
19:12:29.594,AUTO,-35.3632635,149.1652339,49598,0.018914250656962395,-0.008349842391908169,0.25919800996780396,-0.41656771302223206,0.043430145829916,-0.03423554450273514,-3,-16,-968,-414,44,-33,20,29,-38,69466.0
19:12:29.796,AUTO,-35.363263,149.1652347,49688,0.017272379249334335,0.0005939688999205828,0.25007128715515137,0.18988674879074097,0.02661050483584404,-0.02649226039648056,-3,17,-969,191,27,-26,20,32,-31,69466.0
19:12:30.003,AUTO,-35.3632625,149.1652355,49764,0.017494790256023407,0.007837556302547455,0.2414286881685257,0.5943744778633118,0.025308946147561073,-0.025341296568512917,-2,24,-972,596,26,-25,19,32,-26,69466.0
19:12:30.205,AUTO,-35.363262,149.1652363,49825,0.01460685022175312,0.013409718871116638,0.2344503402709961,0.35425353050231934,0.016993975266814232,-0.020390238612890244,-2,-2,-991,354,17,-19,16,29,-22,25493.0
19:12:30.407,AUTO,-35.363262,149.1652363,49825,0.01460685022175312,0.013409718871116638,0.2344503402709961,0.35425353050231934,0.016993975266814232,-0.020390238612890244,-2,-2,-991,354,17,-19,16,29,-22,25493.0
19:12:30.609,AUTO,-35.3632617,149.165237,49876,0.00012734094343613833,0.015842249616980553,0.22812214493751526,-0.44003647565841675,0.00846048817038536,-0.025344207882881165,0,-39,-956,-440,9,-24,13,27,-17,25493.0
19:12:30.811,AUTO,-35.3632617,149.165237,49876,0.00012734094343613833,0.015842249616980553,0.22812214493751526,-0.44003647565841675,0.00846048817038536,-0.025344207882881165,0,-39,-956,-440,9,-24,13,27,-17,25493.0
19:12:31.013,AUTO,-35.3632617,149.165237,49876,0.00012734094343613833,0.015842249616980553,0.22812214493751526,-0.44003647565841675,0.00846048817038536,-0.025344207882881165,0,-39,-956,-440,9,-24,13,27,-17,25493.0
19:12:31.215,AUTO,-35.363261,149.1652387,49920,-0.024452414363622665,0.038762543350458145,0.20087921619415283,0.6773459315299988,0.08772173523902893,0.0070313275791704655,0,46,-948,679,88,7,2,15,10,25493.0
19:12:31.417,AUTO,-35.363261,149.1652387,49920,-0.024452414363622665,0.038762543350458145,0.20087921619415283,0.6773459315299988,0.08772173523902893,0.0070313275791704655,0,46,-948,679,88,7,2,15,10,25493.0
19:12:31.618,AUTO,-35.363261,149.1652388,49881,-0.015053418464958668,0.02961627021431923,0.19827765226364136,0.9633117318153381,-0.11272849142551422,-0.013792786747217178,0,36,-996,964,-111,-13,-4,4,16,25493.0
19:12:31.820,AUTO,-35.363261,149.1652387,49838,0.00974541250616312,-0.00036802233080379665,0.19627991318702698,0.8792099952697754,-0.10798406600952148,-0.005280540324747562,1,22,-1021,880,-107,-4,-6,0,15,25493.0
19:12:32.022,AUTO,-35.3632611,149.1652387,49799,0.01677750237286091,-0.020196998491883278,0.19310954213142395,0.28403541445732117,-0.06367414444684982,-0.009027261286973953,0,-6,-1004,284,-62,-8,-4,0,13,25493.0
19:12:32.224,AUTO,-35.3632611,149.1652386,49769,0.018037395551800728,-0.03132288530468941,0.18932288885116577,-0.32237914204597473,-0.03888121247291565,-0.015071303583681583,-1,-30,-1004,-322,-37,-14,1,3,10,25493.0
19:12:32.426,AUTO,-35.363261,149.1652385,49744,0.02320999465882778,-0.0387507900595665,0.18515846133232117,-0.6975601315498352,-0.02720739133656025,-0.016146520152688026,-2,-32,-1021,-696,-26,-15,8,9,7,25493.0
19:12:32.628,AUTO,-35.363261,149.1652385,49744,0.02320999465882778,-0.0387507900595665,0.18515846133232117,-0.6975601315498352,-0.02720739133656025,-0.016146520152688026,-2,-32,-1021,-696,-26,-15,8,9,7,25493.0
19:12:32.830,AUTO,-35.363261,149.1652385,49744,0.02320999465882778,-0.0387507900595665,0.18515846133232117,-0.6975601315498352,-0.02720739133656025,-0.016146520152688026,-2,-32,-1021,-696,-26,-15,8,9,7,25493.0
19:12:33.032,AUTO,-35.363261,149.1652385,49744,0.02320999465882778,-0.0387507900595665,0.18515846133232117,-0.6975601315498352,-0.02720739133656025,-0.016146520152688026,-2,-32,-1021,-696,-26,-15,8,9,7,25493.0
19:12:33.321,AUTO,-35.3632597,149.1652392,49690,0.06426092982292175,-0.06769929081201553,0.17709705233573914,0.6210377216339111,-0.037216026335954666,0.12473244220018387,-6,28,-1012,623,-36,125,36,38,6,25493.0
19:12:33.640,AUTO,-35.3632587,149.16524,49674,0.07170059531927109,-0.08908788859844208,0.28165990114212036,0.6276014447212219,-0.024797646328806877,0.682121753692627,-8,1,-999,628,-23,682,51,51,6,25493.0
19:12:33.904,AUTO,-35.3632573,149.1652412,49654,0.05433566868305206,-0.11246038228273392,0.47851669788360596,-0.08965083956718445,-0.03894282877445221,0.8631768226623535,-13,-36,-999,-89,-37,863,68,65,8,25493.0
19:12:34.172,AUTO,-35.3632556,149.1652428,49630,0.026286110281944275,-0.13070446252822876,0.6896975636482239,-0.6553658246994019,-0.06032867357134819,0.8466613292694092,-19,-43,-991,-654,-59,846,85,83,10,25493.0
19:12:34.429,AUTO,-35.363251,149.1652475,49565,0.0032640635035932064,-0.15276865661144257,0.9641422629356384,0.5500848293304443,-0.04772567003965378,0.1521141529083252,-35,26,-967,553,-46,152,120,119,16,25493.0
19:12:34.632,AUTO,-35.363251,149.1652475,49565,0.0032640635035932064,-0.15276865661144257,0.9641422629356384,0.5500848293304443,-0.04772567003965378,0.1521141529083252,-35,26,-967,553,-46,152,120,119,16,25493.0
19:12:34.835,AUTO,-35.363251,149.1652475,49565,0.0032640635035932064,-0.15276865661144257,0.9641422629356384,0.5500848293304443,-0.04772567003965378,0.1521141529083252,-35,26,-967,553,-46,152,120,119,16,25493.0
19:12:35.038,AUTO,-35.363251,149.1652475,49565,0.0032640635035932064,-0.15276865661144257,0.9641422629356384,0.5500848293304443,-0.04772567003965378,0.1521141529083252,-35,26,-967,553,-46,152,120,119,16,25493.0
19:12:35.240,AUTO,-35.3632412,149.1652581,49425,0.019320378080010414,-0.1192287802696228,0.9311416745185852,-0.22155487537384033,0.10491065680980682,-0.09359551221132278,-53,-51,-993,-221,105,-92,169,166,20,27334.0
19:12:35.442,AUTO,-35.3632374,149.1652623,49375,0.021382806822657585,-0.08960378170013428,0.9064932465553284,-0.6732666492462158,0.10136807709932327,-0.06676984578371048,-52,-50,-996,-671,102,-66,176,172,20,27334.0
19:12:35.644,AUTO,-35.3632374,149.1652623,49375,0.021382806822657585,-0.08960378170013428,0.9064932465553284,-0.6732666492462158,0.10136807709932327,-0.06676984578371048,-52,-50,-996,-671,102,-66,176,172,20,27334.0
19:12:35.846,AUTO,-35.3632334,149.1652667,49323,0.028560711070895195,-0.06687505543231964,0.8889356255531311,-0.4489156901836395,0.08238568902015686,-0.052319128066301346,-56,-28,-1000,-446,83,-51,178,176,20,27334.0
19:12:36.048,AUTO,-35.3632293,149.1652711,49272,0.033298030495643616,-0.05282216891646385,0.8799721002578735,0.18726274371147156,0.044622503221035004,-0.0386536568403244,-52,8,-980,190,45,-38,175,176,21,27334.0
19:12:36.250,AUTO,-35.3632253,149.1652756,49217,0.048453349620103836,-0.039410583674907684,0.875920295715332,0.7843350172042847,0.040454719215631485,-0.03187433257699013,-51,14,-1010,787,41,-31,172,174,21,27334.0
