time_stamp,MODE,RTL_ALT,LAND_SPEED_HIGH,WPNAV_SPEED_DN,roll,pitch,yaw,rollspeed,pitchspeed,yawspeed,lat,lon,relative_alt,vx,vy,vz,xacc,yacc,zacc,xgyro,ygyro,zgyro
13:37:26,GUIDED,1500.0,20.0,90.0,-0.07968381941318511,-0.011708863452076912,-0.04210209428565577,-0.058750688657164575,0.07281041909009218,-0.07330492921173573,-35.363256660000005,149.16524854,6485.2,46.8,-12.0,-145.8,-9.2,-5.6,-1003.0,-58.2,73.2,-74.0
13:37:35,GUIDED,1500.0,20.0,90.0,-0.15754989981651307,-0.041189195774495604,-0.284333261847496,-0.05323115400969982,0.12398726493120193,-0.15007131844758986,-35.36326894,149.16524723999999,16106.4,114.6,-47.0,-142.4,-23.2,-14.6,-1013.4,-52.6,124.0,-150.4
13:37:38,GUIDED,1500.0,20.0,90.0,-0.07124538831412792,0.11957128047943115,-0.41904835104942323,0.10048877447843552,0.08844894617795944,-0.01484773620031774,-35.3632624,149.16521926000001,18540.8,-65.6,-193.4,-139.0,-30.6,33.8,-1013.4,100.6,88.4,-15.4
13:37:41,GUIDED,1500.0,20.0,90.0,0.1840393215417862,-0.05385831668972969,-0.3359940111637115,0.052813975140452385,-0.16539174616336821,0.06960666328668594,-35.36330782,149.16520824,22344.0,-164.0,176.6,-139.8,53.0,11.4,-1021.0,53.0,-164.0,68.4
13:37:44,GUIDED,1500.0,20.0,90.0,-0.09696483612060547,-0.23160302639007568,-0.32026970386505127,-0.24660776555538177,0.1850137859582901,-0.22874195873737335,-35.3632876,149.1652653,24773.0,399.0,140.0,-82.0,-26.0,-99.0,-1085.0,-246.0,185.0,-229.0
13:37:47,GUIDED,1500.0,20.0,90.0,-0.14987361058592796,0.07818194548599422,-0.43617381155490875,-0.00782308861380443,0.19190167263150215,0.001979354245122522,-35.363241825,149.16526245,26445.5,297.25,-134.25,-163.0,-68.75,-48.25,-1070.0,-7.0,192.25,1.5
13:37:50,GUIDED,1500.0,20.0,90.0,-0.003269913528735439,0.15833880752325058,-0.3568135102589925,0.04746318608522415,-0.2734086016813914,0.15417801837126413,-35.363249266666664,149.16522203333332,29975.666666666668,-333.0,-56.0,-94.0,34.333333333333336,65.33333333333333,-1042.0,48.0,-272.3333333333333,153.33333333333334
13:37:53,GUIDED,1500.0,20.0,90.0,0.16948112845420837,-0.2041340470314026,-0.1609100103378296,0.0380562295516332,-0.15331213176250458,0.07490901897350948,-35.36329896666667,149.16523410000002,32879.0,-103.66666666666667,172.33333333333334,-157.33333333333334,48.0,-8.666666666666666,-1005.3333333333334,38.333333333333336,-152.33333333333334,74.33333333333333
13:38:00,GUIDED,1500.0,20.0,90.0,-0.12395360185341402,0.1518867720257152,-0.4475863359191201,0.046039562884040854,0.1181970817798918,0.013538594648707658,-35.36323876363636,149.16525403636362,37803.09090909091,60.27272727272727,-160.54545454545453,-142.8181818181818,-40.54545454545455,2.727272727272727,-1020.2727272727273,46.36363636363637,118.45454545454545,13.636363636363637
13:38:07,LAND,1500.0,230.0,90.0,-7.882900536060333e-05,-0.004137157346121967,-0.29573462903499603,0.32377414405345917,0.002021455788053572,0.011640233919024467,-35.3632636,149.1652376,36901.0,9.5,3.5,147.5,-4.0,67.0,-985.5,342.5,2.5,12.5
13:38:27,LAND,1500.0,340.0,90.0,-0.003028707316843793,0.0019082051585428417,-0.3974074721336365,-0.30533970706164837,0.000453234271844849,0.0012574804131872952,-35.3632618,149.16523855,8267.5,-3.5,-7.0,-1.0,0.0,3.0,-994.5,-303.0,0.5,1.5
13:38:29,LAND,1500.0,340.0,90.0,0.011844120919704437,0.00275943404994905,-0.39840778708457947,0.2986428439617157,-0.0017902697436511517,-0.00034453789703547955,-35.3632619,149.1652383,8283.0,-3.0,-7.0,-1.0,-1.0,-5.0,-997.0,288.0,-1.0,0.0
13:38:36,LAND,1500.0,303.3333333333333,90.0,0.028695613145828247,0.0036737079732120036,-0.40489165782928466,-0.7909002482891083,-0.0009495569858700037,-0.0023847907315939663,-35.3632632,149.16523358,7643.8,8.8,27.6,39.6,-1.6,-33.4,-1007.0,-796.2,-0.8,-1.0
13:38:43,LAND,1500.0,150.0,90.0,0.0027726720232749357,0.003331139963120222,-0.408602237701416,-0.5575167939066887,-0.002524653682485223,0.002134411851875484,-35.36326274,149.16523582,5405.4,6.8,18.6,33.0,0.4,-8.2,-996.6,-552.4,-2.0,3.4
13:38:45,LAND,1500.0,260.0,90.0,0.005325597076859724,0.005471661154712949,-0.40925088950565885,-0.026959717273712158,0.0008667439979035407,0.0036225635392059174,-35.363262375,149.165236725,4610.75,4.25,9.875,31.75,0.375,0.25,-1001.5,-85.875,0.75,3.875
13:38:47,LAND,1500.0,260.0,90.0,0.00010613282211124897,0.0036185692297294736,-0.41028110682964325,-0.24547031335532665,-0.0014448435103986412,0.003213344549294561,-35.3632621,149.16523725000002,4034.5,0.0,3.5,32.5,-0.5,14.5,-1005.0,-236.5,-1.0,4.0
13:38:52,LAND,1500.0,390.0,90.0,-0.003827915294095874,0.008416357450187206,-0.4118230938911438,-0.57563716173172,0.002896358259022236,0.005995803978294134,-35.363262750000004,149.16523519999998,2118.0,10.0,23.5,33.5,2.0,-16.0,-997.0,-701.5,1.0,3.5
13:38:54,LAND,1500.0,390.0,90.0,-0.00030232235855822055,0.004966374353638717,-0.4126616971833365,-0.5044322716338294,-0.0024191204325429033,-0.0021963479396487984,-35.363262157142856,149.16523701428574,1581.2857142857142,2.142857142857143,8.571428571428571,32.0,1.1428571428571428,-34.57142857142857,-995.7142857142857,-509.57142857142856,-1.7142857142857142,-0.5714285714285714
13:39:03,LAND,1500.0,60.0,90.0,0.00815759478136897,0.007430836372077465,-0.4116011321544647,0.0007268853485584259,0.001658728765323758,0.0007141035515815019,-35.36326206,149.1652383,143.4,-4.2,6.2,-4.8,-1.0,0.2,-1000.0,1.8,2.0,2.0
