time_stamp,MODE,lat,lon,relative_alt,roll,pitch,yaw,rollspeed,pitchspeed,yawspeed,xacc,yacc,zacc,xgyro,ygyro,zgyro,vx,vy,vz,RTL_ALT
18:45:05.242,STABILIZE,-35.3632621,149.1652374,0,-3.114612991339527e-05,0.001597023569047451,0.028337664902210236,0.0002571011136751622,0.0003196769393980503,0.0024040425196290016,0,1,-1000,0,0,1,-1,1,0,1500.0
18:45:05.445,STABILIZE,-35.3632621,149.1652374,0,-3.114612991339527e-05,0.001597023569047451,0.028337664902210236,0.0002571011136751622,0.0003196769393980503,0.0024040425196290016,0,1,-1000,0,0,1,-1,1,0,1500.0
18:45:05.647,STABILIZE,-35.3632621,149.1652374,0,-3.114612991339527e-05,0.001597023569047451,0.028337664902210236,0.0002571011136751622,0.0003196769393980503,0.0024040425196290016,0,1,-1000,0,0,1,-1,1,0,1500.0
18:45:05.850,STABILIZE,-35.3632621,149.1652374,0,-3.114612991339527e-05,0.001597023569047451,0.028337664902210236,0.0002571011136751622,0.0003196769393980503,0.0024040425196290016,0,1,-1000,0,0,1,-1,1,0,1500.0
18:45:06.051,STABILIZE,-35.3632621,149.1652374,0,-3.114612991339527e-05,0.001597023569047451,0.028337664902210236,0.0002571011136751622,0.0003196769393980503,0.0024040425196290016,0,1,-1000,0,0,1,-1,1,0,1500.0
18:45:06.253,STABILIZE,-35.3632621,149.1652374,0,-3.114612991339527e-05,0.001597023569047451,0.028337664902210236,0.0002571011136751622,0.0003196769393980503,0.0024040425196290016,0,1,-1000,0,0,1,-1,1,0,1500.0
18:45:06.454,STABILIZE,-35.3632621,149.1652374,0,-3.114612991339527e-05,0.001597023569047451,0.028337664902210236,0.0002571011136751622,0.0003196769393980503,0.0024040425196290016,0,1,-1000,0,0,1,-1,1,0,1500.0
18:45:06.655,STABILIZE,-35.3632621,149.1652375,0,-0.0001831582485465333,0.0015868074260652065,0.02761790342628956,0.00025306528550572693,0.0002608978538773954,0.0024157194420695305,0,1,-1000,0,0,1,-2,1,0,1500.0
18:45:06.857,STABILIZE,-35.3632621,149.1652375,0,-0.0001831582485465333,0.0015868074260652065,0.02761790342628956,0.00025306528550572693,0.0002608978538773954,0.0024157194420695305,0,1,-1000,0,0,1,-2,1,0,1500.0
18:45:07.059,STABILIZE,-35.3632622,149.1652375,0,-0.0001831582485465333,0.0015868074260652065,0.02761790342628956,0.00025306528550572693,0.0002608978538773954,0.0024157194420695305,0,1,-1000,0,0,1,-2,0,-3,1500.0
18:45:07.260,STABILIZE,-35.3632622,149.1652375,0,-0.0001831582485465333,0.0015868074260652065,0.02761790342628956,0.00025306528550572693,0.0002608978538773954,0.0024157194420695305,0,1,-1000,0,0,1,-2,0,-3,1500.0
18:45:07.462,STABILIZE,-35.3632622,149.1652375,0,-0.0001831582485465333,0.0015868074260652065,0.02761790342628956,0.00025306528550572693,0.0002608978538773954,0.0024157194420695305,0,1,-1000,0,0,1,-2,0,-3,1500.0
18:45:07.664,STABILIZE,-35.3632622,149.1652375,0,-0.0001831582485465333,0.0015868074260652065,0.02761790342628956,0.00025306528550572693,0.0002608978538773954,0.0024157194420695305,0,1,-1000,0,0,1,-2,0,-3,1500.0
18:45:07.866,STABILIZE,-35.3632622,149.1652375,0,-0.0001831582485465333,0.0015868074260652065,0.02761790342628956,0.00025306528550572693,0.0002608978538773954,0.0024157194420695305,0,1,-1000,0,0,1,-2,0,-3,1500.0
18:45:08.068,STABILIZE,-35.3632622,149.1652375,0,-0.0001831582485465333,0.0015868074260652065,0.02761790342628956,0.00025306528550572693,0.0002608978538773954,0.0024157194420695305,0,1,-1000,0,0,1,-2,0,-3,1500.0
18:45:08.269,STABILIZE,-35.3632622,149.1652375,0,-0.0001831582485465333,0.0015868074260652065,0.02761790342628956,0.00025306528550572693,0.0002608978538773954,0.0024157194420695305,0,1,-1000,0,0,1,-2,0,-3,1500.0
18:45:08.474,STABILIZE,-35.3632622,149.1652375,0,-0.0001831582485465333,0.0015868074260652065,0.02761790342628956,0.00025306528550572693,0.0002608978538773954,0.0024157194420695305,0,1,-1000,0,0,1,-2,0,-3,1500.0
18:45:08.675,STABILIZE,-35.3632622,149.1652375,0,-0.0001831582485465333,0.0015868074260652065,0.02761790342628956,0.00025306528550572693,0.0002608978538773954,0.0024157194420695305,0,1,-1000,0,0,1,-2,0,-3,1500.0
18:45:08.877,STABILIZE,-35.3632622,149.1652375,0,-0.0004433439171407372,0.0011926507577300072,0.02647116221487522,0.00019775840337388217,0.00030022853752598166,0.0021616679150611162,0,1,-1000,0,0,1,-1,0,-2,1500.0
18:45:09.078,STABILIZE,-35.3632622,149.1652375,0,-0.0004433439171407372,0.0011926507577300072,0.02647116221487522,0.00019775840337388217,0.00030022853752598166,0.0021616679150611162,0,1,-1000,0,0,1,-1,0,-2,1500.0
18:45:09.280,STABILIZE,-35.3632622,149.1652375,0,-0.0004433439171407372,0.0011926507577300072,0.02647116221487522,0.00019775840337388217,0.00030022853752598166,0.0021616679150611162,0,1,-1000,0,0,1,-1,0,-2,1500.0
18:45:09.488,STABILIZE,-35.3632622,149.1652375,0,-0.0004433439171407372,0.0011926507577300072,0.02647116221487522,0.00019775840337388217,0.00030022853752598166,0.0021616679150611162,0,1,-1000,0,0,1,-1,0,-2,1500.0
18:45:09.690,STABILIZE,-35.3632622,149.1652375,0,-0.0004433439171407372,0.0011926507577300072,0.02647116221487522,0.00019775840337388217,0.00030022853752598166,0.0021616679150611162,0,1,-1000,0,0,1,-1,0,-2,1500.0
18:45:09.892,STABILIZE,-35.3632622,149.1652375,0,-0.0004433439171407372,0.0011926507577300072,0.02647116221487522,0.00019775840337388217,0.00030022853752598166,0.0021616679150611162,0,1,-1000,0,0,1,-1,0,-2,1500.0
18:45:10.095,STABILIZE,-35.3632622,149.1652375,0,-0.0004433439171407372,0.0011926507577300072,0.02647116221487522,0.00019775840337388217,0.00030022853752598166,0.0021616679150611162,0,1,-1000,0,0,1,-1,0,-2,1500.0
18:45:10.300,STABILIZE,-35.3632622,149.1652375,0,-0.0004433439171407372,0.0011926507577300072,0.02647116221487522,0.00019775840337388217,0.00030022853752598166,0.0021616679150611162,0,1,-1000,0,0,1,-1,0,-2,1500.0
18:45:10.501,STABILIZE,-35.3632622,149.1652375,0,-0.0004433439171407372,0.0011926507577300072,0.02647116221487522,0.00019775840337388217,0.00030022853752598166,0.0021616679150611162,0,1,-1000,0,0,1,-1,0,-2,1500.0
18:45:10.702,STABILIZE,-35.3632622,149.1652375,0,-0.0004433439171407372,0.0011926507577300072,0.02647116221487522,0.00019775840337388217,0.00030022853752598166,0.0021616679150611162,0,1,-1000,0,0,1,-1,0,-2,1500.0
18:45:10.903,STABILIZE,-35.3632622,149.1652375,0,-0.00046042082249186933,0.0009434081148356199,0.02503853850066662,0.0003536003641784191,0.000272474397206679,0.0019022537162527442,0,1,-1000,1,0,0,-1,0,-2,1500.0
18:45:11.105,STABILIZE,-35.3632622,149.1652375,1,-0.00045831469469703734,0.0009394011576659977,0.02492147870361805,0.00022127974079921842,0.00025670905597507954,0.002068487461656332,0,1,-1000,1,0,0,-1,1,-2,1500.0
18:45:11.306,STABILIZE,-35.3632622,149.1652375,1,-0.00045831469469703734,0.0009394011576659977,0.02492147870361805,0.00022127974079921842,0.00025670905597507954,0.002068487461656332,0,1,-1000,1,0,0,-1,1,-2,1500.0
18:45:11.508,STABILIZE,-35.3632622,149.1652375,1,-0.00045831469469703734,0.0009394011576659977,0.02492147870361805,0.00022127974079921842,0.00025670905597507954,0.002068487461656332,0,1,-1000,1,0,0,-1,1,-2,1500.0
18:45:11.711,STABILIZE,-35.3632622,149.1652375,1,-0.00045831469469703734,0.0009394011576659977,0.02492147870361805,0.00022127974079921842,0.00025670905597507954,0.002068487461656332,0,1,-1000,1,0,0,-1,1,-2,1500.0
18:45:11.913,STABILIZE,-35.3632622,149.1652375,1,-0.00045831469469703734,0.0009394011576659977,0.02492147870361805,0.00022127974079921842,0.00025670905597507954,0.002068487461656332,0,1,-1000,1,0,0,-1,1,-2,1500.0
18:45:12.114,STABILIZE,-35.3632622,149.1652375,1,-0.00045831469469703734,0.0009394011576659977,0.02492147870361805,0.00022127974079921842,0.00025670905597507954,0.002068487461656332,0,1,-1000,1,0,0,-1,1,-2,1500.0
18:45:12.315,STABILIZE,-35.3632622,149.1652375,1,-0.00045831469469703734,0.0009394011576659977,0.02492147870361805,0.00022127974079921842,0.00025670905597507954,0.002068487461656332,0,1,-1000,1,0,0,-1,1,-2,1500.0
18:45:12.516,STABILIZE,-35.3632622,149.1652375,1,-0.00045831469469703734,0.0009394011576659977,0.02492147870361805,0.00022127974079921842,0.00025670905597507954,0.002068487461656332,0,1,-1000,1,0,0,-1,1,-2,1500.0
18:45:12.718,STABILIZE,-35.3632622,149.1652375,0,-0.00047118417569436133,0.0009159121545962989,0.024399077519774437,0.00029372074641287327,0.0002297782921232283,0.0018008688930422068,0,1,-1000,1,0,0,-1,1,-1,1500.0
18:45:12.919,STABILIZE,-35.3632622,149.1652375,0,-0.00048369780415669084,0.0009131153346970677,0.024295689538121223,0.00025247607845813036,0.0002449649036861956,0.0018356264336034656,0,1,-1000,1,0,0,-1,1,-1,1500.0
18:45:13.120,STABILIZE,-35.3632622,149.1652375,0,-0.00048369780415669084,0.0009131153346970677,0.024295689538121223,0.00025247607845813036,0.0002449649036861956,0.0018356264336034656,0,1,-1000,1,0,0,-1,1,-1,1500.0
18:45:13.322,STABILIZE,-35.3632622,149.1652375,0,-0.00048369780415669084,0.0009131153346970677,0.024295689538121223,0.00025247607845813036,0.0002449649036861956,0.0018356264336034656,0,1,-1000,1,0,0,-1,1,-1,1500.0
18:45:13.523,STABILIZE,-35.3632622,149.1652375,0,-0.00048369780415669084,0.0009131153346970677,0.024295689538121223,0.00025247607845813036,0.0002449649036861956,0.0018356264336034656,0,1,-1000,1,0,0,-1,1,-1,1500.0
18:45:13.728,STABILIZE,-35.3632622,149.1652375,0,-0.00048369780415669084,0.0009131153346970677,0.024295689538121223,0.00025247607845813036,0.0002449649036861956,0.0018356264336034656,0,1,-1000,1,0,0,-1,1,-1,1500.0
18:45:13.930,STABILIZE,-35.3632622,149.1652375,0,-0.00048369780415669084,0.0009131153346970677,0.024295689538121223,0.00025247607845813036,0.0002449649036861956,0.0018356264336034656,0,1,-1000,1,0,0,-1,1,-1,1500.0
18:45:14.132,STABILIZE,-35.3632622,149.1652375,0,-0.00048369780415669084,0.0009131153346970677,0.024295689538121223,0.00025247607845813036,0.0002449649036861956,0.0018356264336034656,0,1,-1000,1,0,0,-1,1,-1,1500.0
18:45:14.334,STABILIZE,-35.3632622,149.1652375,0,-0.00048369780415669084,0.0009131153346970677,0.024295689538121223,0.00025247607845813036,0.0002449649036861956,0.0018356264336034656,0,1,-1000,1,0,0,-1,1,-1,1500.0
18:45:14.535,STABILIZE,-35.3632622,149.1652375,0,-0.00048369780415669084,0.0009131153346970677,0.024295689538121223,0.00025247607845813036,0.0002449649036861956,0.0018356264336034656,0,1,-1000,1,0,0,-1,1,-1,1500.0
18:45:14.736,STABILIZE,-35.3632622,149.1652375,0,-0.0005779262282885611,0.0009231322328560054,0.023778267204761505,0.00027250684797763824,0.0001743929460644722,0.0016053540166467428,0,1,-1000,1,0,0,-1,2,0,1500.0
18:45:14.940,STABILIZE,-35.3632622,149.1652375,0,-0.0006725690909661353,0.0009357113158330321,0.02341608516871929,0.00036680587800219655,0.00021887727780267596,0.0017385098617523909,0,1,-1000,0,0,0,-1,1,0,1500.0
18:45:15.143,STABILIZE,-35.3632622,149.1652375,0,-0.0006959009915590286,0.000938944227527827,0.023337097838521004,0.0002101662685163319,0.00013059796765446663,0.001654317369684577,0,1,-1000,0,0,0,-1,1,0,1500.0
18:45:15.344,STABILIZE,-35.3632622,149.1652375,0,-0.0006959009915590286,0.000938944227527827,0.023337097838521004,0.0002101662685163319,0.00013059796765446663,0.001654317369684577,0,1,-1000,0,0,0,-1,1,0,1500.0
18:45:15.550,STABILIZE,-35.3632622,149.1652375,0,-0.0006959009915590286,0.000938944227527827,0.023337097838521004,0.0002101662685163319,0.00013059796765446663,0.001654317369684577,0,1,-1000,0,0,0,-1,1,0,1500.0
18:45:15.751,STABILIZE,-35.3632622,149.1652375,0,-0.0006959009915590286,0.000938944227527827,0.023337097838521004,0.0002101662685163319,0.00013059796765446663,0.001654317369684577,0,1,-1000,0,0,0,-1,1,0,1500.0
18:45:15.954,STABILIZE,-35.3632622,149.1652375,0,-0.0006959009915590286,0.000938944227527827,0.023337097838521004,0.0002101662685163319,0.00013059796765446663,0.001654317369684577,0,1,-1000,0,0,0,-1,1,0,1500.0
18:45:16.155,STABILIZE,-35.3632622,149.1652375,0,-0.0006959009915590286,0.000938944227527827,0.023337097838521004,0.0002101662685163319,0.00013059796765446663,0.001654317369684577,0,1,-1000,0,0,0,-1,1,0,1500.0
18:45:16.357,STABILIZE,-35.3632622,149.1652375,0,-0.0006959009915590286,0.000938944227527827,0.023337097838521004,0.0002101662685163319,0.00013059796765446663,0.001654317369684577,0,1,-1000,0,0,0,-1,1,0,1500.0
18:45:16.558,STABILIZE,-35.3632622,149.1652375,0,-0.0006959009915590286,0.000938944227527827,0.023337097838521004,0.0002101662685163319,0.00013059796765446663,0.001654317369684577,0,1,-1000,0,0,0,-1,1,0,1500.0
18:45:16.761,STABILIZE,-35.3632622,149.1652375,0,-0.0008025167044252157,0.000955376191996038,0.022994475439190865,0.00042872613994404674,0.0002493535866960883,0.0016204870771616697,0,2,-1000,0,1,0,-1,1,0,1500.0
18:45:16.962,STABILIZE,-35.3632622,149.1652375,0,-0.0008025167044252157,0.000955376191996038,0.022994475439190865,0.00042872613994404674,0.0002493535866960883,0.0016204870771616697,0,2,-1000,1,1,0,-1,1,0,1500.0
18:45:17.163,STABILIZE,-35.3632622,149.1652375,0,-0.0008025167044252157,0.000955376191996038,0.022994475439190865,0.00042872613994404674,0.0002493535866960883,0.0016204870771616697,0,2,-1000,1,1,0,-1,1,0,1500.0
18:45:17.367,STABILIZE,-35.3632622,149.1652375,0,-0.0008025167044252157,0.000955376191996038,0.022994475439190865,0.00042872613994404674,0.0002493535866960883,0.0016204870771616697,0,2,-1000,1,1,0,-1,1,0,1500.0
18:45:17.569,STABILIZE,-35.3632622,149.1652375,0,-0.0008025167044252157,0.000955376191996038,0.022994475439190865,0.00042872613994404674,0.0002493535866960883,0.0016204870771616697,0,2,-1000,1,1,0,-1,1,0,1500.0
18:45:17.772,STABILIZE,-35.3632622,149.1652375,0,-0.0008025167044252157,0.000955376191996038,0.022994475439190865,0.00042872613994404674,0.0002493535866960883,0.0016204870771616697,0,2,-1000,1,1,0,-1,1,0,1500.0
18:45:17.977,STABILIZE,-35.3632622,149.1652375,0,-0.0008025167044252157,0.000955376191996038,0.022994475439190865,0.00042872613994404674,0.0002493535866960883,0.0016204870771616697,0,2,-1000,1,1,0,-1,1,0,1500.0
18:45:18.179,STABILIZE,-35.3632622,149.1652375,0,-0.0008025167044252157,0.000955376191996038,0.022994475439190865,0.00042872613994404674,0.0002493535866960883,0.0016204870771616697,0,2,-1000,1,1,0,-1,1,0,1500.0
18:45:18.381,STABILIZE,-35.3632622,149.1652375,0,-0.0008025167044252157,0.000955376191996038,0.022994475439190865,0.00042872613994404674,0.0002493535866960883,0.0016204870771616697,0,2,-1000,1,1,0,-1,1,0,1500.0
18:45:18.583,STABILIZE,-35.3632622,149.1652375,0,-0.0008025167044252157,0.000955376191996038,0.022994475439190865,0.00042872613994404674,0.0002493535866960883,0.0016204870771616697,0,2,-1000,1,1,0,-1,1,0,1500.0
18:45:18.784,STABILIZE,-35.3632622,149.1652375,0,-0.0008340107742697,0.0009615630842745304,0.02241203747689724,0.0003720781533047557,0.00025327096227556467,0.001593391178175807,0,1,-1000,0,1,0,-1,0,0,1500.0
18:45:18.986,STABILIZE,-35.3632622,149.1652375,0,-0.0008245383505709469,0.0009567207307554781,0.022357868030667305,0.0003083275514654815,0.00025015772553160787,0.0015588854439556599,0,2,-1000,0,1,0,-1,0,0,1500.0
18:45:19.187,STABILIZE,-35.3632622,149.1652375,0,-0.0008245383505709469,0.0009567207307554781,0.022357868030667305,0.0003083275514654815,0.00025015772553160787,0.0015588854439556599,0,2,-1000,0,1,0,-1,0,0,1500.0
18:45:19.389,STABILIZE,-35.3632622,149.1652375,0,-0.0008245383505709469,0.0009567207307554781,0.022357868030667305,0.0003083275514654815,0.00025015772553160787,0.0015588854439556599,0,2,-1000,0,1,0,-1,0,0,1500.0
18:45:19.592,STABILIZE,-35.3632622,149.1652375,0,-0.0008245383505709469,0.0009567207307554781,0.022357868030667305,0.0003083275514654815,0.00025015772553160787,0.0015588854439556599,0,2,-1000,0,1,0,-1,0,0,1500.0
18:45:19.794,STABILIZE,-35.3632622,149.1652375,0,-0.0008245383505709469,0.0009567207307554781,0.022357868030667305,0.0003083275514654815,0.00025015772553160787,0.0015588854439556599,0,2,-1000,0,1,0,-1,0,0,1500.0
18:45:19.995,STABILIZE,-35.3632622,149.1652375,0,-0.0008245383505709469,0.0009567207307554781,0.022357868030667305,0.0003083275514654815,0.00025015772553160787,0.0015588854439556599,0,2,-1000,0,1,0,-1,0,0,1500.0
18:45:20.198,STABILIZE,-35.3632622,149.1652375,0,-0.0008245383505709469,0.0009567207307554781,0.022357868030667305,0.0003083275514654815,0.00025015772553160787,0.0015588854439556599,0,2,-1000,0,1,0,-1,0,0,1500.0
18:45:20.400,STABILIZE,-35.3632622,149.1652375,0,-0.0008245383505709469,0.0009567207307554781,0.022357868030667305,0.0003083275514654815,0.00025015772553160787,0.0015588854439556599,0,2,-1000,0,1,0,-1,0,0,1500.0
18:45:20.601,STABILIZE,-35.3632622,149.1652375,0,-0.0008245383505709469,0.0009567207307554781,0.022357868030667305,0.0003083275514654815,0.00025015772553160787,0.0015588854439556599,0,1,-1000,1,0,0,-1,1,0,1500.0
18:45:20.803,STABILIZE,-35.3632622,149.1652375,0,-0.0007880543707869947,0.0009906271006911993,0.022033346816897392,0.00040541740600019693,0.00020809448324143887,0.001531326095573604,0,2,-1000,0,0,0,-1,1,0,1500.0
18:45:21.005,STABILIZE,-35.3632622,149.1652375,0,-0.0007880543707869947,0.0009906271006911993,0.022033346816897392,0.00040541740600019693,0.00020809448324143887,0.001531326095573604,0,1,-1000,0,0,1,-1,1,0,1500.0
18:45:21.212,STABILIZE,-35.3632622,149.1652375,0,-0.0007880543707869947,0.0009906271006911993,0.022033346816897392,0.00040541740600019693,0.00020809448324143887,0.001531326095573604,0,1,-1000,0,0,1,-1,1,0,1500.0
18:45:21.414,STABILIZE,-35.3632622,149.1652375,0,-0.0007880543707869947,0.0009906271006911993,0.022033346816897392,0.00040541740600019693,0.00020809448324143887,0.001531326095573604,0,1,-1000,0,0,1,-1,1,0,1500.0
18:45:21.616,STABILIZE,-35.3632622,149.1652375,0,-0.0007880543707869947,0.0009906271006911993,0.022033346816897392,0.00040541740600019693,0.00020809448324143887,0.001531326095573604,0,1,-1000,0,0,1,-1,1,0,1500.0
18:45:21.818,STABILIZE,-35.3632622,149.1652375,0,-0.0007880543707869947,0.0009906271006911993,0.022033346816897392,0.00040541740600019693,0.00020809448324143887,0.001531326095573604,0,1,-1000,0,0,1,-1,1,0,1500.0
18:45:22.019,STABILIZE,-35.3632622,149.1652375,0,-0.0007880543707869947,0.0009906271006911993,0.022033346816897392,0.00040541740600019693,0.00020809448324143887,0.001531326095573604,0,1,-1000,0,0,1,-1,1,0,1500.0
18:45:22.222,STABILIZE,-35.3632622,149.1652375,0,-0.0007880543707869947,0.0009906271006911993,0.022033346816897392,0.00040541740600019693,0.00020809448324143887,0.001531326095573604,0,1,-1000,0,0,1,-1,1,0,1500.0
18:45:22.424,STABILIZE,-35.3632622,149.1652375,0,-0.0007880543707869947,0.0009906271006911993,0.022033346816897392,0.00040541740600019693,0.00020809448324143887,0.001531326095573604,0,1,-1000,0,0,1,-1,1,0,1500.0
18:45:22.625,STABILIZE,-35.3632622,149.1652375,0,-0.0008187346975319088,0.000994570436887443,0.02163679525256157,0.00037699867971241474,0.00019879708997905254,0.0015370211331173778,0,1,-1000,0,0,1,-1,1,0,1500.0
18:45:22.827,STABILIZE,-35.3632622,149.1652375,0,-0.0008187346975319088,0.000994570436887443,0.02163679525256157,0.00037699867971241474,0.00019879708997905254,0.0015370211331173778,0,1,-1000,0,0,1,-1,1,0,1500.0
18:45:23.028,STABILIZE,-35.3632622,149.1652375,0,-0.0008698916644789279,0.0009857878321781754,0.02138567715883255,0.0003541021724231541,0.00018702971283346415,0.0015654629096388817,0,1,-1000,1,0,0,-1,1,0,1500.0
18:45:23.235,STABILIZE,-35.3632622,149.1652375,0,-0.0008698916644789279,0.0009857878321781754,0.02138567715883255,0.0003541021724231541,0.00018702971283346415,0.0015654629096388817,0,1,-1000,1,0,0,-1,1,0,1500.0
18:45:23.439,STABILIZE,-35.3632622,149.1652375,0,-0.0008698916644789279,0.0009857878321781754,0.02138567715883255,0.0003541021724231541,0.00018702971283346415,0.0015654629096388817,0,1,-1000,1,0,0,-1,1,0,1500.0
18:45:23.643,STABILIZE,-35.3632622,149.1652375,0,-0.0008698916644789279,0.0009857878321781754,0.02138567715883255,0.0003541021724231541,0.00018702971283346415,0.0015654629096388817,0,1,-1000,1,0,0,-1,1,0,1500.0
18:45:23.845,STABILIZE,-35.3632622,149.1652375,0,-0.0008698916644789279,0.0009857878321781754,0.02138567715883255,0.0003541021724231541,0.00018702971283346415,0.0015654629096388817,0,1,-1000,1,0,0,-1,1,0,1500.0
18:45:24.049,STABILIZE,-35.3632622,149.1652375,0,-0.0008698916644789279,0.0009857878321781754,0.02138567715883255,0.0003541021724231541,0.00018702971283346415,0.0015654629096388817,0,1,-1000,1,0,0,-1,1,0,1500.0
18:45:24.252,STABILIZE,-35.3632622,149.1652375,0,-0.0008698916644789279,0.0009857878321781754,0.02138567715883255,0.0003541021724231541,0.00018702971283346415,0.0015654629096388817,0,1,-1000,1,0,0,-1,1,0,1500.0
18:45:24.454,STABILIZE,-35.3632622,149.1652375,0,-0.0008698916644789279,0.0009857878321781754,0.02138567715883255,0.0003541021724231541,0.00018702971283346415,0.0015654629096388817,0,1,-1000,1,0,0,-1,1,0,1500.0
18:45:24.656,STABILIZE,-35.3632622,149.1652375,0,-0.0007725820178166032,0.0009765647118911147,0.02115347422659397,0.00027539575239643455,0.00036786001874133945,0.0014922842383384705,0,1,-1000,1,1,1,-1,1,0,1500.0
18:45:24.857,STABILIZE,-35.3632622,149.1652375,0,-0.000792156788520515,0.000981711782515049,0.021072352305054665,0.0002864951966330409,0.0002170993248000741,0.001337268971838057,0,1,-1000,0,1,0,-1,1,0,1500.0
18:45:25.059,STABILIZE,-35.3632622,149.1652375,0,-0.0007948374259285629,0.0009863917948678136,0.021023694425821304,0.0002617596182972193,0.0003633557935245335,0.0014287293888628483,0,1,-1000,0,1,0,-1,1,0,1500.0
18:45:25.266,STABILIZE,-35.3632622,149.1652375,0,-0.0007948374259285629,0.0009863917948678136,0.021023694425821304,0.0002617596182972193,0.0003633557935245335,0.0014287293888628483,0,1,-1000,0,1,0,-1,1,0,1500.0
18:45:25.468,STABILIZE,-35.3632622,149.1652375,0,-0.0007948374259285629,0.0009863917948678136,0.021023694425821304,0.0002617596182972193,0.0003633557935245335,0.0014287293888628483,0,1,-1000,0,1,0,-1,1,0,1500.0
18:45:25.671,STABILIZE,-35.3632622,149.1652375,0,-0.0007948374259285629,0.0009863917948678136,0.021023694425821304,0.0002617596182972193,0.0003633557935245335,0.0014287293888628483,0,1,-1000,0,1,0,-1,1,0,1500.0
18:45:25.872,STABILIZE,-35.3632622,149.1652375,0,-0.0007948374259285629,0.0009863917948678136,0.021023694425821304,0.0002617596182972193,0.0003633557935245335,0.0014287293888628483,0,1,-1000,0,1,0,-1,1,0,1500.0
18:45:26.075,STABILIZE,-35.3632622,149.1652375,0,-0.0007948374259285629,0.0009863917948678136,0.021023694425821304,0.0002617596182972193,0.0003633557935245335,0.0014287293888628483,0,1,-1000,0,1,0,-1,1,0,1500.0
18:45:26.280,STABILIZE,-35.3632622,149.1652375,0,-0.0007948374259285629,0.0009863917948678136,0.021023694425821304,0.0002617596182972193,0.0003633557935245335,0.0014287293888628483,0,1,-1000,0,1,0,-1,1,0,1500.0
18:45:26.481,STABILIZE,-35.3632622,149.1652375,0,-0.0007948374259285629,0.0009863917948678136,0.021023694425821304,0.0002617596182972193,0.0003633557935245335,0.0014287293888628483,0,1,-1000,0,1,0,-1,1,0,1500.0
18:45:26.683,STABILIZE,-35.3632622,149.1652375,0,-0.0007948374259285629,0.0009863917948678136,0.021023694425821304,0.0002617596182972193,0.0003633557935245335,0.0014287293888628483,0,1,-1000,0,1,0,-1,1,0,1500.0
18:45:26.887,STABILIZE,-35.3632622,149.1652375,0,-0.0007948374259285629,0.0009863917948678136,0.021023694425821304,0.0002617596182972193,0.0003633557935245335,0.0014287293888628483,0,1,-1000,0,1,0,-1,1,0,1500.0
18:45:27.088,STABILIZE,-35.3632622,149.1652375,0,-0.0007948374259285629,0.0009863917948678136,0.021023694425821304,0.0002617596182972193,0.0003633557935245335,0.0014287293888628483,0,1,-1000,0,1,0,-1,1,0,1500.0
18:45:27.290,STABILIZE,-35.3632622,149.1652375,0,-0.0007948374259285629,0.0009863917948678136,0.021023694425821304,0.0002617596182972193,0.0003633557935245335,0.0014287293888628483,0,1,-1000,0,1,0,-1,1,0,1500.0
18:45:27.492,STABILIZE,-35.3632622,149.1652375,0,-0.0007948374259285629,0.0009863917948678136,0.021023694425821304,0.0002617596182972193,0.0003633557935245335,0.0014287293888628483,0,1,-1000,0,1,0,-1,1,0,1500.0
18:45:27.693,STABILIZE,-35.3632622,149.1652375,0,-0.0007948374259285629,0.0009863917948678136,0.021023694425821304,0.0002617596182972193,0.0003633557935245335,0.0014287293888628483,0,1,-1000,0,1,0,-1,1,0,1500.0
18:45:27.895,STABILIZE,-35.3632622,149.1652375,0,-0.0007948374259285629,0.0009863917948678136,0.021023694425821304,0.0002617596182972193,0.0003633557935245335,0.0014287293888628483,0,1,-1000,0,1,0,-1,1,0,1500.0
18:45:28.097,STABILIZE,-35.3632622,149.1652375,0,-0.0007948374259285629,0.0009863917948678136,0.021023694425821304,0.0002617596182972193,0.0003633557935245335,0.0014287293888628483,0,1,-1000,0,1,0,-1,1,0,1500.0
18:45:31.649,STABILIZE,-35.3632622,149.1652375,0,-0.0007948374259285629,0.0009863917948678136,0.021023694425821304,0.0002617596182972193,0.0003633557935245335,0.0014287293888628483,0,1,-1000,0,1,0,-1,1,0,1500.0
18:45:31.850,STABILIZE,-35.3632622,149.1652375,0,-0.0007948374259285629,0.0009863917948678136,0.021023694425821304,0.0002617596182972193,0.0003633557935245335,0.0014287293888628483,0,1,-1000,0,1,0,-1,1,0,1500.0
18:45:32.052,STABILIZE,-35.3632622,149.1652375,0,-0.0007948374259285629,0.0009863917948678136,0.021023694425821304,0.0002617596182972193,0.0003633557935245335,0.0014287293888628483,0,1,-1000,0,1,0,-1,1,0,1500.0
18:45:32.254,STABILIZE,-35.3632622,149.1652375,0,-0.0007948374259285629,0.0009863917948678136,0.021023694425821304,0.0002617596182972193,0.0003633557935245335,0.0014287293888628483,0,1,-1000,0,1,0,-1,1,0,1500.0
18:45:32.455,STABILIZE,-35.3632622,149.1652375,0,-0.0007948374259285629,0.0009863917948678136,0.021023694425821304,0.0002617596182972193,0.0003633557935245335,0.0014287293888628483,0,1,-1000,0,1,0,-1,1,0,1500.0
18:45:32.656,STABILIZE,-35.3632622,149.1652375,0,-0.0007948374259285629,0.0009863917948678136,0.021023694425821304,0.0002617596182972193,0.0003633557935245335,0.0014287293888628483,0,1,-1000,0,1,0,-1,1,0,1500.0
18:45:32.857,STABILIZE,-35.3632622,149.1652375,0,-0.0007948374259285629,0.0009863917948678136,0.021023694425821304,0.0002617596182972193,0.0003633557935245335,0.0014287293888628483,0,1,-1000,0,1,0,-1,1,0,1500.0
18:45:33.059,STABILIZE,-35.3632622,149.1652375,0,-0.0007948374259285629,0.0009863917948678136,0.021023694425821304,0.0002617596182972193,0.0003633557935245335,0.0014287293888628483,0,1,-1000,0,1,0,-1,1,0,1500.0
18:45:33.261,STABILIZE,-35.3632622,149.1652375,0,-0.0007948374259285629,0.0009863917948678136,0.021023694425821304,0.0002617596182972193,0.0003633557935245335,0.0014287293888628483,0,1,-1000,0,1,0,-1,1,0,1500.0
18:45:33.463,STABILIZE,-35.3632622,149.1652375,0,-0.0007948374259285629,0.0009863917948678136,0.021023694425821304,0.0002617596182972193,0.0003633557935245335,0.0014287293888628483,0,1,-1000,0,1,0,-1,1,0,1500.0
18:45:33.664,AUTO,-35.3632622,149.1652375,2,-0.0007764462498016655,0.0010236671660095453,0.020742489024996758,0.0002423279220238328,0.00028621958335861564,0.0013188114389777184,0,1,-1000,1,0,0,0,0,0,1500.0
18:45:33.869,AUTO,-35.3632622,149.1652375,2,-0.0007764462498016655,0.0010236671660095453,0.020742489024996758,0.0002423279220238328,0.00028621958335861564,0.0013188114389777184,0,1,-1000,1,0,0,0,0,0,1500.0
18:45:34.072,AUTO,-35.3632622,149.1652375,2,-0.0007764462498016655,0.0010236671660095453,0.020742489024996758,0.0002423279220238328,0.00028621958335861564,0.0013188114389777184,0,1,-1000,1,0,0,0,0,0,1500.0
18:45:34.276,AUTO,-35.3632621,149.1652374,1104,0.013012380339205265,0.000511744583491236,0.01963328942656517,0.04828718677163124,-0.0059082829393446445,0.001312019769102335,0,0,-1035,49,-5,1,0,1,-140,1500.0
18:45:34.479,AUTO,-35.3632621,149.1652374,1104,0.013012380339205265,0.000511744583491236,0.01963328942656517,0.04828718677163124,-0.0059082829393446445,0.001312019769102335,0,0,-1035,49,-5,1,0,1,-140,1500.0
18:45:34.682,AUTO,-35.3632621,149.1652374,1104,0.013012380339205265,0.000511744583491236,0.01963328942656517,0.04828718677163124,-0.0059082829393446445,0.001312019769102335,0,0,-1035,49,-5,1,0,1,-140,1500.0
18:45:34.885,AUTO,-35.3632621,149.1652374,1104,0.013012380339205265,0.000511744583491236,0.01963328942656517,0.04828718677163124,-0.0059082829393446445,0.001312019769102335,0,0,-1035,49,-5,1,0,1,-140,1500.0
18:45:35.087,AUTO,-35.3632621,149.1652374,1104,0.013012380339205265,0.000511744583491236,0.01963328942656517,0.04828718677163124,-0.0059082829393446445,0.001312019769102335,0,0,-1035,49,-5,1,0,1,-140,1500.0
18:45:35.288,AUTO,-35.3632621,149.1652374,1104,0.013012380339205265,0.000511744583491236,0.01963328942656517,0.04828718677163124,-0.0059082829393446445,0.001312019769102335,0,0,-1035,49,-5,1,0,1,-140,1500.0
18:45:35.491,AUTO,-35.3632621,149.1652374,1104,0.013012380339205265,0.000511744583491236,0.01963328942656517,0.04828718677163124,-0.0059082829393446445,0.001312019769102335,0,0,-1035,49,-5,1,0,1,-140,1500.0
18:45:35.693,AUTO,-35.3632617,149.1652395,2928,0.063486747443676,-0.009327860549092293,-0.007668516132980585,0.0017898962832987309,0.0103060407564044,-0.035113297402858734,1,-4,-1000,40,-9,3,8,43,-148,1500.0
18:45:35.894,AUTO,-35.3632614,149.1652408,3309,0.044745348393917084,0.010931706055998802,-0.028627578169107437,-0.1374311000108719,0.10077852755784988,-0.10142027586698532,2,-10,-990,-136,101,-101,9,53,-145,1500.0
18:45:36.096,AUTO,-35.3632612,149.1652423,3690,6.43606690573506e-05,0.0230307225137949,-0.04929884150624275,-0.1544882208108902,0.008346534334123135,-0.07701760530471802,4,-12,-1005,-153,9,-77,6,55,-144,1500.0
18:45:36.297,AUTO,-35.363261,149.1652437,4068,-0.02260645106434822,0.020602846518158913,-0.06385581195354462,-0.05225736275315285,-0.013089751824736595,-0.058942291885614395,5,-11,-1010,-51,-12,-59,3,49,-147,1500.0
18:45:36.499,AUTO,-35.3632609,149.1652448,4451,-0.030640309676527977,0.016466084867715836,-0.07560021430253983,-0.020214267075061798,-0.012907508760690689,-0.04791073873639107,5,-8,-1006,-19,-12,-48,0,39,-149,1500.0
18:45:36.701,AUTO,-35.3632609,149.1652448,4451,-0.030640309676527977,0.016466084867715836,-0.07560021430253983,-0.020214267075061798,-0.012907508760690689,-0.04791073873639107,5,-8,-1006,-19,-12,-48,0,39,-149,1500.0
18:45:36.903,AUTO,-35.3632609,149.1652448,4451,-0.030640309676527977,0.016466084867715836,-0.07560021430253983,-0.020214267075061798,-0.012907508760690689,-0.04791073873639107,5,-8,-1006,-19,-12,-48,0,39,-149,1500.0
18:45:37.105,AUTO,-35.3632609,149.1652448,4451,-0.030640309676527977,0.016466084867715836,-0.07560021430253983,-0.020214267075061798,-0.012907508760690689,-0.04791073873639107,5,-8,-1006,-19,-12,-48,0,39,-149,1500.0
18:45:37.329,AUTO,-35.3632609,149.1652448,4451,-0.030640309676527977,0.016466084867715836,-0.07560021430253983,-0.020214267075061798,-0.012907508760690689,-0.04791073873639107,5,-8,-1006,-19,-12,-48,0,39,-149,1500.0
18:45:37.532,AUTO,-35.3632609,149.1652448,4451,-0.030640309676527977,0.016466084867715836,-0.07560021430253983,-0.020214267075061798,-0.012907508760690689,-0.04791073873639107,5,-8,-1006,-19,-12,-48,0,39,-149,1500.0
18:45:37.743,AUTO,-35.3632609,149.1652448,4451,-0.030640309676527977,0.016466084867715836,-0.07560021430253983,-0.020214267075061798,-0.012907508760690689,-0.04791073873639107,5,-8,-1006,-19,-12,-48,0,39,-149,1500.0
18:45:37.984,AUTO,-35.3632609,149.1652448,4451,-0.030640309676527977,0.016466084867715836,-0.07560021430253983,-0.020214267075061798,-0.012907508760690689,-0.04791073873639107,5,-8,-1006,-19,-12,-48,0,39,-149,1500.0
18:45:38.194,AUTO,-35.3632611,149.1652457,6220,-0.06663984805345535,-0.009565095417201519,-0.09012097120285034,0.052684757858514786,-0.0023208335041999817,-0.004576404578983784,0,1,-1005,19,-7,-9,-2,-31,-148,1500.0
18:45:38.398,AUTO,-35.3632612,149.1652416,7372,-0.021745571866631508,-0.005006527528166771,-0.09301380813121796,0.06477535516023636,0.012750194407999516,0.0012860166607424617,-7,11,-1002,65,13,1,-1,-60,-149,1500.0
18:45:38.600,AUTO,-35.3632612,149.1652416,7372,-0.021745571866631508,-0.005006527528166771,-0.09301380813121796,0.06477535516023636,0.012750194407999516,0.0012860166607424617,-7,11,-1002,65,13,1,-1,-60,-149,1500.0
18:45:38.804,AUTO,-35.3632612,149.1652416,7372,-0.021745571866631508,-0.005006527528166771,-0.09301380813121796,0.06477535516023636,0.012750194407999516,0.0012860166607424617,-7,11,-1002,65,13,1,-1,-60,-149,1500.0
18:45:39.007,AUTO,-35.3632612,149.1652416,7372,-0.021745571866631508,-0.005006527528166771,-0.09301380813121796,0.06477535516023636,0.012750194407999516,0.0012860166607424617,-7,11,-1002,65,13,1,-1,-60,-149,1500.0
18:45:39.211,AUTO,-35.3632612,149.1652416,7372,-0.021745571866631508,-0.005006527528166771,-0.09301380813121796,0.06477535516023636,0.012750194407999516,0.0012860166607424617,-7,11,-1002,65,13,1,-1,-60,-149,1500.0
18:45:39.414,AUTO,-35.3632612,149.1652416,7372,-0.021745571866631508,-0.005006527528166771,-0.09301380813121796,0.06477535516023636,0.012750194407999516,0.0012860166607424617,-7,11,-1002,65,13,1,-1,-60,-149,1500.0
18:45:39.616,AUTO,-35.3632612,149.1652416,7372,-0.021745571866631508,-0.005006527528166771,-0.09301380813121796,0.06477535516023636,0.012750194407999516,0.0012860166607424617,-7,11,-1002,65,13,1,-1,-60,-149,1500.0
18:45:39.817,AUTO,-35.3632612,149.1652416,7372,-0.021745571866631508,-0.005006527528166771,-0.09301380813121796,0.06477535516023636,0.012750194407999516,0.0012860166607424617,-7,11,-1002,65,13,1,-1,-60,-149,1500.0
18:45:40.020,AUTO,-35.3632615,149.1652367,8534,0.027530336752533913,0.00569900032132864,-0.09170178323984146,0.06596624106168747,0.012861705385148525,0.00385983451269567,-7,11,-1002,65,13,1,-5,-51,-152,1500.0
18:45:40.222,AUTO,-35.3632622,149.1652337,10109,0.07314056158065796,0.002038966165855527,-0.08168546855449677,-0.06459230929613113,-0.04337812215089798,0.032741498202085495,1,1,-990,-64,-42,32,-9,9,-150,1500.0
18:45:40.424,AUTO,-35.3632624,149.165234,10498,0.04674701392650604,-0.005367024801671505,-0.07764691859483719,-0.11724936217069626,-0.014494592323899269,0.009438238106667995,3,-1,-994,-116,-13,9,-6,23,-148,1500.0
18:45:40.625,AUTO,-35.3632624,149.165234,10498,0.04674701392650604,-0.005367024801671505,-0.07764691859483719,-0.11724936217069626,-0.014494592323899269,0.009438238106667995,3,-1,-994,-116,-13,9,-6,23,-148,1500.0
18:45:40.827,AUTO,-35.3632624,149.165234,10498,0.04674701392650604,-0.005367024801671505,-0.07764691859483719,-0.11724936217069626,-0.014494592323899269,0.009438238106667995,3,-1,-994,-116,-13,9,-6,23,-148,1500.0
18:45:41.029,AUTO,-35.3632624,149.165234,10498,0.04674701392650604,-0.005367024801671505,-0.07764691859483719,-0.11724936217069626,-0.014494592323899269,0.009438238106667995,3,-1,-994,-116,-13,9,-6,23,-148,1500.0
18:45:41.231,AUTO,-35.3632624,149.165234,10498,0.04674701392650604,-0.005367024801671505,-0.07764691859483719,-0.11724936217069626,-0.014494592323899269,0.009438238106667995,3,-1,-994,-116,-13,9,-6,23,-148,1500.0
18:45:41.433,AUTO,-35.3632624,149.165234,10498,0.04674701392650604,-0.005367024801671505,-0.07764691859483719,-0.11724936217069626,-0.014494592323899269,0.009438238106667995,3,-1,-994,-116,-13,9,-6,23,-148,1500.0
18:45:41.636,AUTO,-35.3632624,149.165234,10498,0.04674701392650604,-0.005367024801671505,-0.07764691859483719,-0.11724936217069626,-0.014494592323899269,0.009438238106667995,3,-1,-994,-116,-13,9,-6,23,-148,1500.0
18:45:41.839,AUTO,-35.3632624,149.165234,10498,0.04674701392650604,-0.005367024801671505,-0.07764691859483719,-0.11724936217069626,-0.014494592323899269,0.009438238106667995,3,-1,-994,-116,-13,9,-6,23,-148,1500.0
18:45:42.043,AUTO,-35.3632623,149.1652371,12807,-0.02067655883729458,-0.002083569299429655,-0.11604928970336914,0.013818045146763325,0.008033664897084236,-0.032829683274030685,0,-2,-1001,14,8,-33,5,2,-151,1500.0
18:45:42.244,AUTO,-35.3632621,149.1652371,13197,-0.015951424837112427,-0.0002986425533890724,-0.12436705827713013,0.021089771762490273,0.007635713554918766,-0.02882583625614643,-1,-1,-1001,21,8,-28,5,-2,-151,1500.0
18:45:42.450,AUTO,-35.363262,149.165237,13588,-0.010199902579188347,0.0015878552803769708,-0.1320181041955948,0.02544996328651905,0.00801886897534132,-0.02771023102104664,-2,0,-1001,26,8,-27,5,-6,-152,1500.0
18:45:42.655,AUTO,-35.363262,149.165237,13588,-0.010199902579188347,0.0015878552803769708,-0.1320181041955948,0.02544996328651905,0.00801886897534132,-0.02771023102104664,-2,0,-1001,26,8,-27,5,-6,-152,1500.0
18:45:42.865,AUTO,-35.363262,149.165237,13588,-0.010199902579188347,0.0015878552803769708,-0.1320181041955948,0.02544996328651905,0.00801886897534132,-0.02771023102104664,-2,0,-1001,26,8,-27,5,-6,-152,1500.0
18:45:43.067,AUTO,-35.363262,149.165237,13588,-0.010199902579188347,0.0015878552803769708,-0.1320181041955948,0.02544996328651905,0.00801886897534132,-0.02771023102104664,-2,0,-1001,26,8,-27,5,-6,-152,1500.0
18:45:43.268,AUTO,-35.363262,149.165237,13588,-0.010199902579188347,0.0015878552803769708,-0.1320181041955948,0.02544996328651905,0.00801886897534132,-0.02771023102104664,-2,0,-1001,26,8,-27,5,-6,-152,1500.0
18:45:43.470,AUTO,-35.363262,149.165237,13588,-0.010199902579188347,0.0015878552803769708,-0.1320181041955948,0.02544996328651905,0.00801886897534132,-0.02771023102104664,-2,0,-1001,26,8,-27,5,-6,-152,1500.0
18:45:43.672,AUTO,-35.363262,149.165237,13588,-0.010199902579188347,0.0015878552803769708,-0.1320181041955948,0.02544996328651905,0.00801886897534132,-0.02771023102104664,-2,0,-1001,26,8,-27,5,-6,-152,1500.0
18:45:43.874,AUTO,-35.363262,149.165237,13588,-0.010199902579188347,0.0015878552803769708,-0.1320181041955948,0.02544996328651905,0.00801886897534132,-0.02771023102104664,-2,0,-1001,26,8,-27,5,-6,-152,1500.0
18:45:44.078,AUTO,-35.363262,149.165237,13588,-0.010199902579188347,0.0015878552803769708,-0.1320181041955948,0.02544996328651905,0.00801886897534132,-0.02771023102104664,-2,0,-1001,26,8,-27,5,-6,-152,1500.0
18:45:44.279,AUTO,-35.3632615,149.1652355,16330,0.010924460366368294,0.007036956027150154,-0.16131065785884857,-0.002279736567288637,-0.0026059397496283054,-0.008502429351210594,0,0,-999,-1,-1,-8,-2,0,-152,1500.0
18:45:44.480,AUTO,-35.3632615,149.1652355,16721,0.010059786960482597,0.006254119332879782,-0.16365323960781097,-0.006144808139652014,-0.003629514016211033,-0.010887923650443554,0,0,-999,-5,-2,-11,-3,1,-152,1500.0
18:45:44.683,AUTO,-35.3632615,149.1652355,16721,0.010059786960482597,0.006254119332879782,-0.16365323960781097,-0.006144808139652014,-0.003629514016211033,-0.010887923650443554,0,0,-999,-5,-2,-11,-3,1,-152,1500.0
18:45:44.888,AUTO,-35.3632615,149.1652355,16721,0.010059786960482597,0.006254119332879782,-0.16365323960781097,-0.006144808139652014,-0.003629514016211033,-0.010887923650443554,0,0,-999,-5,-2,-11,-3,1,-152,1500.0
18:45:45.091,AUTO,-35.3632615,149.1652355,16721,0.010059786960482597,0.006254119332879782,-0.16365323960781097,-0.006144808139652014,-0.003629514016211033,-0.010887923650443554,0,0,-999,-5,-2,-11,-3,1,-152,1500.0
18:45:45.293,AUTO,-35.3632615,149.1652355,16721,0.010059786960482597,0.006254119332879782,-0.16365323960781097,-0.006144808139652014,-0.003629514016211033,-0.010887923650443554,0,0,-999,-5,-2,-11,-3,1,-152,1500.0
18:45:45.494,AUTO,-35.3632615,149.1652355,16721,0.010059786960482597,0.006254119332879782,-0.16365323960781097,-0.006144808139652014,-0.003629514016211033,-0.010887923650443554,0,0,-999,-5,-2,-11,-3,1,-152,1500.0
18:45:45.696,AUTO,-35.3632615,149.1652355,16721,0.010059786960482597,0.006254119332879782,-0.16365323960781097,-0.006144808139652014,-0.003629514016211033,-0.010887923650443554,0,0,-999,-5,-2,-11,-3,1,-152,1500.0
18:45:45.898,AUTO,-35.3632615,149.1652355,16721,0.010059786960482597,0.006254119332879782,-0.16365323960781097,-0.006144808139652014,-0.003629514016211033,-0.010887923650443554,0,0,-999,-5,-2,-11,-3,1,-152,1500.0
18:45:46.099,AUTO,-35.3632616,149.1652358,19059,0.0033891177736222744,0.003655211301520467,-0.18484479188919067,-0.0007518759812228382,-5.57245803065598e-05,-0.01800430193543434,0,0,-1000,0,0,-18,-3,6,-152,1500.0
18:45:46.301,AUTO,-35.3632617,149.1652359,19449,0.002847847994416952,0.003314425004646182,-0.18931907415390015,-0.0031999549828469753,-0.0010764627950266004,-0.017758866772055626,0,0,-999,-2,0,-17,-3,5,-152,1500.0
18:45:46.502,AUTO,-35.3632617,149.165236,19843,0.002518274122849107,0.0030460392590612173,-0.19403839111328125,-0.00030408514430746436,-0.0005173005629330873,-0.018867598846554756,0,0,-1000,0,0,-19,-3,5,-152,1500.0
18:45:46.733,AUTO,-35.3632617,149.165236,19843,0.002518274122849107,0.0030460392590612173,-0.19403839111328125,-0.00030408514430746436,-0.0005173005629330873,-0.018867598846554756,0,0,-1000,0,0,-19,-3,5,-152,1500.0
18:45:46.949,AUTO,-35.3632617,149.165236,19843,0.002518274122849107,0.0030460392590612173,-0.19403839111328125,-0.00030408514430746436,-0.0005173005629330873,-0.018867598846554756,0,0,-1000,0,0,-19,-3,5,-152,1500.0
18:45:47.166,AUTO,-35.3632617,149.165236,19843,0.002518274122849107,0.0030460392590612173,-0.19403839111328125,-0.00030408514430746436,-0.0005173005629330873,-0.018867598846554756,0,0,-1000,0,0,-19,-3,5,-152,1500.0
18:45:47.374,AUTO,-35.3632617,149.165236,19843,0.002518274122849107,0.0030460392590612173,-0.19403839111328125,-0.00030408514430746436,-0.0005173005629330873,-0.018867598846554756,0,0,-1000,0,0,-19,-3,5,-152,1500.0
18:45:47.610,AUTO,-35.3632617,149.165236,19843,0.002518274122849107,0.0030460392590612173,-0.19403839111328125,-0.00030408514430746436,-0.0005173005629330873,-0.018867598846554756,0,0,-1000,0,0,-19,-3,5,-152,1500.0
18:45:47.818,AUTO,-35.3632617,149.165236,19843,0.002518274122849107,0.0030460392590612173,-0.19403839111328125,-0.00030408514430746436,-0.0005173005629330873,-0.018867598846554756,0,0,-1000,0,0,-19,-3,5,-152,1500.0
18:45:48.020,AUTO,-35.3632617,149.165236,19843,0.002518274122849107,0.0030460392590612173,-0.19403839111328125,-0.00030408514430746436,-0.0005173005629330873,-0.018867598846554756,0,0,-1000,0,0,-19,-3,5,-152,1500.0
18:45:48.223,AUTO,-35.3632618,149.1652362,21017,0.002042474690824747,0.0026767118833959103,-0.20880436897277832,0.004207055550068617,0.0003711973549798131,-0.020089562982320786,0,0,-1001,5,1,-20,-2,4,-152,1500.0
18:45:48.424,AUTO,-35.3632618,149.1652364,22588,0.002457329072058201,0.0033586029894649982,-0.23006458580493927,-0.00020214647520333529,-0.0010965452529489994,-0.018843069672584534,0,0,-1000,0,0,-19,-2,3,-152,1500.0
18:45:48.626,AUTO,-35.3632618,149.1652364,22979,0.0024297302588820457,0.0029515414498746395,-0.23493388295173645,-8.201698074117303e-05,-0.0022106049582362175,-0.020420661196112633,0,0,-1000,1,-1,-20,-2,3,-152,1500.0
18:45:48.828,AUTO,-35.3632618,149.1652364,22979,0.0024297302588820457,0.0029515414498746395,-0.23493388295173645,-8.201698074117303e-05,-0.0022106049582362175,-0.020420661196112633,0,0,-1000,1,-1,-20,-2,3,-152,1500.0
18:45:49.031,AUTO,-35.3632618,149.1652364,22979,0.0024297302588820457,0.0029515414498746395,-0.23493388295173645,-8.201698074117303e-05,-0.0022106049582362175,-0.020420661196112633,0,0,-1000,1,-1,-20,-2,3,-152,1500.0
18:45:49.232,AUTO,-35.3632618,149.1652364,22979,0.0024297302588820457,0.0029515414498746395,-0.23493388295173645,-8.201698074117303e-05,-0.0022106049582362175,-0.020420661196112633,0,0,-1000,1,-1,-20,-2,3,-152,1500.0
18:45:49.435,AUTO,-35.3632618,149.1652364,22979,0.0024297302588820457,0.0029515414498746395,-0.23493388295173645,-8.201698074117303e-05,-0.0022106049582362175,-0.020420661196112633,0,0,-1000,1,-1,-20,-2,3,-152,1500.0
18:45:49.639,AUTO,-35.3632618,149.1652364,22979,0.0024297302588820457,0.0029515414498746395,-0.23493388295173645,-8.201698074117303e-05,-0.0022106049582362175,-0.020420661196112633,0,0,-1000,1,-1,-20,-2,3,-152,1500.0
18:45:49.841,AUTO,-35.3632618,149.1652364,22979,0.0024297302588820457,0.0029515414498746395,-0.23493388295173645,-8.201698074117303e-05,-0.0022106049582362175,-0.020420661196112633,0,0,-1000,1,-1,-20,-2,3,-152,1500.0
18:45:50.045,AUTO,-35.3632619,149.1652366,24536,0.0023848521523177624,0.002217013156041503,-0.2540527582168579,7.711281068623066e-05,-0.0019347498891875148,-0.015306760556995869,0,0,-1000,3,0,-19,-2,3,-152,1500.0
18:45:50.246,AUTO,-35.363262,149.1652366,25704,-0.009518872946500778,0.005326671991497278,-0.25814852118492126,0.03174230456352234,0.003841973375529051,0.013773239217698574,0,0,-1004,32,4,13,-3,0,-152,1500.0
18:45:50.448,AUTO,-35.363262,149.1652366,26094,-0.0005732819554395974,0.005152459722012281,-0.25364798307418823,0.035731397569179535,-0.002849450334906578,0.021564288064837456,0,0,-1002,36,-1,21,-4,-2,-152,1500.0
18:45:50.653,AUTO,-35.363262,149.1652366,26094,-0.0005732819554395974,0.005152459722012281,-0.25364798307418823,0.035731397569179535,-0.002849450334906578,0.021564288064837456,0,0,-1002,36,-1,21,-4,-2,-152,1500.0
18:45:50.868,AUTO,-35.363262,149.1652366,26094,-0.0005732819554395974,0.005152459722012281,-0.25364798307418823,0.035731397569179535,-0.002849450334906578,0.021564288064837456,0,0,-1002,36,-1,21,-4,-2,-152,1500.0
18:45:51.090,AUTO,-35.363262,149.1652366,26094,-0.0005732819554395974,0.005152459722012281,-0.25364798307418823,0.035731397569179535,-0.002849450334906578,0.021564288064837456,0,0,-1002,36,-1,21,-4,-2,-152,1500.0
18:45:51.303,AUTO,-35.363262,149.1652366,26094,-0.0005732819554395974,0.005152459722012281,-0.25364798307418823,0.035731397569179535,-0.002849450334906578,0.021564288064837456,0,0,-1002,36,-1,21,-4,-2,-152,1500.0
18:45:51.505,AUTO,-35.363262,149.1652366,26094,-0.0005732819554395974,0.005152459722012281,-0.25364798307418823,0.035731397569179535,-0.002849450334906578,0.021564288064837456,0,0,-1002,36,-1,21,-4,-2,-152,1500.0
18:45:51.719,AUTO,-35.363262,149.1652366,26094,-0.0005732819554395974,0.005152459722012281,-0.25364798307418823,0.035731397569179535,-0.002849450334906578,0.021564288064837456,0,0,-1002,36,-1,21,-4,-2,-152,1500.0
18:45:51.925,AUTO,-35.363262,149.1652366,26094,-0.0005732819554395974,0.005152459722012281,-0.25364798307418823,0.035731397569179535,-0.002849450334906578,0.021564288064837456,0,0,-1002,36,-1,21,-4,-2,-152,1500.0
18:45:52.128,AUTO,-35.363262,149.1652366,26094,-0.0005732819554395974,0.005152459722012281,-0.25364798307418823,0.035731397569179535,-0.002849450334906578,0.021564288064837456,0,0,-1002,36,-1,21,-4,-2,-152,1500.0
18:45:52.330,AUTO,-35.3632624,149.1652367,28434,0.007809968665242195,0.0014177403645589948,-0.216531902551651,-0.006330042611807585,0.000622011604718864,0.021510684862732887,1,0,-1000,-5,1,21,-1,8,-152,1500.0
18:45:52.534,AUTO,-35.3632624,149.1652371,29213,0.0036113678943365812,0.0014995435485616326,-0.2060534507036209,-0.00782051682472229,0.0003725510905496776,0.021782148629426956,1,-1,-1000,-6,1,21,0,9,-152,1500.0
18:45:52.737,AUTO,-35.3632624,149.1652371,29213,0.0036113678943365812,0.0014995435485616326,-0.2060534507036209,-0.00782051682472229,0.0003725510905496776,0.021782148629426956,1,-1,-1000,-6,1,21,0,9,-152,1500.0
18:45:52.938,AUTO,-35.3632624,149.1652371,29213,0.0036113678943365812,0.0014995435485616326,-0.2060534507036209,-0.00782051682472229,0.0003725510905496776,0.021782148629426956,1,-1,-1000,-6,1,21,0,9,-152,1500.0
18:45:53.141,AUTO,-35.3632624,149.1652371,29213,0.0036113678943365812,0.0014995435485616326,-0.2060534507036209,-0.00782051682472229,0.0003725510905496776,0.021782148629426956,1,-1,-1000,-6,1,21,0,9,-152,1500.0
18:45:53.342,AUTO,-35.3632624,149.1652371,29213,0.0036113678943365812,0.0014995435485616326,-0.2060534507036209,-0.00782051682472229,0.0003725510905496776,0.021782148629426956,1,-1,-1000,-6,1,21,0,9,-152,1500.0
18:45:53.544,AUTO,-35.3632624,149.1652371,29213,0.0036113678943365812,0.0014995435485616326,-0.2060534507036209,-0.00782051682472229,0.0003725510905496776,0.021782148629426956,1,-1,-1000,-6,1,21,0,9,-152,1500.0
18:45:53.745,AUTO,-35.3632624,149.1652371,29213,0.0036113678943365812,0.0014995435485616326,-0.2060534507036209,-0.00782051682472229,0.0003725510905496776,0.021782148629426956,1,-1,-1000,-6,1,21,0,9,-152,1500.0
18:45:53.947,AUTO,-35.3632624,149.1652371,29213,0.0036113678943365812,0.0014995435485616326,-0.2060534507036209,-0.00782051682472229,0.0003725510905496776,0.021782148629426956,1,-1,-1000,-6,1,21,0,9,-152,1500.0
18:45:54.148,AUTO,-35.3632624,149.1652378,31158,-0.0008668163209222257,0.001574636553414166,-0.1829824447631836,0.004078855738043785,0.0009994115680456161,0.016707725822925568,0,-1,-1001,0,-1,17,0,5,-152,1500.0
18:45:54.350,AUTO,-35.3632624,149.1652379,31945,-0.0006519109010696411,0.0013511611614376307,-0.17465223371982574,0.002313009463250637,0.0006340151885524392,0.016581570729613304,0,0,-1000,3,1,16,0,3,-152,1500.0
18:45:54.551,AUTO,-35.3632623,149.165238,32335,-0.0004985578707419336,0.0011545529123395681,-0.1708521544933319,-0.0017973389476537704,-0.002374404575675726,0.015456470660865307,0,0,-1000,0,-1,15,0,2,-152,1500.0
18:45:54.753,AUTO,-35.3632623,149.165238,32335,-0.0004985578707419336,0.0011545529123395681,-0.1708521544933319,-0.0017973389476537704,-0.002374404575675726,0.015456470660865307,0,0,-1000,0,-1,15,0,2,-152,1500.0
18:45:54.955,AUTO,-35.3632623,149.165238,32335,-0.0004985578707419336,0.0011545529123395681,-0.1708521544933319,-0.0017973389476537704,-0.002374404575675726,0.015456470660865307,0,0,-1000,0,-1,15,0,2,-152,1500.0
18:45:55.175,AUTO,-35.3632623,149.165238,32335,-0.0004985578707419336,0.0011545529123395681,-0.1708521544933319,-0.0017973389476537704,-0.002374404575675726,0.015456470660865307,0,0,-1000,0,-1,15,0,2,-152,1500.0
18:45:55.378,AUTO,-35.3632623,149.165238,32335,-0.0004985578707419336,0.0011545529123395681,-0.1708521544933319,-0.0017973389476537704,-0.002374404575675726,0.015456470660865307,0,0,-1000,0,-1,15,0,2,-152,1500.0
18:45:55.595,AUTO,-35.3632623,149.165238,32335,-0.0004985578707419336,0.0011545529123395681,-0.1708521544933319,-0.0017973389476537704,-0.002374404575675726,0.015456470660865307,0,0,-1000,0,-1,15,0,2,-152,1500.0
18:45:55.798,AUTO,-35.3632623,149.165238,32335,-0.0004985578707419336,0.0011545529123395681,-0.1708521544933319,-0.0017973389476537704,-0.002374404575675726,0.015456470660865307,0,0,-1000,0,-1,15,0,2,-152,1500.0
18:45:56.013,AUTO,-35.3632623,149.165238,32335,-0.0004985578707419336,0.0011545529123395681,-0.1708521544933319,-0.0017973389476537704,-0.002374404575675726,0.015456470660865307,0,0,-1000,0,-1,15,0,2,-152,1500.0
18:45:56.216,AUTO,-35.3632623,149.165238,34674,0.0012653499143198133,0.001412721467204392,-0.15025295317173004,0.0013301479630172253,0.0009268684079870582,0.010463347658514977,0,0,-1000,2,2,10,0,0,-152,1500.0
18:45:56.418,AUTO,-35.3632622,149.1652379,35064,0.001240070560015738,0.0012483418686315417,-0.1472252905368805,-0.0011938977986574173,-0.001653806772083044,0.012874681502580643,0,0,-1000,0,0,12,0,0,-152,1500.0
18:45:56.619,AUTO,-35.3632622,149.1652379,35453,0.001320642069913447,0.0010439851321280003,-0.14402827620506287,0.0006088238442316651,-0.000429780688136816,0.012557053938508034,0,0,-1000,1,0,12,0,0,-152,1500.0
18:45:56.820,AUTO,-35.3632622,149.1652379,35453,0.001320642069913447,0.0010439851321280003,-0.14402827620506287,0.0006088238442316651,-0.000429780688136816,0.012557053938508034,0,0,-1000,1,0,12,0,0,-152,1500.0
18:45:57.022,AUTO,-35.3632622,149.1652379,35453,0.001320642069913447,0.0010439851321280003,-0.14402827620506287,0.0006088238442316651,-0.000429780688136816,0.012557053938508034,0,0,-1000,1,0,12,0,0,-152,1500.0
18:45:57.223,AUTO,-35.3632622,149.1652379,35453,0.001320642069913447,0.0010439851321280003,-0.14402827620506287,0.0006088238442316651,-0.000429780688136816,0.012557053938508034,0,0,-1000,1,0,12,0,0,-152,1500.0
18:45:57.426,AUTO,-35.3632622,149.1652379,35453,0.001320642069913447,0.0010439851321280003,-0.14402827620506287,0.0006088238442316651,-0.000429780688136816,0.012557053938508034,0,0,-1000,1,0,12,0,0,-152,1500.0
18:45:57.629,AUTO,-35.3632622,149.1652379,35453,0.001320642069913447,0.0010439851321280003,-0.14402827620506287,0.0006088238442316651,-0.000429780688136816,0.012557053938508034,0,0,-1000,1,0,12,0,0,-152,1500.0
18:45:57.831,AUTO,-35.3632622,149.1652379,35453,0.001320642069913447,0.0010439851321280003,-0.14402827620506287,0.0006088238442316651,-0.000429780688136816,0.012557053938508034,0,0,-1000,1,0,12,0,0,-152,1500.0
18:45:58.032,AUTO,-35.3632622,149.1652379,35453,0.001320642069913447,0.0010439851321280003,-0.14402827620506287,0.0006088238442316651,-0.000429780688136816,0.012557053938508034,0,0,-1000,1,0,12,0,0,-152,1500.0
18:45:58.233,AUTO,-35.3632622,149.1652376,37793,0.0025254259817302227,0.0015332797775045037,-0.1291000097990036,-0.001541721634566784,0.00022762618027627468,0.009940269403159618,0,0,-999,0,1,9,0,0,-152,1500.0
18:45:58.435,AUTO,-35.3632621,149.1652376,38181,0.0026296309661120176,0.0015011682407930493,-0.12689459323883057,0.002189577091485262,0.0004448120016604662,0.010844353586435318,0,0,-1000,3,1,10,0,0,-152,1500.0
18:45:58.636,AUTO,-35.3632621,149.1652375,38571,0.002496847417205572,0.001679017674177885,-0.12464279681444168,-0.004549582023173571,-0.0001378550659865141,0.008717297576367855,0,0,-999,-3,1,8,0,0,-152,1500.0
18:45:58.837,AUTO,-35.3632621,149.1652375,38571,0.002496847417205572,0.001679017674177885,-0.12464279681444168,-0.004549582023173571,-0.0001378550659865141,0.008717297576367855,0,0,-999,-3,1,8,0,0,-152,1500.0
18:45:59.039,AUTO,-35.3632621,149.1652375,38571,0.002496847417205572,0.001679017674177885,-0.12464279681444168,-0.004549582023173571,-0.0001378550659865141,0.008717297576367855,0,0,-999,-3,1,8,0,0,-152,1500.0
18:45:59.241,AUTO,-35.3632621,149.1652375,38571,0.002496847417205572,0.001679017674177885,-0.12464279681444168,-0.004549582023173571,-0.0001378550659865141,0.008717297576367855,0,0,-999,-3,1,8,0,0,-152,1500.0
18:45:59.442,AUTO,-35.3632621,149.1652375,38571,0.002496847417205572,0.001679017674177885,-0.12464279681444168,-0.004549582023173571,-0.0001378550659865141,0.008717297576367855,0,0,-999,-3,1,8,0,0,-152,1500.0
18:45:59.644,AUTO,-35.3632621,149.1652375,38571,0.002496847417205572,0.001679017674177885,-0.12464279681444168,-0.004549582023173571,-0.0001378550659865141,0.008717297576367855,0,0,-999,-3,1,8,0,0,-152,1500.0
18:45:59.845,AUTO,-35.3632621,149.1652375,38571,0.002496847417205572,0.001679017674177885,-0.12464279681444168,-0.004549582023173571,-0.0001378550659865141,0.008717297576367855,0,0,-999,-3,1,8,0,0,-152,1500.0
18:46:00.046,AUTO,-35.3632621,149.1652375,38571,0.0023778665345162153,0.0016712164506316185,-0.11933773756027222,0.0052636899054050446,0.003125685267150402,0.008371219038963318,0,0,-999,-3,1,8,0,0,-152,1500.0
18:46:00.252,AUTO,-35.3632621,149.1652374,40361,0.002093232935294509,0.0014138751430436969,-0.115728959441185,0.00043032027315348387,-0.00047046487452462316,0.008554129861295223,0,0,-1000,1,0,8,-1,1,-152,1500.0
18:46:00.454,AUTO,-35.3632621,149.1652374,41529,0.002009786432608962,0.0017287364462390542,-0.11044562608003616,0.0011780154891312122,0.0010370387462899089,0.007432735525071621,0,0,-1000,2,2,7,-1,1,-152,1500.0
18:46:00.665,AUTO,-35.3632621,149.1652374,41529,0.002009786432608962,0.0017287364462390542,-0.11044562608003616,0.0011780154891312122,0.0010370387462899089,0.007432735525071621,0,0,-1000,2,2,7,-1,1,-152,1500.0
18:46:00.903,AUTO,-35.3632621,149.1652374,41529,0.002009786432608962,0.0017287364462390542,-0.11044562608003616,0.0011780154891312122,0.0010370387462899089,0.007432735525071621,0,0,-1000,2,2,7,-1,1,-152,1500.0
18:46:01.105,AUTO,-35.3632621,149.1652374,41529,0.002009786432608962,0.0017287364462390542,-0.11044562608003616,0.0011780154891312122,0.0010370387462899089,0.007432735525071621,0,0,-1000,2,2,7,-1,1,-152,1500.0
18:46:01.348,AUTO,-35.3632621,149.1652374,41529,0.002009786432608962,0.0017287364462390542,-0.11044562608003616,0.0011780154891312122,0.0010370387462899089,0.007432735525071621,0,0,-1000,2,2,7,-1,1,-152,1500.0
18:46:01.552,AUTO,-35.3632621,149.1652374,41529,0.002009786432608962,0.0017287364462390542,-0.11044562608003616,0.0011780154891312122,0.0010370387462899089,0.007432735525071621,0,0,-1000,2,2,7,-1,1,-152,1500.0
18:46:01.754,AUTO,-35.3632621,149.1652374,41529,0.002009786432608962,0.0017287364462390542,-0.11044562608003616,0.0011780154891312122,0.0010370387462899089,0.007432735525071621,0,0,-1000,2,2,7,-1,1,-152,1500.0
18:46:01.956,AUTO,-35.3632621,149.1652374,41529,0.002009786432608962,0.0017287364462390542,-0.11044562608003616,0.0011780154891312122,0.0010370387462899089,0.007432735525071621,0,0,-1000,2,2,7,-1,1,-152,1500.0
18:46:02.158,AUTO,-35.363262,149.1652373,43872,0.0017243950860574841,0.0012948826188221574,-0.10104852169752121,-0.0010453681461513042,-0.0018982073524966836,0.005736298859119415,0,0,-1000,0,0,5,-1,1,-152,1500.0
18:46:02.359,AUTO,-35.363262,149.1652373,44261,0.0016292085638269782,0.0012080944143235683,-0.09927303344011307,0.0016276269452646375,0.0010933103039860725,0.0084558529779315,0,0,-999,2,2,8,-1,1,-152,1500.0
18:46:02.560,AUTO,-35.363262,149.1652373,44651,0.0014365839306265116,0.001216708216816187,-0.09781917184591293,-0.002016632352024317,-0.000611664610914886,0.006965050473809242,0,0,-1000,0,0,7,-1,1,-152,1500.0
18:46:02.761,AUTO,-35.363262,149.1652373,44651,0.0014365839306265116,0.001216708216816187,-0.09781917184591293,-0.002016632352024317,-0.000611664610914886,0.006965050473809242,0,0,-1000,0,0,7,-1,1,-152,1500.0
18:46:02.964,AUTO,-35.363262,149.1652373,44651,0.0014365839306265116,0.001216708216816187,-0.09781917184591293,-0.002016632352024317,-0.000611664610914886,0.006965050473809242,0,0,-1000,0,0,7,-1,1,-152,1500.0
18:46:03.169,AUTO,-35.363262,149.1652373,44651,0.0014365839306265116,0.001216708216816187,-0.09781917184591293,-0.002016632352024317,-0.000611664610914886,0.006965050473809242,0,0,-1000,0,0,7,-1,1,-152,1500.0
18:46:03.372,AUTO,-35.363262,149.1652373,44651,0.0014365839306265116,0.001216708216816187,-0.09781917184591293,-0.002016632352024317,-0.000611664610914886,0.006965050473809242,0,0,-1000,0,0,7,-1,1,-152,1500.0
18:46:03.575,AUTO,-35.363262,149.1652373,44651,0.0014365839306265116,0.001216708216816187,-0.09781917184591293,-0.002016632352024317,-0.000611664610914886,0.006965050473809242,0,0,-1000,0,0,7,-1,1,-152,1500.0
18:46:03.776,AUTO,-35.363262,149.1652373,44651,0.0014365839306265116,0.001216708216816187,-0.09781917184591293,-0.002016632352024317,-0.000611664610914886,0.006965050473809242,0,0,-1000,0,0,7,-1,1,-152,1500.0
18:46:07.351,AUTO,-35.363262,149.1652373,44651,0.0014365839306265116,0.001216708216816187,-0.09781917184591293,-0.002016632352024317,-0.000611664610914886,0.006965050473809242,0,0,-1000,0,0,7,-1,1,-152,1500.0
18:46:07.552,AUTO,-35.363262,149.1652373,46989,0.002009821590036154,0.0013280033599585295,-0.08878530561923981,-0.012125751934945583,0.005659081041812897,0.027692481875419617,0,0,-994,-10,6,28,-1,1,-152,1500.0
18:46:07.754,AUTO,-35.363262,149.1652372,47370,-0.01566970907151699,0.019252240657806396,-0.04912771284580231,-0.11061101406812668,0.11351426690816879,0.2711251676082611,0,0,-969,-109,114,271,-3,0,-146,1500.0
18:46:07.966,AUTO,-35.3632621,149.1652371,47732,-0.04637129604816437,0.055071644484996796,0.05504012107849121,-0.15970608592033386,0.1325054168701172,0.5428500175476074,-2,1,-973,-158,133,543,-11,-8,-138,1500.0
18:46:08.176,AUTO,-35.3632621,149.1652371,47732,-0.04637129604816437,0.055071644484996796,0.05504012107849121,-0.15970608592033386,0.1325054168701172,0.5428500175476074,-2,1,-973,-158,133,543,-11,-8,-138,1500.0
18:46:08.392,AUTO,-35.3632621,149.1652371,47732,-0.04637129604816437,0.055071644484996796,0.05504012107849121,-0.15970608592033386,0.1325054168701172,0.5428500175476074,-2,1,-973,-158,133,543,-11,-8,-138,1500.0
18:46:08.619,AUTO,-35.3632621,149.1652371,47732,-0.04637129604816437,0.055071644484996796,0.05504012107849121,-0.15970608592033386,0.1325054168701172,0.5428500175476074,-2,1,-973,-158,133,543,-11,-8,-138,1500.0
18:46:08.835,AUTO,-35.3632621,149.1652371,47732,-0.04637129604816437,0.055071644484996796,0.05504012107849121,-0.15970608592033386,0.1325054168701172,0.5428500175476074,-2,1,-973,-158,133,543,-11,-8,-138,1500.0
18:46:09.074,AUTO,-35.3632621,149.1652371,47732,-0.04637129604816437,0.055071644484996796,0.05504012107849121,-0.15970608592033386,0.1325054168701172,0.5428500175476074,-2,1,-973,-158,133,543,-11,-8,-138,1500.0
18:46:09.278,AUTO,-35.3632646,149.165233,49093,0.028729857876896858,-0.054373688995838165,0.3054227828979492,0.039454467594623566,-0.014628468081355095,-0.006859404034912586,2,8,-956,79,-63,27,-11,-22,-76,1500.0
