time_stamp,MODE,lat,lon,relative_alt,roll,pitch,yaw,rollspeed,pitchspeed,yawspeed,xacc,yacc,zacc,xgyro,ygyro,zgyro,vx,vy,vz,RTL_ALT
17:52:22.236,STABILIZE,-35.3632621,149.1652374,0,-0.000269737298367545,0.0013876105658710003,0.02651873044669628,0.000149775471072644,0.0003425374743528664,0.0020760318730026484,0,1,-1000,0,0,0,-2,1,0,1500.0
17:52:22.439,STABILIZE,-35.3632621,149.1652374,0,-0.000269737298367545,0.0013876105658710003,0.02651873044669628,0.000149775471072644,0.0003425374743528664,0.0020760318730026484,0,1,-1000,0,0,0,-2,1,0,1500.0
17:52:22.640,STABILIZE,-35.3632621,149.1652374,0,-0.000269737298367545,0.0013876105658710003,0.02651873044669628,0.000149775471072644,0.0003425374743528664,0.0020760318730026484,0,1,-1000,0,0,0,-2,1,0,1500.0
17:52:22.842,STABILIZE,-35.3632621,149.1652374,0,-0.000269737298367545,0.0013876105658710003,0.02651873044669628,0.000149775471072644,0.0003425374743528664,0.0020760318730026484,0,1,-1000,0,0,0,-2,1,0,1500.0
17:52:23.044,STABILIZE,-35.3632621,149.1652374,0,-0.000269737298367545,0.0013876105658710003,0.02651873044669628,0.000149775471072644,0.0003425374743528664,0.0020760318730026484,0,1,-1000,0,0,0,-2,1,0,1500.0
17:52:23.247,STABILIZE,-35.3632621,149.1652374,0,-0.000269737298367545,0.0013876105658710003,0.02651873044669628,0.000149775471072644,0.0003425374743528664,0.0020760318730026484,0,1,-1000,0,0,0,-2,1,0,1500.0
17:52:23.451,STABILIZE,-35.3632621,149.1652374,0,-0.000269737298367545,0.0013876105658710003,0.02651873044669628,0.000149775471072644,0.0003425374743528664,0.0020760318730026484,0,1,-1000,0,0,0,-2,1,0,1500.0
17:52:23.653,STABILIZE,-35.3632621,149.1652374,0,-0.000269737298367545,0.0013876105658710003,0.02651873044669628,0.000149775471072644,0.0003425374743528664,0.0020760318730026484,0,1,-1000,0,0,0,-2,1,0,1500.0
17:52:23.856,STABILIZE,-35.3632622,149.1652375,0,-0.0005004375707358122,0.001181735540740192,0.025991253554821014,0.0003069565282203257,0.00023378149489872158,0.0021030509378761053,0,1,-1000,0,0,0,-1,1,0,1500.0
17:52:24.062,STABILIZE,-35.3632622,149.1652375,0,-0.0005004375707358122,0.001181735540740192,0.025991253554821014,0.0003069565282203257,0.00023378149489872158,0.0021030509378761053,0,1,-1000,0,0,0,-1,1,0,1500.0
17:52:24.276,STABILIZE,-35.3632622,149.1652375,0,-0.0005004375707358122,0.001181735540740192,0.025991253554821014,0.0003069565282203257,0.00023378149489872158,0.0021030509378761053,0,1,-1000,0,0,0,-1,1,0,1500.0
17:52:24.477,STABILIZE,-35.3632622,149.1652375,0,-0.0005004375707358122,0.001181735540740192,0.025991253554821014,0.0003069565282203257,0.00023378149489872158,0.0021030509378761053,0,1,-1000,0,0,0,-1,1,0,1500.0
17:52:24.679,STABILIZE,-35.3632622,149.1652375,0,-0.0005004375707358122,0.001181735540740192,0.025991253554821014,0.0003069565282203257,0.00023378149489872158,0.0021030509378761053,0,1,-1000,0,0,0,-1,1,0,1500.0
17:52:24.882,STABILIZE,-35.3632622,149.1652375,0,-0.0005004375707358122,0.001181735540740192,0.025991253554821014,0.0003069565282203257,0.00023378149489872158,0.0021030509378761053,0,1,-1000,0,0,0,-1,1,0,1500.0
17:52:25.084,STABILIZE,-35.3632622,149.1652375,0,-0.0005004375707358122,0.001181735540740192,0.025991253554821014,0.0003069565282203257,0.00023378149489872158,0.0021030509378761053,0,1,-1000,0,0,0,-1,1,0,1500.0
17:52:25.285,STABILIZE,-35.3632622,149.1652375,0,-0.0005004375707358122,0.001181735540740192,0.025991253554821014,0.0003069565282203257,0.00023378149489872158,0.0021030509378761053,0,1,-1000,0,0,0,-1,1,0,1500.0
17:52:25.488,STABILIZE,-35.3632622,149.1652375,0,-0.0005004375707358122,0.001181735540740192,0.025991253554821014,0.0003069565282203257,0.00023378149489872158,0.0021030509378761053,0,1,-1000,0,0,0,-1,1,0,1500.0
17:52:25.689,STABILIZE,-35.3632622,149.1652375,0,-0.0005004375707358122,0.001181735540740192,0.025991253554821014,0.0003069565282203257,0.00023378149489872158,0.0021030509378761053,0,1,-1000,0,0,0,-1,1,0,1500.0
17:52:25.890,STABILIZE,-35.3632622,149.1652375,0,-0.0008832188323140144,0.0009477788698859513,0.02510140649974346,0.00022402213653549552,0.00014518073294311762,0.0019886225927621126,0,1,-1000,0,1,0,-1,0,-3,1500.0
17:52:26.091,STABILIZE,-35.3632622,149.1652375,0,-0.0008832188323140144,0.0009477788698859513,0.02510140649974346,0.00022402213653549552,0.00014518073294311762,0.0019886225927621126,0,1,-1000,0,1,0,-1,0,-3,1500.0
17:52:26.295,STABILIZE,-35.3632622,149.1652375,0,-0.0008832188323140144,0.0009477788698859513,0.02510140649974346,0.00022402213653549552,0.00014518073294311762,0.0019886225927621126,0,1,-1000,0,1,0,-1,0,-3,1500.0
17:52:26.496,STABILIZE,-35.3632622,149.1652375,0,-0.0008832188323140144,0.0009477788698859513,0.02510140649974346,0.00022402213653549552,0.00014518073294311762,0.0019886225927621126,0,1,-1000,0,1,0,-1,0,-3,1500.0
17:52:26.697,STABILIZE,-35.3632622,149.1652375,0,-0.0008832188323140144,0.0009477788698859513,0.02510140649974346,0.00022402213653549552,0.00014518073294311762,0.0019886225927621126,0,1,-1000,0,1,0,-1,0,-3,1500.0
17:52:26.898,STABILIZE,-35.3632622,149.1652375,0,-0.0008832188323140144,0.0009477788698859513,0.02510140649974346,0.00022402213653549552,0.00014518073294311762,0.0019886225927621126,0,1,-1000,0,1,0,-1,0,-3,1500.0
17:52:27.103,STABILIZE,-35.3632622,149.1652375,0,-0.0008832188323140144,0.0009477788698859513,0.02510140649974346,0.00022402213653549552,0.00014518073294311762,0.0019886225927621126,0,1,-1000,0,1,0,-1,0,-3,1500.0
17:52:27.305,STABILIZE,-35.3632622,149.1652375,0,-0.0008832188323140144,0.0009477788698859513,0.02510140649974346,0.00022402213653549552,0.00014518073294311762,0.0019886225927621126,0,1,-1000,0,1,0,-1,0,-3,1500.0
17:52:27.507,STABILIZE,-35.3632622,149.1652375,0,-0.0008832188323140144,0.0009477788698859513,0.02510140649974346,0.00022402213653549552,0.00014518073294311762,0.0019886225927621126,0,1,-1000,0,1,0,-1,0,-3,1500.0
17:52:27.710,STABILIZE,-35.3632622,149.1652375,0,-0.0008832188323140144,0.0009477788698859513,0.02510140649974346,0.00022402213653549552,0.00014518073294311762,0.0019886225927621126,0,1,-1000,0,1,0,-1,0,-3,1500.0
17:52:27.913,STABILIZE,-35.3632622,149.1652375,0,-0.0008832188323140144,0.0009477788698859513,0.02510140649974346,0.00022402213653549552,0.00014518073294311762,0.0019886225927621126,0,1,-1000,0,1,0,-1,0,-3,1500.0
17:52:28.114,AUTO,-35.3632622,149.1652375,9,-0.0006039742147549987,0.0009489586809650064,0.023986613377928734,0.0002904683933593333,0.0002014498459175229,0.0018454794771969318,0,1,-1000,0,0,1,-1,1,-1,1500.0
17:52:28.327,AUTO,-35.3632622,149.1652375,9,-0.0006039742147549987,0.0009489586809650064,0.023986613377928734,0.0002904683933593333,0.0002014498459175229,0.0018454794771969318,0,1,-1000,0,0,1,-1,1,-1,1500.0
17:52:28.529,AUTO,-35.3632622,149.1652375,9,-0.0006039742147549987,0.0009489586809650064,0.023986613377928734,0.0002904683933593333,0.0002014498459175229,0.0018454794771969318,0,1,-1000,0,0,1,-1,1,-1,1500.0
17:52:28.734,AUTO,-35.3632622,149.1652375,9,-0.0006039742147549987,0.0009489586809650064,0.023986613377928734,0.0002904683933593333,0.0002014498459175229,0.0018454794771969318,0,1,-1000,0,0,1,-1,1,-1,1500.0
17:52:28.936,AUTO,-35.3632622,149.1652375,9,-0.0006039742147549987,0.0009489586809650064,0.023986613377928734,0.0002904683933593333,0.0002014498459175229,0.0018454794771969318,0,1,-1000,0,0,1,-1,1,-1,1500.0
17:52:29.140,AUTO,-35.3632622,149.1652375,9,-0.0006039742147549987,0.0009489586809650064,0.023986613377928734,0.0002904683933593333,0.0002014498459175229,0.0018454794771969318,0,1,-1000,0,0,1,-1,1,-1,1500.0
17:52:29.349,AUTO,-35.3632622,149.1652375,9,-0.0006039742147549987,0.0009489586809650064,0.023986613377928734,0.0002904683933593333,0.0002014498459175229,0.0018454794771969318,0,1,-1000,0,0,1,-1,1,-1,1500.0
17:52:29.554,AUTO,-35.3632622,149.1652375,9,-0.0006039742147549987,0.0009489586809650064,0.023986613377928734,0.0002904683933593333,0.0002014498459175229,0.0018454794771969318,0,1,-1000,0,0,1,-1,1,-1,1500.0
17:52:29.761,AUTO,-35.3632622,149.1652375,9,-0.0006039742147549987,0.0009489586809650064,0.023986613377928734,0.0002904683933593333,0.0002014498459175229,0.0018454794771969318,0,1,-1000,0,0,1,-1,1,-1,1500.0
17:52:29.964,AUTO,-35.3632622,149.1652375,9,-0.0006325613940134645,0.0009892740054056048,0.023613061755895615,0.0002560247667133808,0.0002527727629058063,0.0017805089009925723,0,1,-1000,0,0,0,-1,1,0,1500.0
17:52:30.166,AUTO,-35.3632622,149.1652375,8,-0.00048708630492910743,0.0011849054135382175,0.023279353976249695,0.00023970199981704354,0.00018250610446557403,0.001642006915062666,0,2,-1000,0,0,0,0,0,0,1500.0
17:52:30.368,AUTO,-35.3632622,149.1652375,8,-0.00048708630492910743,0.0011849054135382175,0.023279353976249695,0.00023970199981704354,0.00018250610446557403,0.001642006915062666,0,2,-1000,0,0,0,0,0,0,1500.0
17:52:30.570,AUTO,-35.3632622,149.1652375,8,-0.00048708630492910743,0.0011849054135382175,0.023279353976249695,0.00023970199981704354,0.00018250610446557403,0.001642006915062666,0,2,-1000,0,0,0,0,0,0,1500.0
17:52:30.779,AUTO,-35.3632622,149.1652375,8,-0.00048708630492910743,0.0011849054135382175,0.023279353976249695,0.00023970199981704354,0.00018250610446557403,0.001642006915062666,0,2,-1000,0,0,0,0,0,0,1500.0
17:52:30.982,AUTO,-35.3632622,149.1652375,8,-0.00048708630492910743,0.0011849054135382175,0.023279353976249695,0.00023970199981704354,0.00018250610446557403,0.001642006915062666,0,2,-1000,0,0,0,0,0,0,1500.0
17:52:31.186,AUTO,-35.3632622,149.1652375,8,-0.00048708630492910743,0.0011849054135382175,0.023279353976249695,0.00023970199981704354,0.00018250610446557403,0.001642006915062666,0,2,-1000,0,0,0,0,0,0,1500.0
17:52:31.388,AUTO,-35.3632622,149.1652375,8,-0.00048708630492910743,0.0011849054135382175,0.023279353976249695,0.00023970199981704354,0.00018250610446557403,0.001642006915062666,0,2,-1000,0,0,0,0,0,0,1500.0
17:52:31.594,AUTO,-35.3632622,149.1652375,8,-0.00048708630492910743,0.0011849054135382175,0.023279353976249695,0.00023970199981704354,0.00018250610446557403,0.001642006915062666,0,2,-1000,0,0,0,0,0,0,1500.0
17:52:31.798,AUTO,-35.3632622,149.1652375,8,-0.00048708630492910743,0.0011849054135382175,0.023279353976249695,0.00023970199981704354,0.00018250610446557403,0.001642006915062666,0,2,-1000,0,0,0,0,0,0,1500.0
17:52:32.000,AUTO,-35.3632622,149.1652375,6,-0.0001741661544656381,0.0015350899193435907,0.022781603038311005,0.0003701216191984713,0.0002541380235925317,0.0017073857598006725,0,2,-1000,0,0,0,0,0,0,1500.0
17:52:32.203,AUTO,-35.3632622,149.1652375,4,4.663473373511806e-05,0.001751700765453279,0.022466173395514488,0.000566112925298512,0.000248060270678252,0.001676333835348487,0,1,-1000,1,0,0,0,0,0,1500.0
17:52:32.404,AUTO,-35.3632622,149.1652375,4,4.663473373511806e-05,0.001751700765453279,0.022466173395514488,0.000566112925298512,0.000248060270678252,0.001676333835348487,0,1,-1000,1,0,0,0,0,0,1500.0
17:52:32.620,AUTO,-35.3632622,149.1652375,4,4.663473373511806e-05,0.001751700765453279,0.022466173395514488,0.000566112925298512,0.000248060270678252,0.001676333835348487,0,1,-1000,1,0,0,0,0,0,1500.0
17:52:32.825,AUTO,-35.3632622,149.1652375,4,4.663473373511806e-05,0.001751700765453279,0.022466173395514488,0.000566112925298512,0.000248060270678252,0.001676333835348487,0,1,-1000,1,0,0,0,0,0,1500.0
17:52:33.026,AUTO,-35.3632622,149.1652375,4,4.663473373511806e-05,0.001751700765453279,0.022466173395514488,0.000566112925298512,0.000248060270678252,0.001676333835348487,0,1,-1000,1,0,0,0,0,0,1500.0
17:52:33.229,AUTO,-35.3632622,149.1652375,4,4.663473373511806e-05,0.001751700765453279,0.022466173395514488,0.000566112925298512,0.000248060270678252,0.001676333835348487,0,1,-1000,1,0,0,0,0,0,1500.0
17:52:33.431,AUTO,-35.3632622,149.1652375,4,4.663473373511806e-05,0.001751700765453279,0.022466173395514488,0.000566112925298512,0.000248060270678252,0.001676333835348487,0,1,-1000,1,0,0,0,0,0,1500.0
17:52:33.632,AUTO,-35.3632622,149.1652375,4,4.663473373511806e-05,0.001751700765453279,0.022466173395514488,0.000566112925298512,0.000248060270678252,0.001676333835348487,0,1,-1000,1,0,0,0,0,0,1500.0
17:52:33.836,AUTO,-35.3632621,149.1652375,601,0.0016315191751345992,0.0016059543704614043,0.02225557342171669,-0.002361153718084097,0.0005120959249325097,0.000986800529062748,0,0,-1095,-1,1,0,0,0,-117,1500.0
17:52:34.039,AUTO,-35.3632619,149.1652379,2032,0.041882120072841644,-0.004447401035577059,0.02163160778582096,0.04328116402029991,-0.008752448484301567,0.0031186682172119617,0,-2,-1004,43,-8,2,2,17,-147,1500.0
17:52:34.241,AUTO,-35.3632619,149.1652379,2032,0.041882120072841644,-0.004447401035577059,0.02163160778582096,0.04328116402029991,-0.008752448484301567,0.0031186682172119617,0,-2,-1004,43,-8,2,2,17,-147,1500.0
17:52:34.443,AUTO,-35.3632619,149.1652379,2032,0.041882120072841644,-0.004447401035577059,0.02163160778582096,0.04328116402029991,-0.008752448484301567,0.0031186682172119617,0,-2,-1004,43,-8,2,2,17,-147,1500.0
17:52:34.646,AUTO,-35.3632619,149.1652379,2032,0.041882120072841644,-0.004447401035577059,0.02163160778582096,0.04328116402029991,-0.008752448484301567,0.0031186682172119617,0,-2,-1004,43,-8,2,2,17,-147,1500.0
17:52:34.851,AUTO,-35.3632619,149.1652379,2032,0.041882120072841644,-0.004447401035577059,0.02163160778582096,0.04328116402029991,-0.008752448484301567,0.0031186682172119617,0,-2,-1004,43,-8,2,2,17,-147,1500.0
17:52:35.054,AUTO,-35.3632619,149.1652379,2032,0.041882120072841644,-0.004447401035577059,0.02163160778582096,0.04328116402029991,-0.008752448484301567,0.0031186682172119617,0,-2,-1004,43,-8,2,2,17,-147,1500.0
17:52:35.255,AUTO,-35.3632619,149.1652379,2032,0.041882120072841644,-0.004447401035577059,0.02163160778582096,0.04328116402029991,-0.008752448484301567,0.0031186682172119617,0,-2,-1004,43,-8,2,2,17,-147,1500.0
17:52:35.458,AUTO,-35.3632619,149.1652379,2032,0.041882120072841644,-0.004447401035577059,0.02163160778582096,0.04328116402029991,-0.008752448484301567,0.0031186682172119617,0,-2,-1004,43,-8,2,2,17,-147,1500.0
17:52:35.661,AUTO,-35.363261,149.1652442,4169,-0.030197562649846077,0.03217499703168869,-0.08358024805784225,-0.038851674646139145,0.023332443088293076,-0.09513149410486221,5,-12,-1010,-119,27,-100,0,44,-147,1500.0
17:52:35.863,AUTO,-35.3632609,149.1652452,4553,-0.039684899151325226,0.02981646917760372,-0.09938264638185501,-0.04766594246029854,-0.04010342061519623,-0.035920046269893646,6,-7,-1003,-47,-39,-36,-6,33,-148,1500.0
17:52:36.064,AUTO,-35.3632611,149.1652459,4937,-0.05509163439273834,0.010001500137150288,-0.09639889001846313,-0.06640530377626419,-0.10371862351894379,0.03473209962248802,6,-4,-1001,-65,-103,34,-11,20,-148,1500.0
17:52:36.266,AUTO,-35.3632611,149.1652459,4937,-0.05509163439273834,0.010001500137150288,-0.09639889001846313,-0.06640530377626419,-0.10371862351894379,0.03473209962248802,6,-4,-1001,-65,-103,34,-11,20,-148,1500.0
17:52:36.471,AUTO,-35.3632611,149.1652459,4937,-0.05509163439273834,0.010001500137150288,-0.09639889001846313,-0.06640530377626419,-0.10371862351894379,0.03473209962248802,6,-4,-1001,-65,-103,34,-11,20,-148,1500.0
17:52:36.674,AUTO,-35.3632611,149.1652459,4937,-0.05509163439273834,0.010001500137150288,-0.09639889001846313,-0.06640530377626419,-0.10371862351894379,0.03473209962248802,6,-4,-1001,-65,-103,34,-11,20,-148,1500.0
17:52:36.878,AUTO,-35.3632611,149.1652459,4937,-0.05509163439273834,0.010001500137150288,-0.09639889001846313,-0.06640530377626419,-0.10371862351894379,0.03473209962248802,6,-4,-1001,-65,-103,34,-11,20,-148,1500.0
17:52:37.080,AUTO,-35.3632611,149.1652459,4937,-0.05509163439273834,0.010001500137150288,-0.09639889001846313,-0.06640530377626419,-0.10371862351894379,0.03473209962248802,6,-4,-1001,-65,-103,34,-11,20,-148,1500.0
17:52:37.282,AUTO,-35.3632611,149.1652459,4937,-0.05509163439273834,0.010001500137150288,-0.09639889001846313,-0.06640530377626419,-0.10371862351894379,0.03473209962248802,6,-4,-1001,-65,-103,34,-11,20,-148,1500.0
17:52:41.061,AUTO,-35.3632611,149.1652459,4937,-0.05509163439273834,0.010001500137150288,-0.09639889001846313,-0.06640530377626419,-0.10371862351894379,0.03473209962248802,6,-4,-1001,-65,-103,34,-11,20,-148,1500.0
17:52:41.267,AUTO,-35.3632616,149.1652444,6473,-0.04926532506942749,-0.01773618534207344,-0.07937629520893097,0.058275703340768814,0.004601882304996252,0.00401114858686924,-4,7,-1000,58,5,3,1,-45,-148,1500.0
17:52:41.469,AUTO,-35.3632614,149.1652398,7630,-0.002865156624466181,-0.008396496064960957,-0.07871697098016739,0.06532750278711319,0.017702927812933922,0.004958834964782,-8,11,-1003,65,18,4,5,-59,-150,1500.0
17:52:41.671,AUTO,-35.3632613,149.1652382,8019,0.013213593512773514,-0.0038843925576657057,-0.07793387770652771,0.06420058757066727,0.018519055098295212,0.0049226898699998856,-9,11,-1004,64,18,4,5,-56,-150,1500.0
17:52:41.874,AUTO,-35.3632613,149.1652382,8019,0.013213593512773514,-0.0038843925576657057,-0.07793387770652771,0.06420058757066727,0.018519055098295212,0.0049226898699998856,-9,11,-1004,64,18,4,5,-56,-150,1500.0
17:52:42.087,AUTO,-35.3632613,149.1652382,8019,0.013213593512773514,-0.0038843925576657057,-0.07793387770652771,0.06420058757066727,0.018519055098295212,0.0049226898699998856,-9,11,-1004,64,18,4,5,-56,-150,1500.0
17:52:42.290,AUTO,-35.3632613,149.1652382,8019,0.013213593512773514,-0.0038843925576657057,-0.07793387770652771,0.06420058757066727,0.018519055098295212,0.0049226898699998856,-9,11,-1004,64,18,4,5,-56,-150,1500.0
17:52:42.493,AUTO,-35.3632613,149.1652382,8019,0.013213593512773514,-0.0038843925576657057,-0.07793387770652771,0.06420058757066727,0.018519055098295212,0.0049226898699998856,-9,11,-1004,64,18,4,5,-56,-150,1500.0
17:52:42.699,AUTO,-35.3632613,149.1652382,8019,0.013213593512773514,-0.0038843925576657057,-0.07793387770652771,0.06420058757066727,0.018519055098295212,0.0049226898699998856,-9,11,-1004,64,18,4,5,-56,-150,1500.0
17:52:42.901,AUTO,-35.3632613,149.1652382,8019,0.013213593512773514,-0.0038843925576657057,-0.07793387770652771,0.06420058757066727,0.018519055098295212,0.0049226898699998856,-9,11,-1004,64,18,4,5,-56,-150,1500.0
17:52:43.103,AUTO,-35.3632613,149.1652382,8019,0.013213593512773514,-0.0038843925576657057,-0.07793387770652771,0.06420058757066727,0.018519055098295212,0.0049226898699998856,-9,11,-1004,64,18,4,5,-56,-150,1500.0
17:52:43.308,AUTO,-35.3632613,149.1652382,8019,0.013213593512773514,-0.0038843925576657057,-0.07793387770652771,0.06420058757066727,0.018519055098295212,0.0049226898699998856,-9,11,-1004,64,18,4,5,-56,-150,1500.0
17:52:43.515,AUTO,-35.3632611,149.1652337,9979,0.058441195636987686,0.03469086438417435,-0.10062899440526962,-0.024750541895627975,0.0076572485268116,-0.024453401565551758,0,1,-995,-24,8,-24,-8,3,-150,1500.0
17:52:43.723,AUTO,-35.363262,149.1652349,11134,0.007041485048830509,0.0025367652997374535,-0.0946454107761383,-0.06222215294837952,-0.03670170530676842,0.016058793291449547,6,-1,-1002,-61,-36,15,-16,25,-148,1500.0
17:52:43.927,AUTO,-35.363262,149.1652349,11134,0.007041485048830509,0.0025367652997374535,-0.0946454107761383,-0.06222215294837952,-0.03670170530676842,0.016058793291449547,6,-1,-1002,-61,-36,15,-16,25,-148,1500.0
17:52:44.129,AUTO,-35.363262,149.1652349,11134,0.007041485048830509,0.0025367652997374535,-0.0946454107761383,-0.06222215294837952,-0.03670170530676842,0.016058793291449547,6,-1,-1002,-61,-36,15,-16,25,-148,1500.0
17:52:44.332,AUTO,-35.363262,149.1652349,11134,0.007041485048830509,0.0025367652997374535,-0.0946454107761383,-0.06222215294837952,-0.03670170530676842,0.016058793291449547,6,-1,-1002,-61,-36,15,-16,25,-148,1500.0
17:52:44.536,AUTO,-35.363262,149.1652349,11134,0.007041485048830509,0.0025367652997374535,-0.0946454107761383,-0.06222215294837952,-0.03670170530676842,0.016058793291449547,6,-1,-1002,-61,-36,15,-16,25,-148,1500.0
17:52:44.738,AUTO,-35.363262,149.1652349,11134,0.007041485048830509,0.0025367652997374535,-0.0946454107761383,-0.06222215294837952,-0.03670170530676842,0.016058793291449547,6,-1,-1002,-61,-36,15,-16,25,-148,1500.0
17:52:44.942,AUTO,-35.363262,149.1652349,11134,0.007041485048830509,0.0025367652997374535,-0.0946454107761383,-0.06222215294837952,-0.03670170530676842,0.016058793291449547,6,-1,-1002,-61,-36,15,-16,25,-148,1500.0
17:52:45.146,AUTO,-35.363262,149.1652349,11134,0.007041485048830509,0.0025367652997374535,-0.0946454107761383,-0.06222215294837952,-0.03670170530676842,0.016058793291449547,6,-1,-1002,-61,-36,15,-16,25,-148,1500.0
17:52:45.349,AUTO,-35.363262,149.1652349,11134,0.007041485048830509,0.0025367652997374535,-0.0946454107761383,-0.06222215294837952,-0.03670170530676842,0.016058793291449547,6,-1,-1002,-61,-36,15,-16,25,-148,1500.0
17:52:45.551,AUTO,-35.3632629,149.165237,13074,-0.014492946676909924,-0.011148901656270027,-0.10509241372346878,0.009233471006155014,0.00565730594098568,-0.02434821054339409,0,0,-1001,9,6,-24,0,3,-151,1500.0
17:52:45.753,AUTO,-35.3632627,149.1652368,14249,-0.003361328272148967,-0.005069294013082981,-0.12593230605125427,0.019545167684555054,0.009398799389600754,-0.027230704203248024,-2,0,-1001,20,10,-27,5,-6,-152,1500.0
17:52:45.955,AUTO,-35.3632627,149.1652368,14249,-0.003361328272148967,-0.005069294013082981,-0.12593230605125427,0.019545167684555054,0.009398799389600754,-0.027230704203248024,-2,0,-1001,20,10,-27,5,-6,-152,1500.0
17:52:46.157,AUTO,-35.3632627,149.1652368,14249,-0.003361328272148967,-0.005069294013082981,-0.12593230605125427,0.019545167684555054,0.009398799389600754,-0.027230704203248024,-2,0,-1001,20,10,-27,5,-6,-152,1500.0
17:52:46.361,AUTO,-35.3632627,149.1652368,14249,-0.003361328272148967,-0.005069294013082981,-0.12593230605125427,0.019545167684555054,0.009398799389600754,-0.027230704203248024,-2,0,-1001,20,10,-27,5,-6,-152,1500.0
17:52:46.565,AUTO,-35.3632627,149.1652368,14249,-0.003361328272148967,-0.005069294013082981,-0.12593230605125427,0.019545167684555054,0.009398799389600754,-0.027230704203248024,-2,0,-1001,20,10,-27,5,-6,-152,1500.0
17:52:46.768,AUTO,-35.3632627,149.1652368,14249,-0.003361328272148967,-0.005069294013082981,-0.12593230605125427,0.019545167684555054,0.009398799389600754,-0.027230704203248024,-2,0,-1001,20,10,-27,5,-6,-152,1500.0
17:52:46.970,AUTO,-35.3632627,149.1652368,14249,-0.003361328272148967,-0.005069294013082981,-0.12593230605125427,0.019545167684555054,0.009398799389600754,-0.027230704203248024,-2,0,-1001,20,10,-27,5,-6,-152,1500.0
17:52:47.176,AUTO,-35.3632627,149.1652368,14249,-0.003361328272148967,-0.005069294013082981,-0.12593230605125427,0.019545167684555054,0.009398799389600754,-0.027230704203248024,-2,0,-1001,20,10,-27,5,-6,-152,1500.0
17:52:47.380,AUTO,-35.3632623,149.1652361,15420,0.0072252750396728516,0.002657342003658414,-0.14471761882305145,0.008522795513272285,0.008983198553323746,-0.02098831534385681,-2,0,-1001,20,10,-27,6,-6,-152,1500.0
17:52:47.583,AUTO,-35.3632617,149.1652355,16984,0.01078052632510662,0.007982478477060795,-0.16296115517616272,-0.004933908581733704,0.001492281211540103,-0.014386197552084923,-1,0,-999,-4,1,-15,2,0,-152,1500.0
17:52:47.791,AUTO,-35.3632617,149.1652354,17375,0.009811579249799252,0.00796364527195692,-0.1662476807832718,-0.003231331240385771,-0.0018092314712703228,-0.013366586528718472,-1,0,-1000,-2,-1,-13,0,2,-152,1500.0
17:52:47.992,AUTO,-35.3632617,149.1652354,17375,0.009811579249799252,0.00796364527195692,-0.1662476807832718,-0.003231331240385771,-0.0018092314712703228,-0.013366586528718472,-1,0,-1000,-2,-1,-13,0,2,-152,1500.0
17:52:48.194,AUTO,-35.3632617,149.1652354,17375,0.009811579249799252,0.00796364527195692,-0.1662476807832718,-0.003231331240385771,-0.0018092314712703228,-0.013366586528718472,-1,0,-1000,-2,-1,-13,0,2,-152,1500.0
17:52:48.396,AUTO,-35.3632617,149.1652354,17375,0.009811579249799252,0.00796364527195692,-0.1662476807832718,-0.003231331240385771,-0.0018092314712703228,-0.013366586528718472,-1,0,-1000,-2,-1,-13,0,2,-152,1500.0
17:52:48.598,AUTO,-35.3632617,149.1652354,17375,0.009811579249799252,0.00796364527195692,-0.1662476807832718,-0.003231331240385771,-0.0018092314712703228,-0.013366586528718472,-1,0,-1000,-2,-1,-13,0,2,-152,1500.0
17:52:48.799,AUTO,-35.3632617,149.1652354,17375,0.009811579249799252,0.00796364527195692,-0.1662476807832718,-0.003231331240385771,-0.0018092314712703228,-0.013366586528718472,-1,0,-1000,-2,-1,-13,0,2,-152,1500.0
17:52:49.001,AUTO,-35.3632617,149.1652354,17375,0.009811579249799252,0.00796364527195692,-0.1662476807832718,-0.003231331240385771,-0.0018092314712703228,-0.013366586528718472,-1,0,-1000,-2,-1,-13,0,2,-152,1500.0
17:52:49.203,AUTO,-35.3632617,149.1652354,17375,0.009811579249799252,0.00796364527195692,-0.1662476807832718,-0.003231331240385771,-0.0018092314712703228,-0.013366586528718472,-1,0,-1000,-2,-1,-13,0,2,-152,1500.0
17:52:49.406,AUTO,-35.3632615,149.1652357,19329,0.004963535815477371,0.00567752867937088,-0.18239231407642365,0.0001775234122760594,-0.00016691320342943072,-0.015124322846531868,0,0,-1000,-2,-2,-13,-2,6,-152,1500.0
17:52:49.610,AUTO,-35.3632615,149.1652361,20501,0.0026592679787427187,0.0040788655169308186,-0.19383403658866882,-0.0016409389209002256,-0.0019652466289699078,-0.019475769251585007,0,0,-1000,-1,-1,-20,-3,6,-152,1500.0
17:52:49.813,AUTO,-35.3632615,149.1652361,20501,0.0026592679787427187,0.0040788655169308186,-0.19383403658866882,-0.0016409389209002256,-0.0019652466289699078,-0.019475769251585007,0,0,-1000,-1,-1,-20,-3,6,-152,1500.0
17:52:50.014,AUTO,-35.3632615,149.1652361,20501,0.0026592679787427187,0.0040788655169308186,-0.19383403658866882,-0.0016409389209002256,-0.0019652466289699078,-0.019475769251585007,0,0,-1000,-1,-1,-20,-3,6,-152,1500.0
17:52:50.216,AUTO,-35.3632615,149.1652361,20501,0.0026592679787427187,0.0040788655169308186,-0.19383403658866882,-0.0016409389209002256,-0.0019652466289699078,-0.019475769251585007,0,0,-1000,-1,-1,-20,-3,6,-152,1500.0
17:52:50.419,AUTO,-35.3632615,149.1652361,20501,0.0026592679787427187,0.0040788655169308186,-0.19383403658866882,-0.0016409389209002256,-0.0019652466289699078,-0.019475769251585007,0,0,-1000,-1,-1,-20,-3,6,-152,1500.0
17:52:50.624,AUTO,-35.3632615,149.1652361,20501,0.0026592679787427187,0.0040788655169308186,-0.19383403658866882,-0.0016409389209002256,-0.0019652466289699078,-0.019475769251585007,0,0,-1000,-1,-1,-20,-3,6,-152,1500.0
17:52:50.827,AUTO,-35.3632615,149.1652361,20501,0.0026592679787427187,0.0040788655169308186,-0.19383403658866882,-0.0016409389209002256,-0.0019652466289699078,-0.019475769251585007,0,0,-1000,-1,-1,-20,-3,6,-152,1500.0
17:52:51.030,AUTO,-35.3632615,149.1652361,20501,0.0026592679787427187,0.0040788655169308186,-0.19383403658866882,-0.0016409389209002256,-0.0019652466289699078,-0.019475769251585007,0,0,-1000,-1,-1,-20,-3,6,-152,1500.0
17:52:51.234,AUTO,-35.3632615,149.1652361,20501,0.0026592679787427187,0.0040788655169308186,-0.19383403658866882,-0.0016409389209002256,-0.0019652466289699078,-0.019475769251585007,0,0,-1000,-1,-1,-20,-3,6,-152,1500.0
17:52:51.438,AUTO,-35.3632615,149.1652361,20501,0.0026592679787427187,0.0040788655169308186,-0.19383403658866882,-0.0016409389209002256,-0.0019652466289699078,-0.019475769251585007,0,0,-1000,-1,-1,-20,-3,6,-152,1500.0
17:52:51.642,AUTO,-35.3632617,149.1652365,22456,0.0018678205087780952,0.0029027254786342382,-0.21683400869369507,0.0007008925313130021,0.0008309860713779926,-0.020816229283809662,0,0,-1000,1,1,-21,-3,4,-153,1500.0
17:52:51.845,AUTO,-35.3632617,149.1652366,23634,0.0021901715081185102,0.0026567226741462946,-0.2314584106206894,0.0012073931284248829,-0.000640039099380374,-0.021105442196130753,0,0,-1000,1,0,-21,-3,3,-153,1500.0
17:52:52.052,AUTO,-35.3632617,149.1652366,23634,0.0021901715081185102,0.0026567226741462946,-0.2314584106206894,0.0012073931284248829,-0.000640039099380374,-0.021105442196130753,0,0,-1000,1,0,-21,-3,3,-153,1500.0
17:52:52.255,AUTO,-35.3632617,149.1652366,23634,0.0021901715081185102,0.0026567226741462946,-0.2314584106206894,0.0012073931284248829,-0.000640039099380374,-0.021105442196130753,0,0,-1000,1,0,-21,-3,3,-153,1500.0
17:52:52.459,AUTO,-35.3632617,149.1652366,23634,0.0021901715081185102,0.0026567226741462946,-0.2314584106206894,0.0012073931284248829,-0.000640039099380374,-0.021105442196130753,0,0,-1000,1,0,-21,-3,3,-153,1500.0
17:52:52.661,AUTO,-35.3632617,149.1652366,23634,0.0021901715081185102,0.0026567226741462946,-0.2314584106206894,0.0012073931284248829,-0.000640039099380374,-0.021105442196130753,0,0,-1000,1,0,-21,-3,3,-153,1500.0
17:52:52.864,AUTO,-35.3632617,149.1652366,23634,0.0021901715081185102,0.0026567226741462946,-0.2314584106206894,0.0012073931284248829,-0.000640039099380374,-0.021105442196130753,0,0,-1000,1,0,-21,-3,3,-153,1500.0
17:52:53.067,AUTO,-35.3632617,149.1652366,23634,0.0021901715081185102,0.0026567226741462946,-0.2314584106206894,0.0012073931284248829,-0.000640039099380374,-0.021105442196130753,0,0,-1000,1,0,-21,-3,3,-153,1500.0
17:52:53.269,AUTO,-35.3632617,149.1652366,23634,0.0021901715081185102,0.0026567226741462946,-0.2314584106206894,0.0012073931284248829,-0.000640039099380374,-0.021105442196130753,0,0,-1000,1,0,-21,-3,3,-153,1500.0
17:52:53.474,AUTO,-35.3632618,149.1652367,25581,-0.011363801546394825,0.00496124941855669,-0.2510334253311157,0.022761933505535126,0.005878759548068047,0.0011413628235459328,0,0,-1003,23,6,0,-3,-1,-152,1500.0
17:52:53.676,AUTO,-35.3632621,149.1652365,26754,0.011162430047988892,0.003676472930237651,-0.23864854872226715,0.01188535988330841,-0.005252861883491278,0.026511045172810555,0,1,-999,12,-4,26,-5,0,-153,1500.0
17:52:53.879,AUTO,-35.3632621,149.1652365,26754,0.011162430047988892,0.003676472930237651,-0.23864854872226715,0.01188535988330841,-0.005252861883491278,0.026511045172810555,0,1,-999,12,-4,26,-5,0,-153,1500.0
17:52:54.081,AUTO,-35.3632621,149.1652365,26754,0.011162430047988892,0.003676472930237651,-0.23864854872226715,0.01188535988330841,-0.005252861883491278,0.026511045172810555,0,1,-999,12,-4,26,-5,0,-153,1500.0
17:52:54.285,AUTO,-35.3632621,149.1652365,26754,0.011162430047988892,0.003676472930237651,-0.23864854872226715,0.01188535988330841,-0.005252861883491278,0.026511045172810555,0,1,-999,12,-4,26,-5,0,-153,1500.0
17:52:54.486,AUTO,-35.3632621,149.1652365,26754,0.011162430047988892,0.003676472930237651,-0.23864854872226715,0.01188535988330841,-0.005252861883491278,0.026511045172810555,0,1,-999,12,-4,26,-5,0,-153,1500.0
17:52:54.690,AUTO,-35.3632621,149.1652365,26754,0.011162430047988892,0.003676472930237651,-0.23864854872226715,0.01188535988330841,-0.005252861883491278,0.026511045172810555,0,1,-999,12,-4,26,-5,0,-153,1500.0
17:52:54.894,AUTO,-35.3632621,149.1652365,26754,0.011162430047988892,0.003676472930237651,-0.23864854872226715,0.01188535988330841,-0.005252861883491278,0.026511045172810555,0,1,-999,12,-4,26,-5,0,-153,1500.0
17:52:55.097,AUTO,-35.3632621,149.1652365,26754,0.011162430047988892,0.003676472930237651,-0.23864854872226715,0.01188535988330841,-0.005252861883491278,0.026511045172810555,0,1,-999,12,-4,26,-5,0,-153,1500.0
17:52:55.298,AUTO,-35.3632621,149.1652365,26754,0.011162430047988892,0.003676472930237651,-0.23864854872226715,0.01188535988330841,-0.005252861883491278,0.026511045172810555,0,1,-999,12,-4,26,-5,0,-153,1500.0
17:52:55.503,AUTO,-35.3632624,149.1652371,29329,0.0035675603430718184,0.001451457035727799,-0.2004571259021759,-0.00727380346506834,0.0020262906327843666,0.021496625617146492,1,-1,-1000,-6,2,20,0,9,-152,1500.0
17:52:55.705,AUTO,-35.3632623,149.1652373,29727,0.0019522936781868339,0.001755723264068365,-0.19523224234580994,-0.004523115232586861,0.0016054657753556967,0.021546078845858574,0,-1,-1000,-3,2,21,0,8,-152,1500.0
17:52:55.909,AUTO,-35.3632623,149.1652373,29727,0.0019522936781868339,0.001755723264068365,-0.19523224234580994,-0.004523115232586861,0.0016054657753556967,0.021546078845858574,0,-1,-1000,-3,2,21,0,8,-152,1500.0
17:52:56.111,AUTO,-35.3632623,149.1652373,29727,0.0019522936781868339,0.001755723264068365,-0.19523224234580994,-0.004523115232586861,0.0016054657753556967,0.021546078845858574,0,-1,-1000,-3,2,21,0,8,-152,1500.0
17:52:56.316,AUTO,-35.3632623,149.1652373,29727,0.0019522936781868339,0.001755723264068365,-0.19523224234580994,-0.004523115232586861,0.0016054657753556967,0.021546078845858574,0,-1,-1000,-3,2,21,0,8,-152,1500.0
17:52:56.518,AUTO,-35.3632623,149.1652373,29727,0.0019522936781868339,0.001755723264068365,-0.19523224234580994,-0.004523115232586861,0.0016054657753556967,0.021546078845858574,0,-1,-1000,-3,2,21,0,8,-152,1500.0
17:52:56.724,AUTO,-35.3632623,149.1652373,29727,0.0019522936781868339,0.001755723264068365,-0.19523224234580994,-0.004523115232586861,0.0016054657753556967,0.021546078845858574,0,-1,-1000,-3,2,21,0,8,-152,1500.0
17:52:56.928,AUTO,-35.3632623,149.1652373,29727,0.0019522936781868339,0.001755723264068365,-0.19523224234580994,-0.004523115232586861,0.0016054657753556967,0.021546078845858574,0,-1,-1000,-3,2,21,0,8,-152,1500.0
17:52:57.131,AUTO,-35.3632623,149.1652373,29727,0.0019522936781868339,0.001755723264068365,-0.19523224234580994,-0.004523115232586861,0.0016054657753556967,0.021546078845858574,0,-1,-1000,-3,2,21,0,8,-152,1500.0
17:52:57.333,AUTO,-35.3632623,149.1652378,30888,-0.0008899355889298022,0.0017771077109500766,-0.18162564933300018,-0.0010233938228338957,0.00017824035603553057,0.0175266582518816,0,-1,-1000,-3,2,21,0,6,-152,1500.0
17:52:57.536,AUTO,-35.3632623,149.1652381,32837,0.00038788135861977935,0.0011999380076304078,-0.1615758240222931,-0.001102366833947599,-0.0003516951110213995,0.015139379538595676,0,0,-1000,7,1,15,0,1,-153,1500.0
17:52:57.738,AUTO,-35.3632623,149.1652381,32837,0.00038788135861977935,0.0011999380076304078,-0.1615758240222931,-0.001102366833947599,-0.0003516951110213995,0.015139379538595676,0,0,-1000,0,0,15,0,1,-153,1500.0
17:52:57.939,AUTO,-35.3632623,149.1652381,32837,0.00038788135861977935,0.0011999380076304078,-0.1615758240222931,-0.001102366833947599,-0.0003516951110213995,0.015139379538595676,0,0,-1000,0,0,15,0,1,-153,1500.0
17:52:58.141,AUTO,-35.3632623,149.1652381,32837,0.00038788135861977935,0.0011999380076304078,-0.1615758240222931,-0.001102366833947599,-0.0003516951110213995,0.015139379538595676,0,0,-1000,0,0,15,0,1,-153,1500.0
17:52:58.344,AUTO,-35.3632623,149.1652381,32837,0.00038788135861977935,0.0011999380076304078,-0.1615758240222931,-0.001102366833947599,-0.0003516951110213995,0.015139379538595676,0,0,-1000,0,0,15,0,1,-153,1500.0
17:52:58.547,AUTO,-35.3632623,149.1652381,32837,0.00038788135861977935,0.0011999380076304078,-0.1615758240222931,-0.001102366833947599,-0.0003516951110213995,0.015139379538595676,0,0,-1000,0,0,15,0,1,-153,1500.0
17:52:58.750,AUTO,-35.3632623,149.1652381,32837,0.00038788135861977935,0.0011999380076304078,-0.1615758240222931,-0.001102366833947599,-0.0003516951110213995,0.015139379538595676,0,0,-1000,0,0,15,0,1,-153,1500.0
17:52:58.955,AUTO,-35.3632623,149.1652381,32837,0.00038788135861977935,0.0011999380076304078,-0.1615758240222931,-0.001102366833947599,-0.0003516951110213995,0.015139379538595676,0,0,-1000,0,0,15,0,1,-153,1500.0
17:52:59.157,AUTO,-35.3632623,149.1652381,32837,0.00038788135861977935,0.0011999380076304078,-0.1615758240222931,-0.001102366833947599,-0.0003516951110213995,0.015139379538595676,0,0,-1000,0,0,15,0,1,-153,1500.0
17:52:59.358,AUTO,-35.3632622,149.165238,34795,0.0018263283418491483,0.0013700798153877258,-0.1450546681880951,0.0003836557734757662,-0.002342553809285164,0.011257803067564964,0,0,-1001,1,-1,11,0,0,-153,1500.0
17:52:59.561,AUTO,-35.3632622,149.1652379,35965,0.001775363925844431,0.0010104036191478372,-0.13617585599422455,0.0015781143447384238,0.00039554486284032464,0.012551496736705303,0,0,-1000,2,1,12,0,0,-153,1500.0
17:52:59.765,AUTO,-35.3632622,149.1652379,35965,0.001775363925844431,0.0010104036191478372,-0.13617585599422455,0.0015781143447384238,0.00039554486284032464,0.012551496736705303,0,0,-1000,2,1,12,0,0,-153,1500.0
17:52:59.967,AUTO,-35.3632622,149.1652379,35965,0.001775363925844431,0.0010104036191478372,-0.13617585599422455,0.0015781143447384238,0.00039554486284032464,0.012551496736705303,0,0,-1000,2,1,12,0,0,-153,1500.0
17:53:00.168,AUTO,-35.3632622,149.1652379,35965,0.001775363925844431,0.0010104036191478372,-0.13617585599422455,0.0015781143447384238,0.00039554486284032464,0.012551496736705303,0,0,-1000,2,1,12,0,0,-153,1500.0
17:53:00.374,AUTO,-35.3632622,149.1652379,35965,0.001775363925844431,0.0010104036191478372,-0.13617585599422455,0.0015781143447384238,0.00039554486284032464,0.012551496736705303,0,0,-1000,2,1,12,0,0,-153,1500.0
17:53:00.579,AUTO,-35.3632622,149.1652379,35965,0.001775363925844431,0.0010104036191478372,-0.13617585599422455,0.0015781143447384238,0.00039554486284032464,0.012551496736705303,0,0,-1000,2,1,12,0,0,-153,1500.0
17:53:00.782,AUTO,-35.3632622,149.1652379,35965,0.001775363925844431,0.0010104036191478372,-0.13617585599422455,0.0015781143447384238,0.00039554486284032464,0.012551496736705303,0,0,-1000,2,1,12,0,0,-153,1500.0
17:53:00.986,AUTO,-35.3632622,149.1652379,35965,0.001775363925844431,0.0010104036191478372,-0.13617585599422455,0.0015781143447384238,0.00039554486284032464,0.012551496736705303,0,0,-1000,2,1,12,0,0,-153,1500.0
17:53:01.189,AUTO,-35.3632622,149.1652379,35965,0.001775363925844431,0.0010104036191478372,-0.13617585599422455,0.0015781143447384238,0.00039554486284032464,0.012551496736705303,0,0,-1000,2,1,12,0,0,-153,1500.0
17:53:01.392,AUTO,-35.3632621,149.1652377,38294,0.002894439036026597,0.001801533391699195,-0.12145720422267914,0.0007919765776023269,0.0001050563296303153,0.009902724996209145,0,0,-1000,1,1,9,0,0,-153,1500.0
17:53:01.594,AUTO,-35.3632621,149.1652376,39083,0.0028919752221554518,0.0016249144682660699,-0.11708114296197891,-0.0006460355361923575,-0.0006705670384690166,0.008743369951844215,0,0,-1000,0,0,8,0,0,-153,1500.0
17:53:01.798,AUTO,-35.3632621,149.1652376,39083,0.0028919752221554518,0.0016249144682660699,-0.11708114296197891,-0.0006460355361923575,-0.0006705670384690166,0.008743369951844215,0,0,-1000,0,0,8,0,0,-153,1500.0
17:53:02.009,AUTO,-35.3632621,149.1652376,39083,0.0028919752221554518,0.0016249144682660699,-0.11708114296197891,-0.0006460355361923575,-0.0006705670384690166,0.008743369951844215,0,0,-1000,0,0,8,0,0,-153,1500.0
17:53:02.212,AUTO,-35.3632621,149.1652376,39083,0.0028919752221554518,0.0016249144682660699,-0.11708114296197891,-0.0006460355361923575,-0.0006705670384690166,0.008743369951844215,0,0,-1000,0,0,8,0,0,-153,1500.0
17:53:02.416,AUTO,-35.3632621,149.1652376,39083,0.0028919752221554518,0.0016249144682660699,-0.11708114296197891,-0.0006460355361923575,-0.0006705670384690166,0.008743369951844215,0,0,-1000,0,0,8,0,0,-153,1500.0
17:53:02.618,AUTO,-35.3632621,149.1652376,39083,0.0028919752221554518,0.0016249144682660699,-0.11708114296197891,-0.0006460355361923575,-0.0006705670384690166,0.008743369951844215,0,0,-1000,0,0,8,0,0,-153,1500.0
17:53:02.824,AUTO,-35.3632621,149.1652376,39083,0.0028919752221554518,0.0016249144682660699,-0.11708114296197891,-0.0006460355361923575,-0.0006705670384690166,0.008743369951844215,0,0,-1000,0,0,8,0,0,-153,1500.0
17:53:03.027,AUTO,-35.3632621,149.1652376,39083,0.0028919752221554518,0.0016249144682660699,-0.11708114296197891,-0.0006460355361923575,-0.0006705670384690166,0.008743369951844215,0,0,-1000,0,0,8,0,0,-153,1500.0
17:53:03.229,AUTO,-35.3632621,149.1652376,39083,0.0028919752221554518,0.0016249144682660699,-0.11708114296197891,-0.0006460355361923575,-0.0006705670384690166,0.008743369951844215,0,0,-1000,0,0,8,0,0,-153,1500.0
17:53:03.430,AUTO,-35.3632621,149.1652375,40641,0.0024346858263015747,0.001253708964213729,-0.10958098620176315,0.003691066987812519,-0.0003354724030941725,0.008247770369052887,0,0,-1001,4,1,8,0,0,-153,1500.0
17:53:03.632,AUTO,-35.3632621,149.1652374,42200,0.0022838085424154997,0.0015895601827651262,-0.10281284898519516,-0.0009370737825520337,-0.00011595990508794785,0.007333226501941681,0,0,-1000,0,0,7,-1,1,-153,1500.0
17:53:03.836,AUTO,-35.3632621,149.1652374,42200,0.0022838085424154997,0.0015895601827651262,-0.10281284898519516,-0.0009370737825520337,-0.00011595990508794785,0.007333226501941681,0,0,-1000,0,0,7,-1,1,-153,1500.0
17:53:04.040,AUTO,-35.3632621,149.1652374,42200,0.0022838085424154997,0.0015895601827651262,-0.10281284898519516,-0.0009370737825520337,-0.00011595990508794785,0.007333226501941681,0,0,-1000,0,0,7,-1,1,-153,1500.0
17:53:04.251,AUTO,-35.3632621,149.1652374,42200,0.0022838085424154997,0.0015895601827651262,-0.10281284898519516,-0.0009370737825520337,-0.00011595990508794785,0.007333226501941681,0,0,-1000,0,0,7,-1,1,-153,1500.0
17:53:04.453,AUTO,-35.3632621,149.1652374,42200,0.0022838085424154997,0.0015895601827651262,-0.10281284898519516,-0.0009370737825520337,-0.00011595990508794785,0.007333226501941681,0,0,-1000,0,0,7,-1,1,-153,1500.0
17:53:04.655,AUTO,-35.3632621,149.1652374,42200,0.0022838085424154997,0.0015895601827651262,-0.10281284898519516,-0.0009370737825520337,-0.00011595990508794785,0.007333226501941681,0,0,-1000,0,0,7,-1,1,-153,1500.0
17:53:04.859,AUTO,-35.3632621,149.1652374,42200,0.0022838085424154997,0.0015895601827651262,-0.10281284898519516,-0.0009370737825520337,-0.00011595990508794785,0.007333226501941681,0,0,-1000,0,0,7,-1,1,-153,1500.0
17:53:05.060,AUTO,-35.3632621,149.1652374,42200,0.0022838085424154997,0.0015895601827651262,-0.10281284898519516,-0.0009370737825520337,-0.00011595990508794785,0.007333226501941681,0,0,-1000,0,0,7,-1,1,-153,1500.0
17:53:05.267,AUTO,-35.3632621,149.1652374,42200,0.0022838085424154997,0.0015895601827651262,-0.10281284898519516,-0.0009370737825520337,-0.00011595990508794785,0.007333226501941681,0,0,-1000,0,0,7,-1,1,-153,1500.0
17:53:05.485,AUTO,-35.363262,149.1652374,43369,0.002021284308284521,0.0013818120351061225,-0.09774656593799591,0.0019606344867497683,6.653124000877142e-05,0.010700753889977932,0,0,-999,2,1,10,-1,1,-153,1500.0
17:53:05.737,AUTO,-35.363262,149.1652374,45321,0.002247996861115098,0.0012581120245158672,-0.0903407633304596,0.003131422447040677,-0.000368939945474267,0.006680418271571398,0,0,-1000,4,0,6,-1,1,-153,1500.0
17:53:05.941,AUTO,-35.363262,149.1652374,45321,0.002247996861115098,0.0012581120245158672,-0.0903407633304596,0.003131422447040677,-0.000368939945474267,0.006680418271571398,0,0,-1000,4,0,6,-1,1,-153,1500.0
17:53:06.149,AUTO,-35.363262,149.1652374,45321,0.002247996861115098,0.0012581120245158672,-0.0903407633304596,0.003131422447040677,-0.000368939945474267,0.006680418271571398,0,0,-1000,4,0,6,-1,1,-153,1500.0
17:53:06.371,AUTO,-35.363262,149.1652374,45321,0.002247996861115098,0.0012581120245158672,-0.0903407633304596,0.003131422447040677,-0.000368939945474267,0.006680418271571398,0,0,-1000,4,0,6,-1,1,-153,1500.0
17:53:06.610,AUTO,-35.363262,149.1652374,45321,0.002247996861115098,0.0012581120245158672,-0.0903407633304596,0.003131422447040677,-0.000368939945474267,0.006680418271571398,0,0,-1000,4,0,6,-1,1,-153,1500.0
17:53:06.813,AUTO,-35.363262,149.1652374,45321,0.002247996861115098,0.0012581120245158672,-0.0903407633304596,0.003131422447040677,-0.000368939945474267,0.006680418271571398,0,0,-1000,4,0,6,-1,1,-153,1500.0
17:53:07.015,AUTO,-35.363262,149.1652374,45321,0.002247996861115098,0.0012581120245158672,-0.0903407633304596,0.003131422447040677,-0.000368939945474267,0.006680418271571398,0,0,-1000,4,0,6,-1,1,-153,1500.0
17:53:07.219,AUTO,-35.363262,149.1652374,45321,0.002247996861115098,0.0012581120245158672,-0.0903407633304596,0.003131422447040677,-0.000368939945474267,0.006680418271571398,0,0,-1000,4,0,6,-1,1,-153,1500.0
17:53:07.421,AUTO,-35.363262,149.1652374,46876,0.0019584926776587963,0.001209720503538847,-0.08479256182909012,-7.886206731200218e-06,0.0005298370961099863,0.010643845424056053,0,0,-999,-1,2,6,-1,1,-152,1500.0
17:53:07.624,AUTO,-35.363263,149.165236,48285,-0.04128747433423996,0.029094988480210304,0.25240176916122437,0.10663919150829315,-0.21285489201545715,0.2272278517484665,4,8,-942,107,-211,227,-31,-34,-114,1500.0
17:53:07.827,AUTO,-35.363263,149.165236,48285,-0.04128747433423996,0.029094988480210304,0.25240176916122437,0.10663919150829315,-0.21285489201545715,0.2272278517484665,4,8,-942,107,-211,227,-31,-34,-114,1500.0
17:53:08.029,AUTO,-35.363263,149.165236,48285,-0.04128747433423996,0.029094988480210304,0.25240176916122437,0.10663919150829315,-0.21285489201545715,0.2272278517484665,4,8,-942,107,-211,227,-31,-34,-114,1500.0
17:53:08.231,AUTO,-35.363263,149.165236,48285,-0.04128747433423996,0.029094988480210304,0.25240176916122437,0.10663919150829315,-0.21285489201545715,0.2272278517484665,4,8,-942,107,-211,227,-31,-34,-114,1500.0
17:53:08.432,AUTO,-35.363263,149.165236,48285,-0.04128747433423996,0.029094988480210304,0.25240176916122437,0.10663919150829315,-0.21285489201545715,0.2272278517484665,4,8,-942,107,-211,227,-31,-34,-114,1500.0
17:53:08.638,AUTO,-35.363263,149.165236,48285,-0.04128747433423996,0.029094988480210304,0.25240176916122437,0.10663919150829315,-0.21285489201545715,0.2272278517484665,4,8,-942,107,-211,227,-31,-34,-114,1500.0
17:53:08.846,AUTO,-35.363263,149.165236,48285,-0.04128747433423996,0.029094988480210304,0.25240176916122437,0.10663919150829315,-0.21285489201545715,0.2272278517484665,4,8,-942,107,-211,227,-31,-34,-114,1500.0
17:53:09.050,AUTO,-35.363263,149.165236,48285,-0.04128747433423996,0.029094988480210304,0.25240176916122437,0.10663919150829315,-0.21285489201545715,0.2272278517484665,4,8,-942,107,-211,227,-31,-34,-114,1500.0
17:53:09.252,AUTO,-35.363263,149.165236,48285,-0.04128747433423996,0.029094988480210304,0.25240176916122437,0.10663919150829315,-0.21285489201545715,0.2272278517484665,4,8,-942,107,-211,227,-31,-34,-114,1500.0
17:53:09.455,AUTO,-35.3632646,149.1652324,49530,0.03772665932774544,-0.037225913256406784,0.2880878150463104,-0.11805682629346848,0.045329537242650986,-0.03671203553676605,-1,-1,-971,-23,33,-34,12,11,-55,1500.0
17:53:09.659,AUTO,-35.3632638,149.1652333,49779,0.03346209228038788,-0.015283131040632725,0.26941803097724915,0.058139998465776443,0.03798961639404297,-0.04013771191239357,-3,-17,-968,55,38,-40,19,26,-41,1500.0
17:53:09.880,AUTO,-35.3632638,149.1652333,49779,0.03346209228038788,-0.015283131040632725,0.26941803097724915,0.058139998465776443,0.03798961639404297,-0.04013771191239357,-3,-17,-968,55,38,-40,19,26,-41,1500.0
17:53:10.100,AUTO,-35.3632638,149.1652333,49779,0.03346209228038788,-0.015283131040632725,0.26941803097724915,0.058139998465776443,0.03798961639404297,-0.04013771191239357,-3,-17,-968,55,38,-40,19,26,-41,1500.0
17:53:10.345,AUTO,-35.3632638,149.1652333,49779,0.03346209228038788,-0.015283131040632725,0.26941803097724915,0.058139998465776443,0.03798961639404297,-0.04013771191239357,-3,-17,-968,55,38,-40,19,26,-41,1500.0
17:53:10.574,AUTO,-35.3632638,149.1652333,49779,0.03346209228038788,-0.015283131040632725,0.26941803097724915,0.058139998465776443,0.03798961639404297,-0.04013771191239357,-3,-17,-968,55,38,-40,19,26,-41,1500.0
17:53:10.794,AUTO,-35.3632638,149.1652333,49779,0.03346209228038788,-0.015283131040632725,0.26941803097724915,0.058139998465776443,0.03798961639404297,-0.04013771191239357,-3,-17,-968,55,38,-40,19,26,-41,1500.0
17:53:11.022,AUTO,-35.3632638,149.1652333,49779,0.03346209228038788,-0.015283131040632725,0.26941803097724915,0.058139998465776443,0.03798961639404297,-0.04013771191239357,-3,-17,-968,55,38,-40,19,26,-41,1500.0
17:53:11.226,AUTO,-35.3632638,149.1652333,49779,0.03346209228038788,-0.015283131040632725,0.26941803097724915,0.058139998465776443,0.03798961639404297,-0.04013771191239357,-3,-17,-968,55,38,-40,19,26,-41,1500.0
17:53:11.433,AUTO,-35.3632611,149.1652381,50179,0.004068310838192701,0.014786876738071442,0.21636998653411865,0.16269484162330627,-0.00240708258934319,-0.08218454569578171,-1,-11,-960,158,-1,-82,6,18,0,1500.0
17:53:11.635,AUTO,-35.363261,149.1652384,50160,-0.02461363933980465,0.04126305505633354,0.21538184583187103,-0.4179501235485077,0.007518390193581581,-0.029240647330880165,0,-45,-950,-423,8,-28,0,11,13,1500.0
17:53:11.838,AUTO,-35.363261,149.1652384,50160,-0.02461363933980465,0.04126305505633354,0.21538184583187103,-0.4179501235485077,0.007518390193581581,-0.029240647330880165,0,-45,-950,-423,8,-28,0,11,13,1500.0
17:53:12.040,AUTO,-35.363261,149.1652384,50160,-0.02461363933980465,0.04126305505633354,0.21538184583187103,-0.4179501235485077,0.007518390193581581,-0.029240647330880165,0,-45,-950,-423,8,-28,0,11,13,1500.0
17:53:12.248,AUTO,-35.363261,149.1652384,50160,-0.02461363933980465,0.04126305505633354,0.21538184583187103,-0.4179501235485077,0.007518390193581581,-0.029240647330880165,0,-45,-950,-423,8,-28,0,11,13,1500.0
17:53:12.453,AUTO,-35.363261,149.1652384,50160,-0.02461363933980465,0.04126305505633354,0.21538184583187103,-0.4179501235485077,0.007518390193581581,-0.029240647330880165,0,-45,-950,-423,8,-28,0,11,13,1500.0
17:53:12.659,AUTO,-35.363261,149.1652384,50160,-0.02461363933980465,0.04126305505633354,0.21538184583187103,-0.4179501235485077,0.007518390193581581,-0.029240647330880165,0,-45,-950,-423,8,-28,0,11,13,1500.0
17:53:12.861,AUTO,-35.363261,149.1652384,50160,-0.02461363933980465,0.04126305505633354,0.21538184583187103,-0.4179501235485077,0.007518390193581581,-0.029240647330880165,0,-45,-950,-423,8,-28,0,11,13,1500.0
17:53:13.063,AUTO,-35.363261,149.1652384,50160,-0.02461363933980465,0.04126305505633354,0.21538184583187103,-0.4179501235485077,0.007518390193581581,-0.029240647330880165,0,-45,-950,-423,8,-28,0,11,13,1500.0
17:53:16.856,AUTO,-35.3632611,149.1652382,50039,0.010637379251420498,-0.018392957746982574,0.19891925156116486,-0.7399975061416626,-0.042283590883016586,-0.023647725582122803,0,-21,-1034,-737,-41,-23,-5,5,10,1500.0
17:53:17.060,AUTO,-35.3632606,149.1652392,49974,0.07906355708837509,-0.05173612758517265,0.17597468197345734,0.6435449123382568,-0.050244495272636414,-0.012152394279837608,-1,3,-1015,642,-49,-11,20,41,1,1500.0
17:53:17.262,AUTO,-35.36326,149.1652401,49969,0.08954214304685593,-0.06606503576040268,0.21549981832504272,0.2097824662923813,-0.05242013931274414,0.394092857837677,-3,-25,-999,206,-51,394,31,56,0,1500.0
17:53:17.466,AUTO,-35.36326,149.1652401,49969,0.08954214304685593,-0.06606503576040268,0.21549981832504272,0.2097824662923813,-0.05242013931274414,0.394092857837677,-3,-25,-999,206,-51,394,31,56,0,1500.0
17:53:17.669,AUTO,-35.36326,149.1652401,49969,0.08954214304685593,-0.06606503576040268,0.21549981832504272,0.2097824662923813,-0.05242013931274414,0.394092857837677,-3,-25,-999,206,-51,394,31,56,0,1500.0
17:53:17.874,AUTO,-35.36326,149.1652401,49969,0.08954214304685593,-0.06606503576040268,0.21549981832504272,0.2097824662923813,-0.05242013931274414,0.394092857837677,-3,-25,-999,206,-51,394,31,56,0,1500.0
17:53:18.077,AUTO,-35.36326,149.1652401,49969,0.08954214304685593,-0.06606503576040268,0.21549981832504272,0.2097824662923813,-0.05242013931274414,0.394092857837677,-3,-25,-999,206,-51,394,31,56,0,1500.0
17:53:18.316,AUTO,-35.36326,149.1652401,49969,0.08954214304685593,-0.06606503576040268,0.21549981832504272,0.2097824662923813,-0.05242013931274414,0.394092857837677,-3,-25,-999,206,-51,394,31,56,0,1500.0
17:53:18.530,AUTO,-35.36326,149.1652401,49969,0.08954214304685593,-0.06606503576040268,0.21549981832504272,0.2097824662923813,-0.05242013931274414,0.394092857837677,-3,-25,-999,206,-51,394,31,56,0,1500.0
17:53:18.747,AUTO,-35.36326,149.1652401,49969,0.08954214304685593,-0.06606503576040268,0.21549981832504272,0.2097824662923813,-0.05242013931274414,0.394092857837677,-3,-25,-999,206,-51,394,31,56,0,1500.0
17:53:18.968,AUTO,-35.36326,149.1652401,49969,0.08954214304685593,-0.06606503576040268,0.21549981832504272,0.2097824662923813,-0.05242013931274414,0.394092857837677,-3,-25,-999,206,-51,394,31,56,0,1500.0
17:53:19.200,AUTO,-35.3632556,149.165247,49959,0.040766697376966476,-0.14807334542274475,0.9069340229034424,-0.524985671043396,-0.04550785943865776,0.798383891582489,-24,-52,-1004,-525,-44,798,78,131,-1,1500.0
17:53:19.418,AUTO,-35.363246,149.1652644,49953,6.526143988594413e-05,-0.1953253597021103,1.2330315113067627,0.11264631152153015,-0.07485920190811157,-0.05722692236304283,-55,-26,-992,111,-74,-56,137,230,1,1500.0
17:53:19.709,AUTO,-35.363246,149.1652644,49953,6.526143988594413e-05,-0.1953253597021103,1.2330315113067627,0.11264631152153015,-0.07485920190811157,-0.05722692236304283,-55,-26,-992,111,-74,-56,137,230,1,1500.0
17:53:19.939,AUTO,-35.363246,149.1652644,49953,6.526143988594413e-05,-0.1953253597021103,1.2330315113067627,0.11264631152153015,-0.07485920190811157,-0.05722692236304283,-55,-26,-992,111,-74,-56,137,230,1,1500.0
17:53:20.187,AUTO,-35.363246,149.1652644,49953,6.526143988594413e-05,-0.1953253597021103,1.2330315113067627,0.11264631152153015,-0.07485920190811157,-0.05722692236304283,-55,-26,-992,111,-74,-56,137,230,1,1500.0
17:53:20.425,AUTO,-35.363246,149.1652644,49953,6.526143988594413e-05,-0.1953253597021103,1.2330315113067627,0.11264631152153015,-0.07485920190811157,-0.05722692236304283,-55,-26,-992,111,-74,-56,137,230,1,1500.0
17:53:20.630,AUTO,-35.363246,149.1652644,49953,6.526143988594413e-05,-0.1953253597021103,1.2330315113067627,0.11264631152153015,-0.07485920190811157,-0.05722692236304283,-55,-26,-992,111,-74,-56,137,230,1,1500.0
17:53:20.832,AUTO,-35.363246,149.1652644,49953,6.526143988594413e-05,-0.1953253597021103,1.2330315113067627,0.11264631152153015,-0.07485920190811157,-0.05722692236304283,-55,-26,-992,111,-74,-56,137,230,1,1500.0
17:53:21.037,AUTO,-35.3632273,149.1653016,49964,0.022662710398435593,-0.17545311152935028,1.1353020668029785,0.09540368616580963,-0.20954547822475433,0.03264947235584259,-76,-39,-972,94,-208,33,197,316,0,1500.0
17:53:21.241,AUTO,-35.3632128,149.1653307,49910,0.01567799784243107,-0.19381709396839142,1.1308841705322266,-0.010967864654958248,0.25176969170570374,-0.01907082460820675,-82,-42,-1040,-7,252,-18,252,396,2,1500.0
17:53:21.445,AUTO,-35.3632128,149.1653307,49910,0.01567799784243107,-0.19381709396839142,1.1308841705322266,-0.010967864654958248,0.25176969170570374,-0.01907082460820675,-82,-42,-1040,-7,252,-18,252,396,2,1500.0
17:53:21.648,AUTO,-35.3632128,149.1653307,49910,0.01567799784243107,-0.19381709396839142,1.1308841705322266,-0.010967864654958248,0.25176969170570374,-0.01907082460820675,-82,-42,-1040,-7,252,-18,252,396,2,1500.0
17:53:21.854,AUTO,-35.3632128,149.1653307,49910,0.01567799784243107,-0.19381709396839142,1.1308841705322266,-0.010967864654958248,0.25176969170570374,-0.01907082460820675,-82,-42,-1040,-7,252,-18,252,396,2,1500.0
17:53:22.056,AUTO,-35.3632128,149.1653307,49910,0.01567799784243107,-0.19381709396839142,1.1308841705322266,-0.010967864654958248,0.25176969170570374,-0.01907082460820675,-82,-42,-1040,-7,252,-18,252,396,2,1500.0
17:53:22.257,AUTO,-35.3632128,149.1653307,49910,0.01567799784243107,-0.19381709396839142,1.1308841705322266,-0.010967864654958248,0.25176969170570374,-0.01907082460820675,-82,-42,-1040,-7,252,-18,252,396,2,1500.0
17:53:22.459,AUTO,-35.3632128,149.1653307,49910,0.01567799784243107,-0.19381709396839142,1.1308841705322266,-0.010967864654958248,0.25176969170570374,-0.01907082460820675,-82,-42,-1040,-7,252,-18,252,396,2,1500.0
17:53:22.663,AUTO,-35.3632128,149.1653307,49910,0.01567799784243107,-0.19381709396839142,1.1308841705322266,-0.010967864654958248,0.25176969170570374,-0.01907082460820675,-82,-42,-1040,-7,252,-18,252,396,2,1500.0
17:53:22.866,AUTO,-35.3632128,149.1653307,49910,0.01567799784243107,-0.19381709396839142,1.1308841705322266,-0.010967864654958248,0.25176969170570374,-0.01907082460820675,-82,-42,-1040,-7,252,-18,252,396,2,1500.0
17:53:23.070,AUTO,-35.3632128,149.1653307,49910,0.01567799784243107,-0.19381709396839142,1.1308841705322266,-0.010967864654958248,0.25176969170570374,-0.01907082460820675,-82,-42,-1040,-7,252,-18,252,396,2,1500.0
17:53:23.274,AUTO,-35.3631849,149.1653864,50001,0.02204488031566143,-0.2161029577255249,1.113966464996338,0.20768822729587555,-0.2689060568809509,-0.04394374415278435,-98,-41,-949,211,-268,-42,269,408,11,1500.0
17:53:23.495,BRAKE,-35.3631576,149.1654396,49826,0.037996064871549606,-0.10375308990478516,1.1367506980895996,0.1876026839017868,0.9590936899185181,0.11845044791698456,-145,-70,-1169,189,960,118,356,518,-15,1500.0
17:53:23.709,BRAKE,-35.3631576,149.1654396,49826,0.037996064871549606,-0.10375308990478516,1.1367506980895996,0.1876026839017868,0.9590936899185181,0.11845044791698456,-145,-70,-1169,189,960,118,356,518,-15,1500.0
17:53:23.933,BRAKE,-35.3631576,149.1654396,49826,0.037996064871549606,-0.10375308990478516,1.1367506980895996,0.1876026839017868,0.9590936899185181,0.11845044791698456,-145,-70,-1169,189,960,118,356,518,-15,1500.0
17:53:24.135,BRAKE,-35.3631576,149.1654396,49826,0.037996064871549606,-0.10375308990478516,1.1367506980895996,0.1876026839017868,0.9590936899185181,0.11845044791698456,-145,-70,-1169,189,960,118,356,518,-15,1500.0
17:53:24.429,BRAKE,-35.3631576,149.1654396,49826,0.037996064871549606,-0.10375308990478516,1.1367506980895996,0.1876026839017868,0.9590936899185181,0.11845044791698456,-145,-70,-1169,189,960,118,356,518,-15,1500.0
17:53:24.656,BRAKE,-35.3631576,149.1654396,49826,0.037996064871549606,-0.10375308990478516,1.1367506980895996,0.1876026839017868,0.9590936899185181,0.11845044791698456,-145,-70,-1169,189,960,118,356,518,-15,1500.0
17:53:24.861,BRAKE,-35.3631576,149.1654396,49826,0.037996064871549606,-0.10375308990478516,1.1367506980895996,0.1876026839017868,0.9590936899185181,0.11845044791698456,-145,-70,-1169,189,960,118,356,518,-15,1500.0
17:53:25.065,BRAKE,-35.3631576,149.1654396,49826,0.037996064871549606,-0.10375308990478516,1.1367506980895996,0.1876026839017868,0.9590936899185181,0.11845044791698456,-145,-70,-1169,189,960,118,356,518,-15,1500.0
17:53:25.291,BRAKE,-35.3631576,149.1654396,49826,0.037996064871549606,-0.10375308990478516,1.1367506980895996,0.1876026839017868,0.9590936899185181,0.11845044791698456,-145,-70,-1169,189,960,118,356,518,-15,1500.0
17:53:25.511,BRAKE,-35.3631306,149.1654932,50247,0.07259790599346161,0.27416500449180603,1.1320236921310425,1.2267283201217651,-0.35053932666778564,-0.0672355443239212,-73,48,-1080,1236,-349,-65,148,228,23,1500.0
17:53:25.750,BRAKE,-35.3631245,149.1655077,50078,-0.0028057321906089783,0.07989328354597092,1.1223677396774292,0.8203544616699219,-0.13605396449565887,-0.022315319627523422,-28,41,-982,826,-134,-20,74,109,20,1500.0
17:53:25.964,BRAKE,-35.3631245,149.1655077,50078,-0.0028057321906089783,0.07989328354597092,1.1223677396774292,0.8203544616699219,-0.13605396449565887,-0.022315319627523422,-28,41,-982,826,-134,-20,74,109,20,1500.0
17:53:26.167,BRAKE,-35.3631245,149.1655077,50078,-0.0028057321906089783,0.07989328354597092,1.1223677396774292,0.8203544616699219,-0.13605396449565887,-0.022315319627523422,-28,41,-982,826,-134,-20,74,109,20,1500.0
17:53:26.372,BRAKE,-35.3631245,149.1655077,50078,-0.0028057321906089783,0.07989328354597092,1.1223677396774292,0.8203544616699219,-0.13605396449565887,-0.022315319627523422,-28,41,-982,826,-134,-20,74,109,20,1500.0
17:53:26.574,BRAKE,-35.3631245,149.1655077,50078,-0.0028057321906089783,0.07989328354597092,1.1223677396774292,0.8203544616699219,-0.13605396449565887,-0.022315319627523422,-28,41,-982,826,-134,-20,74,109,20,1500.0
17:53:26.777,BRAKE,-35.3631245,149.1655077,50078,-0.0028057321906089783,0.07989328354597092,1.1223677396774292,0.8203544616699219,-0.13605396449565887,-0.022315319627523422,-28,41,-982,826,-134,-20,74,109,20,1500.0
17:53:26.980,BRAKE,-35.3631245,149.1655077,50078,-0.0028057321906089783,0.07989328354597092,1.1223677396774292,0.8203544616699219,-0.13605396449565887,-0.022315319627523422,-28,41,-982,826,-134,-20,74,109,20,1500.0
17:53:27.183,BRAKE,-35.3631213,149.1655147,49992,-0.02469884231686592,0.020189296454191208,1.1221227645874023,-0.2784630358219147,-0.052217885851860046,0.001833879272453487,-28,41,-982,826,-134,-20,64,69,7,1500.0
17:53:27.387,BRAKE,-35.363116,149.1655235,49974,-0.00653485395014286,0.008492288179695606,1.1186177730560303,0.09206604957580566,0.006155905779451132,-0.0027625910006463528,-15,1,-1005,522,12,2,60,40,-1,1500.0
17:53:27.589,ALT_HOLD,-35.363115,149.1655249,49980,-0.018244871869683266,0.010785691440105438,1.1173430681228638,-0.6833158731460571,0.013549957424402237,0.0006478643044829369,-15,-36,-997,-684,14,2,58,36,-2,1500.0
