time_stamp,MODE,lat,lon,relative_alt,roll,pitch,yaw,rollspeed,pitchspeed,yawspeed,xacc,yacc,zacc,xgyro,ygyro,zgyro,vx,vy,vz,alt,VFR_HUD_alt,EK2_ALT_SOURCE,RTL_ALT
10:02:30.072,STABILIZE,-35.3632622,149.1652374,0,-0.0012678501661866903,0.0009642626391723752,0.024019302800297737,0.00028167793061584234,0.00029332481790333986,0.0016069130506366491,0,1,-1000,1,0,0,-1,0,-3,583990,583.969970703125,0.0,1500.0
10:02:30.273,STABILIZE,-35.3632622,149.1652374,0,-0.0009965290082618594,0.0009936164133250713,0.023753130808472633,0.00017644156469032168,0.00026811088901013136,0.001629590056836605,0,1,-1000,1,0,0,-1,0,-3,583990,583.969970703125,0.0,1500.0
10:02:30.474,STABILIZE,-35.3632622,149.1652374,10,-0.0009965290082618594,0.0009936164133250713,0.023753130808472633,0.00017644156469032168,0.00026811088901013136,0.001629590056836605,0,1,-1000,0,1,0,-1,0,-3,584000,584.0,0.0,1500.0
10:02:30.675,AUTO,-35.3632621,149.1652375,12,-0.0009548619855195284,0.0010087861446663737,0.023694932460784912,0.00017040607053786516,0.0002605876652523875,0.0016367079224437475,0,2,-1000,1,1,0,-1,0,-3,584000,584.0,0.0,1500.0
10:02:30.876,AUTO,-35.3632621,149.1652375,12,-0.0009548619855195284,0.0010087861446663737,0.023694932460784912,0.00017040607053786516,0.0002605876652523875,0.0016367079224437475,0,2,-1000,1,1,0,-1,0,-3,584000,584.0,0.0,1500.0
10:02:31.076,AUTO,-35.3632621,149.1652375,12,-0.0009548619855195284,0.0010087861446663737,0.023694932460784912,0.00017040607053786516,0.0002605876652523875,0.0016367079224437475,0,2,-1000,1,1,0,-1,0,-3,584000,584.0,0.0,1500.0
10:02:31.277,AUTO,-35.3632621,149.1652375,18,-0.0008193599060177803,0.0011055790819227695,0.023483743891119957,0.00031974376179277897,0.000163231510668993,0.0016916601452976465,0,2,-1000,1,1,0,0,0,-3,584000,584.0,0.0,1500.0
10:02:31.478,AUTO,-35.3632621,149.1652375,18,-0.0008193599060177803,0.0011055790819227695,0.023483743891119957,0.00031974376179277897,0.000163231510668993,0.0016916601452976465,0,2,-1000,0,0,0,0,0,-3,584000,584.0,0.0,1500.0
10:02:31.679,AUTO,-35.3632621,149.1652375,19,-0.0007698448025621474,0.0011765958042815328,0.023404715582728386,0.00023881171364337206,0.0003721892717294395,0.001645575393922627,0,2,-1000,1,0,1,0,0,-3,584000,584.0,0.0,1500.0
10:02:31.880,AUTO,-35.3632621,149.1652375,20,-0.00022854979033581913,0.00124372320715338,0.023320810869336128,0.0003922753385268152,0.00022690562764182687,0.0015387337189167738,0,0,-1002,1,0,1,0,1,-1,584010,584.010009765625,0.0,1500.0
10:02:32.080,AUTO,-35.3632621,149.1652375,18,-0.00016940069326665252,0.0013034431030973792,0.023245040327310562,0.00038867187686264515,0.00034767098259180784,0.0014508019667118788,0,1,-1000,1,1,0,0,1,-1,584000,584.0,0.0,1500.0
10:02:32.281,AUTO,-35.3632621,149.1652375,18,-0.00011024265404557809,0.0013756435364484787,0.023152636364102364,0.00024354399647563696,0.0003520326572470367,0.001552441855892539,0,1,-1000,1,1,0,0,1,-1,584000,584.0,0.0,1500.0
10:02:32.482,AUTO,-35.3632621,149.1652375,18,-0.00011024265404557809,0.0013756435364484787,0.023152636364102364,0.00024354399647563696,0.0003520326572470367,0.001552441855892539,0,1,-1000,1,1,0,0,1,-1,584000,584.0,0.0,1500.0
10:02:32.682,AUTO,-35.3632621,149.1652375,18,-4.87789511680603e-05,0.0014496733201667666,0.023039044812321663,0.00033212359994649887,0.0003090095706284046,0.001501425402238965,0,1,-1000,1,1,1,0,1,-1,584000,584.0,0.0,1500.0
10:02:32.883,AUTO,-35.3632621,149.1652375,18,-4.87789511680603e-05,0.0014496733201667666,0.023039044812321663,0.00033212359994649887,0.0003090095706284046,0.001501425402238965,0,1,-1000,1,1,1,0,1,-1,584000,584.0,0.0,1500.0
10:02:33.084,AUTO,-35.3632621,149.1652375,18,-4.87789511680603e-05,0.0014496733201667666,0.023039044812321663,0.00033212359994649887,0.0003090095706284046,0.001501425402238965,0,1,-1000,1,1,1,0,1,-1,584000,584.0,0.0,1500.0
10:02:33.285,AUTO,-35.3632621,149.1652375,18,0.0001490465656388551,0.0016565611585974693,0.022728178650140762,0.0002680994803085923,0.0002521599526517093,0.0016325837932527065,0,2,-1000,1,1,0,0,0,-1,584000,584.0,0.0,1500.0
10:02:33.486,AUTO,-35.3632621,149.1652375,18,0.0001490465656388551,0.0016565611585974693,0.022728178650140762,0.0002680994803085923,0.0002521599526517093,0.0016325837932527065,0,2,-1000,1,1,0,0,0,-1,584000,584.0,0.0,1500.0
10:02:33.686,AUTO,-35.3632621,149.1652375,18,0.0002158064307877794,0.0017292364500463009,0.022607887163758278,0.0003310660249553621,0.0002996560069732368,0.001497970544733107,0,1,-1000,0,1,1,0,0,-1,584000,584.0,0.0,1500.0
10:02:33.887,AUTO,-35.3632621,149.1652375,25,0.0018414815422147512,0.0005105220479890704,0.022615935653448105,0.01209519524127245,-0.010947450995445251,0.0016943890368565917,0,0,-1129,12,-10,1,0,0,-13,584010,584.010009765625,0.0,1500.0
10:02:34.087,AUTO,-35.3632621,149.1652375,100,0.0033372165635228157,-0.0005084514850750566,0.022665318101644516,-0.006187531165778637,0.0015732685569673777,0.0027632550336420536,0,0,-1142,-5,2,2,0,0,-47,584090,584.0899658203125,0.0,1500.0
10:02:34.288,AUTO,-35.3632621,149.1652375,260,0.0029763057827949524,0.00040198458009399474,0.022601384669542313,0.0017030604649335146,0.003882351331412792,0.0024300406221300364,0,0,-1125,2,4,1,0,1,-80,584250,584.25,0.0,1500.0
10:02:34.489,AUTO,-35.3632621,149.1652375,260,0.0029763057827949524,0.00040198458009399474,0.022601384669542313,0.0017030604649335146,0.003882351331412792,0.0024300406221300364,0,0,-1125,2,4,1,0,1,-80,584250,584.25,0.0,1500.0
10:02:34.690,AUTO,-35.3632621,149.1652375,494,0.0023404869716614485,0.001323313219472766,0.02249261736869812,-0.0009920072043314576,0.0026605683378875256,0.00210870080627501,0,0,-1104,0,3,1,0,1,-108,584480,584.47998046875,0.0,1500.0
10:02:34.891,AUTO,-35.3632621,149.1652375,494,0.0023404869716614485,0.001323313219472766,0.02249261736869812,-0.0009920072043314576,0.0026605683378875256,0.00210870080627501,0,0,-1104,0,3,1,0,1,-108,584480,584.47998046875,0.0,1500.0
10:02:35.091,AUTO,-35.3632621,149.1652375,494,0.0023404869716614485,0.001323313219472766,0.02249261736869812,-0.0009920072043314576,0.0026605683378875256,0.00210870080627501,0,0,-1104,0,3,1,0,1,-108,584480,584.47998046875,0.0,1500.0
10:02:35.292,AUTO,-35.363262,149.1652375,1495,0.02582583576440811,-0.0012693079188466072,0.021764811128377914,0.046639516949653625,-0.0073713683523237705,0.0021989906672388315,0,0,-1104,0,3,1,1,7,-147,585480,585.47998046875,0.0,1500.0
10:02:35.493,AUTO,-35.363262,149.1652375,1495,0.02582583576440811,-0.0012693079188466072,0.021764811128377914,0.046639516949653625,-0.0073713683523237705,0.0021989906672388315,0,0,-1014,47,-6,1,1,7,-147,585480,585.47998046875,0.0,1500.0
10:02:35.694,AUTO,-35.363262,149.1652378,1871,0.0371033139526844,-0.003243433777242899,0.021863214671611786,0.04490954801440239,-0.008000590838491917,0.002841839101165533,0,-1,-1006,45,-7,2,1,13,-149,585860,585.8599853515625,0.0,1500.0
10:02:35.895,AUTO,-35.3632619,149.1652382,2254,0.04779219254851341,-0.005575088784098625,0.02204294316470623,0.040997214615345,-0.009737147018313408,0.003317752620205283,1,-3,-1002,41,-8,2,3,23,-150,586240,586.239990234375,0.0,1500.0
10:02:36.095,AUTO,-35.3632618,149.165239,2639,0.057776082307100296,-0.008316791616380215,0.022266359999775887,0.038700755685567856,-0.01260167546570301,0.004291824996471405,1,-4,-1000,39,-11,3,5,34,-150,586620,586.6199951171875,0.0,1500.0
10:02:36.296,AUTO,-35.3632616,149.16524,3021,0.06130417063832283,-0.00705523369833827,-0.012520852498710155,-0.043205708265304565,0.05008898675441742,-0.07064832001924515,0,-10,-990,-42,50,-71,9,46,-148,587010,587.010009765625,0.0,1500.0
10:02:36.497,AUTO,-35.3632616,149.16524,3021,0.06130417063832283,-0.00705523369833827,-0.012520852498710155,-0.043205708265304565,0.05008898675441742,-0.07064832001924515,0,-10,-990,-42,50,-71,9,46,-148,587010,587.010009765625,0.0,1500.0
10:02:36.697,AUTO,-35.3632613,149.1652414,3403,0.033233776688575745,0.017197076231241226,-0.03630063682794571,-0.16839216649532318,0.07791317999362946,-0.09404758363962173,3,-11,-992,-167,78,-94,9,55,-146,587390,587.3900146484375,0.0,1500.0
10:02:36.898,AUTO,-35.3632613,149.1652414,3403,0.033233776688575745,0.017197076231241226,-0.03630063682794571,-0.16839216649532318,0.07791317999362946,-0.09404758363962173,3,-11,-992,-167,78,-94,9,55,-146,587390,587.3900146484375,0.0,1500.0
10:02:37.099,AUTO,-35.3632613,149.1652414,3403,0.033233776688575745,0.017197076231241226,-0.03630063682794571,-0.16839216649532318,0.07791317999362946,-0.09404758363962173,3,-11,-992,-167,78,-94,9,55,-146,587390,587.3900146484375,0.0,1500.0
10:02:37.300,AUTO,-35.3632609,149.1652453,4536,-0.03331288695335388,0.008137973956763744,-0.07066021859645844,-0.04543387517333031,-0.020055897533893585,-0.03402738273143768,3,-6,-1003,-44,-19,-34,1,36,-150,588520,588.5199584960938,0.0,1500.0
10:02:37.500,AUTO,-35.3632609,149.1652453,4536,-0.03331288695335388,0.008137973956763744,-0.07066021859645844,-0.04543387517333031,-0.020055897533893585,-0.03402738273143768,3,-6,-1003,-44,-19,-34,1,36,-150,588520,588.5199584960938,0.0,1500.0
10:02:37.701,AUTO,-35.3632608,149.1652461,4921,-0.049772292375564575,0.0037848351057618856,-0.07762271910905838,-0.08210217952728271,-0.010059628635644913,-0.03305943310260773,3,-7,-999,-81,-9,-33,1,23,-150,588910,588.9099731445312,0.0,1500.0
10:02:37.902,AUTO,-35.3632608,149.1652465,5303,-0.07353468239307404,0.0017259400337934494,-0.08546525985002518,-0.10383017361164093,-0.0047910176217556,-0.0319574810564518,2,-3,-999,-102,-4,-32,0,6,-149,589290,589.2899780273438,0.0,1500.0
10:02:38.103,AUTO,-35.3632608,149.1652464,5686,-0.07930974662303925,0.0003154542064294219,-0.09295454621315002,0.02781074121594429,-0.002591219265013933,-0.026162123307585716,0,0,-1006,28,-1,-26,-1,-13,-150,589670,589.6699829101562,0.0,1500.0
10:02:38.304,AUTO,-35.3632608,149.1652459,6070,-0.06783304363489151,-0.0008193333051167428,-0.09846474975347519,0.052318133413791656,-0.0025305445306003094,-0.016672266647219658,-2,3,-1001,52,-1,-16,-2,-31,-150,590060,590.0599975585938,0.0,1500.0
10:02:38.505,AUTO,-35.3632608,149.1652459,6070,-0.06783304363489151,-0.0008193333051167428,-0.09846474975347519,0.052318133413791656,-0.0025305445306003094,-0.016672266647219658,-2,3,-1001,52,-1,-16,-2,-31,-150,590060,590.0599975585938,0.0,1500.0
10:02:38.706,AUTO,-35.3632609,149.1652449,6454,-0.05397537723183632,-0.0008711279951967299,-0.10199426859617233,0.0578865148127079,0.002908825408667326,-0.010946691036224365,-4,7,-1000,58,3,-11,-4,-45,-150,590440,590.4400024414062,0.0,1500.0
10:02:38.907,AUTO,-35.3632609,149.1652449,6454,-0.05397537723183632,-0.0008711279951967299,-0.10199426859617233,0.0578865148127079,0.002908825408667326,-0.010946691036224365,-4,7,-1000,58,3,-11,-4,-45,-150,590440,590.4400024414062,0.0,1500.0
10:02:39.108,AUTO,-35.3632609,149.1652449,6454,-0.05397537723183632,-0.0008711279951967299,-0.10199426859617233,0.0578865148127079,0.002908825408667326,-0.010946691036224365,-4,7,-1000,58,3,-11,-4,-45,-150,590440,590.4400024414062,0.0,1500.0
10:02:39.309,AUTO,-35.3632613,149.1652402,7608,-0.006237940397113562,0.005495980381965637,-0.10629191994667053,0.06784137338399887,0.012133131735026836,-0.0012714846525341272,-5,13,-1003,68,13,-1,-10,-61,-151,591590,591.5899658203125,0.0,1500.0
10:02:39.510,AUTO,-35.3632613,149.1652402,7608,-0.006237940397113562,0.005495980381965637,-0.10629191994667053,0.06784137338399887,0.012133131735026836,-0.0012714846525341272,-5,13,-1003,68,13,-1,-10,-61,-151,591590,591.5899658203125,0.0,1500.0
10:02:39.710,AUTO,-35.3632616,149.1652385,8001,0.010778691619634628,0.008347470313310623,-0.10617569833993912,0.06841334700584412,0.010483442805707455,0.001327585312537849,-5,13,-1004,69,11,0,-13,-57,-152,591990,591.989990234375,0.0,1500.0
10:02:39.911,AUTO,-35.3632619,149.165237,8391,0.027642324566841125,0.010773785412311554,-0.10562070459127426,0.06721022725105286,0.008272586390376091,0.0017992430366575718,-5,12,-1004,67,8,1,-15,-50,-153,592380,592.3800048828125,0.0,1500.0
10:02:40.112,AUTO,-35.3632623,149.1652357,8784,0.0441693477332592,0.012268327176570892,-0.10463091731071472,0.06569889932870865,0.004093893803656101,0.0037189030554145575,-2,12,-1004,66,4,3,-17,-39,-154,592770,592.7699584960938,0.0,1500.0
10:02:40.312,AUTO,-35.3632627,149.1652347,9177,0.06002195179462433,0.012521832250058651,-0.1034383699297905,0.06245869770646095,-0.0015474321553483605,0.00425935722887516,-1,8,-1002,63,0,3,-19,-24,-154,593160,593.1599731445312,0.0,1500.0
10:02:40.513,AUTO,-35.3632631,149.1652342,9570,0.0737048014998436,0.010311837308108807,-0.10068485885858536,0.03177134692668915,-0.02549074962735176,0.028667738661170006,-1,8,-1002,63,0,3,-19,-6,-153,593560,593.1599731445312,0.0,1500.0
10:02:40.713,AUTO,-35.3632631,149.1652342,9570,0.0737048014998436,0.010311837308108807,-0.10068485885858536,0.03177134692668915,-0.02549074962735176,0.028667738661170006,0,6,-997,32,-24,28,-19,-6,-153,593560,593.5599975585938,0.0,1500.0
10:02:40.914,AUTO,-35.3632631,149.1652342,9570,0.0737048014998436,0.010311837308108807,-0.10068485885858536,0.03177134692668915,-0.02549074962735176,0.028667738661170006,0,6,-997,32,-24,28,-19,-6,-153,593560,593.5599975585938,0.0,1500.0
10:02:41.115,AUTO,-35.3632631,149.1652342,9570,0.0737048014998436,0.010311837308108807,-0.10068485885858536,0.03177134692668915,-0.02549074962735176,0.028667738661170006,0,6,-997,32,-24,28,-19,-6,-153,593560,593.5599975585938,0.0,1500.0
10:02:41.316,AUTO,-35.3632639,149.1652352,10727,0.01941234990954399,-0.052300114184617996,-0.04495430737733841,-0.123524010181427,0.035760339349508286,0.002368766348809004,5,-4,-998,-122,36,1,6,29,-148,594710,594.7099609375,0.0,1500.0
10:02:41.518,AUTO,-35.3632637,149.165236,11106,-0.0060006240382790565,-0.03524523600935936,-0.05364667996764183,-0.08250852674245834,0.07635272294282913,-0.05377814546227455,0,-6,-1004,-81,77,-53,18,28,-149,595090,595.0899658203125,0.0,1500.0
10:02:41.719,AUTO,-35.3632637,149.165236,11106,-0.0060006240382790565,-0.03524523600935936,-0.05364667996764183,-0.08250852674245834,0.07635272294282913,-0.05377814546227455,0,-6,-1004,-81,77,-53,18,28,-149,595090,595.0899658203125,0.0,1500.0
10:02:41.919,AUTO,-35.3632632,149.1652366,11489,-0.020235054194927216,-0.017701761797070503,-0.07122132927179337,-0.039484914392232895,0.06393767148256302,-0.07470975816249847,-1,-6,-1006,-38,64,-74,24,21,-150,595470,595.469970703125,0.0,1500.0
10:02:42.120,AUTO,-35.3632627,149.165237,11874,-0.026763301342725754,-0.005367973353713751,-0.09086673706769943,-0.013948105275630951,0.043306902050971985,-0.0766351968050003,-1,-6,-1005,-13,44,-77,26,12,-151,595860,595.8599853515625,0.0,1500.0
10:02:42.321,AUTO,-35.3632621,149.1652372,12261,-0.02723102644085884,0.003944000694900751,-0.11057249456644058,0.004804512951523066,0.03277201950550079,-0.06940145045518875,-3,-5,-1003,5,33,-69,25,3,-152,596250,596.25,0.0,1500.0
10:02:42.521,AUTO,-35.3632615,149.1652372,12651,-0.023312920704483986,0.010267618112266064,-0.127419576048851,0.022975919768214226,0.022424621507525444,-0.05898592248558998,-4,-4,-1002,23,23,-59,21,-3,-153,596640,596.6400146484375,0.0,1500.0
10:02:42.722,AUTO,-35.3632615,149.1652372,12651,-0.023312920704483986,0.010267618112266064,-0.127419576048851,0.022975919768214226,0.022424621507525444,-0.05898592248558998,-4,-4,-1002,23,23,-59,21,-3,-153,596640,596.6400146484375,0.0,1500.0
10:02:42.923,AUTO,-35.3632615,149.1652372,12651,-0.023312920704483986,0.010267618112266064,-0.127419576048851,0.022975919768214226,0.022424621507525444,-0.05898592248558998,-4,-4,-1002,23,23,-59,21,-3,-153,596640,596.6400146484375,0.0,1500.0
10:02:43.123,AUTO,-35.3632615,149.1652372,12651,-0.023312920704483986,0.010267618112266064,-0.127419576048851,0.022975919768214226,0.022424621507525444,-0.05898592248558998,-4,-4,-1002,23,23,-59,21,-3,-153,596640,596.6400146484375,0.0,1500.0
10:02:43.324,AUTO,-35.3632605,149.1652364,13822,0.0002402389800408855,0.019763045012950897,-0.15900929272174835,0.030615514144301414,0.005126180127263069,-0.022797128185629845,-4,0,-1000,31,5,-23,6,-13,-153,597810,597.8099975585938,0.0,1500.0
10:02:43.525,AUTO,-35.3632603,149.165236,14214,0.007121836766600609,0.020469805225729942,-0.16397066414356232,0.02613220363855362,0.0024895560927689075,-0.016661347821354866,-3,1,-1000,26,3,-17,1,-12,-153,598200,598.2000122070312,0.0,1500.0
10:02:43.725,AUTO,-35.3632603,149.165236,14214,0.007121836766600609,0.020469805225729942,-0.16397066414356232,0.02613220363855362,0.0024895560927689075,-0.016661347821354866,-3,1,-1000,26,3,-17,1,-12,-153,598200,598.2000122070312,0.0,1500.0
10:02:43.926,AUTO,-35.3632603,149.1652356,14606,0.01228188443928957,0.01956314779818058,-0.16622260212898254,0.0160052590072155,-0.005744543392211199,-0.007398259826004505,-2,2,-999,16,-4,-8,-2,-9,-153,598590,598.5899658203125,0.0,1500.0
10:02:44.127,AUTO,-35.3632604,149.1652354,15004,0.015240474604070187,0.01724846102297306,-0.16654366254806519,0.008350078016519547,-0.010437091812491417,-0.0007040653144940734,-1,1,-999,8,-9,-1,-6,-5,-153,598990,598.989990234375,0.0,1500.0
10:02:44.327,AUTO,-35.3632604,149.1652352,15395,0.015944823622703552,0.014347686432301998,-0.16581107676029205,0.0015059936558827758,-0.011480920016765594,0.003047970123589039,0,1,-999,2,-10,2,-8,-1,-153,599380,599.3800048828125,0.0,1500.0
10:02:44.528,AUTO,-35.3632606,149.1652352,15784,0.01489808689802885,0.011538197286427021,-0.16513556241989136,-0.006921999156475067,-0.011043443344533443,0.0012219359632581472,0,1,-999,-6,-10,0,-10,2,-153,599770,599.7699584960938,0.0,1500.0
10:02:44.729,AUTO,-35.3632606,149.1652352,15784,0.01489808689802885,0.011538197286427021,-0.16513556241989136,-0.006921999156475067,-0.011043443344533443,0.0012219359632581472,0,1,-999,-6,-10,0,-10,2,-153,599770,599.7699584960938,0.0,1500.0
10:02:44.929,AUTO,-35.3632606,149.1652352,15784,0.01489808689802885,0.011538197286427021,-0.16513556241989136,-0.006921999156475067,-0.011043443344533443,0.0012219359632581472,0,1,-999,-6,-10,0,-10,2,-153,599770,599.7699584960938,0.0,1500.0
10:02:45.130,AUTO,-35.3632606,149.1652352,15784,0.01489808689802885,0.011538197286427021,-0.16513556241989136,-0.006921999156475067,-0.011043443344533443,0.0012219359632581472,0,1,-999,-6,-10,0,-10,2,-153,599770,599.7699584960938,0.0,1500.0
10:02:45.331,AUTO,-35.3632612,149.1652354,16942,0.007440988905727863,0.004024796653538942,-0.16644099354743958,-0.008616823703050613,-0.01003880612552166,-0.004579856526106596,2,0,-1000,-7,-9,-4,-11,8,-152,600930,600.9299926757812,0.0,1500.0
10:02:45.531,AUTO,-35.3632614,149.1652355,17331,0.005156239029020071,0.001954185077920556,-0.1686035394668579,-0.007580810226500034,-0.0050528752617537975,-0.013173888437449932,2,0,-1000,-6,-4,-13,-10,9,-153,601320,601.3200073242188,0.0,1500.0
10:02:45.736,AUTO,-35.3632614,149.1652355,17331,0.005156239029020071,0.001954185077920556,-0.1686035394668579,-0.007580810226500034,-0.0050528752617537975,-0.013173888437449932,2,0,-1000,-6,-4,-13,-10,9,-153,601320,601.3200073242188,0.0,1500.0
10:02:45.937,AUTO,-35.3632615,149.1652357,17720,0.0032192938961088657,0.0006794372457079589,-0.17178462445735931,-0.00684446981176734,-0.004621879197657108,-0.014268731698393822,2,0,-1000,-6,-3,-14,-9,9,-153,601710,601.7099609375,0.0,1500.0
10:02:46.138,AUTO,-35.3632617,149.1652359,18109,0.001871674321591854,-0.0004357299185357988,-0.17567172646522522,-0.0048827421851456165,-0.002987805288285017,-0.01650264859199524,2,0,-1000,-4,-2,-16,-8,8,-153,602090,602.0899658203125,0.0,1500.0
10:02:46.339,AUTO,-35.3632618,149.165236,18498,0.0009328998858109117,-0.000879362691193819,-0.1805545836687088,-0.0015572160482406616,-0.0009194354061037302,-0.020952414721250534,2,0,-1000,0,0,-21,-6,7,-153,602480,602.47998046875,0.0,1500.0
10:02:46.540,AUTO,-35.3632619,149.1652362,18888,0.00039201328763738275,-0.0008111249771900475,-0.1861831545829773,-0.00030841282568871975,0.00020034960471093655,-0.024280168116092682,1,0,-1000,0,1,-24,-5,6,-153,602870,602.8699951171875,0.0,1500.0
10:02:46.740,AUTO,-35.3632619,149.1652362,18888,0.00039201328763738275,-0.0008111249771900475,-0.1861831545829773,-0.00030841282568871975,0.00020034960471093655,-0.024280168116092682,1,0,-1000,0,1,-24,-5,6,-153,602870,602.8699951171875,0.0,1500.0
10:02:46.941,AUTO,-35.3632619,149.1652362,18888,0.00039201328763738275,-0.0008111249771900475,-0.1861831545829773,-0.00030841282568871975,0.00020034960471093655,-0.024280168116092682,1,0,-1000,0,1,-24,-5,6,-153,602870,602.8699951171875,0.0,1500.0
10:02:47.142,AUTO,-35.3632619,149.1652362,18888,0.00039201328763738275,-0.0008111249771900475,-0.1861831545829773,-0.00030841282568871975,0.00020034960471093655,-0.024280168116092682,1,0,-1000,0,1,-24,-5,6,-153,602870,602.8699951171875,0.0,1500.0
10:02:47.343,AUTO,-35.363262,149.1652364,20065,0.0014572590589523315,-1.2473327842599247e-05,-0.20448274910449982,0.0027061202563345432,0.000918581907171756,-0.023185832425951958,0,0,-1000,3,1,-23,-2,3,-153,604050,604.0499877929688,0.0,1500.0
10:02:47.544,AUTO,-35.3632621,149.1652365,20456,0.0018307860009372234,0.0003540602629072964,-0.21055108308792114,0.0019896230660378933,0.001218773308210075,-0.024028874933719635,0,0,-1000,3,1,-24,-2,3,-153,604440,604.4400024414062,0.0,1500.0
10:02:47.744,AUTO,-35.3632621,149.1652365,20456,0.0018307860009372234,0.0003540602629072964,-0.21055108308792114,0.0019896230660378933,0.001218773308210075,-0.024028874933719635,0,0,-1000,3,1,-24,-2,3,-153,604440,604.4400024414062,0.0,1500.0
10:02:47.945,AUTO,-35.3632621,149.1652365,20846,0.002285342663526535,0.0010044864611700177,-0.21678999066352844,0.0022059341426938772,0.00399924349039793,-0.026430729776620865,0,0,-1000,2,4,-26,-1,2,-153,604830,604.8299560546875,0.0,1500.0
10:02:48.146,AUTO,-35.3632621,149.1652365,21236,0.0028945019003003836,0.0018809940665960312,-0.22304271161556244,0.002575137885287404,0.004493364132940769,-0.02472667582333088,0,0,-1000,3,5,-24,-1,2,-153,605220,605.219970703125,0.0,1500.0
10:02:48.347,AUTO,-35.363262,149.1652365,21625,0.0033068114425987005,0.002326223999261856,-0.22882996499538422,0.0022816210985183716,0.0014740307815372944,-0.0225537046790123,0,0,-1000,3,2,-23,-1,2,-153,605610,605.6099853515625,0.0,1500.0
10:02:48.548,AUTO,-35.363262,149.1652365,22016,0.0035812731366604567,0.0029710247181355953,-0.2347424328327179,0.0016571907326579094,0.0029808871913701296,-0.022548923268914223,0,0,-1000,2,3,-22,-1,2,-153,606000,606.0,0.0,1500.0
10:02:48.748,AUTO,-35.363262,149.1652365,22016,0.0035812731366604567,0.0029710247181355953,-0.2347424328327179,0.0016571907326579094,0.0029808871913701296,-0.022548923268914223,0,0,-1000,2,3,-22,-1,2,-153,606000,606.0,0.0,1500.0
10:02:48.949,AUTO,-35.363262,149.1652365,22016,0.0035812731366604567,0.0029710247181355953,-0.2347424328327179,0.0016571907326579094,0.0029808871913701296,-0.022548923268914223,0,0,-1000,2,3,-22,-1,2,-153,606000,606.0,0.0,1500.0
10:02:49.149,AUTO,-35.363262,149.1652365,22016,0.0035812731366604567,0.0029710247181355953,-0.2347424328327179,0.0016571907326579094,0.0029808871913701296,-0.022548923268914223,0,0,-1000,2,3,-22,-1,2,-153,606000,606.0,0.0,1500.0
10:02:49.350,AUTO,-35.363262,149.1652366,23186,0.003964431118220091,0.0035010355059057474,-0.2505205571651459,-0.003234290750697255,-0.0009208855917677283,-0.01925724558532238,0,0,-999,-2,0,-19,-1,3,-153,607170,607.1699829101562,0.0,1500.0
10:02:49.551,AUTO,-35.363262,149.1652366,23576,0.0037290381733328104,0.003255533054471016,-0.2552110552787781,0.0018028791528195143,-0.0006579754990525544,-0.019175805151462555,0,0,-1000,2,0,-19,-1,3,-153,607560,607.5599975585938,0.0,1500.0
10:02:49.752,AUTO,-35.363262,149.1652366,23576,0.0037290381733328104,0.003255533054471016,-0.2552110552787781,0.0018028791528195143,-0.0006579754990525544,-0.019175805151462555,0,0,-1000,2,0,-19,-1,3,-153,607560,607.5599975585938,0.0,1500.0
10:02:49.953,AUTO,-35.363262,149.1652367,23970,0.003477666527032852,0.003072447143495083,-0.25987404584884644,0.0005642556352540851,0.000321155006531626,-0.01942831091582775,0,0,-1000,1,1,-19,-1,3,-153,607960,607.9599609375,0.0,1500.0
10:02:50.154,AUTO,-35.363262,149.1652367,24360,0.0033093446400016546,0.0030366566497832537,-0.26450470089912415,-0.001992172561585903,0.0009218810009770095,-0.0184245053678751,0,0,-999,-1,1,-18,-1,3,-153,608350,608.3499755859375,0.0,1500.0
10:02:50.354,AUTO,-35.363262,149.1652367,24749,0.0033109509386122227,0.0030231913551688194,-0.26906800270080566,0.00048137170961126685,-0.000820163288153708,-0.015980223193764687,0,0,-1000,1,0,-16,-1,3,-153,608730,608.72998046875,0.0,1500.0
10:02:50.555,AUTO,-35.363262,149.1652368,25138,-0.0008832032908685505,0.003542703576385975,-0.27275529503822327,-0.10203579068183899,0.015123281627893448,0.0015596289886161685,0,-2,-980,-101,16,1,-1,3,-152,609120,609.1199951171875,0.0,1500.0
10:02:50.756,AUTO,-35.363262,149.1652368,25138,-0.0008832032908685505,0.003542703576385975,-0.27275529503822327,-0.10203579068183899,0.015123281627893448,0.0015596289886161685,0,-2,-980,-101,16,1,-1,3,-152,609120,609.1199951171875,0.0,1500.0
10:02:50.956,AUTO,-35.363262,149.1652368,25138,-0.0008832032908685505,0.003542703576385975,-0.27275529503822327,-0.10203579068183899,0.015123281627893448,0.0015596289886161685,0,-2,-980,-101,16,1,-1,3,-152,609120,609.1199951171875,0.0,1500.0
10:02:51.157,AUTO,-35.363262,149.1652368,25138,-0.0008832032908685505,0.003542703576385975,-0.27275529503822327,-0.10203579068183899,0.015123281627893448,0.0015596289886161685,0,-2,-980,-101,16,1,-1,3,-152,609120,609.1199951171875,0.0,1500.0
10:02:51.358,AUTO,-35.3632621,149.1652367,26299,0.00449867220595479,0.005249000620096922,-0.259167343378067,0.027435878291726112,-0.004027084447443485,0.0264750886708498,0,0,-1001,28,-3,25,-5,0,-153,610280,610.2799682617188,0.0,1500.0
10:02:51.559,AUTO,-35.3632622,149.1652367,26688,0.009134279564023018,0.00405266834422946,-0.25214332342147827,0.011328393593430519,-0.0034589525312185287,0.027938812971115112,0,0,-999,12,-2,27,-5,0,-153,610670,610.6699829101562,0.0,1500.0
10:02:51.759,AUTO,-35.3632622,149.1652367,26688,0.009134279564023018,0.00405266834422946,-0.25214332342147827,0.011328393593430519,-0.0034589525312185287,0.027938812971115112,0,0,-999,12,-2,27,-5,0,-153,610670,610.6699829101562,0.0,1500.0
10:02:51.960,AUTO,-35.3632623,149.1652367,27078,0.010750851593911648,0.00298928190022707,-0.24502092599868774,0.0010569372680038214,-0.003104609437286854,0.026132674887776375,0,0,-999,2,-2,25,-4,2,-153,611060,611.0599975585938,0.0,1500.0
10:02:52.161,AUTO,-35.3632623,149.1652367,27467,0.010658860206604004,0.0021885281894356012,-0.23836471140384674,0.0010170660680159926,0.00028867291985079646,0.025841884315013885,0,0,-999,2,1,25,-4,4,-153,611450,611.4500122070312,0.0,1500.0
10:02:52.361,AUTO,-35.3632624,149.1652368,27855,0.0097130062058568,0.001969210570678115,-0.232294499874115,-0.007053490728139877,-0.001951910206116736,0.023101825267076492,0,0,-999,-6,0,22,-3,6,-153,611840,611.8399658203125,0.0,1500.0
10:02:52.562,AUTO,-35.3632624,149.1652369,28244,0.007797165773808956,0.0014981417916715145,-0.22652359306812286,-0.0075765508227050304,-0.0019503040239214897,0.021740205585956573,0,0,-1000,-6,-1,21,-2,7,-153,612230,612.22998046875,0.0,1500.0
10:02:52.763,AUTO,-35.3632624,149.1652369,28244,0.007797165773808956,0.0014981417916715145,-0.22652359306812286,-0.0075765508227050304,-0.0019503040239214897,0.021740205585956573,0,0,-1000,-6,-1,21,-2,7,-153,612230,612.22998046875,0.0,1500.0
10:02:52.963,AUTO,-35.3632624,149.1652369,28244,0.007797165773808956,0.0014981417916715145,-0.22652359306812286,-0.0075765508227050304,-0.0019503040239214897,0.021740205585956573,0,0,-1000,-6,-1,21,-2,7,-153,612230,612.22998046875,0.0,1500.0
10:02:53.164,AUTO,-35.3632624,149.1652369,28244,0.007797165773808956,0.0014981417916715145,-0.22652359306812286,-0.0075765508227050304,-0.0019503040239214897,0.021740205585956573,0,0,-1000,-6,-1,21,-2,7,-153,612230,612.22998046875,0.0,1500.0
10:02:53.365,AUTO,-35.3632624,149.1652375,29407,0.0022122180089354515,0.0014738704776391387,-0.21085163950920105,-0.004364543128758669,-0.0013313454110175371,0.020588334649801254,1,-1,-1001,-3,0,20,0,8,-153,613390,613.3900146484375,0.0,1500.0
10:02:53.566,AUTO,-35.3632624,149.1652376,29796,0.0009934542467817664,0.001567502855323255,-0.20595398545265198,-0.0034498977474868298,0.001197328558191657,0.02077333815395832,0,-1,-1000,-2,1,20,0,7,-153,613780,613.7799682617188,0.0,1500.0
10:02:53.766,AUTO,-35.3632624,149.1652376,29796,0.0009934542467817664,0.001567502855323255,-0.20595398545265198,-0.0034498977474868298,0.001197328558191657,0.02077333815395832,0,-1,-1000,-2,1,20,0,7,-153,613780,613.7799682617188,0.0,1500.0
10:02:53.967,AUTO,-35.3632624,149.1652378,30184,5.369697100832127e-05,0.0014352352591231465,-0.2013755589723587,-0.003339801449328661,0.00036302400985732675,0.019754983484745026,0,-1,-1000,-2,1,19,0,6,-153,614170,614.1699829101562,0.0,1500.0
10:02:54.168,AUTO,-35.3632624,149.1652379,30573,-0.00019829123630188406,0.0012825861340388656,-0.19693222641944885,0.002370815258473158,-0.0005096138920634985,0.017704155296087265,0,0,-1001,3,0,17,0,6,-153,614560,614.5599975585938,0.0,1500.0
10:02:54.368,AUTO,-35.3632624,149.165238,30961,-0.0005405191332101822,0.0012452378869056702,-0.19265669584274292,-0.005253458395600319,-0.0003400967107154429,0.017819808796048164,0,-1,-999,-4,0,17,0,5,-153,614950,614.9500122070312,0.0,1500.0
10:02:54.569,AUTO,-35.3632624,149.1652381,31349,-0.0005558340926654637,0.001211142516694963,-0.18842750787734985,0.00221391418017447,0.0009490246884524822,0.017509235069155693,0,0,-1000,3,1,17,0,4,-153,615330,615.3299560546875,0.0,1500.0
10:02:54.769,AUTO,-35.3632624,149.1652381,31349,-0.0005558340926654637,0.001211142516694963,-0.18842750787734985,0.00221391418017447,0.0009490246884524822,0.017509235069155693,0,0,-1000,3,1,17,0,4,-153,615330,615.3299560546875,0.0,1500.0
10:02:54.971,AUTO,-35.3632624,149.1652381,31349,-0.0005558340926654637,0.001211142516694963,-0.18842750787734985,0.00221391418017447,0.0009490246884524822,0.017509235069155693,0,0,-1000,3,1,17,0,4,-153,615330,615.3299560546875,0.0,1500.0
10:02:55.171,AUTO,-35.3632624,149.1652381,31349,-0.0005558340926654637,0.001211142516694963,-0.18842750787734985,0.00221391418017447,0.0009490246884524822,0.017509235069155693,0,0,-1000,3,1,17,0,4,-153,615330,615.3299560546875,0.0,1500.0
10:02:55.372,AUTO,-35.3632624,149.1652382,32515,0.000453176413429901,0.001107053249143064,-0.17676573991775513,0.005202124826610088,0.000300253857858479,0.016340147703886032,0,0,-1001,6,1,16,0,1,-153,616500,616.5,0.0,1500.0
10:02:55.573,AUTO,-35.3632623,149.1652382,32902,0.0009378207614645362,0.0010319758439436555,-0.17311571538448334,0.0012717137578874826,0.002350634429603815,0.014352015219628811,0,0,-999,2,3,13,0,1,-153,616890,616.8900146484375,0.0,1500.0
10:02:55.774,AUTO,-35.3632623,149.1652382,33295,0.001333656837232411,0.000992216868326068,-0.16970530152320862,0.0005445322021842003,-0.0001933319726958871,0.013114956207573414,0,0,-999,2,3,13,0,0,-153,617280,616.8900146484375,0.0,1500.0
10:02:55.975,AUTO,-35.3632623,149.1652382,33295,0.001333656837232411,0.000992216868326068,-0.16970530152320862,0.0005445322021842003,-0.0001933319726958871,0.013114956207573414,0,0,-1000,1,0,12,0,0,-153,617280,617.2799682617188,0.0,1500.0
10:02:56.176,AUTO,-35.3632623,149.1652382,33685,0.0015558345476165414,0.0009166472591459751,-0.16635003685951233,0.0038999454118311405,0.001600389601662755,0.014284319244325161,0,0,-1000,4,2,13,0,0,-153,617670,617.6699829101562,0.0,1500.0
10:02:56.377,AUTO,-35.3632623,149.1652382,34074,0.0016033139545470476,0.0010352814570069313,-0.1629975587129593,0.0006447708001360297,-0.00012950401287525892,0.014095749706029892,0,0,-1000,1,1,14,0,0,-153,618060,618.0599975585938,0.0,1500.0
10:02:56.578,AUTO,-35.3632623,149.1652381,34462,0.0016842286568135023,0.0012009205529466271,-0.15983052551746368,0.001013649976812303,0.002553049474954605,0.014278348535299301,0,0,-999,1,3,14,0,0,-153,618450,618.4500122070312,0.0,1500.0
10:02:56.778,AUTO,-35.3632623,149.1652381,34462,0.0016842286568135023,0.0012009205529466271,-0.15983052551746368,0.001013649976812303,0.002553049474954605,0.014278348535299301,0,0,-999,1,3,14,0,0,-153,618450,618.4500122070312,0.0,1500.0
10:02:56.979,AUTO,-35.3632623,149.1652381,34462,0.0016842286568135023,0.0012009205529466271,-0.15983052551746368,0.001013649976812303,0.002553049474954605,0.014278348535299301,0,0,-999,1,3,14,0,0,-153,618450,618.4500122070312,0.0,1500.0
10:02:57.180,AUTO,-35.3632623,149.1652381,34462,0.0016842286568135023,0.0012009205529466271,-0.15983052551746368,0.001013649976812303,0.002553049474954605,0.014278348535299301,0,0,-999,1,3,14,0,0,-153,618450,618.4500122070312,0.0,1500.0
10:02:57.381,AUTO,-35.3632622,149.165238,35624,0.0016866065561771393,0.0011004441184923053,-0.1510075181722641,-0.001364429946988821,0.0004225812153890729,0.0138432327657938,0,0,-999,0,1,13,0,0,-153,619610,619.6099853515625,0.0,1500.0
10:02:57.582,AUTO,-35.3632622,149.165238,36013,0.00180345110129565,0.000995689071714878,-0.1480340212583542,0.004280895926058292,0.0011561476858332753,0.01205377746373415,0,0,-1000,5,2,12,0,0,-153,620000,620.0,0.0,1500.0
10:02:57.782,AUTO,-35.3632622,149.165238,36401,0.0017104892758652568,0.0010298477718606591,-0.14550983905792236,-0.003318249713629484,0.0005681197508238256,0.009875948540866375,0,0,-999,-1,1,9,0,0,-153,620390,620.3900146484375,0.0,1500.0
10:02:57.983,AUTO,-35.3632622,149.165238,36401,0.0017104892758652568,0.0010298477718606591,-0.14550983905792236,-0.003318249713629484,0.0005681197508238256,0.009875948540866375,0,0,-999,-1,1,9,0,0,-153,620390,620.3900146484375,0.0,1500.0
10:02:58.184,AUTO,-35.3632622,149.1652379,36790,0.0019631357863545418,0.0010825380450114608,-0.1431378722190857,0.0007500996580347419,0.0015103518962860107,0.011007853783667088,0,0,-999,1,2,10,0,0,-153,620780,620.7799682617188,0.0,1500.0
10:02:58.385,AUTO,-35.3632622,149.1652379,37178,0.0020245141349732876,0.001018236973322928,-0.14056545495986938,0.00048209517262876034,0.0013699914561584592,0.010426787659525871,0,0,-1000,1,2,10,0,0,-153,621160,621.1599731445312,0.0,1500.0
10:02:58.585,AUTO,-35.3632622,149.1652379,37567,0.0020604669116437435,0.001248497050255537,-0.13834118843078613,-0.00021810189355164766,0.0017473353073000908,0.011239367537200451,0,0,-999,0,3,10,0,0,-153,621550,621.5499877929688,0.0,1500.0
10:02:58.786,ALT_HOLD,-35.3632622,149.1652379,37567,0.0020604669116437435,0.001248497050255537,-0.13834118843078613,-0.00021810189355164766,0.0017473353073000908,0.011239367537200451,0,0,-999,0,3,10,0,0,-153,621550,621.5499877929688,0.0,1500.0
10:02:58.987,ALT_HOLD,-35.3632622,149.1652379,37567,0.0020604669116437435,0.001248497050255537,-0.13834118843078613,-0.00021810189355164766,0.0017473353073000908,0.011239367537200451,0,0,-999,0,3,10,0,0,-153,621550,621.5499877929688,0.0,1500.0
10:02:59.188,ALT_HOLD,-35.3632622,149.1652379,37567,0.0020604669116437435,0.001248497050255537,-0.13834118843078613,-0.00021810189355164766,0.0017473353073000908,0.011239367537200451,0,0,-999,0,3,10,0,0,-153,621550,621.5499877929688,0.0,1500.0
10:02:59.389,ALT_HOLD,-35.3632621,149.1652377,38733,-7.4069517722819e-05,-6.021391891408712e-05,-0.13180944323539734,-0.0020930017344653606,-0.00020782585488632321,0.008833655156195164,0,0,-1000,-1,0,8,0,0,-153,622720,622.719970703125,0.0,1500.0
10:02:59.589,ALT_HOLD,-35.3632621,149.1652377,39121,-0.00021596241276711226,-0.0001884921221062541,-0.12977133691310883,0.0019167565042153,0.0007510180585086346,0.009767983108758926,0,0,-1000,2,1,9,0,-1,-153,623110,623.1099853515625,0.0,1500.0
10:02:59.790,ALT_HOLD,-35.3632621,149.1652376,39496,-0.033161185681819916,0.03101203218102455,-0.0642939954996109,-0.2691377103328705,0.25103428959846497,0.536070704460144,-2,-3,-913,-268,252,536,-2,-4,-139,623480,623.47998046875,0.0,1500.0
10:02:59.991,ALT_HOLD,-35.3632621,149.1652376,39496,-0.033161185681819916,0.03101203218102455,-0.0642939954996109,-0.2691377103328705,0.25103428959846497,0.536070704460144,-2,-3,-913,-268,252,536,-2,-4,-139,623480,623.47998046875,0.0,1500.0
10:03:00.192,ALT_HOLD,-35.3632622,149.1652372,39813,-0.10192007571458817,0.11757799237966537,0.09483145922422409,-0.2702323794364929,0.2278454601764679,0.5495384335517883,0,2,-828,-269,228,549,-17,-20,-105,623800,623.7999877929688,0.0,1500.0
10:03:00.392,ALT_HOLD,-35.3632628,149.1652363,40021,-0.13002124428749084,0.15703383088111877,0.1848469227552414,-0.053832873702049255,0.027210542932152748,0.2519380748271942,4,12,-815,-52,28,252,-41,-47,-58,624010,624.010009765625,0.0,1500.0
10:03:00.593,ALT_HOLD,-35.363264,149.1652346,40109,-0.13589321076869965,0.15385788679122925,0.22520291805267334,-0.0724528431892395,-0.06802447885274887,0.09504924714565277,6,14,-819,-71,-67,95,-65,-76,-9,624090,624.0899658203125,0.0,1500.0
10:03:00.794,ALT_HOLD,-35.363264,149.1652346,40109,-0.13589321076869965,0.15385788679122925,0.22520291805267334,-0.0724528431892395,-0.06802447885274887,0.09504924714565277,6,14,-819,-71,-67,95,-65,-76,-9,624090,624.0899658203125,0.0,1500.0
10:03:00.995,ALT_HOLD,-35.363264,149.1652346,40109,-0.13589321076869965,0.15385788679122925,0.22520291805267334,-0.0724528431892395,-0.06802447885274887,0.09504924714565277,6,14,-819,-71,-67,95,-65,-76,-9,624090,624.0899658203125,0.0,1500.0
10:03:01.195,ALT_HOLD,-35.363264,149.1652346,40109,-0.13589321076869965,0.15385788679122925,0.22520291805267334,-0.0724528431892395,-0.06802447885274887,0.09504924714565277,6,14,-819,-71,-67,95,-65,-76,-9,624090,624.0899658203125,0.0,1500.0
10:03:01.396,ALT_HOLD,-35.3632702,149.1652256,39621,-0.0890669971704483,0.09318263083696365,0.22683724761009216,1.5257062911987305,-0.07054881751537323,-0.03439566120505333,15,133,-874,1529,-69,-34,-117,-135,137,623610,623.6099853515625,0.0,1500.0
10:03:01.597,ALT_HOLD,-35.363273,149.1652217,39236,-0.08087966591119766,0.07702188193798065,0.21685263514518738,0.9611108303070068,-0.05601423606276512,-0.021080607548356056,15,133,-877,966,-54,-21,-129,-145,166,623220,623.219970703125,0.0,1500.0
10:03:01.798,ALT_HOLD,-35.363276,149.1652176,38780,-0.06822314858436584,0.06378178298473358,0.20808623731136322,0.10480011254549026,-0.037084877490997314,-0.018770165741443634,20,100,-934,109,-35,-18,-139,-151,185,622770,622.7699584960938,0.0,1500.0
10:03:01.998,ALT_HOLD,-35.363276,149.1652176,38780,-0.06822314858436584,0.06378178298473358,0.20808623731136322,0.10480011254549026,-0.037084877490997314,-0.018770165741443634,20,100,-934,109,-35,-18,-139,-151,185,622770,622.7699584960938,0.0,1500.0
10:03:02.199,ALT_HOLD,-35.3632793,149.1652134,38292,-0.05600490793585777,0.052546218037605286,0.20268048346042633,-0.8185244202613831,-0.048235826194286346,-0.011697947978973389,24,62,-965,-814,-47,-11,-148,-150,194,622280,622.2799682617188,0.0,1500.0
10:03:02.399,ALT_HOLD,-35.3632828,149.1652094,37790,-0.03317489102482796,0.04323698207736015,0.19487571716308594,-1.8925305604934692,-0.03573741018772125,-0.03487557917833328,27,4,-994,-1890,-34,-34,-155,-144,197,621780,621.7799682617188,0.0,1500.0
10:03:02.600,ALT_HOLD,-35.3632864,149.1652057,37281,-0.008380992338061333,0.03571510687470436,0.18805330991744995,-2.0827407836914062,-0.02432629093527794,-0.052112799137830734,32,-56,-1005,-2083,-23,-52,-160,-132,195,621270,621.2699584960938,0.0,1500.0
10:03:02.801,ALT_HOLD,-35.3632864,149.1652057,37281,-0.008380992338061333,0.03571510687470436,0.18805330991744995,-2.0827407836914062,-0.02432629093527794,-0.052112799137830734,32,-56,-1005,-2083,-23,-52,-160,-132,195,621270,621.2699584960938,0.0,1500.0
10:03:03.002,ALT_HOLD,-35.3632864,149.1652057,37281,-0.008380992338061333,0.03571510687470436,0.18805330991744995,-2.0827407836914062,-0.02432629093527794,-0.052112799137830734,32,-56,-1005,-2083,-23,-52,-160,-132,195,621270,621.2699584960938,0.0,1500.0
10:03:03.203,ALT_HOLD,-35.3632864,149.1652057,37281,-0.008380992338061333,0.03571510687470436,0.18805330991744995,-2.0827407836914062,-0.02432629093527794,-0.052112799137830734,32,-56,-1005,-2083,-23,-52,-160,-132,195,621270,621.2699584960938,0.0,1500.0
10:03:03.403,ALT_HOLD,-35.3632977,149.1651969,35798,0.02372872456908226,0.02012295089662075,0.1762358695268631,-0.802791178226471,-0.015330691821873188,-0.04378904029726982,30,-43,-1000,-806,-14,-43,-165,-89,183,619780,619.7799682617188,0.0,1500.0
10:03:03.604,ALT_HOLD,-35.3633015,149.1651948,35321,0.03520616888999939,0.016429869458079338,0.17325910925865173,0.5480230450630188,-0.010724972933530807,-0.027293430641293526,35,3,-1011,545,-9,-27,-164,-75,181,619310,619.3099975585938,0.0,1500.0
10:03:03.805,AUTO,-35.3633053,149.165193,34854,0.04165958985686302,0.013376979157328606,0.1678577959537506,1.372575283050537,-0.009722460061311722,-0.012071735225617886,33,63,-1031,1371,-8,-12,-162,-61,177,618840,618.8399658203125,0.0,1500.0
10:03:04.006,AUTO,-35.3633053,149.165193,34854,0.04165958985686302,0.013376979157328606,0.1678577959537506,1.372575283050537,-0.009722460061311722,-0.012071735225617886,33,63,-1031,1371,-8,-12,-162,-61,177,618840,618.8399658203125,0.0,1500.0
10:03:04.207,AUTO,-35.3633089,149.1651915,34409,0.04099850729107857,-0.06632563471794128,0.1624261885881424,1.7992761135101318,-0.41183897852897644,-0.029491938650608063,26,92,-1146,1799,-410,-29,-152,-46,160,618390,618.3900146484375,0.0,1500.0
10:03:04.408,AUTO,-35.363312,149.1651903,34066,0.014085602946579456,-0.09530945867300034,0.1588965505361557,1.1803783178329468,0.0827302411198616,-0.004626458510756493,23,68,-1218,1181,83,-4,-120,-33,97,618050,618.0499877929688,0.0,1500.0
10:03:04.608,AUTO,-35.3633145,149.1651893,33819,0.007680156733840704,-0.08386566489934921,0.15329308807849884,1.259902000427246,-0.009162534959614277,-0.013763808645308018,21,71,-1137,1261,-8,-13,-93,-27,83,617800,617.7999877929688,0.0,1500.0
10:03:04.811,AUTO,-35.3633145,149.1651893,33819,0.007680156733840704,-0.08386566489934921,0.15329308807849884,1.259902000427246,-0.009162534959614277,-0.013763808645308018,21,71,-1137,1261,-8,-13,-93,-27,83,617800,617.7999877929688,0.0,1500.0
10:03:05.012,AUTO,-35.3633145,149.1651893,33819,0.007680156733840704,-0.08386566489934921,0.15329308807849884,1.259902000427246,-0.009162534959614277,-0.013763808645308018,21,71,-1137,1261,-8,-13,-93,-27,83,617800,617.7999877929688,0.0,1500.0
10:03:05.213,AUTO,-35.3633145,149.1651893,33819,0.007680156733840704,-0.08386566489934921,0.15329308807849884,1.259902000427246,-0.009162534959614277,-0.013763808645308018,21,71,-1137,1261,-8,-13,-93,-27,83,617800,617.7999877929688,0.0,1500.0
10:03:05.414,AUTO,-35.3633186,149.1651864,33418,0.025644022971391678,-0.058058056980371475,0.132760688662529,-0.10536383092403412,0.05256614834070206,-0.011976690962910652,4,-13,-1054,-106,53,-11,-31,-11,23,617400,617.3999633789062,0.0,1500.0
10:03:05.614,AUTO,-35.3633192,149.1651856,33373,0.01952672190964222,-0.045968882739543915,0.1282442957162857,-0.6225655674934387,0.051066335290670395,0.005751092918217182,1,-28,-1060,-622,52,6,-18,-6,9,617360,617.3599853515625,0.0,1500.0
10:03:05.815,AUTO,-35.3633195,149.165185,33360,0.0178799070417881,-0.03536362946033478,0.12523075938224792,-0.538007915019989,0.03943542018532753,0.014056527987122536,0,-5,-1051,-536,40,14,-8,0,-1,617350,617.3499755859375,0.0,1500.0
10:03:06.016,AUTO,-35.3633195,149.165185,33360,0.0178799070417881,-0.03536362946033478,0.12523075938224792,-0.538007915019989,0.03943542018532753,0.014056527987122536,0,-5,-1051,-536,40,14,-8,0,-1,617350,617.3499755859375,0.0,1500.0
10:03:06.216,AUTO,-35.3633197,149.1651845,33375,0.02754812315106392,-0.02710161730647087,0.12313590198755264,0.15487702190876007,0.027348361909389496,0.018718993291258812,0,23,-1062,157,28,19,-1,6,-13,617360,617.3599853515625,0.0,1500.0
10:03:06.417,AUTO,-35.3633197,149.1651842,33423,0.03440745919942856,-0.01898953691124916,0.12184374034404755,0.4131881296634674,0.03016764298081398,0.00780813954770565,0,12,-1051,414,31,8,3,10,-25,617410,617.4099731445312,0.0,1500.0
10:03:06.618,AUTO,-35.3633198,149.1651839,33495,0.02606399916112423,-0.012486289255321026,0.12065520137548447,-0.15102113783359528,0.025451503694057465,0.003481152467429638,0,-17,-1040,-150,26,3,5,13,-37,617480,617.47998046875,0.0,1500.0
10:03:06.818,AUTO,-35.3633198,149.1651839,33495,0.02606399916112423,-0.012486289255321026,0.12065520137548447,-0.15102113783359528,0.025451503694057465,0.003481152467429638,0,-17,-1040,-150,26,3,5,13,-37,617480,617.47998046875,0.0,1500.0
10:03:07.019,AUTO,-35.3633198,149.1651839,33495,0.02606399916112423,-0.012486289255321026,0.12065520137548447,-0.15102113783359528,0.025451503694057465,0.003481152467429638,0,-17,-1040,-150,26,3,5,13,-37,617480,617.47998046875,0.0,1500.0
10:03:07.220,AUTO,-35.3633198,149.1651839,33495,0.02606399916112423,-0.012486289255321026,0.12065520137548447,-0.15102113783359528,0.025451503694057465,0.003481152467429638,0,-17,-1040,-150,26,3,5,13,-37,617480,617.47998046875,0.0,1500.0
10:03:07.420,AUTO,-35.3633195,149.1651842,33885,0.014646359719336033,-0.0018963455222547054,0.11572433263063431,0.22274886071681976,0.009522522799670696,-0.00514537887647748,0,6,-1048,224,10,-4,7,19,-73,617870,617.8699951171875,0.0,1500.0
10:03:07.621,AUTO,-35.3633194,149.1651844,34079,0.008372548967599869,0.000228099524974823,0.11374956369400024,-0.09864779561758041,0.008137050084769726,-0.007177398074418306,0,-11,-1046,-97,8,-6,7,18,-84,618060,618.0599975585938,0.0,1500.0
10:03:07.822,AUTO,-35.3633194,149.1651846,34303,0.0038291390519589186,0.0013476607855409384,0.11168710142374039,-0.12231533229351044,0.0010799644514918327,-0.005440975073724985,0,-4,-1047,-120,2,-4,6,18,-96,618290,618.2899780273438,0.0,1500.0
10:03:08.022,AUTO,-35.3633194,149.1651846,34303,0.0038291390519589186,0.0013476607855409384,0.11168710142374039,-0.12231533229351044,0.0010799644514918327,-0.005440975073724985,0,-4,-1047,-120,2,-4,6,18,-96,618290,618.2899780273438,0.0,1500.0
10:03:08.223,AUTO,-35.3633193,149.1651848,34558,0.0038917176425457,0.0021692016161978245,0.10944254696369171,0.08050517737865448,-0.0009460248402319849,-0.008720274083316326,0,2,-1048,81,0,-8,5,17,-108,618540,618.5399780273438,0.0,1500.0
10:03:08.424,AUTO,-35.3633193,149.165185,34843,0.0030200413893908262,0.0019326015608385205,0.10693097114562988,0.01946510374546051,-0.0014468698063865304,-0.01237797737121582,0,-2,-1046,21,0,-11,4,15,-119,618830,618.8299560546875,0.0,1500.0
10:03:08.625,AUTO,-35.3633193,149.1651853,35158,0.0012356048682704568,0.0023033716715872288,0.10433733463287354,-0.02412243001163006,0.0047175148501992226,-0.010567502118647099,0,-3,-1045,-22,5,-9,3,14,-130,619140,619.1400146484375,0.0,1500.0
10:03:08.825,AUTO,-35.3633193,149.1651853,35158,0.0012356048682704568,0.0023033716715872288,0.10433733463287354,-0.02412243001163006,0.0047175148501992226,-0.010567502118647099,0,-3,-1045,-22,5,-9,3,14,-130,619140,619.1400146484375,0.0,1500.0
10:03:09.026,AUTO,-35.3633193,149.1651853,35158,0.0012356048682704568,0.0023033716715872288,0.10433733463287354,-0.02412243001163006,0.0047175148501992226,-0.010567502118647099,0,-3,-1045,-22,5,-9,3,14,-130,619140,619.1400146484375,0.0,1500.0
10:03:09.227,AUTO,-35.3633193,149.1651853,35158,0.0012356048682704568,0.0023033716715872288,0.10433733463287354,-0.02412243001163006,0.0047175148501992226,-0.010567502118647099,0,-3,-1045,-22,5,-9,3,14,-130,619140,619.1400146484375,0.0,1500.0
10:03:09.428,AUTO,-35.3633192,149.165186,36247,0.025050923228263855,-0.0013861700426787138,0.09941078722476959,0.042277391999959946,-0.009365130215883255,-0.002761519979685545,0,-2,-1005,43,-8,-2,2,17,-147,620230,620.22998046875,0.0,1500.0
10:03:09.629,AUTO,-35.3633192,149.1651864,36625,0.03522254154086113,-0.0038367698434740305,0.09908663481473923,0.04033861681818962,-0.01033319253474474,-0.0008722380734980106,1,-4,-1001,42,-9,0,2,23,-148,620610,620.6099853515625,0.0,1500.0
10:03:09.829,AUTO,-35.3633192,149.1651871,37004,0.04478010535240173,-0.0065440027974545956,0.09912420809268951,0.038036514073610306,-0.012379735708236694,0.0003017306444235146,1,-5,-1000,39,-11,1,2,31,-148,620990,620.989990234375,0.0,1500.0
10:03:10.031,AUTO,-35.3633192,149.1651881,37384,0.053655561059713364,-0.009687496349215508,0.09945444762706757,0.03405223786830902,-0.012976381927728653,0.0016713188961148262,1,-5,-1000,39,-11,1,4,42,-148,621370,621.3699951171875,0.0,1500.0
10:03:10.233,AUTO,-35.3633192,149.1651881,37384,0.053655561059713364,-0.009687496349215508,0.09945444762706757,0.03405223786830902,-0.012976381927728653,0.0016713188961148262,2,-7,-999,35,-12,2,4,42,-148,621370,621.3699951171875,0.0,1500.0
10:03:10.433,AUTO,-35.3633191,149.1651893,37760,0.048366397619247437,-0.0012777819065377116,0.08701438456773758,-0.08156213164329529,0.09022632241249084,-0.10509640723466873,2,-10,-991,-80,91,-104,5,52,-146,621750,621.75,0.0,1500.0
10:03:10.634,AUTO,-35.363319,149.1651908,38133,0.015087577514350414,0.022756749764084816,0.06112905591726303,-0.1725763976573944,0.05248601362109184,-0.08965478837490082,2,-13,-995,-170,53,-89,3,57,-144,622120,622.1199951171875,0.0,1500.0
10:03:10.835,AUTO,-35.363319,149.1651908,38133,0.015087577514350414,0.022756749764084816,0.06112905591726303,-0.1725763976573944,0.05248601362109184,-0.08965478837490082,2,-13,-995,-170,53,-89,3,57,-144,622120,622.1199951171875,0.0,1500.0
10:03:11.036,AUTO,-35.363319,149.1651908,38133,0.015087577514350414,0.022756749764084816,0.06112905591726303,-0.1725763976573944,0.05248601362109184,-0.08965478837490082,2,-13,-995,-170,53,-89,3,57,-144,622120,622.1199951171875,0.0,1500.0
10:03:11.237,AUTO,-35.363319,149.1651908,38133,0.015087577514350414,0.022756749764084816,0.06112905591726303,-0.1725763976573944,0.05248601362109184,-0.08965478837490082,2,-13,-995,-170,53,-89,3,57,-144,622120,622.1199951171875,0.0,1500.0
10:03:11.438,AUTO,-35.3633191,149.1651944,39257,-0.07842432707548141,0.005674908868968487,0.024952149018645287,-0.02058926783502102,-0.0177634097635746,-0.03141636401414871,3,-6,-1008,-19,-16,-30,-3,16,-148,623240,623.239990234375,0.0,1500.0
10:03:11.639,AUTO,-35.3633191,149.1651946,39640,-0.07775181531906128,0.0018866908503696322,0.0178984384983778,0.016057400032877922,-0.00824759528040886,-0.027116073295474052,1,-2,-1003,17,-7,-26,-2,-3,-149,623630,623.6300048828125,0.0,1500.0
10:03:11.840,ALT_HOLD,-35.3633191,149.1651944,40024,-0.07019992917776108,0.0003177737526129931,0.011835647746920586,0.038867976516485214,-0.00036998995346948504,-0.022669028490781784,-1,1,-1001,40,0,-22,-2,-21,-149,624010,624.010009765625,0.0,1500.0
10:03:12.040,ALT_HOLD,-35.3633191,149.1651937,40408,-0.05801650136709213,-0.00035005679819732904,0.007729687727987766,0.05267457291483879,-0.0005753522273153067,-0.014220180921256542,-2,4,-1000,54,0,-13,-2,-35,-149,624390,624.3900146484375,0.0,1500.0
10:03:12.241,ALT_HOLD,-35.3633191,149.1651937,40408,-0.05801650136709213,-0.00035005679819732904,0.007729687727987766,0.05267457291483879,-0.0005753522273153067,-0.014220180921256542,-2,4,-1000,54,0,-13,-2,-35,-149,624390,624.3900146484375,0.0,1500.0
10:03:12.442,ALT_HOLD,-35.3633191,149.1651927,40795,-0.043943919241428375,-0.0001229390618391335,0.00511163892224431,0.057007886469364166,0.004013553727418184,-0.009078366681933403,-6,8,-1001,58,5,-8,-2,-46,-149,624780,624.7799682617188,0.0,1500.0
10:03:12.642,ALT_HOLD,-35.363319,149.1651914,41179,-0.02914968505501747,0.0010972294257953763,0.0037445395719259977,0.06050480902194977,0.0071975248865783215,-0.005555388517677784,-5,9,-1001,62,8,-5,-2,-52,-149,625160,625.1599731445312,0.0,1500.0
10:03:12.843,ALT_HOLD,-35.363319,149.1651914,41179,-0.02914968505501747,0.0010972294257953763,0.0037445395719259977,0.06050480902194977,0.0071975248865783215,-0.005555388517677784,-5,9,-1001,62,8,-5,-2,-52,-149,625160,625.1599731445312,0.0,1500.0
10:03:13.044,ALT_HOLD,-35.363319,149.1651914,41179,-0.02914968505501747,0.0010972294257953763,0.0037445395719259977,0.06050480902194977,0.0071975248865783215,-0.005555388517677784,-5,9,-1001,62,8,-5,-2,-52,-149,625160,625.1599731445312,0.0,1500.0
10:03:13.245,ALT_HOLD,-35.363319,149.1651914,41179,-0.02914968505501747,0.0010972294257953763,0.0037445395719259977,0.06050480902194977,0.0071975248865783215,-0.005555388517677784,-5,9,-1001,62,8,-5,-2,-52,-149,625160,625.1599731445312,0.0,1500.0
10:03:13.446,ALT_HOLD,-35.3633191,149.1651863,42223,-0.17911529541015625,0.02300933003425598,0.059451356530189514,-0.18075741827487946,0.03567943722009659,0.11016585677862167,-5,17,-825,-178,36,110,-6,-93,-92,626210,626.2099609375,0.0,1500.0
10:03:13.647,ALT_HOLD,-35.3633191,149.1651834,42404,-0.19908776879310608,0.029630713164806366,0.07657556235790253,-0.016248704865574837,0.0025753905065357685,0.04073966294527054,-9,22,-809,-14,3,41,-10,-127,-43,626390,626.3900146484375,0.0,1500.0
10:03:13.847,ALT_HOLD,-35.3633193,149.1651795,42462,-0.18950609862804413,0.028276167809963226,0.08097165822982788,0.077639639377594,-0.011108646169304848,-0.0045995404943823814,-13,31,-808,79,-9,-4,-15,-159,5,626450,626.4500122070312,0.0,1500.0
10:03:14.048,ALT_HOLD,-35.3633196,149.1651748,42395,-0.16779135167598724,0.02470519207417965,0.07904616743326187,0.08615265041589737,-0.011060926131904125,-0.017027780413627625,-17,36,-815,87,-9,-16,-21,-186,53,626380,626.3800048828125,0.0,1500.0
10:03:14.248,ALT_HOLD,-35.3633196,149.1651748,42395,-0.16779135167598724,0.02470519207417965,0.07904616743326187,0.08615265041589737,-0.011060926131904125,-0.017027780413627625,-17,36,-815,87,-9,-16,-21,-186,53,626380,626.3800048828125,0.0,1500.0
10:03:14.449,ALT_HOLD,-35.3633201,149.1651695,42210,-0.14510951936244965,0.02106279879808426,0.07584364712238312,0.025014106184244156,-0.012758160941302776,-0.01689581573009491,-21,52,-822,26,-11,-16,-28,-206,97,626200,626.2000122070312,0.0,1500.0
10:03:14.650,ALT_HOLD,-35.3633206,149.1651637,41913,-0.109157495200634,0.017354203388094902,0.07203418016433716,1.7844609022140503,-0.014526620507240295,-0.04860951006412506,-19,125,-743,1788,-13,-48,-34,-220,146,625900,625.8999633789062,0.0,1500.0
10:03:14.850,ALT_HOLD,-35.3633206,149.1651637,41913,-0.109157495200634,0.017354203388094902,0.07203418016433716,1.7844609022140503,-0.014526620507240295,-0.04860951006412506,-19,125,-743,1788,-13,-48,-34,-220,146,625900,625.8999633789062,0.0,1500.0
10:03:15.051,ALT_HOLD,-35.3633206,149.1651637,41913,-0.109157495200634,0.017354203388094902,0.07203418016433716,1.7844609022140503,-0.014526620507240295,-0.04860951006412506,-19,125,-743,1788,-13,-48,-34,-220,146,625900,625.8999633789062,0.0,1500.0
10:03:15.251,ALT_HOLD,-35.3633206,149.1651637,41913,-0.109157495200634,0.017354203388094902,0.07203418016433716,1.7844609022140503,-0.014526620507240295,-0.04860951006412506,-19,125,-743,1788,-13,-48,-34,-220,146,625900,625.8999633789062,0.0,1500.0
10:03:15.452,ALT_HOLD,-35.3633232,149.1651447,40459,-0.06691523641347885,0.009925070218741894,0.06745589524507523,-0.48992210626602173,0.0034577143378555775,-0.035222478210926056,-14,94,-974,-484,4,-34,-51,-235,209,624440,624.4400024414062,0.0,1500.0
10:03:15.653,ALT_HOLD,-35.3633243,149.1651383,39929,-0.051593855023384094,0.007447489537298679,0.0646887719631195,-1.4592729806900024,-0.01595916971564293,0.007365632802248001,-13,57,-1012,-1454,-14,8,-56,-228,207,623910,623.9099731445312,0.0,1500.0
10:03:15.854,ALT_HOLD,-35.3633255,149.1651322,39408,-0.026825381442904472,0.005930859595537186,0.06172219663858414,-1.9753237962722778,-0.004526842385530472,0.004195569548755884,-14,-8,-1025,-1973,-3,4,-61,-218,202,623390,623.3900146484375,0.0,1500.0
10:03:16.054,ALT_HOLD,-35.3633269,149.1651264,38897,-0.01226004958152771,0.0045510041527450085,0.06353104114532471,-1.9764479398727417,-0.0020744537468999624,0.0007685176096856594,-7,-46,-1030,-1976,-1,1,-65,-203,195,622880,622.8800048828125,0.0,1500.0
10:03:16.255,ALT_HOLD,-35.3633269,149.1651264,38897,-0.01226004958152771,0.0045510041527450085,0.06353104114532471,-1.9764479398727417,-0.0020744537468999624,0.0007685176096856594,-7,-46,-1030,-1976,-1,1,-65,-203,195,622880,622.8800048828125,0.0,1500.0
10:03:16.456,ALT_HOLD,-35.3633284,149.165121,38401,0.02095128409564495,0.0033198827877640724,0.062018487602472305,-0.8631613254547119,-0.0072318268939852715,0.0050187138840556145,-4,-49,-992,-865,-6,5,-69,-189,190,622390,622.3900146484375,0.0,1500.0
10:03:16.657,ALT_HOLD,-35.36333,149.1651159,37922,0.03127460926771164,0.00233997730538249,0.060052234679460526,0.04014550894498825,-0.004824406001716852,0.002501868177205324,-2,-8,-1032,37,-3,3,-71,-173,182,621910,621.9099731445312,0.0,1500.0
10:03:16.857,ALT_HOLD,-35.36333,149.1651159,37922,0.03127460926771164,0.00233997730538249,0.060052234679460526,0.04014550894498825,-0.004824406001716852,0.002501868177205324,-2,-8,-1032,37,-3,3,-71,-173,182,621910,621.9099731445312,0.0,1500.0
10:03:17.058,AUTO,-35.36333,149.1651159,37922,0.03127460926771164,0.00233997730538249,0.060052234679460526,0.04014550894498825,-0.004824406001716852,0.002501868177205324,-2,-8,-1032,37,-3,3,-71,-173,182,621910,621.9099731445312,0.0,1500.0
10:03:17.259,AUTO,-35.36333,149.1651159,37922,0.03127460926771164,0.00233997730538249,0.060052234679460526,0.04014550894498825,-0.004824406001716852,0.002501868177205324,-2,-8,-1032,37,-3,3,-71,-173,182,621910,621.9099731445312,0.0,1500.0
10:03:17.459,AUTO,-35.3633348,149.1651033,36631,0.0830361545085907,-0.06022925302386284,0.05467315390706062,0.9390619397163391,0.037395451217889786,0.008221258409321308,-2,77,-1381,941,38,8,-55,-108,106,620620,620.6199951171875,0.0,1500.0
10:03:17.660,AUTO,-35.3633359,149.1651005,36391,0.08233176916837692,-0.04903912544250488,0.05469302460551262,1.4700933694839478,0.0013800859451293945,0.0007496795151382685,0,72,-1021,1471,2,1,-43,-84,88,620380,620.3800048828125,0.0,1500.0
10:03:17.861,AUTO,-35.3633369,149.1650984,36192,0.0782092958688736,-0.04952012747526169,0.054238203912973404,0.9721303582191467,0.014368840493261814,-0.012882717885077,1,54,-1110,973,15,-12,-31,-61,59,620180,620.1799926757812,0.0,1500.0
10:03:18.062,AUTO,-35.3633376,149.1650968,36049,0.058047421276569366,-0.04373961314558983,0.053712911903858185,0.5918459296226501,0.016393406316637993,-0.014331752434372902,0,19,-1095,592,17,-13,-21,-44,46,620030,620.0299682617188,0.0,1500.0
10:03:18.263,AUTO,-35.3633376,149.1650968,36049,0.058047421276569366,-0.04373961314558983,0.053712911903858185,0.5918459296226501,0.016393406316637993,-0.014331752434372902,0,19,-1095,592,17,-13,-21,-44,46,620030,620.0299682617188,0.0,1500.0
10:03:18.463,AUTO,-35.3633381,149.1650958,35953,0.0420587919652462,-0.036786943674087524,0.05285517871379852,-0.14425206184387207,0.02902836725115776,-0.019165799021720886,0,-25,-1037,-144,29,-18,-12,-30,29,619940,619.9400024414062,0.0,1500.0
10:03:18.664,AUTO,-35.3633384,149.1650951,35892,0.025687433779239655,-0.029536409303545952,0.0517251081764698,-0.6246178150177002,0.03296715393662453,-0.013841426931321621,0,-31,-1057,-624,33,-13,-5,-19,15,619880,619.8800048828125,0.0,1500.0
10:03:18.865,AUTO,-35.3633384,149.1650951,35892,0.025687433779239655,-0.029536409303545952,0.0517251081764698,-0.6246178150177002,0.03296715393662453,-0.013841426931321621,0,-31,-1057,-624,33,-13,-5,-19,15,619880,619.8800048828125,0.0,1500.0
10:03:19.066,AUTO,-35.3633384,149.1650951,35892,0.025687433779239655,-0.029536409303545952,0.0517251081764698,-0.6246178150177002,0.03296715393662453,-0.013841426931321621,0,-31,-1057,-624,33,-13,-5,-19,15,619880,619.8800048828125,0.0,1500.0
10:03:19.267,AUTO,-35.3633384,149.1650951,35892,0.025687433779239655,-0.029536409303545952,0.0517251081764698,-0.6246178150177002,0.03296715393662453,-0.013841426931321621,0,-31,-1057,-624,33,-13,-5,-19,15,619880,619.8800048828125,0.0,1500.0
10:03:19.468,AUTO,-35.3633386,149.1650944,35906,0.013243868947029114,-0.010175744071602821,0.04821329191327095,0.4672646224498749,0.017117027193307877,-0.007545159664005041,0,23,-1053,469,18,-7,6,-2,-20,619890,619.8900146484375,0.0,1500.0
10:03:19.669,AUTO,-35.3633387,149.1650945,35969,0.0076283738017082214,-0.005573713220655918,0.04733629152178764,0.13027630746364594,0.019001275300979614,-0.010025084018707275,0,-7,-1040,130,19,-9,8,0,-31,619950,619.9500122070312,0.0,1500.0
10:03:19.870,AUTO,-35.3633386,149.1650946,36060,-0.0025086216628551483,-0.003019679570570588,0.046145372092723846,-0.35226672887802124,0.007107281591743231,-0.008016855455935001,0,-21,-1044,-351,7,-7,8,0,-43,620050,620.0499877929688,0.0,1500.0
