time_stamp,MODE,lat,lon,relative_alt,roll,pitch,yaw,rollspeed,pitchspeed,yawspeed,xacc,yacc,zacc,xgyro,ygyro,zgyro,vx,vy,vz,chan4_raw,RTL_ALT
16:13:26.068,STABILIZE,-35.3632621,149.1652374,0,0.000548850279301405,0.001586979953572154,0.02675541676580906,0.0003339962277095765,0.00016553816385567188,0.0022068945690989494,0,1,-1000,0,0,1,-1,2,0,1500,1500.0
16:13:26.270,STABILIZE,-35.3632621,149.1652374,0,0.000548850279301405,0.001586979953572154,0.02675541676580906,0.0003339962277095765,0.00016553816385567188,0.0022068945690989494,0,1,-1000,0,0,1,-1,2,0,1500,1500.0
16:13:26.470,STABILIZE,-35.3632621,149.1652374,0,0.000548850279301405,0.001586979953572154,0.02675541676580906,0.0003339962277095765,0.00016553816385567188,0.0022068945690989494,0,1,-1000,0,0,1,-1,2,0,1500,1500.0
16:13:26.671,STABILIZE,-35.3632621,149.1652374,0,0.000548850279301405,0.001586979953572154,0.02675541676580906,0.0003339962277095765,0.00016553816385567188,0.0022068945690989494,0,1,-1000,0,0,1,-1,2,0,1500,1500.0
16:13:26.872,STABILIZE,-35.3632621,149.1652374,0,0.000548850279301405,0.001586979953572154,0.02675541676580906,0.0003339962277095765,0.00016553816385567188,0.0022068945690989494,0,1,-1000,0,0,1,-1,2,0,1500,1500.0
16:13:27.072,STABILIZE,-35.3632622,149.1652376,0,5.771183714387007e-05,0.0013743338640779257,0.025393616408109665,0.00013121223310008645,0.00014929051394574344,0.002167205326259136,0,1,-1000,0,0,0,-2,3,2,1500,1500.0
16:13:27.276,STABILIZE,-35.3632622,149.1652376,0,5.771183714387007e-05,0.0013743338640779257,0.025393616408109665,0.00013121223310008645,0.00014929051394574344,0.002167205326259136,0,1,-1000,0,0,0,-2,3,2,1500,1500.0
16:13:27.478,STABILIZE,-35.3632622,149.1652376,0,5.771183714387007e-05,0.0013743338640779257,0.025393616408109665,0.00013121223310008645,0.00014929051394574344,0.002167205326259136,0,1,-1000,0,0,0,-2,3,2,1500,1500.0
16:13:27.680,STABILIZE,-35.3632622,149.1652376,0,5.771183714387007e-05,0.0013743338640779257,0.025393616408109665,0.00013121223310008645,0.00014929051394574344,0.002167205326259136,0,1,-1000,0,0,0,-2,3,2,1500,1500.0
16:13:27.881,STABILIZE,-35.3632622,149.1652376,0,5.771183714387007e-05,0.0013743338640779257,0.025393616408109665,0.00013121223310008645,0.00014929051394574344,0.002167205326259136,0,1,-1000,0,0,0,-2,3,2,1500,1500.0
16:13:28.082,STABILIZE,-35.3632622,149.1652376,0,5.771183714387007e-05,0.0013743338640779257,0.025393616408109665,0.00013121223310008645,0.00014929051394574344,0.002167205326259136,0,1,-1000,0,0,0,-1,2,2,1500,1500.0
16:13:28.285,STABILIZE,-35.3632622,149.1652376,0,5.771183714387007e-05,0.0013743338640779257,0.025393616408109665,0.00013121223310008645,0.00014929051394574344,0.002167205326259136,0,1,-1000,0,0,0,-1,2,2,1500,1500.0
16:13:28.486,STABILIZE,-35.3632622,149.1652376,0,5.771183714387007e-05,0.0013743338640779257,0.025393616408109665,0.00013121223310008645,0.00014929051394574344,0.002167205326259136,0,1,-1000,0,0,0,-1,2,2,1500,1500.0
16:13:28.687,STABILIZE,-35.3632622,149.1652376,0,5.771183714387007e-05,0.0013743338640779257,0.025393616408109665,0.00013121223310008645,0.00014929051394574344,0.002167205326259136,0,1,-1000,0,0,0,-1,2,2,1500,1500.0
16:13:28.888,STABILIZE,-35.3632622,149.1652376,0,5.771183714387007e-05,0.0013743338640779257,0.025393616408109665,0.00013121223310008645,0.00014929051394574344,0.002167205326259136,0,1,-1000,0,0,0,-1,2,2,1500,1500.0
16:13:29.089,STABILIZE,-35.3632622,149.1652376,0,-0.0008304110961034894,0.001015468849800527,0.024465933442115784,0.0003212407464161515,0.00033941573929041624,0.0020381822250783443,0,1,-1000,0,0,0,-1,2,2,1500,1500.0
16:13:29.289,STABILIZE,-35.3632622,149.1652376,0,-0.0008304110961034894,0.001015468849800527,0.024465933442115784,0.0003212407464161515,0.00033941573929041624,0.0020381822250783443,0,1,-1000,0,0,0,-1,2,2,1500,1500.0
16:13:29.491,STABILIZE,-35.3632622,149.1652376,0,-0.0008304110961034894,0.001015468849800527,0.024465933442115784,0.0003212407464161515,0.00033941573929041624,0.0020381822250783443,0,1,-1000,0,0,0,-1,2,2,1500,1500.0
16:13:29.695,STABILIZE,-35.3632622,149.1652376,0,-0.0008304110961034894,0.001015468849800527,0.024465933442115784,0.0003212407464161515,0.00033941573929041624,0.0020381822250783443,0,1,-1000,0,0,0,-1,2,2,1500,1500.0
16:13:29.898,STABILIZE,-35.3632622,149.1652376,0,-0.0008304110961034894,0.001015468849800527,0.024465933442115784,0.0003212407464161515,0.00033941573929041624,0.0020381822250783443,0,1,-1000,0,0,0,-1,2,2,1500,1500.0
16:13:30.102,STABILIZE,-35.3632621,149.1652375,0,-0.0008304110961034894,0.001015468849800527,0.024465933442115784,0.0003212407464161515,0.00033941573929041624,0.0020381822250783443,0,1,-1000,0,1,1,-1,0,-1,1500,1500.0
16:13:30.303,STABILIZE,-35.3632621,149.1652375,0,-0.0008304110961034894,0.001015468849800527,0.024465933442115784,0.0003212407464161515,0.00033941573929041624,0.0020381822250783443,0,1,-1000,0,1,1,-1,0,-1,1500,1500.0
16:13:30.504,STABILIZE,-35.3632621,149.1652375,0,-0.0008304110961034894,0.001015468849800527,0.024465933442115784,0.0003212407464161515,0.00033941573929041624,0.0020381822250783443,0,1,-1000,0,1,1,-1,0,-1,1500,1500.0
16:13:30.705,STABILIZE,-35.3632621,149.1652375,0,-0.0008304110961034894,0.001015468849800527,0.024465933442115784,0.0003212407464161515,0.00033941573929041624,0.0020381822250783443,0,1,-1000,0,1,1,-1,0,-1,1500,1500.0
16:13:30.906,STABILIZE,-35.3632621,149.1652375,0,-0.0008304110961034894,0.001015468849800527,0.024465933442115784,0.0003212407464161515,0.00033941573929041624,0.0020381822250783443,0,1,-1000,0,1,1,-1,0,-1,1500,1500.0
16:13:31.107,STABILIZE,-35.3632621,149.1652375,0,-0.0008304110961034894,0.001015468849800527,0.024465933442115784,0.0003212407464161515,0.00033941573929041624,0.0020381822250783443,0,1,-1000,0,1,1,-1,0,0,1500,1500.0
16:13:31.308,STABILIZE,-35.3632621,149.1652375,0,-0.0008304110961034894,0.001015468849800527,0.024465933442115784,0.0003212407464161515,0.00033941573929041624,0.0020381822250783443,0,1,-1000,0,1,1,-1,0,0,1500,1500.0
16:13:31.509,STABILIZE,-35.3632621,149.1652375,0,-0.0008304110961034894,0.001015468849800527,0.024465933442115784,0.0003212407464161515,0.00033941573929041624,0.0020381822250783443,0,1,-1000,0,1,1,-1,0,0,1500,1500.0
16:13:31.710,STABILIZE,-35.3632621,149.1652375,0,-0.0008304110961034894,0.001015468849800527,0.024465933442115784,0.0003212407464161515,0.00033941573929041624,0.0020381822250783443,0,1,-1000,0,1,1,-1,0,0,1500,1500.0
16:13:31.912,STABILIZE,-35.3632621,149.1652375,0,-0.0007615464273840189,0.0009022055892273784,0.023604724556207657,0.00018144759815186262,0.00023021601373329759,0.0016912920400500298,0,1,-1000,0,1,1,-1,0,0,1500,1500.0
16:13:32.114,STABILIZE,-35.3632621,149.1652375,0,-0.0007615464273840189,0.0009022055892273784,0.023604724556207657,0.00018144759815186262,0.00023021601373329759,0.0016912920400500298,0,1,-1000,0,0,0,-1,0,0,1500,1500.0
16:13:32.315,STABILIZE,-35.3632621,149.1652375,0,-0.0007410417892970145,0.0009094348642975092,0.023457111790776253,0.0002050565672107041,0.00023985293228179216,0.0018353175837546587,0,1,-1000,0,0,0,-1,0,0,1500,1500.0
16:13:32.516,STABILIZE,-35.3632621,149.1652375,0,-0.0007337564020417631,0.0009177954634651542,0.02335168607532978,0.0002550639910623431,0.00031259958632290363,0.0018004602752625942,0,1,-1000,0,0,0,-1,0,0,1500,1500.0
16:13:32.717,STABILIZE,-35.3632621,149.1652375,0,-0.0007337564020417631,0.0009177954634651542,0.02335168607532978,0.0002550639910623431,0.00031259958632290363,0.0018004602752625942,0,1,-1000,0,0,0,-1,0,0,1500,1500.0
16:13:32.918,STABILIZE,-35.3632621,149.1652375,0,-0.0007310992805287242,0.0009344043210148811,0.02327556349337101,0.00032056879717856646,0.00017138698603957891,0.0018492317758500576,0,1,-1000,0,0,0,-1,0,0,1500,1500.0
16:13:33.119,STABILIZE,-35.3632621,149.1652375,0,-0.0007366726640611887,0.0009571309783495963,0.023206906393170357,6.99810916557908e-05,0.0003097161534242332,0.0018025898607447743,0,2,-1000,0,0,0,-1,0,0,1500,1500.0
16:13:33.320,STABILIZE,-35.3632621,149.1652375,0,-0.0007366726640611887,0.0009571309783495963,0.023206906393170357,6.99810916557908e-05,0.0003097161534242332,0.0018025898607447743,0,2,-1000,0,0,0,-1,0,0,1500,1500.0
16:13:33.521,STABILIZE,-35.3632621,149.1652375,0,-0.0007366726640611887,0.0009571309783495963,0.023206906393170357,6.99810916557908e-05,0.0003097161534242332,0.0018025898607447743,0,2,-1000,0,0,0,-1,0,0,1500,1500.0
16:13:33.722,STABILIZE,-35.3632621,149.1652375,0,-0.0007366726640611887,0.0009571309783495963,0.023206906393170357,6.99810916557908e-05,0.0003097161534242332,0.0018025898607447743,0,2,-1000,0,0,0,-1,0,0,1500,1500.0
16:13:33.925,STABILIZE,-35.3632621,149.1652375,0,-0.0007366726640611887,0.0009571309783495963,0.023206906393170357,6.99810916557908e-05,0.0003097161534242332,0.0018025898607447743,0,2,-1000,0,0,0,-1,0,0,1500,1500.0
16:13:34.126,STABILIZE,-35.3632621,149.1652375,0,-0.0005599447176791728,0.0009591156849637628,0.02295009419322014,0.0002660161117091775,0.0001884264638647437,0.001678366563282907,0,1,-1000,0,0,0,-1,0,-1,1500,1500.0
16:13:34.327,STABILIZE,-35.3632621,149.1652375,0,-0.0005143610760569572,0.0009731262107379735,0.022770920768380165,0.00026897661155089736,0.00020783307263627648,0.0018068025819957256,0,1,-1000,0,0,0,-1,1,0,1500,1500.0
16:13:34.528,STABILIZE,-35.3632621,149.1652375,0,-0.0005041298572905362,0.0009745678398758173,0.02270466461777687,0.000309833325445652,0.00030916929244995117,0.0017974745715036988,0,1,-1000,0,0,0,-1,1,0,1500,1500.0
16:13:34.729,STABILIZE,-35.3632621,149.1652375,0,-0.0005041298572905362,0.0009745678398758173,0.02270466461777687,0.000309833325445652,0.00030916929244995117,0.0017974745715036988,0,1,-1000,0,0,0,-1,1,0,1500,1500.0
16:13:34.931,STABILIZE,-35.3632621,149.1652375,0,-0.0004956972552463412,0.0009774935897439718,0.022627461701631546,8.988572517409921e-05,0.00029912812169641256,0.0017431748565286398,0,1,-1000,0,0,0,-1,1,0,1500,1500.0
16:13:35.132,STABILIZE,-35.3632622,149.1652375,0,-0.0004950647125951946,0.0009866582695394754,0.022519944235682487,0.00015096197603270411,0.00023053010227158666,0.0016525904648005962,0,1,-1000,0,0,0,-1,1,0,1500,1500.0
16:13:35.333,STABILIZE,-35.3632622,149.1652375,0,-0.0004950647125951946,0.0009866582695394754,0.022519944235682487,0.00015096197603270411,0.00023053010227158666,0.0016525904648005962,0,1,-1000,0,0,0,-1,1,0,1500,1500.0
16:13:35.534,STABILIZE,-35.3632622,149.1652375,0,-0.0004950647125951946,0.0009866582695394754,0.022519944235682487,0.00015096197603270411,0.00023053010227158666,0.0016525904648005962,0,1,-1000,0,0,0,-1,1,0,1500,1500.0
16:13:35.736,STABILIZE,-35.3632622,149.1652375,0,-0.0004950647125951946,0.0009866582695394754,0.022519944235682487,0.00015096197603270411,0.00023053010227158666,0.0016525904648005962,0,1,-1000,0,0,0,-1,1,0,1500,1500.0
16:13:35.937,STABILIZE,-35.3632622,149.1652375,0,-0.0004950647125951946,0.0009866582695394754,0.022519944235682487,0.00015096197603270411,0.00023053010227158666,0.0016525904648005962,0,1,-1000,0,0,0,-1,1,0,1500,1500.0
16:13:36.141,STABILIZE,-35.3632622,149.1652375,0,-0.0004950647125951946,0.0009866582695394754,0.022519944235682487,0.00015096197603270411,0.00023053010227158666,0.0016525904648005962,0,1,-1000,1,0,0,-1,1,0,1500,1500.0
16:13:36.343,STABILIZE,-35.3632622,149.1652375,0,-0.0005470752366818488,0.0009911957895383239,0.02211221121251583,0.0002706298837438226,0.0002833075704984367,0.0015362133271992207,0,2,-1000,1,0,0,-1,1,0,1500,1500.0
16:13:36.544,STABILIZE,-35.3632622,149.1652375,0,-0.0005470752366818488,0.0009911957895383239,0.02211221121251583,0.0002706298837438226,0.0002833075704984367,0.0015362133271992207,0,2,-1000,1,0,0,-1,1,0,1500,1500.0
16:13:36.745,STABILIZE,-35.3632622,149.1652375,0,-0.0002718405157793313,0.000986279803328216,0.021939778700470924,0.00037619052454829216,0.00029576203087344766,0.0016093964222818613,0,2,-1000,1,0,0,-1,3,1,1500,1500.0
16:13:36.948,STABILIZE,-35.3632622,149.1652375,0,-0.0002718405157793313,0.000986279803328216,0.021939778700470924,0.00037619052454829216,0.00029576203087344766,0.0016093964222818613,0,2,-1000,1,0,0,-1,3,1,1500,1500.0
16:13:37.149,STABILIZE,-35.3632622,149.1652375,0,-0.0002718405157793313,0.000986279803328216,0.021939778700470924,0.00037619052454829216,0.00029576203087344766,0.0016093964222818613,0,1,-1000,0,0,0,-1,3,1,1500,1500.0
16:13:37.350,STABILIZE,-35.3632622,149.1652375,0,-0.0002718405157793313,0.000986279803328216,0.021939778700470924,0.00037619052454829216,0.00029576203087344766,0.0016093964222818613,0,1,-1000,0,0,0,-1,3,1,1500,1500.0
16:13:37.551,STABILIZE,-35.3632622,149.1652375,0,-0.0002718405157793313,0.000986279803328216,0.021939778700470924,0.00037619052454829216,0.00029576203087344766,0.0016093964222818613,0,1,-1000,0,0,0,-1,3,1,1500,1500.0
16:13:37.754,STABILIZE,-35.3632622,149.1652375,0,-0.0002718405157793313,0.000986279803328216,0.021939778700470924,0.00037619052454829216,0.00029576203087344766,0.0016093964222818613,0,1,-1000,0,0,0,-1,3,1,1500,1500.0
16:13:37.956,STABILIZE,-35.3632622,149.1652375,0,-0.0002718405157793313,0.000986279803328216,0.021939778700470924,0.00037619052454829216,0.00029576203087344766,0.0016093964222818613,0,2,-1000,1,1,0,-1,3,1,1500,1500.0
16:13:38.157,STABILIZE,-35.3632622,149.1652375,0,-0.0002718405157793313,0.000986279803328216,0.021939778700470924,0.00037619052454829216,0.00029576203087344766,0.0016093964222818613,0,2,-1000,0,0,1,-1,3,1,1500,1500.0
16:13:38.358,STABILIZE,-35.3632622,149.1652375,0,-0.0002718405157793313,0.000986279803328216,0.021939778700470924,0.00037619052454829216,0.00029576203087344766,0.0016093964222818613,0,1,-1000,0,0,1,-1,3,1,1500,1500.0
16:13:38.559,STABILIZE,-35.3632622,149.1652375,0,-0.0002718405157793313,0.000986279803328216,0.021939778700470924,0.00037619052454829216,0.00029576203087344766,0.0016093964222818613,0,1,-1000,0,0,1,-1,3,1,1500,1500.0
16:13:38.761,STABILIZE,-35.3632622,149.1652375,0,-0.000695172930136323,0.0009723413968458772,0.021338684484362602,0.00023668212816119194,0.00025308149633929133,0.0015493331011384726,0,1,-1000,0,0,1,-1,3,1,1500,1500.0
16:13:38.961,STABILIZE,-35.3632622,149.1652375,0,-0.000695172930136323,0.0009723413968458772,0.021338684484362602,0.00023668212816119194,0.00025308149633929133,0.0015493331011384726,0,1,-1000,0,0,1,-1,3,1,1500,1500.0
16:13:39.162,STABILIZE,-35.3632622,149.1652375,0,-0.0007340427837334573,0.0009752254118211567,0.021282611414790154,0.00032021699007600546,0.00026065210113301873,0.0015426871832460165,0,1,-1000,0,0,1,-1,2,1,1500,1500.0
16:13:39.363,STABILIZE,-35.3632622,149.1652375,0,-0.0007340427837334573,0.0009752254118211567,0.021282611414790154,0.00032021699007600546,0.00026065210113301873,0.0015426871832460165,0,1,-1000,0,0,1,-1,2,1,1500,1500.0
16:13:39.565,STABILIZE,-35.3632622,149.1652375,0,-0.0007340427837334573,0.0009752254118211567,0.021282611414790154,0.00032021699007600546,0.00026065210113301873,0.0015426871832460165,0,1,-1000,0,0,1,-1,2,1,1500,1500.0
16:13:39.767,STABILIZE,-35.3632622,149.1652375,0,-0.0007340427837334573,0.0009752254118211567,0.021282611414790154,0.00032021699007600546,0.00026065210113301873,0.0015426871832460165,0,1,-1000,0,0,1,-1,2,1,1500,1500.0
16:13:39.969,STABILIZE,-35.3632622,149.1652375,0,-0.0007340427837334573,0.0009752254118211567,0.021282611414790154,0.00032021699007600546,0.00026065210113301873,0.0015426871832460165,0,1,-1000,0,0,1,-1,2,1,1500,1500.0
16:13:40.170,STABILIZE,-35.3632622,149.1652375,0,-0.0007340427837334573,0.0009752254118211567,0.021282611414790154,0.00032021699007600546,0.00026065210113301873,0.0015426871832460165,0,1,-1000,0,0,0,-1,2,1,1500,1500.0
16:13:40.371,STABILIZE,-35.3632622,149.1652375,0,-0.0007340427837334573,0.0009752254118211567,0.021282611414790154,0.00032021699007600546,0.00026065210113301873,0.0015426871832460165,0,1,-1000,0,0,0,-1,1,1,1500,1500.0
16:13:40.572,STABILIZE,-35.3632622,149.1652375,0,-0.0007799746817909181,0.0009607766405679286,0.02095639705657959,0.00032111676409840584,0.00028548919362947345,0.0014796231407672167,0,1,-1000,0,0,1,-1,1,1,1500,1500.0
16:13:40.773,STABILIZE,-35.3632622,149.1652375,0,-0.0007799746817909181,0.0009607766405679286,0.02095639705657959,0.00032111676409840584,0.00028548919362947345,0.0014796231407672167,0,1,-1000,0,0,1,-1,1,1,1500,1500.0
16:13:40.974,STABILIZE,-35.3632622,149.1652375,0,-0.0007799746817909181,0.0009607766405679286,0.02095639705657959,0.00032111676409840584,0.00028548919362947345,0.0014796231407672167,0,1,-1000,0,0,1,-1,1,1,1500,1500.0
16:13:41.175,STABILIZE,-35.3632622,149.1652375,0,-0.0008305826340802014,0.0009620353230275214,0.020850414410233498,0.00017037277575582266,0.0003207738045603037,0.0014963758876547217,0,1,-1000,0,0,1,-1,1,1,1500,1500.0
16:13:41.376,STABILIZE,-35.3632622,149.1652375,0,-0.0008305826340802014,0.0009620353230275214,0.020850414410233498,0.00017037277575582266,0.0003207738045603037,0.0014963758876547217,0,1,-1000,0,0,1,-1,1,1,1500,1500.0
16:13:41.578,STABILIZE,-35.3632622,149.1652375,0,-0.0008305826340802014,0.0009620353230275214,0.020850414410233498,0.00017037277575582266,0.0003207738045603037,0.0014963758876547217,0,1,-1000,0,0,1,-1,1,1,1500,1500.0
16:13:41.779,STABILIZE,-35.3632622,149.1652375,0,-0.0008305826340802014,0.0009620353230275214,0.020850414410233498,0.00017037277575582266,0.0003207738045603037,0.0014963758876547217,0,1,-1000,0,0,1,-1,1,1,1500,1500.0
16:13:41.981,STABILIZE,-35.3632622,149.1652375,0,-0.0008970477501861751,0.0009616096504032612,0.020726319402456284,0.0002432122710160911,0.00032450928119942546,0.0014038549270480871,0,2,-1000,0,1,1,-1,1,1,1500,1500.0
16:13:42.182,STABILIZE,-35.3632622,149.1652375,0,-0.0009158287430182099,0.0009674702887423337,0.02069932036101818,0.00018531992100179195,0.00017115817172452807,0.001575684524141252,0,1,-1000,0,0,0,-1,1,1,1500,1500.0
16:13:42.383,STABILIZE,-35.3632622,149.1652375,0,-0.0009342424455098808,0.0009684877004474401,0.020663263276219368,0.00022674439242109656,0.0002265630173496902,0.0014701460022479296,0,1,-1000,0,0,0,-1,1,1,1500,1500.0
16:13:42.584,STABILIZE,-35.3632622,149.1652375,0,-0.0009543416672386229,0.0009734707418829203,0.02061140537261963,0.0001955358311533928,0.0002614791737869382,0.0014817165210843086,0,1,-1000,0,0,0,-1,1,0,1500,1500.0
16:13:42.786,STABILIZE,-35.3632622,149.1652375,0,-0.0009692538878880441,0.0009667993290349841,0.02057267539203167,0.00022103951778262854,0.00020099827088415623,0.001431923359632492,0,1,-1000,0,0,0,-1,1,0,1500,1500.0
16:13:42.987,STABILIZE,-35.3632622,149.1652375,0,-0.0009692538878880441,0.0009667993290349841,0.02057267539203167,0.00022103951778262854,0.00020099827088415623,0.001431923359632492,0,1,-1000,0,0,0,-1,1,0,1500,1500.0
16:13:43.188,STABILIZE,-35.3632622,149.1652375,0,-0.0009692538878880441,0.0009667993290349841,0.02057267539203167,0.00022103951778262854,0.00020099827088415623,0.001431923359632492,0,1,-1000,1,0,1,-1,1,0,1500,1500.0
16:13:43.389,STABILIZE,-35.3632622,149.1652375,0,-0.0009692538878880441,0.0009667993290349841,0.02057267539203167,0.00022103951778262854,0.00020099827088415623,0.001431923359632492,0,1,-1000,1,0,1,-1,1,0,1500,1500.0
16:13:43.590,STABILIZE,-35.3632622,149.1652375,0,-0.0009692538878880441,0.0009667993290349841,0.02057267539203167,0.00022103951778262854,0.00020099827088415623,0.001431923359632492,0,1,-1000,1,0,1,-1,1,0,1500,1500.0
16:13:43.794,STABILIZE,-35.3632622,149.1652375,0,-0.0009692538878880441,0.0009667993290349841,0.02057267539203167,0.00022103951778262854,0.00020099827088415623,0.001431923359632492,0,1,-1000,1,0,1,-1,1,0,1500,1500.0
16:13:43.997,STABILIZE,-35.3632622,149.1652375,0,-0.0008324302034452558,0.0009638494811952114,0.02041003480553627,0.0004148109001107514,0.00025943084619939327,0.0013375390553846955,0,1,-1000,1,1,0,-1,0,0,1500,1500.0
16:13:44.198,STABILIZE,-35.3632622,149.1652375,0,-0.0008324302034452558,0.0009638494811952114,0.02041003480553627,0.0004148109001107514,0.00025943084619939327,0.0013375390553846955,0,1,-1000,1,1,0,-1,0,0,1500,1500.0
16:13:44.399,STABILIZE,-35.3632622,149.1652375,0,-0.0008324302034452558,0.0009638494811952114,0.02041003480553627,0.0004148109001107514,0.00025943084619939327,0.0013375390553846955,0,1,-1000,1,1,0,-1,0,0,1500,1500.0
16:13:44.600,STABILIZE,-35.3632622,149.1652375,0,-0.0008324302034452558,0.0009638494811952114,0.02041003480553627,0.0004148109001107514,0.00025943084619939327,0.0013375390553846955,0,1,-1000,1,1,0,-1,0,0,1500,1500.0
16:13:44.801,STABILIZE,-35.3632622,149.1652375,0,-0.0007538025383837521,0.0009591392008587718,0.020280515775084496,0.0002741174539551139,0.00024198723258450627,0.0014648730866611004,0,1,-1000,0,1,1,-1,0,0,1500,1500.0
16:13:45.002,STABILIZE,-35.3632622,149.1652375,0,-0.000739345676265657,0.0009661010699346662,0.020240655168890953,0.00028592615853995085,0.0002114870003424585,0.0013861845945939422,0,1,-1000,0,1,1,-1,1,0,1500,1500.0
16:13:45.204,STABILIZE,-35.3632622,149.1652375,0,-0.000739345676265657,0.0009661010699346662,0.020240655168890953,0.00028592615853995085,0.0002114870003424585,0.0013861845945939422,0,1,-1000,1,0,1,-1,1,0,1500,1500.0
16:13:45.406,STABILIZE,-35.3632622,149.1652375,0,-0.000739345676265657,0.0009661010699346662,0.020240655168890953,0.00028592615853995085,0.0002114870003424585,0.0013861845945939422,0,1,-1000,1,0,1,-1,1,0,1500,1500.0
16:13:45.607,STABILIZE,-35.3632622,149.1652375,0,-0.000739345676265657,0.0009661010699346662,0.020240655168890953,0.00028592615853995085,0.0002114870003424585,0.0013861845945939422,0,1,-1000,1,0,1,-1,1,0,1500,1500.0
16:13:45.808,STABILIZE,-35.3632622,149.1652375,0,-0.000739345676265657,0.0009661010699346662,0.020240655168890953,0.00028592615853995085,0.0002114870003424585,0.0013861845945939422,0,1,-1000,1,0,1,-1,1,0,1500,1500.0
16:13:46.010,STABILIZE,-35.3632622,149.1652375,0,-0.0007198101375252008,0.0009925983613356948,0.020115455612540245,0.00029995437944307923,0.0002950396155938506,0.001413955818861723,0,1,-1000,0,0,1,-1,1,0,1500,1500.0
16:13:46.211,STABILIZE,-35.3632622,149.1652375,0,-0.0007198101375252008,0.0009925983613356948,0.020115455612540245,0.00029995437944307923,0.0002950396155938506,0.001413955818861723,0,1,-1000,0,0,1,-1,1,0,1500,1500.0
16:13:46.412,AUTO,-35.3632622,149.1652375,0,-0.0007263939478434622,0.0009761850233189762,0.020036520436406136,0.00031642254907637835,0.00016078539192676544,0.0014917007647454739,0,2,-1000,1,0,0,-1,1,0,1500,1500.0
16:13:46.613,AUTO,-35.3632622,149.1652375,7,-0.0007260873098857701,0.0009757481166161597,0.020003659650683403,0.00027756718918681145,0.00015791854821145535,0.0014070308534428477,0,1,-1000,0,0,1,-1,1,0,1500,1500.0
16:13:46.815,AUTO,-35.3632622,149.1652375,7,-0.0007405693177133799,0.000978503143414855,0.019966013729572296,0.0002359666978009045,0.00022340926807373762,0.0013485897798091173,0,2,-1000,1,0,1,-1,1,0,1500,1500.0
16:13:47.016,AUTO,-35.3632622,149.1652375,6,-0.0004174638888798654,0.0009842682629823685,0.019935131072998047,-0.0001285703619942069,0.00029674230609089136,0.0012877702247351408,0,4,-996,0,1,0,-1,2,1,1500,1500.0
16:13:47.217,AUTO,-35.3632622,149.1652375,6,-0.0004174638888798654,0.0009842682629823685,0.019935131072998047,-0.0001285703619942069,0.00029674230609089136,0.0012877702247351408,0,4,-996,0,1,0,-1,2,1,1500,1500.0
16:13:47.419,AUTO,-35.3632622,149.1652375,6,-0.0004174638888798654,0.0009842682629823685,0.019935131072998047,-0.0001285703619942069,0.00029674230609089136,0.0012877702247351408,0,4,-996,0,1,0,-1,2,1,1500,1500.0
16:13:47.620,AUTO,-35.3632622,149.1652375,6,-0.0004174638888798654,0.0009842682629823685,0.019935131072998047,-0.0001285703619942069,0.00029674230609089136,0.0012877702247351408,0,4,-996,0,1,0,-1,2,1,1500,1500.0
16:13:47.821,AUTO,-35.3632622,149.1652375,6,-0.0004174638888798654,0.0009842682629823685,0.019935131072998047,-0.0001285703619942069,0.00029674230609089136,0.0012877702247351408,0,4,-996,0,1,0,-1,2,1,1500,1500.0
16:13:48.023,AUTO,-35.3632621,149.1652375,0,-0.0003211646107956767,0.0011401064693927765,0.01976265385746956,0.0002537137479521334,0.0003730147727765143,0.0013546058908104897,0,1,-1000,0,1,1,0,0,1,1500,1500.0
16:13:48.224,AUTO,-35.3632621,149.1652375,0,-0.0003211646107956767,0.0011401064693927765,0.01976265385746956,0.0002537137479521334,0.0003730147727765143,0.0013546058908104897,0,1,-1000,0,1,1,0,0,1,1500,1500.0
16:13:48.425,AUTO,-35.3632621,149.1652375,0,-0.0002700813638512045,0.0012035929830744863,0.01969887875020504,0.00035241519799456,0.000258978980127722,0.0013641667319461703,0,1,-1000,0,0,1,0,0,1,1500,1500.0
16:13:48.626,AUTO,-35.3632621,149.1652375,0,-0.00022477316088043153,0.0012720947852358222,0.019655555486679077,0.00020452350145205855,0.0002938894322142005,0.0013710964703932405,0,2,-1000,0,1,1,0,0,1,1500,1500.0
16:13:48.827,AUTO,-35.3632621,149.1652375,0,-0.00016247646999545395,0.001338198664598167,0.019612181931734085,0.0001627950114198029,0.00025712646311149,0.0013297838158905506,0,1,-1000,0,1,1,0,0,1,1500,1500.0
16:13:49.029,AUTO,-35.3632621,149.1652375,0,-0.00010681377170840278,0.0014075051294639707,0.019560741260647774,0.00041180686093866825,0.00026479829102754593,0.0013273571385070682,0,2,-1000,1,1,1,0,0,1,1500,1500.0
16:13:49.230,AUTO,-35.3632621,149.1652375,0,-0.00010681377170840278,0.0014075051294639707,0.019560741260647774,0.00041180686093866825,0.00026479829102754593,0.0013273571385070682,0,2,-1000,1,1,1,0,0,1,1500,1500.0
16:13:49.431,AUTO,-35.3632621,149.1652375,0,-0.00010681377170840278,0.0014075051294639707,0.019560741260647774,0.00041180686093866825,0.00026479829102754593,0.0013273571385070682,0,2,-1000,1,1,1,0,0,1,1500,1500.0
16:13:49.636,AUTO,-35.3632621,149.1652375,0,-0.00010681377170840278,0.0014075051294639707,0.019560741260647774,0.00041180686093866825,0.00026479829102754593,0.0013273571385070682,0,2,-1000,1,1,1,0,0,1,1500,1500.0
16:13:49.837,AUTO,-35.3632621,149.1652375,0,-0.00010681377170840278,0.0014075051294639707,0.019560741260647774,0.00041180686093866825,0.00026479829102754593,0.0013273571385070682,0,2,-1000,1,1,1,0,0,1,1500,1500.0
16:13:50.039,AUTO,-35.3632621,149.1652374,0,0.00015330937458202243,0.0017080813413485885,0.019326763227581978,0.00031457399018108845,0.000321785279083997,0.0012689040740951896,0,1,-1000,1,0,1,0,0,0,1500,1500.0
16:13:50.241,AUTO,-35.3632621,149.1652374,0,0.0011815594043582678,0.0011760222259908915,0.01929572969675064,0.011365415528416634,-0.012812161818146706,0.00038377800956368446,0,1,-1000,1,0,1,0,0,0,1500,1500.0
16:13:50.442,AUTO,-35.3632621,149.1652374,0,0.0011815594043582678,0.0011760222259908915,0.01929572969675064,0.011365415528416634,-0.012812161818146706,0.00038377800956368446,0,0,-1070,12,-12,0,0,0,-3,1500,1500.0
16:13:50.643,AUTO,-35.3632621,149.1652374,50,0.004109840840101242,-0.0005384152173064649,0.019259892404079437,0.003258686512708664,-0.0005746453534811735,0.0016718568513169885,0,0,-1140,3,0,1,0,0,-36,1500,1500.0
16:13:50.844,AUTO,-35.3632621,149.1652375,184,0.0036170165985822678,0.00015836259990464896,0.019078519195318222,0.0028540336061269045,0.003561948426067829,0.0013889973051846027,0,0,-1131,3,4,1,0,0,-70,1500,1500.0
16:13:51.045,AUTO,-35.3632621,149.1652375,394,0.002342282561585307,0.0011066814186051488,0.018863249570131302,-0.009132974781095982,0.003644246608018875,0.0013927555410191417,0,0,-1110,-8,4,1,0,0,-98,1500,1500.0
16:13:51.247,AUTO,-35.3632621,149.1652375,394,0.002342282561585307,0.0011066814186051488,0.018863249570131302,-0.009132974781095982,0.003644246608018875,0.0013927555410191417,0,0,-1110,-8,4,1,0,0,-98,1500,1500.0
16:13:51.449,AUTO,-35.3632621,149.1652375,394,0.002342282561585307,0.0011066814186051488,0.018863249570131302,-0.009132974781095982,0.003644246608018875,0.0013927555410191417,0,0,-1110,-8,4,1,0,0,-98,1500,1500.0
16:13:51.651,AUTO,-35.3632621,149.1652375,394,0.002342282561585307,0.0011066814186051488,0.018863249570131302,-0.009132974781095982,0.003644246608018875,0.0013927555410191417,0,0,-1110,-8,4,1,0,0,-98,1500,1500.0
16:13:51.853,AUTO,-35.3632621,149.1652375,394,0.002342282561585307,0.0011066814186051488,0.018863249570131302,-0.009132974781095982,0.003644246608018875,0.0013927555410191417,0,0,-1110,-8,4,1,0,0,-98,1500,1500.0
16:13:52.056,AUTO,-35.363262,149.1652377,1753,0.03403870761394501,-0.0029384735971689224,0.018647639080882072,0.04496088624000549,-0.007661596406251192,0.0026809899136424065,0,-1,-1007,45,-7,2,1,11,-146,1500,1500.0
16:13:52.258,AUTO,-35.3632619,149.1652381,2137,0.044931165874004364,-0.005113717168569565,0.01888151839375496,0.04239000752568245,-0.009482783265411854,0.003045877907425165,0,-3,-1002,43,-8,2,3,19,-148,1500,1500.0
16:13:52.460,AUTO,-35.3632619,149.1652381,2137,0.044931165874004364,-0.005113717168569565,0.01888151839375496,0.04239000752568245,-0.009482783265411854,0.003045877907425165,0,-3,-1002,43,-8,2,3,19,-148,1500,1500.0
16:13:52.661,AUTO,-35.3632618,149.1652387,2523,0.05512215569615364,-0.007680521346628666,0.019170207902789116,0.03947434574365616,-0.010504979640245438,0.003793187439441681,1,-4,-1000,40,-9,3,5,30,-148,1500,1500.0
16:13:52.863,AUTO,-35.3632616,149.1652397,2909,0.06241926923394203,-0.009191599674522877,-0.00947289727628231,-0.0017990199849009514,0.01592100039124489,-0.0285884290933609,1,-8,-994,-1,16,-28,8,42,-147,1500,1500.0
16:13:53.064,AUTO,-35.3632614,149.165241,3289,0.04103747755289078,0.010303806513547897,-0.029375268146395683,-0.1588660180568695,0.07827607542276382,-0.08355122059583664,3,-11,-989,-157,78,-83,10,52,-144,1500,1500.0
16:13:53.265,AUTO,-35.3632614,149.165241,3289,0.04103747755289078,0.010303806513547897,-0.029375268146395683,-0.1588660180568695,0.07827607542276382,-0.08355122059583664,3,-11,-989,-157,78,-83,10,52,-144,1500,1500.0
16:13:53.468,AUTO,-35.3632614,149.165241,3289,0.04103747755289078,0.010303806513547897,-0.029375268146395683,-0.1588660180568695,0.07827607542276382,-0.08355122059583664,3,-11,-989,-157,78,-83,10,52,-144,1500,1500.0
16:13:53.671,AUTO,-35.3632614,149.165241,3289,0.04103747755289078,0.010303806513547897,-0.029375268146395683,-0.1588660180568695,0.07827607542276382,-0.08355122059583664,3,-11,-989,-157,78,-83,10,52,-144,1500,1500.0
16:13:53.873,AUTO,-35.3632614,149.165241,3289,0.04103747755289078,0.010303806513547897,-0.029375268146395683,-0.1588660180568695,0.07827607542276382,-0.08355122059583664,3,-11,-989,-157,78,-83,10,52,-144,1500,1500.0
16:13:54.075,AUTO,-35.3632607,149.1652453,4809,-0.06293085962533951,0.006329523399472237,-0.07865923643112183,-0.06635411083698273,-0.04178278148174286,-0.009127619676291943,3,-6,-1000,-65,-41,-9,1,13,-148,1500,1500.0
16:13:54.276,AUTO,-35.3632607,149.1652454,5194,-0.07321222126483917,-0.0024318017531186342,-0.08037923276424408,-0.003545888001099229,-0.01618272066116333,-0.017425771802663803,0,-1,-1004,-2,-15,-17,0,-4,-148,1500,1500.0
16:13:54.477,AUTO,-35.3632607,149.1652454,5194,-0.07321222126483917,-0.0024318017531186342,-0.08037923276424408,-0.003545888001099229,-0.01618272066116333,-0.017425771802663803,0,-1,-1004,-2,-15,-17,0,-4,-148,1500,1500.0
16:13:54.678,AUTO,-35.3632607,149.165245,5579,-0.06669853627681732,-0.0032397147733718157,-0.08497610688209534,0.04341417923569679,0.0014265592908486724,-0.015087361447513103,-1,1,-1002,43,2,-15,0,-22,-149,1500,1500.0
16:13:54.879,AUTO,-35.3632607,149.1652443,5965,-0.054013364017009735,-0.003062017261981964,-0.08872193098068237,0.05441730469465256,0.0017599067650735378,-0.00908652227371931,-3,5,-1001,55,2,-9,0,-36,-149,1500,1500.0
16:13:55.080,AUTO,-35.3632607,149.1652431,6349,-0.039638765156269073,-0.0021210690028965473,-0.09139351546764374,0.05968264490365982,0.006259123329073191,-0.005569193046540022,-5,9,-1001,60,6,-5,-1,-47,-149,1500,1500.0
16:13:55.282,AUTO,-35.3632607,149.1652431,6349,-0.039638765156269073,-0.0021210690028965473,-0.09139351546764374,0.05968264490365982,0.006259123329073191,-0.005569193046540022,-5,9,-1001,60,6,-5,-1,-47,-149,1500,1500.0
16:13:55.482,AUTO,-35.3632607,149.1652431,6349,-0.039638765156269073,-0.0021210690028965473,-0.09139351546764374,0.05968264490365982,0.006259123329073191,-0.005569193046540022,-5,9,-1001,60,6,-5,-1,-47,-149,1500,1500.0
16:13:55.684,AUTO,-35.3632607,149.1652431,6349,-0.039638765156269073,-0.0021210690028965473,-0.09139351546764374,0.05968264490365982,0.006259123329073191,-0.005569193046540022,-5,9,-1001,60,6,-5,-1,-47,-149,1500,1500.0
16:13:55.885,AUTO,-35.3632607,149.1652431,6349,-0.039638765156269073,-0.0021210690028965473,-0.09139351546764374,0.05968264490365982,0.006259123329073191,-0.005569193046540022,-5,9,-1001,60,6,-5,-1,-47,-149,1500,1500.0
16:13:56.086,AUTO,-35.363261,149.1652373,7900,0.023779720067977905,0.007884172722697258,-0.09311308711767197,0.06500202417373657,0.009487261064350605,0.0022497486788779497,-5,11,-1003,65,10,2,-8,-47,-152,1500,1500.0
16:13:56.288,AUTO,-35.3632613,149.165236,8292,0.039820436388254166,0.009833969175815582,-0.09213974326848984,0.0638018548488617,0.006386240478605032,0.003137789899483323,-4,10,-1003,64,6,2,-11,-37,-152,1500,1500.0
16:13:56.489,AUTO,-35.3632613,149.165236,8292,0.039820436388254166,0.009833969175815582,-0.09213974326848984,0.0638018548488617,0.006386240478605032,0.003137789899483323,-4,10,-1003,64,6,2,-11,-37,-152,1500,1500.0
16:13:56.691,AUTO,-35.3632615,149.1652351,8690,0.05514167994260788,0.010788440704345703,-0.09133193641901016,0.05237291753292084,0.0057869465090334415,-0.01355697587132454,-2,7,-1001,53,6,-13,-12,-24,-152,1156,1500.0
16:13:56.892,AUTO,-35.3632619,149.1652346,9080,0.03707987070083618,0.03809032216668129,-0.1205563098192215,-0.2005007266998291,0.20710380375385284,-0.2415354698896408,-1,5,-979,-199,207,-241,-16,-11,-149,1156,1500.0
16:13:57.093,AUTO,-35.3632624,149.1652343,9459,-0.01410408690571785,0.09084029495716095,-0.20595379173755646,-0.057232800871133804,0.1360139548778534,-0.4947909712791443,0,5,-972,-56,136,-494,-31,-6,-144,1156,1500.0
16:13:57.297,AUTO,-35.3632624,149.1652343,9459,-0.01410408690571785,0.09084029495716095,-0.20595379173755646,-0.057232800871133804,0.1360139548778534,-0.4947909712791443,0,5,-972,-56,136,-494,-31,-6,-144,1156,1500.0
16:13:57.503,AUTO,-35.3632624,149.1652343,9459,-0.01410408690571785,0.09084029495716095,-0.20595379173755646,-0.057232800871133804,0.1360139548778534,-0.4947909712791443,0,5,-972,-56,136,-494,-31,-6,-144,1156,1500.0
16:13:57.706,AUTO,-35.3632624,149.1652343,9459,-0.01410408690571785,0.09084029495716095,-0.20595379173755646,-0.057232800871133804,0.1360139548778534,-0.4947909712791443,0,5,-972,-56,136,-494,-31,-6,-144,1156,1500.0
16:13:57.913,AUTO,-35.3632624,149.1652343,9459,-0.01410408690571785,0.09084029495716095,-0.20595379173755646,-0.057232800871133804,0.1360139548778534,-0.4947909712791443,0,5,-972,-56,136,-494,-31,-6,-144,1156,1500.0
16:13:58.117,AUTO,-35.3632624,149.1652343,9459,-0.01410408690571785,0.09084029495716095,-0.20595379173755646,-0.057232800871133804,0.1360139548778534,-0.4947909712791443,0,5,-972,-56,136,-494,-31,-6,-144,1156,1500.0
16:13:58.322,AUTO,-35.3632683,149.1652368,11266,0.07756795734167099,0.04889795556664467,-1.0603666305541992,0.13695792853832245,-0.09390926361083984,-0.9793400764465332,9,11,-999,67,-24,-710,-44,61,-138,1156,1500.0
16:13:58.525,AUTO,-35.3632691,149.1652387,11617,0.10259376466274261,0.03903347998857498,-1.3161494731903076,0.11977534741163254,-0.1568291038274765,-1.0058950185775757,14,11,-997,120,-156,-1005,-23,76,-135,1156,1500.0
16:13:58.727,AUTO,-35.3632691,149.1652387,11617,0.10259376466274261,0.03903347998857498,-1.3161494731903076,0.11977534741163254,-0.1568291038274765,-1.0058950185775757,14,11,-997,120,-156,-1005,-23,76,-135,1156,1500.0
16:13:58.929,AUTO,-35.3632693,149.1652408,11963,0.10522813349962234,0.01614954322576523,-1.5759499073028564,-0.0161330234259367,-0.2163899689912796,-1.0849062204360962,15,9,-989,-15,-215,-1085,3,82,-131,1156,1500.0
16:13:59.130,AUTO,-35.363269,149.165243,12303,0.09151026606559753,-0.01436499785631895,-1.8191360235214233,-0.08355030417442322,-0.21336472034454346,-0.8846175670623779,13,11,-1018,-82,-212,-884,29,74,-133,1156,1500.0
16:13:59.331,AUTO,-35.363269,149.165243,12303,0.09151026606559753,-0.01436499785631895,-1.8191360235214233,-0.08355030417442322,-0.21336472034454346,-0.8846175670623779,13,11,-1018,-82,-212,-884,29,74,-133,1156,1500.0
16:13:59.533,AUTO,-35.363269,149.165243,12303,0.09151026606559753,-0.01436499785631895,-1.8191360235214233,-0.08355030417442322,-0.21336472034454346,-0.8846175670623779,13,11,-1018,-82,-212,-884,29,74,-133,1156,1500.0
16:13:59.736,AUTO,-35.363269,149.165243,12303,0.09151026606559753,-0.01436499785631895,-1.8191360235214233,-0.08355030417442322,-0.21336472034454346,-0.8846175670623779,13,11,-1018,-82,-212,-884,29,74,-133,1156,1500.0
16:13:59.939,AUTO,-35.363269,149.165243,12303,0.09151026606559753,-0.01436499785631895,-1.8191360235214233,-0.08355030417442322,-0.21336472034454346,-0.8846175670623779,13,11,-1018,-82,-212,-884,29,74,-133,1156,1500.0
16:14:00.142,AUTO,-35.363269,149.165243,12303,0.09151026606559753,-0.01436499785631895,-1.8191360235214233,-0.08355030417442322,-0.21336472034454346,-0.8846175670623779,13,11,-1018,-82,-212,-884,29,74,-133,1156,1500.0
16:14:00.344,AUTO,-35.3632636,149.1652442,14130,0.024613602086901665,-0.18663457036018372,-2.3486745357513428,-0.2452968955039978,-0.059011396020650864,-0.08660675585269928,5,-15,-987,-244,-58,-86,21,-76,-141,1500,1500.0
16:14:00.546,AUTO,-35.3632633,149.1652418,14480,-0.025844711810350418,-0.16406914591789246,-2.3619277477264404,-0.10356830805540085,0.14925026893615723,-0.037073954939842224,-2,-19,-1005,-102,150,-37,-12,-102,-134,1500,1500.0
16:14:00.749,AUTO,-35.3632638,149.1652387,14824,-0.037768036127090454,-0.12492173910140991,-2.368732452392578,-0.016927989199757576,0.16042263805866241,-0.01521160639822483,-2,-19,-1005,-102,150,-37,-45,-116,-135,1500,1500.0
16:14:00.954,AUTO,-35.3632638,149.1652387,14824,-0.037768036127090454,-0.12492173910140991,-2.368732452392578,-0.016927989199757576,0.16042263805866241,-0.01521160639822483,-9,-22,-1014,-15,161,-15,-45,-116,-135,1500,1500.0
16:14:01.156,AUTO,-35.3632649,149.1652354,15172,-0.036465100944042206,-0.08466403931379318,-2.3710005283355713,0.016283664852380753,0.15987847745418549,-0.00018802518025040627,-16,-22,-1016,17,160,0,-70,-120,-137,1500,1500.0
16:14:01.357,AUTO,-35.3632649,149.1652354,15172,-0.036465100944042206,-0.08466403931379318,-2.3710005283355713,0.016283664852380753,0.15987847745418549,-0.00018802518025040627,-16,-22,-1016,17,160,0,-70,-120,-137,1500,1500.0
16:14:01.558,AUTO,-35.3632649,149.1652354,15172,-0.036465100944042206,-0.08466403931379318,-2.3710005283355713,0.016283664852380753,0.15987847745418549,-0.00018802518025040627,-16,-22,-1016,17,160,0,-70,-120,-137,1500,1500.0
16:14:01.762,AUTO,-35.3632649,149.1652354,15172,-0.036465100944042206,-0.08466403931379318,-2.3710005283355713,0.016283664852380753,0.15987847745418549,-0.00018802518025040627,-16,-22,-1016,17,160,0,-70,-120,-137,1500,1500.0
16:14:01.964,AUTO,-35.3632649,149.1652354,15172,-0.036465100944042206,-0.08466403931379318,-2.3710005283355713,0.016283664852380753,0.15987847745418549,-0.00018802518025040627,-16,-22,-1016,17,160,0,-70,-120,-137,1500,1500.0
16:14:02.165,AUTO,-35.3632729,149.1652236,16660,-0.012769234366714954,0.04733444005250931,-2.3617053031921387,0.029320022091269493,0.09670420736074448,0.009598229080438614,-26,-17,-1017,30,97,9,-91,-79,-155,1500,1500.0
16:14:02.367,AUTO,-35.3632749,149.1652216,17059,-0.0048088389448821545,0.06984050571918488,-2.359469413757324,0.03021674044430256,0.08342970907688141,0.006569836754351854,-27,-6,-1013,31,84,6,-80,-61,-157,1500,1500.0
16:14:02.569,AUTO,-35.3632766,149.1652201,17465,0.003831101581454277,0.08871240168809891,-2.357485771179199,0.03199080377817154,0.06779702007770538,0.007230143062770367,-18,-13,-1008,32,68,7,-65,-41,-159,1500,1500.0
16:14:02.770,AUTO,-35.3632779,149.1652191,17870,0.011067316867411137,0.10352879017591476,-2.3550221920013428,0.023301739245653152,0.052742525935173035,0.009396051988005638,-15,-5,-1002,24,53,9,-46,-22,-158,1500,1500.0
16:14:02.972,AUTO,-35.3632779,149.1652191,17870,0.011067316867411137,0.10352879017591476,-2.3550221920013428,0.023301739245653152,0.052742525935173035,0.009396051988005638,-15,-5,-1002,24,53,9,-46,-22,-158,1500,1500.0
16:14:03.173,AUTO,-35.3632788,149.1652187,18272,0.016563106328248978,0.11510574817657471,-2.352217674255371,0.01916787400841713,0.04159918054938316,0.011789255775511265,-10,-1,-998,20,42,11,-24,-3,-157,1500,1500.0
16:14:03.375,AUTO,-35.3632788,149.1652187,18272,0.016563106328248978,0.11510574817657471,-2.352217674255371,0.01916787400841713,0.04159918054938316,0.011789255775511265,-10,-1,-998,20,42,11,-24,-3,-157,1500,1500.0
16:14:03.576,AUTO,-35.3632788,149.1652187,18272,0.016563106328248978,0.11510574817657471,-2.352217674255371,0.01916787400841713,0.04159918054938316,0.011789255775511265,-10,-1,-998,20,42,11,-24,-3,-157,1500,1500.0
16:14:03.777,AUTO,-35.3632788,149.1652187,18272,0.016563106328248978,0.11510574817657471,-2.352217674255371,0.01916787400841713,0.04159918054938316,0.011789255775511265,-10,-1,-998,20,42,11,-24,-3,-157,1500,1500.0
16:14:03.979,AUTO,-35.3632788,149.1652187,18272,0.016563106328248978,0.11510574817657471,-2.352217674255371,0.01916787400841713,0.04159918054938316,0.011789255775511265,-10,-1,-998,20,42,11,-24,-3,-157,1500,1500.0
16:14:04.182,AUTO,-35.3632769,149.1652219,19800,0.020967012271285057,0.13742616772651672,-2.338815450668335,-0.003369932994246483,-0.03861289098858833,0.0383724607527256,14,8,-995,-2,-37,38,75,66,-141,1500,1500.0
16:14:04.384,AUTO,-35.363275,149.1652239,20159,0.028716055676341057,0.11756870150566101,-2.3302054405212402,0.057621680200099945,-0.08009907603263855,0.028119061142206192,18,10,-1001,58,-79,28,99,79,-140,1500,1500.0
16:14:04.585,AUTO,-35.3632726,149.1652261,20516,0.03851890191435814,0.09109331667423248,-2.317930221557617,-0.004235662519931793,-0.14270000159740448,0.08447049558162689,30,14,-1000,-3,-141,84,119,85,-139,1500,1500.0
16:14:04.786,AUTO,-35.3632698,149.1652284,20872,0.03187647461891174,0.042779017239809036,-2.289717197418213,-0.046290040016174316,-0.21641527116298676,0.14782032370567322,32,7,-1012,-45,-215,147,133,84,-140,1500,1500.0
16:14:04.987,AUTO,-35.3632698,149.1652284,20872,0.03187647461891174,0.042779017239809036,-2.289717197418213,-0.046290040016174316,-0.21641527116298676,0.14782032370567322,32,7,-1012,-45,-215,147,133,84,-140,1500,1500.0
16:14:05.187,AUTO,-35.3632668,149.1652306,21235,0.019253402948379517,-0.0059527321718633175,-2.260293960571289,-0.08004841208457947,-0.14829055964946747,0.09472411870956421,33,8,-1020,-79,-147,94,136,74,-145,1500,1500.0
16:14:05.388,AUTO,-35.3632668,149.1652306,21235,0.019253402948379517,-0.0059527321718633175,-2.260293960571289,-0.08004841208457947,-0.14829055964946747,0.09472411870956421,33,8,-1020,-79,-147,94,136,74,-145,1500,1500.0
16:14:05.590,AUTO,-35.3632668,149.1652306,21235,0.019253402948379517,-0.0059527321718633175,-2.260293960571289,-0.08004841208457947,-0.14829055964946747,0.09472411870956421,33,8,-1020,-79,-147,94,136,74,-145,1500,1500.0
16:14:05.792,AUTO,-35.3632668,149.1652306,21235,0.019253402948379517,-0.0059527321718633175,-2.260293960571289,-0.08004841208457947,-0.14829055964946747,0.09472411870956421,33,8,-1020,-79,-147,94,136,74,-145,1500,1500.0
16:14:05.995,AUTO,-35.3632587,149.1652353,22397,-0.05044300854206085,-0.07001844048500061,-2.236109495162964,-0.08044968545436859,-0.0640273317694664,-0.005319876130670309,27,4,-1015,-79,-62,-5,92,36,-156,1500,1500.0
16:14:06.196,AUTO,-35.363257,149.1652362,22797,-0.06882122159004211,-0.08557935804128647,-2.237462282180786,-0.06362105160951614,-0.05771879851818085,-0.009366568177938461,20,0,-1009,-62,-57,-9,65,26,-157,1500,1500.0
16:14:06.397,AUTO,-35.3632559,149.1652369,23197,-0.0842483788728714,-0.09855712950229645,-2.239708662033081,-0.05483904853463173,-0.044938817620277405,-0.01087754312902689,12,-1,-1003,-54,-43,-11,32,18,-156,1500,1500.0
16:14:06.599,AUTO,-35.3632556,149.1652374,23592,-0.0899161547422409,-0.10360119491815567,-2.2476284503936768,-0.0024274918250739574,0.014170870184898376,-0.04703119397163391,5,3,-999,-1,14,-47,-1,10,-154,1500,1500.0
16:14:06.801,AUTO,-35.363256,149.1652377,23983,-0.0852968767285347,-0.09848026931285858,-2.2609150409698486,0.025578610599040985,0.028367383405566216,-0.04692057892680168,-3,4,-996,26,29,-47,-33,4,-151,1500,1500.0
16:14:07.003,AUTO,-35.363256,149.1652377,23983,-0.0852968767285347,-0.09848026931285858,-2.2609150409698486,0.025578610599040985,0.028367383405566216,-0.04692057892680168,-3,4,-996,26,29,-47,-33,4,-151,1500,1500.0
16:14:07.205,AUTO,-35.363257,149.1652378,24373,-0.07550261914730072,-0.09171048551797867,-2.2737550735473633,0.04055304080247879,0.03332452103495598,-0.04236534610390663,-10,4,-995,41,34,-42,-62,1,-148,1500,1500.0
16:14:07.407,AUTO,-35.363257,149.1652378,24373,-0.07550261914730072,-0.09171048551797867,-2.2737550735473633,0.04055304080247879,0.03332452103495598,-0.04236534610390663,-10,4,-995,41,34,-42,-62,1,-148,1500,1500.0
16:14:07.609,AUTO,-35.363257,149.1652378,24373,-0.07550261914730072,-0.09171048551797867,-2.2737550735473633,0.04055304080247879,0.03332452103495598,-0.04236534610390663,-10,4,-995,41,34,-42,-62,1,-148,1500,1500.0
16:14:07.811,AUTO,-35.363257,149.1652378,24373,-0.07550261914730072,-0.09171048551797867,-2.2737550735473633,0.04055304080247879,0.03332452103495598,-0.04236534610390663,-10,4,-995,41,34,-42,-62,1,-148,1500,1500.0
16:14:08.012,AUTO,-35.363257,149.1652378,24373,-0.07550261914730072,-0.09171048551797867,-2.2737550735473633,0.04055304080247879,0.03332452103495598,-0.04236534610390663,-10,4,-995,41,34,-42,-62,1,-148,1500,1500.0
16:14:08.216,AUTO,-35.3632661,149.1652381,25852,-0.05630463361740112,0.03857959061861038,-2.336038827896118,-0.2118559032678604,0.34654662013053894,-0.29911008477211,-27,6,-993,-210,347,-299,-111,9,-145,1373,1500.0
16:14:08.418,AUTO,-35.3632687,149.1652389,26218,-0.10520049929618835,0.11408402025699615,-2.4304659366607666,-0.0930100679397583,0.2872779369354248,-0.40883317589759827,-29,11,-1000,-91,288,-408,-106,41,-143,1373,1500.0
16:14:08.619,AUTO,-35.363271,149.1652406,26561,-0.13443312048912048,0.13185717165470123,-2.676823139190674,0.06012103706598282,0.1195351853966713,-0.8485270142555237,-24,11,-1017,61,120,-848,-91,83,-132,1373,1500.0
16:14:08.820,AUTO,-35.363273,149.1652434,26898,-0.13719557225704193,0.12183748930692673,-2.884404182434082,0.11690288782119751,0.04338618740439415,-0.8085863590240479,-23,14,-1011,117,44,-808,-68,124,-130,1373,1500.0
16:14:09.021,AUTO,-35.3632743,149.1652473,27228,-0.1275724172592163,0.1034022718667984,-3.082885265350342,0.1362251341342926,0.02801022119820118,-0.7852705717086792,-26,27,-1009,137,29,-785,-40,157,-129,1373,1500.0
16:14:09.222,AUTO,-35.3632743,149.1652473,27228,-0.1275724172592163,0.1034022718667984,-3.082885265350342,0.1362251341342926,0.02801022119820118,-0.7852705717086792,-26,27,-1009,137,29,-785,-40,157,-129,1373,1500.0
16:14:09.423,AUTO,-35.3632743,149.1652473,27228,-0.1275724172592163,0.1034022718667984,-3.082885265350342,0.1362251341342926,0.02801022119820118,-0.7852705717086792,-26,27,-1009,137,29,-785,-40,157,-129,1373,1500.0
16:14:09.624,AUTO,-35.3632743,149.1652473,27228,-0.1275724172592163,0.1034022718667984,-3.082885265350342,0.1362251341342926,0.02801022119820118,-0.7852705717086792,-26,27,-1009,137,29,-785,-40,157,-129,1373,1500.0
16:14:09.826,AUTO,-35.3632743,149.1652473,27228,-0.1275724172592163,0.1034022718667984,-3.082885265350342,0.1362251341342926,0.02801022119820118,-0.7852705717086792,-26,27,-1009,137,29,-785,-40,157,-129,1373,1500.0
16:14:10.028,AUTO,-35.363273,149.1652671,28562,-0.03179315850138664,0.11217796802520752,2.4511046409606934,0.17692415416240692,0.07168068736791611,-0.7297126650810242,-41,31,-1032,177,72,-729,86,168,-137,1373,1500.0
16:14:10.229,AUTO,-35.363273,149.1652671,28562,-0.03179315850138664,0.11217796802520752,2.4511046409606934,0.17692415416240692,0.07168068736791611,-0.7297126650810242,-41,31,-1032,177,72,-729,86,168,-137,1373,1500.0
16:14:10.430,AUTO,-35.3632709,149.1652714,28917,-0.010936327278614044,0.12329905480146408,2.268289804458618,0.1643974632024765,0.05117000639438629,-0.7216435074806213,-32,24,-1030,165,52,-721,110,141,-142,1373,1500.0
16:14:10.631,AUTO,-35.3632684,149.1652748,29283,0.004374605603516102,0.1333795040845871,2.085685968399048,0.1427314579486847,0.0382905974984169,-0.7255985140800476,-28,22,-1024,143,39,-725,126,105,-146,1373,1500.0
16:14:10.832,AUTO,-35.3632656,149.1652771,29659,0.015117318369448185,0.1435631364583969,1.9230494499206543,0.09959828108549118,0.04677530378103256,-0.5225057601928711,-24,25,-1038,100,47,-522,134,63,-150,1500,1500.0
16:14:11.033,AUTO,-35.3632627,149.1652783,30046,0.030592167750000954,0.16537612676620483,1.8226782083511353,0.2415958046913147,0.1859387904405594,-0.22458086907863617,-21,27,-998,242,187,-224,135,19,-151,1500,1500.0
16:14:11.235,AUTO,-35.3632627,149.1652783,30046,0.030592167750000954,0.16537612676620483,1.8226782083511353,0.2415958046913147,0.1859387904405594,-0.22458086907863617,-21,27,-998,242,187,-224,135,19,-151,1500,1500.0
16:14:11.436,AUTO,-35.3632627,149.1652783,30046,0.030592167750000954,0.16537612676620483,1.8226782083511353,0.2415958046913147,0.1859387904405594,-0.22458086907863617,-21,27,-998,242,187,-224,135,19,-151,1500,1500.0
16:14:11.637,AUTO,-35.3632627,149.1652783,30046,0.030592167750000954,0.16537612676620483,1.8226782083511353,0.2415958046913147,0.1859387904405594,-0.22458086907863617,-21,27,-998,242,187,-224,135,19,-151,1500,1500.0
16:14:11.839,AUTO,-35.3632627,149.1652783,30046,0.030592167750000954,0.16537612676620483,1.8226782083511353,0.2415958046913147,0.1859387904405594,-0.22458086907863617,-21,27,-998,242,187,-224,135,19,-151,1500,1500.0
16:14:12.040,AUTO,-35.3632549,149.1652675,31415,0.1806005835533142,0.22199755907058716,1.8505481481552124,-0.046044789254665375,-0.1907888501882553,0.14708659052848816,40,26,-982,-44,-189,147,33,-227,-106,1500,1500.0
16:14:12.241,AUTO,-35.3632549,149.1652675,31415,0.1806005835533142,0.22199755907058716,1.8505481481552124,-0.046044789254665375,-0.1907888501882553,0.14708659052848816,40,26,-982,-44,-189,147,33,-227,-106,1500,1500.0
16:14:12.442,AUTO,-35.3632548,149.1652607,31676,0.1934775859117508,0.1737304925918579,1.8699134588241577,0.033425867557525635,-0.1876143217086792,0.12509584426879883,54,9,-994,34,-186,125,-6,-274,-97,1500,1500.0
16:14:12.644,AUTO,-35.3632556,149.1652527,31918,0.19422537088394165,0.1139158084988594,1.897425651550293,-0.03746552765369415,-0.2328406423330307,0.1867808997631073,71,3,-1012,-36,-231,187,-50,-307,-92,1500,1500.0
16:14:12.845,AUTO,-35.3632573,149.1652441,32157,0.18461330235004425,0.046617329120635986,1.9298200607299805,-0.08806195110082626,-0.215571328997612,0.14696469902992249,76,-6,-1029,-87,-214,147,-96,-324,-95,1500,1500.0
16:14:13.046,AUTO,-35.3632601,149.1652351,32413,0.15266993641853333,0.0033833442721515894,1.9451959133148193,-0.13325947523117065,-0.1312347799539566,0.05072731524705887,79,-18,-1045,-131,-130,50,-140,-325,-102,1500,1500.0
16:14:13.248,AUTO,-35.3632601,149.1652351,32413,0.15266993641853333,0.0033833442721515894,1.9451959133148193,-0.13325947523117065,-0.1312347799539566,0.05072731524705887,79,-18,-1045,-131,-130,50,-140,-325,-102,1500,1500.0
16:14:13.450,AUTO,-35.3632601,149.1652351,32413,0.15266993641853333,0.0033833442721515894,1.9451959133148193,-0.13325947523117065,-0.1312347799539566,0.05072731524705887,79,-18,-1045,-131,-130,50,-140,-325,-102,1500,1500.0
16:14:13.652,AUTO,-35.3632601,149.1652351,32413,0.15266993641853333,0.0033833442721515894,1.9451959133148193,-0.13325947523117065,-0.1312347799539566,0.05072731524705887,79,-18,-1045,-131,-130,50,-140,-325,-102,1500,1500.0
16:14:13.855,AUTO,-35.3632601,149.1652351,32413,0.15266993641853333,0.0033833442721515894,1.9451959133148193,-0.13325947523117065,-0.1312347799539566,0.05072731524705887,79,-18,-1045,-131,-130,50,-140,-325,-102,1500,1500.0
16:14:14.056,AUTO,-35.3632792,149.1652043,33651,0.07267232984304428,-0.14912094175815582,1.9026843309402466,-0.06999491900205612,-0.16060684621334076,-0.047212131321430206,54,-50,-1038,-68,-159,-46,-265,-209,-139,1500,1500.0
16:14:14.257,AUTO,-35.3632792,149.1652043,33651,0.05232326313853264,-0.18081428110599518,1.8849178552627563,-0.1390911340713501,-0.08452945947647095,-0.10734858363866806,54,-50,-1038,-68,-159,-46,-265,-209,-139,1500,1500.0
16:14:14.459,AUTO,-35.3632855,149.1651991,34006,0.05232326313853264,-0.18081428110599518,1.8849178552627563,-0.1390911340713501,-0.08452945947647095,-0.10734858363866806,68,-44,-1029,-138,-83,-106,-287,-157,-141,1500,1500.0
16:14:14.660,AUTO,-35.3632922,149.1651955,34363,0.013361742720007896,-0.1882256716489792,1.8515292406082153,-0.22926491498947144,-0.024551060050725937,-0.13882938027381897,46,-62,-1026,-228,-23,-138,-299,-100,-142,1500,1500.0
16:14:14.861,AUTO,-35.3632991,149.1651936,34725,-0.046042777597904205,-0.19963058829307556,1.8176467418670654,-0.2894653081893921,-0.053284600377082825,-0.13182467222213745,37,-67,-1047,-288,-52,-131,-297,-37,-144,1500,1500.0
16:14:15.062,AUTO,-35.3633057,149.1651934,35094,-0.1157258003950119,-0.2151491492986679,1.789258599281311,-0.2982291281223297,-0.033096443861722946,-0.08677013218402863,24,-73,-1052,-296,-32,-86,-276,29,-148,1500,1500.0
16:14:15.263,AUTO,-35.3633057,149.1651934,35094,-0.1157258003950119,-0.2151491492986679,1.789258599281311,-0.2982291281223297,-0.033096443861722946,-0.08677013218402863,24,-73,-1052,-296,-32,-86,-276,29,-148,1500,1500.0
16:14:15.464,AUTO,-35.3633057,149.1651934,35094,-0.1157258003950119,-0.2151491492986679,1.789258599281311,-0.2982291281223297,-0.033096443861722946,-0.08677013218402863,24,-73,-1052,-296,-32,-86,-276,29,-148,1500,1500.0
16:14:15.667,AUTO,-35.3633057,149.1651934,35094,-0.1157258003950119,-0.2151491492986679,1.789258599281311,-0.2982291281223297,-0.033096443861722946,-0.08677013218402863,24,-73,-1052,-296,-32,-86,-276,29,-148,1500,1500.0
16:14:15.868,AUTO,-35.3633057,149.1651934,35094,-0.1157258003950119,-0.2151491492986679,1.789258599281311,-0.2982291281223297,-0.033096443861722946,-0.08677013218402863,24,-73,-1052,-296,-32,-86,-276,29,-148,1500,1500.0
16:14:16.069,AUTO,-35.3633228,149.1652088,36558,-0.20401927828788757,-0.07260482013225555,1.7707769870758057,0.011853355914354324,0.17250487208366394,0.035279903560876846,-38,-43,-1022,12,173,35,-76,220,-140,1500,1500.0
16:14:16.270,AUTO,-35.363324,149.1652151,36912,-0.20050765573978424,-0.03248376026749611,1.7725406885147095,0.01376434601843357,0.14549575746059418,0.03813878074288368,-57,-31,-1021,14,146,38,-21,233,-139,1500,1500.0
16:14:16.472,AUTO,-35.363324,149.1652151,36912,-0.20050765573978424,-0.03248376026749611,1.7725406885147095,0.01376434601843357,0.14549575746059418,0.03813878074288368,-57,-31,-1021,14,146,38,-21,233,-139,1500,1500.0
16:14:16.674,AUTO,-35.3633239,149.1652216,37263,-0.1959960013628006,0.004746142774820328,1.7718777656555176,0.021422451362013817,0.1436942219734192,0.023546133190393448,-53,-18,-1019,22,144,23,33,236,-137,1500,1500.0
16:14:16.876,AUTO,-35.3633227,149.1652281,37612,-0.1887698769569397,0.04295315220952034,1.7687443494796753,0.03511719033122063,0.15386852622032166,0.013190780766308308,-62,-7,-1020,36,155,13,85,227,-137,1500,1500.0
16:14:17.078,AUTO,-35.3633203,149.1652341,37959,-0.17756769061088562,0.08169484883546829,1.7643722295761108,0.05442802980542183,0.15833473205566406,0.006437868811190128,-48,10,-1019,55,159,6,135,207,-136,1500,1500.0
16:14:17.281,AUTO,-35.3633203,149.1652341,37959,-0.17756769061088562,0.08169484883546829,1.7643722295761108,0.05442802980542183,0.15833473205566406,0.006437868811190128,-48,10,-1019,55,159,6,135,207,-136,1500,1500.0
16:14:17.484,AUTO,-35.3633203,149.1652341,37959,-0.17756769061088562,0.08169484883546829,1.7643722295761108,0.05442802980542183,0.15833473205566406,0.006437868811190128,-48,10,-1019,55,159,6,135,207,-136,1500,1500.0
16:14:17.685,AUTO,-35.3633203,149.1652341,37959,-0.17756769061088562,0.08169484883546829,1.7643722295761108,0.05442802980542183,0.15833473205566406,0.006437868811190128,-48,10,-1019,55,159,6,135,207,-136,1500,1500.0
16:14:17.887,AUTO,-35.3633203,149.1652341,37959,-0.17756769061088562,0.08169484883546829,1.7643722295761108,0.05442802980542183,0.15833473205566406,0.006437868811190128,-48,10,-1019,55,159,6,135,207,-136,1500,1500.0
16:14:18.089,AUTO,-35.3633013,149.1652489,39318,-0.08564136177301407,0.22220876812934875,1.7562371492385864,0.12941627204418182,0.10394246876239777,0.017920076847076416,-37,46,-1012,130,105,18,277,30,-127,1500,1500.0
16:14:18.291,AUTO,-35.3632951,149.165249,39639,-0.05155094340443611,0.2440374791622162,1.7601929903030396,0.13140495121479034,0.07141967117786407,0.027571821585297585,-22,60,-1010,132,72,27,289,-31,-123,1500,1500.0
16:14:18.492,AUTO,-35.3632951,149.165249,39639,-0.05155094340443611,0.2440374791622162,1.7601929903030396,0.13140495121479034,0.07141967117786407,0.027571821585297585,-22,60,-1010,132,72,27,289,-31,-123,1500,1500.0
16:14:18.693,AUTO,-35.3632886,149.1652474,39942,-0.043075837194919586,0.22965310513973236,1.800862431526184,-0.11270879209041595,-0.18308310210704803,0.2136833816766739,-6,73,-976,-111,-181,213,296,-91,-112,1500,1500.0
16:14:18.894,AUTO,-35.363282,149.1652444,40226,-0.019960761070251465,0.20329183340072632,1.8384215831756592,0.13372471928596497,-0.06620504707098007,0.12378127127885818,8,69,-1007,135,-64,123,300,-143,-107,1500,1500.0
16:14:19.095,AUTO,-35.3632754,149.1652399,40501,0.016378579661250114,0.18177948892116547,1.8735034465789795,0.0812840387225151,-0.12829989194869995,0.16608989238739014,22,70,-1015,82,-127,166,293,-190,-106,1500,1500.0
16:14:19.296,AUTO,-35.3632754,149.1652399,40501,0.016378579661250114,0.18177948892116547,1.8735034465789795,0.0812840387225151,-0.12829989194869995,0.16608989238739014,22,70,-1015,82,-127,166,293,-190,-106,1500,1500.0
16:14:19.498,AUTO,-35.3632754,149.1652399,40501,0.016378579661250114,0.18177948892116547,1.8735034465789795,0.0812840387225151,-0.12829989194869995,0.16608989238739014,22,70,-1015,82,-127,166,293,-190,-106,1500,1500.0
16:14:19.699,AUTO,-35.3632754,149.1652399,40501,0.016378579661250114,0.18177948892116547,1.8735034465789795,0.0812840387225151,-0.12829989194869995,0.16608989238739014,22,70,-1015,82,-127,166,293,-190,-106,1500,1500.0
16:14:19.900,AUTO,-35.3632754,149.1652399,40501,0.016378579661250114,0.18177948892116547,1.8735034465789795,0.0812840387225151,-0.12829989194869995,0.16608989238739014,22,70,-1015,82,-127,166,293,-190,-106,1500,1500.0
16:14:20.101,AUTO,-35.3632535,149.1652138,41768,0.0941580981016159,-0.07720926403999329,2.0186126232147217,0.020950062200427055,-0.21757195889949799,0.055497366935014725,59,52,-1087,22,-216,55,175,-253,-155,1500,1500.0
16:14:20.302,AUTO,-35.3632502,149.1652072,42180,0.0872231125831604,-0.12015512585639954,2.020824670791626,-0.06336984783411026,-0.13495925068855286,0.006043489556759596,55,41,-1062,-62,-133,6,125,-231,-168,1500,1500.0
16:14:20.504,AUTO,-35.3632502,149.1652072,42180,0.0872231125831604,-0.12015512585639954,2.020824670791626,-0.06336984783411026,-0.13495925068855286,0.006043489556759596,55,41,-1062,-62,-133,6,125,-231,-168,1500,1500.0
16:14:20.705,AUTO,-35.3632479,149.1652013,42616,0.07429821789264679,-0.14779506623744965,2.013552188873291,-0.05340414494276047,-0.09947579354047775,-0.034518446773290634,49,29,-1035,-52,-98,-34,79,-201,-174,1485,1500.0
16:14:20.907,AUTO,-35.3632466,149.1651963,43059,0.06485363841056824,-0.16884738206863403,1.9995592832565308,-0.03664173185825348,-0.08237779140472412,-0.0562700554728508,48,24,-1020,-35,-81,-55,36,-164,-174,1485,1500.0
16:14:21.109,AUTO,-35.3632463,149.1651924,43499,0.05764549598097801,-0.18653081357479095,1.9823379516601562,-0.04564904421567917,-0.06779217720031738,-0.06381110101938248,31,10,-1004,-44,-66,-63,-2,-123,-170,1485,1500.0
16:14:21.311,AUTO,-35.3632463,149.1651924,43499,0.05764549598097801,-0.18653081357479095,1.9823379516601562,-0.04564904421567917,-0.06779217720031738,-0.06381110101938248,31,10,-1004,-44,-66,-63,-2,-123,-170,1485,1500.0
16:14:21.512,AUTO,-35.3632463,149.1651924,43499,0.05764549598097801,-0.18653081357479095,1.9823379516601562,-0.04564904421567917,-0.06779217720031738,-0.06381110101938248,31,10,-1004,-44,-66,-63,-2,-123,-170,1485,1500.0
