time_stamp,MODE,lat,lon,relative_alt,roll,pitch,yaw,rollspeed,pitchspeed,yawspeed,xacc,yacc,zacc,xgyro,ygyro,zgyro,vx,vy,vz,RTL_ALT
15:45:46.930,STABILIZE,-35.3632621,149.1652374,6,0.00014185281179379672,0.001587948645465076,0.028138568624854088,0.0002508214383851737,0.00020876253256574273,0.002300734631717205,0,1,-1000,0,0,0,-1,1,0,66832.0
15:45:47.131,STABILIZE,-35.3632621,149.1652374,6,0.00014185281179379672,0.001587948645465076,0.028138568624854088,0.0002508214383851737,0.00020876253256574273,0.002300734631717205,0,1,-1000,0,0,0,-1,1,0,66832.0
15:45:47.332,STABILIZE,-35.3632621,149.1652374,6,0.00014185281179379672,0.001587948645465076,0.028138568624854088,0.0002508214383851737,0.00020876253256574273,0.002300734631717205,0,1,-1000,0,0,0,-1,1,0,66832.0
15:45:47.533,STABILIZE,-35.3632621,149.1652374,6,0.00014185281179379672,0.001587948645465076,0.028138568624854088,0.0002508214383851737,0.00020876253256574273,0.002300734631717205,0,1,-1000,0,0,0,-1,1,0,66832.0
15:45:47.733,STABILIZE,-35.3632621,149.1652374,6,0.00014185281179379672,0.001587948645465076,0.028138568624854088,0.0002508214383851737,0.00020876253256574273,0.002300734631717205,0,1,-1000,0,0,0,-1,1,0,66832.0
15:45:47.934,STABILIZE,-35.3632621,149.1652374,6,0.00014185281179379672,0.001587948645465076,0.028138568624854088,0.0002508214383851737,0.00020876253256574273,0.002300734631717205,0,1,-1000,0,0,0,-1,1,0,66832.0
15:45:48.135,STABILIZE,-35.3632621,149.1652374,6,0.00014185281179379672,0.001587948645465076,0.028138568624854088,0.0002508214383851737,0.00020876253256574273,0.002300734631717205,0,1,-1000,0,0,0,-1,1,0,66832.0
15:45:48.335,STABILIZE,-35.3632621,149.1652374,6,0.00014185281179379672,0.001587948645465076,0.028138568624854088,0.0002508214383851737,0.00020876253256574273,0.002300734631717205,0,1,-1000,0,0,0,-1,1,0,66832.0
15:45:48.536,STABILIZE,-35.3632621,149.1652374,6,0.00014185281179379672,0.001587948645465076,0.028138568624854088,0.0002508214383851737,0.00020876253256574273,0.002300734631717205,0,1,-1000,0,0,0,-1,1,0,66832.0
15:45:48.737,STABILIZE,-35.3632621,149.1652374,6,0.00014185281179379672,0.001587948645465076,0.028138568624854088,0.0002508214383851737,0.00020876253256574273,0.002300734631717205,0,1,-1000,0,0,0,-1,1,0,66832.0
15:45:48.937,STABILIZE,-35.3632621,149.1652374,6,0.00014185281179379672,0.001587948645465076,0.028138568624854088,0.0002508214383851737,0.00020876253256574273,0.002300734631717205,0,1,-1000,0,0,0,-1,1,0,66832.0
15:45:49.138,STABILIZE,-35.3632621,149.1652374,6,0.00014185281179379672,0.001587948645465076,0.028138568624854088,0.0002508214383851737,0.00020876253256574273,0.002300734631717205,0,1,-1000,0,0,1,-1,1,0,66832.0
15:45:49.339,STABILIZE,-35.3632621,149.1652374,6,0.00014185281179379672,0.001587948645465076,0.028138568624854088,0.0002508214383851737,0.00020876253256574273,0.002300734631717205,0,1,-1000,0,0,0,-1,1,0,66832.0
15:45:49.540,STABILIZE,-35.3632622,149.1652375,0,-0.0007755443220958114,0.001083951210603118,0.026499412953853607,8.408026769757271e-05,0.00017460790695622563,0.0019830805249512196,0,1,-1000,0,0,0,-1,1,0,66832.0
15:45:49.741,STABILIZE,-35.3632622,149.1652375,0,-0.0007755443220958114,0.001083951210603118,0.026499412953853607,8.408026769757271e-05,0.00017460790695622563,0.0019830805249512196,0,1,-1000,0,0,0,-1,1,0,66832.0
15:45:49.942,STABILIZE,-35.3632622,149.1652375,0,-0.0007755443220958114,0.001083951210603118,0.026499412953853607,8.408026769757271e-05,0.00017460790695622563,0.0019830805249512196,0,1,-1000,0,0,0,-1,1,0,66832.0
15:45:50.143,STABILIZE,-35.3632622,149.1652375,0,-0.0008946687448769808,0.0010155107593163848,0.026305202394723892,0.00019968044944107533,0.0003787192399613559,0.002114526927471161,0,1,-1000,0,0,0,-1,1,0,66832.0
15:45:50.344,STABILIZE,-35.3632622,149.1652375,0,-0.0008946687448769808,0.0010155107593163848,0.026305202394723892,0.00019968044944107533,0.0003787192399613559,0.002114526927471161,0,1,-1000,0,0,0,-1,1,0,66832.0
15:45:50.545,STABILIZE,-35.3632622,149.1652375,0,-0.0008946687448769808,0.0010155107593163848,0.026305202394723892,0.00019968044944107533,0.0003787192399613559,0.002114526927471161,0,1,-1000,0,0,0,-1,1,0,66832.0
15:45:50.746,STABILIZE,-35.3632622,149.1652375,0,-0.0008946687448769808,0.0010155107593163848,0.026305202394723892,0.00019968044944107533,0.0003787192399613559,0.002114526927471161,0,1,-1000,0,0,0,-1,1,0,66832.0
15:45:50.948,STABILIZE,-35.3632622,149.1652375,0,-0.0008946687448769808,0.0010155107593163848,0.026305202394723892,0.00019968044944107533,0.0003787192399613559,0.002114526927471161,0,1,-1000,0,0,0,-1,1,0,66832.0
15:45:51.149,STABILIZE,-35.3632621,149.1652375,0,-0.0007510181749239564,0.0009333753259852529,0.025909243151545525,0.00027129054069519043,0.00017217342974618077,0.00209379056468606,0,1,-1000,0,0,0,-1,1,1,66832.0
15:45:51.350,STABILIZE,-35.3632621,149.1652375,0,-0.000806455675046891,0.0009214585297740996,0.02582341618835926,0.00013173138722777367,0.00025284336879849434,0.0019680759869515896,0,1,-1000,1,0,0,-1,1,1,66832.0
15:45:51.551,STABILIZE,-35.3632621,149.1652375,0,-0.000806455675046891,0.0009214585297740996,0.02582341618835926,0.00013173138722777367,0.00025284336879849434,0.0019680759869515896,0,1,-1000,1,0,0,-1,1,1,66832.0
15:45:51.752,STABILIZE,-35.3632621,149.1652375,0,-0.000806455675046891,0.0009214585297740996,0.02582341618835926,0.00013173138722777367,0.00025284336879849434,0.0019680759869515896,0,1,-1000,1,0,0,-1,1,1,66832.0
15:45:51.953,STABILIZE,-35.3632621,149.1652375,0,-0.0009134169667959213,0.0009156743180938065,0.025626923888921738,0.0002642272738739848,0.0003917203866876662,0.0019810569938272238,0,1,-1000,0,0,0,-1,1,1,66832.0
15:45:52.154,STABILIZE,-35.3632621,149.1652375,0,-0.0009507685317657888,0.0009170990088023245,0.025525137782096863,0.00027074653189629316,0.0002524015726521611,0.0019101874204352498,0,1,-1000,0,0,1,-1,1,1,66832.0
15:45:52.356,STABILIZE,-35.3632621,149.1652375,0,-0.0009507685317657888,0.0009170990088023245,0.025525137782096863,0.00027074653189629316,0.0002524015726521611,0.0019101874204352498,0,1,-1000,0,0,1,-1,1,1,66832.0
15:45:52.557,STABILIZE,-35.3632621,149.1652375,0,-0.0009507685317657888,0.0009170990088023245,0.025525137782096863,0.00027074653189629316,0.0002524015726521611,0.0019101874204352498,0,1,-1000,0,0,1,-1,1,1,66832.0
15:45:52.758,STABILIZE,-35.3632621,149.1652375,0,-0.0009507685317657888,0.0009170990088023245,0.025525137782096863,0.00027074653189629316,0.0002524015726521611,0.0019101874204352498,0,1,-1000,0,0,1,-1,1,1,66832.0
15:45:52.960,STABILIZE,-35.3632621,149.1652375,0,-0.0009507685317657888,0.0009170990088023245,0.025525137782096863,0.00027074653189629316,0.0002524015726521611,0.0019101874204352498,0,1,-1000,0,0,1,-1,1,1,66832.0
15:45:53.161,STABILIZE,-35.3632621,149.1652375,0,-0.0010975570185109973,0.0009147817618213594,0.025156989693641663,0.0002712263376452029,0.00018847879255190492,0.001923420699313283,0,1,-1000,0,0,0,-1,1,0,66832.0
15:45:53.362,STABILIZE,-35.3632621,149.1652375,0,-0.0010975570185109973,0.0009147817618213594,0.025156989693641663,0.0002712263376452029,0.00018847879255190492,0.001923420699313283,0,1,-1000,0,0,0,-1,1,0,66832.0
15:45:53.563,STABILIZE,-35.3632621,149.1652375,0,-0.0010975570185109973,0.0009147817618213594,0.025156989693641663,0.0002712263376452029,0.00018847879255190492,0.001923420699313283,0,1,-1000,0,0,0,-1,1,0,66832.0
15:45:53.764,STABILIZE,-35.3632621,149.1652375,0,-0.0011350406566634774,0.000920543447136879,0.024981718510389328,0.00020869821310043335,0.00019413197878748178,0.0018514872062951326,0,1,-1000,0,0,0,-1,0,0,66832.0
15:45:53.966,STABILIZE,-35.3632621,149.1652375,0,-0.0011350406566634774,0.000920543447136879,0.024981718510389328,0.00020869821310043335,0.00019413197878748178,0.0018514872062951326,0,1,-1000,0,0,0,-1,0,0,66832.0
15:45:54.167,STABILIZE,-35.3632621,149.1652375,0,-0.000999882584437728,0.0009380183182656765,0.024836340919137,0.0002734340960159898,0.00026408600388094783,0.001830928842537105,0,0,-1001,1,0,0,-1,1,1,66832.0
15:45:54.368,STABILIZE,-35.3632621,149.1652375,0,-0.000999882584437728,0.0009380183182656765,0.024836340919137,0.0002734340960159898,0.00026408600388094783,0.001830928842537105,0,0,-1001,1,0,0,-1,1,1,66832.0
15:45:54.569,STABILIZE,-35.3632621,149.1652375,0,-0.000999882584437728,0.0009380183182656765,0.024836340919137,0.0002734340960159898,0.00026408600388094783,0.001830928842537105,0,0,-1001,1,0,0,-1,1,1,66832.0
15:45:54.771,STABILIZE,-35.3632621,149.1652375,0,-0.000999882584437728,0.0009380183182656765,0.024836340919137,0.0002734340960159898,0.00026408600388094783,0.001830928842537105,0,0,-1001,1,0,0,-1,1,1,66832.0
15:45:54.972,STABILIZE,-35.3632621,149.1652375,0,-0.0011075555812567472,0.0009659279021434486,0.024602144956588745,0.00015042274026200175,0.0002805846743285656,0.001794000738300383,0,1,-1000,0,0,1,-1,1,1,66832.0
15:45:55.173,STABILIZE,-35.3632621,149.1652375,0,-0.0011542665306478739,0.0009691659361124039,0.024520691484212875,0.00015702506061643362,0.0002972356742247939,0.0017672996036708355,0,2,-1000,0,0,0,-1,1,0,66832.0
15:45:55.374,STABILIZE,-35.3632621,149.1652375,0,-0.0011542665306478739,0.0009691659361124039,0.024520691484212875,0.00015702506061643362,0.0002972356742247939,0.0017672996036708355,0,2,-1000,0,0,0,-1,1,0,66832.0
15:45:55.576,STABILIZE,-35.3632621,149.1652375,0,-0.001185100176371634,0.0009746432187967002,0.024450896307826042,0.00030599901219829917,0.00035961956018581986,0.001729305600747466,0,1,-1000,0,0,1,-1,1,0,66832.0
15:45:55.777,STABILIZE,-35.3632622,149.1652375,0,-0.001208581030368805,0.000989020918495953,0.024384431540966034,0.0002510880003683269,0.0003318929811939597,0.0016644804272800684,0,1,-1000,0,1,0,-1,1,0,66832.0
15:45:55.978,STABILIZE,-35.3632622,149.1652375,0,-0.001242988626472652,0.0009888154454529285,0.024311060085892677,6.807310273870826e-05,0.00025946652749553323,0.001695306971669197,0,1,-1000,0,0,1,-1,1,0,66832.0
15:45:56.180,STABILIZE,-35.3632622,149.1652375,0,-0.001242988626472652,0.0009888154454529285,0.024311060085892677,6.807310273870826e-05,0.00025946652749553323,0.001695306971669197,0,1,-1000,0,0,1,-1,1,0,66832.0
15:45:56.381,STABILIZE,-35.3632622,149.1652375,0,-0.001242988626472652,0.0009888154454529285,0.024311060085892677,6.807310273870826e-05,0.00025946652749553323,0.001695306971669197,0,1,-1000,0,0,1,-1,1,0,66832.0
15:45:56.583,STABILIZE,-35.3632622,149.1652375,0,-0.001242988626472652,0.0009888154454529285,0.024311060085892677,6.807310273870826e-05,0.00025946652749553323,0.001695306971669197,0,1,-1000,0,0,1,-1,1,0,66832.0
15:45:56.791,STABILIZE,-35.3632622,149.1652375,0,-0.001242988626472652,0.0009888154454529285,0.024311060085892677,6.807310273870826e-05,0.00025946652749553323,0.001695306971669197,0,1,-1000,0,0,1,-1,1,0,66832.0
15:45:56.993,STABILIZE,-35.3632622,149.1652375,0,-0.001242988626472652,0.0009888154454529285,0.024311060085892677,6.807310273870826e-05,0.00025946652749553323,0.001695306971669197,0,1,-1000,0,0,1,-1,1,0,66832.0
15:45:57.194,STABILIZE,-35.3632622,149.1652375,0,-0.0013257144019007683,0.0009879458229988813,0.023978663608431816,0.00011934852227568626,0.00028193427715450525,0.0017275626305490732,0,2,-1000,0,0,1,-1,0,0,66832.0
15:45:57.395,STABILIZE,-35.3632622,149.1652375,0,-0.0013257144019007683,0.0009879458229988813,0.023978663608431816,0.00011934852227568626,0.00028193427715450525,0.0017275626305490732,0,2,-1000,0,0,1,-1,0,0,66832.0
15:45:57.596,STABILIZE,-35.3632622,149.1652375,0,-0.0013257144019007683,0.0009879458229988813,0.023978663608431816,0.00011934852227568626,0.00028193427715450525,0.0017275626305490732,0,2,-1000,0,0,1,-1,0,0,66832.0
15:45:57.798,STABILIZE,-35.3632622,149.1652375,3,-0.0013402072945609689,0.0009974768618121743,0.02384587936103344,0.00022538413759320974,0.00024242757353931665,0.0016252188943326473,0,1,-1000,0,0,0,-1,0,-1,66832.0
15:45:57.999,STABILIZE,-35.3632622,149.1652375,3,-0.0013402072945609689,0.0009974768618121743,0.02384587936103344,0.00022538413759320974,0.00024242757353931665,0.0016252188943326473,0,1,-1000,0,0,0,-1,0,-1,66832.0
15:45:58.201,STABILIZE,-35.3632622,149.1652375,3,-0.0013402072945609689,0.0009974768618121743,0.02384587936103344,0.00022538413759320974,0.00024242757353931665,0.0016252188943326473,0,1,-1000,0,0,0,-1,0,-1,66832.0
15:45:58.402,STABILIZE,-35.3632622,149.1652375,3,-0.0013402072945609689,0.0009974768618121743,0.02384587936103344,0.00022538413759320974,0.00024242757353931665,0.0016252188943326473,0,1,-1000,0,0,0,-1,0,-1,66832.0
15:45:58.604,STABILIZE,-35.3632622,149.1652375,3,-0.0013402072945609689,0.0009974768618121743,0.02384587936103344,0.00022538413759320974,0.00024242757353931665,0.0016252188943326473,0,1,-1000,0,0,0,-1,0,-1,66832.0
15:45:58.805,STABILIZE,-35.3632622,149.1652375,3,-0.0013402072945609689,0.0009974768618121743,0.02384587936103344,0.00022538413759320974,0.00024242757353931665,0.0016252188943326473,0,1,-1000,0,0,0,-1,0,-1,66832.0
15:45:59.006,STABILIZE,-35.3632622,149.1652375,3,-0.0013402072945609689,0.0009974768618121743,0.02384587936103344,0.00022538413759320974,0.00024242757353931665,0.0016252188943326473,0,1,-1000,0,0,0,-1,0,-1,66832.0
15:45:59.208,STABILIZE,-35.3632622,149.1652375,16,-0.0013402072945609689,0.0009974768618121743,0.02384587936103344,0.00022538413759320974,0.00024242757353931665,0.0016252188943326473,0,1,-1000,0,0,0,-1,0,-1,66832.0
15:45:59.409,STABILIZE,-35.3632622,149.1652375,16,-0.0013402072945609689,0.0009974768618121743,0.02384587936103344,0.00022538413759320974,0.00024242757353931665,0.0016252188943326473,0,1,-1000,1,0,1,-1,0,-1,66832.0
15:45:59.611,STABILIZE,-35.3632622,149.1652375,16,-0.0013402072945609689,0.0009974768618121743,0.02384587936103344,0.00022538413759320974,0.00024242757353931665,0.0016252188943326473,0,1,-1000,1,0,1,-1,0,-1,66832.0
15:45:59.812,STABILIZE,-35.3632622,149.1652375,16,-0.0013402072945609689,0.0009974768618121743,0.02384587936103344,0.00022538413759320974,0.00024242757353931665,0.0016252188943326473,0,1,-1000,1,0,1,-1,0,-1,66832.0
15:46:00.014,STABILIZE,-35.3632622,149.1652375,16,-0.0013402072945609689,0.0009974768618121743,0.02384587936103344,0.00022538413759320974,0.00024242757353931665,0.0016252188943326473,0,1,-1000,1,0,1,-1,0,-1,66832.0
15:46:00.216,STABILIZE,-35.3632622,149.1652375,16,-0.0013402072945609689,0.0009974768618121743,0.02384587936103344,0.00022538413759320974,0.00024242757353931665,0.0016252188943326473,0,1,-1000,1,0,1,-1,0,-1,66832.0
15:46:00.417,STABILIZE,-35.3632622,149.1652375,16,-0.0013402072945609689,0.0009974768618121743,0.02384587936103344,0.00022538413759320974,0.00024242757353931665,0.0016252188943326473,0,1,-1000,1,0,1,-1,0,-1,66832.0
15:46:00.618,STABILIZE,-35.3632622,149.1652375,16,-0.0013402072945609689,0.0009974768618121743,0.02384587936103344,0.00022538413759320974,0.00024242757353931665,0.0016252188943326473,0,1,-1000,1,0,1,-1,0,-1,66832.0
15:46:00.820,STABILIZE,-35.3632622,149.1652375,16,-0.0013402072945609689,0.0009974768618121743,0.02384587936103344,0.00022538413759320974,0.00024242757353931665,0.0016252188943326473,0,1,-1000,1,0,1,-1,0,-1,66832.0
15:46:01.021,STABILIZE,-35.3632622,149.1652375,23,-0.0009730750462040305,0.0009716971544548869,0.023030955344438553,0.0002793425810523331,0.00015817477833479643,0.0015552836703136563,0,2,-1000,0,0,0,-1,1,-1,66832.0
15:46:01.222,STABILIZE,-35.3632622,149.1652375,23,-0.0006462755845859647,0.0009549252572469413,0.022962244227528572,0.00023528572637587786,0.00024302344536408782,0.0016234000213444233,0,2,-1000,0,0,0,-1,1,-1,66832.0
15:46:01.425,AUTO,-35.3632622,149.1652375,24,-0.0006412282818928361,0.0009530047536827624,0.022904369980096817,0.00031148741254583,0.00018944672774523497,0.0015603686915710568,0,1,-1000,0,0,0,-1,1,-1,66832.0
15:46:01.627,AUTO,-35.3632622,149.1652375,24,-0.0006412282818928361,0.0009530047536827624,0.022904369980096817,0.00031148741254583,0.00018944672774523497,0.0015603686915710568,0,1,-1000,0,0,0,-1,1,-1,66832.0
15:46:01.829,AUTO,-35.3632622,149.1652375,4,-0.0006365325534716249,0.0009557800367474556,0.02282596193253994,0.0002950403722934425,0.0002487811725586653,0.0015456520486623049,0,1,-1000,0,0,1,-1,1,-1,66832.0
15:46:02.031,AUTO,-35.3632622,149.1652375,5,-0.0006415288080461323,0.0009611389832571149,0.022739863023161888,0.0001968109281733632,0.00029191962676122785,0.0014856040943413973,0,2,-1000,0,0,0,-1,1,-1,66832.0
15:46:02.233,AUTO,-35.3632622,149.1652375,6,-0.0006359413964673877,0.0009654034511186182,0.02268516644835472,0.00030429032631218433,0.0002637400175444782,0.0015078568831086159,0,1,-1000,0,1,1,-1,1,-1,66832.0
15:46:02.435,AUTO,-35.3632622,149.1652375,6,-0.0006359413964673877,0.0009654034511186182,0.02268516644835472,0.00030429032631218433,0.0002637400175444782,0.0015078568831086159,0,1,-1000,0,1,1,-1,1,-1,66832.0
15:46:02.636,AUTO,-35.3632622,149.1652375,6,-0.0006359413964673877,0.0009654034511186182,0.02268516644835472,0.00030429032631218433,0.0002637400175444782,0.0015078568831086159,0,1,-1000,0,1,1,-1,1,-1,66832.0
15:46:02.838,AUTO,-35.3632622,149.1652375,6,-0.0006359413964673877,0.0009654034511186182,0.02268516644835472,0.00030429032631218433,0.0002637400175444782,0.0015078568831086159,0,1,-1000,0,1,1,-1,1,-1,66832.0
15:46:03.040,AUTO,-35.3632621,149.1652375,8,-0.0005489860195666552,0.0010753922397270799,0.02245846763253212,0.0002643140032887459,0.00020622642477974296,0.0014009610749781132,0,1,-1000,1,0,0,0,0,-1,66832.0
15:46:03.241,AUTO,-35.3632621,149.1652375,8,-0.000509105680976063,0.001128773670643568,0.022392814978957176,0.00022079783957451582,0.0003115741419605911,0.0014683003537356853,0,1,-1000,0,0,1,0,0,-1,66832.0
15:46:03.443,AUTO,-35.3632621,149.1652375,9,-0.000460139533970505,0.0011888568988069892,0.022303983569145203,0.0002939680707640946,0.00037750747287645936,0.0015168150421231985,0,2,-1000,0,0,0,0,0,-1,66832.0
15:46:03.646,AUTO,-35.3632621,149.1652375,9,-0.00040637110942043364,0.0012602347414940596,0.02222352847456932,0.00017238000873476267,0.0004076306940987706,0.0016408348456025124,0,1,-1000,0,0,1,0,0,0,88487.0
15:46:03.847,AUTO,-35.3632621,149.1652375,9,-0.00040637110942043364,0.0012602347414940596,0.02222352847456932,0.00017238000873476267,0.0004076306940987706,0.0016408348456025124,0,1,-1000,0,0,1,0,0,0,88487.0
15:46:04.049,AUTO,-35.3632621,149.1652375,9,-0.00035479015787132084,0.0013285614550113678,0.022161684930324554,0.00024518155260011554,0.00034597038757056,0.0014451047172769904,0,2,-1000,1,0,1,0,0,0,88487.0
15:46:04.251,AUTO,-35.3632621,149.1652375,9,-0.0002971581125166267,0.0013961992226541042,0.02207067236304283,0.0003746378351934254,0.0002850442542694509,0.0014193501556292176,0,1,-1000,0,0,0,0,0,0,88487.0
15:46:04.453,AUTO,-35.3632621,149.1652375,9,-0.0002971581125166267,0.0013961992226541042,0.02207067236304283,0.0003746378351934254,0.0002850442542694509,0.0014193501556292176,0,1,-1000,0,0,0,0,0,0,88487.0
15:46:04.654,AUTO,-35.3632621,149.1652375,9,-0.0002971581125166267,0.0013961992226541042,0.02207067236304283,0.0003746378351934254,0.0002850442542694509,0.0014193501556292176,0,1,-1000,0,0,0,0,0,0,88487.0
15:46:04.856,AUTO,-35.3632621,149.1652375,9,-0.0002971581125166267,0.0013961992226541042,0.02207067236304283,0.0003746378351934254,0.0002850442542694509,0.0014193501556292176,0,1,-1000,0,0,0,0,0,0,88487.0
15:46:05.057,AUTO,-35.3632621,149.1652375,10,0.00029852698207832873,0.0016143544344231486,0.021795330569148064,0.0004100479418411851,0.00028816855046898127,0.001387743279337883,0,1,-1000,1,1,0,0,0,-1,88487.0
15:46:05.259,AUTO,-35.3632621,149.1652375,9,0.0003698156215250492,0.0016899845795705914,0.02167912758886814,0.000380338286049664,0.00026251061353832483,0.0014456331264227629,0,1,-1000,1,0,0,0,0,0,88487.0
15:46:05.461,AUTO,-35.3632621,149.1652375,11,0.0012256340123713017,0.0009405601886101067,0.021609490737318993,0.00883692130446434,-0.008483869954943657,0.0016421310137957335,0,0,-1095,9,-7,1,0,0,-6,88487.0
15:46:05.663,AUTO,-35.3632621,149.1652375,70,0.003348848782479763,-0.000635108444839716,0.021614626049995422,0.009452947415411472,-0.000791521742939949,0.0011159532004967332,0,0,-1141,10,0,0,0,0,-40,88487.0
15:46:05.865,AUTO,-35.3632621,149.1652375,70,0.003348848782479763,-0.000635108444839716,0.021614626049995422,0.009452947415411472,-0.000791521742939949,0.0011159532004967332,0,0,-1141,10,0,0,0,0,-40,88487.0
15:46:06.067,AUTO,-35.3632621,149.1652375,211,0.0027010354679077864,0.000168798171216622,0.02168237790465355,-0.009055324830114841,0.004127619322389364,0.00288782618008554,0,0,-1129,-8,4,2,0,0,-74,88487.0
15:46:06.269,AUTO,-35.3632621,149.1652375,432,0.0020506575237959623,0.0011170965153723955,0.02164844237267971,-0.0022357641719281673,0.0023320699110627174,0.0014541744021698833,0,0,-1109,-1,3,1,0,0,-102,88487.0
15:46:06.470,AUTO,-35.3632621,149.1652375,432,0.0020506575237959623,0.0011170965153723955,0.02164844237267971,-0.0022357641719281673,0.0023320699110627174,0.0014541744021698833,0,0,-1109,-1,3,1,0,0,-102,88487.0
15:46:06.672,AUTO,-35.3632621,149.1652375,432,0.0020506575237959623,0.0011170965153723955,0.02164844237267971,-0.0022357641719281673,0.0023320699110627174,0.0014541744021698833,0,0,-1109,-1,3,1,0,0,-102,88487.0
15:46:06.874,AUTO,-35.3632621,149.1652375,432,0.0020506575237959623,0.0011170965153723955,0.02164844237267971,-0.0022357641719281673,0.0023320699110627174,0.0014541744021698833,0,0,-1109,-1,3,1,0,0,-102,88487.0
15:46:07.076,AUTO,-35.363262,149.1652375,1420,0.023613128811120987,-0.0009745879215188324,0.02113286592066288,0.046970631927251816,-0.007096812594681978,0.0021862357389181852,0,0,-1016,47,-6,2,0,5,-146,88487.0
15:46:07.278,AUTO,-35.363262,149.1652377,1796,0.03505326434969902,-0.0028728910256177187,0.021228913217782974,0.04511832073330879,-0.008074807934463024,0.002673656912520528,0,-1,-1007,45,-7,2,1,12,-148,88487.0
15:46:07.479,AUTO,-35.3632619,149.1652381,2177,0.04592977091670036,-0.005080795846879482,0.02138245850801468,0.042521439492702484,-0.009414849802851677,0.003128836862742901,0,-2,-1002,43,-8,3,3,20,-149,103537.0
15:46:07.681,AUTO,-35.3632618,149.1652387,2562,0.05605668947100639,-0.0077140843495726585,0.021558715030550957,0.03905439004302025,-0.01125760655850172,0.0036568131763488054,0,-4,-1000,39,-10,3,5,31,-149,103537.0
15:46:07.883,AUTO,-35.3632618,149.1652387,2562,0.05605668947100639,-0.0077140843495726585,0.021558715030550957,0.03905439004302025,-0.01125760655850172,0.0036568131763488054,0,-4,-1000,39,-10,3,5,31,-149,103537.0
15:46:08.084,AUTO,-35.3632616,149.1652397,2946,0.06290919333696365,-0.008858432993292809,-0.009514661505818367,-0.014330128207802773,0.02371308021247387,-0.04359510913491249,0,-7,-992,-13,24,-43,8,44,-148,103537.0
15:46:08.286,AUTO,-35.3632614,149.165241,3324,0.04171603173017502,0.0130114471539855,-0.031681135296821594,-0.1424226313829422,0.09492388367652893,-0.09943296760320663,2,-9,-990,-141,95,-99,9,54,-146,103537.0
15:46:08.493,AUTO,-35.3632614,149.165241,3324,0.04171603173017502,0.0130114471539855,-0.031681135296821594,-0.1424226313829422,0.09492388367652893,-0.09943296760320663,2,-9,-990,-141,95,-99,9,54,-146,103537.0
15:46:08.705,AUTO,-35.3632614,149.165241,3324,0.04171603173017502,0.0130114471539855,-0.031681135296821594,-0.1424226313829422,0.09492388367652893,-0.09943296760320663,2,-9,-990,-141,95,-99,9,54,-146,103537.0
15:46:08.910,AUTO,-35.3632608,149.165245,4458,-0.02151251956820488,-0.01606343314051628,-0.03938271850347519,-0.027579614892601967,-0.047368068248033524,0.004404932726174593,2,-10,-1001,-26,-46,4,9,40,-149,103537.0
15:46:09.115,AUTO,-35.3632608,149.165245,4458,-0.02151251956820488,-0.01606343314051628,-0.03938271850347519,-0.027579614892601967,-0.047368068248033524,0.004404932726174593,2,-10,-1001,-26,-46,4,9,40,-149,103537.0
15:46:09.317,AUTO,-35.3632605,149.165246,4842,-0.03551355376839638,-0.012750305235385895,-0.04783955216407776,-0.07836037129163742,0.05807012692093849,-0.06627441942691803,2,-10,-998,-77,58,-66,14,30,-149,103537.0
15:46:09.519,AUTO,-35.3632601,149.1652466,5229,-0.05857192724943161,0.006211892236024141,-0.07209452241659164,-0.09837323427200317,0.08284813910722733,-0.10342304408550262,0,-6,-1000,-97,83,-103,15,15,-148,103537.0
15:46:09.721,AUTO,-35.3632598,149.1652468,5610,-0.08604712039232254,0.02195677161216736,-0.10048384219408035,-0.08887949585914612,0.05599790811538696,-0.0945134237408638,0,-3,-1003,-87,56,-95,9,-3,-148,103537.0
15:46:09.923,AUTO,-35.3632597,149.1652463,5992,-0.08512680977582932,0.02481113374233246,-0.11932828277349472,0.04362303018569946,0.0032295435667037964,-0.06178947910666466,-2,1,-1005,44,3,-62,1,-25,-149,103537.0
15:46:10.127,AUTO,-35.3632597,149.1652463,5992,-0.08512680977582932,0.02481113374233246,-0.11932828277349472,0.04362303018569946,0.0032295435667037964,-0.06178947910666466,-2,1,-1005,44,3,-62,1,-25,-149,103537.0
15:46:10.329,AUTO,-35.3632597,149.1652455,6375,-0.0725608840584755,0.024431705474853516,-0.13250231742858887,0.05606507509946823,0.0033670931588858366,-0.04413687065243721,-3,6,-1001,56,4,-44,-7,-43,-148,103537.0
15:46:10.531,AUTO,-35.3632597,149.1652455,6375,-0.0725608840584755,0.024431705474853516,-0.13250231742858887,0.05606507509946823,0.0033670931588858366,-0.04413687065243721,-3,6,-1001,56,4,-44,-7,-43,-148,103537.0
15:46:10.733,AUTO,-35.3632597,149.1652455,6375,-0.0725608840584755,0.024431705474853516,-0.13250231742858887,0.05606507509946823,0.0033670931588858366,-0.04413687065243721,-3,6,-1001,56,4,-44,-7,-43,-148,103537.0
15:46:10.935,AUTO,-35.363261,149.1652407,7513,-0.02441168949007988,0.027889596298336983,-0.15193802118301392,0.07241129875183105,0.006498442497104406,-0.013352364301681519,-3,19,-1003,73,7,-13,-32,-68,-149,103537.0
15:46:11.136,AUTO,-35.3632618,149.1652388,7896,-0.006085700821131468,0.029166020452976227,-0.1539323329925537,0.07508379220962524,0.003930116072297096,-0.007601937744766474,-3,19,-1004,75,4,-7,-39,-67,-149,103537.0
15:46:11.339,AUTO,-35.3632618,149.1652388,7896,-0.006085700821131468,0.029166020452976227,-0.1539323329925537,0.07508379220962524,0.003930116072297096,-0.007601937744766474,-3,19,-1004,75,4,-7,-39,-67,-149,103537.0
15:46:11.541,AUTO,-35.3632627,149.1652369,8280,0.012618500739336014,0.02969180792570114,-0.15437646210193634,0.07612636685371399,-7.002666825428605e-05,-0.003993067890405655,-3,17,-1005,76,0,-4,-46,-62,-150,288226.0
15:46:11.742,AUTO,-35.3632638,149.1652353,8667,0.03172384202480316,0.02900788001716137,-0.15387167036533356,0.07666653394699097,-0.005997315049171448,0.0008477599476464093,0,19,-1005,77,-5,0,-52,-52,-151,288226.0
15:46:11.944,AUTO,-35.3632651,149.165234,9057,0.03802807256579399,0.016357170417904854,-0.1420341283082962,-0.023741500452160835,-0.09833455085754395,0.085513174533844,2,15,-997,-23,-97,85,-55,-39,-151,288226.0
15:46:12.146,AUTO,-35.3632663,149.165233,9444,0.029483474791049957,-0.015895487740635872,-0.11457628756761551,-0.017603306099772453,-0.12405569851398468,0.11424176394939423,5,14,-1004,-17,-123,113,-52,-28,-151,288226.0
15:46:12.348,AUTO,-35.3632663,149.165233,9444,0.029483474791049957,-0.015895487740635872,-0.11457628756761551,-0.017603306099772453,-0.12405569851398468,0.11424176394939423,5,14,-1004,-17,-123,113,-52,-28,-151,288226.0
15:46:12.551,AUTO,-35.3632663,149.165233,9444,0.029483474791049957,-0.015895487740635872,-0.11457628756761551,-0.017603306099772453,-0.12405569851398468,0.11424176394939423,5,14,-1004,-17,-123,113,-52,-28,-151,288226.0
15:46:12.753,AUTO,-35.3632663,149.165233,9444,0.029483474791049957,-0.015895487740635872,-0.11457628756761551,-0.017603306099772453,-0.12405569851398468,0.11424176394939423,5,14,-1004,-17,-123,113,-52,-28,-151,288226.0
15:46:12.955,AUTO,-35.3632686,149.1652315,10620,0.05621485784649849,-0.06019843742251396,-0.054499465972185135,0.05115349963307381,-0.02451971545815468,0.05744294822216034,2,3,-1001,51,-23,57,-12,1,-153,288226.0
15:46:13.157,AUTO,-35.3632687,149.1652316,11011,0.0639311894774437,-0.06879375874996185,-0.03969988599419594,0.018389098346233368,-0.041491515934467316,0.06693700700998306,1,0,-997,18,-40,66,4,15,-152,288226.0
15:46:13.358,AUTO,-35.3632687,149.1652316,11011,0.0639311894774437,-0.06879375874996185,-0.03969988599419594,0.018389098346233368,-0.041491515934467316,0.06693700700998306,1,0,-997,18,-40,66,4,15,-152,288226.0
15:46:13.560,AUTO,-35.3632685,149.1652321,11398,0.06676032394170761,-0.08008354902267456,-0.025038015097379684,0.020435607060790062,-0.03360737860202789,0.059136245399713516,0,-5,-997,21,-32,59,24,28,-150,288226.0
15:46:13.762,AUTO,-35.3632678,149.1652331,11780,0.07223676145076752,-0.08584776520729065,-0.01421433500945568,0.028620928525924683,-0.008737834170460701,0.045422475785017014,-2,-10,-996,29,-8,45,44,42,-148,288226.0
15:46:13.964,AUTO,-35.3632665,149.1652344,12156,0.06701576709747314,-0.08397570252418518,-0.010490290820598602,-0.11473625898361206,0.05713445320725441,-0.03127361834049225,-6,-15,-982,-114,58,-31,65,55,-144,288226.0
15:46:14.165,AUTO,-35.3632649,149.1652359,12521,0.02448394149541855,-0.051554251462221146,-0.03392384946346283,-0.15884576737880707,0.154256209731102,-0.11599768698215485,-8,-19,-1004,-158,154,-116,81,60,-141,288226.0
15:46:14.367,AUTO,-35.3632649,149.1652359,12521,0.02448394149541855,-0.051554251462221146,-0.03392384946346283,-0.15884576737880707,0.154256209731102,-0.11599768698215485,-8,-19,-1004,-158,154,-116,81,60,-141,288226.0
15:46:14.569,AUTO,-35.3632649,149.1652359,12521,0.02448394149541855,-0.051554251462221146,-0.03392384946346283,-0.15884576737880707,0.154256209731102,-0.11599768698215485,-8,-19,-1004,-158,154,-116,81,60,-141,288226.0
15:46:14.771,AUTO,-35.3632649,149.1652359,12521,0.02448394149541855,-0.051554251462221146,-0.03392384946346283,-0.15884576737880707,0.154256209731102,-0.11599768698215485,-8,-19,-1004,-158,154,-116,81,60,-141,288226.0
15:46:14.973,AUTO,-35.3632592,149.16524,13651,-0.019770963117480278,0.023714615032076836,-0.13152921199798584,-0.00986941996961832,0.05618681758642197,-0.10513311624526978,-9,-20,-1012,-9,56,-105,78,38,-152,288226.0
15:46:15.174,AUTO,-35.3632575,149.1652409,14043,-0.019043516367673874,0.03307054936885834,-0.15511399507522583,0.012807004153728485,0.029825745150446892,-0.07865020632743835,-9,-17,-1007,13,30,-78,68,29,-154,190895.0
15:46:15.376,AUTO,-35.3632575,149.1652409,14043,-0.019043516367673874,0.03307054936885834,-0.15511399507522583,0.012807004153728485,0.029825745150446892,-0.07865020632743835,-9,-17,-1007,13,30,-78,68,29,-154,190895.0
15:46:15.578,AUTO,-35.363256,149.1652415,14439,-0.05015863850712776,0.03580855205655098,-0.16967758536338806,-0.21088723838329315,-0.0036989711225032806,-0.053688324987888336,-8,-13,-998,-210,-3,-54,56,19,-151,190895.0
15:46:15.779,AUTO,-35.3632548,149.1652418,14826,-0.07761120051145554,0.04187363386154175,-0.18625976145267487,-0.038063522428274155,0.05239100381731987,-0.07351028174161911,-9,-9,-1010,-37,53,-73,42,1,-152,190895.0
15:46:15.981,AUTO,-35.363254,149.1652416,15217,-0.07785936444997787,0.05237529054284096,-0.20343375205993652,0.024923495948314667,0.03658706694841385,-0.05597560852766037,-8,-4,-1006,25,37,-56,26,-17,-153,190895.0
15:46:16.183,AUTO,-35.3632536,149.165241,15607,-0.06865762919187546,0.057207271456718445,-0.21479745209217072,0.0463237538933754,0.017486264929175377,-0.03905044496059418,-7,0,-1001,46,18,-39,7,-32,-152,190895.0
15:46:16.389,AUTO,-35.3632536,149.165241,15607,-0.06865762919187546,0.057207271456718445,-0.21479745209217072,0.0463237538933754,0.017486264929175377,-0.03905044496059418,-7,0,-1001,46,18,-39,7,-32,-152,190895.0
15:46:16.591,AUTO,-35.3632536,149.165241,15607,-0.06865762919187546,0.057207271456718445,-0.21479745209217072,0.0463237538933754,0.017486264929175377,-0.03905044496059418,-7,0,-1001,46,18,-39,7,-32,-152,190895.0
15:46:16.794,AUTO,-35.3632536,149.165241,15607,-0.06865762919187546,0.057207271456718445,-0.21479745209217072,0.0463237538933754,0.017486264929175377,-0.03905044496059418,-7,0,-1001,46,18,-39,7,-32,-152,190895.0
15:46:16.996,AUTO,-35.3632545,149.1652371,16763,-0.025913598015904427,0.06375230103731155,-0.22983835637569427,0.068116694688797,0.0035185811575502157,-0.011920164339244366,-2,13,-1000,68,3,-12,-44,-53,-150,190895.0
15:46:17.197,AUTO,-35.3632556,149.1652356,17146,-0.00839099008589983,0.06360135972499847,-0.23091526329517365,0.07364752888679504,-0.0027047405019402504,-0.007260966580361128,0,15,-1002,74,-1,-7,-59,-51,-150,190895.0
15:46:17.399,AUTO,-35.363257,149.1652342,17529,0.010076564736664295,0.06137623265385628,-0.23033641278743744,0.07556810230016708,-0.012209140695631504,-0.0017051345203071833,3,17,-1003,76,-11,-2,-71,-44,-150,190895.0
15:46:17.601,AUTO,-35.363257,149.1652342,17529,0.010076564736664295,0.06137623265385628,-0.23033641278743744,0.07556810230016708,-0.012209140695631504,-0.0017051345203071833,3,17,-1003,76,-11,-2,-71,-44,-150,190895.0
15:46:17.803,AUTO,-35.3632587,149.1652331,17914,0.029163489118218422,0.057087890803813934,-0.2290971577167511,0.07723288238048553,-0.02047804743051529,0.0015687672421336174,4,19,-1004,78,-19,1,-82,-32,-150,190895.0
15:46:18.005,AUTO,-35.3632606,149.1652323,18299,0.04831477627158165,0.0501200370490551,-0.22703218460083008,0.07632408291101456,-0.033144015818834305,0.006645636633038521,7,19,-1004,77,-32,6,-89,-17,-151,190895.0
15:46:18.207,AUTO,-35.3632626,149.1652321,18685,0.06701131910085678,0.0403471365571022,-0.22469083964824677,0.07381529361009598,-0.0429028645157814,0.008825871162116528,13,16,-1004,74,-42,8,-93,1,-151,190895.0
15:46:18.409,AUTO,-35.3632626,149.1652321,18685,0.06701131910085678,0.0403471365571022,-0.22469083964824677,0.07381529361009598,-0.0429028645157814,0.008825871162116528,13,16,-1004,74,-42,8,-93,1,-151,190895.0
15:46:18.611,AUTO,-35.3632626,149.1652321,18685,0.06701131910085678,0.0403471365571022,-0.22469083964824677,0.07381529361009598,-0.0429028645157814,0.008825871162116528,13,16,-1004,74,-42,8,-93,1,-151,190895.0
15:46:18.813,AUTO,-35.3632626,149.1652321,18685,0.06701131910085678,0.0403471365571022,-0.22469083964824677,0.07381529361009598,-0.0429028645157814,0.008825871162116528,13,16,-1004,74,-42,8,-93,1,-151,190895.0
15:46:19.015,AUTO,-35.3632684,149.1652346,19841,0.08529743552207947,-0.03385613113641739,-0.19191767275333405,-0.04703536629676819,-0.1745290756225586,0.12389255315065384,24,5,-1005,-46,-173,123,-71,67,-149,190895.0
15:46:19.217,AUTO,-35.3632697,149.1652365,20223,0.07063160836696625,-0.08125098049640656,-0.16014644503593445,-0.05033900961279869,-0.1757049709558487,0.15074199438095093,21,-4,-1010,-49,-174,150,-48,81,-150,77935.0
15:46:19.420,AUTO,-35.3632705,149.1652388,20607,0.05075728893280029,-0.12816570699214935,-0.11956224590539932,-0.0834227204322815,-0.18706245720386505,0.19477097690105438,20,-8,-1007,-82,-186,194,-15,89,-150,77935.0
15:46:19.622,AUTO,-35.3632705,149.1652388,20607,0.05075728893280029,-0.12816570699214935,-0.11956224590539932,-0.0834227204322815,-0.18706245720386505,0.19477097690105438,20,-8,-1007,-82,-186,194,-15,89,-150,77935.0
15:46:19.824,AUTO,-35.3632704,149.1652412,20986,0.01260115671902895,-0.16038170456886292,-0.08656731992959976,-0.17484158277511597,-0.021288253366947174,0.05653667077422142,10,-16,-999,-173,-20,56,24,89,-147,77935.0
15:46:20.027,AUTO,-35.3632694,149.1652434,21364,-0.03472394496202469,-0.13885414600372314,-0.09618820995092392,-0.18663355708122253,0.1469871550798416,-0.09633489698171616,4,-24,-1004,-185,147,-96,63,76,-144,77935.0
15:46:20.229,AUTO,-35.3632678,149.1652451,21730,-0.07418553531169891,-0.10080006718635559,-0.13735567033290863,-0.16423362493515015,0.1615179479122162,-0.1825578808784485,-7,-22,-1012,-163,162,-182,90,52,-143,77935.0
15:46:20.431,AUTO,-35.3632678,149.1652451,21730,-0.07418553531169891,-0.10080006718635559,-0.13735567033290863,-0.16423362493515015,0.1615179479122162,-0.1825578808784485,-7,-22,-1012,-163,162,-182,90,52,-143,77935.0
15:46:20.633,AUTO,-35.3632678,149.1652451,21730,-0.07418553531169891,-0.10080006718635559,-0.13735567033290863,-0.16423362493515015,0.1615179479122162,-0.1825578808784485,-7,-22,-1012,-163,162,-182,90,52,-143,77935.0
15:46:20.835,AUTO,-35.3632678,149.1652451,21730,-0.07418553531169891,-0.10080006718635559,-0.13735567033290863,-0.16423362493515015,0.1615179479122162,-0.1825578808784485,-7,-22,-1012,-163,162,-182,90,52,-143,77935.0
15:46:21.037,AUTO,-35.363261,149.1652452,22836,-0.12617722153663635,-0.015625672414898872,-0.2922248840332031,0.01726941391825676,0.07341752201318741,-0.13492274284362793,-23,-13,-1012,18,73,-134,96,-49,-148,77935.0
15:46:21.238,AUTO,-35.363259,149.1652435,23211,-0.11885381489992142,-0.0031374588143080473,-0.32329076528549194,0.034045953303575516,0.06434233486652374,-0.10219330340623856,-25,-6,-1005,34,64,-102,84,-79,-147,77935.0
15:46:21.440,AUTO,-35.3632572,149.1652409,23585,-0.10915616154670715,0.011229034513235092,-0.34717532992362976,0.044206369668245316,0.07195638120174408,-0.07635317742824554,-26,0,-1004,44,73,-76,67,-104,-147,77935.0
15:46:21.642,AUTO,-35.3632559,149.1652377,23958,-0.0972122773528099,0.02831430546939373,-0.3650861382484436,0.054456017911434174,0.07844223082065582,-0.05627274885773659,-31,4,-1005,55,79,-56,48,-124,-146,77935.0
15:46:21.844,AUTO,-35.3632559,149.1652377,23958,-0.0972122773528099,0.02831430546939373,-0.3650861382484436,0.054456017911434174,0.07844223082065582,-0.05627274885773659,-31,4,-1005,55,79,-56,48,-124,-146,77935.0
15:46:22.046,AUTO,-35.363255,149.1652341,24331,-0.0830768272280693,0.0467546284198761,-0.37832558155059814,0.0643819272518158,0.08098994195461273,-0.04169764742255211,-30,5,-1007,65,81,-41,26,-137,-146,77935.0
15:46:22.248,AUTO,-35.3632546,149.1652302,24705,-0.06679245084524155,0.06565789133310318,-0.38812071084976196,0.07167371362447739,0.07889685034751892,-0.02940489538013935,-28,14,-1008,72,79,-29,2,-144,-147,77935.0
15:46:22.450,AUTO,-35.3632546,149.1652302,24705,-0.06679245084524155,0.06565789133310318,-0.38812071084976196,0.07167371362447739,0.07889685034751892,-0.02940489538013935,-28,14,-1008,72,79,-29,2,-144,-147,77935.0
15:46:22.651,AUTO,-35.3632546,149.1652302,24705,-0.06679245084524155,0.06565789133310318,-0.38812071084976196,0.07167371362447739,0.07889685034751892,-0.02940489538013935,-28,14,-1008,72,79,-29,2,-144,-147,77935.0
15:46:22.853,AUTO,-35.3632546,149.1652302,24705,-0.06679245084524155,0.06565789133310318,-0.38812071084976196,0.07167371362447739,0.07889685034751892,-0.02940489538013935,-28,14,-1008,72,79,-29,2,-144,-147,77935.0
15:46:23.057,AUTO,-35.3632569,149.1652186,25840,-0.004969984292984009,0.11345496773719788,-0.40136656165122986,0.09130999445915222,0.04674258083105087,-0.004839857574552298,-13,27,-1008,92,47,-5,-78,-123,-149,77935.0
15:46:23.261,AUTO,-35.3632589,149.1652154,26220,0.01880999654531479,0.12239085882902145,-0.4016273021697998,0.09778657555580139,0.027459895238280296,1.4426972484216094e-05,-15,36,-1008,98,28,0,-104,-102,-149,15449.0
15:46:23.463,AUTO,-35.3632615,149.1652129,26600,0.04346246272325516,0.12630398571491241,-0.4007914960384369,0.10000491142272949,0.009017244912683964,0.003459670813754201,-1,30,-1005,100,9,3,-126,-75,-148,15449.0
15:46:23.665,AUTO,-35.3632645,149.1652112,26976,0.06865183264017105,0.12462512403726578,-0.3990926444530487,0.09985852986574173,-0.017009172588586807,0.009101659059524536,11,32,-1005,101,-16,8,-145,-44,-147,15449.0
15:46:23.867,AUTO,-35.3632645,149.1652112,26976,0.06865183264017105,0.12462512403726578,-0.3990926444530487,0.09985852986574173,-0.017009172588586807,0.009101659059524536,11,32,-1005,101,-16,8,-145,-44,-147,15449.0
15:46:24.069,AUTO,-35.3632678,149.1652104,27350,0.09357593208551407,0.11696421355009079,-0.39676398038864136,0.09783172607421875,-0.04069235175848007,0.012881550937891006,10,31,-1004,98,-39,12,-159,-8,-145,15449.0
15:46:24.271,AUTO,-35.3632714,149.1652105,27717,0.11768504977226257,0.10276173055171967,-0.3947029411792755,0.09467190504074097,-0.06713271141052246,0.016333309933543205,20,28,-1003,95,-66,16,-166,29,-143,15449.0
15:46:24.473,AUTO,-35.3632714,149.1652105,27717,0.11768504977226257,0.10276173055171967,-0.3947029411792755,0.09467190504074097,-0.06713271141052246,0.016333309933543205,20,28,-1003,95,-66,16,-166,29,-143,15449.0
15:46:24.675,AUTO,-35.3632714,149.1652105,27717,0.11768504977226257,0.10276173055171967,-0.3947029411792755,0.09467190504074097,-0.06713271141052246,0.016333309933543205,20,28,-1003,95,-66,16,-166,29,-143,15449.0
15:46:24.877,AUTO,-35.3632714,149.1652105,27717,0.11768504977226257,0.10276173055171967,-0.3947029411792755,0.09467190504074097,-0.06713271141052246,0.016333309933543205,20,28,-1003,95,-66,16,-166,29,-143,15449.0
15:46:25.078,AUTO,-35.3632817,149.1652176,28792,0.15878796577453613,0.0023963141720741987,-0.3722279369831085,0.04366392269730568,-0.15015369653701782,0.06383366137742996,37,5,-1013,44,-149,63,-133,144,-139,15449.0
15:46:25.280,AUTO,-35.3632843,149.1652219,29147,0.1687285453081131,-0.0372900515794754,-0.3628752827644348,0.020378828048706055,-0.16062404215335846,0.07853781431913376,47,0,-1009,21,-159,78,-102,176,-138,15449.0
15:46:25.482,AUTO,-35.3632862,149.1652271,29497,0.1575288623571396,-0.09143150597810745,-0.342498779296875,-0.08927933871746063,-0.22004665434360504,0.15204469859600067,49,-5,-1012,-88,-219,151,-63,203,-136,15449.0
15:46:25.684,AUTO,-35.363287,149.1652329,29844,0.12396666407585144,-0.157129168510437,-0.30272266268730164,-0.12842392921447754,-0.24832339584827423,0.23320166766643524,47,-19,-1021,-127,-247,233,-13,217,-135,15449.0
15:46:25.886,AUTO,-35.363287,149.1652329,29844,0.12396666407585144,-0.157129168510437,-0.30272266268730164,-0.12842392921447754,-0.24832339584827423,0.23320166766643524,47,-19,-1021,-127,-247,233,-13,217,-135,15449.0
15:46:26.088,AUTO,-35.3632866,149.1652389,30196,0.07687952369451523,-0.2247343808412552,-0.24255599081516266,-0.14140164852142334,-0.22673211991786957,0.2782804071903229,36,-43,-1023,-140,-225,278,48,216,-134,15449.0
15:46:26.290,AUTO,-35.3632849,149.1652446,30531,0.022881971672177315,-0.25836271047592163,-0.20104989409446716,-0.2028830200433731,-0.0004081267979927361,0.07550065219402313,18,-47,-1010,-201,0,75,113,202,-128,15449.0
15:46:26.505,AUTO,-35.3632849,149.1652446,30531,0.022881971672177315,-0.25836271047592163,-0.20104989409446716,-0.2028830200433731,-0.0004081267979927361,0.07550065219402313,18,-47,-1010,-201,0,75,113,202,-128,15449.0
15:46:26.707,AUTO,-35.3632849,149.1652446,30531,0.022881971672177315,-0.25836271047592163,-0.20104989409446716,-0.2028830200433731,-0.0004081267979927361,0.07550065219402313,18,-47,-1010,-201,0,75,113,202,-128,15449.0
15:46:26.909,AUTO,-35.3632722,149.1652571,31483,-0.11768638342618942,-0.15747712552547455,-0.31809860467910767,-0.14612546563148499,0.19831223785877228,-0.20222340524196625,-21,-61,-1039,-145,199,-202,246,84,-127,15449.0
15:46:27.110,AUTO,-35.3632722,149.1652571,31483,-0.11768638342618942,-0.15747712552547455,-0.31809860467910767,-0.14612546563148499,0.19831223785877228,-0.20222340524196625,-21,-61,-1039,-145,199,-202,246,84,-127,18749.0
15:46:27.312,AUTO,-35.3632666,149.1652586,31810,-0.13360044360160828,-0.1055273711681366,-0.3620811402797699,-0.04117515683174133,0.23932312428951263,-0.10208269953727722,-28,-58,-1041,-40,240,-102,255,31,-131,18749.0
15:46:27.514,AUTO,-35.363261,149.1652588,32151,-0.1325453519821167,-0.049128856509923935,-0.38698330521583557,0.026485353708267212,0.22288528084754944,-0.03798149153590202,-32,-48,-1049,27,223,-38,248,-17,-138,18749.0
15:46:27.717,AUTO,-35.3632556,149.1652579,32511,-0.12260233610868454,0.004504424054175615,-0.39783257246017456,0.022599220275878906,0.2324700951576233,0.0024262689985334873,-41,-35,-1034,23,233,2,228,-55,-145,18749.0
15:46:27.919,AUTO,-35.3632509,149.1652559,32884,-0.13471285998821259,0.09245621412992477,-0.39346766471862793,-0.14541122317314148,0.4754580855369568,0.2111128270626068,-40,-30,-996,-144,476,211,192,-84,-146,18749.0
15:46:28.121,AUTO,-35.3632509,149.1652559,32884,-0.13471285998821259,0.09245621412992477,-0.39346766471862793,-0.14541122317314148,0.4754580855369568,0.2111128270626068,-40,-30,-996,-144,476,211,192,-84,-146,18749.0
15:46:28.323,AUTO,-35.3632472,149.1652533,33244,-0.17153401672840118,0.2710433006286621,-0.30011168122291565,-0.24492983520030975,0.7733091115951538,0.6933924555778503,-45,-18,-1011,-244,774,693,127,-107,-137,18749.0
15:46:28.525,AUTO,-35.3632472,149.1652533,33244,-0.17153401672840118,0.2710433006286621,-0.30011168122291565,-0.24492983520030975,0.7733091115951538,0.6933924555778503,-45,-18,-1011,-244,774,693,127,-107,-137,18749.0
15:46:28.727,AUTO,-35.3632472,149.1652533,33244,-0.17153401672840118,0.2710433006286621,-0.30011168122291565,-0.24492983520030975,0.7733091115951538,0.6933924555778503,-45,-18,-1011,-244,774,693,127,-107,-137,18749.0
15:46:28.929,AUTO,-35.3632482,149.1652435,33975,0.02530541829764843,0.18862877786159515,-0.034748997539281845,0.1627766191959381,-0.5971600413322449,-0.023707190528512,8,37,-946,164,-596,-23,-129,-115,-54,18749.0
15:46:29.131,AUTO,-35.3632482,149.1652435,33975,0.02530541829764843,0.18862877786159515,-0.034748997539281845,0.1627766191959381,-0.5971600413322449,-0.023707190528512,8,37,-946,164,-596,-23,-129,-115,-54,18749.0
15:46:29.333,AUTO,-35.3632512,149.1652406,34101,0.05293650925159454,0.06624744087457657,-0.054739173501729965,0.12865933775901794,-0.4083252251148224,-0.07481133937835693,16,35,-960,129,-407,-74,-152,-95,-41,18749.0
15:46:29.535,AUTO,-35.3632546,149.1652384,34196,0.06146705895662308,-0.012595601379871368,-0.0798737183213234,-0.16689574718475342,-0.25414857268333435,-0.07928643375635147,17,29,-965,-165,-253,-79,-151,-72,-32,18749.0
15:46:29.737,AUTO,-35.3632579,149.1652369,34265,0.06852065771818161,-0.06090778112411499,-0.10024117678403854,0.44288262724876404,-0.14585638046264648,-0.05507858842611313,20,61,-947,444,-145,-55,-135,-48,-21,18749.0
15:46:29.939,AUTO,-35.3632607,149.1652359,34294,0.07087083905935287,-0.08695335686206818,-0.11350422352552414,0.7584298253059387,-0.07402919977903366,-0.031290046870708466,14,61,-998,760,-73,-31,-111,-28,-6,18749.0
15:46:30.140,AUTO,-35.3632607,149.1652359,34294,0.07087083905935287,-0.08695335686206818,-0.11350422352552414,0.7584298253059387,-0.07402919977903366,-0.031290046870708466,14,61,-998,760,-73,-31,-111,-28,-6,18749.0
15:46:30.343,AUTO,-35.363263,149.1652355,34301,0.07109633088111877,-0.09479872137308121,-0.11991969496011734,0.8320013284683228,0.0013386225327849388,-0.00795749481767416,14,23,-963,832,2,-7,-84,-13,1,18749.0
15:46:30.545,AUTO,-35.363263,149.1652355,34301,0.07109633088111877,-0.09479872137308121,-0.11991969496011734,0.8320013284683228,0.0013386225327849388,-0.00795749481767416,14,23,-963,832,2,-7,-84,-13,1,18749.0
15:46:30.747,AUTO,-35.363263,149.1652355,34301,0.07109633088111877,-0.09479872137308121,-0.11991969496011734,0.8320013284683228,0.0013386225327849388,-0.00795749481767416,14,23,-963,832,2,-7,-84,-13,1,18749.0
15:46:30.948,AUTO,-35.3632663,149.1652358,34191,0.050237637013196945,-0.14821076393127441,-0.1280282437801361,-0.643738329410553,0.05309278517961502,-0.05636405199766159,0,-50,-992,-643,53,-55,1,15,25,18749.0
15:46:31.150,AUTO,-35.363266,149.1652364,34124,0.0283788051456213,-0.10356966406106949,-0.13182300329208374,-0.9630516171455383,0.199913889169693,-0.03399180620908737,-4,-50,-1016,-962,200,-33,33,21,23,78555.0
15:46:31.352,AUTO,-35.363266,149.1652364,34124,0.0283788051456213,-0.10356966406106949,-0.13182300329208374,-0.9630516171455383,0.199913889169693,-0.03399180620908737,-4,-50,-1016,-962,200,-33,33,21,23,78555.0
15:46:31.554,AUTO,-35.3632652,149.165237,34061,0.018674461171030998,-0.06484854221343994,-0.13625331223011017,-0.7280938029289246,0.11789005249738693,-0.013372965157032013,-5,-39,-1060,-726,118,-13,53,24,19,78555.0
15:46:31.755,AUTO,-35.3632639,149.1652376,34018,0.015447125770151615,-0.03798334673047066,-0.1396169364452362,-0.07890534400939941,0.0832076445221901,-0.003155152080580592,-3,-3,-1015,-76,83,-3,64,25,12,78555.0
15:46:31.957,AUTO,-35.3632625,149.1652383,33986,0.022544650360941887,-0.018820375204086304,-0.1429315209388733,0.6865746974945068,0.05916200950741768,-0.009347379207611084,-8,26,-1010,688,59,-9,69,25,8,78555.0
15:46:32.159,AUTO,-35.3632609,149.1652389,33964,0.02576404996216297,-0.008021715097129345,-0.14524957537651062,0.5778689980506897,0.031705278903245926,-0.013183638453483582,-8,0,-1021,578,32,-13,70,24,4,78555.0
15:46:32.361,AUTO,-35.3632609,149.1652389,33964,0.02576404996216297,-0.008021715097129345,-0.14524957537651062,0.5778689980506897,0.031705278903245926,-0.013183638453483582,-8,0,-1021,578,32,-13,70,24,4,78555.0
15:46:32.563,AUTO,-35.3632609,149.1652389,33964,0.02576404996216297,-0.008021715097129345,-0.14524957537651062,0.5778689980506897,0.031705278903245926,-0.013183638453483582,-8,0,-1021,578,32,-13,70,24,4,78555.0
15:46:32.765,AUTO,-35.3632609,149.1652389,33964,0.02576404996216297,-0.008021715097129345,-0.14524957537651062,0.5778689980506897,0.031705278903245926,-0.013183638453483582,-8,0,-1021,578,32,-13,70,24,4,78555.0
15:46:32.967,AUTO,-35.3632563,149.1652408,33930,0.01978960819542408,-0.021952088922262192,-0.1498115062713623,-0.6232448816299438,-0.06979568302631378,0.04593358561396599,-7,-48,-1002,-622,-69,46,71,24,-1,78555.0
15:46:33.168,AUTO,-35.3632546,149.1652415,33927,0.02055194228887558,-0.04421394690871239,-0.07506731152534485,-0.4857169985771179,-0.10830516368150711,0.5742844343185425,-6,-29,-998,-484,-107,574,78,26,0,78555.0
15:46:33.370,AUTO,-35.3632546,149.1652415,33927,0.02055194228887558,-0.04421394690871239,-0.07506731152534485,-0.4857169985771179,-0.10830516368150711,0.5742844343185425,-6,-29,-998,-484,-107,574,78,26,0,78555.0
15:46:33.572,AUTO,-35.3632528,149.1652423,33922,0.024542909115552902,-0.06361271440982819,0.11567707359790802,0.31007087230682373,-0.04581974446773529,0.8359788060188293,-14,12,-1000,312,-45,836,88,30,0,78555.0
15:46:33.773,AUTO,-35.3632507,149.1652433,33917,0.022377751767635345,-0.0801665261387825,0.32937344908714294,0.6622228026390076,-0.030826320871710777,0.830707848072052,-22,8,-1009,663,-29,831,101,33,0,78555.0
15:46:33.975,AUTO,-35.3632483,149.1652443,33912,0.005366472061723471,-0.0929509848356247,0.48410317301750183,-0.06234005466103554,-0.04334743320941925,0.40641462802886963,-26,-33,-990,-62,-42,406,116,37,0,78555.0
15:46:34.177,AUTO,-35.3632456,149.1652456,33905,-0.008529040031135082,-0.10606298595666885,0.5330634117126465,-0.69584721326828,-0.03543775901198387,0.07049677520990372,-30,-43,-1002,-695,-34,70,133,43,1,78555.0
15:46:34.379,AUTO,-35.3632456,149.1652456,33905,-0.008529040031135082,-0.10606298595666885,0.5330634117126465,-0.69584721326828,-0.03543775901198387,0.07049677520990372,-30,-43,-1002,-695,-34,70,133,43,1,78555.0
15:46:34.581,AUTO,-35.3632456,149.1652456,33905,-0.008529040031135082,-0.10606298595666885,0.5330634117126465,-0.69584721326828,-0.03543775901198387,0.07049677520990372,-30,-43,-1002,-695,-34,70,133,43,1,78555.0
15:46:34.783,AUTO,-35.3632456,149.1652456,33905,-0.008529040031135082,-0.10606298595666885,0.5330634117126465,-0.69584721326828,-0.03543775901198387,0.07049677520990372,-30,-43,-1002,-695,-34,70,133,43,1,78555.0
15:46:34.985,AUTO,-35.3632347,149.1652505,33867,0.0033646414522081614,-0.129601389169693,0.47035321593284607,0.5462741255760193,0.0663488507270813,-0.10257323086261749,-44,7,-1007,547,67,-102,197,65,2,78555.0
15:46:35.186,AUTO,-35.36323,149.1652524,33855,0.01770683005452156,-0.10901648551225662,0.4531658887863159,0.3970273435115814,0.0988893210887909,-0.061219289898872375,-46,-24,-1014,397,99,-60,216,69,1,200.0
15:46:35.388,AUTO,-35.36323,149.1652524,33855,0.01770683005452156,-0.10901648551225662,0.4531658887863159,0.3970273435115814,0.0988893210887909,-0.061219289898872375,-46,-24,-1014,397,99,-60,216,69,1,200.0
15:46:35.590,AUTO,-35.3632251,149.1652545,33847,0.01776461862027645,-0.07624230533838272,0.44624513387680054,-0.2552528381347656,0.15909162163734436,-0.012828421778976917,-47,-54,-1007,-255,159,-12,227,72,0,200.0
15:46:35.792,AUTO,-35.3632201,149.1652566,33845,0.01624017022550106,-0.058753177523612976,0.44368717074394226,-0.6252962350845337,-0.03548439219594002,0.0005983634036965668,-49,-42,-991,-624,-34,0,230,72,0,200.0
15:46:35.994,AUTO,-35.3632149,149.1652588,33840,0.017409587278962135,-0.08667830377817154,0.4424382746219635,-0.04083842411637306,-0.14752928912639618,-0.03429672494530678,-58,-11,-984,-39,-146,-34,234,75,1,200.0
15:46:36.196,AUTO,-35.3632096,149.165261,33828,0.028810931369662285,-0.12950007617473602,0.44177189469337463,0.5569255948066711,-0.17123638093471527,-0.018456652760505676,-56,-6,-987,558,-170,-18,247,80,5,200.0
15:46:36.407,AUTO,-35.3632096,149.165261,33828,0.028810931369662285,-0.12950007617473602,0.44177189469337463,0.5569255948066711,-0.17123638093471527,-0.018456652760505676,-56,-6,-987,558,-170,-18,247,80,5,200.0
15:46:36.609,AUTO,-35.3632096,149.165261,33828,0.028810931369662285,-0.12950007617473602,0.44177189469337463,0.5569255948066711,-0.17123638093471527,-0.018456652760505676,-56,-6,-987,558,-170,-18,247,80,5,200.0
15:46:36.811,AUTO,-35.3632096,149.165261,33828,0.028810931369662285,-0.12950007617473602,0.44177189469337463,0.5569255948066711,-0.17123638093471527,-0.018456652760505676,-56,-6,-987,558,-170,-18,247,80,5,200.0
15:46:37.013,AUTO,-35.3631905,149.165269,33754,0.022282755002379417,-0.1378750503063202,0.4380541145801544,-0.2232777178287506,0.23287563025951385,0.004732274450361729,-70,-38,-1026,-221,233,4,321,107,6,200.0
15:46:37.281,AUTO,-35.3631832,149.1652722,33747,0.04047152400016785,-0.07533464580774307,0.43633583188056946,0.49798035621643066,0.24092108011245728,-0.02279149740934372,-74,-16,-1018,499,241,-22,330,111,-1,200.0
15:46:37.483,AUTO,-35.3631759,149.1652753,33752,0.05244762450456619,-0.02906365878880024,0.43642669916152954,0.3919564485549927,0.03753168135881424,0.01966342329978943,-68,-35,-1004,392,38,20,325,109,-4,200.0
15:46:37.684,AUTO,-35.3631687,149.1652785,33757,0.03678017854690552,-0.06907942146062851,0.4348102807998657,-0.48589026927948,-0.26587072014808655,0.055508438497781754,-72,-70,-957,-485,-265,55,319,107,1,200.0
15:46:37.886,AUTO,-35.3631687,149.1652785,33757,0.03678017854690552,-0.06907942146062851,0.4348102807998657,-0.48589026927948,-0.26587072014808655,0.055508438497781754,-72,-70,-957,-485,-265,55,319,107,1,200.0
15:46:38.088,AUTO,-35.3631615,149.1652817,33741,0.027523992583155632,-0.1395423412322998,0.43145498633384705,-0.5117527842521667,-0.28574976325035095,0.009752089157700539,-61,-52,-979,-510,-285,10,327,112,9,200.0
15:46:38.290,AUTO,-35.363154,149.1652851,33708,0.0254700668156147,-0.20152732729911804,0.42916229367256165,0.04184102267026901,-0.23578961193561554,-0.04591342806816101,-74,-29,-978,43,-235,-45,349,120,16,200.0
15:46:38.498,AUTO,-35.363154,149.1652851,33708,0.0254700668156147,-0.20152732729911804,0.42916229367256165,0.04184102267026901,-0.23578961193561554,-0.04591342806816101,-74,-29,-978,43,-235,-45,349,120,16,200.0
15:46:38.703,AUTO,-35.363154,149.1652851,33708,0.0254700668156147,-0.20152732729911804,0.42916229367256165,0.04184102267026901,-0.23578961193561554,-0.04591342806816101,-74,-29,-978,43,-235,-45,349,120,16,200.0
15:46:38.907,AUTO,-35.3631275,149.1652971,33587,0.03403889015316963,-0.10409540683031082,0.4233512282371521,-0.2715131342411041,0.40668153762817383,-0.01240239292383194,-89,-70,-1058,-270,407,-12,437,148,1,200.0
15:46:39.109,AUTO,-35.3631275,149.1652971,33587,0.03403889015316963,-0.10409540683031082,0.4233512282371521,-0.2715131342411041,0.40668153762817383,-0.01240239292383194,-89,-70,-1058,-270,407,-12,437,148,1,200.0
15:46:39.310,AUTO,-35.3631179,149.1653014,33601,0.04850928112864494,-0.017647715285420418,0.42195937037467957,0.22657513618469238,0.30849260091781616,-0.014284745790064335,-99,-34,-1032,228,309,-13,429,145,-11,188550.0
15:46:39.512,AUTO,-35.3631086,149.1653056,33633,0.0634504109621048,0.015338505618274212,0.422424852848053,0.6145601868629456,-0.11630082875490189,0.010660646483302116,-90,-30,-976,615,-115,11,406,136,-11,188550.0
15:46:39.714,AUTO,-35.3630997,149.1653095,33644,0.05506810173392296,-0.06133505702018738,0.42233705520629883,0.14771701395511627,-0.36867183446884155,0.08745653927326202,-84,-62,-936,147,-368,87,392,130,3,188550.0
15:46:39.916,AUTO,-35.363091,149.1653135,33620,0.03848803788423538,-0.15100766718387604,0.4220615327358246,-0.44992321729660034,-0.347596675157547,0.06786417216062546,-82,-72,-941,-450,-347,68,397,132,16,188550.0
15:46:40.118,AUTO,-35.363091,149.1653135,33620,0.03848803788423538,-0.15100766718387604,0.4220615327358246,-0.44992321729660034,-0.347596675157547,0.06786417216062546,-82,-72,-941,-450,-347,68,397,132,16,188550.0
15:46:40.320,AUTO,-35.3630819,149.1653176,33567,0.026296794414520264,-0.22800511121749878,0.41956546902656555,-0.3449326455593109,-0.28026673197746277,-0.005956977140158415,-91,-58,-972,-343,-279,-5,420,142,26,188550.0
15:46:40.522,AUTO,-35.3630819,149.1653176,33567,0.026296794414520264,-0.22800511121749878,0.41956546902656555,-0.3449326455593109,-0.28026673197746277,-0.005956977140158415,-91,-58,-972,-343,-279,-5,420,142,26,188550.0
15:46:40.724,AUTO,-35.3630819,149.1653176,33567,0.026296794414520264,-0.22800511121749878,0.41956546902656555,-0.3449326455593109,-0.28026673197746277,-0.005956977140158415,-91,-58,-972,-343,-279,-5,420,142,26,188550.0
15:46:40.927,AUTO,-35.3630499,149.1653319,33371,0.03821723535656929,-0.12809498608112335,0.4125876724720001,-0.0648825541138649,0.4604434072971344,-0.018752699717879295,-120,-56,-1093,-64,461,-18,523,177,3,188550.0
15:46:41.128,AUTO,-35.3630499,149.1653319,33371,0.03821723535656929,-0.12809498608112335,0.4125876724720001,-0.0648825541138649,0.4604434072971344,-0.018752699717879295,-120,-56,-1093,-64,461,-18,523,177,3,188550.0
15:46:41.330,AUTO,-35.3630383,149.1653369,33389,0.056276749819517136,-0.027866952121257782,0.4100736677646637,0.2199169397354126,0.34350234270095825,-0.031937550753355026,-119,-53,-1057,220,344,-31,515,171,-16,188550.0
15:46:41.532,AUTO,-35.363027,149.1653417,33443,0.07019462436437607,0.04499867185950279,0.41097497940063477,-0.07392721623182297,0.15486738085746765,0.02233869396150112,-98,-77,-1012,-74,155,22,488,161,-24,188550.0
15:46:41.734,AUTO,-35.3630163,149.1653462,33488,0.05961531773209572,-0.00046054436825215816,0.41259586811065674,-0.8945943117141724,-0.40591925382614136,0.08218663930892944,-96,-97,-882,-894,-405,82,459,151,-7,188550.0
15:46:41.935,AUTO,-35.3630061,149.1653505,33481,0.058974236249923706,-0.10607267916202545,0.41008102893829346,-0.3185822665691376,-0.4084569215774536,-0.04338434711098671,-101,-56,-925,-317,-407,-42,449,150,12,188550.0
15:46:42.137,AUTO,-35.3630061,149.1653505,33481,0.058974236249923706,-0.10607267916202545,0.41008102893829346,-0.3185822665691376,-0.4084569215774536,-0.04338434711098671,-101,-56,-925,-317,-407,-42,449,150,12,188550.0
15:46:42.339,AUTO,-35.3629957,149.165355,33431,0.05871036276221275,-0.2024359107017517,0.40726131200790405,0.3442072570323944,-0.34198760986328125,-0.021762870252132416,-97,-48,-939,345,-341,-21,462,157,29,188550.0
15:46:42.541,AUTO,-35.3629957,149.165355,33431,0.05871036276221275,-0.2024359107017517,0.40726131200790405,0.3442072570323944,-0.34198760986328125,-0.021762870252132416,-97,-48,-939,345,-341,-21,462,157,29,188550.0
15:46:42.743,AUTO,-35.3629957,149.165355,33431,0.05871036276221275,-0.2024359107017517,0.40726131200790405,0.3442072570323944,-0.34198760986328125,-0.021762870252132416,-97,-48,-939,345,-341,-21,462,157,29,188550.0
15:46:42.945,AUTO,-35.362961,149.1653702,33148,0.03952788561582565,-0.21901361644268036,0.411862313747406,0.04441531375050545,0.4865080416202545,-0.014216822572052479,-139,-60,-1119,44,487,-13,575,203,26,188550.0
15:46:43.164,AUTO,-35.3629479,149.1653759,33125,0.05717997997999191,-0.09134362637996674,0.405048131942749,0.07749323546886444,0.44697409868240356,-0.05664841830730438,-133,-68,-1113,77,447,-56,586,205,-6,188550.0
15:46:43.369,AUTO,-35.3629479,149.1653759,33125,0.05717997997999191,-0.09134362637996674,0.405048131942749,0.07749323546886444,0.44697409868240356,-0.05664841830730438,-133,-68,-1113,77,447,-56,586,205,-6,263803.0
15:46:43.570,AUTO,-35.3629349,149.1653815,33171,0.07607138156890869,-0.0023647905327379704,0.4001106917858124,0.11279004067182541,0.29485633969306946,-0.0324690118432045,-133,-77,-1048,113,295,-32,568,196,-25,263803.0
