time_stamp,MODE,lat,lon,relative_alt,roll,pitch,yaw,rollspeed,pitchspeed,yawspeed,xacc,yacc,zacc,xgyro,ygyro,zgyro,vx,vy,vz,RTL_ALT
09:24:18.835,STABILIZE,-35.3632621,149.1652375,0,-0.001349604339338839,0.0009612386347725987,0.025143049657344818,0.00015485519543290138,0.0003131966514047235,0.0018850706983357668,0,1,-1000,0,0,0,-1,1,3,1500.0
09:24:19.047,STABILIZE,-35.3632621,149.1652375,0,-0.001349604339338839,0.0009612386347725987,0.025143049657344818,0.00015485519543290138,0.0003131966514047235,0.0018850706983357668,0,1,-1000,0,0,0,-1,1,3,1500.0
09:24:19.248,STABILIZE,-35.3632621,149.1652375,0,-0.001349604339338839,0.0009612386347725987,0.025143049657344818,0.00015485519543290138,0.0003131966514047235,0.0018850706983357668,0,1,-1000,0,0,0,-1,1,3,1500.0
09:24:19.450,STABILIZE,-35.3632621,149.1652375,0,-0.0016527923289686441,0.0009421230060979724,0.02487356960773468,0.00014790199929848313,0.00028322599246166646,0.0017809215933084488,0,1,-1000,0,1,0,-1,1,3,1500.0
09:24:19.651,STABILIZE,-35.3632621,149.1652375,0,-0.0016764240572229028,0.0009366147569380701,0.02481413446366787,0.00015223829541355371,0.00022657087538391352,0.0018722512759268284,0,1,-1000,0,0,0,-1,0,1,1500.0
09:24:19.852,STABILIZE,-35.3632621,149.1652375,0,-0.0016764240572229028,0.0009366147569380701,0.02481413446366787,0.00015223829541355371,0.00022657087538391352,0.0018722512759268284,0,1,-1000,0,0,0,-1,0,1,1500.0
09:24:20.053,STABILIZE,-35.3632621,149.1652375,0,-0.001688033458776772,0.0009360096883028746,0.024782124906778336,0.00014010292943567038,0.0001760621671564877,0.0017634982941672206,0,2,-1000,0,0,0,-1,0,1,1500.0
09:24:20.254,STABILIZE,-35.3632621,149.1652375,0,-0.001687074895016849,0.0009354632347822189,0.024746758863329887,0.00027846137527376413,0.00016293511725962162,0.00185107858851552,0,1,-1000,0,0,0,-1,0,1,1500.0
09:24:20.456,STABILIZE,-35.3632621,149.1652375,0,-0.001687074895016849,0.0009354632347822189,0.024746758863329887,0.00027846137527376413,0.00016293511725962162,0.00185107858851552,0,1,-1000,0,0,0,-1,0,1,1500.0
09:24:20.657,STABILIZE,-35.3632621,149.1652375,0,-0.001687074895016849,0.0009354632347822189,0.024746758863329887,0.00027846137527376413,0.00016293511725962162,0.00185107858851552,0,1,-1000,0,0,0,-1,0,1,1500.0
09:24:20.858,STABILIZE,-35.3632621,149.1652375,0,-0.001687074895016849,0.0009354632347822189,0.024746758863329887,0.00027846137527376413,0.00016293511725962162,0.00185107858851552,0,1,-1000,0,0,0,-1,0,1,1500.0
09:24:21.060,STABILIZE,-35.3632621,149.1652375,0,-0.001687074895016849,0.0009354632347822189,0.024746758863329887,0.00027846137527376413,0.00016293511725962162,0.00185107858851552,0,1,-1000,0,0,0,-1,0,1,1500.0
09:24:21.261,STABILIZE,-35.3632621,149.1652375,0,-0.001687074895016849,0.0009354632347822189,0.024746758863329887,0.00027846137527376413,0.00016293511725962162,0.00185107858851552,0,1,-1000,0,0,0,-1,0,1,1500.0
09:24:21.462,STABILIZE,-35.3632621,149.1652375,0,-0.0015744647243991494,0.0009526718058623374,0.024455929175019264,0.00012640998465940356,0.000289990974124521,0.00182766979560256,0,1,-1000,0,0,0,-1,1,2,1500.0
09:24:21.663,STABILIZE,-35.3632621,149.1652375,0,-0.0015744647243991494,0.0009526718058623374,0.024455929175019264,0.00012640998465940356,0.000289990974124521,0.00182766979560256,0,1,-1000,0,0,0,-1,1,2,1500.0
09:24:21.864,STABILIZE,-35.3632621,149.1652375,0,-0.0015744647243991494,0.0009526718058623374,0.024455929175019264,0.00012640998465940356,0.000289990974124521,0.00182766979560256,0,1,-1000,0,0,0,-1,1,2,1500.0
09:24:22.066,STABILIZE,-35.3632621,149.1652375,0,-0.0016430193791165948,0.0009644722449593246,0.024367786943912506,0.00014215969713404775,0.0002808690187521279,0.0016380427405238152,0,1,-1000,0,0,0,-1,1,2,1500.0
09:24:22.267,STABILIZE,-35.3632621,149.1652375,0,-0.0016430193791165948,0.0009644722449593246,0.024367786943912506,0.00014215969713404775,0.0002808690187521279,0.0016380427405238152,0,1,-1000,0,0,0,-1,1,2,1500.0
09:24:22.469,STABILIZE,-35.3632622,149.1652375,0,-0.0016874639550223947,0.0009632951114326715,0.024270305410027504,0.00023971719201654196,0.00029653357341885567,0.0017645626794546843,0,1,-1000,0,0,0,-1,0,0,1500.0
09:24:22.670,STABILIZE,-35.3632622,149.1652375,0,-0.0016874639550223947,0.0009632951114326715,0.024270305410027504,0.00023971719201654196,0.00029653357341885567,0.0017645626794546843,0,1,-1000,0,0,0,-1,0,0,1500.0
09:24:22.871,STABILIZE,-35.3632622,149.1652375,0,-0.0016874639550223947,0.0009632951114326715,0.024270305410027504,0.00023971719201654196,0.00029653357341885567,0.0017645626794546843,0,1,-1000,0,0,0,-1,0,0,1500.0
09:24:23.073,STABILIZE,-35.3632622,149.1652375,0,-0.0016874639550223947,0.0009632951114326715,0.024270305410027504,0.00023971719201654196,0.00029653357341885567,0.0017645626794546843,0,1,-1000,0,0,0,-1,0,0,1500.0
09:24:23.274,STABILIZE,-35.3632622,149.1652375,0,-0.0016874639550223947,0.0009632951114326715,0.024270305410027504,0.00023971719201654196,0.00029653357341885567,0.0017645626794546843,0,1,-1000,0,0,0,-1,0,0,1500.0
09:24:23.475,STABILIZE,-35.3632622,149.1652375,0,-0.0017196770058944821,0.000970110238995403,0.024115143343806267,0.00013359531294554472,0.00031171191949397326,0.0018220171332359314,0,1,-1000,0,0,0,-1,0,0,1500.0
09:24:23.676,STABILIZE,-35.3632622,149.1652375,0,-0.0017196770058944821,0.000970110238995403,0.024115143343806267,0.00013359531294554472,0.00031171191949397326,0.0018220171332359314,0,1,-1000,0,0,0,-1,0,0,1500.0
09:24:23.878,STABILIZE,-35.3632622,149.1652375,0,-0.0017196770058944821,0.000970110238995403,0.024115143343806267,0.00013359531294554472,0.00031171191949397326,0.0018220171332359314,0,1,-1000,0,0,0,-1,0,0,1500.0
09:24:24.079,STABILIZE,-35.3632622,149.1652375,0,-0.0017049795715138316,0.0009746876312419772,0.024001436308026314,0.0002045989385806024,0.0002838841173797846,0.0016588412690907717,0,1,-1000,0,0,0,-1,-1,-3,1500.0
09:24:24.281,STABILIZE,-35.3632622,149.1652374,0,-0.0017049795715138316,0.0009746876312419772,0.024001436308026314,0.0002045989385806024,0.0002838841173797846,0.0016588412690907717,0,1,-1000,0,0,0,-1,-1,-3,1500.0
09:24:24.482,STABILIZE,-35.3632622,149.1652374,0,-0.0017049795715138316,0.0009746876312419772,0.024001436308026314,0.0002045989385806024,0.0002838841173797846,0.0016588412690907717,0,1,-1000,0,0,0,-1,-1,-3,1500.0
09:24:24.684,STABILIZE,-35.3632622,149.1652374,0,-0.0017049795715138316,0.0009746876312419772,0.024001436308026314,0.0002045989385806024,0.0002838841173797846,0.0016588412690907717,0,1,-1000,0,0,0,-1,-1,-3,1500.0
09:24:24.886,STABILIZE,-35.3632622,149.1652374,0,-0.0017049795715138316,0.0009746876312419772,0.024001436308026314,0.0002045989385806024,0.0002838841173797846,0.0016588412690907717,0,1,-1000,0,0,0,-1,-1,-3,1500.0
09:24:25.088,STABILIZE,-35.3632622,149.1652374,0,-0.0017049795715138316,0.0009746876312419772,0.024001436308026314,0.0002045989385806024,0.0002838841173797846,0.0016588412690907717,0,1,-1000,0,0,0,-1,-1,-3,1500.0
09:24:25.289,STABILIZE,-35.3632622,149.1652374,17,-0.0013443385250866413,0.0009688088903203607,0.023817533627152443,0.00022068171529099345,0.00030601973412558436,0.001731057302094996,0,1,-1000,0,1,0,-1,0,-3,1500.0
09:24:25.491,STABILIZE,-35.3632622,149.1652374,17,-0.0013443385250866413,0.0009688088903203607,0.023817533627152443,0.00022068171529099345,0.00030601973412558436,0.001731057302094996,0,1,-1000,0,1,0,-1,0,-3,1500.0
09:24:25.693,STABILIZE,-35.3632622,149.1652374,23,-0.0012141147162765265,0.0009692627936601639,0.023689299821853638,0.0002494935179129243,0.00026655010879039764,0.0016111151780933142,0,2,-1000,1,0,0,-1,0,-3,1500.0
09:24:25.895,STABILIZE,-35.3632622,149.1652374,23,-0.0012141147162765265,0.0009692627936601639,0.023689299821853638,0.0002494935179129243,0.00026655010879039764,0.0016111151780933142,0,1,-1000,0,0,1,-1,0,-3,1500.0
09:24:26.096,STABILIZE,-35.3632622,149.1652374,23,-0.0012141147162765265,0.0009692627936601639,0.023689299821853638,0.0002494935179129243,0.00026655010879039764,0.0016111151780933142,0,1,-1000,0,0,1,-1,0,-3,1500.0
09:24:26.298,STABILIZE,-35.3632622,149.1652374,23,-0.0012141147162765265,0.0009692627936601639,0.023689299821853638,0.0002494935179129243,0.00026655010879039764,0.0016111151780933142,0,1,-1000,0,0,1,-1,0,-3,1500.0
09:24:26.499,STABILIZE,-35.3632622,149.1652374,23,-0.0010694254888221622,0.0009748988668434322,0.02350730076432228,0.00021668273257091641,0.00037544226506724954,0.00166936288587749,0,1,-1000,0,1,0,-1,0,-3,1500.0
09:24:26.701,STABILIZE,-35.3632622,149.1652374,23,-0.0010694254888221622,0.0009748988668434322,0.02350730076432228,0.00021668273257091641,0.00037544226506724954,0.00166936288587749,0,1,-1000,0,1,0,-1,0,-3,1500.0
09:24:26.902,STABILIZE,-35.3632622,149.1652374,23,-0.0010694254888221622,0.0009748988668434322,0.02350730076432228,0.00021668273257091641,0.00037544226506724954,0.00166936288587749,0,1,-1000,0,1,0,-1,0,-3,1500.0
09:24:27.104,STABILIZE,-35.3632622,149.1652374,23,-0.0010694254888221622,0.0009748988668434322,0.02350730076432228,0.00021668273257091641,0.00037544226506724954,0.00166936288587749,0,1,-1000,0,1,0,-1,0,-3,1500.0
09:24:27.305,STABILIZE,-35.3632622,149.1652374,36,-0.0009868582710623741,0.0009769058087840676,0.0233160350471735,0.00035456096520647407,0.00020441599190235138,0.0016223832499235868,0,2,-1000,0,0,0,-1,1,-3,1500.0
09:24:27.506,STABILIZE,-35.3632622,149.1652374,34,-0.0008083780994638801,0.0009868384804576635,0.023260928690433502,0.00027646630769595504,0.0002189600490964949,0.0015090181259438396,0,2,-1000,0,0,0,-1,2,-1,1500.0
09:24:27.709,AUTO,-35.3632622,149.1652375,32,-0.0008108745096251369,0.0009823211003094912,0.023194024339318275,0.00028523069340735674,0.0002677912707440555,0.0015448438934981823,0,1,-1000,0,0,0,-1,2,-1,1500.0
09:24:27.918,AUTO,-35.3632622,149.1652375,1,-0.0008267709636129439,0.0009864548919722438,0.023122085258364677,0.00027543073520064354,0.000248498166911304,0.0015163684729486704,0,1,-1000,0,0,0,-1,2,-1,114929.0
09:24:28.119,AUTO,-35.3632622,149.1652375,1,-0.0008267709636129439,0.0009864548919722438,0.023122085258364677,0.00027543073520064354,0.000248498166911304,0.0015163684729486704,0,1,-1000,0,0,0,-1,2,-1,114929.0
09:24:28.321,AUTO,-35.3632622,149.1652375,1,-0.000853456265758723,0.0009893615497276187,0.0230434350669384,0.00021841120906174183,0.0003118370077572763,0.0015404655132442713,0,1,-1000,0,0,0,-1,2,-1,114929.0
09:24:28.523,AUTO,-35.3632622,149.1652375,2,-0.000874361430760473,0.000999823329038918,0.02298569492995739,0.0002585016773082316,0.00039841223042458296,0.0015726846177130938,0,2,-1000,1,1,0,-1,1,-1,114929.0
09:24:28.725,AUTO,-35.3632622,149.1652375,2,-0.000874361430760473,0.000999823329038918,0.02298569492995739,0.0002585016773082316,0.00039841223042458296,0.0015726846177130938,0,2,-1000,1,1,0,-1,1,-1,114929.0
09:24:28.926,AUTO,-35.3632622,149.1652375,2,-0.000874361430760473,0.000999823329038918,0.02298569492995739,0.0002585016773082316,0.00039841223042458296,0.0015726846177130938,0,2,-1000,1,1,0,-1,1,-1,114929.0
09:24:29.128,AUTO,-35.3632622,149.1652375,2,-0.000874361430760473,0.000999823329038918,0.02298569492995739,0.0002585016773082316,0.00039841223042458296,0.0015726846177130938,0,2,-1000,1,1,0,-1,1,-1,114929.0
09:24:29.330,AUTO,-35.3632621,149.1652374,5,-0.0008263515192084014,0.0011120811104774475,0.022797461599111557,0.0001760154264047742,0.00026892212918028235,0.001563608879223466,0,1,-1000,1,0,0,0,0,-1,114929.0
09:24:29.531,AUTO,-35.3632621,149.1652374,6,-0.0007811002433300018,0.0011710970429703593,0.022724982351064682,0.00029049644945189357,0.0002714114962145686,0.0014785255771130323,0,2,-1000,1,0,0,0,0,-1,114929.0
09:24:29.733,AUTO,-35.3632621,149.1652374,6,-0.0007333157118409872,0.0012388114118948579,0.022644372656941414,0.0002748402766883373,0.00024550827220082283,0.001461797277443111,0,1,-1000,0,0,0,0,0,-1,114929.0
09:24:29.934,AUTO,-35.3632621,149.1652374,7,-0.0006809014012105763,0.0013052219292148948,0.022579733282327652,0.00031200837111100554,0.0003101149923168123,0.0013775082770735025,0,1,-1000,0,0,0,0,0,-1,114929.0
09:24:30.136,AUTO,-35.3632621,149.1652374,7,-0.0006809014012105763,0.0013052219292148948,0.022579733282327652,0.00031200837111100554,0.0003101149923168123,0.0013775082770735025,0,1,-1000,0,0,0,0,0,-1,114929.0
09:24:30.338,AUTO,-35.3632621,149.1652374,7,-0.0006306991563178599,0.0013753193197771907,0.022516896948218346,0.0003108559176325798,0.00016027031233534217,0.0015015669632703066,0,1,-1000,1,0,0,0,0,-1,114929.0
09:24:30.540,AUTO,-35.3632621,149.1652374,8,-0.0005806042463518679,0.00144347851164639,0.022433174774050713,0.00018726341659203172,0.00022951362188905478,0.0015030429931357503,0,2,-1000,1,1,0,0,0,-1,114929.0
09:24:30.741,AUTO,-35.3632621,149.1652374,8,-0.0005806042463518679,0.00144347851164639,0.022433174774050713,0.00018726341659203172,0.00022951362188905478,0.0015030429931357503,0,2,-1000,1,1,0,0,0,-1,189349.0
09:24:30.948,AUTO,-35.3632621,149.1652374,8,-0.0005806042463518679,0.00144347851164639,0.022433174774050713,0.00018726341659203172,0.00022951362188905478,0.0015030429931357503,0,2,-1000,1,1,0,0,0,-1,189349.0
09:24:31.150,AUTO,-35.3632621,149.1652374,11,-0.00039861342520453036,0.0016543797682970762,0.022208649665117264,0.0003392063081264496,0.00032414274755865335,0.0015163181815296412,0,2,-1000,0,1,0,0,0,-2,189349.0
09:24:31.351,AUTO,-35.3632621,149.1652374,11,-0.00039861342520453036,0.0016543797682970762,0.022208649665117264,0.0003392063081264496,0.00032414274755865335,0.0015163181815296412,0,2,-1000,0,1,0,0,0,-2,189349.0
09:24:31.553,AUTO,-35.3632621,149.1652374,12,-0.0003356355882715434,0.0017275098944082856,0.022127633914351463,0.00034268986200913787,0.00022705248557031155,0.0015417428221553564,0,1,-1000,0,0,0,0,0,-2,189349.0
09:24:31.754,AUTO,-35.3632621,149.1652374,13,0.0012536742724478245,0.0011975810630246997,0.022116011008620262,0.010307093150913715,-0.01299265492707491,0.002409375971183181,0,0,-1082,10,-12,1,0,0,-7,189349.0
09:24:31.956,AUTO,-35.3632621,149.1652374,68,0.0048294151201844215,-0.0005839180084876716,0.02213696949183941,0.002756799105554819,-0.001202231040224433,0.0015151373809203506,0,0,-1141,3,0,1,0,0,-40,189349.0
09:24:32.158,AUTO,-35.3632621,149.1652374,207,0.003928593825548887,7.747302879579365e-05,0.022114813327789307,0.007803585845977068,0.0037776161916553974,0.0025330958887934685,0,0,-1131,8,4,2,0,1,-74,189349.0
09:24:32.360,AUTO,-35.3632621,149.1652374,207,0.003928593825548887,7.747302879579365e-05,0.022114813327789307,0.007803585845977068,0.0037776161916553974,0.0025330958887934685,0,0,-1131,8,4,2,0,1,-74,189349.0
09:24:32.561,AUTO,-35.3632621,149.1652374,423,0.001740428269840777,0.0012063354952260852,0.0220660287886858,-0.01649346388876438,0.004280146677047014,0.0009663873352110386,0,-1,-1110,-15,5,0,0,1,-103,189349.0
09:24:32.763,AUTO,-35.3632621,149.1652374,423,0.001740428269840777,0.0012063354952260852,0.0220660287886858,-0.01649346388876438,0.004280146677047014,0.0009663873352110386,0,-1,-1110,-15,5,0,0,1,-103,189349.0
09:24:32.965,AUTO,-35.3632621,149.1652374,423,0.001740428269840777,0.0012063354952260852,0.0220660287886858,-0.01649346388876438,0.004280146677047014,0.0009663873352110386,0,-1,-1110,-15,5,0,0,1,-103,189349.0
09:24:33.166,AUTO,-35.363262,149.1652376,1407,0.02347118780016899,-0.0012407791800796986,0.021852483972907066,0.04688034579157829,-0.007258587051182985,0.002439854433760047,0,0,-1017,47,-6,2,1,6,-146,189349.0
09:24:33.368,AUTO,-35.363262,149.1652376,1407,0.02347118780016899,-0.0012407791800796986,0.021852483972907066,0.04688034579157829,-0.007258587051182985,0.002439854433760047,0,0,-1017,47,-6,2,1,6,-146,189349.0
09:24:33.569,AUTO,-35.363262,149.1652378,1783,0.03477604687213898,-0.003197807352989912,0.02204354666173458,0.044654443860054016,-0.007624256424605846,0.0030414299108088017,0,-2,-1007,45,-7,2,2,12,-149,189349.0
09:24:33.771,AUTO,-35.3632619,149.1652382,2165,0.04553920030593872,-0.005482172127813101,0.022291893139481544,0.04208061844110489,-0.009196854196488857,0.003450294490903616,0,-2,-1002,42,-8,3,3,21,-150,177407.0
09:24:33.972,AUTO,-35.3632618,149.165239,2549,0.05556841567158699,-0.008119003847241402,0.02253899723291397,0.03872448578476906,-0.011550834402441978,0.003930472768843174,0,-4,-1000,39,-10,3,5,32,-150,177407.0
09:24:34.174,AUTO,-35.3632616,149.16524,2932,0.060072459280490875,-0.007544565945863724,-0.010050644166767597,-0.03411438688635826,0.0427301749587059,-0.06509138643741608,1,-9,-991,-33,43,-65,9,44,-149,177407.0
09:24:34.376,AUTO,-35.3632616,149.16524,2932,0.060072459280490875,-0.007544565945863724,-0.010050644166767597,-0.03411438688635826,0.0427301749587059,-0.06509138643741608,1,-9,-991,-33,43,-65,9,44,-149,177407.0
09:24:34.578,AUTO,-35.3632613,149.1652413,3310,0.03551929444074631,0.016785213723778725,-0.03406241163611412,-0.14862070977687836,0.08996031433343887,-0.10039978474378586,3,-10,-992,-147,90,-100,9,53,-146,177407.0
09:24:34.780,AUTO,-35.3632613,149.1652413,3310,0.03551929444074631,0.016785213723778725,-0.03406241163611412,-0.14862070977687836,0.08996031433343887,-0.10039978474378586,3,-10,-992,-147,90,-100,9,53,-146,177407.0
09:24:34.982,AUTO,-35.3632613,149.1652413,3310,0.03551929444074631,0.016785213723778725,-0.03406241163611412,-0.14862070977687836,0.08996031433343887,-0.10039978474378586,3,-10,-992,-147,90,-100,9,53,-146,177407.0
09:24:35.184,AUTO,-35.3632609,149.1652452,4445,-0.04264221340417862,0.01727791503071785,-0.0795360878109932,-0.07042436301708221,-0.0354541651904583,-0.032060109078884125,5,-9,-1003,-69,-34,-32,-2,34,-149,177407.0
09:24:35.385,AUTO,-35.3632609,149.1652452,4445,-0.04264221340417862,0.01727791503071785,-0.0795360878109932,-0.07042436301708221,-0.0354541651904583,-0.032060109078884125,5,-9,-1003,-69,-34,-32,-2,34,-149,177407.0
09:24:35.588,AUTO,-35.3632609,149.1652459,4829,-0.06344060599803925,0.004872770514339209,-0.08052922785282135,-0.09095340967178345,-0.05820777267217636,0.005565674975514412,4,-6,-1000,-90,-57,4,-4,19,-149,177407.0
09:24:35.790,AUTO,-35.363261,149.1652462,5219,-0.07815016806125641,-0.005994990933686495,-0.08014488220214844,-0.014781266450881958,-0.017450856044888496,-0.011044735088944435,2,-1,-1005,-14,-16,-11,-3,0,-150,177407.0
09:24:35.992,AUTO,-35.363261,149.1652459,5603,-0.07299649715423584,-0.007131744176149368,-0.08326905220746994,0.041219983249902725,4.1085819248110056e-05,-0.010813443921506405,0,1,-1003,41,0,-11,-2,-19,-150,177407.0
09:24:36.194,AUTO,-35.3632611,149.1652452,5987,-0.060478344559669495,-0.007600359618663788,-0.08584132045507431,0.05473839491605759,-0.000982489436864853,-0.006115165073424578,-2,5,-1001,55,0,-6,-2,-35,-150,177407.0
09:24:36.396,AUTO,-35.3632611,149.1652441,6372,-0.04615582898259163,-0.007158690132200718,-0.08810395747423172,0.05935852602124214,0.0043900636956095695,-0.0033868385944515467,-5,8,-1001,59,5,-3,-2,-47,-150,177407.0
09:24:36.598,AUTO,-35.3632611,149.1652441,6372,-0.04615582898259163,-0.007158690132200718,-0.08810395747423172,0.05935852602124214,0.0043900636956095695,-0.0033868385944515467,-5,8,-1001,59,5,-3,-2,-47,-150,177407.0
09:24:36.800,AUTO,-35.3632611,149.1652441,6372,-0.04615582898259163,-0.007158690132200718,-0.08810395747423172,0.05935852602124214,0.0043900636956095695,-0.0033868385944515467,-5,8,-1001,59,5,-3,-2,-47,-150,10391.0
09:24:37.002,AUTO,-35.3632611,149.1652441,6372,-0.04615582898259163,-0.007158690132200718,-0.08810395747423172,0.05935852602124214,0.0043900636956095695,-0.0033868385944515467,-5,8,-1001,59,5,-3,-2,-47,-150,10391.0
09:24:37.204,AUTO,-35.3632614,149.1652396,7518,0.0010200365213677287,0.0003945068165194243,-0.09023330360651016,0.06597189605236053,0.013076062314212322,0.0018094745464622974,-7,12,-1003,66,13,1,-4,-57,-151,10391.0
09:24:37.406,AUTO,-35.3632615,149.165238,7907,0.017420904710888863,0.003595963353291154,-0.08972810208797455,0.06601160764694214,0.012320389039814472,0.002832725876942277,-6,12,-1003,66,13,2,-5,-52,-152,10391.0
09:24:37.607,AUTO,-35.3632615,149.165238,7907,0.017420904710888863,0.003595963353291154,-0.08972810208797455,0.06601160764694214,0.012320389039814472,0.002832725876942277,-6,12,-1003,66,13,2,-5,-52,-152,10391.0
09:24:37.809,AUTO,-35.3632616,149.1652366,8298,0.03360401839017868,0.006345489528030157,-0.08881419897079468,0.06447651982307434,0.009971079416573048,0.003301009302958846,-5,10,-1004,65,10,2,-7,-44,-153,10391.0
09:24:38.010,AUTO,-35.3632618,149.1652355,8690,0.04929300397634506,0.008239640854299068,-0.08765099942684174,0.0618608184158802,0.005822890438139439,0.004688815213739872,-4,10,-1003,62,6,4,-8,-32,-154,10391.0
09:24:38.212,AUTO,-35.363262,149.1652347,9083,0.063132144510746,0.008160172030329704,-0.08528515696525574,0.03644357621669769,-0.014307361096143723,0.025927646085619926,-1,6,-999,36,-13,25,-9,-17,-153,10391.0
09:24:38.414,AUTO,-35.3632622,149.1652344,9473,0.05815298110246658,-0.0015377443050965667,-0.07702628523111343,-0.057671453803777695,-0.034383103251457214,0.031102033331990242,0,3,-993,-56,-33,30,-9,-1,-152,10391.0
09:24:38.616,AUTO,-35.3632622,149.1652344,9473,0.05815298110246658,-0.0015377443050965667,-0.07702628523111343,-0.057671453803777695,-0.034383103251457214,0.031102033331990242,0,3,-993,-56,-33,30,-9,-1,-152,10391.0
09:24:38.819,AUTO,-35.3632622,149.1652344,9473,0.05815298110246658,-0.0015377443050965667,-0.07702628523111343,-0.057671453803777695,-0.034383103251457214,0.031102033331990242,0,3,-993,-56,-33,30,-9,-1,-152,10391.0
09:24:39.021,AUTO,-35.3632622,149.1652344,9473,0.05815298110246658,-0.0015377443050965667,-0.07702628523111343,-0.057671453803777695,-0.034383103251457214,0.031102033331990242,0,3,-993,-56,-33,30,-9,-1,-152,10391.0
09:24:39.223,AUTO,-35.3632626,149.165235,10634,0.004971927963197231,-0.005893767811357975,-0.07574450224637985,-0.048533130437135696,0.005280542187392712,-0.01842736452817917,2,-2,-1002,-47,6,-18,0,16,-150,10391.0
09:24:39.424,AUTO,-35.3632626,149.1652354,11018,-0.004797667730599642,-0.004695636685937643,-0.08141683042049408,-0.03096853941679001,0.004992798436433077,-0.023561643436551094,1,-3,-1002,-30,5,-23,1,14,-150,10391.0
09:24:39.627,AUTO,-35.3632626,149.1652354,11018,-0.004797667730599642,-0.004695636685937643,-0.08141683042049408,-0.03096853941679001,0.004992798436433077,-0.023561643436551094,1,-3,-1002,-30,5,-23,1,14,-150,10391.0
09:24:39.828,AUTO,-35.3632626,149.1652357,11404,-0.010224920697510242,-0.003763969521969557,-0.08801211416721344,-0.012351248413324356,0.00447822455316782,-0.02555999346077442,0,-2,-1003,-11,5,-25,3,11,-151,32560.0
09:24:40.030,AUTO,-35.3632625,149.1652359,11791,-0.011906687170267105,-0.002744194120168686,-0.0950695052742958,-0.0028828629292547703,0.00428901519626379,-0.02658536471426487,0,-2,-1002,-2,4,-26,4,7,-151,32560.0
09:24:40.231,AUTO,-35.3632624,149.165236,12179,-0.010844276286661625,-0.0014603309100493789,-0.10240304470062256,0.010082775726914406,0.006904559209942818,-0.026218760758638382,0,-1,-1002,10,7,-26,5,3,-152,32560.0
09:24:40.433,AUTO,-35.3632622,149.165236,12567,-0.008380193263292313,-0.00017356782336719334,-0.1094469428062439,0.011967001482844353,0.006967146880924702,-0.02792433276772499,0,0,-1000,12,7,-28,5,0,-152,32560.0
09:24:40.635,AUTO,-35.3632622,149.165236,12567,-0.008380193263292313,-0.00017356782336719334,-0.1094469428062439,0.011967001482844353,0.006967146880924702,-0.02792433276772499,0,0,-1000,12,7,-28,5,0,-152,32560.0
09:24:40.837,AUTO,-35.3632622,149.165236,12567,-0.008380193263292313,-0.00017356782336719334,-0.1094469428062439,0.011967001482844353,0.006967146880924702,-0.02792433276772499,0,0,-1000,12,7,-28,5,0,-152,32560.0
09:24:41.038,AUTO,-35.3632622,149.165236,12567,-0.008380193263292313,-0.00017356782336719334,-0.1094469428062439,0.011967001482844353,0.006967146880924702,-0.02792433276772499,0,0,-1000,12,7,-28,5,0,-152,32560.0
09:24:41.252,AUTO,-35.3632619,149.1652358,13734,0.0017284706700593233,0.004080959130078554,-0.12785178422927856,0.01083972305059433,0.004891191143542528,-0.019729798659682274,-2,0,-999,11,5,-20,3,-4,-152,32560.0
09:24:41.454,AUTO,-35.3632618,149.1652357,14125,0.004251076374202967,0.0052696396596729755,-0.13292844593524933,0.009201649576425552,0.004960997961461544,-0.018238836899399757,-1,0,-1000,9,5,-18,2,-4,-152,32560.0
09:24:41.655,AUTO,-35.3632617,149.1652355,14518,0.006390675436705351,0.006043963599950075,-0.13735219836235046,0.008363660424947739,0.0019062859937548637,-0.015131423249840736,-1,0,-1000,8,2,-15,1,-3,-152,32560.0
09:24:41.858,AUTO,-35.3632617,149.1652355,14518,0.006390675436705351,0.006043963599950075,-0.13735219836235046,0.008363660424947739,0.0019062859937548637,-0.015131423249840736,-1,0,-1000,8,2,-15,1,-3,-152,32560.0
09:24:42.060,AUTO,-35.3632616,149.1652354,14906,0.007734199520200491,0.006471128202974796,-0.14133919775485992,0.004241329617798328,0.001304015051573515,-0.01460665836930275,-1,0,-1000,5,2,-14,0,-1,-152,32560.0
09:24:42.262,AUTO,-35.3632616,149.1652354,15296,0.00853260699659586,0.007032020948827267,-0.14538055658340454,0.0030212216079235077,0.0038062059320509434,-0.016158277168869972,-1,0,-1000,3,4,-16,0,0,-152,32560.0
09:24:42.464,AUTO,-35.3632616,149.1652353,15685,0.008647100999951363,0.0068343039602041245,-0.1486840695142746,0.00040102191269397736,-0.0012828350299969316,-0.011761867441236973,0,0,-1000,0,0,-12,-1,1,-152,32560.0
09:24:42.665,AUTO,-35.3632616,149.1652353,15685,0.008647100999951363,0.0068343039602041245,-0.1486840695142746,0.00040102191269397736,-0.0012828350299969316,-0.011761867441236973,0,0,-1000,0,0,-12,-1,1,-152,32560.0
09:24:42.867,AUTO,-35.3632616,149.1652353,15685,0.008647100999951363,0.0068343039602041245,-0.1486840695142746,0.00040102191269397736,-0.0012828350299969316,-0.011761867441236973,0,0,-1000,0,0,-12,-1,1,-152,185100.0
09:24:43.069,AUTO,-35.3632616,149.1652353,15685,0.008647100999951363,0.0068343039602041245,-0.1486840695142746,0.00040102191269397736,-0.0012828350299969316,-0.011761867441236973,0,0,-1000,0,0,-12,-1,1,-152,185100.0
09:24:43.270,AUTO,-35.3632616,149.1652353,16840,-0.02762526087462902,0.005075669847428799,-0.15855629742145538,-0.09146913141012192,0.0004247578326612711,-0.013510813005268574,0,0,-997,-90,1,-14,-3,-2,-150,185100.0
09:24:43.471,AUTO,-35.3632616,149.165235,17223,-0.04980924725532532,0.0064305937848985195,-0.1587280035018921,-0.06330041587352753,0.034036025404930115,0.05619176849722862,-1,1,-988,-62,34,56,-6,-12,-149,185100.0
09:24:43.673,AUTO,-35.3632618,149.1652345,17597,-0.053542520850896835,0.0299269687384367,-0.11036232858896255,0.003751328680664301,0.10731123387813568,0.31866446137428284,-1,3,-980,4,108,318,-11,-24,-144,185100.0
09:24:43.875,AUTO,-35.3632618,149.1652345,17597,-0.053542520850896835,0.0299269687384367,-0.11036232858896255,0.003751328680664301,0.10731123387813568,0.31866446137428284,-1,3,-980,4,108,318,-11,-24,-144,185100.0
09:24:44.076,AUTO,-35.3632621,149.1652336,17958,-0.041241683065891266,0.04900362715125084,-0.014570611529052258,0.08964376896619797,-0.03672616183757782,0.3426786959171295,0,8,-957,90,-35,342,-21,-34,-137,185100.0
09:24:44.278,AUTO,-35.3632626,149.1652325,18292,-0.004564780276268721,0.01987607032060623,0.0455639585852623,0.1576717644929886,-0.1557675451040268,0.14762389659881592,0,10,-953,158,-155,147,-29,-38,-125,185100.0
09:24:44.481,AUTO,-35.3632632,149.1652315,18598,0.0312421303242445,-0.014622905291616917,0.06340385228395462,0.12491576373577118,-0.10706125944852829,0.015229273587465286,1,11,-956,125,-106,14,-28,-33,-114,185100.0
09:24:44.683,AUTO,-35.3632632,149.1652315,18598,0.0312421303242445,-0.014622905291616917,0.06340385228395462,0.12491576373577118,-0.10706125944852829,0.015229273587465286,1,11,-956,125,-106,14,-28,-33,-114,185100.0
09:24:44.886,AUTO,-35.3632632,149.1652315,18598,0.0312421303242445,-0.014622905291616917,0.06340385228395462,0.12491576373577118,-0.10706125944852829,0.015229273587465286,1,11,-956,125,-106,14,-28,-33,-114,185100.0
09:24:45.088,AUTO,-35.3632632,149.1652315,18598,0.0312421303242445,-0.014622905291616917,0.06340385228395462,0.12491576373577118,-0.10706125944852829,0.015229273587465286,1,11,-956,125,-106,14,-28,-33,-114,185100.0
09:24:45.290,AUTO,-35.3632643,149.1652302,19356,0.06548696011304855,-0.03332584723830223,0.04179292544722557,-0.013251248747110367,0.01735732890665531,-0.02883221209049225,1,0,-967,-12,18,-28,-6,10,-84,185100.0
09:24:45.493,AUTO,-35.3632643,149.1652305,19560,0.05800503119826317,-0.027038970962166786,0.0375647097826004,-0.03843029960989952,0.028961490839719772,-0.010525760240852833,1,-3,-971,-37,29,-10,1,23,-76,185100.0
09:24:45.695,AUTO,-35.3632643,149.1652312,19746,0.04602229222655296,-0.01910056360065937,0.03590744733810425,-0.04797736555337906,0.03267691284418106,-0.002539577893912792,2,-7,-974,-47,33,-2,7,34,-69,185100.0
09:24:45.897,AUTO,-35.363264,149.1652321,19914,0.03370130434632301,-0.011290204711258411,0.03547867015004158,-0.05148916319012642,0.030469033867120743,0.0028238557279109955,1,-9,-975,-50,31,2,12,40,-63,78054.0
09:24:46.099,AUTO,-35.363264,149.1652321,19914,0.03370130434632301,-0.011290204711258411,0.03547867015004158,-0.05148916319012642,0.030469033867120743,0.0028238557279109955,1,-9,-975,-50,31,2,12,40,-63,78054.0
09:24:46.301,AUTO,-35.3632637,149.1652332,20065,0.0214967243373394,-0.0035714739933609962,0.0352548211812973,-0.042021479457616806,0.030609093606472015,0.004084225744009018,1,-10,-976,-41,31,3,14,44,-57,78054.0
09:24:46.502,AUTO,-35.3632633,149.1652343,20201,0.010306864976882935,0.003199463477358222,0.034899983555078506,-0.04410306736826897,0.02425544708967209,0.0036516741383820772,1,-11,-977,-43,25,3,15,44,-51,78054.0
09:24:46.704,AUTO,-35.3632633,149.1652343,20201,0.010306864976882935,0.003199463477358222,0.034899983555078506,-0.04410306736826897,0.02425544708967209,0.0036516741383820772,1,-11,-977,-43,25,3,15,44,-51,78054.0
09:24:46.906,AUTO,-35.3632633,149.1652343,20201,0.010306864976882935,0.003199463477358222,0.034899983555078506,-0.04410306736826897,0.02425544708967209,0.0036516741383820772,1,-11,-977,-43,25,3,15,44,-51,78054.0
09:24:47.109,AUTO,-35.3632633,149.1652343,20201,0.010306864976882935,0.003199463477358222,0.034899983555078506,-0.04410306736826897,0.02425544708967209,0.0036516741383820772,1,-11,-977,-43,25,3,15,44,-51,78054.0
09:24:47.311,AUTO,-35.3632622,149.1652375,20522,-0.010165838524699211,0.013217763043940067,0.033458027988672256,-0.019191095605492592,0.0021487257909029722,0.00010245626617688686,1,-8,-977,-18,2,0,11,33,-34,78054.0
09:24:47.513,AUTO,-35.3632619,149.1652383,20599,-0.01211153157055378,0.013978713192045689,0.032982807606458664,0.014698226004838943,0.0017096411902457476,-0.0006451418157666922,0,-6,-975,15,2,-1,9,28,-28,78054.0
09:24:47.715,AUTO,-35.3632617,149.165239,20660,-0.013799675740301609,0.013908353634178638,0.032461754977703094,-0.02541966922581196,-0.00040958705358207226,-0.0004037331382278353,0,-6,-974,-24,0,0,7,23,-21,78054.0
09:24:47.916,AUTO,-35.3632615,149.1652395,20704,-0.014456639066338539,0.013066704384982586,0.03195473179221153,-0.01335512287914753,-0.00495554693043232,-0.003196233417838812,0,-3,-972,-12,-3,-3,4,17,-14,78054.0
09:24:48.118,AUTO,-35.3632615,149.1652395,20704,-0.014456639066338539,0.013066704384982586,0.03195473179221153,-0.01335512287914753,-0.00495554693043232,-0.003196233417838812,0,-3,-972,-12,-3,-3,4,17,-14,78054.0
09:24:48.320,AUTO,-35.3632614,149.1652399,20729,-0.011839885264635086,0.01155377458781004,0.03145527094602585,0.08551342785358429,-0.005624447949230671,-0.003213859163224697,0,0,-966,86,-4,-3,2,12,-7,78054.0
09:24:48.522,AUTO,-35.3632613,149.1652401,20730,-0.039303865283727646,0.01969992183148861,0.03017393872141838,-0.39900100231170654,0.05434804782271385,-0.004705651663243771,0,-18,-917,-398,55,-4,0,6,5,78054.0
09:24:48.724,AUTO,-35.3632613,149.1652401,20730,-0.039303865283727646,0.01969992183148861,0.03017393872141838,-0.39900100231170654,0.05434804782271385,-0.004705651663243771,0,-18,-917,-398,55,-4,0,6,5,78054.0
09:24:48.928,AUTO,-35.3632613,149.1652401,20730,-0.039303865283727646,0.01969992183148861,0.03017393872141838,-0.39900100231170654,0.05434804782271385,-0.004705651663243771,0,-18,-917,-398,55,-4,0,6,5,39880.0
09:24:49.130,AUTO,-35.3632613,149.1652401,20730,-0.039303865283727646,0.01969992183148861,0.03017393872141838,-0.39900100231170654,0.05434804782271385,-0.004705651663243771,0,-18,-917,-398,55,-4,0,6,5,39880.0
09:24:49.332,AUTO,-35.3632614,149.1652397,20586,0.025753764435648918,-0.01670818403363228,0.029505997896194458,0.8742963075637817,-0.05455801635980606,-0.006286714691668749,0,31,-1019,875,-53,-6,-2,-8,17,39880.0
09:24:49.533,AUTO,-35.3632614,149.1652395,20543,0.047231853008270264,-0.028204288333654404,0.027845455333590508,0.47720757126808167,-0.04351576417684555,-0.007153223268687725,0,4,-1030,477,-42,-7,3,-2,12,39880.0
09:24:49.735,AUTO,-35.3632612,149.1652396,20510,0.053078848868608475,-0.03733408823609352,0.025446442887187004,-0.3820491433143616,-0.034655727446079254,-0.004556360188871622,-1,-33,-1024,-382,-33,-4,11,7,7,39880.0
09:24:49.936,AUTO,-35.3632608,149.1652399,20488,0.05716515704989433,-0.04401808977127075,0.02417839877307415,-0.5014034509658813,-0.023279758170247078,-0.004398352932184935,0,-23,-1020,-499,-22,-4,20,21,4,39880.0
09:24:50.138,AUTO,-35.3632608,149.1652399,20488,0.05716515704989433,-0.04401808977127075,0.02417839877307415,-0.5014034509658813,-0.023279758170247078,-0.004398352932184935,0,-23,-1020,-499,-22,-4,20,21,4,39880.0
09:24:50.340,AUTO,-35.3632602,149.1652407,20475,0.07674308121204376,-0.049989085644483566,0.034012630581855774,0.28477364778518677,-0.013221440836787224,0.16060008108615875,-2,13,-1011,286,-12,160,31,37,1,39880.0
09:24:50.542,AUTO,-35.3632594,149.1652419,20467,0.0881805494427681,-0.0635056123137474,0.14540158212184906,0.6556025743484497,0.016775837168097496,0.6944481134414673,-4,0,-1016,656,17,694,44,54,0,39880.0
09:24:50.744,AUTO,-35.3632594,149.1652419,20467,0.0881805494427681,-0.0635056123137474,0.14540158212184906,0.6556025743484497,0.016775837168097496,0.6944481134414673,-4,0,-1016,656,17,694,44,54,0,39880.0
09:24:50.946,AUTO,-35.3632594,149.1652419,20467,0.0881805494427681,-0.0635056123137474,0.14540158212184906,0.6556025743484497,0.016775837168097496,0.6944481134414673,-4,0,-1016,656,17,694,44,54,0,39880.0
09:24:51.154,AUTO,-35.3632594,149.1652419,20467,0.0881805494427681,-0.0635056123137474,0.14540158212184906,0.6556025743484497,0.016775837168097496,0.6944481134414673,-4,0,-1016,656,17,694,44,54,0,39880.0
09:24:51.356,AUTO,-35.3632543,149.1652502,20457,0.0391073152422905,-0.12572163343429565,0.8472262024879456,0.46845555305480957,-0.020465806126594543,0.7513987421989441,-27,-6,-1005,469,-19,751,90,120,-1,39880.0
09:24:51.559,AUTO,-35.3632521,149.1652539,20456,0.015492976643145084,-0.13859981298446655,1.0054852962493896,-0.046057846397161484,-0.0401398204267025,0.4504476487636566,-37,-38,-1001,-46,-38,449,105,140,-1,39880.0
09:24:51.763,AUTO,-35.3632497,149.1652583,20453,0.004452291410416365,-0.14997217059135437,1.06001877784729,-0.4237399995326996,-0.029826810583472252,0.05736410990357399,-45,-38,-1004,-422,-28,57,121,162,-1,39880.0
09:24:51.965,AUTO,-35.3632497,149.1652583,20453,0.004452291410416365,-0.14997217059135437,1.06001877784729,-0.4237399995326996,-0.029826810583472252,0.05736410990357399,-45,-38,-1004,-422,-28,57,121,162,-1,69567.0
09:24:52.167,AUTO,-35.3632468,149.1652634,20449,0.013056744821369648,-0.15995986759662628,1.0497697591781616,0.3251652419567108,-0.03371252492070198,-0.1231723353266716,-51,-11,-1007,326,-32,-123,137,185,-1,69567.0
09:24:52.370,AUTO,-35.3632435,149.1652691,20445,0.017203999683260918,-0.1710154414176941,1.0220016241073608,0.15523448586463928,-0.05039338767528534,-0.11083792895078659,-60,-45,-1006,155,-49,-110,156,208,0,69567.0
09:24:52.572,AUTO,-35.3632399,149.1652755,20440,0.015165545977652073,-0.17604005336761475,0.9989708662033081,-0.31441178917884827,0.003335838206112385,-0.07354579120874405,-55,-53,-1004,-313,4,-73,175,233,0,69567.0
09:24:52.774,AUTO,-35.3632399,149.1652755,20440,0.015165545977652073,-0.17604005336761475,0.9989708662033081,-0.31441178917884827,0.003335838206112385,-0.07354579120874405,-55,-53,-1004,-313,4,-73,175,233,0,69567.0
09:24:52.976,AUTO,-35.3632399,149.1652755,20440,0.015165545977652073,-0.17604005336761475,0.9989708662033081,-0.31441178917884827,0.003335838206112385,-0.07354579120874405,-55,-53,-1004,-313,4,-73,175,233,0,69567.0
09:24:53.178,AUTO,-35.3632399,149.1652755,20440,0.015165545977652073,-0.17604005336761475,0.9989708662033081,-0.31441178917884827,0.003335838206112385,-0.07354579120874405,-55,-53,-1004,-313,4,-73,175,233,0,69567.0
09:24:53.380,AUTO,-35.3632265,149.1652986,20430,0.028199506923556328,-0.1684063822031021,0.9825085997581482,-0.12489376962184906,-0.004945623688399792,0.00019015838915947825,-74,-51,-1004,-124,-4,0,228,299,-2,69567.0
09:24:53.583,AUTO,-35.3632213,149.1653075,20430,0.03582773730158806,-0.17529088258743286,0.9823619723320007,0.07259189337491989,-0.04284214600920677,-0.006937573663890362,-82,-46,-999,73,-42,-6,244,318,-2,69567.0
09:24:53.785,AUTO,-35.3632158,149.1653169,20428,0.041724514216184616,-0.18565888702869415,0.9816938042640686,0.07267707586288452,-0.030979683622717857,-0.006530048791319132,-88,-41,-999,73,-30,-6,259,339,-1,69567.0
09:24:53.986,AUTO,-35.3632158,149.1653169,20428,0.041724514216184616,-0.18565888702869415,0.9816938042640686,0.07267707586288452,-0.030979683622717857,-0.006530048791319132,-88,-41,-999,73,-30,-6,259,339,-1,69567.0
09:24:54.188,AUTO,-35.3632098,149.165327,20426,0.04352720081806183,-0.1896492838859558,0.9806881546974182,-0.005507267080247402,-0.005684019066393375,-0.005762075074017048,-94,-59,-1001,-5,-4,-6,275,361,-1,69567.0
09:24:54.391,AUTO,-35.3632035,149.1653375,20424,0.049845848232507706,-0.19503153860569,0.9782555103302002,-0.016710009425878525,-0.04001563787460327,-0.009260164573788643,-100,-51,-1000,-16,-39,-9,290,383,-1,69567.0
09:24:54.593,AUTO,-35.3631969,149.1653486,20421,0.05512683466076851,-0.2055702954530716,0.9763365387916565,0.04545415937900543,-0.04732165113091469,0.0011010987218469381,-105,-61,-997,46,-46,1,305,404,0,69567.0
09:24:54.796,AUTO,-35.3631969,149.1653486,20421,0.05512683466076851,-0.2055702954530716,0.9763365387916565,0.04545415937900543,-0.04732165113091469,0.0011010987218469381,-105,-61,-997,46,-46,1,305,404,0,140459.0
09:24:54.998,AUTO,-35.3631969,149.1653486,20421,0.05512683466076851,-0.2055702954530716,0.9763365387916565,0.04545415937900543,-0.04732165113091469,0.0011010987218469381,-105,-61,-997,46,-46,1,305,404,0,140459.0
09:24:55.200,AUTO,-35.3631969,149.1653486,20421,0.05512683466076851,-0.2055702954530716,0.9763365387916565,0.04545415937900543,-0.04732165113091469,0.0011010987218469381,-105,-61,-997,46,-46,1,305,404,0,140459.0
09:24:55.402,AUTO,-35.3631748,149.1653855,20425,0.07054050266742706,-0.183580219745636,0.9734688997268677,0.019798435270786285,0.045556098222732544,-0.00694475369527936,-116,-75,-1013,20,46,-7,346,466,-6,140459.0
09:24:55.604,AUTO,-35.3631669,149.1653988,20439,0.07490728050470352,-0.17641803622245789,0.9728155732154846,0.01131374854594469,0.018961291760206223,-0.003250392386689782,-112,-88,-998,11,20,-3,355,481,-8,140459.0
09:24:55.805,AUTO,-35.3631589,149.1654124,20456,0.0758725181221962,-0.17555445432662964,0.973274290561676,0.004549709614366293,0.0002451135660521686,0.004574134945869446,-118,-71,-991,5,1,4,363,495,-8,140459.0
09:24:56.007,AUTO,-35.3631507,149.1654265,20472,0.07638398557901382,-0.17112505435943604,0.9727603793144226,-0.007102689240127802,0.024235494434833527,0.007909826934337616,-132,-65,-998,-6,25,7,369,508,-8,140459.0
09:24:56.209,AUTO,-35.3631507,149.1654265,20472,0.07638398557901382,-0.17112505435943604,0.9727603793144226,-0.007102689240127802,0.024235494434833527,0.007909826934337616,-132,-65,-998,-6,25,7,369,508,-8,140459.0
09:24:56.411,AUTO,-35.3631422,149.1654409,20490,0.07789117097854614,-0.1640084832906723,0.9724311232566833,0.008284886367619038,0.029826119542121887,-0.002748513361439109,-124,-79,-992,8,30,-2,377,518,-9,140459.0
09:24:56.613,AUTO,-35.3631337,149.1654555,20509,0.07913526147603989,-0.15656130015850067,0.9715185761451721,-0.013119823299348354,0.03905421122908592,0.00021578649466391653,-138,-80,-999,-12,39,0,382,528,-9,140459.0
09:24:56.815,AUTO,-35.3631337,149.1654555,20509,0.07913526147603989,-0.15656130015850067,0.9715185761451721,-0.013119823299348354,0.03905421122908592,0.00021578649466391653,-138,-80,-999,-12,39,0,382,528,-9,140459.0
09:24:57.017,AUTO,-35.3631337,149.1654555,20509,0.07913526147603989,-0.15656130015850067,0.9715185761451721,-0.013119823299348354,0.03905421122908592,0.00021578649466391653,-138,-80,-999,-12,39,0,382,528,-9,140459.0
09:24:57.219,AUTO,-35.3631337,149.1654555,20509,0.07913526147603989,-0.15656130015850067,0.9715185761451721,-0.013119823299348354,0.03905421122908592,0.00021578649466391653,-138,-80,-999,-12,39,0,382,528,-9,140459.0
09:24:57.422,AUTO,-35.3631075,149.1655006,20563,0.08324887603521347,-0.1448562890291214,0.9704082012176514,0.03485780954360962,0.04811377450823784,-0.024509016424417496,-127,-78,-989,35,49,-24,393,548,-7,140459.0
09:24:57.623,AUTO,-35.3630987,149.1655159,20579,0.08246830105781555,-0.13475219905376434,0.9703801274299622,-0.05365274101495743,0.02990841493010521,0.00946105271577835,-135,-88,-995,-53,30,9,395,552,-7,140459.0
09:24:57.825,AUTO,-35.3630898,149.1655313,20597,0.08074862509965897,-0.1286855787038803,0.9704253077507019,-0.011965061537921429,0.00821442436426878,0.003789398353546858,-132,-83,-987,-11,9,3,395,554,-7,233116.0
09:24:58.027,AUTO,-35.3630808,149.1655469,20616,0.08301878720521927,-0.12520679831504822,0.9696380496025085,0.04368849843740463,0.01573316380381584,0.0004449001280590892,-142,-74,-983,43,16,0,395,552,-7,233116.0
09:24:58.229,AUTO,-35.3630808,149.1655469,20616,0.08301878720521927,-0.12520679831504822,0.9696380496025085,0.04368849843740463,0.01573316380381584,0.0004449001280590892,-142,-74,-983,43,16,0,395,552,-7,233116.0
09:24:58.431,AUTO,-35.3630719,149.1655624,20631,0.08265034854412079,-0.11607201397418976,0.9696301817893982,-0.040487293154001236,0.04085186496376991,0.00971148069947958,-126,-87,-989,-40,41,9,395,552,-7,233116.0
09:24:58.633,AUTO,-35.363063,149.1655777,20645,0.08598583191633224,-0.11785175651311874,0.9688612222671509,0.025459369644522667,-0.03074369579553604,0.004558152053505182,-130,-74,-971,25,-29,4,395,549,-5,233116.0
09:24:58.835,AUTO,-35.363063,149.1655777,20645,0.08598583191633224,-0.11785175651311874,0.9688612222671509,0.025459369644522667,-0.03074369579553604,0.004558152053505182,-130,-74,-971,25,-29,4,395,549,-5,233116.0
09:24:59.036,AUTO,-35.363063,149.1655777,20645,0.08598583191633224,-0.11785175651311874,0.9688612222671509,0.025459369644522667,-0.03074369579553604,0.004558152053505182,-130,-74,-971,25,-29,4,395,549,-5,233116.0
09:24:59.238,AUTO,-35.363063,149.1655777,20645,0.08598583191633224,-0.11785175651311874,0.9688612222671509,0.025459369644522667,-0.03074369579553604,0.004558152053505182,-130,-74,-971,25,-29,4,395,549,-5,233116.0
09:24:59.440,AUTO,-35.3630366,149.1656234,20641,0.08374254405498505,-0.13446767628192902,0.9671593904495239,-0.03076382353901863,-0.016285987570881844,0.006553834769874811,-125,-81,-983,-30,-15,6,394,553,1,233116.0
09:24:59.642,AUTO,-35.3630278,149.1656388,20633,0.08120931684970856,-0.13426047563552856,0.9672869443893433,-0.02402428165078163,-0.003806732129305601,-0.001625752542167902,-140,-76,-995,-23,-2,-2,395,555,2,233116.0
09:24:59.843,AUTO,-35.3630189,149.1656542,20626,0.08150690048933029,-0.1321343034505844,0.9674698710441589,-0.024589385837316513,0.0005243003251962364,-0.0019613183103501797,-128,-55,-983,-24,1,-2,397,557,1,233116.0
09:25:00.045,AUTO,-35.36301,149.1656696,20622,0.08127359300851822,-0.12906485795974731,0.9672847390174866,-0.010172423906624317,0.020994512364268303,0.005991056561470032,-134,-73,-990,-9,22,5,398,558,0,233116.0
09:25:00.247,AUTO,-35.363001,149.1656851,20624,0.08267886191606522,-0.11517245322465897,0.9679633378982544,0.04115402325987816,0.0647430419921875,0.0004772944957949221,-152,-78,-1013,41,65,0,398,557,-3,233116.0
09:25:00.449,AUTO,-35.363001,149.1656851,20624,0.08267886191606522,-0.11517245322465897,0.9679633378982544,0.04115402325987816,0.0647430419921875,0.0004772944957949221,-152,-78,-1013,41,65,0,398,557,-3,233116.0
09:25:00.651,AUTO,-35.362992,149.1657005,20637,0.08536587655544281,-0.09176462143659592,0.9678331017494202,-0.03450388088822365,0.0929361954331398,-0.005621758755296469,-130,-89,-1009,-34,94,-5,396,553,-7,233116.0
09:25:00.856,AUTO,-35.362992,149.1657005,20637,0.08536587655544281,-0.09176462143659592,0.9678331017494202,-0.03450388088822365,0.0929361954331398,-0.005621758755296469,-130,-89,-1009,-34,94,-5,396,553,-7,208546.0
09:25:01.060,AUTO,-35.362992,149.1657005,20637,0.08536587655544281,-0.09176462143659592,0.9678331017494202,-0.03450388088822365,0.0929361954331398,-0.005621758755296469,-130,-89,-1009,-34,94,-5,396,553,-7,208546.0
09:25:01.272,AUTO,-35.3629658,149.1657452,20714,0.09089668095111847,-0.05582483857870102,0.9685355424880981,-0.06766439974308014,0.04273591935634613,0.007706174626946449,-124,-72,-985,-67,43,7,372,524,-7,208546.0
09:25:01.474,AUTO,-35.3629658,149.1657452,20714,0.09089668095111847,-0.05582483857870102,0.9685355424880981,-0.06766439974308014,0.04273591935634613,0.007706174626946449,-124,-72,-985,-67,43,7,372,524,-7,208546.0
09:25:01.676,AUTO,-35.3629574,149.1657595,20736,0.08899614959955215,-0.0438968800008297,0.9687315821647644,0.010987538844347,0.06682346761226654,-0.006621319800615311,-118,-76,-986,11,67,-6,362,511,-6,208546.0
09:25:01.878,AUTO,-35.3629494,149.1657734,20754,0.08962341398000717,-0.03199774771928787,0.9685245752334595,0.04507880657911301,0.03478765860199928,-0.00714506208896637,-127,-72,-989,45,35,-7,350,496,-5,208546.0
09:25:02.079,AUTO,-35.3629416,149.1657868,20769,0.08662866055965424,-0.021723825484514236,0.9686176776885986,-0.0712323859333992,0.05060138180851936,-0.0009357287781313062,-118,-86,-989,-71,51,-1,338,479,-3,208546.0
09:25:02.281,AUTO,-35.362934,149.1657998,20781,0.0877174362540245,-0.006833737716078758,0.9688223004341125,0.008406559936702251,0.059902116656303406,-0.005758774932473898,-112,-77,-993,8,60,-6,325,462,-2,208546.0
09:25:02.483,AUTO,-35.362934,149.1657998,20781,0.0877174362540245,-0.006833737716078758,0.9688223004341125,0.008406559936702251,0.059902116656303406,-0.005758774932473898,-112,-77,-993,8,60,-6,325,462,-2,208546.0
09:25:02.685,AUTO,-35.3629267,149.1658126,20789,0.08366319537162781,0.0083380788564682,0.9690887331962585,0.09991204738616943,0.05123971775174141,-0.006267520599067211,-103,-71,-994,100,52,-6,309,444,0,208546.0
09:25:02.887,AUTO,-35.3629267,149.1658126,20789,0.08366319537162781,0.0083380788564682,0.9690887331962585,0.09991204738616943,0.05123971775174141,-0.006267520599067211,-103,-71,-994,100,52,-6,309,444,0,208546.0
09:25:03.089,AUTO,-35.3629267,149.1658126,20789,0.08366319537162781,0.0083380788564682,0.9690887331962585,0.09991204738616943,0.05123971775174141,-0.006267520599067211,-103,-71,-994,100,52,-6,309,444,0,208546.0
09:25:03.292,AUTO,-35.3629073,149.1658464,20785,0.0767275020480156,0.041400134563446045,0.9693976640701294,0.7309935688972473,0.04993646591901779,-0.036164648830890656,-94,-23,-1002,732,51,-36,259,375,6,208546.0
09:25:03.493,AUTO,-35.3629073,149.1658464,20785,0.0767275020480156,0.041400134563446045,0.9693976640701294,0.7309935688972473,0.04993646591901779,-0.036164648830890656,-94,-23,-1002,732,51,-36,259,375,6,208546.0
09:25:03.695,AUTO,-35.3629016,149.1658564,20774,0.07989688962697983,0.054688021540641785,0.9700128436088562,0.5883556604385376,0.06179117038846016,-0.007160153705626726,-82,-55,-1004,588,62,-7,242,350,6,208546.0
09:25:03.897,AUTO,-35.3628962,149.1658657,20762,0.06952999532222748,0.0628291666507721,0.9706341624259949,-0.35731232166290283,0.01016568299382925,0.031063277274370193,-69,-94,-993,-358,11,30,223,324,6,134732.0
09:25:04.100,AUTO,-35.3628913,149.1658743,20750,0.052943646907806396,0.06104400008916855,0.9700207710266113,-0.8386742472648621,-0.012540590949356556,0.021695109084248543,-74,-88,-1002,-838,-11,21,204,299,6,134732.0
09:25:04.302,AUTO,-35.3628868,149.1658823,20734,0.05083148926496506,0.06002284586429596,0.9699234962463379,-0.29459017515182495,0.002014775760471821,-0.014864492230117321,-66,-46,-1003,-293,3,-15,186,276,9,134732.0
09:25:04.504,AUTO,-35.3628827,149.1658896,20721,0.057812225073575974,0.06104760989546776,0.9692363739013672,0.5884714126586914,0.007386802230030298,-0.029988739639520645,-60,-7,-1016,590,8,-30,169,253,6,134732.0
09:25:04.705,AUTO,-35.3628827,149.1658896,20721,0.057812225073575974,0.06104760989546776,0.9692363739013672,0.5884714126586914,0.007386802230030298,-0.029988739639520645,-60,-7,-1016,590,8,-30,169,253,6,134732.0
09:25:04.907,AUTO,-35.3628827,149.1658896,20721,0.057812225073575974,0.06104760989546776,0.9692363739013672,0.5884714126586914,0.007386802230030298,-0.029988739639520645,-60,-7,-1016,590,8,-30,169,253,6,134732.0
09:25:05.109,AUTO,-35.3628827,149.1658896,20721,0.057812225073575974,0.06104760989546776,0.9692363739013672,0.5884714126586914,0.007386802230030298,-0.029988739639520645,-60,-7,-1016,590,8,-30,169,253,6,134732.0
09:25:05.312,AUTO,-35.3628727,149.1659078,20696,0.028608310967683792,0.07589909434318542,0.9676885604858398,-0.7399786710739136,0.021158190444111824,0.019210051745176315,-47,-67,-1002,-740,22,19,122,185,3,134732.0
09:25:05.513,AUTO,-35.36287,149.1659128,20692,0.027014363557100296,0.08266742527484894,0.9673724174499512,-0.0022653406485915184,0.03569168969988823,-0.005447616800665855,-36,-10,-1009,-1,36,-5,106,162,2,134732.0
09:25:05.715,AUTO,-35.36287,149.1659128,20692,0.027014363557100296,0.08266742527484894,0.9673724174499512,-0.0022653406485915184,0.03569168969988823,-0.005447616800665855,-36,-10,-1009,-1,36,-5,106,162,2,134732.0
09:25:05.917,AUTO,-35.3628677,149.165917,20689,0.03379245102405548,0.09267228096723557,0.9677043557167053,0.6155423521995544,0.020969511941075325,-0.0157523974776268,-30,7,-1022,616,22,-15,90,140,2,134732.0
09:25:06.119,AUTO,-35.3628658,149.1659206,20689,0.03134002536535263,0.09096809476613998,0.9674793481826782,0.28579947352409363,-0.02762666903436184,0.005722762551158667,-26,-25,-1001,285,-26,5,76,116,1,134732.0
09:25:06.321,AUTO,-35.3628643,149.1659236,20688,0.012651355937123299,0.08121884614229202,0.9665454626083374,-0.627210795879364,-0.03984489664435387,0.010166371241211891,-22,-51,-1001,-627,-38,9,62,95,2,134732.0
09:25:06.523,AUTO,-35.362863,149.1659261,20686,0.004029928240925074,0.07296399027109146,0.9659389853477478,-0.38616055250167847,-0.02592734806239605,-0.002363881329074502,-17,-15,-995,-385,-25,-2,50,78,2,134732.0
09:25:06.726,AUTO,-35.362863,149.1659261,20686,0.004029928240925074,0.07296399027109146,0.9659389853477478,-0.38616055250167847,-0.02592734806239605,-0.002363881329074502,-17,-15,-995,-385,-25,-2,50,78,2,134732.0
09:25:06.929,AUTO,-35.362863,149.1659261,20686,0.004029928240925074,0.07296399027109146,0.9659389853477478,-0.38616055250167847,-0.02592734806239605,-0.002363881329074502,-17,-15,-995,-385,-25,-2,50,78,2,125445.0
09:25:07.131,AUTO,-35.362863,149.1659261,20686,0.004029928240925074,0.07296399027109146,0.9659389853477478,-0.38616055250167847,-0.02592734806239605,-0.002363881329074502,-17,-15,-995,-385,-25,-2,50,78,2,125445.0
09:25:07.333,AUTO,-35.3628606,149.165931,20684,0.0031118448823690414,0.05658162757754326,0.9654735922813416,-0.23322880268096924,-0.015511086210608482,0.0038265902549028397,-10,-31,-994,-233,-14,3,25,33,2,125445.0
09:25:07.535,AUTO,-35.3628601,149.1659319,20683,-0.006815772037953138,0.05146941542625427,0.9650169014930725,-0.6847847700119019,-0.017753474414348602,-0.0007838353049010038,-8,-32,-999,-684,-16,0,19,22,1,125445.0
09:25:07.736,AUTO,-35.3628601,149.1659319,20683,-0.006815772037953138,0.05146941542625427,0.9650169014930725,-0.6847847700119019,-0.017753474414348602,-0.0007838353049010038,-8,-32,-999,-684,-16,0,19,22,1,125445.0
09:25:07.938,AUTO,-35.3628597,149.1659325,20681,-0.003513476112857461,0.04648854583501816,0.9644163250923157,-0.20284231007099152,-0.021140584722161293,-0.003838233882561326,-5,5,-1009,-201,-19,-3,13,13,2,125445.0
09:25:08.140,AUTO,-35.3628594,149.1659328,20681,0.008714208379387856,0.04040244594216347,0.9642857313156128,0.5815878510475159,-0.02371196821331978,0.0018989610252901912,-4,26,-1011,582,-22,1,8,4,1,125445.0
09:25:08.341,AUTO,-35.3628593,149.1659329,20682,0.00619144644588232,0.03389277681708336,0.9643359780311584,0.1843758076429367,-0.02359485998749733,0.005700733046978712,-1,-6,-986,183,-22,5,4,-1,1,125445.0
09:25:08.543,AUTO,-35.3628591,149.1659329,20682,-0.006858882959932089,0.02786046266555786,0.9646677374839783,-0.6280205249786377,-0.026801500469446182,-0.0006533616106025875,-2,-22,-1004,-628,-25,0,1,-6,1,125445.0
09:25:08.745,AUTO,-35.3628591,149.1659329,20682,-0.006858882959932089,0.02786046266555786,0.9646677374839783,-0.6280205249786377,-0.026801500469446182,-0.0006533616106025875,-2,-22,-1004,-628,-25,0,1,-6,1,125445.0
09:25:08.947,AUTO,-35.3628591,149.1659329,20682,-0.006858882959932089,0.02786046266555786,0.9646677374839783,-0.6280205249786377,-0.026801500469446182,-0.0006533616106025875,-2,-22,-1004,-628,-25,0,1,-6,1,125445.0
09:25:09.149,AUTO,-35.3628591,149.1659329,20682,-0.006858882959932089,0.02786046266555786,0.9646677374839783,-0.6280205249786377,-0.026801500469446182,-0.0006533616106025875,-2,-22,-1004,-628,-25,0,1,-6,1,125445.0
09:25:09.351,AUTO,-35.3628589,149.1659322,20687,0.01334139984101057,0.005773475393652916,0.9625125527381897,0.053415533155202866,-0.030229758471250534,0.006786894518882036,0,-11,-993,52,-29,6,-1,-11,0,125445.0
09:25:09.552,AUTO,-35.3628587,149.1659319,20687,0.0020557024981826544,-0.001062768162228167,0.9622051119804382,-0.6057901382446289,-0.016221659258008003,0.0035811513662338257,-1,-28,-996,-605,-15,3,-1,-9,1,125445.0
09:25:09.754,RTL,-35.3628587,149.1659319,20687,0.0020557024981826544,-0.001062768162228167,0.9622051119804382,-0.6057901382446289,-0.016221659258008003,0.0035811513662338257,-1,-28,-996,-605,-15,3,-1,-9,1,125445.0
09:25:09.956,RTL,-35.3628586,149.1659316,20688,0.006660618353635073,-0.00019007026276085526,0.9622708559036255,-0.03073912113904953,0.002253354527056217,0.012206517159938812,-2,17,-993,-29,3,12,-2,-6,0,205500.0
09:25:10.157,RTL,-35.3628584,149.1659314,20688,0.021822204813361168,0.004314519464969635,0.9621430039405823,0.6197991967201233,0.02363441325724125,0.006139490287750959,-2,31,-1010,620,25,6,-2,-4,0,205500.0
09:25:10.359,RTL,-35.3628583,149.1659313,20690,0.017208484932780266,0.007377192378044128,0.9618645906448364,-0.14404943585395813,0.00874379463493824,0.004461863078176975,-2,-18,-1008,-144,10,4,-2,-3,-1,205500.0
09:25:10.561,RTL,-35.362858,149.1659311,20699,0.010191892273724079,0.008334764279425144,0.9616758227348328,-0.5333799719810486,0.003499035257846117,0.005029221065342426,-1,-13,-1017,-532,4,5,-4,-2,-5,205500.0
09:25:10.766,RTL,-35.362858,149.1659311,20699,0.010191892273724079,0.008334764279425144,0.9616758227348328,-0.5333799719810486,0.003499035257846117,0.005029221065342426,-1,-13,-1017,-532,4,5,-4,-2,-5,205500.0
09:25:10.968,RTL,-35.362858,149.1659311,20699,0.010191892273724079,0.008334764279425144,0.9616758227348328,-0.5333799719810486,0.003499035257846117,0.005029221065342426,-1,-13,-1017,-532,4,5,-4,-2,-5,205500.0
09:25:11.169,RTL,-35.362858,149.1659311,20699,0.010191892273724079,0.008334764279425144,0.9616758227348328,-0.5333799719810486,0.003499035257846117,0.005029221065342426,-1,-13,-1017,-532,4,5,-4,-2,-5,205500.0
09:25:11.371,RTL,-35.3628577,149.1659308,20813,0.0170449111610651,0.010903521440923214,0.9597348570823669,-0.2901134788990021,0.0030447798781096935,0.007288132794201374,0,-20,-1028,-289,4,7,-8,0,-25,205500.0
09:25:11.573,RTL,-35.3628575,149.1659307,20893,0.013715952634811401,0.011724758893251419,0.9597707986831665,-0.24908101558685303,0.0021214429289102554,0.006895486731082201,0,-2,-1044,-247,3,7,-10,1,-36,205500.0
09:25:11.775,RTL,-35.3628574,149.1659307,21001,0.017294922843575478,0.012295401655137539,0.9594863057136536,0.27423644065856934,0.005760170519351959,0.007221785839647055,0,14,-1050,275,7,7,-12,1,-48,205500.0
09:25:11.977,RTL,-35.3628574,149.1659307,21001,0.017294922843575478,0.012295401655137539,0.9594863057136536,0.27423644065856934,0.005760170519351959,0.007221785839647055,0,14,-1050,275,7,7,-12,1,-48,205500.0
09:25:12.179,RTL,-35.3628574,149.1659307,21140,0.01569335162639618,0.012430851347744465,0.959393322467804,0.010942457243800163,-0.0012795425718650222,0.005765402689576149,0,-6,-1045,11,0,6,-12,1,-60,205500.0
09:25:12.381,RTL,-35.3628574,149.1659307,21307,0.011539323255419731,0.0124748470261693,0.9592087864875793,-0.13634143769741058,0.0023010061122477055,0.006715261377394199,0,-4,-1043,-135,3,7,-13,2,-71,205500.0
09:25:12.583,RTL,-35.3628574,149.1659307,21503,0.012383163906633854,0.012193962931632996,0.959170401096344,0.0637967437505722,-0.00027745310217142105,0.006158280186355114,0,4,-1044,64,1,6,-14,2,-82,205500.0
09:25:12.785,RTL,-35.3628574,149.1659307,21503,0.012383163906633854,0.012193962931632996,0.959170401096344,0.0637967437505722,-0.00027745310217142105,0.006158280186355114,0,4,-1044,64,1,6,-14,2,-82,205500.0
09:25:12.988,RTL,-35.3628574,149.1659307,21503,0.012383163906633854,0.012193962931632996,0.959170401096344,0.0637967437505722,-0.00027745310217142105,0.006158280186355114,0,4,-1044,64,1,6,-14,2,-82,26594.0
09:25:13.189,RTL,-35.3628574,149.1659307,21503,0.012383163906633854,0.012193962931632996,0.959170401096344,0.0637967437505722,-0.00027745310217142105,0.006158280186355114,0,4,-1044,64,1,6,-14,2,-82,26594.0
09:25:13.392,RTL,-35.3628575,149.1659307,22247,0.010371129959821701,0.011998442001640797,0.9588414430618286,0.003615142311900854,0.0008851659949868917,0.00485890731215477,0,0,-1043,4,2,5,-14,2,-113,26594.0
09:25:13.594,RTL,-35.3628575,149.1659307,22550,0.00989212840795517,0.011837081983685493,0.9588595032691956,-0.0020351067651063204,-0.000954630842898041,0.003973776940256357,0,0,-1043,0,0,4,-14,2,-124,26594.0
09:25:13.797,RTL,-35.3628575,149.1659307,22881,0.008832375518977642,0.01151266973465681,0.9588395953178406,-0.007005884777754545,-0.0035595560912042856,0.003292293753474951,0,0,-1042,-5,-2,3,-14,2,-134,26594.0
09:25:13.999,RTL,-35.3628575,149.1659307,22881,0.008832375518977642,0.01151266973465681,0.9588395953178406,-0.007005884777754545,-0.0035595560912042856,0.003292293753474951,0,0,-1042,-5,-2,3,-14,2,-134,26594.0
09:25:14.201,RTL,-35.3628576,149.1659307,23237,0.01362768653780222,0.01070426031947136,0.9583821296691895,0.04213648661971092,-0.006744846701622009,0.0024235283490270376,1,0,-1026,43,-5,2,-13,2,-143,26594.0
09:25:14.403,RTL,-35.3628577,149.1659307,23610,0.024618688970804214,0.008245091885328293,0.9581477642059326,0.04645413160324097,-0.010058905929327011,0.0030450623016804457,0,0,-1011,47,-8,3,-15,4,-147,26594.0
09:25:14.605,RTL,-35.3628578,149.1659308,23994,0.03570738807320595,0.005363596137613058,0.958126962184906,0.04448741674423218,-0.011395293287932873,0.003479122184216976,1,-1,-1004,45,-9,4,-18,8,-149,26594.0
09:25:14.806,RTL,-35.3628578,149.1659308,23994,0.03570738807320595,0.005363596137613058,0.958126962184906,0.04448741674423218,-0.011395293287932873,0.003479122184216976,1,-1,-1004,45,-9,4,-18,8,-149,26594.0
09:25:15.008,RTL,-35.3628578,149.1659308,23994,0.03570738807320595,0.005363596137613058,0.958126962184906,0.04448741674423218,-0.011395293287932873,0.003479122184216976,1,-1,-1004,45,-9,4,-18,8,-149,26594.0
09:25:15.210,RTL,-35.3628578,149.1659308,23994,0.03570738807320595,0.005363596137613058,0.958126962184906,0.04448741674423218,-0.011395293287932873,0.003479122184216976,1,-1,-1004,45,-9,4,-18,8,-149,26594.0
09:25:15.412,RTL,-35.362859,149.1659322,25143,0.06481428444385529,-0.005029239226132631,0.9582081437110901,0.033720627427101135,-0.015408978797495365,-0.0077419765293598175,2,-6,-998,34,-13,-6,-36,32,-149,26594.0
09:25:15.613,RTL,-35.3628597,149.1659331,25524,0.04932612180709839,0.0133817782625556,0.9365599155426025,-0.09896644949913025,0.11874419450759888,-0.1294230818748474,1,-9,-993,-97,120,-128,-43,40,-147,26594.0
