time_stamp,MODE,lat,lon,relative_alt,roll,pitch,yaw,rollspeed,pitchspeed,yawspeed,xacc,yacc,zacc,xgyro,ygyro,zgyro,vx,vy,vz,RTL_ALT
07:47:12.070,STABILIZE,-35.3632622,149.1652375,0,-0.0001674360246397555,0.0014575398527085781,0.0267933402210474,0.00016816207789815962,0.0003566611267160624,0.0020224114414304495,0,1,-1000,0,0,0,-2,2,0,1500.0
07:47:12.271,STABILIZE,-35.3632622,149.1652375,0,-0.0001674360246397555,0.0014575398527085781,0.0267933402210474,0.00016816207789815962,0.0003566611267160624,0.0020224114414304495,0,1,-1000,0,0,0,-2,2,0,1500.0
07:47:12.472,STABILIZE,-35.3632622,149.1652375,0,-0.0005349359707906842,0.0012409109622240067,0.026259757578372955,0.0002706005470827222,0.00021561351604759693,0.0020889630541205406,0,1,-1000,0,0,0,-2,2,0,1500.0
07:47:12.672,STABILIZE,-35.3632622,149.1652375,0,-0.0006064596818760037,0.0012001522118225694,0.026128225028514862,0.00016461755149066448,0.0003323282580822706,0.0021046344190835953,0,1,-1000,0,0,0,-1,1,0,1500.0
07:47:12.874,STABILIZE,-35.3632622,149.1652375,0,-0.0006064596818760037,0.0012001522118225694,0.026128225028514862,0.00016461755149066448,0.0003323282580822706,0.0021046344190835953,0,1,-1000,0,0,0,-1,1,0,1500.0
07:47:13.075,STABILIZE,-35.3632622,149.1652375,0,-0.0006866317708045244,0.0011496467050164938,0.026007046923041344,0.00016803358448669314,0.00022313895169645548,0.001957059372216463,0,1,-1000,1,0,0,-1,1,0,1500.0
07:47:13.276,STABILIZE,-35.3632622,149.1652375,0,-0.000745681521948427,0.0011105274315923452,0.02591654844582081,0.00013650424079969525,0.00035581065458245575,0.0021463213488459587,0,1,-1000,0,0,0,-1,1,0,1500.0
07:47:13.478,STABILIZE,-35.3632622,149.1652375,0,-0.0007994231418706477,0.0010865270160138607,0.025804515928030014,0.00015916081611067057,0.0002559327695053071,0.0021092810202389956,0,1,-1000,0,0,0,-1,1,0,1500.0
07:47:13.679,STABILIZE,-35.3632622,149.1652375,0,-0.0007994231418706477,0.0010865270160138607,0.025804515928030014,0.00015916081611067057,0.0002559327695053071,0.0021092810202389956,0,1,-1000,0,0,0,-1,1,0,1500.0
07:47:13.888,STABILIZE,-35.3632622,149.1652375,0,-0.0007994231418706477,0.0010865270160138607,0.025804515928030014,0.00015916081611067057,0.0002559327695053071,0.0021092810202389956,0,1,-1000,0,0,0,-1,1,0,1500.0
07:47:14.093,STABILIZE,-35.3632622,149.1652375,0,-0.0007994231418706477,0.0010865270160138607,0.025804515928030014,0.00015916081611067057,0.0002559327695053071,0.0021092810202389956,0,1,-1000,0,0,0,-1,1,0,1500.0
07:47:14.296,STABILIZE,-35.3632622,149.1652375,0,-0.0007994231418706477,0.0010865270160138607,0.025804515928030014,0.00015916081611067057,0.0002559327695053071,0.0021092810202389956,0,1,-1000,0,0,0,-1,1,0,1500.0
07:47:14.497,STABILIZE,-35.3632622,149.1652375,0,-0.0006912954268045723,0.0010021273046731949,0.025394419208168983,6.2533188611269e-05,0.00028140968061052263,0.0020066320430487394,0,1,-1000,0,0,0,-1,3,2,1500.0
07:47:14.698,STABILIZE,-35.3632622,149.1652375,0,-0.0006912954268045723,0.0010021273046731949,0.025394419208168983,6.2533188611269e-05,0.00028140968061052263,0.0020066320430487394,0,1,-1000,0,0,0,-1,3,2,1500.0
07:47:14.900,STABILIZE,-35.3632621,149.1652375,0,-0.0006912954268045723,0.0010021273046731949,0.025394419208168983,6.2533188611269e-05,0.00028140968061052263,0.0020066320430487394,0,1,-1000,1,0,0,-1,2,2,1500.0
07:47:15.102,STABILIZE,-35.3632621,149.1652375,0,-0.0006912954268045723,0.0010021273046731949,0.025394419208168983,6.2533188611269e-05,0.00028140968061052263,0.0020066320430487394,0,1,-1000,1,0,0,-1,2,2,1500.0
07:47:15.303,STABILIZE,-35.3632621,149.1652375,0,-0.0006912954268045723,0.0010021273046731949,0.025394419208168983,6.2533188611269e-05,0.00028140968061052263,0.0020066320430487394,0,1,-1000,1,0,0,-1,2,2,1500.0
07:47:15.504,STABILIZE,-35.3632621,149.1652375,0,-0.0006912954268045723,0.0010021273046731949,0.025394419208168983,6.2533188611269e-05,0.00028140968061052263,0.0020066320430487394,0,1,-1000,0,0,0,-1,1,1,1500.0
07:47:15.706,STABILIZE,-35.3632621,149.1652375,0,-0.0006912954268045723,0.0010021273046731949,0.025394419208168983,6.2533188611269e-05,0.00028140968061052263,0.0020066320430487394,0,1,-1000,0,0,0,-1,1,1,1500.0
07:47:15.907,STABILIZE,-35.3632621,149.1652375,0,-0.0006912954268045723,0.0010021273046731949,0.025394419208168983,6.2533188611269e-05,0.00028140968061052263,0.0020066320430487394,0,1,-1000,0,0,0,-1,1,1,1500.0
07:47:16.109,STABILIZE,-35.3632621,149.1652375,0,-0.0006912954268045723,0.0010021273046731949,0.025394419208168983,6.2533188611269e-05,0.00028140968061052263,0.0020066320430487394,0,1,-1000,0,0,0,-1,1,1,1500.0
07:47:16.310,STABILIZE,-35.3632621,149.1652375,0,-0.0006912954268045723,0.0010021273046731949,0.025394419208168983,6.2533188611269e-05,0.00028140968061052263,0.0020066320430487394,0,1,-1000,0,0,0,-1,1,1,1500.0
07:47:16.511,STABILIZE,-35.3632621,149.1652375,0,-0.001259094919078052,0.0009473728132434189,0.024710098281502724,0.00012317253276705742,0.00021666957763954997,0.0019078577170148492,0,1,-1000,0,1,0,-1,1,0,1500.0
07:47:16.713,STABILIZE,-35.3632621,149.1652375,0,-0.001259094919078052,0.0009473728132434189,0.024710098281502724,0.00012317253276705742,0.00021666957763954997,0.0019078577170148492,0,1,-1000,0,1,0,-1,1,0,1500.0
07:47:16.914,STABILIZE,-35.3632621,149.1652375,0,-0.0013194690691307187,0.0009388750186190009,0.02456241473555565,8.949782932177186e-05,0.00019542744848877192,0.0018960468005388975,0,2,-1000,0,1,0,-1,0,0,1500.0
07:47:17.115,STABILIZE,-35.3632621,149.1652375,0,-0.0013194690691307187,0.0009388750186190009,0.02456241473555565,8.949782932177186e-05,0.00019542744848877192,0.0018960468005388975,0,2,-1000,0,1,0,-1,0,0,1500.0
07:47:17.316,STABILIZE,-35.3632621,149.1652375,0,-0.0013194690691307187,0.0009388750186190009,0.02456241473555565,8.949782932177186e-05,0.00019542744848877192,0.0018960468005388975,0,2,-1000,1,0,0,-1,0,0,1500.0
07:47:17.518,STABILIZE,-35.3632621,149.1652375,0,-0.0013194690691307187,0.0009388750186190009,0.02456241473555565,8.949782932177186e-05,0.00019542744848877192,0.0018960468005388975,0,2,-1000,1,0,0,-1,0,0,1500.0
07:47:17.719,STABILIZE,-35.3632621,149.1652375,0,-0.001341982395388186,0.0009437512489967048,0.024369975551962852,0.0002331801224499941,0.00030811165925115347,0.0018056300468742847,0,1,-1000,0,0,0,-1,-2,-4,1500.0
07:47:17.920,STABILIZE,-35.3632621,149.1652375,0,-0.001341982395388186,0.0009437512489967048,0.024369975551962852,0.0002331801224499941,0.00030811165925115347,0.0018056300468742847,0,1,-1000,0,0,0,-1,-2,-4,1500.0
07:47:18.122,STABILIZE,-35.3632621,149.1652375,0,-0.001341982395388186,0.0009437512489967048,0.024369975551962852,0.0002331801224499941,0.00030811165925115347,0.0018056300468742847,0,1,-1000,0,0,0,-1,-2,-4,1500.0
07:47:18.324,STABILIZE,-35.3632621,149.1652375,0,-0.001341982395388186,0.0009437512489967048,0.024369975551962852,0.0002331801224499941,0.00030811165925115347,0.0018056300468742847,0,1,-1000,0,0,0,-1,-2,-4,1500.0
07:47:18.525,STABILIZE,-35.3632621,149.1652374,0,-0.0010733552044257522,0.0009372711647301912,0.02420368231832981,0.0003243119572289288,0.00021933892276138067,0.0017521185800433159,0,1,-1000,1,0,0,-1,-1,-3,1500.0
07:47:18.727,STABILIZE,-35.3632621,149.1652374,0,-0.0009883090388029814,0.0009407888865098357,0.024125536903738976,0.00034272990887984633,0.0002922824351117015,0.0017414987087249756,0,1,-1000,1,0,0,-1,-1,-3,1500.0
07:47:18.929,STABILIZE,-35.3632621,149.1652374,0,-0.0009883090388029814,0.0009407888865098357,0.024125536903738976,0.00034272990887984633,0.0002922824351117015,0.0017414987087249756,0,1,-1000,1,0,0,-1,-1,-3,1500.0
07:47:19.131,STABILIZE,-35.3632621,149.1652374,0,-0.0008375729084946215,0.0009407859179191291,0.024001389741897583,0.0003987948293797672,0.0002162755699828267,0.0017855209298431873,0,1,-1000,0,0,0,-1,0,-3,1500.0
07:47:19.333,STABILIZE,-35.3632621,149.1652374,0,-0.0008375729084946215,0.0009407859179191291,0.024001389741897583,0.0003987948293797672,0.0002162755699828267,0.0017855209298431873,0,1,-1000,0,0,0,-1,0,-3,1500.0
07:47:19.534,STABILIZE,-35.3632621,149.1652374,0,-0.0008375729084946215,0.0009407859179191291,0.024001389741897583,0.0003987948293797672,0.0002162755699828267,0.0017855209298431873,0,1,-1000,0,0,0,-1,0,-3,1500.0
07:47:19.735,STABILIZE,-35.3632621,149.1652374,0,-0.0008375729084946215,0.0009407859179191291,0.024001389741897583,0.0003987948293797672,0.0002162755699828267,0.0017855209298431873,0,1,-1000,0,0,0,-1,0,-3,1500.0
07:47:19.937,STABILIZE,-35.3632621,149.1652374,0,-0.0008375729084946215,0.0009407859179191291,0.024001389741897583,0.0003987948293797672,0.0002162755699828267,0.0017855209298431873,0,1,-1000,0,0,0,-1,0,-3,1500.0
07:47:20.139,STABILIZE,-35.3632621,149.1652374,0,-0.0008375729084946215,0.0009407859179191291,0.024001389741897583,0.0003987948293797672,0.0002162755699828267,0.0017855209298431873,0,1,-1000,0,0,0,-1,0,-3,1500.0
07:47:20.340,STABILIZE,-35.3632621,149.1652374,0,-0.0008375729084946215,0.0009407859179191291,0.024001389741897583,0.0003987948293797672,0.0002162755699828267,0.0017855209298431873,0,1,-1000,0,0,0,-1,0,-3,1500.0
07:47:20.543,STABILIZE,-35.3632622,149.1652375,0,-0.0006657742778770626,0.0009560673497617245,0.023574426770210266,0.00010517117334529757,0.00028049113461747766,0.0016363762551918626,0,1,-1000,1,0,0,-1,1,-2,1500.0
07:47:20.744,STABILIZE,-35.3632622,149.1652375,0,-0.0006604567752219737,0.0009640710195526481,0.02349948137998581,0.00021109572844579816,0.00030888302717357874,0.0016830877866595984,0,2,-1000,0,0,0,-1,1,-2,1500.0
07:47:20.946,STABILIZE,-35.3632622,149.1652375,0,-0.0006604567752219737,0.0009640710195526481,0.02349948137998581,0.00021109572844579816,0.00030888302717357874,0.0016830877866595984,0,2,-1000,0,0,0,-1,1,-2,1500.0
07:47:21.147,STABILIZE,-35.3632622,149.1652375,0,-0.00019056025485042483,0.000961283512879163,0.023303119465708733,0.00026272761169821024,0.00021155067952349782,0.001650752848945558,0,2,-1000,0,0,0,-1,4,2,1500.0
07:47:21.349,STABILIZE,-35.3632622,149.1652375,0,-0.00019056025485042483,0.000961283512879163,0.023303119465708733,0.00026272761169821024,0.00021155067952349782,0.001650752848945558,0,2,-1000,0,0,0,-1,4,2,1500.0
07:47:21.550,STABILIZE,-35.3632622,149.1652375,0,-0.00019056025485042483,0.000961283512879163,0.023303119465708733,0.00026272761169821024,0.00021155067952349782,0.001650752848945558,0,2,-1000,0,0,0,-1,4,2,1500.0
07:47:21.751,STABILIZE,-35.3632622,149.1652376,0,-0.00019056025485042483,0.000961283512879163,0.023303119465708733,0.00026272761169821024,0.00021155067952349782,0.001650752848945558,0,1,-1000,1,1,0,-1,4,1,1500.0
07:47:21.953,STABILIZE,-35.3632622,149.1652376,0,-0.00019056025485042483,0.000961283512879163,0.023303119465708733,0.00026272761169821024,0.00021155067952349782,0.001650752848945558,0,1,-1000,1,1,0,-1,4,1,1500.0
07:47:22.154,STABILIZE,-35.3632622,149.1652376,0,-0.00019056025485042483,0.000961283512879163,0.023303119465708733,0.00026272761169821024,0.00021155067952349782,0.001650752848945558,0,1,-1000,1,1,0,-1,4,1,1500.0
07:47:22.356,STABILIZE,-35.3632622,149.1652376,0,-0.00019056025485042483,0.000961283512879163,0.023303119465708733,0.00026272761169821024,0.00021155067952349782,0.001650752848945558,0,1,-1000,1,1,0,-1,4,1,1500.0
07:47:22.557,STABILIZE,-35.3632622,149.1652376,0,-0.00019056025485042483,0.000961283512879163,0.023303119465708733,0.00026272761169821024,0.00021155067952349782,0.001650752848945558,0,1,-1000,1,1,0,-1,4,1,1500.0
07:47:22.758,STABILIZE,-35.3632622,149.1652376,0,-0.0007657033856958151,0.000970148597843945,0.022752152755856514,0.0003232953022234142,0.0002843263791874051,0.0016814402770251036,0,2,-1000,0,0,0,-1,3,1,1500.0
07:47:22.960,STABILIZE,-35.3632622,149.1652376,0,-0.0007657033856958151,0.000970148597843945,0.022752152755856514,0.0003232953022234142,0.0002843263791874051,0.0016814402770251036,0,2,-1000,0,0,0,-1,3,1,1500.0
07:47:23.161,STABILIZE,-35.3632622,149.1652376,0,-0.0007657033856958151,0.000970148597843945,0.022752152755856514,0.0003232953022234142,0.0002843263791874051,0.0016814402770251036,0,2,-1000,0,0,0,-1,3,1,1500.0
07:47:23.362,STABILIZE,-35.3632622,149.1652376,0,-0.0007657033856958151,0.000970148597843945,0.022752152755856514,0.0003232953022234142,0.0002843263791874051,0.0016814402770251036,0,2,-1000,0,0,0,-1,3,1,1500.0
07:47:23.564,STABILIZE,-35.3632622,149.1652376,0,-0.000976782524958253,0.0009661283111199737,0.022540342062711716,0.00023429899010807276,0.00028542312793433666,0.0016190053429454565,0,2,-1000,0,0,0,-1,2,1,1500.0
07:47:23.765,STABILIZE,-35.3632622,149.1652376,0,-0.0010366904316470027,0.0009673833847045898,0.022470619529485703,0.0002550967037677765,0.00028942612698301673,0.001531741232611239,0,2,-1000,1,0,0,-1,2,1,1500.0
07:47:23.967,AUTO,-35.3632622,149.1652376,0,-0.0010366904316470027,0.0009673833847045898,0.022470619529485703,0.0002550967037677765,0.00028942612698301673,0.001531741232611239,0,2,-1000,1,0,0,-1,2,1,1500.0
07:47:24.169,AUTO,-35.3632622,149.1652376,0,-0.0010366904316470027,0.0009673833847045898,0.022470619529485703,0.0002550967037677765,0.00028942612698301673,0.001531741232611239,0,2,-1000,1,0,0,-1,2,1,1500.0
07:47:24.370,AUTO,-35.3632622,149.1652376,0,-0.0010366904316470027,0.0009673833847045898,0.022470619529485703,0.0002550967037677765,0.00028942612698301673,0.001531741232611239,0,2,-1000,1,0,0,-1,2,1,1500.0
07:47:24.571,AUTO,-35.3632622,149.1652375,5,-0.0008431966998614371,0.0009866473264992237,0.02229905128479004,0.008605999872088432,0.0002168879145756364,0.0015888544730842113,0,59,-914,9,0,0,-1,3,3,200.0
07:47:24.773,AUTO,-35.3632622,149.1652376,0,-0.0008823401294648647,0.0010017674649134278,0.022246545180678368,0.0002828260767273605,0.0003052341053262353,0.0016045443480834365,0,1,-1000,0,0,0,-1,3,3,200.0
07:47:24.974,AUTO,-35.3632621,149.1652376,0,-0.0009320932440459728,0.0010238299146294594,0.02219242975115776,0.00022407411597669125,0.000272405450232327,0.0015065018087625504,0,1,-1000,0,0,0,-1,2,3,200.0
07:47:25.176,AUTO,-35.3632621,149.1652375,0,-0.0009586823871359229,0.0010557562345638871,0.022127067670226097,0.0003017116687260568,0.00027940276777371764,0.0014378882478922606,0,1,-1000,0,1,0,0,1,3,200.0
07:47:25.377,AUTO,-35.3632621,149.1652375,0,-0.0009586823871359229,0.0010557562345638871,0.022127067670226097,0.0003017116687260568,0.00027940276777371764,0.0014378882478922606,0,1,-1000,0,1,0,0,1,3,200.0
07:47:25.579,AUTO,-35.3632621,149.1652375,0,-0.000952407717704773,0.0010983006795868278,0.02206646092236042,0.0003291439497843385,0.0001460424391552806,0.0014650875236839056,0,1,-1000,0,1,1,0,0,2,200.0
07:47:25.780,AUTO,-35.3632621,149.1652375,0,-0.000933940289542079,0.0011544115841388702,0.022029997780919075,0.00018739374354481697,0.00023590808268636465,0.001463799737393856,0,2,-1000,1,0,0,0,0,2,200.0
07:47:25.993,AUTO,-35.3632621,149.1652375,0,-0.000933940289542079,0.0011544115841388702,0.022029997780919075,0.00018739374354481697,0.00023590808268636465,0.001463799737393856,0,2,-1000,1,0,0,0,0,2,200.0
07:47:26.194,AUTO,-35.3632621,149.1652375,0,-0.000933940289542079,0.0011544115841388702,0.022029997780919075,0.00018739374354481697,0.00023590808268636465,0.001463799737393856,0,2,-1000,1,0,0,0,0,2,200.0
07:47:26.396,AUTO,-35.3632621,149.1652374,0,-0.0008058325620368123,0.0013604104751721025,0.021862642839550972,0.00025582662783563137,0.00034756120294332504,0.0014345954405143857,0,1,-1000,1,0,1,0,-1,1,200.0
07:47:26.597,AUTO,-35.3632621,149.1652374,0,-0.0008058325620368123,0.0013604104751721025,0.021862642839550972,0.00025582662783563137,0.00034756120294332504,0.0014345954405143857,0,1,-1000,1,0,1,0,-1,1,200.0
07:47:26.798,AUTO,-35.3632621,149.1652374,0,-0.0007626658189110458,0.0014324791263788939,0.021805552765727043,0.0003080996684730053,0.0003227100824005902,0.0014803868252784014,0,1,-1000,1,1,1,0,-1,1,200.0
07:47:26.999,AUTO,-35.3632621,149.1652374,0,-0.0007102886447682977,0.0015034002717584372,0.021732278168201447,0.0003251845482736826,0.00020330148981884122,0.0014696933794766665,0,1,-1000,1,1,0,0,-1,1,200.0
07:47:27.200,AUTO,-35.3632621,149.1652374,0,-0.0006548353703692555,0.0015783479902893305,0.02166569046676159,0.00024975696578621864,0.00032836321042850614,0.001517420168966055,0,1,-1000,1,1,1,0,-1,1,200.0
07:47:27.402,AUTO,-35.3632621,149.1652374,0,-0.0005971851060166955,0.0016517093172296882,0.021602921187877655,0.0002879612147808075,0.0002621962339617312,0.0014341853093355894,0,1,-1000,1,0,0,0,-1,0,200.0
07:47:27.603,AUTO,-35.3632621,149.1652374,0,-0.0005971851060166955,0.0016517093172296882,0.021602921187877655,0.0002879612147808075,0.0002621962339617312,0.0014341853093355894,0,1,-1000,1,0,0,0,-1,0,200.0
07:47:27.805,AUTO,-35.3632621,149.1652374,0,-0.0005389553843997419,0.0017224192852154374,0.021522866562008858,0.0002909927279688418,0.00035665504401549697,0.0014131271746009588,0,2,-1000,0,1,0,0,-1,0,200.0
07:47:28.007,AUTO,-35.3632621,149.1652374,0,-0.0005389553843997419,0.0017224192852154374,0.021522866562008858,0.0002909927279688418,0.00035665504401549697,0.0014131271746009588,0,2,-1000,0,1,0,0,-1,0,200.0
07:47:28.208,AUTO,-35.3632621,149.1652374,0,-0.0005389553843997419,0.0017224192852154374,0.021522866562008858,0.0002909927279688418,0.00035665504401549697,0.0014131271746009588,0,2,-1000,0,1,0,0,-1,0,200.0
07:47:28.410,AUTO,-35.3632621,149.1652374,175,0.003954188898205757,0.00013480913185048848,0.0214028749614954,0.010080231353640556,0.004205080680549145,0.0011713153216987848,0,0,-1130,10,4,0,0,0,-69,200.0
07:47:28.612,AUTO,-35.3632621,149.1652374,175,0.003954188898205757,0.00013480913185048848,0.0214028749614954,0.010080231353640556,0.004205080680549145,0.0011713153216987848,0,0,-1130,10,4,0,0,0,-69,300000.0
07:47:28.814,AUTO,-35.3632621,149.1652375,388,0.002149715553969145,0.001079785404726863,0.021343477070331573,-0.003235552227124572,0.004052550997585058,0.0018847858300432563,0,-1,-1108,-2,4,1,0,0,-98,300000.0
07:47:29.015,AUTO,-35.3632621,149.1652375,666,0.0009562689228914678,0.001866496866568923,0.021309439092874527,-0.007314398884773254,0.0025810471270233393,-2.4018925614655018e-05,0,0,-1089,-6,3,0,0,0,-121,300000.0
07:47:29.217,AUTO,-35.3632621,149.1652375,998,0.008307036012411118,0.0011618933640420437,0.021097514778375626,0.04651471972465515,-0.0064660306088626385,0.0013405055506154895,0,0,-1045,47,-5,0,0,1,-137,300000.0
07:47:29.418,AUTO,-35.3632621,149.1652375,1363,0.020054327324032784,-0.0005906993756070733,0.021096903830766678,0.046808212995529175,-0.007362188305705786,0.0022128440905362368,0,0,-1019,47,-6,1,0,4,-144,300000.0
07:47:29.620,AUTO,-35.3632621,149.1652375,1363,0.020054327324032784,-0.0005906993756070733,0.021096903830766678,0.046808212995529175,-0.007362188305705786,0.0022128440905362368,0,0,-1019,47,-6,1,0,4,-144,300000.0
07:47:29.822,AUTO,-35.363262,149.1652377,1742,0.031511902809143066,-0.0025618732906877995,0.0212416909635067,0.044625841081142426,-0.007684378884732723,0.002801242284476757,0,-1,-1008,45,-6,2,1,10,-147,300000.0
07:47:30.024,AUTO,-35.363262,149.1652377,1742,0.031511902809143066,-0.0025618732906877995,0.0212416909635067,0.044625841081142426,-0.007684378884732723,0.002801242284476757,0,-1,-1008,45,-6,2,1,10,-147,300000.0
07:47:30.226,AUTO,-35.363262,149.1652377,1742,0.031511902809143066,-0.0025618732906877995,0.0212416909635067,0.044625841081142426,-0.007684378884732723,0.002801242284476757,0,-1,-1008,45,-6,2,1,10,-147,300000.0
07:47:30.428,AUTO,-35.3632617,149.1652397,2899,0.06113127991557121,-0.009694435633718967,-0.005808336194604635,0.0108579620718956,0.005070062819868326,-0.021091658622026443,1,-8,-995,11,5,-21,8,40,-148,300000.0
07:47:30.629,AUTO,-35.3632617,149.1652397,2899,0.06113127991557121,-0.009694435633718967,-0.005808336194604635,0.0108579620718956,0.005070062819868326,-0.021091658622026443,1,-8,-995,11,5,-21,8,40,-148,300000.0
07:47:30.831,AUTO,-35.3632614,149.1652409,3280,0.04481038078665733,0.009503377601504326,-0.0265150535851717,-0.12550987303256989,0.10751232504844666,-0.10569151490926743,2,-10,-990,-124,108,-105,10,51,-146,300000.0
07:47:31.033,AUTO,-35.3632612,149.1652424,3656,0.0017668938962742686,0.023761902004480362,-0.04762285202741623,-0.18287089467048645,0.010756717063486576,-0.07731080800294876,5,-13,-997,-182,11,-77,7,53,-145,300000.0
07:47:31.235,AUTO,-35.363261,149.1652438,4034,-0.025860963389277458,0.020493531599640846,-0.06177737936377525,-0.06208893656730652,-0.020048554986715317,-0.05443389713764191,5,-11,-1011,-61,-19,-54,3,46,-147,300000.0
07:47:31.437,AUTO,-35.3632609,149.1652449,4416,-0.034811921417713165,0.01432727463543415,-0.07218068838119507,-0.019032670184969902,-0.020580336451530457,-0.04078451171517372,5,-9,-1007,-18,-19,-41,0,36,-150,300000.0
07:47:31.640,AUTO,-35.3632609,149.1652458,4802,-0.04005282372236252,0.00907890871167183,-0.0804881751537323,-0.03514194115996361,-0.020082127302885056,-0.029270321130752563,3,-5,-1000,-34,-19,-29,-1,25,-150,300000.0
07:47:31.843,AUTO,-35.3632609,149.1652458,4802,-0.04005282372236252,0.00907890871167183,-0.0804881751537323,-0.03514194115996361,-0.020082127302885056,-0.029270321130752563,3,-5,-1000,-34,-19,-29,-1,25,-150,300000.0
07:47:32.045,AUTO,-35.3632609,149.1652458,4802,-0.04005282372236252,0.00907890871167183,-0.0804881751537323,-0.03514194115996361,-0.020082127302885056,-0.029270321130752563,3,-5,-1000,-34,-19,-29,-1,25,-150,200.0
07:47:32.249,AUTO,-35.3632609,149.1652458,4802,-0.04005282372236252,0.00907890871167183,-0.0804881751537323,-0.03514194115996361,-0.020082127302885056,-0.029270321130752563,3,-5,-1000,-34,-19,-29,-1,25,-150,200.0
07:47:32.451,AUTO,-35.3632609,149.1652461,5958,-0.07330344617366791,-0.0062717897817492485,-0.0910949558019638,0.037979498505592346,-0.0025707250460982323,-0.011003786697983742,0,2,-1004,38,-1,-11,-2,-22,-150,200.0
07:47:32.653,AUTO,-35.363261,149.1652454,6342,-0.06064460054039955,-0.006840721238404512,-0.09344521164894104,0.05542006343603134,6.943073822185397e-05,-0.00622618617489934,-3,5,-1001,56,0,-6,-2,-38,-150,200.0
07:47:32.856,AUTO,-35.363261,149.1652454,6342,-0.06064460054039955,-0.006840721238404512,-0.09344521164894104,0.05542006343603134,6.943073822185397e-05,-0.00622618617489934,-3,5,-1001,56,0,-6,-2,-38,-150,200.0
07:47:33.059,AUTO,-35.3632611,149.1652441,6734,-0.04587377980351448,-0.0060918619856238365,-0.09504808485507965,0.06015747785568237,0.005702872294932604,-0.0033940933644771576,-5,8,-1001,61,6,-3,-2,-50,-150,200.0
07:47:33.261,AUTO,-35.3632611,149.1652426,7119,-0.03037279099225998,-0.004043624736368656,-0.09607118368148804,0.06362444162368774,0.010155186988413334,-0.000884335779119283,-6,10,-1002,64,10,-1,-3,-57,-150,200.0
07:47:33.464,AUTO,-35.3632612,149.165241,7504,-0.014210575260221958,-0.0010900658089667559,-0.09652288258075714,0.0658637210726738,0.013026089407503605,0.0003682136011775583,-7,11,-1003,66,13,0,-4,-60,-151,200.0
07:47:33.666,AUTO,-35.3632613,149.1652393,7892,0.002306811511516571,0.0022520804777741432,-0.09633234888315201,0.06690362840890884,0.013643644750118256,0.002271595411002636,-7,13,-1004,67,14,1,-5,-59,-152,200.0
07:47:33.868,AUTO,-35.3632613,149.1652393,7892,0.002306811511516571,0.0022520804777741432,-0.09633234888315201,0.06690362840890884,0.013643644750118256,0.002271595411002636,-7,13,-1004,67,14,1,-5,-59,-152,200.0
07:47:34.069,AUTO,-35.3632613,149.1652393,7892,0.002306811511516571,0.0022520804777741432,-0.09633234888315201,0.06690362840890884,0.013643644750118256,0.002271595411002636,-7,13,-1004,67,14,1,-5,-59,-152,200.0
07:47:34.271,AUTO,-35.3632613,149.1652393,7892,0.002306811511516571,0.0022520804777741432,-0.09633234888315201,0.06690362840890884,0.013643644750118256,0.002271595411002636,-7,13,-1004,67,14,1,-5,-59,-152,200.0
07:47:34.475,AUTO,-35.3632619,149.1652351,9059,0.05101241171360016,0.010062754154205322,-0.0935698077082634,0.0629686638712883,0.005456260871142149,0.004172367975115776,-3,9,-1003,63,6,3,-11,-33,-154,200.0
07:47:34.676,AUTO,-35.3632622,149.1652343,9454,0.0660862922668457,0.01054350845515728,-0.092251718044281,0.05918605253100395,-0.0003426222247071564,0.004930742550641298,-2,7,-1001,59,0,4,-12,-17,-154,200.0
07:47:34.878,AUTO,-35.3632622,149.1652343,9454,0.0660862922668457,0.01054350845515728,-0.092251718044281,0.05918605253100395,-0.0003426222247071564,0.004930742550641298,-2,7,-1001,59,0,4,-12,-17,-154,200.0
07:47:35.080,AUTO,-35.3632624,149.165234,9846,0.0727652981877327,0.0033678908366709948,-0.08477269858121872,-0.016459548845887184,-0.06648451834917068,0.0655541643500328,1,3,-994,-15,-65,65,-12,0,-153,200.0
07:47:35.283,AUTO,-35.3632627,149.1652342,10234,0.05539858341217041,-0.015431232750415802,-0.07144670188426971,-0.10569535940885544,-0.04493623971939087,0.040139198303222656,2,0,-991,-105,-44,39,-8,15,-151,200.0
07:47:35.485,AUTO,-35.3632628,149.1652347,10618,0.02723383530974388,-0.018299167975783348,-0.06795737147331238,-0.10699101537466049,0.010903841815888882,-0.002323487075045705,3,-2,-998,-106,11,-2,-2,24,-149,200.0
07:47:35.687,AUTO,-35.3632628,149.1652352,11000,0.004478588700294495,-0.013484642840921879,-0.07207708805799484,-0.07602198421955109,0.022725172340869904,-0.026598474010825157,2,-4,-1002,-75,23,-26,3,25,-150,200.0
07:47:35.894,AUTO,-35.3632628,149.1652352,11000,0.004478588700294495,-0.013484642840921879,-0.07207708805799484,-0.07602198421955109,0.022725172340869904,-0.026598474010825157,2,-4,-1002,-75,23,-26,3,25,-150,200.0
07:47:36.098,AUTO,-35.3632628,149.1652352,11000,0.004478588700294495,-0.013484642840921879,-0.07207708805799484,-0.07602198421955109,0.022725172340869904,-0.026598474010825157,2,-4,-1002,-75,23,-26,3,25,-150,300000.0
07:47:36.304,AUTO,-35.3632628,149.1652352,11000,0.004478588700294495,-0.013484642840921879,-0.07207708805799484,-0.07602198421955109,0.022725172340869904,-0.026598474010825157,2,-4,-1002,-75,23,-26,3,25,-150,300000.0
07:47:36.505,AUTO,-35.3632624,149.1652366,12163,-0.02122211828827858,-0.0019698934629559517,-0.10187651962041855,0.0006739956443198025,0.010258081369102001,-0.039550185203552246,0,-3,-1003,1,10,-39,9,9,-152,300000.0
07:47:36.707,AUTO,-35.3632622,149.1652368,12551,-0.019304653629660606,7.323025783989578e-05,-0.11155740916728973,0.01262213196605444,0.008146032691001892,-0.03587552532553673,-1,-2,-1001,13,8,-36,9,2,-153,300000.0
07:47:36.908,AUTO,-35.363262,149.1652368,12941,-0.015229937620460987,0.002065317938104272,-0.12044642120599747,0.017104197293519974,0.008935054764151573,-0.03203727304935455,-2,-1,-1000,17,9,-32,8,-2,-153,300000.0
07:47:37.110,AUTO,-35.363262,149.1652368,12941,-0.015229937620460987,0.002065317938104272,-0.12044642120599747,0.017104197293519974,0.008935054764151573,-0.03203727304935455,-2,-1,-1000,17,9,-32,8,-2,-153,300000.0
07:47:37.312,AUTO,-35.3632618,149.1652367,13331,-0.009873812086880207,0.004267051350325346,-0.1285577267408371,0.023005632683634758,0.00848793238401413,-0.028056491166353226,-2,0,-1001,23,9,-28,7,-6,-153,300000.0
07:47:37.514,AUTO,-35.3632617,149.1652365,13722,-0.004032130818814039,0.006127881817519665,-0.1354541927576065,0.0262827817350626,0.0078464699909091,-0.024817878380417824,-2,0,-1001,27,8,-25,5,-8,-153,300000.0
07:47:37.716,AUTO,-35.3632615,149.1652363,14113,0.0013331519439816475,0.00764508219435811,-0.14118197560310364,0.020751040428876877,0.005774690769612789,-0.021749136969447136,-2,0,-1000,21,6,-22,3,-8,-153,300000.0
07:47:37.917,AUTO,-35.3632615,149.1652363,14113,0.0013331519439816475,0.00764508219435811,-0.14118197560310364,0.020751040428876877,0.005774690769612789,-0.021749136969447136,-2,0,-1000,21,6,-22,3,-8,-153,300000.0
07:47:38.119,AUTO,-35.3632615,149.1652363,14113,0.0013331519439816475,0.00764508219435811,-0.14118197560310364,0.020751040428876877,0.005774690769612789,-0.021749136969447136,-2,0,-1000,21,6,-22,3,-8,-153,300000.0
07:47:38.321,AUTO,-35.3632615,149.1652363,14113,0.0013331519439816475,0.00764508219435811,-0.14118197560310364,0.020751040428876877,0.005774690769612789,-0.021749136969447136,-2,0,-1000,21,6,-22,3,-8,-153,300000.0
07:47:38.524,AUTO,-35.3632614,149.1652356,15285,0.010674401186406612,0.008713987655937672,-0.15194638073444366,0.008340819738805294,-0.0014904404524713755,-0.009223987348377705,-1,1,-1000,9,0,-9,-1,-4,-153,300000.0
07:47:38.726,AUTO,-35.3632614,149.1652354,15676,0.011408858932554722,0.0080489506945014,-0.15405714511871338,0.00048587587662041187,-0.002170959021896124,-0.0071592568419873714,0,1,-999,1,-1,-7,-2,-1,-153,300000.0
07:47:38.928,AUTO,-35.3632614,149.1652354,16068,0.01100173033773899,0.007282397709786892,-0.15613654255867004,-0.0011409805156290531,-0.0035972443874925375,-0.00992482341825962,0,0,-1000,0,-3,-10,-3,0,-153,300000.0
07:47:39.130,AUTO,-35.3632614,149.1652354,16068,0.01100173033773899,0.007282397709786892,-0.15613654255867004,-0.0011409805156290531,-0.0035972443874925375,-0.00992482341825962,0,0,-1000,0,-3,-10,-3,0,-153,300000.0
07:47:39.332,AUTO,-35.3632614,149.1652353,16457,0.010128103196620941,0.006139054894447327,-0.15809056162834167,-0.0043063685297966,-0.0031182682141661644,-0.010095171630382538,0,0,-999,-3,-2,-10,-4,2,-153,300000.0
07:47:39.533,AUTO,-35.3632614,149.1652354,16846,0.008576400578022003,0.005403630435466766,-0.16060902178287506,-0.007040694355964661,-0.001706065610051155,-0.011601515114307404,0,0,-1000,-6,0,-12,-4,4,-153,300000.0
07:47:39.735,AUTO,-35.3632615,149.1652354,17236,0.007112734951078892,0.004804035183042288,-0.1635771542787552,-0.0036814832128584385,-0.0023175980895757675,-0.011694896966218948,0,0,-1000,-2,-1,-11,-4,5,-153,300000.0
07:47:39.937,AUTO,-35.3632615,149.1652354,17236,0.007112734951078892,0.004804035183042288,-0.1635771542787552,-0.0036814832128584385,-0.0023175980895757675,-0.011694896966218948,0,0,-1000,-2,-1,-11,-4,5,-153,300000.0
07:47:40.140,AUTO,-35.3632615,149.1652354,17236,0.007112734951078892,0.004804035183042288,-0.1635771542787552,-0.0036814832128584385,-0.0023175980895757675,-0.011694896966218948,0,0,-1000,-2,-1,-11,-4,5,-153,200.0
07:47:40.343,AUTO,-35.3632615,149.1652354,17236,0.007112734951078892,0.004804035183042288,-0.1635771542787552,-0.0036814832128584385,-0.0023175980895757675,-0.011694896966218948,0,0,-1000,-2,-1,-11,-4,5,-153,200.0
07:47:40.545,AUTO,-35.3632616,149.1652355,18394,-0.029333414509892464,0.0033142208121716976,-0.17602595686912537,-0.10167332738637924,0.0013942939694970846,-0.023311462253332138,0,0,-997,-101,2,-23,-5,0,-151,200.0
07:47:40.746,AUTO,-35.3632617,149.1652355,18777,-0.051999229937791824,0.008220236748456955,-0.17112836241722107,-0.052327439188957214,0.06064978614449501,0.10905124247074127,0,1,-984,-51,61,108,-7,-10,-149,200.0
07:47:40.948,AUTO,-35.3632619,149.165235,19148,-0.05539540573954582,0.035616081207990646,-0.10953512042760849,-0.006018090061843395,0.10497186332941055,0.37676897644996643,0,3,-980,-5,106,376,-13,-22,-144,200.0
07:47:41.150,AUTO,-35.3632623,149.1652341,19505,-0.0441756434738636,0.050943151116371155,-0.004878419451415539,0.0913354754447937,-0.064460888504982,0.3553248643875122,0,8,-955,92,-63,355,-24,-33,-136,200.0
07:47:41.352,AUTO,-35.3632623,149.1652341,19505,-0.0441756434738636,0.050943151116371155,-0.004878419451415539,0.0913354754447937,-0.064460888504982,0.3553248643875122,0,8,-955,92,-63,355,-24,-33,-136,200.0
07:47:41.554,AUTO,-35.3632629,149.1652331,19834,-0.008079074323177338,0.016323961317539215,0.05703866109251976,0.14964337646961212,-0.1709374189376831,0.14584176242351532,1,11,-953,150,-170,145,-32,-38,-124,200.0
07:47:41.756,AUTO,-35.3632635,149.1652321,20136,0.0264859851449728,-0.019641708582639694,0.07394249737262726,0.11785516142845154,-0.10756338387727737,0.009657627902925014,2,11,-957,118,-106,9,-30,-33,-113,200.0
07:47:41.959,AUTO,-35.3632635,149.1652321,20136,0.0264859851449728,-0.019641708582639694,0.07394249737262726,0.11785516142845154,-0.10756338387727737,0.009657627902925014,2,11,-957,118,-106,9,-30,-33,-113,200.0
07:47:42.162,AUTO,-35.3632635,149.1652321,20136,0.0264859851449728,-0.019641708582639694,0.07394249737262726,0.11785516142845154,-0.10756338387727737,0.009657627902925014,2,11,-957,118,-106,9,-30,-33,-113,200.0
07:47:42.364,AUTO,-35.3632635,149.1652321,20136,0.0264859851449728,-0.019641708582639694,0.07394249737262726,0.11785516142845154,-0.10756338387727737,0.009657627902925014,2,11,-957,118,-106,9,-30,-33,-113,200.0
07:47:42.566,AUTO,-35.3632647,149.1652307,20883,0.06184995546936989,-0.03728942945599556,0.049699150025844574,-0.014589229598641396,0.018214305862784386,-0.027107395231723785,1,0,-967,-13,19,-27,-4,7,-84,200.0
07:47:42.769,AUTO,-35.3632647,149.1652309,21085,0.05532320216298103,-0.030429773032665253,0.04557019844651222,-0.03499046713113785,0.03191694617271423,-0.00983212236315012,1,-3,-970,-33,32,-9,3,20,-75,200.0
07:47:42.971,AUTO,-35.3632646,149.1652315,21267,0.044988591223955154,-0.021753188222646713,0.043972279876470566,-0.048815809190273285,0.03487209230661392,-0.0011720432667061687,1,-6,-974,-47,35,-1,9,30,-68,200.0
07:47:43.173,AUTO,-35.3632643,149.1652324,21431,0.033593568950891495,-0.012982179410755634,0.04337003827095032,-0.043713416904211044,0.03581592068076134,0.0019683383870869875,0,-8,-976,-42,36,1,14,37,-62,200.0
07:47:43.375,AUTO,-35.3632643,149.1652324,21431,0.033593568950891495,-0.012982179410755634,0.04337003827095032,-0.043713416904211044,0.03581592068076134,0.0019683383870869875,0,-8,-976,-42,36,1,14,37,-62,200.0
07:47:43.577,AUTO,-35.3632639,149.1652334,21580,0.021997231990098953,-0.00470676040276885,0.043095678091049194,-0.04165799170732498,0.03309465944766998,0.005327984225004911,0,-9,-977,-40,34,4,17,41,-56,200.0
07:47:43.779,AUTO,-35.3632635,149.1652344,21713,0.011881480924785137,0.0026663595344871283,0.04282538592815399,-0.03924237936735153,0.026875970885157585,0.003627109806984663,0,-9,-977,-38,27,3,18,41,-51,200.0
07:47:43.982,AUTO,-35.3632635,149.1652344,21713,0.011881480924785137,0.0026663595344871283,0.04282538592815399,-0.03924237936735153,0.026875970885157585,0.003627109806984663,0,-9,-977,-38,27,3,18,41,-51,200.0
07:47:44.184,AUTO,-35.3632635,149.1652344,21713,0.011881480924785137,0.0026663595344871283,0.04282538592815399,-0.03924237936735153,0.026875970885157585,0.003627109806984663,0,-9,-977,-38,27,3,18,41,-51,2208.0
07:47:44.386,AUTO,-35.3632635,149.1652344,21713,0.011881480924785137,0.0026663595344871283,0.04282538592815399,-0.03924237936735153,0.026875970885157585,0.003627109806984663,0,-9,-977,-38,27,3,18,41,-51,2208.0
07:47:44.588,AUTO,-35.3632622,149.1652374,22026,-0.007353674620389938,0.013918743468821049,0.04073988273739815,-0.014101666398346424,0.00757384579628706,-0.0007747389608994126,0,-9,-976,-13,8,-1,13,32,-34,2208.0
07:47:44.790,AUTO,-35.3632619,149.1652382,22101,-0.011318279430270195,0.01497193705290556,0.040156371891498566,-0.031126078218221664,0.0014669601805508137,-0.001422177068889141,0,-7,-975,-30,2,-1,11,27,-28,2208.0
07:47:44.992,AUTO,-35.3632617,149.1652388,22160,-0.012148203328251839,0.014702744781970978,0.039614543318748474,0.03141120821237564,-0.0017692972905933857,-0.0008350828429684043,0,-4,-974,32,0,-1,8,22,-21,2208.0
07:47:45.194,AUTO,-35.3632615,149.1652393,22201,-0.013066232204437256,0.014075870625674725,0.03872928023338318,-0.031803179532289505,-0.0036687159445136786,-0.004466656129807234,0,-7,-971,-30,-2,-4,5,17,-14,2208.0
07:47:45.395,AUTO,-35.3632613,149.1652397,22223,-0.013833487406373024,0.012846115045249462,0.03806070238351822,-0.04098439961671829,-0.004448745399713516,-0.00495887640863657,0,-2,-966,-39,-3,-5,3,12,-6,2208.0
07:47:45.597,AUTO,-35.3632613,149.1652397,22223,-0.013833487406373024,0.012846115045249462,0.03806070238351822,-0.04098439961671829,-0.004448745399713516,-0.00495887640863657,0,-2,-966,-39,-3,-5,3,12,-6,2208.0
07:47:45.799,AUTO,-35.3632612,149.16524,22220,-0.039720192551612854,0.024952741339802742,0.03620687872171402,0.3714088797569275,0.06248956918716431,-0.005664607509970665,0,31,-927,373,63,-5,0,7,7,2208.0
07:47:46.002,AUTO,-35.3632612,149.16524,22220,-0.039720192551612854,0.024952741339802742,0.03620687872171402,0.3714088797569275,0.06248956918716431,-0.005664607509970665,0,31,-927,373,63,-5,0,7,7,2208.0
07:47:46.204,AUTO,-35.3632612,149.16524,22220,-0.039720192551612854,0.024952741339802742,0.03620687872171402,0.3714088797569275,0.06248956918716431,-0.005664607509970665,0,31,-927,373,63,-5,0,7,7,2208.0
07:47:46.406,AUTO,-35.3632615,149.1652392,22069,-0.02792498655617237,0.02228453941643238,0.03465491905808449,-0.6726247072219849,-0.00766056589782238,-0.0059153069742023945,0,-28,-1022,-672,-6,-6,-15,-22,14,2208.0
07:47:46.607,AUTO,-35.3632615,149.1652392,22069,-0.02792498655617237,0.02228453941643238,0.03465491905808449,-0.6726247072219849,-0.00766056589782238,-0.0059153069742023945,0,-28,-1022,-672,-6,-6,-15,-22,14,2208.0
07:47:46.809,AUTO,-35.3632619,149.1652385,22028,-0.03082340955734253,0.02018783986568451,0.033792801201343536,-0.5422113537788391,-0.008420249447226524,-0.006577851250767708,0,-12,-1033,-540,-7,-6,-19,-25,11,2208.0
07:47:47.010,AUTO,-35.3632623,149.1652378,21999,-0.01444915309548378,0.018702225759625435,0.03323820233345032,0.40590792894363403,-0.0026471219025552273,-0.0037547501269727945,0,41,-1028,408,-1,-4,-23,-27,5,2208.0
07:47:47.212,AUTO,-35.3632629,149.1652369,21982,-0.011194871738553047,0.019950369372963905,0.03219721466302872,0.6164020299911499,0.012049542739987373,-0.005193050485104322,1,42,-1010,617,12,-5,-27,-30,2,2208.0
07:47:47.414,AUTO,-35.3632635,149.1652361,21972,-0.014686931855976582,0.02544751763343811,0.030703973025083542,0.11547797918319702,0.029331134632229805,-0.0127293411642313,1,-1,-1002,115,30,-12,-32,-33,0,2208.0
07:47:47.616,AUTO,-35.3632635,149.1652361,21972,-0.014686931855976582,0.02544751763343811,0.030703973025083542,0.11547797918319702,0.029331134632229805,-0.0127293411642313,1,-1,-1002,115,30,-12,-32,-33,0,2208.0
07:47:47.818,AUTO,-35.3632643,149.1652351,21966,-0.035864394158124924,0.03494460880756378,0.029404297471046448,-0.6072575449943542,0.04683849960565567,-0.006945488974452019,3,-18,-1003,-607,47,-7,-38,-37,0,2208.0
07:47:48.020,AUTO,-35.3632643,149.1652351,21966,-0.035864394158124924,0.03494460880756378,0.029404297471046448,-0.6072575449943542,0.04683849960565567,-0.006945488974452019,3,-18,-1003,-607,47,-7,-38,-37,0,2208.0
07:47:48.222,AUTO,-35.3632643,149.1652351,21966,-0.035864394158124924,0.03494460880756378,0.029404297471046448,-0.6072575449943542,0.04683849960565567,-0.006945488974452019,3,-18,-1003,-607,47,-7,-38,-37,0,70265.0
07:47:48.424,AUTO,-35.3632678,149.1652312,21960,-0.049968719482421875,0.02178993821144104,-0.3355053961277008,0.084812693297863,-0.012614475563168526,-0.8767461180686951,-2,10,-1004,84,-11,-876,-65,-56,-3,70265.0
07:47:48.626,AUTO,-35.3632678,149.1652312,21960,-0.049968719482421875,0.02178993821144104,-0.3355053961277008,0.084812693297863,-0.012614475563168526,-0.8767461180686951,-2,10,-1004,84,-11,-876,-65,-56,-3,70265.0
07:47:48.828,AUTO,-35.3632694,149.1652296,21961,-0.07505439966917038,0.009690982289612293,-0.5515888333320618,-0.6507339477539062,0.020697493106126785,-0.8406412601470947,-8,-6,-999,-650,21,-840,-73,-63,-2,70265.0
07:47:49.030,AUTO,-35.3632712,149.1652278,21960,-0.09547881036996841,-0.0052608102560043335,-0.7523793578147888,-0.2130749523639679,0.0012149619869887829,-0.7797670364379883,-10,33,-1005,-211,1,-779,-84,-72,-2,70265.0
07:47:49.232,AUTO,-35.3632733,149.1652256,21958,-0.10243283212184906,-0.025897203013300896,-0.9391323924064636,0.4755091965198517,-0.024623261764645576,-0.7420549392700195,-15,50,-1002,477,-23,-742,-98,-84,-1,70265.0
07:47:49.434,AUTO,-35.3632757,149.1652231,21954,-0.09511660039424896,-0.04880978539586067,-1.1186017990112305,0.18768815696239471,-0.0194680355489254,-0.7061375379562378,-27,14,-994,187,-18,-706,-114,-97,0,70265.0
07:47:49.636,AUTO,-35.3632757,149.1652231,21954,-0.09511660039424896,-0.04880978539586067,-1.1186017990112305,0.18768815696239471,-0.0194680355489254,-0.7061375379562378,-27,14,-994,187,-18,-706,-114,-97,0,70265.0
07:47:49.839,AUTO,-35.3632785,149.1652203,21948,-0.07933061569929123,-0.06266703456640244,-1.296656847000122,-0.3915531039237976,0.02921009063720703,-0.6970263719558716,-34,-3,-1012,-391,30,-697,-128,-109,-1,70265.0
07:47:50.042,AUTO,-35.3632785,149.1652203,21948,-0.07933061569929123,-0.06266703456640244,-1.296656847000122,-0.3915531039237976,0.02921009063720703,-0.6970263719558716,-34,-3,-1012,-391,30,-697,-128,-109,-1,70265.0
07:47:50.244,AUTO,-35.3632785,149.1652203,21948,-0.07933061569929123,-0.06266703456640244,-1.296656847000122,-0.3915531039237976,0.02921009063720703,-0.6970263719558716,-34,-3,-1012,-391,30,-697,-128,-109,-1,70265.0
07:47:50.447,AUTO,-35.3632881,149.1652102,21942,-0.016277534887194633,-0.09856078028678894,-1.8312472105026245,0.32882729172706604,-0.1187547817826271,-0.7007456421852112,-46,7,-991,328,-117,-700,-151,-131,0,70265.0
07:47:50.650,AUTO,-35.3632916,149.1652063,21935,-0.011722341179847717,-0.11351897567510605,-2.012094497680664,-0.37580931186676025,0.05752873420715332,-0.711216151714325,-51,-37,-1002,-375,58,-711,-163,-144,0,70265.0
07:47:50.851,AUTO,-35.3632916,149.1652063,21935,-0.011722341179847717,-0.11351897567510605,-2.012094497680664,-0.37580931186676025,0.05752873420715332,-0.711216151714325,-51,-37,-1002,-375,58,-711,-163,-144,0,70265.0
07:47:51.053,AUTO,-35.3632954,149.1652022,21932,0.009335916489362717,-0.08393122255802155,-2.1930248737335205,-0.2572460472583771,0.1091751903295517,-0.7230851650238037,-52,-20,-1009,-255,110,-723,-171,-153,-3,70265.0
07:47:51.255,AUTO,-35.3632992,149.1651978,21935,0.029634304344654083,-0.08622946590185165,-2.3639912605285645,0.4154738783836365,-0.11322657763957977,-0.5812920331954956,-48,1,-993,417,-112,-581,-175,-159,-3,70265.0
07:47:51.457,AUTO,-35.3633032,149.1651933,21933,0.03838077187538147,-0.1253228485584259,-2.44511079788208,0.18089008331298828,-0.18102389574050903,-0.11101339757442474,-50,-41,-985,180,-179,-110,-186,-167,0,70265.0
07:47:51.660,AUTO,-35.3633075,149.1651885,21923,0.03619875758886337,-0.1701294630765915,-2.4507064819335938,-0.3800041675567627,-0.15464511513710022,0.08052847534418106,-53,-58,-994,-379,-153,80,-204,-182,4,70265.0
07:47:51.863,AUTO,-35.3633075,149.1651885,21923,0.03619875758886337,-0.1701294630765915,-2.4507064819335938,-0.3800041675567627,-0.15464511513710022,0.08052847534418106,-53,-58,-994,-379,-153,80,-204,-182,4,70265.0
07:47:52.065,AUTO,-35.3633075,149.1651885,21923,0.03619875758886337,-0.1701294630765915,-2.4507064819335938,-0.3800041675567627,-0.15464511513710022,0.08052847534418106,-53,-58,-994,-379,-153,80,-204,-182,4,70265.0
07:47:52.267,AUTO,-35.3633075,149.1651885,21923,0.03619875758886337,-0.1701294630765915,-2.4507064819335938,-0.3800041675567627,-0.15464511513710022,0.08052847534418106,-53,-58,-994,-379,-153,80,-204,-182,4,200.0
07:47:52.469,AUTO,-35.3633227,149.1651715,21910,0.04298074543476105,-0.04742269963026047,-2.3889992237091064,-0.21517084538936615,0.1659095585346222,0.047044165432453156,-69,-63,-1016,-215,167,46,-240,-214,-8,200.0
07:47:52.671,AUTO,-35.3633278,149.1651656,21926,0.033596720546483994,-0.06146235391497612,-2.3854856491088867,-0.24276264011859894,-0.19203127920627594,-0.01225085649639368,-55,-44,-976,-241,-191,-12,-236,-211,-6,200.0
07:47:52.873,AUTO,-35.3633278,149.1651656,21926,0.033596720546483994,-0.06146235391497612,-2.3854856491088867,-0.24276264011859894,-0.19203127920627594,-0.01225085649639368,-55,-44,-976,-241,-191,-12,-236,-211,-6,200.0
07:47:53.075,AUTO,-35.363333,149.1651596,21930,0.04109380766749382,-0.11762261390686035,-2.387005567550659,0.46225878596305847,-0.22897671163082123,-0.025873860344290733,-63,-20,-965,464,-228,-25,-240,-215,0,200.0
07:47:53.277,AUTO,-35.3633385,149.1651535,21915,0.038834407925605774,-0.17225809395313263,-2.3886730670928955,0.09779957681894302,-0.20344719290733337,0.03494396060705185,-67,-36,-972,97,-202,34,-254,-227,8,200.0
07:47:53.479,AUTO,-35.3633443,149.1651469,21886,0.030646895989775658,-0.2219931185245514,-2.3913679122924805,-0.33047613501548767,-0.1735389530658722,0.012377618812024593,-73,-57,-982,-329,-172,12,-277,-247,12,200.0
07:47:53.681,AUTO,-35.3633507,149.1651397,21849,0.03389829769730568,-0.2064407914876938,-2.392137050628662,0.07382749766111374,0.23522208631038666,-0.00841444730758667,-83,-59,-1037,75,236,-8,-304,-269,11,200.0
07:47:53.883,AUTO,-35.3633507,149.1651397,21849,0.03389829769730568,-0.2064407914876938,-2.392137050628662,0.07382749766111374,0.23522208631038666,-0.00841444730758667,-83,-59,-1037,75,236,-8,-304,-269,11,200.0
07:47:54.085,AUTO,-35.3633507,149.1651397,21849,0.03389829769730568,-0.2064407914876938,-2.392137050628662,0.07382749766111374,0.23522208631038666,-0.00841444730758667,-83,-59,-1037,75,236,-8,-304,-269,11,200.0
07:47:54.287,AUTO,-35.3633507,149.1651397,21849,0.03389829769730568,-0.2064407914876938,-2.392137050628662,0.07382749766111374,0.23522208631038666,-0.00841444730758667,-83,-59,-1037,75,236,-8,-304,-269,11,200.0
07:47:54.489,AUTO,-35.363372,149.1651167,21880,0.05452311038970947,-0.0004056182224303484,-2.392335891723633,0.07650920003652573,0.08236996084451675,-0.02551080659031868,-83,-35,-1010,78,83,-25,-309,-273,-18,200.0
07:47:54.692,AUTO,-35.3633788,149.1651094,21916,0.06631223112344742,-0.035735175013542175,-2.391857385635376,0.4207753837108612,-0.25821682810783386,0.02975756861269474,-85,-41,-950,421,-257,29,-296,-261,-11,200.0
07:47:54.894,AUTO,-35.3633854,149.1651022,21923,0.058594297617673874,-0.10638429969549179,-2.3920180797576904,-0.3862079679965973,-0.26402759552001953,0.059130895882844925,-77,-67,-944,-386,-263,58,-292,-261,2,200.0
07:47:55.095,AUTO,-35.3633854,149.1651022,21923,0.058594297617673874,-0.10638429969549179,-2.3920180797576904,-0.3862079679965973,-0.26402759552001953,0.059130895882844925,-77,-67,-944,-386,-263,58,-292,-261,2,200.0
07:47:55.297,AUTO,-35.3633923,149.1650948,21899,0.05396789684891701,-0.16620446741580963,-2.3936750888824463,-0.18960745632648468,-0.23090651631355286,-0.033539772033691406,-77,-46,-964,-188,-229,-33,-301,-272,11,200.0
07:47:55.499,AUTO,-35.3633994,149.1650872,21859,0.06062430888414383,-0.18011721968650818,-2.394386053085327,0.2554979920387268,0.0949534922838211,-0.018954560160636902,-77,-38,-1010,256,95,-19,-318,-288,15,200.0
07:47:55.702,AUTO,-35.3634068,149.1650792,21826,0.06492386013269424,-0.13486474752426147,-2.395566940307617,-0.032260190695524216,0.222342848777771,-0.01664668135344982,-95,-64,-1037,-31,223,-16,-331,-301,7,200.0
07:47:55.906,AUTO,-35.3634068,149.1650792,21826,0.06492386013269424,-0.13486474752426147,-2.395566940307617,-0.032260190695524216,0.222342848777771,-0.01664668135344982,-95,-64,-1037,-31,223,-16,-331,-301,7,200.0
07:47:56.109,AUTO,-35.3634068,149.1650792,21826,0.06492386013269424,-0.13486474752426147,-2.395566940307617,-0.032260190695524216,0.222342848777771,-0.01664668135344982,-95,-64,-1037,-31,223,-16,-331,-301,7,200.0
07:47:56.311,AUTO,-35.3634068,149.1650792,21826,0.06492386013269424,-0.13486474752426147,-2.395566940307617,-0.032260190695524216,0.222342848777771,-0.01664668135344982,-95,-64,-1037,-31,223,-16,-331,-301,7,159841.0
07:47:56.513,AUTO,-35.363429,149.1650553,21860,0.07433746755123138,-0.058056920766830444,-2.396320104598999,-0.034936629235744476,-0.18379199504852295,0.029657883569598198,-86,-66,-952,-34,-182,29,-312,-289,-6,159841.0
07:47:56.715,AUTO,-35.3634361,149.1650475,21861,0.067513108253479,-0.06782673299312592,-2.395103931427002,-0.48115721344947815,0.05874097719788551,0.018654976040124893,-84,-76,-992,-480,59,18,-307,-287,0,159841.0
07:47:56.916,AUTO,-35.363443,149.1650398,21859,0.0641646459698677,-0.04741401970386505,-2.3940486907958984,0.09234652668237686,0.08345286548137665,-0.020310113206505775,-83,-35,-1003,94,84,-20,-299,-285,0,159841.0
07:47:57.118,AUTO,-35.363443,149.1650398,21859,0.0641646459698677,-0.04741401970386505,-2.3940486907958984,0.09234652668237686,0.08345286548137665,-0.020310113206505775,-83,-35,-1003,94,84,-20,-299,-285,0,159841.0
07:47:57.320,AUTO,-35.3634498,149.1650323,21858,0.0726950615644455,-0.023494744673371315,-2.3943769931793213,0.5583159923553467,0.09166397899389267,-0.020451495423913002,-79,-40,-1004,559,92,-20,-291,-277,-1,159841.0
07:47:57.522,AUTO,-35.3634564,149.1650249,21858,0.0636754184961319,-0.006682501640170813,-2.394680976867676,-0.3002842962741852,0.05072565749287605,0.012664314359426498,-80,-84,-992,-300,51,12,-279,-266,0,159841.0
07:47:57.725,AUTO,-35.3634626,149.1650179,21857,0.05526233837008476,0.005086209159344435,-2.3949472904205322,-0.4140680134296417,0.05316662788391113,-0.006973620969802141,-74,-63,-999,-412,53,-7,-264,-255,0,159841.0
07:47:57.927,AUTO,-35.3634626,149.1650179,21857,0.05526233837008476,0.005086209159344435,-2.3949472904205322,-0.4140680134296417,0.05316662788391113,-0.006973620969802141,-74,-63,-999,-412,53,-7,-264,-255,0,159841.0
07:47:58.129,AUTO,-35.3634626,149.1650179,21857,0.05526233837008476,0.005086209159344435,-2.3949472904205322,-0.4140680134296417,0.05316662788391113,-0.006973620969802141,-74,-63,-999,-412,53,-7,-264,-255,0,159841.0
07:47:58.331,AUTO,-35.3634626,149.1650179,21857,0.05526233837008476,0.005086209159344435,-2.3949472904205322,-0.4140680134296417,0.05316662788391113,-0.006973620969802141,-74,-63,-999,-412,53,-7,-264,-255,0,159841.0
07:47:58.533,AUTO,-35.3634792,149.1649986,21837,0.05138830095529556,0.04156927391886711,-2.39401912689209,-0.12569910287857056,0.04849046468734741,0.02633311226963997,-55,-72,-993,-125,49,26,-214,-211,1,159841.0
07:47:58.735,AUTO,-35.3634839,149.164993,21827,0.036868613213300705,0.05446723476052284,-2.393897771835327,-0.7381465435028076,0.0450826920568943,0.012658433988690376,-54,-72,-1006,-737,45,12,-196,-193,2,159841.0
07:47:58.937,AUTO,-35.3634881,149.1649878,21819,0.028064921498298645,0.06744453310966492,-2.394029140472412,-0.4697383940219879,0.05355985462665558,-0.008367535658180714,-46,-34,-997,-467,54,-8,-175,-175,2,159841.0
07:47:59.139,AUTO,-35.3634881,149.1649878,21819,0.028064921498298645,0.06744453310966492,-2.394029140472412,-0.4697383940219879,0.05355985462665558,-0.008367535658180714,-46,-34,-997,-467,54,-8,-175,-175,2,159841.0
07:47:59.340,AUTO,-35.3634918,149.1649832,21807,0.02942468784749508,0.08124849200248718,-2.394761800765991,0.36161428689956665,0.05060078948736191,-0.013034303672611713,-43,-2,-1019,364,51,-13,-154,-155,3,159841.0
07:47:59.542,AUTO,-35.363495,149.1649792,21798,0.03320116549730301,0.09011312574148178,-2.3951263427734375,0.7718770503997803,0.004816760309040546,-0.012044470757246017,-38,3,-1007,773,5,-12,-132,-133,2,159841.0
07:47:59.745,AUTO,-35.3634978,149.1649757,21788,0.02815110795199871,0.08929111063480377,-2.395608901977539,0.3855627775192261,-0.012467417865991592,0.007571171969175339,-29,-31,-989,385,-11,7,-111,-112,3,159841.0
07:47:59.949,AUTO,-35.3634978,149.1649757,21788,0.02815110795199871,0.08929111063480377,-2.395608901977539,0.3855627775192261,-0.012467417865991592,0.007571171969175339,-29,-31,-989,385,-11,7,-111,-112,3,159841.0
07:48:00.151,AUTO,-35.3634978,149.1649757,21788,0.02815110795199871,0.08929111063480377,-2.395608901977539,0.3855627775192261,-0.012467417865991592,0.007571171969175339,-29,-31,-989,385,-11,7,-111,-112,3,159841.0
07:48:00.353,AUTO,-35.3634978,149.1649757,21788,0.02815110795199871,0.08929111063480377,-2.395608901977539,0.3855627775192261,-0.012467417865991592,0.007571171969175339,-29,-31,-989,385,-11,7,-111,-112,3,251954.0
07:48:00.556,AUTO,-35.3635035,149.1649685,21750,0.0006471415981650352,0.05600239336490631,-2.3953959941864014,-0.8135577440261841,-0.04095707833766937,0.010941538028419018,-19,-48,-1007,-812,-39,10,-61,-61,2,251954.0
07:48:00.758,AUTO,-35.3635047,149.1649668,21743,-0.004070516210049391,0.04700694978237152,-2.395888566970825,-0.3180714547634125,-0.027280034497380257,-0.0004932575975544751,-9,-10,-1012,-315,-26,0,-49,-50,0,251954.0
07:48:00.960,AUTO,-35.3635056,149.1649654,21742,0.0019784248434007168,0.04171114042401314,-2.396552562713623,0.5231422185897827,-0.022886080667376518,-0.002893304917961359,-10,22,-1007,525,-22,-3,-40,-40,0,251954.0
07:48:01.162,AUTO,-35.3635064,149.1649643,21742,0.0035621803253889084,0.03750624880194664,-2.396914482116699,0.3125417232513428,-0.011142220348119736,0.005456810351461172,-8,-10,-1000,312,-10,5,-33,-30,-1,251954.0
07:48:01.365,AUTO,-35.3635064,149.1649643,21742,0.0035621803253889084,0.03750624880194664,-2.396914482116699,0.3125417232513428,-0.011142220348119736,0.005456810351461172,-8,-10,-1000,312,-10,5,-33,-30,-1,251954.0
07:48:01.567,AUTO,-35.3635069,149.1649634,21743,-0.01023353636264801,0.03435058146715164,-2.396836757659912,-0.48579269647598267,-0.01088766660541296,0.005149318370968103,-6,-37,-999,-485,-9,5,-27,-21,-1,251954.0
07:48:01.769,AUTO,-35.3635074,149.1649628,21744,-0.013867132365703583,0.030680475756525993,-2.396881103515625,-0.4035332202911377,-0.014981064945459366,-0.0008334353915415704,-5,-8,-1003,-401,-14,-1,-21,-13,-1,251954.0
07:48:01.971,AUTO,-35.3635074,149.1649628,21744,-0.013867132365703583,0.030680475756525993,-2.396881103515625,-0.4035332202911377,-0.014981064945459366,-0.0008334353915415704,-5,-8,-1003,-401,-14,-1,-21,-13,-1,251954.0
07:48:02.175,AUTO,-35.3635074,149.1649628,21744,-0.013867132365703583,0.030680475756525993,-2.396881103515625,-0.4035332202911377,-0.014981064945459366,-0.0008334353915415704,-5,-8,-1003,-401,-14,-1,-21,-13,-1,251954.0
07:48:02.377,AUTO,-35.3635074,149.1649628,21744,-0.013867132365703583,0.030680475756525993,-2.396881103515625,-0.4035332202911377,-0.014981064945459366,-0.0008334353915415704,-5,-8,-1003,-401,-14,-1,-21,-13,-1,251954.0
07:48:02.580,AUTO,-35.3635083,149.1649622,21749,0.00032082037068903446,0.017684992402791977,-2.3954505920410156,-0.2283346801996231,-0.01954439841210842,0.0014247337821871042,-2,-26,-995,-228,-18,1,-10,3,0,251954.0
07:48:02.783,AUTO,-35.3635085,149.1649623,21751,-0.005903877783566713,0.012156549841165543,-2.3958210945129395,-0.5753312706947327,-0.027072951197624207,-0.0024464859161525965,-3,-18,-1004,-574,-25,-2,-6,5,-1,251954.0
07:48:02.985,AUTO,-35.3635086,149.1649623,21753,-0.003626710269600153,0.00432018656283617,-2.396543025970459,0.10372268408536911,-0.029926517978310585,-0.0051851277239620686,-1,22,-1000,105,-28,-5,-4,6,-1,251954.0
07:48:03.187,AUTO,-35.3635087,149.1649625,21755,0.007403187919408083,-0.0020473734475672245,-2.3970489501953125,0.638238251209259,-0.026256220415234566,-0.00139538012444973,0,31,-1001,639,-25,-1,-3,5,-1,251954.0
07:48:03.389,AUTO,-35.3635087,149.1649625,21755,0.007403187919408083,-0.0020473734475672245,-2.3970489501953125,0.638238251209259,-0.026256220415234566,-0.00139538012444973,0,31,-1001,639,-25,-1,-3,5,-1,251954.0
07:48:03.592,AUTO,-35.3635089,149.1649627,21756,0.006328326649963856,-0.00814859103411436,-2.3975322246551514,-0.033823516219854355,-0.017789242789149284,0.005307410378009081,-3,-11,-1001,-33,-16,5,-4,5,-1,251954.0
07:48:03.794,AUTO,-35.363509,149.1649629,21759,-0.0015773075865581632,-0.008381872437894344,-2.397395610809326,-0.5858948826789856,0.016257910057902336,-0.0007881885976530612,-3,-17,-1002,-584,17,0,-5,3,-2,251954.0
07:48:04.003,RTL,-35.363509,149.1649629,21759,-0.0015773075865581632,-0.008381872437894344,-2.397395610809326,-0.5858948826789856,0.016257910057902336,-0.0007881885976530612,-3,-17,-1002,-584,17,0,-5,3,-2,251954.0
07:48:04.207,RTL,-35.363509,149.1649629,21759,-0.0015773075865581632,-0.008381872437894344,-2.397395610809326,-0.5858948826789856,0.016257910057902336,-0.0007881885976530612,-3,-17,-1002,-584,17,0,-5,3,-2,251954.0
07:48:04.411,RTL,-35.3635098,149.1649632,21760,0.015640612691640854,0.0010246996534988284,-2.3991494178771973,-0.14396460354328156,0.022169223055243492,-0.0003653649182524532,-3,-18,-1006,-144,23,0,-5,-1,-2,97139.0
07:48:04.614,RTL,-35.3635098,149.1649632,21760,0.015640612691640854,0.0010246996534988284,-2.3991494178771973,-0.14396460354328156,0.022169223055243492,-0.0003653649182524532,-3,-18,-1006,-144,23,0,-5,-1,-2,97139.0
07:48:04.816,RTL,-35.36351,149.1649633,21764,0.007921789772808552,0.0033222525380551815,-2.4000940322875977,-0.5964886546134949,0.003083370393142104,0.003970741759985685,-3,-23,-1019,-595,4,3,-3,-2,-4,97139.0
07:48:05.017,RTL,-35.3635103,149.1649635,21779,0.011111713945865631,0.0041508120484650135,-2.4003400802612305,-0.004114599898457527,0.0027910450007766485,0.0049442509189248085,-5,11,-1032,-1,3,5,0,-3,-9,97139.0
07:48:05.219,RTL,-35.3635104,149.1649635,21811,0.019307773560285568,0.003909918013960123,-2.4005203247070312,0.44358155131340027,-0.003625442273914814,0.0020241476595401764,0,21,-1034,444,-2,1,1,-3,-17,97139.0
07:48:05.421,RTL,-35.3635106,149.1649635,21862,0.015229705721139908,0.0043549565598368645,-2.400679111480713,-0.1979314684867859,0.004101942293345928,0.003637158777564764,-3,-19,-1029,-197,5,3,2,-3,-25,97139.0
07:48:05.624,RTL,-35.3635106,149.1649635,21862,0.015229705721139908,0.0043549565598368645,-2.400679111480713,-0.1979314684867859,0.004101942293345928,0.003637158777564764,-3,-19,-1029,-197,5,3,2,-3,-25,97139.0
07:48:05.826,RTL,-35.3635107,149.1649636,21936,0.01006712019443512,0.004617412108927965,-2.4002583026885986,-0.313210666179657,-0.000982271390967071,0.006873327773064375,-1,-5,-1047,-311,0,7,5,-5,-35,97139.0
07:48:06.028,RTL,-35.3635107,149.1649636,21936,0.01006712019443512,0.004617412108927965,-2.4002583026885986,-0.313210666179657,-0.000982271390967071,0.006873327773064375,-1,-5,-1047,-311,0,7,5,-5,-35,97139.0
07:48:06.230,RTL,-35.3635107,149.1649636,21936,0.01006712019443512,0.004617412108927965,-2.4002583026885986,-0.313210666179657,-0.000982271390967071,0.006873327773064375,-1,-5,-1047,-311,0,7,5,-5,-35,97139.0
07:48:06.432,RTL,-35.3635109,149.1649638,22333,0.0108395516872406,0.0026242102030664682,-2.400289535522461,-0.09817272424697876,0.00031197862699627876,0.007307501509785652,-1,-3,-1041,-96,1,7,9,-5,-69,97139.0
07:48:06.634,RTL,-35.3635109,149.1649638,22333,0.0108395516872406,0.0026242102030664682,-2.400289535522461,-0.09817272424697876,0.00031197862699627876,0.007307501509785652,-1,-3,-1041,-96,1,7,9,-5,-69,97139.0
07:48:06.836,RTL,-35.363511,149.1649638,22520,0.014204885810613632,0.002505982294678688,-2.400465488433838,0.039684049785137177,0.00026790692936629057,0.007436049170792103,0,3,-1036,41,1,7,10,-6,-78,97139.0
07:48:07.037,RTL,-35.3635112,149.1649641,22729,0.014948869124054909,0.001969863660633564,-2.400736093521118,0.019889717921614647,-0.0023113396018743515,0.004738635383546352,0,1,-1032,21,-1,5,10,-6,-86,97139.0
07:48:07.239,RTL,-35.3635112,149.1649641,22961,0.01488752756267786,0.0013738309498876333,-2.4009225368499756,-0.007755037862807512,-0.0009084001649171114,0.005998371168971062,0,0,-1028,-5,0,6,11,-7,-93,97139.0
07:48:07.441,RTL,-35.3635112,149.1649641,23209,0.014857759699225426,0.0010608038865029812,-2.4009649753570557,0.006948558147996664,0.001038953079842031,0.005562144797295332,0,0,-1025,8,2,5,12,-7,-100,97139.0
07:48:07.643,RTL,-35.3635112,149.1649641,23209,0.014857759699225426,0.0010608038865029812,-2.4009649753570557,0.006948558147996664,0.001038953079842031,0.005562144797295332,0,0,-1025,8,2,5,12,-7,-100,97139.0
07:48:07.845,RTL,-35.3635113,149.1649642,23472,0.01570703461766243,0.001075990148819983,-2.4012019634246826,0.003776103723794222,0.0004820163594558835,0.006835288368165493,0,0,-1022,5,1,7,13,-8,-106,97139.0
07:48:08.048,RTL,-35.3635113,149.1649642,23472,0.01570703461766243,0.001075990148819983,-2.4012019634246826,0.003776103723794222,0.0004820163594558835,0.006835288368165493,0,0,-1022,5,1,7,13,-8,-106,97139.0
07:48:08.260,RTL,-35.3635113,149.1649642,23472,0.01570703461766243,0.001075990148819983,-2.4012019634246826,0.003776103723794222,0.0004820163594558835,0.006835288368165493,0,0,-1022,5,1,7,13,-8,-106,97139.0
07:48:08.464,RTL,-35.3635112,149.1649644,24338,0.012050599791109562,0.001056406181305647,-2.401191473007202,0.0024622161872684956,0.002719319425523281,0.0044212122447788715,0,0,-1015,4,3,4,13,-10,-119,171473.0
07:48:08.667,RTL,-35.3635112,149.1649644,24648,0.012479342520236969,0.0015881280414760113,-2.4011270999908447,0.0037914516869932413,0.002546422416344285,0.006956066936254501,0,0,-1008,5,3,7,13,-10,-122,171473.0
07:48:08.869,RTL,-35.3635112,149.1649644,24648,0.012479342520236969,0.0015881280414760113,-2.4011270999908447,0.0037914516869932413,0.002546422416344285,0.006956066936254501,0,0,-1008,5,3,7,13,-10,-122,171473.0
