time_stamp,RTL_ALT,MODE,roll,pitch,yaw,rollspeed,pitchspeed,yawspeed,lat,lon,relative_alt,vx,vy,vz,xacc,yacc,zacc,xgyro,ygyro,zgyro
20:20:46,1500.0,STABILIZE,-0.00042848734301514924,0.001310910505708307,0.025905477814376354,0.00021111466048751026,0.00028410638333298266,0.0021340277744457126,-35.3632622,149.1652375,0.0,-1.0,1.0,0.0,0.0,1.0,-1000.0,0.0,0.0,0.0
20:20:48,1500.0,STABILIZE,-0.0008942218846641481,0.0010474335867911577,0.025126630440354347,0.000326732755638659,0.00038596446393057704,0.0021079848520457745,-35.3632622,149.1652375,0.0,-1.0,1.0,0.0,0.0,1.0,-1000.0,0.0,0.0,0.0
20:20:54,1500.0,STABILIZE,-0.0013017606688663363,0.0009481557062827051,0.02307841181755066,8.159910794347525e-05,0.00032815313898026943,0.0017070593312382698,-35.3632622,149.1652375,0.0,-1.0,0.0,0.0,0.0,2.0,-1000.0,0.0,1.0,1.0
20:20:58,1500.0,AUTO,-0.0012402846477925777,0.0010096755577251315,0.022131290286779404,0.0002296857419423759,0.00033522589365020394,0.0014349932316690683,-35.3632622,149.1652375,7.0,-1.0,0.0,-2.0,0.0,2.0,-999.0,0.0,0.0,0.0
20:21:00,1500.0,AUTO,-0.000982497847871855,0.0012751620379276574,0.021810345351696014,0.00031894908170215786,0.0002538921544328332,0.0015328138251788914,-35.3632621,149.1652375,18.0,0.0,0.0,-2.0,0.0,1.5,-1000.0,1.0,0.0,0.0
20:21:01,64493.0,AUTO,-0.0007638740644324571,0.001552454603370279,0.021553518250584602,0.0003346822049934417,0.0003040489536942914,0.0014494715142063797,-35.3632621,149.1652375,21.5,0.0,0.0,-1.25,0.0,1.5,-1000.0,0.5,0.25,0.0
20:21:02,64493.0,AUTO,0.0009173447906505316,0.0010021907946793362,0.021381978876888752,0.0011573685624171048,0.0027318991196807474,0.0018144482746720314,-35.3632621,149.1652375,122.5,0.0,0.5,-37.5,0.0,1.0,-1065.5,1.0,2.5,0.5
20:21:04,64493.0,AUTO,0.047980647534132004,-0.00576197705231607,0.006480442825704813,0.014019811525940895,0.009795050136744976,-0.026367292157374322,-35.363261800000004,149.16523875000001,2384.0,4.5,28.0,-148.5,0.0,-4.5,-999.5,14.5,10.5,-27.0
20:21:06,64493.0,AUTO,-0.05997622758150101,0.002457740774843842,-0.08537590876221657,-0.016133006662130356,-0.0027602757327258587,-0.027994034811854362,-35.3632608,149.16524585000002,5435.5,0.0,-2.5,-150.0,0.5,0.0,-1000.5,-15.5,-1.5,-28.0
20:21:07,92504.0,AUTO,-0.03164235258009285,0.0036190098035149276,-0.10460271500051022,0.06368158012628555,0.007714153151027858,-0.006857559783384204,-35.363261075,149.165242525,6973.5,-8.25,-54.5,-150.25,-5.5,9.5,-1001.5,63.75,8.0,-6.75
20:21:08,92504.0,AUTO,0.03442994598299265,0.011127984151244164,-0.10476584360003471,0.0653803888708353,0.0034114166628569365,0.0029993282514624298,-35.3632623,149.16523655,8526.5,-18.0,-40.5,-153.0,-2.5,11.0,-1003.0,66.0,4.0,2.0
20:21:10,92504.0,AUTO,-0.017008806578814983,-0.019955312833189964,-0.07343801483511925,-0.045352061511948705,0.0642905980348587,-0.06798586621880531,-35.363263,149.16523660000001,11617.5,25.5,16.5,-150.0,-2.0,-6.5,-1003.5,-44.5,64.5,-68.0
20:21:12,92504.0,AUTO,0.011128217680379748,0.019754881039261818,-0.16471851617097855,0.01050875335931778,-0.007747696276055649,-0.003820986021310091,-35.36326,149.16523545,14813.0,-5.0,-6.5,-152.5,-2.0,1.5,-999.0,11.0,-7.0,-4.0
20:21:13,273428.0,AUTO,0.010149982525035739,0.007055570837110281,-0.16236653178930283,-0.009834601311013103,-0.010690367314964533,-0.0015282866079360247,-35.363260775,149.16523512499998,16443.25,-13.25,6.5,-152.0,1.75,0.5,-999.75,-8.5,-9.5,-1.75
20:21:14,273428.0,AUTO,0.0011948980973102152,-0.0008763142104726285,-0.17148302495479584,-0.006882203626446426,-0.004414835129864514,-0.0156260565854609,-35.36326165,149.1652358,17996.5,-9.0,8.0,-152.5,1.5,0.0,-1000.0,-5.0,-3.0,-15.5
20:21:16,273428.0,AUTO,0.0020080895046703517,0.001190314535961079,-0.21956169605255127,0.002803222509101033,0.0030154201667755842,-0.02390405163168907,-35.3632621,149.1652364,21111.0,-0.5,2.0,-153.0,0.0,0.0,-1000.0,3.0,3.0,-23.5
20:21:18,273428.0,AUTO,0.002767527592368424,0.003162004519253969,-0.26238666474819183,-0.0007472953002434224,-0.0006707689317408949,-0.017244815826416016,-35.3632621,149.16523660000001,24230.0,-1.0,3.0,-153.0,0.0,0.0,-1000.0,0.0,0.0,-17.0
20:21:19,3792.0,AUTO,-0.0036510202335193753,0.005359096277970821,-0.26741747558116913,-0.002766695339232683,0.0032195448875427246,0.015636422162060626,-35.363262125,149.165236675,25790.25,-3.0,1.0,-152.5,0.0,0.25,-998.5,-2.0,4.0,15.0
20:21:20,3792.0,AUTO,0.008614861406385899,0.002994248759932816,-0.24339523166418076,0.0032065040431916714,-0.003099428548011929,0.025475441478192806,-35.3632623,149.16523665,27341.5,-4.0,3.0,-153.0,0.0,0.0,-999.5,4.0,-1.5,25.0
20:21:22,3792.0,AUTO,-0.00046020737499929965,0.001409487973432988,-0.20024702697992325,-0.002586643793620169,-0.0013001002662349492,0.01827263180166483,-35.3632624,149.16523769999998,30443.0,0.0,6.0,-152.5,0.0,-0.5,-1000.0,-1.5,0.0,17.5
20:21:24,3792.0,AUTO,0.0006823330040788278,0.0010366479109507054,-0.16889432072639465,0.0016772491508163512,0.00141701236134395,0.012998700141906738,-35.36326235,149.1652381,33545.0,0.0,0.5,-153.0,0.0,0.0,-999.5,2.0,2.0,12.5
20:21:25,83463.0,AUTO,0.0011161451402585953,0.0013373174879234284,-0.155927624553442,-0.00036979495780542493,0.000115141665446572,0.012424958171322942,-35.363262275000004,149.165238,35106.25,0.0,0.0,-153.0,0.0,0.0,-999.75,0.25,0.25,11.75
20:21:26,83463.0,AUTO,0.0010618391097523272,0.0011673622648231685,-0.14499395340681076,0.0030920359422452748,0.0008986461034510285,0.012014267966151237,-35.3632622,149.16523784999998,36659.0,0.0,0.0,-153.0,0.0,0.0,-1000.0,3.5,1.5,11.5
20:21:28,83463.0,AUTO,-0.027649130206555128,0.03465599467745051,-0.03234501928091049,-0.07470350188668817,0.048962200700771064,0.2974758096970618,-35.36326215,149.16523745,39743.5,-8.0,-6.5,-144.5,0.0,1.0,-985.5,-73.5,49.5,297.0
20:21:30,83463.0,AUTO,0.03352476842701435,-0.042446049861609936,0.23040801286697388,-0.15066712070256472,0.02077959547750652,-0.02856686245650053,-35.36326475,149.16523295000002,41848.5,3.0,-1.0,-63.0,-0.5,-5.5,-970.5,-149.5,22.0,-28.0
20:21:31,287502.0,AUTO,0.02123743889387697,-0.005698720077713659,0.19923992827534676,-0.05994988977909088,0.03475121362134814,-0.02436205744743347,-35.363263450000005,149.165234275,42359.5,20.5,27.0,-37.75,-2.0,-10.0,-979.0,-59.0,35.5,-23.75
20:21:32,287502.0,AUTO,-0.0008286885567940772,0.013672994449734688,0.1771424412727356,0.1279940977692604,0.0025420719757676125,-0.01750599592924118,-35.363261699999995,149.16523725000002,42621.5,13.5,24.0,-15.5,-0.5,0.0,-981.0,129.0,3.5,-17.0
20:21:34,287502.0,AUTO,-0.03282141964882612,-0.015032340306788683,0.1418081745505333,0.3243662118911743,-0.024143246933817863,-0.012560887262225151,-35.3632615,149.1652373,42488.5,0.5,-31.0,8.5,-3.0,23.5,-1001.5,325.0,-22.5,-11.5
20:21:36,287502.0,AUTO,-0.006527825258672237,-0.055316342040896416,-0.6892181187868118,0.08201843500137329,0.017394192051142454,-0.7637993395328522,-35.3632583,149.165223,42255.0,45.0,-101.0,15.5,-24.5,-3.5,-981.5,83.0,18.5,-763.0
20:21:37,19641.0,AUTO,0.013558661099523306,-0.030883471947163343,-1.083956241607666,-0.15383541490882635,0.004466261278139427,-0.0027758898213505745,-35.363254,149.16521115,42050.0,55.0,-114.5,19.75,-23.75,-9.75,-1002.5,-151.5,5.5,-3.0
20:21:38,19641.0,AUTO,0.019024793058633804,-0.011115370085462928,-1.053477704524994,0.04681873321533203,0.028080560266971588,0.004687811015173793,-35.363249350000004,149.1651995,41815.0,52.0,-106.5,18.5,-22.0,-19.0,-1001.0,47.5,28.5,5.0
20:21:40,19641.0,AUTO,0.020091896876692772,0.030974009074270725,-1.0656510591506958,-0.004885286092758179,-0.0265518082305789,-0.01580945635214448,-35.36324345,149.16518324999998,41512.5,23.5,-39.0,6.0,-9.5,-5.5,-1008.0,-4.0,-26.0,-15.0
20:21:42,19641.0,AUTO,0.02103747148066759,-0.11816520988941193,-1.081075131893158,-0.08854231238365173,0.005705844610929489,-0.0017335411394014955,-35.363241099999996,149.16517355,41384.0,52.5,-95.5,12.5,-22.5,-10.5,-994.5,-87.0,6.5,-0.5
20:21:43,11762.0,AUTO,0.052829605527222157,0.003247502725571394,-1.0887118875980377,0.04732326790690422,0.1733844205737114,-0.008067728253081441,-35.3632371,149.165159775,41202.5,71.25,-130.5,18.75,-30.75,-32.25,-1000.75,47.75,173.25,-7.0
20:21:44,11762.0,AUTO,0.03428243473172188,0.09267507493495941,-1.088450312614441,-0.07671767473220825,-0.013668723404407501,-0.003717650193721056,-35.36323325,149.1651495,41034.5,42.5,-42.0,11.0,-8.5,-4.5,-1019.5,-74.5,-13.0,-3.5
20:21:46,11762.0,AUTO,0.004651206079870462,-0.10146800801157951,-1.0977912545204163,-0.0067831650376319885,0.0740511566400528,-0.027017170563340187,-35.36322855,149.16514215,40836.0,52.0,-98.5,13.5,-20.0,-13.5,-993.0,-5.0,74.5,-26.0
20:21:48,11762.0,AUTO,0.010336298029869795,-0.0037995390594005585,-1.1047541499137878,0.06272943317890167,-0.2574441134929657,-0.013854285702109337,-35.3632218,149.16512425,40548.5,18.0,-29.5,8.5,-5.0,2.0,-999.0,64.5,-256.5,-13.0
20:21:49,88148.0,AUTO,0.0042477932292968035,-0.039115577877964824,-1.1084416508674622,-0.37786414474248886,0.23010675981640816,0.005008007865399122,-35.36321975,149.165119225,40429.5,31.5,-78.25,10.5,-17.75,-22.0,-1012.0,-375.5,230.25,5.75
20:21:50,88148.0,AUTO,0.016908362274989486,-0.033508848398923874,-1.1129820346832275,0.0467318594455719,-0.21078427135944366,0.002031479962170124,-35.36321755,149.16511200000002,40325.5,26.0,-63.5,9.0,-13.5,-6.5,-1000.0,48.0,-210.0,3.0
20:21:52,88148.0,AUTO,0.022826348897069693,0.048644921742379665,-1.1188506484031677,-0.32084402441978455,0.1457402049563825,0.03972857818007469,-35.36321125,149.16509225,40014.5,37.0,-73.5,13.0,-15.5,-24.5,-995.5,-318.5,145.5,40.0
20:21:54,88148.0,AUTO,0.008638232946395874,-0.019794007763266563,-1.1230659484863281,-0.5950726866722107,0.3698165714740753,-0.0355389341711998,-35.3632069,149.165082,39797.0,37.0,-77.0,11.0,-18.0,-53.0,-988.0,-594.0,370.0,-34.0
20:21:55,241900.0,AUTO,0.015442480565980077,-0.030556818062905222,-1.1251841187477112,-0.09271576628088951,0.10071592452004552,-0.008526516379788518,-35.363202975,149.165071725,39630.25,37.25,-91.25,12.5,-20.25,-28.0,-1007.75,-91.75,100.75,-7.75
20:21:56,241900.0,AUTO,0.009822167456150055,-0.009584357496351004,-1.12867671251297,0.03338761627674103,0.028347782790660858,0.018969623371958733,-35.3632004,149.16506455,39516.0,33.0,-83.0,13.0,-20.0,7.0,-1001.5,36.5,28.5,19.0
20:21:58,241900.0,AUTO,0.015328949317336082,-0.08170746080577374,-1.1313979029655457,0.668091744184494,-0.30298784375190735,0.005122411996126175,-35.36319495,149.16504995,39249.5,23.5,-59.0,11.0,-11.5,17.5,-995.0,669.5,-302.0,6.0
20:22:00,241900.0,AUTO,0.03221955616027117,0.06046169903129339,-1.134900450706482,-0.028763532638549805,0.2843716964125633,-0.03630082029849291,-35.36318745,149.165028,38899.5,38.0,-108.0,16.0,-22.5,-36.5,-1013.0,-28.5,284.0,-35.0
20:22:01,289432.0,AUTO,0.01909159228671342,-0.04615275748074055,-1.1370634138584137,0.2905549183487892,0.13645118102431297,-0.0057155415415763855,-35.363183975,149.165017425,38701.25,35.25,-83.75,15.25,-18.75,6.75,-1005.5,292.5,136.5,-5.25
20:22:02,289432.0,AUTO,0.01057352963835001,0.035374390659853816,-1.1380061507225037,-0.6417322158813477,-0.2797640934586525,0.042838714085519314,-35.36318145,149.16501085,38591.0,26.5,-63.0,10.5,-10.0,-48.5,-1003.5,-641.0,-279.0,43.0
20:22:04,289432.0,AUTO,0.006899176980368793,0.025600753957405686,-1.1415871977806091,-0.2859495095908642,0.19543689768761396,-0.018276232294738293,-35.3631742,149.1649923,38271.0,36.5,-104.5,14.0,-22.0,-12.5,-1016.5,-283.5,195.0,-17.0
20:22:06,289432.0,AUTO,0.019906112924218178,-0.05887823924422264,-1.1437641382217407,0.05092291533946991,-0.3421342819929123,-0.03574316389858723,-35.363169,149.1649739,37958.0,21.0,-47.5,12.0,-12.5,14.5,-998.5,54.0,-341.5,-34.5
20:22:07,55002.0,AUTO,0.03352002985775471,-0.03780793712940067,-1.147141009569168,-0.336860965937376,-0.02132459729909897,-0.01539961714297533,-35.3631657,149.164960975,37752.25,54.75,-102.75,17.25,-25.5,-16.75,-996.75,-334.5,-21.0,-14.25
20:22:08,55002.0,AUTO,0.05362664349377155,0.01934005133807659,-1.1459699869155884,0.5556162446737289,0.339951828122139,-0.019712698820512742,-35.3631629,149.1649514,37602.0,65.0,-113.0,17.5,-27.0,-2.0,-1008.5,556.5,339.5,-18.5
20:22:10,55002.0,AUTO,0.02472690027207136,-0.06279965117573738,-1.147586464881897,-0.4131816700100899,-0.3381282538175583,0.0445532500743866,-35.36315595,149.1649328,37272.0,53.0,-65.0,15.5,-15.5,-45.0,-978.0,-411.5,-337.5,45.0
20:22:12,55002.0,AUTO,0.00536578381434083,-0.10045424103736877,-1.1489026546478271,-0.5651793330907822,0.09046195447444916,0.023087730398401618,-35.36314745,149.1649128,36906.0,51.0,-89.5,21.0,-22.0,-29.5,-1020.0,-562.0,91.0,23.5
20:22:13,38566.0,AUTO,0.020295586436986923,0.00967745017260313,-1.1489202976226807,-0.30063774436712265,-0.2687356173992157,0.016061032889410853,-35.36314385,149.164902225,36734.5,26.75,-37.0,8.25,-9.0,-20.5,-1000.5,-298.25,-267.75,16.75
20:22:14,38566.0,AUTO,0.02154220174998045,-0.19632098078727722,-1.1502119302749634,0.5751734673976898,-0.18281209468841553,-0.023695546202361584,-35.3631423,149.16489769999998,36637.0,50.5,-89.5,19.0,-22.5,19.0,-990.0,578.0,-182.0,-22.5
20:22:16,38566.0,AUTO,0.03539879247546196,0.13551272451877594,-1.1507539749145508,0.4742334634065628,-0.2884327471256256,0.037152727134525776,-35.36313365,149.1648715,36232.0,20.0,-3.0,7.0,0.0,8.0,-1016.5,475.5,-288.0,37.5
20:22:18,38566.0,AUTO,0.020374334417283535,-0.04831372993066907,-1.15663081407547,-0.43456438183784485,0.40332962572574615,0.0158002357929945,-35.3631283,149.16485914999998,35979.0,74.0,-166.0,21.0,-39.5,-21.5,-1007.5,-430.5,403.0,16.5
20:22:19,14515.0,AUTO,0.032049653586000204,0.13174537708982825,-1.153152734041214,0.013979755342006683,-0.16569594899192452,0.02767738001421094,-35.363123575,149.1648441,35775.5,20.0,-18.75,8.5,-4.25,-12.0,-1023.5,16.25,-165.25,28.5
20:22:20,14515.0,AUTO,-9.843998122960329e-05,-0.09255431406199932,-1.1522964835166931,0.08555237948894501,-0.2667039856314659,-0.023616814985871315,-35.363122849999996,149.16484425,35728.5,13.0,8.0,4.5,2.0,18.5,-997.0,89.5,-266.0,-22.0
20:22:22,14515.0,AUTO,0.028799209743738174,0.16347670555114746,-1.1535863876342773,-0.7022470533847809,0.17794016003608704,-0.009180009015835822,-35.363114100000004,149.16481975,35359.5,35.5,-87.5,12.5,-20.0,-55.0,-1033.5,-699.5,177.5,-7.0
20:22:24,14515.0,AUTO,-0.014202571939677,-0.21922802925109863,-1.1537627577781677,-0.008051857352256775,0.0172264501452446,0.02748679555952549,-35.3631105,149.16481485000003,35191.0,41.5,-109.5,20.0,-23.5,-2.0,-993.5,-4.0,18.0,28.5
20:22:25,148010.0,AUTO,0.009562509250827134,0.13231818098574877,-1.1538757979869843,-0.6234810911118984,0.17714705597609282,-0.010683604661608115,-35.36310355,149.1647951,34922.5,30.75,-114.25,16.25,-24.0,-40.75,-1020.75,-620.25,177.0,-9.5
20:22:26,148010.0,AUTO,0.00826254952698946,0.12960268929600716,-1.157650351524353,0.48244552314281464,-0.3151269853115082,-0.011138692498207092,-35.363101650000004,149.1647902,34828.0,-12.5,6.0,5.5,3.0,23.5,-1035.0,485.0,-314.0,-9.5
20:22:28,148010.0,AUTO,0.02168327383697033,-0.056089220102876425,-1.1577332615852356,-0.45372333005070686,0.3996037393808365,-0.02646219206508249,-35.36309825,149.16477935,34597.0,51.0,-173.0,22.0,-38.5,-50.5,-1005.0,-452.0,399.5,-24.5
20:22:30,148010.0,AUTO,0.0017485854914411902,-0.07670912705361843,-1.1552285552024841,-0.8524484634399414,-0.28203898668289185,0.010518110822886229,-35.363094649999994,149.16476434999998,34355.0,1.5,18.0,3.5,4.0,-22.5,-995.0,-850.0,-281.0,12.0
20:22:31,15450.0,AUTO,0.030356755014508963,-0.09858557861298323,-1.159850835800171,-0.14783486351370811,0.2986436579376459,-0.026628893334418535,-35.3630917,149.16475485,34189.0,63.25,-142.0,20.5,-34.25,-30.75,-999.25,-145.5,298.5,-25.0
20:22:32,15450.0,AUTO,0.04139144532382488,0.12695646658539772,-1.1568019390106201,0.05237692594528198,0.20205256342887878,0.01811212580651045,-35.363088250000004,149.1647428,34044.0,54.5,-107.5,15.0,-24.5,3.5,-1027.5,56.5,202.0,19.0
20:22:34,15450.0,AUTO,0.006975037278607488,-0.20083044469356537,-1.1578022837638855,-0.0815015360713005,0.06817945092916489,-0.02115786448121071,-35.36308425,149.16473635,33846.5,48.0,-90.0,17.5,-19.0,-40.5,-999.5,-80.0,68.5,-19.5
20:22:36,15450.0,AUTO,-0.004643620311981067,0.01481783576309681,-1.1576218605041504,-0.5956801176071167,-0.37014397978782654,0.004748941399157047,-35.36307735,149.164719,33580.5,-6.0,17.5,2.5,2.5,-20.5,-1006.0,-592.5,-369.5,6.5
20:22:37,2585.0,AUTO,0.01428978773765266,-0.16260556317865849,-1.1593885719776154,-0.06598655041307211,0.1618296019732952,0.0035211859503760934,-35.363075450000004,149.16471339999998,33455.25,45.0,-122.25,19.0,-27.75,-22.75,-997.0,-63.25,162.25,5.0
20:22:38,2585.0,AUTO,0.047247014939785004,0.05438965931534767,-1.1590704917907715,0.7528291046619415,0.2577623724937439,-0.003646393306553364,-35.363072,149.1647011,33291.0,57.0,-149.0,18.5,-35.0,20.0,-1009.5,756.0,257.5,-2.0
20:22:40,2585.0,AUTO,0.018378709442913532,-0.1319102942943573,-1.1555649638175964,0.21399520337581635,-0.1944412812590599,0.015319928526878357,-35.36306965,149.16469254999998,33107.5,17.5,-3.5,4.0,-1.5,-6.0,-999.0,216.0,-193.5,17.0
20:22:42,2585.0,AUTO,0.03207140229642391,0.13986219465732574,-1.158054769039154,-0.7984686195850372,0.1475648134946823,0.006535061169415712,-35.36306155,149.16466795000002,32766.5,48.5,-89.5,16.5,-21.0,-55.5,-1016.0,-795.5,147.5,8.0
20:22:43,84199.0,AUTO,0.016573123662965372,-0.05163713591173291,-1.1567505598068237,0.09703924786299467,-0.2610623314976692,0.009345699683763087,-35.363060274999995,149.164665475,32668.75,13.0,16.5,4.0,3.75,-4.75,-1004.5,100.0,-260.25,10.75
20:22:44,84199.0,AUTO,0.004636318364646286,-0.18951396644115448,-1.158309519290924,-0.0037071257829666138,-0.0686725564301014,-0.010006759781390429,-35.363059199999995,149.1646641,32621.5,44.0,-66.5,14.0,-15.0,3.0,-986.0,0.5,-68.0,-8.5
20:22:46,84199.0,AUTO,0.023807905614376068,0.15607281029224396,-1.1592631936073303,0.7441805005073547,0.0033124424517154694,0.0013811399694532156,-35.36304895,149.16463705,32225.0,26.5,-48.0,13.5,-8.5,19.5,-1039.0,747.5,4.0,3.5
20:22:48,84199.0,AUTO,-0.008578161243349314,-0.17405086010694504,-1.1587762832641602,-0.20255842432379723,-0.0007141530513763428,0.000980651006102562,-35.363046100000005,149.1646356,32097.5,21.5,-85.5,13.0,-19.0,-38.5,-982.0,-200.5,-0.5,3.0
20:22:49,237555.0,AUTO,0.025630556046962738,0.07517189905047417,-1.158642292022705,0.4908010233193636,0.16757885925471783,-0.008571725338697433,-35.363040725000005,149.16461855,31873.75,28.5,-118.25,16.0,-25.75,0.75,-1012.0,493.5,167.75,-6.5
20:22:50,237555.0,AUTO,0.009294864255934954,0.12919041886925697,-1.1593636274337769,-0.5947498679161072,-0.14115565319661982,-0.00908219674602151,-35.36303905,149.1646119,31770.0,-3.0,-25.5,8.0,-5.5,-25.5,-1026.0,-592.0,-140.5,-7.0
20:22:52,237555.0,AUTO,0.03336814418435097,-0.07829179242253304,-1.1614168882369995,0.6022917181253433,0.29512616991996765,0.0038957702927291393,-35.3630371,149.16460295000002,31571.5,49.0,-124.0,17.5,-30.0,14.5,-1005.5,605.5,295.5,6.0
20:22:54,237555.0,AUTO,0.019776360597461462,-0.04012012016028166,-1.159322202205658,0.2559301480650902,-0.08390402793884277,0.014603987336158752,-35.36303135,149.1645862,31296.0,23.0,-32.0,9.0,-5.5,-8.5,-995.0,258.5,-83.0,16.5
20:22:55,28292.0,AUTO,0.01799912517890334,-0.020125819370150566,-1.160119742155075,0.41548291593790054,0.016420656815171242,-0.008350798510946333,-35.363027925000004,149.164577825,31144.5,34.25,-71.75,11.5,-16.75,7.75,-1002.25,418.75,17.25,-6.5
20:22:56,28292.0,AUTO,0.011222495697438717,-0.014552862383425236,-1.1604025959968567,-0.6008489429950714,-0.01483214646577835,0.004299798631109297,-35.363025699999994,149.16457150000002,31045.0,34.0,-78.5,11.5,-14.5,-41.5,-998.5,-597.5,-14.0,6.0
20:22:58,28292.0,AUTO,0.006458534160628915,-0.017517556436359882,-1.1605144143104553,-0.23753711581230164,-0.010760337114334106,-0.008680160739459097,-35.363019800000004,149.1645555,30766.0,29.0,-65.0,12.0,-14.5,-3.0,-1001.5,-233.5,-10.0,-6.0
20:23:00,28292.0,AUTO,0.019763772375881672,0.011998451314866543,-1.1605188846588135,0.50825035572052,0.02788862492889166,-0.0010490225395187736,-35.3630148,149.16453995,30504.5,29.0,-59.0,12.0,-15.5,23.0,-1012.0,512.0,28.5,1.0
20:23:01,24426.0,AUTO,0.005517978497664444,0.012730857473798096,-1.1601125299930573,-0.30439769476652145,0.015578160062432289,0.002446892380248755,-35.36301215,149.164533475,30387.25,19.0,-34.0,6.5,-6.5,-20.5,-998.5,-301.25,16.25,4.25
20:23:02,24426.0,AUTO,0.009906976018100977,0.028648871928453445,-1.1604682207107544,0.3813043236732483,0.01014962512999773,-0.0016813687980175018,-35.363010849999995,149.16453115,30341.0,10.0,-18.0,3.5,-3.0,2.5,-1009.5,383.5,10.5,0.5
20:23:04,24426.0,RTL,-0.011718861293047667,-0.012689418159425259,-1.160287320613861,-0.3933025151491165,0.007940099574625492,0.004471124499104917,-35.3630099,149.16453105,30336.0,-7.0,-0.5,-2.0,0.0,-10.5,-995.0,-389.0,9.0,6.5
20:23:06,24426.0,RTL,0.0037861939053982496,0.0038863568333908916,-1.1596903204917908,0.3187948018312454,-0.001996478473301977,0.0005914781359024346,-35.3630097,149.1645306,30536.5,-6.0,-2.5,-36.5,0.0,16.5,-1042.5,322.0,-1.0,2.5
20:23:07,207151.0,RTL,0.001290246014832519,0.0025414648989681154,-1.1589825451374054,0.03781255707144737,-0.0007255554373841733,0.0013826341601088643,-35.3630098,149.16453055,31342.5,-7.0,0.0,-80.0,0.0,3.25,-1017.75,40.5,0.5,3.0
20:23:08,207151.0,RTL,0.0023298132582567632,0.0021859623375348747,-1.1588333249092102,-0.034053876996040344,0.0023238440044224262,0.000604609027504921,-35.36300985,149.1645305,31993.0,-7.0,0.0,-87.0,0.0,-2.5,-1000.5,-31.5,3.0,2.5
20:23:10,207151.0,RTL,0.004788843565620482,0.0044694580137729645,-1.1591925621032715,0.05743888579308987,0.003344582743011415,0.0007407088414765894,-35.363009950000006,149.16453024999998,33579.5,-6.0,1.0,-55.5,-0.5,2.5,-970.5,59.5,3.5,2.5
20:23:12,207151.0,RTL,0.007724152645096183,0.006655364530161023,-1.1604663729667664,0.558901458978653,0.0009696139022707939,0.0046546130906790495,-35.363009950000006,149.1645299,34100.0,-3.5,4.5,2.0,0.0,35.0,-1002.0,562.0,2.5,6.5
20:23:13,171908.0,RTL,0.000563454901566729,0.004890546435490251,-1.1602788269519806,-0.21436520665884018,-0.00013628974556922913,0.00025153893511742353,-35.36301,149.1645298,34053.5,-5.0,5.5,1.25,-0.25,-2.75,-1015.0,-211.5,1.25,2.0
20:23:14,171908.0,RTL,0.010421095881611109,0.0029328122036531568,-1.1600356698036194,0.02516092360019684,-0.0006755916401743889,-0.004570659948512912,-35.36301025,149.1645298,34102.0,-4.0,6.0,-18.5,0.0,-7.0,-1040.5,27.5,0.5,-2.0
20:23:16,171908.0,RTL,0.010367609327659011,0.0009151524282060564,-1.160269021987915,-0.16070158779621124,-0.001804962521418929,-0.0014694343553856015,-35.36301075,149.1645299,34992.0,0.5,5.5,-39.5,0.0,-12.5,-960.0,-158.5,0.0,1.0
20:23:18,171908.0,RTL,0.0017493393388576806,0.0025432028342038393,-1.1603330373764038,0.08428752422332764,0.0005563490558415651,0.003501943778246641,-35.363010849999995,149.16453005,35187.5,4.5,4.5,3.5,0.5,16.5,-998.0,88.5,1.5,5.5
20:23:19,205786.0,RTL,0.004088205343578011,0.0014695717400172725,-1.160035789012909,-0.006001587957143784,0.0004650024347938597,0.000930035428609699,-35.363010575,149.1645303,35290.75,0.5,3.0,-27.25,-0.25,0.25,-1042.5,-3.25,2.0,2.75
20:23:20,205786.0,RTL,0.008426789427176118,0.0011372350854799151,-1.159938931465149,-0.15231400914490223,0.0066815250320360065,0.0003927270881831646,-35.3630106,149.1645303,35590.5,0.0,2.0,-51.5,-0.5,-11.0,-1021.5,-150.0,8.0,2.0
20:23:22,205786.0,RTL,0.0030706197721883655,0.0019839639426209033,-1.160529375076294,-0.5146015733480453,0.005102357885334641,0.0004159433301538229,-35.3630107,149.1645303,36395.5,1.0,1.0,-5.5,-0.5,-31.5,-969.5,-512.0,6.0,2.5
20:23:24,205786.0,RTL,-0.009484301786869764,0.0039544167229905725,-1.1603914499282837,0.03348614275455475,-0.0011510688345879316,0.0034322127467021346,-35.36300975,149.16453055,36399.5,-4.0,0.5,-11.5,1.0,12.5,-1040.5,37.5,0.5,5.0
20:23:25,115142.0,RTL,-0.007717674248851836,0.0018139095627702773,-1.159740686416626,-0.06751076132059097,-0.001306786623899825,0.0017488093581050634,-35.363009274999996,149.164530975,36849.5,-9.5,-0.75,-49.75,0.0,-5.0,-1013.25,-64.75,0.25,3.75
20:23:26,115142.0,RTL,-0.00192911212798208,-0.0005132532060088124,-1.1597124338150024,0.2065387014299631,-0.007150917546823621,2.814875915646553e-05,-35.3630093,149.1645311,37241.5,-11.0,-2.0,-44.5,0.0,15.5,-970.0,209.5,-5.0,2.0
20:23:28,115142.0,RTL,0.007263372885063291,-0.00030368074658326805,-1.1603756546974182,-0.45970746874809265,0.002517428307328373,-0.0014540576376020908,-35.363010149999994,149.16453074999998,37515.0,-7.5,-2.0,3.5,-1.0,-28.5,-1005.0,-458.0,3.5,1.0
20:23:30,115142.0,RTL,0.004203715041512623,0.0021268637501634657,-1.1597833633422852,0.22121811658143997,-0.0011255275458097458,0.0030744977993890643,-35.3630102,149.1645306,37810.5,-3.0,0.0,-46.5,-1.0,14.5,-1030.0,223.5,0.5,5.0
20:23:31,102862.0,RTL,0.005289265245664865,-0.0004366802313597873,-1.159498244524002,-0.03429274167865515,-7.505944813601673e-05,0.0015262385131791234,-35.363010275,149.1645306,38452.0,-3.0,0.0,-39.5,-0.75,-1.0,-968.25,-31.75,1.5,3.5
20:23:32,102862.0,RTL,0.016228207387030125,-0.00025730906054377556,-1.1595181822776794,0.4381463751196861,0.0012384377769194543,-0.00041404616786167026,-35.36301055,149.1645305,38669.0,-1.0,0.0,-9.5,-1.5,12.0,-966.5,440.0,2.5,1.5
20:23:34,102862.0,RTL,0.0018840573902707547,0.0016697449027560651,-1.160256266593933,-0.4618176519870758,0.0031629159348085523,-0.0008183698519133031,-35.3630108,149.1645302,38668.5,2.5,1.5,-6.5,-0.5,-17.5,-1030.0,-459.0,4.0,1.0
20:23:36,102862.0,RTL,0.01178923404465119,0.0004629576384710769,-1.159775733947754,0.05435098707675934,-0.0018507055162141721,0.0011016859207302332,-35.36301096666667,149.1645302,39443.333333333336,3.0,2.6666666666666665,-52.666666666666664,-1.0,5.0,-985.6666666666666,57.666666666666664,0.0,3.0
20:23:37,293975.0,RTL,0.01330308080650866,0.0006830624042777345,-1.1599223613739014,0.19462684790293375,0.004043026555640002,0.0008439410788317522,-35.36301123333333,149.16453006666669,39870.333333333336,6.333333333333333,3.0,-9.0,-0.6666666666666666,17.0,-961.0,197.66666666666666,5.0,3.0
20:23:38,293975.0,RTL,0.011036303728663674,0.0021227205094570913,-1.1604334115982056,-0.27626270055770874,0.001944857571894924,-0.0009118705056607723,-35.36301126666667,149.16453,39887.333333333336,7.0,3.3333333333333335,2.6666666666666665,0.3333333333333333,-24.0,-989.6666666666666,-274.0,3.6666666666666665,1.6666666666666667
20:23:40,293975.0,RTL,0.014113826987644037,0.0009184116497635841,-1.1597986221313477,0.12583250800768533,-0.0013527176730955641,-0.0009783059358596802,-35.3630113,149.16453,40071.0,7.0,5.0,-38.333333333333336,0.0,7.333333333333333,-1035.6666666666667,128.66666666666666,0.6666666666666666,1.6666666666666667
20:23:42,166465.5,RTL,0.016828402876853943,0.0007855255001535019,-1.1599171161651611,0.30992521593968075,0.0003135438698033492,-0.0011642954001824062,-35.3630114,149.1645299,41018.666666666664,8.666666666666666,4.666666666666667,-23.0,-0.3333333333333333,11.0,-953.6666666666666,313.0,2.3333333333333335,1.3333333333333333
20:23:44,38956.0,RTL,0.01018161057921437,0.002686768537387252,-1.1603122154871623,-0.21112806598345438,0.001219203695654869,-0.0026037568071236214,-35.363011166666666,149.1645299,41073.666666666664,8.0,5.0,-0.3333333333333333,0.0,-19.666666666666668,-1019.0,-208.66666666666666,2.6666666666666665,0.0
20:23:46,38956.0,RTL,0.014698469390471777,0.00036206949516781606,-1.1595443884531658,0.03688615063826243,0.0012713368438805144,0.0005920658974597851,-35.3630113,149.16453,41713.0,7.0,5.0,-55.0,-0.6666666666666666,0.6666666666666666,-999.0,40.333333333333336,3.3333333333333335,2.6666666666666665
20:23:47,150439.0,RTL,0.008341492231314382,0.0005545289701937387,-1.1599504152933757,-0.18749562899271646,0.003053819411434233,-0.0004970386313895384,-35.3630114,149.16453,42251.666666666664,8.666666666666666,4.0,-19.0,-0.6666666666666666,0.0,-956.6666666666666,-183.33333333333334,4.333333333333333,1.3333333333333333
20:23:48,150439.0,RTL,0.019189779957135517,0.0018411752146979172,-1.1600829362869263,0.4501828911403815,0.002554315918435653,0.0017820524517446756,-35.36301126666667,149.16453,42311.0,8.0,4.0,1.0,0.0,9.333333333333334,-986.0,453.0,4.0,4.0
20:23:50,150439.0,RTL,0.002635172684676945,0.0030671732189754644,-1.1599464019139607,-0.1641240008175373,-0.0015289168804883957,0.0002941841958090663,-35.3630107,149.1645301,42416.0,4.666666666666667,4.0,-31.666666666666668,1.6666666666666667,-8.666666666666666,-1038.3333333333333,-160.66666666666666,0.3333333333333333,2.3333333333333335
20:23:52,150439.0,RTL,0.0029538471329336367,0.00022397349797150431,-1.1598885456720989,0.01716303452849388,0.002205838216468692,0.0021738618767509856,-35.3630103,149.1645305,43394.0,-0.3333333333333333,1.0,-35.666666666666664,0.0,6.333333333333333,-963.3333333333334,21.333333333333332,3.6666666666666665,4.333333333333333
20:23:53,50425.0,RTL,0.0012144854214663308,0.001139131432864815,-1.1600312789281209,-0.06288100654880206,0.004427577213694652,0.00269982754252851,-35.363010366666664,149.1645305,43567.333333333336,0.0,0.3333333333333333,2.0,0.0,13.0,-981.0,-58.0,6.333333333333333,5.0
20:23:54,50425.0,RTL,0.009091524213242034,0.00184651759142677,-1.1599509716033936,0.18674546480178833,0.0009679884339372317,-0.0003258285190289219,-35.3630103,149.1645305,43541.0,-0.3333333333333333,0.0,2.3333333333333335,-0.6666666666666666,-1.0,-1014.0,189.66666666666666,2.6666666666666665,2.0
20:23:56,50425.0,RTL,0.01069661509245634,0.00044114282354712486,-1.1595596075057983,0.05560518056154251,-0.0008752490393817425,0.001105814939364791,-35.36301076666667,149.16453036666667,44054.666666666664,1.3333333333333333,1.6666666666666667,-54.0,-0.3333333333333333,5.0,-1012.3333333333334,59.0,1.3333333333333333,3.6666666666666665
20:23:58,50425.0,RTL,0.01331945244843761,0.001999410140948991,-1.1600045760472615,0.39433911442756653,0.0016244553650418918,0.002489337387184302,-35.36301113333334,149.1645301,44785.0,5.666666666666667,3.0,-2.3333333333333335,0.3333333333333333,22.0,-977.0,399.0,3.3333333333333335,4.666666666666667
20:23:59,265369.0,RTL,-0.0020382533936450877,0.0037600057354817786,-1.1598441203435261,-0.21713043252627054,3.020876708130042e-05,0.0027997438640644154,-35.3630106,149.16453013333333,44757.0,3.3333333333333335,3.0,1.0,0.6666666666666666,-4.333333333333333,-1010.6666666666666,-212.66666666666666,1.6666666666666667,5.0
20:24:00,265369.0,RTL,0.003083935317893823,0.003246857707078258,-1.1598399877548218,0.14114474753538767,0.0005062549995879332,0.0002745552531753977,-35.36301029999999,149.1645303,44812.333333333336,0.6666666666666666,2.3333333333333335,-19.0,0.0,0.6666666666666666,-1039.6666666666667,144.33333333333334,2.3333333333333335,2.6666666666666665
20:24:02,265369.0,RTL,0.0022239837950716415,-4.093827980492885e-05,-1.1595775683720906,-0.018036679675181706,9.256314175824325e-05,-0.00018908941031744084,-35.36301,149.1645307,45750.666666666664,-4.333333333333333,0.0,-46.666666666666664,0.0,-5.0,-968.0,-14.666666666666666,2.0,2.3333333333333335
20:24:04,265369.0,RTL,0.0048919198258469505,0.0007598038646392524,-1.160004734992981,0.3354612688223521,-0.002053783042356372,0.0026420222905774913,-35.36301006666667,149.16453073333332,46038.0,-4.0,-0.3333333333333333,3.6666666666666665,-0.6666666666666666,27.0,-1005.3333333333334,340.0,0.0,5.0
20:24:05,9286.0,RTL,0.005013778495291869,0.0009500695741735399,-1.1599768002827961,-0.03345710039138794,0.0012107755367954571,0.002632373400653402,-35.363010333333335,149.16453053333333,46084.333333333336,-2.6666666666666665,0.0,-21.333333333333332,-0.6666666666666666,8.0,-1043.6666666666667,-29.333333333333332,3.3333333333333335,5.0
20:24:06,9286.0,RTL,0.005409667734056711,0.0016054536681622267,-1.1596201658248901,-0.08378768463929494,0.0008265753276646137,0.00021292750413219133,-35.3630104,149.1645305,46352.0,-1.0,0.3333333333333333,-48.0,0.3333333333333333,-6.333333333333333,-1028.6666666666667,-80.0,2.6666666666666665,2.3333333333333335
20:24:08,9286.0,RTL,0.00421846976193289,0.0006237297978562614,-1.1597922245661418,-0.3551900510210544,0.0039887691382318735,-0.0003645444909731547,-35.3630105,149.1645304,47282.333333333336,-0.6666666666666666,0.6666666666666666,-16.333333333333332,-1.0,-18.333333333333332,-960.3333333333334,-351.3333333333333,5.666666666666667,2.3333333333333335
20:24:10,9286.0,RTL,0.006250865136583646,0.0011326520761940628,-1.1598069667816162,-0.10900496939818065,-0.0030879114444057145,0.0024821124970912933,-35.3630109,149.1645301,47303.333333333336,2.3333333333333335,2.6666666666666665,-4.666666666666667,-1.0,5.666666666666667,-1028.3333333333333,-104.0,-0.3333333333333333,5.0
20:24:11,53335.0,RTL,0.014786657877266407,0.0008370003391367694,-1.1598228613535564,0.04546862840652466,0.001253777959694465,0.0007853069497893254,-35.36301133333333,149.16453,47642.0,6.666666666666667,4.666666666666667,-48.0,0.0,3.6666666666666665,-1025.6666666666667,49.0,3.3333333333333335,3.3333333333333335
20:24:12,53335.0,RTL,0.012598474510014057,0.0011345274203146498,-1.1595152616500854,0.021625700096289318,0.0007011002550522486,4.778228079279264e-05,-35.36301146666667,149.1645299,48047.666666666664,8.666666666666666,5.0,-53.333333333333336,0.0,2.0,-988.6666666666666,25.666666666666668,2.6666666666666665,3.0
20:24:14,53335.0,RTL,-0.0022005753902097545,0.00294217886403203,-1.1597233613332112,-0.43405022223790485,0.002200448070652783,-0.001328592887148261,-35.36301086666666,149.16453013333333,48528.333333333336,5.333333333333333,3.0,1.6666666666666667,0.6666666666666666,-19.666666666666668,-990.3333333333334,-429.3333333333333,4.0,1.6666666666666667
20:24:16,53335.0,RTL,-0.003547660269153615,0.002488975025092562,-1.1598292589187622,0.26510827491680783,0.0009381522734959921,0.002292594484363993,-35.36300966666666,149.16453076666664,48686.333333333336,-3.0,0.0,-37.0,0.6666666666666666,9.333333333333334,-1039.6666666666667,268.6666666666667,3.0,4.666666666666667
20:24:17,171222.0,RTL,-0.0011804046613785129,-0.0004317267206109439,-1.15945303440094,-0.028872316082318623,-0.002122255585466822,0.00027330041242142517,-35.3630096,149.164531,49342.0,-8.666666666666666,-1.6666666666666667,-54.666666666666664,-0.3333333333333333,-1.3333333333333333,-983.6666666666666,-24.333333333333332,0.6666666666666666,3.0
20:24:18,171222.0,RTL,0.004260858753696084,-0.0019265190542985995,-1.159698446591695,-0.06190410256385803,-0.0016442597843706608,0.00047942685584227246,-35.36300993333333,149.16453096666666,49689.0,-7.666666666666667,-2.0,-30.666666666666668,-0.6666666666666666,-0.6666666666666666,-956.3333333333334,-58.0,0.6666666666666666,3.3333333333333335
20:24:20,171222.0,RTL,-0.0017934656546761592,0.002184268863250812,-1.1602957646052043,-0.49887175237139064,0.004307588717589776,0.0005596460153659185,-35.3630106,149.16453043333334,49786.666666666664,0.0,0.0,1.6666666666666667,0.0,-11.0,-1012.0,-494.3333333333333,6.0,3.3333333333333335
20:24:22,171222.0,RTL,0.006325636990368366,0.00031742673066522303,-1.1594611008961995,-0.04513859252134959,-0.0021261987276375294,0.0005156573218603929,-35.3630106,149.1645304,50356.0,0.0,1.0,-57.666666666666664,0.0,-3.6666666666666665,-1008.6666666666666,-41.333333333333336,0.3333333333333333,3.0
20:24:23,39788.0,RTL,0.006112609213838975,-0.0003944433556171134,-1.1597235600153606,-0.28052933762470883,0.0015390906482934952,0.0015920409932732582,-35.36301086666666,149.1645304,50977.0,2.0,1.0,-30.0,-0.3333333333333333,-4.333333333333333,-955.3333333333334,-275.6666666666667,3.6666666666666665,4.333333333333333
20:24:24,39788.0,RTL,0.015466632321476936,0.0005356651381589472,-1.1598801215489705,0.27016417185465497,0.0003169284512599309,-0.0017674838503201802,-35.363011,149.1645303,51099.666666666664,3.3333333333333335,1.3333333333333333,-4.333333333333333,0.0,5.666666666666667,-978.0,274.0,2.6666666666666665,1.3333333333333333
20:24:26,39788.0,RTL,0.0027334979192043343,0.002315450614939133,-1.1597896019617717,-0.24269196887811026,0.0028544521580139794,0.0019085309468209743,-35.36301086666666,149.1645301,51145.333333333336,4.666666666666667,3.0,-22.666666666666668,-0.6666666666666666,-9.333333333333334,-1035.3333333333333,-238.0,5.0,4.666666666666667
20:24:28,39788.0,RTL,0.013173044503976902,-0.000290510729731371,-1.159512956937154,-0.031393393874168396,-0.0009349364166458448,0.000464596397553881,-35.363011066666665,149.1645301,52104.0,4.0,3.3333333333333335,-46.0,-0.3333333333333333,2.3333333333333335,-965.6666666666666,-27.0,1.0,3.0
20:24:29,32656.0,RTL,0.018508844077587128,0.0004298174608265981,-1.1601430575052898,0.4201417068640391,-0.00030718836933374405,0.0022818866030623517,-35.36301146666667,149.16452996666666,52393.333333333336,7.666666666666667,4.0,-0.6666666666666666,-1.0,26.333333333333332,-986.0,424.6666666666667,1.6666666666666667,5.0
20:24:30,32656.0,RTL,0.015728874132037163,0.001539420336484909,-1.1602216164271038,-0.4018557779490948,0.001703027014931043,-0.003552471986040473,-35.36301166666667,149.16452973333332,52376.0,9.0,4.666666666666667,4.0,-0.6666666666666666,-21.666666666666668,-990.3333333333334,-397.6666666666667,4.0,-0.3333333333333333
20:24:32,32656.0,RTL,0.007924497340961048,0.003487273817881942,-1.159443457921346,0.08196268479029338,0.0029423964830736318,0.0006318649587531885,-35.363011300000004,149.16452990000002,52761.333333333336,11.333333333333334,6.333333333333333,-50.666666666666664,1.3333333333333333,-1.6666666666666667,-1027.3333333333333,86.0,5.0,3.6666666666666665
20:24:34,32656.0,RTL,-0.004175011262608071,0.0033174836232016482,-1.1598771413167317,0.27470025420188904,-0.00174453086219728,-0.0010554949597766001,-35.363009466666675,149.16453083333332,53616.0,-3.3333333333333335,0.0,-10.333333333333334,1.0,3.3333333333333335,-970.3333333333334,278.6666666666667,1.0,2.0
20:24:35,81507.0,RTL,0.0013729932252317667,0.0007142458974461382,-1.159734805425008,0.3054800480604172,-0.005433486774563789,-0.0015331697650253773,-35.36300930000001,149.1645311,53623.333333333336,-10.333333333333334,-2.0,3.0,0.0,8.666666666666666,-1002.0,309.3333333333333,-2.6666666666666665,1.6666666666666667
20:24:36,81507.0,RTL,-0.005173058869938056,-0.00027548100721711916,-1.1602091789245605,-0.21978039542833963,0.0005648402341951927,0.002101088175550103,-35.3630096,149.16453103333333,53624.333333333336,-10.0,-2.0,-7.0,-0.3333333333333333,3.6666666666666665,-1032.6666666666667,-214.66666666666666,2.6666666666666665,5.0
20:24:38,81507.0,RTL,0.004426198933894436,-0.0003850119828712195,-1.159306804339091,-0.039375041921933494,6.276206113398075e-05,0.0013748474108676116,-35.363010233333334,149.16453076666667,54432.0,-4.0,-0.6666666666666666,-54.333333333333336,0.0,1.0,-984.0,-34.666666666666664,2.6666666666666665,4.333333333333333
20:24:40,81507.0,RTL,0.006727445560197036,0.0019647583831101656,-1.1597398519515991,-0.19460309048493704,-2.2885544846455257e-05,-0.0001700099091976881,-35.3630106,149.1645304,54910.0,-0.3333333333333333,0.0,2.6666666666666665,-0.3333333333333333,-20.0,-985.3333333333334,-190.66666666666666,2.3333333333333335,2.6666666666666665
20:24:41,17402.0,RTL,0.0094167102749149,0.0019822197888667383,-1.1600675185521443,0.33001623054345447,-0.0004524496616795659,0.001245839133237799,-35.3630105,149.1645304,54887.0,-0.3333333333333333,1.0,-6.333333333333333,0.0,5.0,-1032.6666666666667,334.0,2.3333333333333335,4.0
20:24:42,17402.0,RTL,0.002261886838823557,0.0020787481140966215,-1.1597818930943806,-0.010319069027900696,0.002040488412603736,0.0019471772635976474,-35.3630104,149.1645304,55040.666666666664,-0.3333333333333333,1.0,-34.666666666666664,0.0,1.3333333333333333,-1039.3333333333333,-6.0,4.333333333333333,4.666666666666667
20:24:44,17402.0,RTL,0.0031234843966861567,0.0010293884358058374,-1.159772237141927,0.3405776073535283,-0.0006686606599638859,-0.00015289002719024816,-35.36301003333333,149.1645306,55982.333333333336,-3.3333333333333335,0.0,-26.666666666666668,0.0,16.333333333333332,-956.6666666666666,345.3333333333333,2.0,2.6666666666666665
20:24:46,17402.0,RTL,0.009335820019866029,0.0013728060487968226,-1.1596309343973796,0.141390527288119,-0.002716322041427096,-0.0013066732014218967,-35.36301006666667,149.1645307,56064.666666666664,-4.666666666666667,-0.6666666666666666,0.3333333333333333,0.0,-4.0,-1010.0,144.66666666666666,0.3333333333333333,2.0
20:24:47,104049.0,RTL,0.00791668783252438,0.0003467810941704859,-1.159631888071696,0.15296249588330588,0.0008728619820127884,0.00046301485660175484,-35.363010233333334,149.1645307,56292.0,-3.0,0.0,-39.666666666666664,0.0,0.0,-1035.0,157.0,3.6666666666666665,3.6666666666666665
20:24:48,104049.0,RTL,0.006807590524355571,0.0007862395529324809,-1.1594716310501099,0.06846851607163747,-0.00036269123665988445,0.0014103443051377933,-35.363010333333335,149.16453063333336,56676.0,-2.0,0.0,-56.0,0.0,0.6666666666666666,-1004.0,73.0,2.0,4.666666666666667
20:24:50,104049.0,RTL,0.001505545941957583,0.0014190775885557134,-1.159816304842631,0.12271091341972351,-0.0005374916363507509,0.002017725414286057,-35.363010366666664,149.1645306,57350.0,-0.6666666666666666,0.0,-1.0,0.3333333333333333,13.666666666666666,-985.3333333333334,127.33333333333333,2.0,5.0
20:24:52,104049.0,RTL,0.0034146212662259736,0.0030230647729088864,-1.1595455408096313,0.028163763384024303,0.0006823341439788541,0.00014197073566416898,-35.363010133333326,149.1645305,57392.333333333336,-2.6666666666666665,0.0,-22.0,0.0,-4.666666666666667,-1036.6666666666667,32.0,3.3333333333333335,3.3333333333333335
20:24:53,119694.0,RTL,-0.0031462921566950777,0.0034385026277353368,-1.1594451665878296,-0.05327808360258738,0.0011756608728319407,0.0006636560428887606,-35.363009866666665,149.16453053333336,57932.666666666664,-5.0,0.0,-55.0,0.3333333333333333,-1.0,-1002.6666666666666,-49.0,3.6666666666666665,3.6666666666666665
20:24:54,119694.0,RTL,-0.00608948350418359,0.0025294368776182332,-1.1592767238616943,-0.12136279543240865,0.0005122761552532514,2.7118949219584465e-05,-35.36300963333333,149.16453066666668,58323.0,-6.666666666666667,0.0,-41.333333333333336,0.0,-6.0,-963.6666666666666,-117.66666666666667,3.3333333333333335,2.6666666666666665
20:24:56,119694.0,RTL,0.0006818639424939951,0.0011246920330449939,-1.1601674159367878,0.4805379956960678,-0.0009658126315722863,0.003879224881529808,-35.36300933333334,149.1645309,58545.0,-10.666666666666666,-2.0,3.6666666666666665,0.3333333333333333,28.666666666666668,-1001.6666666666666,484.3333333333333,1.6666666666666667,7.0
20:24:58,119694.0,RTL,-0.0016367185550431411,0.0006466193299274892,-1.159598708152771,-0.18214473873376846,2.978423920770486e-05,-0.00017256289720535278,-35.3630097,149.1645309,58941.333333333336,-8.333333333333334,-2.0,-51.333333333333336,0.0,-8.0,-1025.0,-178.33333333333334,2.6666666666666665,3.0
20:24:59,20185.0,RTL,-0.0025770790428699306,0.00041105744458036497,-1.159700870513916,-0.23727735877037048,0.0028588210698217154,0.0021236443426460028,-35.3630098,149.16453086666664,59589.333333333336,-7.666666666666667,-2.0,-38.0,-0.3333333333333333,-5.666666666666667,-956.0,-233.33333333333334,5.333333333333333,5.333333333333333
20:25:00,20185.0,RTL,0.005408366375680392,0.0009899302482760202,-1.1598660945892334,0.06410500903924306,-0.003148807678371668,-0.0010915702829758327,-35.3630099,149.1645308,59770.0,-7.333333333333333,-2.0,-9.333333333333334,0.0,-3.6666666666666665,-973.6666666666666,67.0,0.0,2.6666666666666665
20:25:02,20185.0,RTL,0.00936151947826147,-0.00010432258325939377,-1.1599045594533284,-0.28739778821667034,0.003013042422632376,-0.0010509148705750704,-35.36301053333333,149.16453046666666,59791.0,-2.3333333333333335,0.0,-13.0,-0.6666666666666666,-17.333333333333332,-1030.6666666666667,-283.6666666666667,5.666666666666667,2.0
20:25:04,20185.0,RTL,0.00873778248205781,-0.00018951201370024742,-1.1593698263168335,-0.05363158012429873,-0.0009984926631053288,0.00026194099336862564,-35.36301096666667,149.1645304,60659.666666666664,2.0,1.0,-48.333333333333336,0.0,-2.3333333333333335,-974.0,-50.333333333333336,2.0,3.3333333333333335
20:25:05,65520.0,RTL,0.0020862824749201536,0.0012097211365471594,-1.160059889157613,-0.436445876955986,0.004785917466506362,-0.0006626797063897053,-35.363010933333335,149.1645303,61000.0,3.3333333333333335,1.0,-4.0,0.6666666666666666,-20.0,-977.0,-432.6666666666667,7.333333333333333,2.6666666666666665
20:25:06,65520.0,RTL,0.011666731753696999,0.001562332307609419,-1.159824013710022,0.582018663485845,-0.0001223948784172535,0.0015931728606422741,-35.36301076666666,149.1645303,60996.0,3.3333333333333335,1.0,4.0,0.0,27.333333333333332,-1003.3333333333334,585.6666666666666,2.6666666666666665,5.0
20:25:08,65520.0,RTL,0.013818434750040373,-0.0015642187790945172,-1.159475326538086,-0.06531541546185811,-0.0018666844504574935,0.0013556315874059994,-35.36301113333333,149.16453023333332,61270.0,2.3333333333333335,2.3333333333333335,-45.0,-1.6666666666666667,0.3333333333333333,-1031.0,-61.666666666666664,1.3333333333333333,4.333333333333333
20:25:10,65520.0,RTL,0.02096022479236126,-0.0018621438648551702,-1.1596908966700237,-0.23765823741753897,0.0007979506626725197,0.000454243350153168,-35.363012499999996,149.16452966666668,62158.666666666664,16.0,5.333333333333333,-14.333333333333334,-1.3333333333333333,-7.0,-954.6666666666666,-233.33333333333334,3.3333333333333335,4.0
20:25:11,138409.0,RTL,0.01247777541478475,0.0016281254356727004,-1.1598672072092693,-0.5170038640499115,0.0013593435287475586,-0.0007054968737065792,-35.3630125,149.1645295,62187.666666666664,20.0,7.0,4.333333333333333,0.3333333333333333,-19.333333333333332,-1006.6666666666666,-512.3333333333334,4.333333333333333,2.6666666666666665
20:25:12,138409.0,RTL,0.018737480665246647,0.0027615622772524753,-1.159742792447408,0.3694852218031883,0.003652793588116765,0.002967200862864653,-35.363012166666664,149.1645295333333,62174.0,20.0,7.666666666666667,-4.0,0.0,15.333333333333334,-1031.3333333333333,373.6666666666667,6.333333333333333,6.333333333333333
20:25:14,138409.0,RTL,0.006307902532474448,0.0005340070080516549,-1.1593251625696819,0.0074607419470946,-0.003272458522891005,0.00025796944585939247,-35.36301123333333,149.1645301,62905.333333333336,10.0,5.333333333333333,-51.333333333333336,0.0,2.0,-985.6666666666666,12.333333333333334,0.0,3.6666666666666665
20:25:16,138409.0,RTL,0.004486597977423419,0.00120891483190159,-1.1597984631856282,-0.2805127004782359,0.003107727194825808,-0.00226515873024861,-35.36301066666667,149.16453056666668,63347.333333333336,3.6666666666666665,0.3333333333333333,2.0,1.0,-24.0,-990.0,-277.0,5.333333333333333,1.6666666666666667
20:25:17,70696.0,RTL,0.005157813643260549,0.0005363858072087169,-1.1592545906702678,0.2741163770357768,-0.002066743948186437,-0.00047333166003227234,-35.3630101,149.1645308,63335.0,0.0,0.0,-9.0,0.0,6.666666666666667,-1037.3333333333333,278.0,1.0,2.6666666666666665
20:25:18,70696.0,RTL,0.0049401946986715,-0.0007907366768146554,-1.1591318448384602,0.06576560934384663,-0.001138914143666625,0.0004051579162478447,-35.363010233333334,149.1645308,63515.0,-2.0,0.0,-37.666666666666664,-1.0,6.333333333333333,-1036.6666666666667,70.33333333333333,1.6666666666666667,3.6666666666666665
20:25:20,70696.0,RTL,0.010891990270465612,-0.0013701964635401964,-1.1591851711273193,0.10279369354248047,-0.0005507199869801601,-0.0005171531035254399,-35.3630106,149.1645308,64450.0,0.0,-1.0,-24.0,0.0,-0.6666666666666666,-957.3333333333334,107.0,1.6666666666666667,3.3333333333333335
20:25:22,70696.0,RTL,-0.002390766671548287,0.00037864839638738584,-1.1596050262451172,-0.500743955373764,0.001631607146312793,0.0008942442946135998,-35.36301056666667,149.1645307,64509.666666666664,0.3333333333333333,-0.6666666666666666,-1.0,0.3333333333333333,-18.666666666666668,-1023.3333333333334,-495.6666666666667,4.333333333333333,4.333333333333333
20:25:23,61823.0,RTL,0.004494217044945496,-0.00029700729889251914,-1.159286379814148,-0.16875698417425156,0.001195013018635412,-0.0008130686668058237,-35.3630105,149.1645308,64778.666666666664,0.0,-1.0,-44.666666666666664,-0.3333333333333333,-13.0,-1038.6666666666667,-164.33333333333334,3.6666666666666665,2.3333333333333335
20:25:24,61823.0,RTL,0.0020613176748156548,0.00014547529281117022,-1.1590393384297688,-0.024307431653141975,-0.0009085466153919697,4.8987955475846924e-05,-35.3630104,149.1645308,65185.333333333336,0.0,-0.6666666666666666,-58.666666666666664,1.0,-4.0,-1000.3333333333334,-20.0,2.3333333333333335,3.3333333333333335
20:25:26,61823.0,RTL,-0.0039233398614063235,0.0008938101818785071,-1.1597148577372234,0.42401791115601856,-9.04574990272522e-05,0.0020607009840508303,-35.3630094,149.16453126666667,65842.0,-7.333333333333333,-4.666666666666667,-1.6666666666666667,0.6666666666666666,14.0,-986.3333333333334,428.0,3.0,5.666666666666667
20:25:28,61823.0,RTL,0.0011460386643496652,-0.002340753252307574,-1.1598024765650432,-0.15978491803010306,-0.00017537750924626985,-0.0003174471203237772,-35.36300943333333,149.16453143333334,65906.66666666667,-13.0,-6.0,-27.333333333333332,-1.6666666666666667,-10.333333333333334,-1038.0,-156.0,2.0,3.3333333333333335
20:25:29,61023.0,RTL,0.014753881841897964,-0.0037119752960279584,-1.1590900421142578,0.18503938242793083,-0.004065362096298486,0.0011796392500400543,-35.36301055,149.16453095,66483.5,-6.0,-3.5,-60.0,-1.0,14.0,-1005.5,189.0,-1.0,4.5
20:25:30,61023.0,RTL,0.019196247216314077,-0.003729399060830474,-1.1591086983680725,0.05615318566560745,0.000857727718539536,-0.0008866991847753525,-35.363011225,149.16453055,66890.75,0.0,-1.5,-44.25,-2.0,3.75,-967.25,60.25,3.5,2.75
20:25:32,61023.0,RTL,0.020175388393302757,5.731876202238103e-05,-1.159648060798645,0.005793655912081401,0.00014294101856648922,-0.003295853113134702,-35.3630119,149.16452993333334,67157.33333333333,11.0,2.6666666666666665,3.3333333333333335,-0.6666666666666666,-8.666666666666666,-996.6666666666666,9.333333333333334,2.6666666666666665,0.6666666666666666
20:25:35,49154.0,RTL,0.010896185413002968,-0.0008869634184520692,-1.1591285467147827,-0.24855377548374236,0.0006207714322954416,0.0003720945678651333,-35.363011650000004,149.1645301,68127.5,11.5,3.5,-43.5,0.0,-21.5,-960.0,-244.5,2.5,4.0
20:25:37,37285.0,RTL,0.013058654963970184,0.0007617558585479856,-1.1591489911079407,0.6062744557857513,-0.003283039666712284,0.0025659361854195595,-35.36301125,149.16453024999998,68370.5,9.5,2.5,4.5,1.0,32.5,-996.5,611.5,-0.5,6.0
20:25:39,37285.0,RTL,-0.001563624944537878,0.0007993390026967973,-1.1594321131706238,-0.20516538992524147,0.0022470825351774693,-0.0004770035156980157,-35.36301055,149.1645307,68721.0,3.0,0.0,-50.0,1.0,-15.0,-1022.5,-200.0,4.5,3.0
20:25:40,86343.0,RTL,-0.0025563810631865636,-0.00019407090621825773,-1.158932238817215,0.02799069881439209,-0.0010838882299140096,0.00033726426772773266,-35.363010225,149.164530925,69122.25,0.25,-0.75,-49.75,0.5,2.25,-983.75,32.75,1.25,3.75
20:25:41,86343.0,RTL,-0.008906228234991431,-0.0007398827001452446,-1.1594334244728088,-0.6355700194835663,0.0030736197950318456,-9.881856385618448e-05,-35.363009950000006,149.16453115000002,69528.5,-4.0,-4.0,-7.0,0.0,-27.0,-965.5,-631.0,5.0,3.0
20:25:43,86343.0,RTL,-0.002775004570139572,-0.0002699156721064355,-1.1591408252716064,0.00803956389427185,-0.00192924530711025,0.002872457029297948,-35.3630098,149.16453115000002,69533.5,-5.5,-4.0,-11.0,1.0,12.0,-1041.0,13.5,1.0,6.5
20:25:45,86343.0,RTL,-0.014680651482194662,0.00016941683134064078,-1.159083604812622,-0.22348330542445183,-0.00013296399265527725,0.0013299426063895226,-35.3630087,149.16453174999998,70385.5,-15.5,-8.0,-48.0,0.0,-8.5,-978.0,-218.5,3.0,5.5
20:25:46,55091.0,RTL,-0.013133085099980235,-0.001108061129343696,-1.1593028604984283,-0.11685020104050636,-0.002458121278323233,-0.0005798814236186445,-35.3630086,149.1645318,70645.75,-18.0,-9.25,-19.5,-0.25,-3.0,-962.5,-112.75,0.5,3.0
20:25:47,55091.0,RTL,0.008377943653613329,-0.004127397085539997,-1.1596431136131287,0.28371449187397957,-0.00872165011242032,-0.00413359294179827,-35.363009250000005,149.16453155,70709.5,-18.0,-8.0,4.0,-1.5,-5.0,-997.5,286.0,-5.5,0.0
20:25:49,55091.0,RTL,0.017174814827740192,-0.0020320360199548304,-1.1588048934936523,0.07476469874382019,-0.00048378610517829657,0.00043510866817086935,-35.36301125,149.1645304,70962.5,1.0,-0.5,-44.5,-1.5,12.0,-1031.0,79.5,2.0,3.5
20:25:51,55091.0,RTL,0.017809623386710882,-0.00038326250069076195,-1.1587099432945251,0.29562160186469555,0.002897568861953914,0.0024001523852348328,-35.36301195,149.16452995,71893.0,12.0,3.0,-17.0,0.0,19.5,-964.0,300.5,5.0,5.5
20:25:52,190020.0,RTL,0.010001920541981235,0.0015088120562722906,-1.1593412160873413,-0.2861824259161949,0.00205110979732126,-0.0021471718791872263,-35.36301165,149.16452995,71942.25,12.25,3.0,0.25,0.25,-18.25,-985.25,-282.25,4.5,1.25
20:25:53,190020.0,RTL,0.013490771409124136,0.0021782368421554565,-1.1590015888214111,0.39283327013254166,-0.007874968112446368,-0.0035460159415379167,-35.36301095,149.16453024999998,71913.0,7.5,2.5,-2.5,2.0,0.5,-1018.0,396.0,-5.0,0.5
20:25:55,190020.0,RTL,0.009884970961138606,-0.002247750700917095,-1.1587710976600647,0.1584232784807682,-0.0051964097656309605,-0.0009321038378402591,-35.36301065,149.1645306,72655.0,0.0,0.0,-56.0,-1.0,8.5,-993.0,163.0,-2.5,2.5
20:25:57,190020.0,RTL,0.007946863071992993,-0.00013892115384805948,-1.1591520309448242,0.12070393562316895,0.005043110577389598,0.0006546815857291222,-35.3630111,149.1645305,73196.5,5.5,0.0,2.0,-0.5,14.0,-992.0,127.0,7.0,3.5
20:25:58,104930.0,RTL,0.006024032511049882,0.0017061852267943323,-1.159162700176239,-0.013396866619586945,-0.00034900096943601966,-0.000993875553831458,-35.363010875,149.164530525,73170.0,4.5,0.0,2.75,1.5,-12.5,-1009.0,-9.25,2.0,2.75
20:25:59,104930.0,RTL,-0.005672818166203797,0.003267070045694709,-1.1587607860565186,0.29849373549222946,-0.0016071706195361912,-0.0023916910868138075,-35.3630096,149.16453105,73292.0,-1.0,-1.5,-30.5,3.0,7.0,-1043.0,302.0,1.0,1.5
20:26:01,104930.0,RTL,-0.020548556931316853,-0.0008036285580601543,-1.159035086631775,0.27180199697613716,-0.003297876100987196,-0.0028013436822220683,-35.3630075,149.1645325,74246.5,-24.5,-12.0,-29.0,0.5,0.5,-954.0,275.0,-0.5,1.0
20:26:03,104930.0,RTL,-0.014443508815020323,-0.0035358048044145107,-1.1591944098472595,-0.6422591060400009,-0.00016423908527940512,0.0020483132684603333,-35.36300815,149.1645323,74346.5,-28.0,-14.5,5.0,-1.5,-34.5,-994.0,-639.0,2.0,5.0
20:26:04,178797.0,RTL,-0.0034020391176454723,-0.0032679024734534323,-1.1591462194919586,0.03896860807435587,0.0014888490550220013,0.0014728252426721156,-35.36300862499999,149.16453205,74379.0,-23.75,-12.75,-13.25,-2.0,5.25,-1029.25,42.25,3.5,4.75
20:26:05,178797.0,RTL,0.006424243561923504,-0.0028707835590466857,-1.15895015001297,0.3040160834789276,-0.005674392508808523,-0.0022267905296757817,-35.363009500000004,149.16453155,74820.5,-15.5,-9.0,-50.5,-1.5,11.5,-1009.0,307.0,-3.0,1.0
20:26:07,178797.0,RTL,0.002850944612873718,-0.0014113759389147162,-1.1590831875801086,0.1466590091586113,0.0012160082696937025,0.0031769893830642104,-35.363010349999996,149.1645309,75439.5,-4.5,-4.0,1.0,0.0,26.5,-975.0,151.0,3.0,6.5
20:26:09,178797.0,RTL,0.016706536523997784,-0.001780056452844292,-1.1589083075523376,0.22363820299506187,-0.0021613462595269084,-0.0017508540768176317,-35.36301095,149.16453055,75490.5,0.5,-1.0,-24.5,0.0,1.0,-1039.0,226.5,0.0,2.0
20:26:10,191785.0,RTL,0.007085807970725,-0.0006249474172363989,-1.1584409177303314,-0.037775959353893995,-0.00010924739763140678,0.0007741700392216444,-35.363010975,149.1645305,75794.75,2.75,0.0,-48.5,0.25,-1.0,-1021.0,-34.5,2.25,4.0
20:26:11,191785.0,RTL,0.009921166114509106,-0.0013484462397173047,-1.1586015820503235,0.27676438726484776,-0.0025740701239556074,-0.002095223404467106,-35.3630108,149.1645306,76439.0,2.0,-0.5,-38.0,0.0,4.0,-959.0,279.0,-0.5,2.0
20:26:13,191785.0,RTL,0.006994055584073067,0.00044765301572624594,-1.159063696861267,0.5128185600042343,0.0002335346071049571,0.0013991561718285084,-35.36301055,149.1645306,76608.5,1.5,0.0,2.5,0.0,26.0,-1010.5,516.0,2.0,4.5
20:26:15,191785.0,RTL,0.003973911399953067,-9.207939729094505e-05,-1.1586281061172485,0.0014454275369644165,-0.002296484191901982,0.0004942059749737382,-35.3630105,149.1645306,77096.5,0.0,0.0,-55.5,0.0,5.0,-1016.0,4.5,0.0,4.0
20:26:16,20205.0,RTL,0.006318745843600482,-0.0005371785227907822,-1.1585423648357391,0.12635049782693386,-0.0007888403779361397,-0.000660050893202424,-35.3630105,149.16453065000002,77516.25,0.0,0.0,-49.5,0.0,2.25,-976.25,128.75,1.25,2.5
20:26:17,20205.0,RTL,-0.0011643962934613228,-0.0008052746707107872,-1.1588592529296875,-0.30903099523857236,-0.0012453014496713877,0.0035497513599693775,-35.3630105,149.1645307,77887.5,0.0,-1.0,-5.0,0.0,-1.5,-971.0,-305.5,0.5,6.5
20:26:19,20205.0,RTL,0.01678688358515501,-0.0017139226547442377,-1.1591228246688843,0.23229678440839052,-0.003682984970510006,-0.0017567856702953577,-35.36301115,149.16453035,77903.5,3.0,1.0,-15.5,-2.0,10.0,-1038.0,235.0,-1.0,1.5
20:26:21,83557.5,RTL,0.02019520290195942,-0.0008478202216792852,-1.1586017608642578,-0.0026378333568573,0.0005618359427899122,-0.002067979075945914,-35.363012,149.1645299,78792.0,13.0,4.0,-45.0,-0.5,-10.5,-969.5,0.5,3.0,1.0
20:26:23,146910.0,RTL,0.00013389380183070898,0.0019709908519871533,-1.1588048934936523,0.236458397237584,-0.0005205600173212588,0.001281740260310471,-35.363011,149.16453024999998,79067.0,9.5,3.0,5.0,1.0,28.5,-999.0,240.5,1.0,4.5
20:26:25,146910.0,RTL,-0.0024597713199909776,0.00017411033331882209,-1.1587955951690674,-0.19903313927352428,0.0008663474582135677,-0.00033827265724539757,-35.36301005,149.16453095,79363.5,-1.5,-1.0,-46.5,1.5,-15.0,-1030.5,-195.5,2.5,3.0
20:26:26,91721.0,RTL,-0.0019113692978862673,-0.0009439171408303082,-1.1587488949298859,-0.02152218297123909,-0.002514961757697165,-0.0005497782258316875,-35.363009875,149.164531075,79761.25,-3.5,-2.25,-50.25,0.25,-2.5,-988.5,-18.25,-0.75,2.25
20:26:27,91721.0,RTL,0.004832579172216356,-0.00034127024991903454,-1.1591437458992004,0.15361026674509048,-0.0029606038006022573,-0.0056777907302603126,-35.36300975,149.1645312,80204.5,-6.5,-4.5,-9.5,0.0,-9.5,-963.5,156.0,-0.5,-2.0
20:26:29,91721.0,RTL,-0.011827821843326092,0.0009596085001248866,-1.1585598587989807,-0.5096045583486557,-0.0033230010885745287,0.0024545169435441494,-35.3630093,149.1645314,80200.0,-10.0,-5.5,-6.0,0.0,-21.5,-1024.5,-506.0,-1.5,5.5
20:26:31,91721.0,RTL,0.0038808310637250543,-0.002629958325996995,-1.1582213044166565,-0.04206186532974243,-0.0016146213747560978,-0.00012770842295140028,-35.36300975,149.16453124999998,80987.5,-10.5,-5.0,-51.0,-0.5,-6.5,-985.0,-40.0,0.5,3.0
20:26:32,43414.0,RTL,0.007284979117684998,-0.0024072087253443897,-1.1586363017559052,0.11112823151051998,0.0013277879334054887,-0.002830505487509072,-35.363010025,149.164531125,81285.0,-7.25,-5.0,-24.75,-0.25,3.75,-959.75,114.0,3.0,0.75
20:26:33,43414.0,RTL,0.0007108636200428009,0.00014123856560388504,-1.158934473991394,0.34901905432343483,0.00019089342094957829,0.004628585302270949,-35.3630102,149.1645309,81383.5,-3.5,-3.0,3.5,0.0,29.5,-1001.0,353.0,2.0,7.5
20:26:35,43414.0,RTL,-0.0023079387610778213,0.00035877065784006845,-1.158733308315277,-0.05550543963909149,0.00011067109880968928,-0.0014365606475621462,-35.3630098,149.164531,81592.0,-6.5,-3.0,-41.5,1.0,-9.5,-1032.0,-53.5,2.0,1.5
20:26:37,43414.0,RTL,-0.00016321474686264992,-0.001547636347822845,-1.1584274768829346,-0.36160821840167046,0.0025679413229227066,-0.0035135423531755805,-35.36301,149.164531,82521.0,-6.0,-3.0,-18.5,-0.5,-22.0,-954.0,-359.5,4.0,0.0
20:26:38,169702.0,RTL,0.003312863591418136,-0.0009552961710141972,-1.1589490175247192,0.2421390749514103,0.00010138840298168361,-0.0006970315880607814,-35.3630101,149.164531,82577.5,-4.75,-3.25,-0.25,-0.25,15.75,-987.25,244.75,1.75,2.25
20:26:39,169702.0,RTL,-0.008899973006919026,-0.00013406921061687171,-1.1590731143951416,-0.1016463041305542,-0.00020782742649316788,0.005847493186593056,-35.363009950000006,149.164531,82553.5,-4.5,-3.0,-2.5,-1.0,9.0,-1018.0,-98.5,1.5,9.0
20:26:41,169702.0,RTL,-0.008576140739023685,-0.0011433894978836179,-1.1582238674163818,-0.1403992399573326,-0.0027473140507936478,-0.0014992727665230632,-35.36300945,149.1645313,83271.0,-10.0,-5.0,-56.5,-1.0,2.5,-992.0,-138.0,-0.5,1.0
