time_stamp,MODE,lat,lon,relative_alt,roll,pitch,yaw,rollspeed,pitchspeed,yawspeed,xacc,yacc,zacc,xgyro,ygyro,zgyro,vx,vy,vz,RTL_ALT
12:39:43.645,STABILIZE,-35.3632622,149.1652374,0,-0.0004081462393514812,0.0015256279148161411,0.02634689025580883,0.0002820978406816721,0.00027273359592072666,0.002259517088532448,0,1,-1000,0,0,0,-2,1,-1,1500.0
12:39:43.846,STABILIZE,-35.3632622,149.1652374,0,-0.0004467376274988055,0.0014793352456763387,0.026202207431197166,0.0002484319848008454,0.0001103362301364541,0.00212631793692708,0,1,-1000,0,0,0,-2,1,-1,1500.0
12:39:44.046,STABILIZE,-35.3632622,149.1652374,0,-0.0004467376274988055,0.0014793352456763387,0.026202207431197166,0.0002484319848008454,0.0001103362301364541,0.00212631793692708,0,1,-1000,0,0,0,-2,1,-1,1500.0
12:39:44.247,STABILIZE,-35.3632622,149.1652374,0,-0.0004467376274988055,0.0014793352456763387,0.026202207431197166,0.0002484319848008454,0.0001103362301364541,0.00212631793692708,0,1,-1000,0,0,0,-2,1,-1,1500.0
12:39:44.448,STABILIZE,-35.3632622,149.1652374,0,-0.0005263987695798278,0.0013721680734306574,0.02597939781844616,0.0003616298781707883,9.32428811211139e-05,0.0021287400741130114,0,1,-1000,0,0,0,-2,1,-1,1500.0
12:39:44.650,STABILIZE,-35.3632622,149.1652374,0,-0.0005263987695798278,0.0013721680734306574,0.02597939781844616,0.0003616298781707883,9.32428811211139e-05,0.0021287400741130114,0,1,-1000,0,0,0,-2,1,-1,1500.0
12:39:44.853,STABILIZE,-35.3632622,149.1652374,0,-0.0005263987695798278,0.0013721680734306574,0.02597939781844616,0.0003616298781707883,9.32428811211139e-05,0.0021287400741130114,0,1,-1000,0,0,0,-2,1,-1,1500.0
12:39:45.054,STABILIZE,-35.3632622,149.1652374,0,-0.0005263987695798278,0.0013721680734306574,0.02597939781844616,0.0003616298781707883,9.32428811211139e-05,0.0021287400741130114,0,1,-1000,0,0,0,-2,1,-1,1500.0
12:39:45.255,STABILIZE,-35.3632622,149.1652374,0,-0.0006525148637592793,0.0011990570928901434,0.025584636256098747,0.0002624423650559038,0.0003127716772723943,0.002153822686523199,0,1,-1000,0,0,0,-1,1,-1,1500.0
12:39:45.456,STABILIZE,-35.3632622,149.1652374,0,-0.0006839604466222227,0.00114842236507684,0.02546679601073265,0.00024880864657461643,0.00022057624300941825,0.001956420950591564,0,1,-1000,0,0,0,-1,1,0,1500.0
12:39:45.657,STABILIZE,-35.3632622,149.1652374,0,-0.0007171779288910329,0.0011037880321964622,0.02536105550825596,0.00026063452241942286,0.00019639066886156797,0.0019281039712950587,0,1,-1000,0,0,0,-1,1,0,1500.0
12:39:45.859,STABILIZE,-35.3632622,149.1652374,0,-0.0007438912289217114,0.001069677877239883,0.025242816656827927,0.00023069072631187737,0.0001874855370260775,0.0021165297366678715,0,1,-1000,0,0,0,-1,1,0,1500.0
12:39:46.060,STABILIZE,-35.3632622,149.1652374,0,-0.0007438912289217114,0.001069677877239883,0.025242816656827927,0.00023069072631187737,0.0001874855370260775,0.0021165297366678715,0,1,-1000,0,0,0,-1,1,0,1500.0
12:39:46.261,STABILIZE,-35.3632622,149.1652374,0,-0.0007672206265851855,0.0010501246433705091,0.02512631006538868,0.00021664469386450946,0.0002994264359585941,0.0020043025724589825,0,1,-1000,0,1,0,-1,1,0,1500.0
12:39:46.463,STABILIZE,-35.3632622,149.1652374,0,-0.0007672206265851855,0.0010501246433705091,0.02512631006538868,0.00021664469386450946,0.0002994264359585941,0.0020043025724589825,0,1,-1000,0,1,0,-1,1,0,1500.0
12:39:46.664,STABILIZE,-35.3632622,149.1652374,0,-0.0007672206265851855,0.0010501246433705091,0.02512631006538868,0.00021664469386450946,0.0002994264359585941,0.0020043025724589825,0,1,-1000,0,1,0,-1,1,0,1500.0
12:39:46.866,STABILIZE,-35.3632621,149.1652374,0,-0.0006411452777683735,0.0009834496304392815,0.024823449552059174,0.0003092062834184617,0.0002940324484370649,0.0020254631526768208,0,1,-1000,0,0,0,-1,0,-3,1500.0
12:39:47.067,STABILIZE,-35.3632621,149.1652374,0,-0.0006411452777683735,0.0009834496304392815,0.024823449552059174,0.0003092062834184617,0.0002940324484370649,0.0020254631526768208,0,1,-1000,0,0,0,-1,0,-3,1500.0
12:39:47.268,STABILIZE,-35.3632621,149.1652374,0,-0.0006411452777683735,0.0009834496304392815,0.024823449552059174,0.0003092062834184617,0.0002940324484370649,0.0020254631526768208,0,1,-1000,0,0,0,-1,0,-3,1500.0
12:39:47.469,STABILIZE,-35.3632621,149.1652374,0,-0.0005280576879158616,0.0009691669256426394,0.024642005562782288,0.0003323881537653506,0.0002110092027578503,0.0019446683581918478,0,1,-1000,0,0,0,-1,0,-3,1500.0
12:39:47.670,STABILIZE,-35.3632621,149.1652374,0,-0.0005280576879158616,0.0009691669256426394,0.024642005562782288,0.0003323881537653506,0.0002110092027578503,0.0019446683581918478,0,1,-1000,0,0,0,-1,0,-3,1500.0
12:39:47.871,STABILIZE,-35.3632621,149.1652374,0,-0.0005280576879158616,0.0009691669256426394,0.024642005562782288,0.0003323881537653506,0.0002110092027578503,0.0019446683581918478,0,1,-1000,0,0,0,-1,0,-3,1500.0
12:39:48.073,STABILIZE,-35.3632621,149.1652374,0,-0.0005280576879158616,0.0009691669256426394,0.024642005562782288,0.0003323881537653506,0.0002110092027578503,0.0019446683581918478,0,1,-1000,0,0,0,-1,0,-3,1500.0
12:39:48.274,STABILIZE,-35.3632621,149.1652374,0,-0.0005280576879158616,0.0009691669256426394,0.024642005562782288,0.0003323881537653506,0.0002110092027578503,0.0019446683581918478,0,1,-1000,0,0,0,-1,0,-3,1500.0
12:39:48.475,STABILIZE,-35.3632621,149.1652374,0,-0.0005280576879158616,0.0009691669256426394,0.024642005562782288,0.0003323881537653506,0.0002110092027578503,0.0019446683581918478,0,1,-1000,0,0,0,-1,0,-3,1500.0
12:39:48.676,STABILIZE,-35.3632621,149.1652374,0,-0.0005280576879158616,0.0009691669256426394,0.024642005562782288,0.0003323881537653506,0.0002110092027578503,0.0019446683581918478,0,1,-1000,0,0,0,-1,0,-3,1500.0
12:39:48.879,STABILIZE,-35.3632621,149.1652374,0,-0.0005280576879158616,0.0009691669256426394,0.024642005562782288,0.0003323881537653506,0.0002110092027578503,0.0019446683581918478,0,1,-1000,0,0,0,-1,0,-3,1500.0
12:39:49.080,STABILIZE,-35.3632621,149.1652374,0,-0.0005280576879158616,0.0009691669256426394,0.024642005562782288,0.0003323881537653506,0.0002110092027578503,0.0019446683581918478,0,1,-1000,0,0,0,-1,0,-3,1500.0
12:39:49.281,STABILIZE,-35.3632621,149.1652374,0,-0.0005280576879158616,0.0009691669256426394,0.024642005562782288,0.0003323881537653506,0.0002110092027578503,0.0019446683581918478,0,1,-1000,0,0,0,-1,0,-3,1500.0
12:39:49.483,STABILIZE,-35.3632621,149.1652374,0,-0.0003685280680656433,0.0009293854818679392,0.02378513105213642,0.00021413969807326794,0.0002360547659918666,0.0019353567622601986,0,1,-1000,0,0,0,-1,1,-1,1500.0
12:39:49.684,STABILIZE,-35.3632621,149.1652374,0,-0.0003685280680656433,0.0009293854818679392,0.02378513105213642,0.00021413969807326794,0.0002360547659918666,0.0019353567622601986,0,1,-1000,0,0,0,-1,1,-1,1500.0
12:39:49.886,STABILIZE,-35.3632621,149.1652374,0,-0.0003685280680656433,0.0009293854818679392,0.02378513105213642,0.00021413969807326794,0.0002360547659918666,0.0019353567622601986,0,1,-1000,0,0,0,-1,1,-1,1500.0
12:39:50.087,STABILIZE,-35.3632621,149.1652374,0,-0.0003685280680656433,0.0009293854818679392,0.02378513105213642,0.00021413969807326794,0.0002360547659918666,0.0019353567622601986,0,1,-1000,0,0,0,-1,1,-1,1500.0
12:39:50.288,STABILIZE,-35.3632621,149.1652374,0,-0.0002429770102025941,0.0009289832087233663,0.02349049225449562,0.00025952840223908424,0.0002706428640522063,0.001951446058228612,0,1,-1000,1,0,0,-1,0,-2,1500.0
12:39:50.489,STABILIZE,-35.3632621,149.1652374,0,-0.0002429770102025941,0.0009289832087233663,0.02349049225449562,0.00025952840223908424,0.0002706428640522063,0.001951446058228612,0,1,-1000,1,0,0,-1,0,-2,1500.0
12:39:50.691,STABILIZE,-35.3632621,149.1652374,0,-0.0002429770102025941,0.0009289832087233663,0.02349049225449562,0.00025952840223908424,0.0002706428640522063,0.001951446058228612,0,1,-1000,1,0,0,-1,0,-2,1500.0
12:39:50.892,STABILIZE,-35.3632621,149.1652374,0,-0.00022508723486680537,0.0009104968048632145,0.02317187190055847,0.0002620368613861501,0.0002291368436999619,0.0017001540400087833,0,1,-1000,1,0,0,-1,1,-2,1500.0
12:39:51.094,STABILIZE,-35.3632621,149.1652374,0,-0.00022508723486680537,0.0009104968048632145,0.02317187190055847,0.0002620368613861501,0.0002291368436999619,0.0017001540400087833,0,1,-1000,1,0,0,-1,1,-2,1500.0
12:39:51.295,STABILIZE,-35.3632621,149.1652374,0,-0.00022508723486680537,0.0009104968048632145,0.02317187190055847,0.0002620368613861501,0.0002291368436999619,0.0017001540400087833,0,1,-1000,1,0,0,-1,1,-2,1500.0
12:39:51.497,STABILIZE,-35.3632621,149.1652374,0,-0.00022508723486680537,0.0009104968048632145,0.02317187190055847,0.0002620368613861501,0.0002291368436999619,0.0017001540400087833,0,1,-1000,1,0,0,-1,1,-2,1500.0
12:39:51.698,STABILIZE,-35.3632621,149.1652374,0,-0.0002415569470031187,0.0009222081280313432,0.022868502885103226,0.00035937968641519547,0.00031384779140353203,0.0016455139266327024,0,1,-1000,1,0,0,-1,1,-2,1500.0
12:39:51.900,STABILIZE,-35.3632621,149.1652375,0,-0.00027193743153475225,0.0009290605667047203,0.022754695266485214,0.00029069057200104,0.00020348950056359172,0.0015854197554290295,0,1,-1000,0,0,0,-1,1,-1,1500.0
12:39:52.101,STABILIZE,-35.3632621,149.1652375,0,-0.00027193743153475225,0.0009290605667047203,0.022754695266485214,0.00029069057200104,0.00020348950056359172,0.0015854197554290295,0,1,-1000,0,0,0,-1,1,-1,1500.0
12:39:52.302,STABILIZE,-35.3632621,149.1652375,0,-0.00027193743153475225,0.0009290605667047203,0.022754695266485214,0.00029069057200104,0.00020348950056359172,0.0015854197554290295,0,1,-1000,0,0,0,-1,1,-1,1500.0
12:39:52.503,STABILIZE,-35.3632621,149.1652375,0,-0.00027193743153475225,0.0009290605667047203,0.022754695266485214,0.00029069057200104,0.00020348950056359172,0.0015854197554290295,0,1,-1000,0,0,0,-1,1,-1,1500.0
12:39:52.705,STABILIZE,-35.3632621,149.1652375,0,-0.00027193743153475225,0.0009290605667047203,0.022754695266485214,0.00029069057200104,0.00020348950056359172,0.0015854197554290295,0,1,-1000,0,0,0,-1,1,-1,1500.0
12:39:52.906,STABILIZE,-35.3632621,149.1652375,0,-0.0003846801118925214,0.0009388968464918435,0.02235717885196209,0.0002557205152697861,0.0003635843168012798,0.0016485999803990126,0,1,-1000,0,0,0,-1,2,0,1500.0
12:39:53.107,STABILIZE,-35.3632622,149.1652375,0,-0.0003846801118925214,0.0009388968464918435,0.02235717885196209,0.0002557205152697861,0.0003635843168012798,0.0016485999803990126,0,1,-1000,0,0,0,-1,2,0,1500.0
12:39:53.308,STABILIZE,-35.3632622,149.1652375,0,-0.0003846801118925214,0.0009388968464918435,0.02235717885196209,0.0002557205152697861,0.0003635843168012798,0.0016485999803990126,0,1,-1000,0,0,0,-1,2,0,1500.0
12:39:53.509,STABILIZE,-35.3632622,149.1652375,0,-0.0003846801118925214,0.0009388968464918435,0.02235717885196209,0.0002557205152697861,0.0003635843168012798,0.0016485999803990126,0,1,-1000,0,0,0,-1,2,0,1500.0
12:39:53.711,STABILIZE,-35.3632622,149.1652375,0,-0.0003317657974548638,0.000957456068135798,0.022085122764110565,0.00028869404923170805,0.00031186192063614726,0.0016611911123618484,0,1,-1000,0,0,0,-1,1,-1,1500.0
12:39:53.912,STABILIZE,-35.3632622,149.1652375,0,-0.0003317657974548638,0.000957456068135798,0.022085122764110565,0.00028869404923170805,0.00031186192063614726,0.0016611911123618484,0,1,-1000,0,1,0,-1,1,-1,1500.0
12:39:54.113,STABILIZE,-35.3632622,149.1652375,0,-0.0003317657974548638,0.000957456068135798,0.022085122764110565,0.00028869404923170805,0.00031186192063614726,0.0016611911123618484,0,1,-1000,0,1,0,-1,1,-1,1500.0
12:39:54.315,STABILIZE,-35.3632622,149.1652375,0,-0.0003317657974548638,0.000957456068135798,0.022085122764110565,0.00028869404923170805,0.00031186192063614726,0.0016611911123618484,0,1,-1000,0,1,0,-1,1,-1,1500.0
12:39:54.516,STABILIZE,-35.3632622,149.1652375,0,-0.0003317657974548638,0.000957456068135798,0.022085122764110565,0.00028869404923170805,0.00031186192063614726,0.0016611911123618484,0,1,-1000,0,1,0,-1,1,-1,1500.0
12:39:54.717,STABILIZE,-35.3632622,149.1652375,0,-0.0003317657974548638,0.000957456068135798,0.022085122764110565,0.00028869404923170805,0.00031186192063614726,0.0016611911123618484,0,1,-1000,0,1,0,-1,1,-1,1500.0
12:39:54.919,STABILIZE,-35.3632622,149.1652375,0,-0.00036736924084834754,0.0009652674198150635,0.02169736847281456,0.0001878822222352028,0.0002942260471172631,0.001513198483735323,0,1,-1000,0,0,0,-1,1,0,1500.0
12:39:55.120,STABILIZE,-35.3632622,149.1652375,0,-0.00038239246350713074,0.0009638206101953983,0.02161051519215107,0.00025497423484921455,0.0002515984233468771,0.0016429508104920387,0,1,-1000,0,0,0,-1,1,0,1500.0
12:39:55.321,STABILIZE,-35.3632622,149.1652375,0,-0.00038239246350713074,0.0009638206101953983,0.02161051519215107,0.00025497423484921455,0.0002515984233468771,0.0016429508104920387,0,1,-1000,0,0,0,-1,1,0,1500.0
12:39:55.523,STABILIZE,-35.3632622,149.1652375,0,-0.00038239246350713074,0.0009638206101953983,0.02161051519215107,0.00025497423484921455,0.0002515984233468771,0.0016429508104920387,0,1,-1000,0,0,0,-1,1,0,1500.0
12:39:55.724,STABILIZE,-35.3632622,149.1652375,0,-0.00038239246350713074,0.0009638206101953983,0.02161051519215107,0.00025497423484921455,0.0002515984233468771,0.0016429508104920387,0,1,-1000,0,0,0,-1,1,0,1500.0
12:39:55.925,STABILIZE,-35.3632622,149.1652375,0,-0.00038239246350713074,0.0009638206101953983,0.02161051519215107,0.00025497423484921455,0.0002515984233468771,0.0016429508104920387,0,1,-1000,0,0,0,-1,1,0,1500.0
12:39:56.127,STABILIZE,-35.3632622,149.1652375,0,-0.00038239246350713074,0.0009638206101953983,0.02161051519215107,0.00025497423484921455,0.0002515984233468771,0.0016429508104920387,0,1,-1000,0,0,0,-1,1,0,1500.0
12:39:56.328,STABILIZE,-35.3632622,149.1652375,0,-0.00038239246350713074,0.0009638206101953983,0.02161051519215107,0.00025497423484921455,0.0002515984233468771,0.0016429508104920387,0,1,-1000,0,0,0,-1,1,0,1500.0
12:39:56.529,STABILIZE,-35.3632622,149.1652375,0,-0.00038239246350713074,0.0009638206101953983,0.02161051519215107,0.00025497423484921455,0.0002515984233468771,0.0016429508104920387,0,1,-1000,0,0,0,-1,1,0,1500.0
12:39:56.731,STABILIZE,-35.3632622,149.1652375,0,-0.00038239246350713074,0.0009638206101953983,0.02161051519215107,0.00025497423484921455,0.0002515984233468771,0.0016429508104920387,0,1,-1000,0,0,0,-1,1,0,1500.0
12:39:56.932,STABILIZE,-35.3632622,149.1652375,0,-0.0005430427263490856,0.0009978350717574358,0.02107287012040615,0.00033773877657949924,0.0003576738527044654,0.0015030736103653908,0,1,-1000,0,1,1,-1,1,0,1500.0
12:39:57.133,STABILIZE,-35.3632622,149.1652375,0,-0.0005430427263490856,0.0009978350717574358,0.02107287012040615,0.00033773877657949924,0.0003576738527044654,0.0015030736103653908,0,1,-1000,1,0,0,-1,1,0,1500.0
12:39:57.335,STABILIZE,-35.3632622,149.1652375,0,-0.0005430427263490856,0.0009978350717574358,0.02107287012040615,0.00033773877657949924,0.0003576738527044654,0.0015030736103653908,0,1,-1000,1,0,0,-1,1,0,1500.0
12:39:57.536,STABILIZE,-35.3632622,149.1652375,0,-0.0005430427263490856,0.0009978350717574358,0.02107287012040615,0.00033773877657949924,0.0003576738527044654,0.0015030736103653908,0,1,-1000,1,0,0,-1,1,0,1500.0
12:39:57.737,STABILIZE,-35.3632622,149.1652375,0,-0.0005430427263490856,0.0009978350717574358,0.02107287012040615,0.00033773877657949924,0.0003576738527044654,0.0015030736103653908,0,1,-1000,1,0,0,-1,1,0,1500.0
12:39:57.938,STABILIZE,-35.3632622,149.1652375,0,-0.0006570009863935411,0.000998115399852395,0.02081802487373352,0.0002564577152952552,0.0002484765718691051,0.0013321884907782078,0,1,-1000,0,1,0,-1,1,0,1500.0
12:39:58.139,STABILIZE,-35.3632622,149.1652375,0,-0.0006570009863935411,0.000998115399852395,0.02081802487373352,0.0002564577152952552,0.0002484765718691051,0.0013321884907782078,0,1,-1000,0,1,0,-1,1,0,1500.0
12:39:58.340,STABILIZE,-35.3632622,149.1652375,0,-0.0006570009863935411,0.000998115399852395,0.02081802487373352,0.0002564577152952552,0.0002484765718691051,0.0013321884907782078,0,1,-1000,0,1,0,-1,1,0,1500.0
12:39:58.542,AUTO,-35.3632622,149.1652375,0,-0.0006570009863935411,0.000998115399852395,0.02081802487373352,0.0002564577152952552,0.0002484765718691051,0.0013321884907782078,0,1,-1000,0,1,0,-1,1,0,1500.0
12:39:58.743,AUTO,-35.3632622,149.1652375,0,-0.0006570009863935411,0.000998115399852395,0.02081802487373352,0.0002564577152952552,0.0002484765718691051,0.0013321884907782078,0,1,-1000,0,1,0,-1,1,0,275455.0
12:39:58.945,AUTO,-35.3632622,149.1652375,4,-0.0007531613809987903,0.0010124502005055547,0.020654920488595963,0.00024145585484802723,0.00024589989334344864,0.0014463213738054037,0,2,-1000,0,0,1,-1,1,0,275455.0
12:39:59.146,AUTO,-35.3632622,149.1652375,3,-0.0007658459362573922,0.0010239575058221817,0.020583588629961014,0.0003045485937036574,0.00032233865931630135,0.0013255731901153922,0,2,-1000,0,0,0,-1,1,0,275455.0
12:39:59.348,AUTO,-35.3632622,149.1652375,3,-0.0007658459362573922,0.0010239575058221817,0.020583588629961014,0.0003045485937036574,0.00032233865931630135,0.0013255731901153922,0,2,-1000,0,0,0,-1,1,0,275455.0
12:39:59.550,AUTO,-35.3632621,149.1652375,2,-0.0007607423467561603,0.0010443530045449734,0.020522747188806534,0.0003095545689575374,0.0001926409313455224,0.0014861380914226174,0,1,-1000,0,0,1,-1,1,0,275455.0
12:39:59.752,AUTO,-35.3632621,149.1652375,2,-0.0007441483321599662,0.00107615499291569,0.020480843260884285,0.00028870091773569584,0.00010996800847351551,0.0014164842432364821,0,2,-1000,0,1,0,0,0,0,275455.0
12:39:59.953,AUTO,-35.3632621,149.1652375,1,-0.0007100703078322113,0.0011300790356472135,0.020424460992217064,0.000245722068939358,0.00028591707814484835,0.001429080730304122,0,1,-1000,1,0,0,0,0,0,275455.0
12:40:00.155,AUTO,-35.3632621,149.1652375,0,-0.0006709670997224748,0.0011765880044549704,0.020361578091979027,0.000155923655256629,0.0002325945533812046,0.0013906258391216397,0,1,-1000,1,0,0,0,0,0,275455.0
12:40:00.361,AUTO,-35.3632621,149.1652375,0,-0.0006709670997224748,0.0011765880044549704,0.020361578091979027,0.000155923655256629,0.0002325945533812046,0.0013906258391216397,0,1,-1000,1,0,0,0,0,0,275455.0
12:40:00.567,AUTO,-35.3632621,149.1652375,0,-0.0006709670997224748,0.0011765880044549704,0.020361578091979027,0.000155923655256629,0.0002325945533812046,0.0013906258391216397,0,1,-1000,1,0,0,0,0,0,275455.0
12:40:00.768,AUTO,-35.3632621,149.1652375,0,-0.0006709670997224748,0.0011765880044549704,0.020361578091979027,0.000155923655256629,0.0002325945533812046,0.0013906258391216397,0,1,-1000,1,0,0,0,0,0,275455.0
12:40:00.970,AUTO,-35.3632621,149.1652374,4,-0.00035863061202690005,0.0013750881189480424,0.02021207846701145,0.0004252666258253157,0.0002768690465018153,0.0013756674015894532,0,1,-1000,1,1,0,0,-1,0,275455.0
12:40:01.171,AUTO,-35.3632621,149.1652374,4,-0.00029980952967889607,0.0014471346512436867,0.020149460062384605,0.0002901072148233652,0.0002832591417245567,0.0013799327425658703,0,2,-1000,1,0,0,0,0,0,275455.0
12:40:01.373,AUTO,-35.3632621,149.1652374,4,-0.00024309685977641493,0.001519345329143107,0.02010161615908146,0.00028107728576287627,0.00035321543691679835,0.0013543057721108198,0,1,-1000,0,1,0,0,0,0,275455.0
12:40:01.574,AUTO,-35.3632621,149.1652374,4,-0.00024309685977641493,0.001519345329143107,0.02010161615908146,0.00028107728576287627,0.00035321543691679835,0.0013543057721108198,0,1,-1000,0,1,0,0,0,0,275455.0
12:40:01.776,AUTO,-35.3632621,149.1652374,4,-0.00018360528338234872,0.001589439227245748,0.020020272582769394,0.0002886285074055195,0.00021820544498041272,0.001300806412473321,0,2,-1000,0,1,0,0,0,0,39491.0
12:40:01.977,AUTO,-35.3632621,149.1652374,3,-0.00011807640839833766,0.0016636543441563845,0.019955990836024284,0.00036307022674009204,0.0004172257613390684,0.0013711050851270556,0,2,-1000,0,1,1,0,0,0,39491.0
12:40:02.179,AUTO,-35.3632621,149.1652374,3,-4.072550291311927e-05,0.0017425118712708354,0.019897904247045517,0.0003647184348665178,0.0002473623608238995,0.0013450200203806162,0,2,-1000,0,1,1,0,0,0,39491.0
12:40:02.381,AUTO,-35.3632621,149.1652374,3,-4.072550291311927e-05,0.0017425118712708354,0.019897904247045517,0.0003647184348665178,0.0002473623608238995,0.0013450200203806162,0,2,-1000,0,1,1,0,0,0,39491.0
12:40:02.582,AUTO,-35.3632621,149.1652374,3,-4.072550291311927e-05,0.0017425118712708354,0.019897904247045517,0.0003647184348665178,0.0002473623608238995,0.0013450200203806162,0,2,-1000,0,1,1,0,0,0,39491.0
12:40:02.784,AUTO,-35.3632621,149.1652374,3,-4.072550291311927e-05,0.0017425118712708354,0.019897904247045517,0.0003647184348665178,0.0002473623608238995,0.0013450200203806162,0,2,-1000,0,1,1,0,0,0,39491.0
12:40:02.986,AUTO,-35.3632621,149.1652375,345,0.0017568074399605393,0.0007912995642982423,0.019624149426817894,-0.00019554595928639174,0.004151324741542339,0.0007521094521507621,0,0,-1119,0,4,0,0,0,-97,39491.0
12:40:03.188,AUTO,-35.3632621,149.1652375,621,0.0012512273387983441,0.0014915154315531254,0.019672205671668053,0.0007070458959788084,0.0022673599887639284,0.0024752533063292503,0,0,-1084,1,2,2,0,0,-121,39491.0
12:40:03.389,AUTO,-35.3632621,149.1652375,950,0.0020649225916713476,0.0016977377235889435,0.019141359254717827,0.008944818750023842,0.00024227937683463097,-0.00370772834867239,0,0,-1044,9,0,-4,0,0,-136,39491.0
12:40:03.591,AUTO,-35.3632621,149.1652375,950,0.0020649225916713476,0.0016977377235889435,0.019141359254717827,0.008944818750023842,0.00024227937683463097,-0.00370772834867239,0,0,-1044,9,0,-4,0,0,-136,39491.0
12:40:03.792,AUTO,-35.3632621,149.1652375,1309,0.002279898850247264,0.001501627964898944,0.01778307743370533,-0.007859745062887669,0.0012275590561330318,-0.005363158881664276,0,0,-1017,-7,1,-5,0,0,-143,39491.0
12:40:03.994,AUTO,-35.3632621,149.1652374,1688,0.00022617526701651514,0.002716567600145936,0.018207188695669174,-0.006152065470814705,0.005211661569774151,0.005691269878298044,0,0,-1005,-5,5,5,0,0,-145,39491.0
12:40:04.195,AUTO,-35.363262,149.1652374,2065,0.0007402916671708226,0.0031187599524855614,0.018660059198737144,0.010815306566655636,-0.0019152738386765122,0.0031450216192752123,0,0,-1007,11,-1,2,0,0,-146,39491.0
12:40:04.397,AUTO,-35.363262,149.1652374,2065,0.0007402916671708226,0.0031187599524855614,0.018660059198737144,0.010815306566655636,-0.0019152738386765122,0.0031450216192752123,0,0,-1007,11,-1,2,0,0,-146,39491.0
12:40:04.599,AUTO,-35.363262,149.1652374,2065,0.0007402916671708226,0.0031187599524855614,0.018660059198737144,0.010815306566655636,-0.0019152738386765122,0.0031450216192752123,0,0,-1007,11,-1,2,0,0,-146,224272.0
12:40:04.803,AUTO,-35.363262,149.1652374,2065,0.0007402916671708226,0.0031187599524855614,0.018660059198737144,0.010815306566655636,-0.0019152738386765122,0.0031450216192752123,0,0,-1007,11,-1,2,0,0,-146,224272.0
12:40:05.006,AUTO,-35.363262,149.1652374,3212,0.03217684105038643,-0.0013137244386598468,-0.007069363724440336,0.045885179191827774,-0.007414537947624922,0.003631760599091649,0,-1,-1001,46,-6,3,0,9,-149,224272.0
12:40:05.208,AUTO,-35.3632619,149.1652378,3600,0.04333224520087242,-0.0034781924914568663,-0.006503615528345108,0.04369407147169113,-0.008676802739501,0.0038199780974537134,0,-2,-1000,44,-7,3,1,17,-149,224272.0
12:40:05.409,AUTO,-35.3632618,149.1652383,3986,0.05384896695613861,-0.006066733505576849,-0.006052116863429546,0.04074408486485481,-0.011135081760585308,0.004237434361129999,1,-4,-999,41,-10,3,3,27,-149,224272.0
12:40:05.611,AUTO,-35.3632617,149.1652392,4371,0.06329578906297684,-0.009159118868410587,-0.006087099201977253,0.03595801070332527,-0.012637093663215637,0.0008894485654309392,1,-7,-998,36,-11,0,6,40,-148,224272.0
12:40:05.813,AUTO,-35.3632617,149.1652392,4371,0.06329578906297684,-0.009159118868410587,-0.006087099201977253,0.03595801070332527,-0.012637093663215637,0.0008894485654309392,1,-7,-998,36,-11,0,6,40,-148,224272.0
12:40:06.014,AUTO,-35.3632615,149.1652404,4753,0.053051721304655075,0.0048557608388364315,-0.023630063980817795,-0.09412191808223724,0.10465839505195618,-0.10542833805084229,1,-8,-991,-93,105,-105,9,51,-146,224272.0
12:40:06.218,AUTO,-35.3632613,149.1652418,5129,0.012792173773050308,0.021516194567084312,-0.04559091851115227,-0.1865544617176056,0.017183903604745865,-0.07305747270584106,4,-11,-994,-186,17,-73,7,56,-144,224272.0
12:40:06.421,AUTO,-35.3632613,149.1652418,5129,0.012792173773050308,0.021516194567084312,-0.04559091851115227,-0.1865544617176056,0.017183903604745865,-0.07305747270584106,4,-11,-994,-186,17,-73,7,56,-144,224272.0
12:40:06.623,AUTO,-35.3632613,149.1652418,5129,0.012792173773050308,0.021516194567084312,-0.04559091851115227,-0.1865544617176056,0.017183903604745865,-0.07305747270584106,4,-11,-994,-186,17,-73,7,56,-144,224272.0
12:40:06.825,AUTO,-35.3632613,149.1652418,5129,0.012792173773050308,0.021516194567084312,-0.04559091851115227,-0.1865544617176056,0.017183903604745865,-0.07305747270584106,4,-11,-994,-186,17,-73,7,56,-144,224272.0
12:40:07.027,AUTO,-35.363261,149.1652455,6278,-0.033509157598018646,0.010019248351454735,-0.0835358053445816,-0.028881501406431198,-0.015217510983347893,-0.03509768471121788,4,-7,-1001,-28,-14,-35,0,31,-149,224272.0
12:40:07.229,AUTO,-35.363261,149.1652462,6663,-0.04851452261209488,0.004500819835811853,-0.08895295113325119,-0.075847327709198,-0.02375749498605728,-0.017468176782131195,3,-6,-998,-75,-22,-17,-1,19,-148,224272.0
12:40:07.431,AUTO,-35.363261,149.1652465,7046,-0.06854812055826187,-0.0022198499646037817,-0.09055636823177338,-0.0785311684012413,-0.025843249633908272,-0.006474800407886505,2,-2,-999,-77,-25,-6,-2,3,-148,224272.0
12:40:07.633,AUTO,-35.363261,149.1652463,7429,-0.07780161499977112,-0.006638915743678808,-0.0916530042886734,0.017731530591845512,-0.002054078970104456,-0.017486190423369408,0,0,-1005,18,-1,-17,-1,-15,-148,143977.0
12:40:07.835,AUTO,-35.363261,149.1652463,7429,-0.07780161499977112,-0.006638915743678808,-0.0916530042886734,0.017731530591845512,-0.002054078970104456,-0.017486190423369408,0,0,-1005,18,-1,-17,-1,-15,-148,143977.0
12:40:08.036,AUTO,-35.363261,149.1652457,7813,-0.06694246083498001,-0.007096405606716871,-0.09293343126773834,0.05262932553887367,-0.0001069208956323564,-0.008424206636846066,-3,4,-1002,53,0,-8,-1,-33,-148,143977.0
12:40:08.238,AUTO,-35.363261,149.1652446,8196,-0.05299454182386398,-0.006622318644076586,-0.09327561408281326,0.05896630138158798,0.0051819076761603355,-0.005020939279347658,-4,7,-1001,59,5,-5,-1,-47,-148,143977.0
12:40:08.440,AUTO,-35.363261,149.1652446,8196,-0.05299454182386398,-0.006622318644076586,-0.09327561408281326,0.05896630138158798,0.0051819076761603355,-0.005020939279347658,-4,7,-1001,59,5,-5,-1,-47,-148,143977.0
12:40:08.642,AUTO,-35.363261,149.1652446,8196,-0.05299454182386398,-0.006622318644076586,-0.09327561408281326,0.05896630138158798,0.0051819076761603355,-0.005020939279347658,-4,7,-1001,59,5,-5,-1,-47,-148,143977.0
12:40:08.844,AUTO,-35.363261,149.1652446,8196,-0.05299454182386398,-0.006622318644076586,-0.09327561408281326,0.05896630138158798,0.0051819076761603355,-0.005020939279347658,-4,7,-1001,59,5,-5,-1,-47,-148,143977.0
12:40:09.045,AUTO,-35.363261,149.1652398,9349,-0.0055612423457205296,0.0022979844361543655,-0.09159106761217117,0.06694529205560684,0.01595369353890419,0.0008895998471416533,-7,12,-1003,67,16,0,-3,-62,-150,143977.0
12:40:09.247,AUTO,-35.3632611,149.1652381,9737,0.011092741042375565,0.006269445177167654,-0.09031570702791214,0.06740585714578629,0.01572827622294426,0.002076788805425167,-7,12,-1004,67,16,1,-5,-59,-151,143977.0
12:40:09.449,AUTO,-35.3632612,149.1652365,10128,0.027722656726837158,0.009876150637865067,-0.08880642801523209,0.0662793442606926,0.013858708553016186,0.002463939832523465,-6,12,-1004,66,14,2,-8,-52,-151,143977.0
12:40:09.650,AUTO,-35.3632614,149.1652351,10520,0.04399482533335686,0.012575361877679825,-0.08723680675029755,0.06461766362190247,0.00939236767590046,0.003836215240880847,-3,11,-1003,65,10,3,-10,-41,-152,143977.0
12:40:09.852,AUTO,-35.3632614,149.1652351,10520,0.04399482533335686,0.012575361877679825,-0.08723680675029755,0.06461766362190247,0.00939236767590046,0.003836215240880847,-3,11,-1003,65,10,3,-10,-41,-152,143977.0
12:40:10.054,AUTO,-35.3632616,149.1652341,10917,0.05975944176316261,0.014089406467974186,-0.08576077967882156,0.061409059911966324,0.003509624395519495,0.004132106900215149,-3,8,-1002,62,4,3,-13,-26,-152,143977.0
12:40:10.256,AUTO,-35.3632619,149.1652335,11312,0.07444969564676285,0.013958319090306759,-0.08452905714511871,0.05722085013985634,-0.00308170635253191,0.004603952169418335,0,6,-1001,57,-2,4,-14,-9,-152,143977.0
12:40:10.460,AUTO,-35.3632619,149.1652335,11312,0.07444969564676285,0.013958319090306759,-0.08452905714511871,0.05722085013985634,-0.00308170635253191,0.004603952169418335,0,6,-1001,57,-2,4,-14,-9,-152,143977.0
12:40:10.668,AUTO,-35.3632619,149.1652335,11312,0.07444969564676285,0.013958319090306759,-0.08452905714511871,0.05722085013985634,-0.00308170635253191,0.004603952169418335,0,6,-1001,57,-2,4,-14,-9,-152,140429.0
12:40:10.870,AUTO,-35.3632627,149.1652346,12466,0.026685267686843872,-0.012778718024492264,-0.06891271471977234,-0.12868531048297882,-0.002219811547547579,-0.0019576135091483593,5,-4,-999,-128,-1,-2,-6,35,-146,140429.0
12:40:11.072,AUTO,-35.3632627,149.1652346,12466,0.026685267686843872,-0.012778718024492264,-0.06891271471977234,-0.12868531048297882,-0.002219811547547579,-0.0019576135091483593,5,-4,-999,-128,-1,-2,-6,35,-146,140429.0
12:40:11.274,AUTO,-35.3632627,149.1652355,12846,-0.0004153427726123482,-0.011411333456635475,-0.07374545186758041,-0.09133409708738327,0.009468205273151398,-0.02315167896449566,5,-5,-1004,-90,10,-23,-1,35,-147,140429.0
12:40:11.475,AUTO,-35.3632627,149.1652364,13228,-0.01787354238331318,-0.00912319403141737,-0.0825909897685051,-0.05513215437531471,0.009306523948907852,-0.03466065973043442,3,-5,-1005,-54,10,-35,2,30,-149,140429.0
12:40:11.677,AUTO,-35.3632626,149.165237,13613,-0.02764783427119255,-0.007373732980340719,-0.09306809306144714,-0.022010909393429756,0.009417920373380184,-0.0406489223241806,3,-7,-1005,-21,10,-40,5,21,-150,140429.0
12:40:11.879,AUTO,-35.3632625,149.1652375,14001,-0.030099300667643547,-0.005286377854645252,-0.10433772951364517,-0.00040506920777261257,0.009040488861501217,-0.042320698499679565,1,-4,-1003,0,9,-42,7,12,-151,140429.0
12:40:12.080,AUTO,-35.3632625,149.1652375,14001,-0.030099300667643547,-0.005286377854645252,-0.10433772951364517,-0.00040506920777261257,0.009040488861501217,-0.042320698499679565,1,-4,-1003,0,9,-42,7,12,-151,140429.0
12:40:12.282,AUTO,-35.3632623,149.1652377,14389,-0.02773212641477585,-0.002961012301966548,-0.11523165553808212,0.01924869231879711,0.010802395641803741,-0.03933265060186386,-1,-2,-1002,19,11,-39,7,3,-151,140429.0
12:40:12.484,AUTO,-35.3632623,149.1652377,14389,-0.02773212641477585,-0.002961012301966548,-0.11523165553808212,0.01924869231879711,0.010802395641803741,-0.03933265060186386,-1,-2,-1002,19,11,-39,7,3,-151,140429.0
12:40:12.686,AUTO,-35.3632623,149.1652377,14389,-0.02773212641477585,-0.002961012301966548,-0.11523165553808212,0.01924869231879711,0.010802395641803741,-0.03933265060186386,-1,-2,-1002,19,11,-39,7,3,-151,140429.0
12:40:12.888,AUTO,-35.3632618,149.1652372,15560,-0.0067834570072591305,0.004051513038575649,-0.14131172001361847,0.029939699918031693,0.012048102915287018,-0.027762645855545998,-3,1,-1000,30,12,-27,5,-11,-152,140429.0
12:40:13.089,AUTO,-35.3632618,149.1652372,15560,-0.0067834570072591305,0.004051513038575649,-0.14131172001361847,0.029939699918031693,0.012048102915287018,-0.027762645855545998,-3,1,-1000,30,12,-27,5,-11,-152,140429.0
12:40:13.291,AUTO,-35.3632616,149.1652369,15951,1.4238490621210076e-05,0.006890834309160709,-0.1479569673538208,0.027293886989355087,0.010635812766849995,-0.024584785103797913,-2,2,-1000,27,11,-24,4,-12,-152,140429.0
12:40:13.492,AUTO,-35.3632615,149.1652365,16342,0.005622842814773321,0.00881131086498499,-0.15307697653770447,0.021998677402734756,0.0058310083113610744,-0.017671993002295494,-3,1,-1000,22,6,-17,2,-12,-152,140429.0
12:40:13.694,AUTO,-35.3632614,149.1652361,16732,0.009874057024717331,0.009614819660782814,-0.1567257046699524,0.012687546201050282,-0.00024884147569537163,-0.011505523696541786,-3,1,-999,13,0,-11,0,-10,-152,214322.0
12:40:13.896,AUTO,-35.3632614,149.1652358,17122,0.012714972719550133,0.0095497015863657,-0.15929409861564636,0.009031100198626518,-0.001151332282461226,-0.012249639257788658,-2,1,-999,9,0,-12,-1,-7,-152,214322.0
12:40:14.098,AUTO,-35.3632614,149.1652358,17122,0.012714972719550133,0.0095497015863657,-0.15929409861564636,0.009031100198626518,-0.001151332282461226,-0.012249639257788658,-2,1,-999,9,0,-12,-1,-7,-152,214322.0
12:40:14.300,AUTO,-35.3632614,149.1652356,17512,0.01358500774949789,0.009216002188622952,-0.16124869883060455,-0.0010886990930885077,-0.0010990239679813385,-0.0071938419714570045,-1,1,-999,0,0,-7,-2,-4,-151,214322.0
12:40:14.502,AUTO,-35.3632614,149.1652356,17512,0.01358500774949789,0.009216002188622952,-0.16124869883060455,-0.0010886990930885077,-0.0010990239679813385,-0.0071938419714570045,-1,1,-999,0,0,-7,-2,-4,-151,214322.0
12:40:14.703,AUTO,-35.3632614,149.1652356,17512,0.01358500774949789,0.009216002188622952,-0.16124869883060455,-0.0010886990930885077,-0.0010990239679813385,-0.0071938419714570045,-1,1,-999,0,0,-7,-2,-4,-151,214322.0
12:40:14.905,AUTO,-35.3632614,149.1652354,18680,0.01054893434047699,0.007286734879016876,-0.16732746362686157,-0.008189932443201542,-0.0031728376634418964,-0.011178039014339447,0,0,-1000,-7,-2,-11,-4,3,-151,214322.0
12:40:15.106,AUTO,-35.3632614,149.1652354,18680,0.01054893434047699,0.007286734879016876,-0.16732746362686157,-0.008189932443201542,-0.0031728376634418964,-0.011178039014339447,0,0,-1000,-7,-2,-11,-4,3,-151,214322.0
12:40:15.308,AUTO,-35.3632614,149.1652353,19070,0.008687370456755161,0.006252226885408163,-0.16976918280124664,-0.004478726536035538,-0.0037330735940486193,-0.01120004802942276,0,0,-1000,-3,-3,-11,-5,5,-151,214322.0
12:40:15.509,AUTO,-35.3632615,149.1652354,19459,0.006999784614890814,0.005154401063919067,-0.17253094911575317,-0.004629825241863728,-0.003518776036798954,-0.012111806310713291,0,0,-1000,-4,-2,-12,-5,6,-151,214322.0
12:40:15.711,AUTO,-35.3632615,149.1652355,19848,0.005499246064573526,0.0042273071594536304,-0.17571017146110535,-0.006971003487706184,-0.003719538217410445,-0.012368161231279373,0,0,-1000,-6,-2,-12,-5,6,-151,214322.0
12:40:15.912,AUTO,-35.3632616,149.1652356,20241,0.003980445675551891,0.003274312475696206,-0.17929448187351227,-0.003458616556599736,-0.0032648411579430103,-0.015641625970602036,1,0,-1000,-2,-2,-15,-5,7,-151,214322.0
12:40:16.114,AUTO,-35.3632617,149.1652357,20630,0.0027742937672883272,0.002644916297867894,-0.18336597084999084,-0.0033945085015147924,-0.0006321642431430519,-0.01739737018942833,1,0,-1000,-2,0,-17,-4,6,-152,214322.0
12:40:16.316,AUTO,-35.3632617,149.1652357,20630,0.0027742937672883272,0.002644916297867894,-0.18336597084999084,-0.0033945085015147924,-0.0006321642431430519,-0.01739737018942833,1,0,-1000,-2,0,-17,-4,6,-152,214322.0
12:40:16.517,AUTO,-35.3632617,149.1652357,20630,0.0027742937672883272,0.002644916297867894,-0.18336597084999084,-0.0033945085015147924,-0.0006321642431430519,-0.01739737018942833,1,0,-1000,-2,0,-17,-4,6,-152,214322.0
12:40:16.719,AUTO,-35.3632617,149.1652357,20630,0.0027742937672883272,0.002644916297867894,-0.18336597084999084,-0.0033945085015147924,-0.0006321642431430519,-0.01739737018942833,1,0,-1000,-2,0,-17,-4,6,-152,70320.0
12:40:16.921,AUTO,-35.3632618,149.165236,21794,0.0017385914688929915,0.0022223747801035643,-0.1978459656238556,-0.0008975949021987617,0.0005248812958598137,-0.023645395413041115,0,0,-1000,0,1,-23,-3,5,-152,70320.0
12:40:17.123,AUTO,-35.3632618,149.1652361,22184,0.0016004112549126148,0.002402805956080556,-0.20333608984947205,0.0008857182692736387,0.0009277155040763319,-0.02278447337448597,0,0,-1000,1,1,-23,-2,5,-152,70320.0
12:40:17.326,AUTO,-35.3632618,149.1652361,22184,0.0016004112549126148,0.002402805956080556,-0.20333608984947205,0.0008857182692736387,0.0009277155040763319,-0.02278447337448597,0,0,-1000,1,1,-23,-2,5,-152,70320.0
12:40:17.527,AUTO,-35.3632618,149.1652362,22573,0.0014870049199089408,0.002491781022399664,-0.20879358053207397,0.0013432675041258335,0.0005636379355564713,-0.021312791854143143,0,0,-1000,2,1,-21,-2,4,-152,70320.0
12:40:17.729,AUTO,-35.3632618,149.1652362,22963,0.0017688351217657328,0.00242786412127316,-0.21413367986679077,0.0021038565319031477,9.193271398544312e-05,-0.021557871252298355,0,0,-1000,2,1,-21,-2,4,-152,70320.0
12:40:17.930,AUTO,-35.3632618,149.1652363,23353,0.002151915105059743,0.00269009149633348,-0.21971799433231354,0.0004818516899831593,0.001427692361176014,-0.024100152775645256,0,0,-1000,1,2,-24,-2,3,-152,70320.0
12:40:18.132,AUTO,-35.3632618,149.1652363,23742,0.0021886820904910564,0.003019981551915407,-0.22524535655975342,0.001804265659302473,0.0006246700068004429,-0.02138536609709263,0,0,-1000,3,1,-21,-2,3,-152,70320.0
12:40:18.335,AUTO,-35.3632618,149.1652363,23742,0.0021886820904910564,0.003019981551915407,-0.22524535655975342,0.001804265659302473,0.0006246700068004429,-0.02138536609709263,0,0,-1000,3,1,-21,-2,3,-152,70320.0
12:40:18.536,AUTO,-35.3632618,149.1652363,23742,0.0021886820904910564,0.003019981551915407,-0.22524535655975342,0.001804265659302473,0.0006246700068004429,-0.02138536609709263,0,0,-1000,3,1,-21,-2,3,-152,70320.0
12:40:18.738,AUTO,-35.3632618,149.1652363,23742,0.0021886820904910564,0.003019981551915407,-0.22524535655975342,0.001804265659302473,0.0006246700068004429,-0.02138536609709263,0,0,-1000,3,1,-21,-2,3,-152,70320.0
12:40:18.940,AUTO,-35.3632619,149.1652364,24911,0.0025139201898127794,0.0033819552045315504,-0.2412586510181427,0.0014430875889956951,-0.0001737079001031816,-0.02009943127632141,0,0,-1000,2,0,-20,-2,3,-152,70320.0
12:40:19.141,AUTO,-35.3632619,149.1652365,25299,-0.010178351774811745,0.0029539072420448065,-0.24614427983760834,-0.05614672601222992,-0.0006002356531098485,-0.01965097151696682,0,0,-1000,-55,0,-19,-2,2,-151,70320.0
12:40:19.343,AUTO,-35.3632619,149.1652365,25299,-0.010178351774811745,0.0029539072420448065,-0.24614427983760834,-0.05614672601222992,-0.0006002356531098485,-0.01965097151696682,0,0,-1000,-55,0,-19,-2,2,-151,70320.0
12:40:19.544,AUTO,-35.3632619,149.1652364,25688,-0.011526820249855518,0.0026258938014507294,-0.2511466145515442,0.026512136682868004,3.211322473362088e-05,-0.019631782546639442,0,0,-1004,27,0,-19,-3,-1,-152,70320.0
12:40:19.746,AUTO,-35.363262,149.1652364,26078,-0.0029720119200646877,0.0025125143583863974,-0.255677729845047,0.03578848019242287,0.00038145272992551327,-0.017008932307362556,0,0,-1002,36,1,-17,-3,-3,-153,61946.0
12:40:19.948,AUTO,-35.363262,149.1652363,26468,0.0041600666008889675,0.0025320437271147966,-0.2596966624259949,0.026106975972652435,0.0005684939096681774,-0.01571141928434372,0,1,-1000,27,1,-15,-3,-3,-153,61946.0
12:40:20.150,AUTO,-35.3632621,149.1652361,26859,0.008960269391536713,0.0024870997294783592,-0.2628766596317291,0.017653413116931915,0.0034442530013620853,-0.009153452701866627,0,1,-999,18,4,-9,-3,-2,-153,61946.0
12:40:20.352,AUTO,-35.3632621,149.1652361,26859,0.008960269391536713,0.0024870997294783592,-0.2628766596317291,0.017653413116931915,0.0034442530013620853,-0.009153452701866627,0,1,-999,18,4,-9,-3,-2,-153,61946.0
12:40:20.554,AUTO,-35.3632621,149.1652361,26859,0.008960269391536713,0.0024870997294783592,-0.2628766596317291,0.017653413116931915,0.0034442530013620853,-0.009153452701866627,0,1,-999,18,4,-9,-3,-2,-153,61946.0
12:40:20.755,AUTO,-35.3632621,149.1652361,26859,0.008960269391536713,0.0024870997294783592,-0.2628766596317291,0.017653413116931915,0.0034442530013620853,-0.009153452701866627,0,1,-999,18,4,-9,-3,-2,-153,61946.0
12:40:20.957,AUTO,-35.3632622,149.1652361,28026,0.013382067903876305,0.004713582806289196,-0.2572104334831238,-0.0037326584570109844,0.002089856890961528,0.020686382427811623,0,0,-999,-2,3,20,-2,5,-152,61946.0
12:40:21.158,AUTO,-35.3632622,149.1652362,28414,0.011749652214348316,0.004828120581805706,-0.2518455982208252,-0.007314150221645832,-0.0008015509811230004,0.022311506792902946,1,0,-1000,-6,0,22,-2,8,-151,61946.0
12:40:21.360,AUTO,-35.3632622,149.1652363,28801,0.009281745180487633,0.0044146315194666386,-0.2460416853427887,-0.010638987645506859,-0.00010203284909948707,0.023785864934325218,0,-1,-1000,-9,0,23,-1,9,-151,61946.0
12:40:21.562,AUTO,-35.3632622,149.1652363,28801,0.009281745180487633,0.0044146315194666386,-0.2460416853427887,-0.010638987645506859,-0.00010203284909948707,0.023785864934325218,0,-1,-1000,-9,0,23,-1,9,-151,61946.0
12:40:21.764,AUTO,-35.3632622,149.1652366,29192,0.006808082107454538,0.003909303806722164,-0.239985391497612,-0.010852785781025887,-0.0016531667206436396,0.02499387599527836,1,-1,-999,-10,0,24,-1,10,-151,61946.0
12:40:21.965,AUTO,-35.3632622,149.1652368,29579,0.004419479053467512,0.0036511917132884264,-0.23394879698753357,-0.007778567261993885,-0.0009587847744114697,0.02798125520348549,1,-1,-1000,-6,0,27,-1,11,-151,61946.0
12:40:22.167,AUTO,-35.3632622,149.165237,29966,0.0022486126981675625,0.0033409118186682463,-0.22785738110542297,-0.008018873631954193,-0.0010327664203941822,0.024999307468533516,1,-1,-1000,-7,0,24,-1,10,-151,61946.0
12:40:22.369,AUTO,-35.3632622,149.165237,29966,0.0022486126981675625,0.0033409118186682463,-0.22785738110542297,-0.008018873631954193,-0.0010327664203941822,0.024999307468533516,1,-1,-1000,-7,0,24,-1,10,-151,61946.0
12:40:22.571,AUTO,-35.3632622,149.165237,29966,0.0022486126981675625,0.0033409118186682463,-0.22785738110542297,-0.008018873631954193,-0.0010327664203941822,0.024999307468533516,1,-1,-1000,-7,0,24,-1,10,-151,61946.0
12:40:22.772,AUTO,-35.3632622,149.165237,29966,0.0022486126981675625,0.0033409118186682463,-0.22785738110542297,-0.008018873631954193,-0.0010327664203941822,0.024999307468533516,1,-1,-1000,-7,0,24,-1,10,-151,181588.0
12:40:22.974,AUTO,-35.3632622,149.1652377,31129,-0.0016990405274555087,0.002196245826780796,-0.2105814814567566,-0.0034542959183454514,9.149854304268956e-05,0.022197546437382698,0,-1,-1000,-2,1,21,-1,8,-152,181588.0
12:40:23.175,AUTO,-35.3632622,149.1652378,31522,-0.001899430644698441,0.001980495871976018,-0.2053295075893402,0.004569525830447674,0.0005595296388491988,0.022062838077545166,1,0,-1001,5,1,21,-1,6,-152,181588.0
12:40:23.377,AUTO,-35.3632622,149.1652379,31910,-0.0018514296971261501,0.001875797868706286,-0.2003919780254364,0.0014231560053303838,0.0004591488395817578,0.020014164969325066,0,0,-1000,2,1,19,-1,5,-152,181588.0
12:40:23.578,AUTO,-35.3632622,149.1652379,31910,-0.0018514296971261501,0.001875797868706286,-0.2003919780254364,0.0014231560053303838,0.0004591488395817578,0.020014164969325066,0,0,-1000,2,1,19,-1,5,-152,181588.0
12:40:23.780,AUTO,-35.3632622,149.165238,32298,-0.0017745838267728686,0.001730221207253635,-0.19581562280654907,-0.003005164209753275,-0.0004622192354872823,0.01873617433011532,0,0,-999,-1,0,18,-1,4,-152,181588.0
12:40:23.981,AUTO,-35.3632622,149.1652381,32687,-0.0013729752972722054,0.001548677566461265,-0.19135886430740356,0.0050827921368181705,-0.0005570783978328109,0.01792007125914097,0,0,-1001,6,0,18,-1,3,-152,181588.0
12:40:24.183,AUTO,-35.3632622,149.1652381,33075,-0.0006570601253770292,0.001618228037841618,-0.18707482516765594,0.0058954921551048756,0.0005151870427653193,0.015328044071793556,0,0,-1001,6,1,15,-1,2,-152,181588.0
12:40:24.385,AUTO,-35.3632622,149.1652381,33075,-0.0006570601253770292,0.001618228037841618,-0.18707482516765594,0.0058954921551048756,0.0005151870427653193,0.015328044071793556,0,0,-1001,6,1,15,-1,2,-152,181588.0
12:40:24.586,AUTO,-35.3632622,149.1652381,33075,-0.0006570601253770292,0.001618228037841618,-0.18707482516765594,0.0058954921551048756,0.0005151870427653193,0.015328044071793556,0,0,-1001,6,1,15,-1,2,-152,181588.0
12:40:24.788,AUTO,-35.3632622,149.1652381,33075,-0.0006570601253770292,0.001618228037841618,-0.18707482516765594,0.0058954921551048756,0.0005151870427653193,0.015328044071793556,0,0,-1001,6,1,15,-1,2,-152,181588.0
12:40:24.990,AUTO,-35.3632622,149.1652381,34393,0.001121453708037734,0.0013197525404393673,-0.17394821345806122,0.0016903732903301716,0.00048527412582188845,0.015220306813716888,0,0,-999,2,1,15,0,0,-152,181588.0
12:40:25.191,AUTO,-35.3632622,149.1652381,34393,0.001121453708037734,0.0013197525404393673,-0.17394821345806122,0.0016903732903301716,0.00048527412582188845,0.015220306813716888,0,0,-999,2,1,15,0,0,-152,181588.0
12:40:25.393,AUTO,-35.3632622,149.1652381,34781,0.0015313150361180305,0.0013579641235992312,-0.1701705902814865,-0.0006329870084300637,-0.0011574013624340296,0.013678859919309616,0,0,-1000,0,0,13,0,0,-152,181588.0
12:40:25.594,AUTO,-35.3632622,149.165238,35169,0.001747105736285448,0.001254881964996457,-0.16658025979995728,-0.0004076754557900131,-0.0015376385999843478,0.014697964303195477,0,0,-1000,0,0,14,0,0,-152,181588.0
12:40:25.796,AUTO,-35.3632622,149.165238,35557,0.0018220462370663881,0.0011541746789589524,-0.16306237876415253,0.0027218651957809925,0.0012044786708429456,0.015951406210660934,0,0,-1000,3,2,15,0,0,-152,201762.0
12:40:25.998,AUTO,-35.3632622,149.1652379,35946,0.0016851361142471433,0.0011945205042138696,-0.15981820225715637,-6.277341162785888e-05,0.0014308554818853736,0.013105290941894054,0,0,-1000,1,2,13,0,0,-152,201762.0
12:40:26.199,AUTO,-35.3632622,149.1652379,35946,0.0016851361142471433,0.0011945205042138696,-0.15981820225715637,-6.277341162785888e-05,0.0014308554818853736,0.013105290941894054,0,0,-1000,1,2,13,0,0,-152,201762.0
12:40:26.401,AUTO,-35.3632622,149.1652379,36337,0.0017155780224129558,0.0013369095977395773,-0.15646569430828094,-0.0012054296676069498,0.0012635038001462817,0.012190373614430428,0,0,-1000,0,2,12,0,0,-152,201762.0
12:40:26.602,AUTO,-35.3632622,149.1652379,36337,0.0017155780224129558,0.0013369095977395773,-0.15646569430828094,-0.0012054296676069498,0.0012635038001462817,0.012190373614430428,0,0,-1000,0,2,12,0,0,-152,201762.0
12:40:26.804,AUTO,-35.3632622,149.1652379,36337,0.0017155780224129558,0.0013369095977395773,-0.15646569430828094,-0.0012054296676069498,0.0012635038001462817,0.012190373614430428,0,0,-1000,0,2,12,0,0,-152,201762.0
12:40:27.006,AUTO,-35.3632623,149.1652376,37452,-0.06179305538535118,0.07193715870380402,0.03455391898751259,-0.16353566944599152,0.1427760124206543,0.641158401966095,0,1,-936,-162,143,640,-13,-11,-130,201762.0
12:40:27.207,AUTO,-35.3632623,149.1652376,37452,-0.06179305538535118,0.07193715870380402,0.03455391898751259,-0.16353566944599152,0.1427760124206543,0.641158401966095,0,1,-936,-162,143,640,-13,-11,-130,201762.0
12:40:27.408,AUTO,-35.3632627,149.1652371,37756,-0.060979343950748444,0.06603334099054337,0.1506306380033493,0.053743816912174225,-0.18732692301273346,0.3140190541744232,1,6,-915,54,-186,313,-27,-27,-108,201762.0
12:40:27.610,AUTO,-35.3632634,149.1652361,38008,-0.03173023834824562,0.014352444559335709,0.20257680118083954,0.14467936754226685,-0.20968738198280334,0.11855220794677734,3,10,-927,145,-208,118,-33,-37,-88,201762.0
12:40:27.812,AUTO,-35.3632641,149.1652351,38216,-0.0014672273537144065,-0.027317211031913757,0.21788711845874786,0.10293817520141602,-0.12330929934978485,0.023630870506167412,3,9,-941,103,-122,23,-30,-37,-72,201762.0
12:40:28.014,AUTO,-35.3632647,149.1652341,38386,0.020654024556279182,-0.04776429757475853,0.2161083221435547,0.04812905937433243,-0.051589615643024445,-0.019592544063925743,1,10,-953,49,-50,-19,-21,-31,-59,201762.0
12:40:28.215,AUTO,-35.363265,149.1652333,38526,0.037685323506593704,-0.05370214581489563,0.20784781873226166,0.17900723218917847,-0.003334193490445614,-0.034959226846694946,0,13,-965,180,-2,-34,-10,-20,-49,201762.0
12:40:28.422,AUTO,-35.363265,149.1652333,38526,0.037685323506593704,-0.05370214581489563,0.20784781873226166,0.17900723218917847,-0.003334193490445614,-0.034959226846694946,0,13,-965,180,-2,-34,-10,-20,-49,201762.0
12:40:28.625,AUTO,-35.363265,149.1652333,38526,0.037685323506593704,-0.05370214581489563,0.20784781873226166,0.17900723218917847,-0.003334193490445614,-0.034959226846694946,0,13,-965,180,-2,-34,-10,-20,-49,201762.0
12:40:28.827,AUTO,-35.363265,149.1652333,38526,0.037685323506593704,-0.05370214581489563,0.20784781873226166,0.17900723218917847,-0.003334193490445614,-0.034959226846694946,0,13,-965,180,-2,-34,-10,-20,-49,200132.0
12:40:29.029,AUTO,-35.3632648,149.1652329,38823,0.039602167904376984,-0.03227771446108818,0.18115809559822083,0.028366180136799812,0.04083674028515816,-0.022872230038046837,-2,13,-1014,30,41,-22,15,14,-33,200132.0
12:40:29.230,AUTO,-35.3632645,149.1652332,38910,0.04026379808783531,-0.021151510998606682,0.1740182638168335,0.47533273696899414,0.04049965739250183,-0.022616617381572723,-3,8,-995,476,41,-22,19,21,-34,200132.0
12:40:29.432,AUTO,-35.3632645,149.1652332,38910,0.04026379808783531,-0.021151510998606682,0.1740182638168335,0.47533273696899414,0.04049965739250183,-0.022616617381572723,-3,8,-995,476,41,-22,19,21,-34,200132.0
12:40:29.633,AUTO,-35.363264,149.1652338,38991,0.031919002532958984,-0.011066715233027935,0.16834306716918945,0.010077281855046749,0.039626333862543106,-0.02073759026825428,-3,-20,-985,10,40,-20,22,26,-30,200132.0
12:40:29.835,AUTO,-35.3632635,149.1652345,39064,0.012546265497803688,-0.0019382373429834843,0.16352315247058868,-0.5872126221656799,0.03660624474287033,-0.015052433125674725,-2,-32,-978,-586,37,-14,23,29,-27,200132.0
12:40:30.037,AUTO,-35.3632629,149.1652352,39124,0.00559293944388628,0.005574684590101242,0.1591314971446991,-0.2491709291934967,0.02627323381602764,-0.010234801098704338,-3,-3,-967,-247,27,-10,22,30,-20,200132.0
12:40:30.239,AUTO,-35.3632624,149.1652359,39164,0.014065629802644253,0.010293676517903805,0.15471956133842468,0.5914033055305481,0.014683911576867104,-0.008204267360270023,-1,25,-968,593,15,-7,19,29,-11,200132.0
12:40:30.440,AUTO,-35.3632624,149.1652359,39164,0.014065629802644253,0.010293676517903805,0.15471956133842468,0.5914033055305481,0.014683911576867104,-0.008204267360270023,-1,25,-968,593,15,-7,19,29,-11,200132.0
12:40:30.642,AUTO,-35.3632624,149.1652359,39164,0.014065629802644253,0.010293676517903805,0.15471956133842468,0.5914033055305481,0.014683911576867104,-0.008204267360270023,-1,25,-968,593,15,-7,19,29,-11,200132.0
12:40:30.844,AUTO,-35.3632624,149.1652359,39164,0.014065629802644253,0.010293676517903805,0.15471956133842468,0.5914033055305481,0.014683911576867104,-0.008204267360270023,-1,25,-968,593,15,-7,19,29,-11,200132.0
12:40:31.046,AUTO,-35.3632616,149.1652372,39133,-0.014409739524126053,0.0018450830830261111,0.1434171199798584,-0.13307619094848633,-0.12651513516902924,0.01204520184546709,0,-32,-990,-133,-125,12,3,11,8,200132.0
12:40:31.247,AUTO,-35.3632615,149.1652373,39113,-0.02425304614007473,-0.02415492758154869,0.14172185957431793,-0.6161848902702332,-0.09023648500442505,-0.005048730410635471,-1,-33,-1030,-615,-88,-4,7,5,3,200132.0
12:40:31.449,AUTO,-35.3632615,149.1652373,39113,-0.02425304614007473,-0.02415492758154869,0.14172185957431793,-0.6161848902702332,-0.09023648500442505,-0.005048730410635471,-1,-33,-1030,-615,-88,-4,7,5,3,200132.0
12:40:31.650,AUTO,-35.3632612,149.1652371,39106,-0.030853191390633583,-0.04268817976117134,0.13896434009075165,-0.5721897482872009,-0.06674402207136154,-0.01635248214006424,-4,-11,-1020,-570,-65,-16,15,0,0,200132.0
12:40:31.851,AUTO,-35.3632608,149.1652369,39109,-0.02390987053513527,-0.05849907919764519,0.13629473745822906,0.1546236127614975,-0.05227212980389595,-0.02571319416165352,-8,19,-1015,157,-51,-25,26,-4,-4,145542.0
12:40:32.053,AUTO,-35.36326,149.1652364,39116,-0.01107784640043974,-0.07194574177265167,0.13253635168075562,0.5775389075279236,-0.04984075203537941,-0.015612679533660412,-11,31,-1031,579,-48,-15,41,-8,-6,145542.0
12:40:32.255,AUTO,-35.363259,149.1652357,39131,-0.004337073769420385,-0.08500700443983078,0.10407548397779465,0.37136200070381165,-0.05869247764348984,-0.2775473892688751,-13,0,-1007,372,-57,-277,57,-13,-7,145542.0
12:40:32.457,AUTO,-35.363259,149.1652357,39131,-0.004337073769420385,-0.08500700443983078,0.10407548397779465,0.37136200070381165,-0.05869247764348984,-0.2775473892688751,-13,0,-1007,372,-57,-277,57,-13,-7,145542.0
12:40:32.658,AUTO,-35.363259,149.1652357,39131,-0.004337073769420385,-0.08500700443983078,0.10407548397779465,0.37136200070381165,-0.05869247764348984,-0.2775473892688751,-13,0,-1007,372,-57,-277,57,-13,-7,145542.0
12:40:32.860,AUTO,-35.363259,149.1652357,39131,-0.004337073769420385,-0.08500700443983078,0.10407548397779465,0.37136200070381165,-0.05869247764348984,-0.2775473892688751,-13,0,-1007,372,-57,-277,57,-13,-7,145542.0
12:40:33.062,AUTO,-35.3632533,149.1652331,39203,0.010165288113057613,-0.11694799363613129,-0.18481476604938507,-0.5340995192527771,-0.05027730017900467,-0.06471598893404007,-25,-36,-994,-532,-49,-64,116,-29,-15,145542.0
12:40:33.264,AUTO,-35.3632505,149.165232,39241,0.012396691367030144,-0.12806791067123413,-0.18657489120960236,-0.07824648171663284,-0.043405745178461075,0.028099989518523216,-28,-6,-1016,-76,-42,28,139,-33,-19,145542.0
12:40:33.465,AUTO,-35.3632472,149.1652309,39288,0.017774876207113266,-0.13984407484531403,-0.17419292032718658,0.43793419003486633,-0.05158540979027748,0.0449213832616806,-38,-2,-1020,439,-50,45,164,-40,-21,145542.0
12:40:33.667,AUTO,-35.3632472,149.1652309,39288,0.017774876207113266,-0.13984407484531403,-0.17419292032718658,0.43793419003486633,-0.05158540979027748,0.0449213832616806,-38,-2,-1020,439,-50,45,164,-40,-21,145542.0
12:40:33.869,AUTO,-35.3632431,149.1652296,39344,0.01163896918296814,-0.15130522847175598,-0.16244637966156006,-0.020292187109589577,-0.04454355686903,0.04412848502397537,-40,-32,-1017,-19,-43,44,191,-47,-24,145542.0
12:40:34.070,AUTO,-35.3632386,149.1652283,39407,-0.0024555400013923645,-0.1619357019662857,-0.15673986077308655,-0.3340044915676117,-0.05179285258054733,0.0008541187853552401,-44,-37,-1021,-333,-50,1,218,-56,-27,145542.0
12:40:34.272,AUTO,-35.3632334,149.1652268,39478,-0.003931292798370123,-0.17610083520412445,-0.15534161031246185,-0.056703776121139526,-0.0629601776599884,-0.030771195888519287,-51,-14,-1014,-54,-62,-30,246,-65,-29,145542.0
12:40:34.474,AUTO,-35.3632334,149.1652268,39478,-0.003931292798370123,-0.17610083520412445,-0.15534161031246185,-0.056703776121139526,-0.0629601776599884,-0.030771195888519287,-51,-14,-1014,-54,-62,-30,246,-65,-29,145542.0
12:40:34.676,AUTO,-35.3632334,149.1652268,39478,-0.003931292798370123,-0.17610083520412445,-0.15534161031246185,-0.056703776121139526,-0.0629601776599884,-0.030771195888519287,-51,-14,-1014,-54,-62,-30,246,-65,-29,145542.0
12:40:34.884,AUTO,-35.3632334,149.1652268,39478,-0.003931292798370123,-0.17610083520412445,-0.15534161031246185,-0.056703776121139526,-0.0629601776599884,-0.030771195888519287,-51,-14,-1014,-54,-62,-30,246,-65,-29,92210.0
12:40:35.085,AUTO,-35.3632142,149.1652208,39743,-0.0010486708488315344,-0.18538528680801392,-0.1627291440963745,-0.13129077851772308,0.015679525211453438,-0.026838628575205803,-70,-41,-1015,-129,16,-26,333,-99,-41,92210.0
12:40:35.287,AUTO,-35.3632065,149.1652182,39850,0.007451132405549288,-0.18702706694602966,-0.16818742454051971,0.07457683980464935,-0.012507683597505093,-0.03689302131533623,-78,-30,-1017,76,-11,-36,359,-109,-44,92210.0
12:40:35.489,AUTO,-35.3631983,149.1652153,39966,0.015363425947725773,-0.1923968493938446,-0.17207679152488708,0.07957390695810318,-0.018366245552897453,-0.020807845517992973,-78,-31,-1016,80,-17,-20,385,-119,-47,92210.0
12:40:35.691,AUTO,-35.3631983,149.1652153,39966,0.015363425947725773,-0.1923968493938446,-0.17207679152488708,0.07957390695810318,-0.018366245552897453,-0.020807845517992973,-78,-31,-1016,80,-17,-20,385,-119,-47,92210.0
12:40:35.894,AUTO,-35.3631894,149.1652122,40090,0.01600806601345539,-0.19883839786052704,-0.17495718598365784,-0.028729518875479698,-0.01883690059185028,-0.01723879761993885,-90,-50,-1021,-27,-17,-17,411,-128,-51,92210.0
12:40:36.095,AUTO,-35.3631799,149.1652087,40225,0.02240695245563984,-0.2043495774269104,-0.17897887527942657,0.03318482264876366,-0.010362640954554081,-0.03994062542915344,-93,-38,-1016,34,-9,-39,437,-137,-54,92210.0
12:40:36.297,AUTO,-35.3631699,149.1652051,40366,0.022793378680944443,-0.19450317323207855,-0.1843099147081375,-0.021450020372867584,0.0938054546713829,-0.044391728937625885,-102,-49,-1014,-20,94,-44,463,-144,-56,92210.0
12:40:36.499,AUTO,-35.3631699,149.1652051,40366,0.022793378680944443,-0.19450317323207855,-0.1843099147081375,-0.021450020372867584,0.0938054546713829,-0.044391728937625885,-102,-49,-1014,-20,94,-44,463,-144,-56,92210.0
12:40:36.701,AUTO,-35.3631699,149.1652051,40366,0.022793378680944443,-0.19450317323207855,-0.1843099147081375,-0.021450020372867584,0.0938054546713829,-0.044391728937625885,-102,-49,-1014,-20,94,-44,463,-144,-56,92210.0
12:40:36.905,AUTO,-35.3631699,149.1652051,40366,0.022793378680944443,-0.19450317323207855,-0.1843099147081375,-0.021450020372867584,0.0938054546713829,-0.044391728937625885,-102,-49,-1014,-20,94,-44,463,-144,-56,92210.0
12:40:37.109,AUTO,-35.3631372,149.1651928,40854,0.04307295382022858,-0.15366004407405853,-0.23607677221298218,0.019799061119556427,0.021158723160624504,-0.10210229456424713,-102,-55,-1004,21,22,-101,507,-164,-68,92210.0
12:40:37.310,AUTO,-35.3631258,149.1651884,41032,0.04915567860007286,-0.14673735201358795,-0.2628993093967438,0.012287803925573826,0.018668286502361298,-0.11684558540582657,-105,-49,-1000,13,19,-116,516,-167,-70,92210.0
12:40:37.512,AUTO,-35.3631142,149.1651839,41210,0.05827096477150917,-0.16759470105171204,-0.29595398902893066,0.023858139291405678,-0.17814123630523682,-0.13907144963741302,-106,-63,-955,24,-177,-138,525,-172,-65,92210.0
12:40:37.714,AUTO,-35.3631142,149.1651839,41210,0.05827096477150917,-0.16759470105171204,-0.29595398902893066,0.023858139291405678,-0.17814123630523682,-0.13907144963741302,-106,-63,-955,24,-177,-138,525,-172,-65,233279.0
12:40:37.917,AUTO,-35.3631023,149.1651792,41358,0.07545272260904312,-0.22163976728916168,-0.3414527475833893,0.03142346069216728,-0.23279578983783722,-0.16947315633296967,-108,-62,-900,32,-231,-169,540,-179,-47,233279.0
12:40:38.119,AUTO,-35.3630899,149.1651743,41446,0.09569773823022842,-0.2650452256202698,-0.3946343958377838,0.02083691768348217,-0.14604875445365906,-0.19999314844608307,-84,-54,-876,21,-144,-199,567,-187,-19,233279.0
12:40:38.321,AUTO,-35.3630767,149.1651692,41466,0.11115466803312302,-0.27450138330459595,-0.4480702877044678,-0.0013346446212381124,0.005947910714894533,-0.2112409770488739,-106,-74,-915,0,6,-211,600,-196,4,233279.0
12:40:38.525,AUTO,-35.3630767,149.1651692,41466,0.11115466803312302,-0.27450138330459595,-0.4480702877044678,-0.0013346446212381124,0.005947910714894533,-0.2112409770488739,-106,-74,-915,0,6,-211,600,-196,4,233279.0
12:40:38.727,AUTO,-35.3630767,149.1651692,41466,0.11115466803312302,-0.27450138330459595,-0.4480702877044678,-0.0013346446212381124,0.005947910714894533,-0.2112409770488739,-106,-74,-915,0,6,-211,600,-196,4,233279.0
12:40:38.929,AUTO,-35.3630767,149.1651692,41466,0.11115466803312302,-0.27450138330459595,-0.4480702877044678,-0.0013346446212381124,0.005947910714894533,-0.2112409770488739,-106,-74,-915,0,6,-211,600,-196,4,233279.0
12:40:39.131,AUTO,-35.3630332,149.1651525,41366,0.14760421216487885,-0.15393686294555664,-0.5756933689117432,0.005766808986663818,0.18280424177646637,-0.10913244634866714,-115,-119,-1066,6,183,-108,681,-216,1,233279.0
12:40:39.332,AUTO,-35.3630177,149.1651468,41387,0.1458529829978943,-0.10896509885787964,-0.589603066444397,-0.020536471158266068,0.15558934211730957,-0.04849344491958618,-126,-117,-1079,-19,156,-47,690,-210,-21,233279.0
12:40:39.535,AUTO,-35.363002,149.1651411,41472,0.13632133603096008,-0.06472064554691315,-0.5913713574409485,-0.014412459917366505,0.16593141853809357,-0.02398517355322838,-118,-141,-1109,-13,166,-23,689,-203,-49,233279.0
12:40:39.737,AUTO,-35.3629865,149.1651358,41629,0.1210767850279808,-0.026563875377178192,-0.5876594185829163,-0.06329064816236496,0.16506361961364746,0.012956591323018074,-124,-107,-1100,-61,165,13,679,-191,-78,233279.0
12:40:39.939,AUTO,-35.3629865,149.1651358,41629,0.1210767850279808,-0.026563875377178192,-0.5876594185829163,-0.06329064816236496,0.16506361961364746,0.012956591323018074,-124,-107,-1100,-61,165,13,679,-191,-78,233279.0
