time_stamp,MODE,lat,lon,relative_alt,roll,pitch,yaw,rollspeed,pitchspeed,yawspeed,xacc,yacc,zacc,xgyro,ygyro,zgyro,vx,vy,vz,RTL_ALT
19:14:50.671,STABILIZE,-35.3632621,149.1652374,0,-0.0004833695711567998,0.0015008619520813227,0.027466269209980965,0.00025627235299907625,0.00022655230714008212,0.002312128432095051,0,1,-1000,1,0,0,-1,1,0,1500.0
19:14:50.874,STABILIZE,-35.3632621,149.1652374,0,-0.0004833695711567998,0.0015008619520813227,0.027466269209980965,0.00025627235299907625,0.00022655230714008212,0.002312128432095051,0,1,-1000,1,0,0,-1,1,0,1500.0
19:14:51.079,STABILIZE,-35.3632621,149.1652374,0,-0.0004833695711567998,0.0015008619520813227,0.027466269209980965,0.00025627235299907625,0.00022655230714008212,0.002312128432095051,0,1,-1000,1,0,0,-1,1,0,1500.0
19:14:51.281,STABILIZE,-35.3632621,149.1652374,0,-0.0004833695711567998,0.0015008619520813227,0.027466269209980965,0.00025627235299907625,0.00022655230714008212,0.002312128432095051,0,1,-1000,1,0,0,-1,1,0,1500.0
19:14:51.484,STABILIZE,-35.3632621,149.1652374,0,-0.0004833695711567998,0.0015008619520813227,0.027466269209980965,0.00025627235299907625,0.00022655230714008212,0.002312128432095051,0,1,-1000,1,0,0,-1,1,0,1500.0
19:14:51.691,STABILIZE,-35.3632621,149.1652374,0,-0.0005389213911257684,0.001428827061317861,0.027220694348216057,0.0002992370864376426,0.0002520151319913566,0.002245895564556122,0,1,-1000,1,0,0,-1,1,0,1500.0
19:14:51.893,STABILIZE,-35.3632621,149.1652374,0,-0.0005389213911257684,0.001428827061317861,0.027220694348216057,0.0002992370864376426,0.0002520151319913566,0.002245895564556122,0,1,-1000,1,0,0,-1,1,0,1500.0
19:14:52.097,STABILIZE,-35.3632621,149.1652374,0,-0.0005389213911257684,0.001428827061317861,0.027220694348216057,0.0002992370864376426,0.0002520151319913566,0.002245895564556122,0,1,-1000,1,0,0,-1,1,0,1500.0
19:14:52.298,STABILIZE,-35.3632622,149.1652374,0,-0.0004948766436427832,0.0012091230601072311,0.026646440848708153,0.0002573826350271702,0.0003073471016250551,0.0021533146500587463,0,1,-1000,1,0,0,-1,0,-1,1500.0
19:14:52.499,STABILIZE,-35.3632622,149.1652374,0,-0.0005207703216001391,0.0011192942038178444,0.02635430358350277,0.000261717417743057,0.00023029529256746173,0.0021888078190386295,0,1,-1000,0,0,0,-1,0,-1,1500.0
19:14:52.702,STABILIZE,-35.3632622,149.1652374,0,-0.0005207703216001391,0.0011192942038178444,0.02635430358350277,0.000261717417743057,0.00023029529256746173,0.0021888078190386295,0,1,-1000,0,0,0,-1,0,-1,1500.0
19:14:52.907,STABILIZE,-35.3632622,149.1652374,0,-0.0005207703216001391,0.0011192942038178444,0.02635430358350277,0.000261717417743057,0.00023029529256746173,0.0021888078190386295,0,1,-1000,0,0,0,-1,0,-1,1500.0
19:14:53.108,STABILIZE,-35.3632622,149.1652374,0,-0.0005207703216001391,0.0011192942038178444,0.02635430358350277,0.000261717417743057,0.00023029529256746173,0.0021888078190386295,0,1,-1000,0,0,0,-1,0,-1,1500.0
19:14:53.310,STABILIZE,-35.3632622,149.1652374,0,-0.0005207703216001391,0.0011192942038178444,0.02635430358350277,0.000261717417743057,0.00023029529256746173,0.0021888078190386295,0,1,-1000,0,0,0,-1,0,-1,1500.0
19:14:53.512,STABILIZE,-35.3632622,149.1652374,0,-0.0005207703216001391,0.0011192942038178444,0.02635430358350277,0.000261717417743057,0.00023029529256746173,0.0021888078190386295,0,1,-1000,0,0,0,-1,0,-1,1500.0
19:14:53.715,STABILIZE,-35.3632622,149.1652374,0,-0.0005207703216001391,0.0011192942038178444,0.02635430358350277,0.000261717417743057,0.00023029529256746173,0.0021888078190386295,0,1,-1000,0,0,0,-1,0,-1,1500.0
19:14:53.920,STABILIZE,-35.3632622,149.1652374,0,-0.0005207703216001391,0.0011192942038178444,0.02635430358350277,0.000261717417743057,0.00023029529256746173,0.0021888078190386295,0,1,-1000,0,0,0,-1,0,-1,1500.0
19:14:54.122,STABILIZE,-35.3632622,149.1652374,0,-0.0005207703216001391,0.0011192942038178444,0.02635430358350277,0.000261717417743057,0.00023029529256746173,0.0021888078190386295,0,1,-1000,0,0,0,-1,0,-1,1500.0
19:14:54.324,STABILIZE,-35.3632622,149.1652375,0,-0.0006459128926508129,0.0009537718142382801,0.025623032823204994,0.00021969940280541778,0.0002736784517765045,0.001929786754772067,0,2,-1000,0,0,1,-1,1,0,1500.0
19:14:54.525,STABILIZE,-35.3632622,149.1652375,0,-0.0006956342840567231,0.0009191120625473559,0.025426700711250305,0.00033210311084985733,0.00020221085287630558,0.002070327289402485,0,2,-1000,0,0,1,-1,1,0,1500.0
19:14:54.732,STABILIZE,-35.3632622,149.1652375,0,-0.0006956342840567231,0.0009191120625473559,0.025426700711250305,0.00033210311084985733,0.00020221085287630558,0.002070327289402485,0,2,-1000,0,0,1,-1,1,0,1500.0
19:14:54.935,STABILIZE,-35.3632622,149.1652375,0,-0.0006956342840567231,0.0009191120625473559,0.025426700711250305,0.00033210311084985733,0.00020221085287630558,0.002070327289402485,0,2,-1000,0,0,1,-1,1,0,1500.0
19:14:55.137,STABILIZE,-35.3632622,149.1652375,0,-0.0006956342840567231,0.0009191120625473559,0.025426700711250305,0.00033210311084985733,0.00020221085287630558,0.002070327289402485,0,2,-1000,0,0,1,-1,1,0,1500.0
19:14:58.796,STABILIZE,-35.3632622,149.1652375,0,-0.0006956342840567231,0.0009191120625473559,0.025426700711250305,0.00033210311084985733,0.00020221085287630558,0.002070327289402485,0,2,-1000,0,0,1,-1,1,0,1500.0
19:14:58.998,STABILIZE,-35.3632622,149.1652375,0,-0.0006956342840567231,0.0009191120625473559,0.025426700711250305,0.00033210311084985733,0.00020221085287630558,0.002070327289402485,0,2,-1000,0,0,1,-1,1,0,1500.0
19:14:59.202,STABILIZE,-35.3632622,149.1652375,0,-0.0006956342840567231,0.0009191120625473559,0.025426700711250305,0.00033210311084985733,0.00020221085287630558,0.002070327289402485,0,2,-1000,0,0,1,-1,1,0,1500.0
19:14:59.403,STABILIZE,-35.3632622,149.1652375,0,-0.0006956342840567231,0.0009191120625473559,0.025426700711250305,0.00033210311084985733,0.00020221085287630558,0.002070327289402485,0,2,-1000,0,0,1,-1,1,0,1500.0
19:14:59.605,STABILIZE,-35.3632622,149.1652375,0,-0.0006956342840567231,0.0009191120625473559,0.025426700711250305,0.00033210311084985733,0.00020221085287630558,0.002070327289402485,0,2,-1000,0,0,1,-1,1,0,1500.0
19:14:59.810,STABILIZE,-35.3632622,149.1652375,0,-0.0007229450857266784,0.0009083915501832962,0.024976937100291252,0.00017164601013064384,0.0003049713559448719,0.00191028555855155,0,1,-1000,0,0,1,-1,0,-1,1500.0
19:15:00.017,STABILIZE,-35.3632622,149.1652375,0,-0.00069811922730878,0.0009146066731773317,0.024783212691545486,0.00021481316071003675,0.0002670085523277521,0.0019354545511305332,0,1,-1000,1,0,0,-1,1,-1,1500.0
19:15:00.218,STABILIZE,-35.3632622,149.1652375,0,-0.00069811922730878,0.0009146066731773317,0.024783212691545486,0.00021481316071003675,0.0002670085523277521,0.0019354545511305332,0,1,-1000,1,0,0,-1,1,-1,1500.0
19:15:00.420,STABILIZE,-35.3632622,149.1652375,0,-0.00069811922730878,0.0009146066731773317,0.024783212691545486,0.00021481316071003675,0.0002670085523277521,0.0019354545511305332,0,1,-1000,1,0,0,-1,1,-1,1500.0
19:15:00.622,STABILIZE,-35.3632622,149.1652375,0,-0.00069811922730878,0.0009146066731773317,0.024783212691545486,0.00021481316071003675,0.0002670085523277521,0.0019354545511305332,0,1,-1000,1,0,0,-1,1,-1,1500.0
19:15:00.825,STABILIZE,-35.3632622,149.1652375,0,-0.00069811922730878,0.0009146066731773317,0.024783212691545486,0.00021481316071003675,0.0002670085523277521,0.0019354545511305332,0,1,-1000,1,0,0,-1,1,-1,1500.0
19:15:01.028,STABILIZE,-35.3632622,149.1652375,0,-0.00069811922730878,0.0009146066731773317,0.024783212691545486,0.00021481316071003675,0.0002670085523277521,0.0019354545511305332,0,1,-1000,1,0,0,-1,1,-1,1500.0
19:15:01.234,STABILIZE,-35.3632622,149.1652375,0,-0.00069811922730878,0.0009146066731773317,0.024783212691545486,0.00021481316071003675,0.0002670085523277521,0.0019354545511305332,0,1,-1000,1,0,0,-1,1,-1,1500.0
19:15:01.438,STABILIZE,-35.3632622,149.1652375,0,-0.000663426355458796,0.0009665173711255193,0.024233439937233925,0.00022317399270832539,0.00022193562472239137,0.0017630993388593197,0,1,-1000,1,0,0,-1,1,0,1500.0
19:15:01.640,STABILIZE,-35.3632622,149.1652375,0,-0.000663426355458796,0.0009665173711255193,0.024233439937233925,0.00022317399270832539,0.00022193562472239137,0.0017630993388593197,0,2,-1000,0,0,1,-1,1,0,1500.0
19:15:01.842,STABILIZE,-35.3632622,149.1652375,0,-0.000663426355458796,0.0009665173711255193,0.024233439937233925,0.00022317399270832539,0.00022193562472239137,0.0017630993388593197,0,2,-1000,0,0,1,-1,1,0,1500.0
19:15:02.049,STABILIZE,-35.3632622,149.1652375,0,-0.000663426355458796,0.0009665173711255193,0.024233439937233925,0.00022317399270832539,0.00022193562472239137,0.0017630993388593197,0,2,-1000,0,0,1,-1,1,0,1500.0
19:15:02.252,STABILIZE,-35.3632622,149.1652375,0,-0.000663426355458796,0.0009665173711255193,0.024233439937233925,0.00022317399270832539,0.00022193562472239137,0.0017630993388593197,0,2,-1000,0,0,1,-1,1,0,1500.0
19:15:02.455,STABILIZE,-35.3632622,149.1652375,0,-0.000663426355458796,0.0009665173711255193,0.024233439937233925,0.00022317399270832539,0.00022193562472239137,0.0017630993388593197,0,2,-1000,0,0,1,-1,1,0,1500.0
19:15:02.657,STABILIZE,-35.3632622,149.1652375,0,-0.000663426355458796,0.0009665173711255193,0.024233439937233925,0.00022317399270832539,0.00022193562472239137,0.0017630993388593197,0,2,-1000,0,0,1,-1,1,0,1500.0
19:15:02.859,STABILIZE,-35.3632622,149.1652375,0,-0.000663426355458796,0.0009665173711255193,0.024233439937233925,0.00022317399270832539,0.00022193562472239137,0.0017630993388593197,0,2,-1000,0,0,1,-1,1,0,1500.0
19:15:03.065,STABILIZE,-35.3632622,149.1652375,0,-0.000663426355458796,0.0009665173711255193,0.024233439937233925,0.00022317399270832539,0.00022193562472239137,0.0017630993388593197,0,2,-1000,0,0,1,-1,1,0,1500.0
19:15:03.267,STABILIZE,-35.3632622,149.1652375,0,-0.000663426355458796,0.0009665173711255193,0.024233439937233925,0.00022317399270832539,0.00022193562472239137,0.0017630993388593197,0,2,-1000,0,0,1,-1,1,0,1500.0
19:15:03.469,STABILIZE,-35.3632622,149.1652375,0,-0.000663426355458796,0.0009665173711255193,0.024233439937233925,0.00022317399270832539,0.00022193562472239137,0.0017630993388593197,0,2,-1000,0,0,1,-1,1,0,1500.0
19:15:03.677,STABILIZE,-35.3632622,149.1652375,0,-0.000663426355458796,0.0009665173711255193,0.024233439937233925,0.00022317399270832539,0.00022193562472239137,0.0017630993388593197,0,2,-1000,0,0,1,-1,1,0,1500.0
19:15:03.883,STABILIZE,-35.3632622,149.1652375,0,-0.000663426355458796,0.0009665173711255193,0.024233439937233925,0.00022317399270832539,0.00022193562472239137,0.0017630993388593197,0,2,-1000,0,0,1,-1,1,0,1500.0
19:15:04.086,STABILIZE,-35.3632622,149.1652375,0,-0.000663426355458796,0.0009665173711255193,0.024233439937233925,0.00022317399270832539,0.00022193562472239137,0.0017630993388593197,0,2,-1000,0,0,1,-1,1,0,1500.0
19:15:04.290,STABILIZE,-35.3632622,149.1652375,0,-0.000663426355458796,0.0009665173711255193,0.024233439937233925,0.00022317399270832539,0.00022193562472239137,0.0017630993388593197,0,2,-1000,0,0,1,-1,1,0,1500.0
19:15:04.493,STABILIZE,-35.3632622,149.1652375,0,-0.000663426355458796,0.0009665173711255193,0.024233439937233925,0.00022317399270832539,0.00022193562472239137,0.0017630993388593197,0,2,-1000,0,0,1,-1,1,0,1500.0
19:15:04.696,STABILIZE,-35.3632622,149.1652375,0,-0.000663426355458796,0.0009665173711255193,0.024233439937233925,0.00022317399270832539,0.00022193562472239137,0.0017630993388593197,0,2,-1000,0,0,1,-1,1,0,1500.0
19:15:04.899,STABILIZE,-35.3632622,149.1652375,0,-0.000663426355458796,0.0009665173711255193,0.024233439937233925,0.00022317399270832539,0.00022193562472239137,0.0017630993388593197,0,2,-1000,0,0,1,-1,1,0,1500.0
19:15:05.102,STABILIZE,-35.3632622,149.1652375,0,-0.000663426355458796,0.0009665173711255193,0.024233439937233925,0.00022317399270832539,0.00022193562472239137,0.0017630993388593197,0,2,-1000,0,0,1,-1,1,0,1500.0
19:15:05.304,STABILIZE,-35.3632622,149.1652375,0,-0.000663426355458796,0.0009665173711255193,0.024233439937233925,0.00022317399270832539,0.00022193562472239137,0.0017630993388593197,0,2,-1000,0,0,1,-1,1,0,1500.0
19:15:05.506,STABILIZE,-35.3632622,149.1652375,0,-0.000663426355458796,0.0009665173711255193,0.024233439937233925,0.00022317399270832539,0.00022193562472239137,0.0017630993388593197,0,2,-1000,0,0,1,-1,1,0,1500.0
19:15:05.710,STABILIZE,-35.3632622,149.1652375,0,-0.000663426355458796,0.0009665173711255193,0.024233439937233925,0.00022317399270832539,0.00022193562472239137,0.0017630993388593197,0,2,-1000,0,0,1,-1,1,0,1500.0
19:15:05.911,STABILIZE,-35.3632622,149.1652375,0,-0.000663426355458796,0.0009665173711255193,0.024233439937233925,0.00022317399270832539,0.00022193562472239137,0.0017630993388593197,0,2,-1000,0,0,1,-1,1,0,1500.0
19:15:06.113,STABILIZE,-35.3632622,149.1652375,0,-0.000663426355458796,0.0009665173711255193,0.024233439937233925,0.00022317399270832539,0.00022193562472239137,0.0017630993388593197,0,2,-1000,0,0,1,-1,1,0,1500.0
19:15:06.314,STABILIZE,-35.3632622,149.1652375,0,-0.000663426355458796,0.0009665173711255193,0.024233439937233925,0.00022317399270832539,0.00022193562472239137,0.0017630993388593197,0,2,-1000,0,0,1,-1,1,0,1500.0
19:15:06.516,STABILIZE,-35.3632622,149.1652375,0,-0.000663426355458796,0.0009665173711255193,0.024233439937233925,0.00022317399270832539,0.00022193562472239137,0.0017630993388593197,0,2,-1000,0,0,1,-1,1,0,1500.0
19:15:06.717,STABILIZE,-35.3632622,149.1652375,0,-0.000663426355458796,0.0009665173711255193,0.024233439937233925,0.00022317399270832539,0.00022193562472239137,0.0017630993388593197,0,2,-1000,0,0,1,-1,1,0,1500.0
19:15:06.919,STABILIZE,-35.3632622,149.1652375,0,-0.000663426355458796,0.0009665173711255193,0.024233439937233925,0.00022317399270832539,0.00022193562472239137,0.0017630993388593197,0,2,-1000,0,0,1,-1,1,0,1500.0
19:15:07.121,STABILIZE,-35.3632622,149.1652375,0,-0.000663426355458796,0.0009665173711255193,0.024233439937233925,0.00022317399270832539,0.00022193562472239137,0.0017630993388593197,0,2,-1000,0,0,1,-1,1,0,1500.0
19:15:07.323,STABILIZE,-35.3632622,149.1652375,0,-0.000663426355458796,0.0009665173711255193,0.024233439937233925,0.00022317399270832539,0.00022193562472239137,0.0017630993388593197,0,2,-1000,0,0,1,-1,1,0,1500.0
19:15:07.525,STABILIZE,-35.3632622,149.1652375,0,-0.000663426355458796,0.0009665173711255193,0.024233439937233925,0.00022317399270832539,0.00022193562472239137,0.0017630993388593197,0,2,-1000,0,0,1,-1,1,0,1500.0
19:15:07.726,STABILIZE,-35.3632622,149.1652375,0,-0.000663426355458796,0.0009665173711255193,0.024233439937233925,0.00022317399270832539,0.00022193562472239137,0.0017630993388593197,0,2,-1000,0,0,1,-1,1,0,1500.0
19:15:07.927,STABILIZE,-35.3632622,149.1652375,0,-0.000663426355458796,0.0009665173711255193,0.024233439937233925,0.00022317399270832539,0.00022193562472239137,0.0017630993388593197,0,2,-1000,0,0,1,-1,1,0,1500.0
19:15:08.129,STABILIZE,-35.3632622,149.1652375,0,-0.000663426355458796,0.0009665173711255193,0.024233439937233925,0.00022317399270832539,0.00022193562472239137,0.0017630993388593197,0,2,-1000,0,0,1,-1,1,0,1500.0
19:15:08.336,STABILIZE,-35.3632622,149.1652375,0,-0.0007760566659271717,0.0009932221146300435,0.023372553288936615,0.0002958616823889315,0.00037149229319766164,0.0015985560603439808,0,1,-1000,1,0,0,-1,1,0,1500.0
19:15:08.537,AUTO,-35.3632622,149.1652375,0,-0.0007881746860221028,0.0009945140918716788,0.023292850703001022,0.0003391657373867929,0.00016106764087453485,0.0016654741484671831,0,1,-1000,0,0,0,-1,1,0,1500.0
19:15:08.739,AUTO,-35.3632622,149.1652375,0,-0.0007881746860221028,0.0009945140918716788,0.023292850703001022,0.0003391657373867929,0.00016106764087453485,0.0016654741484671831,0,1,-1000,0,0,0,-1,1,0,1500.0
19:15:08.944,AUTO,-35.3632622,149.1652375,0,-0.0007881746860221028,0.0009945140918716788,0.023292850703001022,0.0003391657373867929,0.00016106764087453485,0.0016654741484671831,0,1,-1000,0,0,0,-1,1,0,1500.0
19:15:09.145,AUTO,-35.3632621,149.1652375,1090,0.012916716746985912,0.0006199533818289638,0.021356675773859024,0.04805009439587593,-0.00642254576086998,0.0014381710207089782,0,0,-1036,48,-5,0,0,2,-139,1500.0
19:15:09.346,AUTO,-35.3632621,149.1652375,1457,0.024759601801633835,-0.0011434763437137008,0.021329358220100403,0.04674699902534485,-0.007372577674686909,0.002328111557289958,0,0,-1015,47,-6,1,1,6,-145,1500.0
19:15:09.548,AUTO,-35.363262,149.1652377,1835,0.03616751357913017,-0.0031198253855109215,0.021413832902908325,0.04474417865276337,-0.008031410165131092,0.0028804014436900616,0,-1,-1006,45,-7,2,1,12,-147,1500.0
19:15:09.749,AUTO,-35.3632619,149.1652381,2219,0.04696773365139961,-0.005402077455073595,0.021561328321695328,0.04211103543639183,-0.009720152243971825,0.0032843081280589104,0,-1,-1006,45,-7,2,3,21,-148,1500.0
19:15:09.950,AUTO,-35.3632619,149.1652381,2219,0.04696773365139961,-0.005402077455073595,0.021561328321695328,0.04211103543639183,-0.009720152243971825,0.0032843081280589104,0,-3,-1002,42,-8,2,3,21,-148,1500.0
19:15:10.153,AUTO,-35.3632618,149.1652389,2607,0.057092972099781036,-0.00813630037009716,0.021775217726826668,0.0386589877307415,-0.011738412082195282,0.0035511585883796215,1,-4,-999,39,-11,3,5,32,-148,1500.0
19:15:10.355,AUTO,-35.3632618,149.1652389,2607,0.057092972099781036,-0.00813630037009716,0.021775217726826668,0.0386589877307415,-0.011738412082195282,0.0035511585883796215,1,-4,-999,39,-11,3,5,32,-148,1500.0
19:15:10.558,AUTO,-35.3632618,149.1652389,2607,0.057092972099781036,-0.00813630037009716,0.021775217726826668,0.0386589877307415,-0.011738412082195282,0.0035511585883796215,1,-4,-999,39,-11,3,5,32,-148,1500.0
19:15:10.760,AUTO,-35.3632618,149.1652389,2607,0.057092972099781036,-0.00813630037009716,0.021775217726826668,0.0386589877307415,-0.011738412082195282,0.0035511585883796215,1,-4,-999,39,-11,3,5,32,-148,1500.0
19:15:10.961,AUTO,-35.3632618,149.1652389,2607,0.057092972099781036,-0.00813630037009716,0.021775217726826668,0.0386589877307415,-0.011738412082195282,0.0035511585883796215,1,-4,-999,39,-11,3,5,32,-148,1500.0
19:15:11.163,AUTO,-35.3632618,149.1652389,2607,0.057092972099781036,-0.00813630037009716,0.021775217726826668,0.0386589877307415,-0.011738412082195282,0.0035511585883796215,1,-4,-999,39,-11,3,5,32,-148,1500.0
19:15:11.365,AUTO,-35.3632618,149.1652389,2607,0.057092972099781036,-0.00813630037009716,0.021775217726826668,0.0386589877307415,-0.011738412082195282,0.0035511585883796215,1,-4,-999,39,-11,3,5,32,-148,1500.0
19:15:11.570,AUTO,-35.3632618,149.1652389,2607,0.057092972099781036,-0.00813630037009716,0.021775217726826668,0.0386589877307415,-0.011738412082195282,0.0035511585883796215,1,-4,-999,39,-11,3,5,32,-148,1500.0
19:15:11.771,AUTO,-35.3632609,149.1652464,5286,-0.0627627819776535,-0.0005419639055617154,-0.08422402292490005,-0.09043390303850174,-0.012783442623913288,-0.02291857637465,4,-6,-999,-59,-19,-23,0,9,-148,1500.0
19:15:11.973,AUTO,-35.3632609,149.1652464,5286,-0.0627627819776535,-0.0005419639055617154,-0.08422402292490005,-0.09043390303850174,-0.012783442623913288,-0.02291857637465,2,-4,-998,-89,-12,-23,0,9,-148,1500.0
19:15:12.176,AUTO,-35.3632609,149.1652464,5669,-0.07862776517868042,-0.0024898455012589693,-0.09017837792634964,-0.0031844608020037413,-0.0016467873938381672,-0.02492300048470497,0,0,-1005,-2,-1,-25,0,-9,-148,1500.0
19:15:12.380,AUTO,-35.3632609,149.1652464,5669,-0.07862776517868042,-0.0024898455012589693,-0.09017837792634964,-0.0031844608020037413,-0.0016467873938381672,-0.02492300048470497,0,0,-1005,-2,-1,-25,0,-9,-148,1500.0
19:15:12.605,AUTO,-35.3632609,149.1652464,5669,-0.07862776517868042,-0.0024898455012589693,-0.09017837792634964,-0.0031844608020037413,-0.0016467873938381672,-0.02492300048470497,0,0,-1005,-2,-1,-25,0,-9,-148,1500.0
19:15:12.810,AUTO,-35.3632609,149.1652464,5669,-0.07862776517868042,-0.0024898455012589693,-0.09017837792634964,-0.0031844608020037413,-0.0016467873938381672,-0.02492300048470497,0,0,-1005,-2,-1,-25,0,-9,-148,1500.0
19:15:13.016,AUTO,-35.3632609,149.1652464,5669,-0.07862776517868042,-0.0024898455012589693,-0.09017837792634964,-0.0031844608020037413,-0.0016467873938381672,-0.02492300048470497,0,0,-1005,-2,-1,-25,0,-9,-148,1500.0
19:15:13.221,AUTO,-35.3632609,149.1652464,5669,-0.07862776517868042,-0.0024898455012589693,-0.09017837792634964,-0.0031844608020037413,-0.0016467873938381672,-0.02492300048470497,0,0,-1005,-2,-1,-25,0,-9,-148,1500.0
19:15:13.429,AUTO,-35.3632609,149.1652464,5669,-0.07862776517868042,-0.0024898455012589693,-0.09017837792634964,-0.0031844608020037413,-0.0016467873938381672,-0.02492300048470497,0,0,-1005,-2,-1,-25,0,-9,-148,1500.0
19:15:13.633,AUTO,-35.3632609,149.1652464,5669,-0.07862776517868042,-0.0024898455012589693,-0.09017837792634964,-0.0031844608020037413,-0.0016467873938381672,-0.02492300048470497,0,0,-1005,-2,-1,-25,0,-9,-148,1500.0
19:15:13.835,AUTO,-35.3632616,149.1652378,8207,0.01714831031858921,0.008137297816574574,-0.10258819162845612,0.0672583058476448,0.011602380312979221,0.0022530981805175543,-5,11,-1004,67,12,1,-11,-55,-151,1500.0
19:15:14.037,AUTO,-35.3632618,149.1652363,8598,0.033796120434999466,0.010621538385748863,-0.10155561566352844,0.066926509141922,0.008852386847138405,0.0031903889030218124,-5,11,-1004,67,9,2,-13,-47,-152,1500.0
19:15:14.238,AUTO,-35.3632618,149.1652363,8598,0.033796120434999466,0.010621538385748863,-0.10155561566352844,0.066926509141922,0.008852386847138405,0.0031903889030218124,-5,11,-1004,67,9,2,-13,-47,-152,1500.0
19:15:14.440,AUTO,-35.3632618,149.1652363,8598,0.033796120434999466,0.010621538385748863,-0.10155561566352844,0.066926509141922,0.008852386847138405,0.0031903889030218124,-5,11,-1004,67,9,2,-13,-47,-152,1500.0
19:15:14.642,AUTO,-35.3632618,149.1652363,8598,0.033796120434999466,0.010621538385748863,-0.10155561566352844,0.066926509141922,0.008852386847138405,0.0031903889030218124,-5,11,-1004,67,9,2,-13,-47,-152,1500.0
19:15:14.843,AUTO,-35.3632618,149.1652363,8598,0.033796120434999466,0.010621538385748863,-0.10155561566352844,0.066926509141922,0.008852386847138405,0.0031903889030218124,-5,11,-1004,67,9,2,-13,-47,-152,1500.0
19:15:15.046,AUTO,-35.3632618,149.1652363,8598,0.033796120434999466,0.010621538385748863,-0.10155561566352844,0.066926509141922,0.008852386847138405,0.0031903889030218124,-5,11,-1004,67,9,2,-13,-47,-152,1500.0
19:15:15.247,AUTO,-35.3632618,149.1652363,8598,0.033796120434999466,0.010621538385748863,-0.10155561566352844,0.066926509141922,0.008852386847138405,0.0031903889030218124,-5,11,-1004,67,9,2,-13,-47,-152,1500.0
19:15:15.449,AUTO,-35.3632618,149.1652363,8598,0.033796120434999466,0.010621538385748863,-0.10155561566352844,0.066926509141922,0.008852386847138405,0.0031903889030218124,-5,11,-1004,67,9,2,-13,-47,-152,1500.0
19:15:15.650,AUTO,-35.3632635,149.1652345,10554,0.04053478315472603,-0.040292706340551376,-0.05568023398518562,-0.12397357821464539,-0.02616620622575283,0.03982413187623024,4,1,-994,-63,-128,118,-3,27,-148,1500.0
19:15:15.852,AUTO,-35.3632633,149.165236,11316,-0.010936399921774864,-0.021009718999266624,-0.06659048050642014,-0.06880529969930649,0.05355198681354523,-0.05636787414550781,1,-7,-1005,-68,54,-56,14,27,-148,1500.0
19:15:16.054,AUTO,-35.3632629,149.1652366,11701,-0.022562773898243904,-0.009882137179374695,-0.08254504203796387,-0.03298463299870491,0.038812216371297836,-0.06380340456962585,0,-7,-1005,-32,39,-64,18,20,-149,1500.0
19:15:16.258,AUTO,-35.3632629,149.1652366,11701,-0.022562773898243904,-0.009882137179374695,-0.08254504203796387,-0.03298463299870491,0.038812216371297836,-0.06380340456962585,0,-7,-1005,-32,39,-64,18,20,-149,1500.0
19:15:16.459,AUTO,-35.3632629,149.1652366,11701,-0.022562773898243904,-0.009882137179374695,-0.08254504203796387,-0.03298463299870491,0.038812216371297836,-0.06380340456962585,0,-7,-1005,-32,39,-64,18,20,-149,1500.0
19:15:16.661,AUTO,-35.3632629,149.1652366,11701,-0.022562773898243904,-0.009882137179374695,-0.08254504203796387,-0.03298463299870491,0.038812216371297836,-0.06380340456962585,0,-7,-1005,-32,39,-64,18,20,-149,1500.0
19:15:16.863,AUTO,-35.3632629,149.1652366,11701,-0.022562773898243904,-0.009882137179374695,-0.08254504203796387,-0.03298463299870491,0.038812216371297836,-0.06380340456962585,0,-7,-1005,-32,39,-64,18,20,-149,1500.0
19:15:17.064,AUTO,-35.3632629,149.1652366,11701,-0.022562773898243904,-0.009882137179374695,-0.08254504203796387,-0.03298463299870491,0.038812216371297836,-0.06380340456962585,0,-7,-1005,-32,39,-64,18,20,-149,1500.0
19:15:17.266,AUTO,-35.3632629,149.1652366,11701,-0.022562773898243904,-0.009882137179374695,-0.08254504203796387,-0.03298463299870491,0.038812216371297836,-0.06380340456962585,0,-7,-1005,-32,39,-64,18,20,-149,1500.0
19:15:17.468,AUTO,-35.3632629,149.1652366,11701,-0.022562773898243904,-0.009882137179374695,-0.08254504203796387,-0.03298463299870491,0.038812216371297836,-0.06380340456962585,0,-7,-1005,-32,39,-64,18,20,-149,1500.0
19:15:17.671,AUTO,-35.3632616,149.1652372,12867,-0.02141510508954525,0.007141419220715761,-0.12757070362567902,0.024595236405730247,0.01605786755681038,-0.04760966822504997,-3,-2,-1002,25,16,-48,15,-4,-152,1500.0
19:15:17.872,AUTO,-35.3632608,149.1652361,14443,0.007109001744538546,0.015376916155219078,-0.15850819647312164,0.019055435433983803,-0.0003066103963647038,-0.013223362155258656,-3,1,-999,19,0,-13,1,-10,-152,1500.0
19:15:18.073,AUTO,-35.3632607,149.1652357,14835,0.011410201899707317,0.014840072952210903,-0.160922572016716,0.015638437122106552,-0.004092697519809008,-0.0062679992988705635,-2,1,-1000,16,-3,-6,-2,-8,-152,1500.0
19:15:18.275,AUTO,-35.3632607,149.1652357,14835,0.011410201899707317,0.014840072952210903,-0.160922572016716,0.015638437122106552,-0.004092697519809008,-0.0062679992988705635,-2,1,-1000,16,-3,-6,-2,-8,-152,1500.0
19:15:18.477,AUTO,-35.3632607,149.1652357,14835,0.011410201899707317,0.014840072952210903,-0.160922572016716,0.015638437122106552,-0.004092697519809008,-0.0062679992988705635,-2,1,-1000,16,-3,-6,-2,-8,-152,1500.0
19:15:18.679,AUTO,-35.3632607,149.1652357,14835,0.011410201899707317,0.014840072952210903,-0.160922572016716,0.015638437122106552,-0.004092697519809008,-0.0062679992988705635,-2,1,-1000,16,-3,-6,-2,-8,-152,1500.0
19:15:18.881,AUTO,-35.3632607,149.1652357,14835,0.011410201899707317,0.014840072952210903,-0.160922572016716,0.015638437122106552,-0.004092697519809008,-0.0062679992988705635,-2,1,-1000,16,-3,-6,-2,-8,-152,1500.0
19:15:19.084,AUTO,-35.3632607,149.1652357,14835,0.011410201899707317,0.014840072952210903,-0.160922572016716,0.015638437122106552,-0.004092697519809008,-0.0062679992988705635,-2,1,-1000,16,-3,-6,-2,-8,-152,1500.0
19:15:19.286,AUTO,-35.3632607,149.1652357,14835,0.011410201899707317,0.014840072952210903,-0.160922572016716,0.015638437122106552,-0.004092697519809008,-0.0062679992988705635,-2,1,-1000,16,-3,-6,-2,-8,-152,1500.0
19:15:19.489,AUTO,-35.3632607,149.1652357,14835,0.011410201899707317,0.014840072952210903,-0.160922572016716,0.015638437122106552,-0.004092697519809008,-0.0062679992988705635,-2,1,-1000,16,-3,-6,-2,-8,-152,1500.0
19:15:19.690,AUTO,-35.3632613,149.1652354,17180,0.00729382736608386,0.003960027825087309,-0.16627368330955505,-0.004838241264224052,-0.004537613596767187,-0.009983260184526443,1,0,-1000,-8,-5,-5,-8,7,-152,1500.0
19:15:19.892,AUTO,-35.3632615,149.1652355,17569,0.00548902340233326,0.00273657264187932,-0.16901333630084991,-0.004905662965029478,-0.0034448120277374983,-0.012677626684308052,2,0,-1000,-4,-2,-13,-7,7,-152,1500.0
19:15:20.093,AUTO,-35.3632616,149.1652357,17959,0.004059134516865015,0.0018038591369986534,-0.17250555753707886,-0.007004049140959978,-0.003989602439105511,-0.015199754387140274,2,0,-1000,-6,-3,-15,-7,7,-152,1500.0
19:15:20.295,AUTO,-35.3632616,149.1652357,17959,0.004059134516865015,0.0018038591369986534,-0.17250555753707886,-0.007004049140959978,-0.003989602439105511,-0.015199754387140274,2,0,-1000,-6,-3,-15,-7,7,-152,1500.0
19:15:20.497,AUTO,-35.3632616,149.1652357,17959,0.004059134516865015,0.0018038591369986534,-0.17250555753707886,-0.007004049140959978,-0.003989602439105511,-0.015199754387140274,2,0,-1000,-6,-3,-15,-7,7,-152,1500.0
19:15:20.699,AUTO,-35.3632616,149.1652357,17959,0.004059134516865015,0.0018038591369986534,-0.17250555753707886,-0.007004049140959978,-0.003989602439105511,-0.015199754387140274,2,0,-1000,-6,-3,-15,-7,7,-152,1500.0
19:15:20.901,AUTO,-35.3632616,149.1652357,17959,0.004059134516865015,0.0018038591369986534,-0.17250555753707886,-0.007004049140959978,-0.003989602439105511,-0.015199754387140274,2,0,-1000,-6,-3,-15,-7,7,-152,1500.0
19:15:21.103,AUTO,-35.3632616,149.1652357,17959,0.004059134516865015,0.0018038591369986534,-0.17250555753707886,-0.007004049140959978,-0.003989602439105511,-0.015199754387140274,2,0,-1000,-6,-3,-15,-7,7,-152,1500.0
19:15:21.304,AUTO,-35.3632616,149.1652357,17959,0.004059134516865015,0.0018038591369986534,-0.17250555753707886,-0.007004049140959978,-0.003989602439105511,-0.015199754387140274,2,0,-1000,-6,-3,-15,-7,7,-152,1500.0
19:15:21.508,AUTO,-35.3632616,149.1652357,17959,0.004059134516865015,0.0018038591369986534,-0.17250555753707886,-0.007004049140959978,-0.003989602439105511,-0.015199754387140274,2,0,-1000,-6,-3,-15,-7,7,-152,1500.0
19:15:21.709,AUTO,-35.3632618,149.165236,19131,0.0013500005006790161,0.00027919531567022204,-0.18624229729175568,-0.0014811641303822398,0.001427415176294744,-0.021383462473750114,1,0,-1000,0,2,-21,-4,6,-152,1500.0
19:15:21.910,AUTO,-35.363262,149.1652363,20695,0.0021699259523302317,0.0011241298634558916,-0.2091495394706726,0.0032586916349828243,0.0018063703319057822,-0.021819107234477997,0,0,-1000,3,2,-22,-2,3,-153,1500.0
19:15:22.112,AUTO,-35.363262,149.1652363,21086,0.0027025071904063225,0.0017907023429870605,-0.2151041179895401,0.003845867468044162,0.0039064339362084866,-0.023969067260622978,0,0,-1000,4,4,-24,-1,3,-153,1500.0
19:15:22.314,AUTO,-35.363262,149.1652363,21086,0.0027025071904063225,0.0017907023429870605,-0.2151041179895401,0.003845867468044162,0.0039064339362084866,-0.023969067260622978,0,0,-1000,4,4,-24,-1,3,-153,1500.0
19:15:22.516,AUTO,-35.363262,149.1652363,21086,0.0027025071904063225,0.0017907023429870605,-0.2151041179895401,0.003845867468044162,0.0039064339362084866,-0.023969067260622978,0,0,-1000,4,4,-24,-1,3,-153,1500.0
19:15:22.717,AUTO,-35.363262,149.1652363,21086,0.0027025071904063225,0.0017907023429870605,-0.2151041179895401,0.003845867468044162,0.0039064339362084866,-0.023969067260622978,0,0,-1000,4,4,-24,-1,3,-153,1500.0
19:15:22.918,AUTO,-35.363262,149.1652363,21086,0.0027025071904063225,0.0017907023429870605,-0.2151041179895401,0.003845867468044162,0.0039064339362084866,-0.023969067260622978,0,0,-1000,4,4,-24,-1,3,-153,1500.0
19:15:23.120,AUTO,-35.363262,149.1652363,21086,0.0027025071904063225,0.0017907023429870605,-0.2151041179895401,0.003845867468044162,0.0039064339362084866,-0.023969067260622978,0,0,-1000,4,4,-24,-1,3,-153,1500.0
19:15:23.321,AUTO,-35.363262,149.1652363,21086,0.0027025071904063225,0.0017907023429870605,-0.2151041179895401,0.003845867468044162,0.0039064339362084866,-0.023969067260622978,0,0,-1000,4,4,-24,-1,3,-153,1500.0
19:15:23.522,AUTO,-35.363262,149.1652363,21086,0.0027025071904063225,0.0017907023429870605,-0.2151041179895401,0.003845867468044162,0.0039064339362084866,-0.023969067260622978,0,0,-1000,4,4,-24,-1,3,-153,1500.0
19:15:23.723,AUTO,-35.363262,149.1652365,23435,0.0033822187688201666,0.002849945332854986,-0.24686454236507416,0.0016430745599791408,0.0012614340521395206,-0.01952463574707508,0,0,-1000,2,2,-20,-1,3,-153,1500.0
19:15:23.925,AUTO,-35.363262,149.1652366,23827,0.0033790667075663805,0.002868098206818104,-0.2516014575958252,0.0004276784020476043,0.00014518440002575517,-0.01634189672768116,0,0,-1000,1,1,-16,-1,3,-153,1500.0
19:15:24.126,AUTO,-35.363262,149.1652366,24216,0.0031913055572658777,0.0028785753529518843,-0.2564016580581665,-0.0009459761786274612,0.000787351920735091,-0.019679171964526176,0,0,-1000,0,1,-20,-1,3,-153,1500.0
19:15:24.330,AUTO,-35.363262,149.1652366,24216,0.0031913055572658777,0.0028785753529518843,-0.2564016580581665,-0.0009459761786274612,0.000787351920735091,-0.019679171964526176,0,0,-1000,0,1,-20,-1,3,-153,1500.0
19:15:24.532,AUTO,-35.363262,149.1652366,24216,0.0031913055572658777,0.0028785753529518843,-0.2564016580581665,-0.0009459761786274612,0.000787351920735091,-0.019679171964526176,0,0,-1000,0,1,-20,-1,3,-153,1500.0
19:15:24.733,AUTO,-35.363262,149.1652366,24216,0.0031913055572658777,0.0028785753529518843,-0.2564016580581665,-0.0009459761786274612,0.000787351920735091,-0.019679171964526176,0,0,-1000,0,1,-20,-1,3,-153,1500.0
19:15:24.935,AUTO,-35.363262,149.1652366,24216,0.0031913055572658777,0.0028785753529518843,-0.2564016580581665,-0.0009459761786274612,0.000787351920735091,-0.019679171964526176,0,0,-1000,0,1,-20,-1,3,-153,1500.0
19:15:25.137,AUTO,-35.363262,149.1652366,24216,0.0031913055572658777,0.0028785753529518843,-0.2564016580581665,-0.0009459761786274612,0.000787351920735091,-0.019679171964526176,0,0,-1000,0,1,-20,-1,3,-153,1500.0
19:15:25.341,AUTO,-35.363262,149.1652366,24216,0.0031913055572658777,0.0028785753529518843,-0.2564016580581665,-0.0009459761786274612,0.000787351920735091,-0.019679171964526176,0,0,-1000,0,1,-20,-1,3,-153,1500.0
19:15:25.542,AUTO,-35.363262,149.1652366,24216,0.0031913055572658777,0.0028785753529518843,-0.2564016580581665,-0.0009459761786274612,0.000787351920735091,-0.019679171964526176,0,0,-1000,0,1,-20,-1,3,-153,1500.0
19:15:25.744,AUTO,-35.3632622,149.1652366,26553,0.007680442649871111,0.00462028943002224,-0.25212562084198,0.019105300307273865,-0.0031505804508924484,0.027490301057696342,0,0,-999,20,-2,27,-5,0,-153,1500.0
19:15:25.945,AUTO,-35.3632622,149.1652365,26944,0.01087567862123251,0.0037299920804798603,-0.24519948661327362,0.010401505045592785,-0.0026022803504019976,0.02743464708328247,0,1,-1000,11,-1,27,-4,1,-153,1500.0
19:15:26.147,AUTO,-35.3632623,149.1652366,27335,0.011489191092550755,0.0028932683635503054,-0.23837588727474213,-0.003511808579787612,-0.004130271729081869,0.026107056066393852,0,0,-999,-2,-3,25,-4,3,-153,1500.0
19:15:26.349,AUTO,-35.3632623,149.1652366,27335,0.011489191092550755,0.0028932683635503054,-0.23837588727474213,-0.003511808579787612,-0.004130271729081869,0.026107056066393852,0,0,-999,-2,-3,25,-4,3,-153,1500.0
19:15:26.553,AUTO,-35.3632623,149.1652366,27335,0.011489191092550755,0.0028932683635503054,-0.23837588727474213,-0.003511808579787612,-0.004130271729081869,0.026107056066393852,0,0,-999,-2,-3,25,-4,3,-153,1500.0
19:15:26.755,AUTO,-35.3632623,149.1652366,27335,0.011489191092550755,0.0028932683635503054,-0.23837588727474213,-0.003511808579787612,-0.004130271729081869,0.026107056066393852,0,0,-999,-2,-3,25,-4,3,-153,1500.0
19:15:26.957,AUTO,-35.3632623,149.1652366,27335,0.011489191092550755,0.0028932683635503054,-0.23837588727474213,-0.003511808579787612,-0.004130271729081869,0.026107056066393852,0,0,-999,-2,-3,25,-4,3,-153,1500.0
19:15:27.158,AUTO,-35.3632623,149.1652366,27335,0.011489191092550755,0.0028932683635503054,-0.23837588727474213,-0.003511808579787612,-0.004130271729081869,0.026107056066393852,0,0,-999,-2,-3,25,-4,3,-153,1500.0
19:15:27.360,AUTO,-35.3632623,149.1652366,27335,0.011489191092550755,0.0028932683635503054,-0.23837588727474213,-0.003511808579787612,-0.004130271729081869,0.026107056066393852,0,0,-999,-2,-3,25,-4,3,-153,1500.0
19:15:27.563,AUTO,-35.3632623,149.1652366,27335,0.011489191092550755,0.0028932683635503054,-0.23837588727474213,-0.003511808579787612,-0.004130271729081869,0.026107056066393852,0,0,-999,-2,-3,25,-4,3,-153,1500.0
19:15:27.764,AUTO,-35.3632623,149.1652374,29669,0.0019472918938845396,0.0018937885761260986,-0.2051001936197281,-0.0038698292337358,0.001056307926774025,0.021241169422864914,0,-1,-1000,-2,1,20,0,8,-152,1500.0
19:15:27.966,AUTO,-35.3632623,149.1652375,30058,0.0007899124757386744,0.0019737249240279198,-0.20039376616477966,-0.007050524931401014,-0.0003957070875912905,0.01840219460427761,0,-1,-1000,-6,0,18,0,7,-152,1500.0
19:15:28.168,AUTO,-35.3632623,149.1652377,30446,0.00016308181511703879,0.0019271353958174586,-0.19586190581321716,0.000906393164768815,-0.0017388717969879508,0.01876252330839634,0,0,-1001,1,0,18,0,7,-152,1500.0
19:15:28.370,AUTO,-35.3632623,149.1652377,30446,0.00016308181511703879,0.0019271353958174586,-0.19586190581321716,0.000906393164768815,-0.0017388717969879508,0.01876252330839634,0,0,-1001,1,0,18,0,7,-152,1500.0
19:15:28.572,AUTO,-35.3632623,149.1652377,30446,0.00016308181511703879,0.0019271353958174586,-0.19586190581321716,0.000906393164768815,-0.0017388717969879508,0.01876252330839634,0,0,-1001,1,0,18,0,7,-152,1500.0
19:15:28.774,AUTO,-35.3632623,149.1652377,30446,0.00016308181511703879,0.0019271353958174586,-0.19586190581321716,0.000906393164768815,-0.0017388717969879508,0.01876252330839634,0,0,-1001,1,0,18,0,7,-152,1500.0
19:15:28.975,AUTO,-35.3632623,149.1652377,30446,0.00016308181511703879,0.0019271353958174586,-0.19586190581321716,0.000906393164768815,-0.0017388717969879508,0.01876252330839634,0,0,-1001,1,0,18,0,7,-152,1500.0
19:15:29.180,AUTO,-35.3632623,149.1652377,30446,0.00016308181511703879,0.0019271353958174586,-0.19586190581321716,0.000906393164768815,-0.0017388717969879508,0.01876252330839634,0,0,-1001,1,0,18,0,7,-152,1500.0
19:15:29.383,AUTO,-35.3632623,149.1652377,30446,0.00016308181511703879,0.0019271353958174586,-0.19586190581321716,0.000906393164768815,-0.0017388717969879508,0.01876252330839634,0,0,-1001,1,0,18,0,7,-152,1500.0
19:15:29.584,AUTO,-35.3632623,149.165238,31615,-0.0006690977024845779,0.0013883218634873629,-0.18297524750232697,0.0029831635765731335,-0.0015374247450381517,0.017459886148571968,0,0,-1001,3,0,17,0,4,-153,1500.0
19:15:29.786,AUTO,-35.3632623,149.165238,33178,0.0008752226713113487,0.0011318923206999898,-0.16829349100589752,0.001619700575247407,-0.0011468041921034455,0.01274139154702425,0,0,-1001,5,1,14,0,1,-153,1500.0
19:15:29.987,AUTO,-35.3632623,149.165238,33178,0.0008752226713113487,0.0011318923206999898,-0.16829349100589752,0.001619700575247407,-0.0011468041921034455,0.01274139154702425,0,0,-1000,2,0,12,0,1,-153,1500.0
19:15:30.188,AUTO,-35.3632623,149.165238,33567,0.0011515476508066058,0.0010044004302471876,-0.16486619412899017,0.0008738968172110617,-0.0009581941994838417,0.013840926811099052,0,0,-1000,2,0,13,0,0,-153,1500.0
19:15:30.390,AUTO,-35.3632623,149.165238,33567,0.0011515476508066058,0.0010044004302471876,-0.16486619412899017,0.0008738968172110617,-0.0009581941994838417,0.013840926811099052,0,0,-1000,2,0,13,0,0,-153,1500.0
19:15:30.617,AUTO,-35.3632623,149.165238,33567,0.0011515476508066058,0.0010044004302471876,-0.16486619412899017,0.0008738968172110617,-0.0009581941994838417,0.013840926811099052,0,0,-1000,2,0,13,0,0,-153,1500.0
19:15:30.847,AUTO,-35.3632623,149.165238,33567,0.0011515476508066058,0.0010044004302471876,-0.16486619412899017,0.0008738968172110617,-0.0009581941994838417,0.013840926811099052,0,0,-1000,2,0,13,0,0,-153,1500.0
19:15:34.579,AUTO,-35.3632623,149.165238,33567,0.0011515476508066058,0.0010044004302471876,-0.16486619412899017,0.0008738968172110617,-0.0009581941994838417,0.013840926811099052,0,0,-1000,2,0,13,0,0,-153,1500.0
19:15:34.812,AUTO,-35.3632623,149.165238,33567,0.0011515476508066058,0.0010044004302471876,-0.16486619412899017,0.0008738968172110617,-0.0009581941994838417,0.013840926811099052,0,0,-1000,2,0,13,0,0,-153,1500.0
19:15:35.014,AUTO,-35.3632623,149.165238,33567,0.0011515476508066058,0.0010044004302471876,-0.16486619412899017,0.0008738968172110617,-0.0009581941994838417,0.013840926811099052,0,0,-1000,2,0,13,0,0,-153,1500.0
19:15:35.239,AUTO,-35.3632623,149.165238,33567,0.0011515476508066058,0.0010044004302471876,-0.16486619412899017,0.0008738968172110617,-0.0009581941994838417,0.013840926811099052,0,0,-1000,2,0,13,0,0,-153,1500.0
19:15:35.445,AUTO,-35.3632622,149.1652379,36292,0.0017443366814404726,0.001049727899953723,-0.1438864767551422,0.0024524517357349396,-0.0005986994365230203,0.012117540463805199,0,0,-1000,0,0,10,0,0,-153,1500.0
19:15:35.647,AUTO,-35.3632622,149.1652379,36292,0.0017443366814404726,0.001049727899953723,-0.1438864767551422,0.0024524517357349396,-0.0005986994365230203,0.012117540463805199,0,0,-1001,3,0,12,0,0,-153,1500.0
19:15:35.850,AUTO,-35.3632622,149.1652379,36292,0.0017443366814404726,0.001049727899953723,-0.1438864767551422,0.0024524517357349396,-0.0005986994365230203,0.012117540463805199,0,0,-1001,3,0,12,0,0,-153,1500.0
19:15:36.051,AUTO,-35.3632622,149.1652379,36292,0.0017443366814404726,0.001049727899953723,-0.1438864767551422,0.0024524517357349396,-0.0005986994365230203,0.012117540463805199,0,0,-1001,3,0,12,0,0,-153,1500.0
19:15:36.253,AUTO,-35.3632622,149.1652379,36292,0.0017443366814404726,0.001049727899953723,-0.1438864767551422,0.0024524517357349396,-0.0005986994365230203,0.012117540463805199,0,0,-1001,3,0,12,0,0,-153,1500.0
19:15:36.456,AUTO,-35.3632622,149.1652379,36292,0.0017443366814404726,0.001049727899953723,-0.1438864767551422,0.0024524517357349396,-0.0005986994365230203,0.012117540463805199,0,0,-1001,3,0,12,0,0,-153,1500.0
19:15:36.658,AUTO,-35.3632622,149.1652379,36292,0.0017443366814404726,0.001049727899953723,-0.1438864767551422,0.0024524517357349396,-0.0005986994365230203,0.012117540463805199,0,0,-1001,3,0,12,0,0,-153,1500.0
19:15:36.859,AUTO,-35.3632622,149.1652379,36292,0.0017443366814404726,0.001049727899953723,-0.1438864767551422,0.0024524517357349396,-0.0005986994365230203,0.012117540463805199,0,0,-1001,3,0,12,0,0,-153,1500.0
19:15:37.062,AUTO,-35.3632622,149.1652379,36292,0.0017443366814404726,0.001049727899953723,-0.1438864767551422,0.0024524517357349396,-0.0005986994365230203,0.012117540463805199,0,0,-1001,3,0,12,0,0,-153,1500.0
19:15:37.266,AUTO,-35.3632622,149.1652379,36292,0.0017443366814404726,0.001049727899953723,-0.1438864767551422,0.0024524517357349396,-0.0005986994365230203,0.012117540463805199,0,0,-1001,3,0,12,0,0,-153,1500.0
19:15:37.468,AUTO,-35.3632622,149.1652376,38555,0.0028971005231142044,0.0011655903654173017,-0.12783050537109375,0.0016520709032192826,0.0016227964079007506,0.008305422030389309,0,0,-1000,0,-1,9,0,0,-153,1500.0
19:15:37.673,AUTO,-35.3632621,149.1652376,39728,0.0025744836311787367,0.0014351962599903345,-0.12410494685173035,0.0005067712627351284,0.00026162946596741676,0.006446188315749168,0,0,-1001,1,1,6,0,0,-153,1500.0
19:15:37.876,AUTO,-35.3632621,149.1652376,39728,0.0025744836311787367,0.0014351962599903345,-0.12410494685173035,0.0005067712627351284,0.00026162946596741676,0.006446188315749168,0,0,-1001,1,1,6,0,0,-153,1500.0
19:15:38.080,AUTO,-35.3632621,149.1652376,39728,0.0025744836311787367,0.0014351962599903345,-0.12410494685173035,0.0005067712627351284,0.00026162946596741676,0.006446188315749168,0,0,-1001,1,1,6,0,0,-153,1500.0
19:15:38.282,AUTO,-35.3632621,149.1652376,39728,0.0025744836311787367,0.0014351962599903345,-0.12410494685173035,0.0005067712627351284,0.00026162946596741676,0.006446188315749168,0,0,-1001,1,1,6,0,0,-153,1500.0
19:15:38.493,AUTO,-35.3632621,149.1652376,39728,0.0025744836311787367,0.0014351962599903345,-0.12410494685173035,0.0005067712627351284,0.00026162946596741676,0.006446188315749168,0,0,-1001,1,1,6,0,0,-153,1500.0
19:15:38.697,AUTO,-35.3632621,149.1652376,39728,0.0025744836311787367,0.0014351962599903345,-0.12410494685173035,0.0005067712627351284,0.00026162946596741676,0.006446188315749168,0,0,-1001,1,1,6,0,0,-153,1500.0
19:15:38.899,AUTO,-35.3632621,149.1652376,39728,0.0025744836311787367,0.0014351962599903345,-0.12410494685173035,0.0005067712627351284,0.00026162946596741676,0.006446188315749168,0,0,-1001,1,1,6,0,0,-153,1500.0
19:15:39.107,AUTO,-35.3632621,149.1652376,39728,0.0025744836311787367,0.0014351962599903345,-0.12410494685173035,0.0005067712627351284,0.00026162946596741676,0.006446188315749168,0,0,-1001,1,1,6,0,0,-153,1500.0
19:15:39.310,AUTO,-35.3632621,149.1652376,39728,0.0025744836311787367,0.0014351962599903345,-0.12410494685173035,0.0005067712627351284,0.00026162946596741676,0.006446188315749168,0,0,-1001,1,1,6,0,0,-153,1500.0
19:15:39.512,AUTO,-35.3632621,149.1652376,39728,0.0025744836311787367,0.0014351962599903345,-0.12410494685173035,0.0005067712627351284,0.00026162946596741676,0.006446188315749168,0,0,-1001,1,1,6,0,0,-153,1500.0
19:15:39.726,AUTO,-35.363262,149.1652375,42140,0.0022526727989315987,0.0018840632401406765,-0.11321690678596497,-0.002390017034485936,0.00118056102655828,0.008671168237924576,0,0,-1000,3,2,7,-1,1,-153,1500.0
19:15:39.930,AUTO,-35.363262,149.1652374,42919,0.0021311647724360228,0.001751235336996615,-0.10999145358800888,0.0003048412036150694,-0.0023113959468901157,0.009101850911974907,0,0,-1000,1,-1,9,-1,1,-153,1500.0
19:15:40.136,AUTO,-35.363262,149.1652374,42919,0.0021311647724360228,0.001751235336996615,-0.10999145358800888,0.0003048412036150694,-0.0023113959468901157,0.009101850911974907,0,0,-1000,1,-1,9,-1,1,-153,1500.0
19:15:40.342,AUTO,-35.363262,149.1652374,42919,0.0021311647724360228,0.001751235336996615,-0.10999145358800888,0.0003048412036150694,-0.0023113959468901157,0.009101850911974907,0,0,-1000,1,-1,9,-1,1,-153,1500.0
19:15:40.555,AUTO,-35.363262,149.1652374,42919,0.0021311647724360228,0.001751235336996615,-0.10999145358800888,0.0003048412036150694,-0.0023113959468901157,0.009101850911974907,0,0,-1000,1,-1,9,-1,1,-153,1500.0
19:15:40.787,AUTO,-35.363262,149.1652374,42919,0.0021311647724360228,0.001751235336996615,-0.10999145358800888,0.0003048412036150694,-0.0023113959468901157,0.009101850911974907,0,0,-1000,1,-1,9,-1,1,-153,1500.0
19:15:41.009,AUTO,-35.363262,149.1652374,42919,0.0021311647724360228,0.001751235336996615,-0.10999145358800888,0.0003048412036150694,-0.0023113959468901157,0.009101850911974907,0,0,-1000,1,-1,9,-1,1,-153,1500.0
19:15:41.211,AUTO,-35.363262,149.1652374,42919,0.0021311647724360228,0.001751235336996615,-0.10999145358800888,0.0003048412036150694,-0.0023113959468901157,0.009101850911974907,0,0,-1000,1,-1,9,-1,1,-153,1500.0
19:15:41.413,AUTO,-35.363262,149.1652374,42919,0.0021311647724360228,0.001751235336996615,-0.10999145358800888,0.0003048412036150694,-0.0023113959468901157,0.009101850911974907,0,0,-1000,1,-1,9,-1,1,-153,1500.0
19:15:41.615,AUTO,-35.363262,149.1652374,45412,0.0021505921613425016,0.001282097422517836,-0.10042788833379745,-0.0014505786821246147,-0.0020664080511778593,0.006384880747646093,0,0,-1000,3,0,4,-1,1,-153,1500.0
19:15:41.817,AUTO,-35.363262,149.1652374,45801,0.0023072983603924513,0.0012779082171618938,-0.09898723661899567,0.001949165714904666,0.0025767269544303417,0.006562619470059872,0,0,-999,3,3,6,-1,1,-153,1500.0
19:15:42.020,AUTO,-35.363262,149.1652374,45801,0.0023072983603924513,0.0012779082171618938,-0.09898723661899567,0.001949165714904666,0.0025767269544303417,0.006562619470059872,0,0,-999,3,3,6,-1,1,-153,1500.0
19:15:42.221,AUTO,-35.363262,149.1652374,45801,0.0023072983603924513,0.0012779082171618938,-0.09898723661899567,0.001949165714904666,0.0025767269544303417,0.006562619470059872,0,0,-999,3,3,6,-1,1,-153,1500.0
19:15:42.425,AUTO,-35.363262,149.1652374,45801,0.0023072983603924513,0.0012779082171618938,-0.09898723661899567,0.001949165714904666,0.0025767269544303417,0.006562619470059872,0,0,-999,3,3,6,-1,1,-153,1500.0
19:15:42.627,AUTO,-35.363262,149.1652374,45801,0.0023072983603924513,0.0012779082171618938,-0.09898723661899567,0.001949165714904666,0.0025767269544303417,0.006562619470059872,0,0,-999,3,3,6,-1,1,-153,1500.0
19:15:42.829,AUTO,-35.363262,149.1652374,45801,0.0023072983603924513,0.0012779082171618938,-0.09898723661899567,0.001949165714904666,0.0025767269544303417,0.006562619470059872,0,0,-999,3,3,6,-1,1,-153,1500.0
19:15:43.030,AUTO,-35.363262,149.1652374,45801,0.0023072983603924513,0.0012779082171618938,-0.09898723661899567,0.001949165714904666,0.0025767269544303417,0.006562619470059872,0,0,-999,3,3,6,-1,1,-153,1500.0
19:15:43.232,AUTO,-35.363262,149.1652374,45801,0.0023072983603924513,0.0012779082171618938,-0.09898723661899567,0.001949165714904666,0.0025767269544303417,0.006562619470059872,0,0,-999,3,3,6,-1,1,-153,1500.0
19:15:43.434,AUTO,-35.3632631,149.1652358,48431,-0.035544462502002716,0.018789971247315407,0.25459131598472595,0.10356952995061874,-0.2102203518152237,0.19770009815692902,3,8,-941,104,-209,198,-31,-35,-110,1500.0
19:15:43.636,AUTO,-35.3632638,149.1652348,48696,-0.007666365709155798,-0.02332201413810253,0.2876896560192108,0.11049619317054749,-0.1341574490070343,0.08853741735219955,5,11,-949,111,-132,88,-29,-37,-96,1500.0
19:15:43.837,AUTO,-35.3632638,149.1652348,48696,-0.007666365709155798,-0.02332201413810253,0.2876896560192108,0.11049619317054749,-0.1341574490070343,0.08853741735219955,5,11,-949,111,-132,88,-29,-37,-96,1500.0
19:15:44.040,AUTO,-35.3632638,149.1652348,48696,-0.007666365709155798,-0.02332201413810253,0.2876896560192108,0.11049619317054749,-0.1341574490070343,0.08853741735219955,5,11,-949,111,-132,88,-29,-37,-96,1500.0
19:15:44.241,AUTO,-35.3632638,149.1652348,48696,-0.007666365709155798,-0.02332201413810253,0.2876896560192108,0.11049619317054749,-0.1341574490070343,0.08853741735219955,5,11,-949,111,-132,88,-29,-37,-96,1500.0
19:15:44.443,AUTO,-35.3632638,149.1652348,48696,-0.007666365709155798,-0.02332201413810253,0.2876896560192108,0.11049619317054749,-0.1341574490070343,0.08853741735219955,5,11,-949,111,-132,88,-29,-37,-96,1500.0
19:15:44.645,AUTO,-35.3632638,149.1652348,48696,-0.007666365709155798,-0.02332201413810253,0.2876896560192108,0.11049619317054749,-0.1341574490070343,0.08853741735219955,5,11,-949,111,-132,88,-29,-37,-96,1500.0
19:15:44.847,AUTO,-35.3632638,149.1652348,48696,-0.007666365709155798,-0.02332201413810253,0.2876896560192108,0.11049619317054749,-0.1341574490070343,0.08853741735219955,5,11,-949,111,-132,88,-29,-37,-96,1500.0
19:15:45.053,AUTO,-35.3632638,149.1652348,48696,-0.007666365709155798,-0.02332201413810253,0.2876896560192108,0.11049619317054749,-0.1341574490070343,0.08853741735219955,5,11,-949,111,-132,88,-29,-37,-96,1500.0
19:15:45.261,AUTO,-35.3632642,149.1652329,49733,0.034796081483364105,-0.02327229268848896,0.26767048239707947,0.1738293617963791,0.04691501706838608,-0.03266849368810654,-3,4,-979,175,48,-32,18,21,-45,1500.0
19:15:45.464,AUTO,-35.3632642,149.1652329,49733,0.034796081483364105,-0.02327229268848896,0.26767048239707947,0.1738293617963791,0.04691501706838608,-0.03266849368810654,-3,4,-979,175,48,-32,18,21,-45,1500.0
19:15:45.666,AUTO,-35.3632642,149.1652329,49733,0.034796081483364105,-0.02327229268848896,0.26767048239707947,0.1738293617963791,0.04691501706838608,-0.03266849368810654,-3,4,-979,175,48,-32,18,21,-45,1500.0
19:15:45.875,AUTO,-35.3632642,149.1652329,49733,0.034796081483364105,-0.02327229268848896,0.26767048239707947,0.1738293617963791,0.04691501706838608,-0.03266849368810654,-3,4,-979,175,48,-32,18,21,-45,1500.0
19:15:46.078,AUTO,-35.3632642,149.1652329,49733,0.034796081483364105,-0.02327229268848896,0.26767048239707947,0.1738293617963791,0.04691501706838608,-0.03266849368810654,-3,4,-979,175,48,-32,18,21,-45,1500.0
19:15:46.280,AUTO,-35.3632642,149.1652329,49733,0.034796081483364105,-0.02327229268848896,0.26767048239707947,0.1738293617963791,0.04691501706838608,-0.03266849368810654,-3,4,-979,175,48,-32,18,21,-45,1500.0
19:15:46.481,AUTO,-35.3632642,149.1652329,49733,0.034796081483364105,-0.02327229268848896,0.26767048239707947,0.1738293617963791,0.04691501706838608,-0.03266849368810654,-3,4,-979,175,48,-32,18,21,-45,1500.0
19:15:46.683,AUTO,-35.3632642,149.1652329,49733,0.034796081483364105,-0.02327229268848896,0.26767048239707947,0.1738293617963791,0.04691501706838608,-0.03266849368810654,-3,4,-979,175,48,-32,18,21,-45,1500.0
19:15:46.884,AUTO,-35.3632628,149.165235,50006,0.0064000096172094345,0.004330821800976992,0.2410564422607422,-0.3471463620662689,0.02543078176677227,-0.028360646218061447,-3,4,-979,175,48,-32,20,31,-27,1500.0
19:15:47.086,AUTO,-35.3632611,149.1652381,50173,-0.024340685456991196,0.03408801183104515,0.19785241782665253,-0.9572388529777527,0.09295310080051422,0.011075122281908989,2,-40,-939,-959,93,11,5,16,6,1500.0
19:15:47.287,AUTO,-35.3632611,149.1652381,50173,-0.024340685456991196,0.03408801183104515,0.19785241782665253,-0.9572388529777527,0.09295310080051422,0.011075122281908989,2,-40,-939,-959,93,11,5,16,6,1500.0
19:15:47.489,AUTO,-35.3632611,149.1652381,50173,-0.024340685456991196,0.03408801183104515,0.19785241782665253,-0.9572388529777527,0.09295310080051422,0.011075122281908989,2,-40,-939,-959,93,11,5,16,6,1500.0
19:15:47.692,AUTO,-35.3632611,149.1652381,50173,-0.024340685456991196,0.03408801183104515,0.19785241782665253,-0.9572388529777527,0.09295310080051422,0.011075122281908989,2,-40,-939,-959,93,11,5,16,6,1500.0
19:15:47.894,AUTO,-35.3632611,149.1652381,50173,-0.024340685456991196,0.03408801183104515,0.19785241782665253,-0.9572388529777527,0.09295310080051422,0.011075122281908989,2,-40,-939,-959,93,11,5,16,6,1500.0
19:15:48.096,AUTO,-35.3632611,149.1652381,50173,-0.024340685456991196,0.03408801183104515,0.19785241782665253,-0.9572388529777527,0.09295310080051422,0.011075122281908989,2,-40,-939,-959,93,11,5,16,6,1500.0
19:15:48.298,AUTO,-35.3632611,149.1652381,50173,-0.024340685456991196,0.03408801183104515,0.19785241782665253,-0.9572388529777527,0.09295310080051422,0.011075122281908989,2,-40,-939,-959,93,11,5,16,6,1500.0
19:15:48.501,AUTO,-35.3632611,149.1652381,50173,-0.024340685456991196,0.03408801183104515,0.19785241782665253,-0.9572388529777527,0.09295310080051422,0.011075122281908989,2,-40,-939,-959,93,11,5,16,6,1500.0
19:15:48.703,AUTO,-35.3632605,149.165237,49994,0.005444270092993975,-0.05161098390817642,0.17769074440002441,-0.028650134801864624,-0.04297813028097153,-0.011997361667454243,-3,11,-1003,573,-40,-16,21,-5,3,1500.0
19:15:48.905,AUTO,-35.3632605,149.165237,49994,0.005444270092993975,-0.05161098390817642,0.17769074440002441,-0.028650134801864624,-0.04297813028097153,-0.011997361667454243,-7,-18,-1003,-31,-42,-11,21,-5,3,1500.0
19:15:49.115,AUTO,-35.3632605,149.165237,49994,0.005444270092993975,-0.05161098390817642,0.17769074440002441,-0.028650134801864624,-0.04297813028097153,-0.011997361667454243,-7,-18,-1003,-31,-42,-11,21,-5,3,1500.0
19:15:49.334,AUTO,-35.3632605,149.165237,49994,0.005444270092993975,-0.05161098390817642,0.17769074440002441,-0.028650134801864624,-0.04297813028097153,-0.011997361667454243,-7,-18,-1003,-31,-42,-11,21,-5,3,1500.0
19:15:49.601,AUTO,-35.3632605,149.165237,49994,0.005444270092993975,-0.05161098390817642,0.17769074440002441,-0.028650134801864624,-0.04297813028097153,-0.011997361667454243,-7,-18,-1003,-31,-42,-11,21,-5,3,1500.0
19:15:49.857,AUTO,-35.3632605,149.165237,49994,0.005444270092993975,-0.05161098390817642,0.17769074440002441,-0.028650134801864624,-0.04297813028097153,-0.011997361667454243,-7,-18,-1003,-31,-42,-11,21,-5,3,1500.0
19:15:50.098,AUTO,-35.3632605,149.165237,49994,0.005444270092993975,-0.05161098390817642,0.17769074440002441,-0.028650134801864624,-0.04297813028097153,-0.011997361667454243,-7,-18,-1003,-31,-42,-11,21,-5,3,1500.0
19:15:50.300,AUTO,-35.3632605,149.165237,49994,0.005444270092993975,-0.05161098390817642,0.17769074440002441,-0.028650134801864624,-0.04297813028097153,-0.011997361667454243,-7,-18,-1003,-31,-42,-11,21,-5,3,1500.0
19:15:50.502,AUTO,-35.3632465,149.1652328,49947,0.02235715277493,-0.13992458581924438,0.04671387001872063,-0.24242353439331055,-0.0035130984615534544,0.028924137353897095,-37,-32,-1019,-244,-2,29,167,-4,-2,1500.0
19:15:50.703,AUTO,-35.3632426,149.1652322,49946,0.01893836073577404,-0.13246266543865204,0.045908283442258835,-0.5137438774108887,0.03136643394827843,0.029478587210178375,-38,-36,-1007,-512,32,30,191,-5,-2,1500.0
19:15:50.906,AUTO,-35.3632426,149.1652322,49946,0.01893836073577404,-0.13246266543865204,0.045908283442258835,-0.5137438774108887,0.03136643394827843,0.029478587210178375,-38,-36,-1007,-512,32,30,191,-5,-2,1500.0
19:15:51.110,AUTO,-35.3632426,149.1652322,49946,0.01893836073577404,-0.13246266543865204,0.045908283442258835,-0.5137438774108887,0.03136643394827843,0.029478587210178375,-38,-36,-1007,-512,32,30,191,-5,-2,1500.0
19:15:51.314,AUTO,-35.3632426,149.1652322,49946,0.01893836073577404,-0.13246266543865204,0.045908283442258835,-0.5137438774108887,0.03136643394827843,0.029478587210178375,-38,-36,-1007,-512,32,30,191,-5,-2,1500.0
19:15:51.516,AUTO,-35.3632426,149.1652322,49946,0.01893836073577404,-0.13246266543865204,0.045908283442258835,-0.5137438774108887,0.03136643394827843,0.029478587210178375,-38,-36,-1007,-512,32,30,191,-5,-2,1500.0
19:15:51.718,AUTO,-35.3632426,149.1652322,49946,0.01893836073577404,-0.13246266543865204,0.045908283442258835,-0.5137438774108887,0.03136643394827843,0.029478587210178375,-38,-36,-1007,-512,32,30,191,-5,-2,1500.0
19:15:51.920,AUTO,-35.3632426,149.1652322,49946,0.01893836073577404,-0.13246266543865204,0.045908283442258835,-0.5137438774108887,0.03136643394827843,0.029478587210178375,-38,-36,-1007,-512,32,30,191,-5,-2,1500.0
19:15:52.123,AUTO,-35.3632426,149.1652322,49946,0.01893836073577404,-0.13246266543865204,0.045908283442258835,-0.5137438774108887,0.03136643394827843,0.029478587210178375,-38,-36,-1007,-512,32,30,191,-5,-2,1500.0
19:15:52.326,AUTO,-35.3632081,149.165229,49955,0.02142246998846531,-0.15658238530158997,0.03857927769422531,0.36268433928489685,-0.17410355806350708,-0.03222864121198654,-60,-27,-994,-191,-113,-41,312,-11,0,1500.0
19:15:52.527,AUTO,-35.3632008,149.1652285,49945,0.01803838275372982,-0.205653116106987,0.037168100476264954,0.2871257960796356,-0.2064484804868698,-0.0018120300956070423,-66,-28,-995,287,-205,0,340,-16,3,1500.0
19:15:52.729,AUTO,-35.3631928,149.165228,49930,0.011675629764795303,-0.2157689779996872,0.03586709126830101,-0.18843477964401245,0.08987496793270111,-0.012118545360863209,-72,-55,-1008,-188,91,-11,374,-21,5,1500.0
19:15:52.933,AUTO,-35.3631928,149.165228,49930,0.011675629764795303,-0.2157689779996872,0.03586709126830101,-0.18843477964401245,0.08987496793270111,-0.012118545360863209,-72,-55,-1008,-188,91,-11,374,-21,5,1500.0
19:15:53.136,AUTO,-35.3631928,149.165228,49930,0.011675629764795303,-0.2157689779996872,0.03586709126830101,-0.18843477964401245,0.08987496793270111,-0.012118545360863209,-72,-55,-1008,-188,91,-11,374,-21,5,1500.0
19:15:53.338,AUTO,-35.3631928,149.165228,49930,0.011675629764795303,-0.2157689779996872,0.03586709126830101,-0.18843477964401245,0.08987496793270111,-0.012118545360863209,-72,-55,-1008,-188,91,-11,374,-21,5,1500.0
19:15:53.540,AUTO,-35.3631928,149.165228,49930,0.011675629764795303,-0.2157689779996872,0.03586709126830101,-0.18843477964401245,0.08987496793270111,-0.012118545360863209,-72,-55,-1008,-188,91,-11,374,-21,5,1500.0
19:15:53.741,AUTO,-35.3631928,149.165228,49930,0.011675629764795303,-0.2157689779996872,0.03586709126830101,-0.18843477964401245,0.08987496793270111,-0.012118545360863209,-72,-55,-1008,-188,91,-11,374,-21,5,1500.0
19:15:53.944,AUTO,-35.3631928,149.165228,49930,0.011675629764795303,-0.2157689779996872,0.03586709126830101,-0.18843477964401245,0.08987496793270111,-0.012118545360863209,-72,-55,-1008,-188,91,-11,374,-21,5,1500.0
19:15:54.147,AUTO,-35.3631928,149.165228,49930,0.011675629764795303,-0.2157689779996872,0.03586709126830101,-0.18843477964401245,0.08987496793270111,-0.012118545360863209,-72,-55,-1008,-188,91,-11,374,-21,5,1500.0
19:15:54.361,AUTO,-35.3631606,149.1652254,49971,0.03821229562163353,-0.08560967445373535,0.02726062387228012,0.2148350030183792,-0.19496144354343414,0.04250481724739075,-90,-40,-970,213,-194,43,411,-33,-11,1500.0
19:15:54.569,AUTO,-35.3631315,149.1652227,49938,0.014909517019987106,-0.2768406867980957,0.021090244874358177,0.10829891264438629,-0.21698305010795593,-0.04120863974094391,-97,-28,-972,110,-215,-40,474,-43,16,1500.0
19:15:54.779,AUTO,-35.3631204,149.1652216,49891,0.019174830988049507,-0.26603978872299194,0.018227005377411842,0.07663527131080627,0.24512924253940582,-0.019287457689642906,-111,-32,-1044,78,246,-18,518,-48,15,1500.0
19:15:55.036,AUTO,-35.3631204,149.1652216,49891,0.019174830988049507,-0.26603978872299194,0.018227005377411842,0.07663527131080627,0.24512924253940582,-0.019287457689642906,-111,-32,-1044,78,246,-18,518,-48,15,1500.0
19:15:55.257,AUTO,-35.3631204,149.1652216,49891,0.019174830988049507,-0.26603978872299194,0.018227005377411842,0.07663527131080627,0.24512924253940582,-0.019287457689642906,-111,-32,-1044,78,246,-18,518,-48,15,1500.0
