time_stamp,MODE,lat,lon,relative_alt,roll,pitch,yaw,rollspeed,pitchspeed,yawspeed,xacc,yacc,zacc,xgyro,ygyro,zgyro,vx,vy,vz,RTL_ALT,LAND_SPEED
16:27:29.241,GUIDED,-35.3632621,149.1652374,0,-0.00018151765107177198,0.0015350069152191281,0.02794429287314415,0.00036324834218248725,0.0003488387446850538,0.0023442290257662535,0,1,-1000,0,0,0,-1,1,2,1500.0,50.0
16:27:29.442,GUIDED,-35.3632621,149.1652374,0,-0.00021121361351106316,0.0015593689167872071,0.027762113139033318,0.0003029530344065279,0.00030215748120099306,0.0022616060450673103,0,1,-1000,0,0,0,-1,1,1,1500.0,50.0
16:27:29.644,GUIDED,-35.3632621,149.1652374,0,-0.00021121361351106316,0.0015593689167872071,0.027762113139033318,0.0003029530344065279,0.00030215748120099306,0.0022616060450673103,0,1,-1000,0,0,0,-1,1,1,1500.0,50.0
16:27:29.845,GUIDED,-35.3632621,149.1652374,0,-0.00021121361351106316,0.0015593689167872071,0.027762113139033318,0.0003029530344065279,0.00030215748120099306,0.0022616060450673103,0,1,-1000,0,0,0,-1,1,1,1500.0,50.0
16:27:30.046,GUIDED,-35.3632621,149.1652374,0,-0.00021121361351106316,0.0015593689167872071,0.027762113139033318,0.0003029530344065279,0.00030215748120099306,0.0022616060450673103,0,1,-1000,0,0,0,-1,1,1,1500.0,50.0
16:27:30.250,GUIDED,-35.3632621,149.1652374,0,-0.00021121361351106316,0.0015593689167872071,0.027762113139033318,0.0003029530344065279,0.00030215748120099306,0.0022616060450673103,0,1,-1000,0,0,0,-1,1,1,1500.0,50.0
16:27:30.452,GUIDED,-35.3632621,149.1652374,0,-0.00021121361351106316,0.0015593689167872071,0.027762113139033318,0.0003029530344065279,0.00030215748120099306,0.0022616060450673103,0,1,-1000,0,0,0,-1,1,1,1500.0,50.0
16:27:30.656,GUIDED,-35.3632621,149.1652374,0,-0.00021121361351106316,0.0015593689167872071,0.027762113139033318,0.0003029530344065279,0.00030215748120099306,0.0022616060450673103,0,1,-1000,0,0,0,-1,1,1,1500.0,50.0
16:27:30.858,GUIDED,-35.3632621,149.1652374,0,-0.00021121361351106316,0.0015593689167872071,0.027762113139033318,0.0003029530344065279,0.00030215748120099306,0.0022616060450673103,0,1,-1000,0,0,0,-1,1,1,1500.0,50.0
16:27:31.059,GUIDED,-35.3632621,149.1652375,0,-0.0003441362641751766,0.0015732499305158854,0.027249787002801895,0.00022153856116347015,0.00028535397723317146,0.002439723117277026,0,1,-1000,0,0,0,-1,1,1,1500.0,50.0
16:27:31.261,GUIDED,-35.3632622,149.1652375,0,-0.0006313412450253963,0.0014322677161544561,0.02664908394217491,0.0001872772118076682,0.0003208665002603084,0.0022084959782660007,0,2,-1000,0,0,0,-2,1,0,1500.0,50.0
16:27:31.463,GUIDED,-35.3632622,149.1652375,8,-0.00071359658613801,0.0013775423867627978,0.026514612138271332,0.000190161750651896,0.0002737725153565407,0.00224057724699378,0,1,-1000,0,0,0,-2,1,0,1500.0,50.0
16:27:31.665,GUIDED,-35.3632622,149.1652375,8,-0.00071359658613801,0.0013775423867627978,0.026514612138271332,0.000190161750651896,0.0002737725153565407,0.00224057724699378,0,1,-1000,0,0,0,-2,1,0,1500.0,50.0
16:27:31.874,GUIDED,-35.3632622,149.1652375,8,-0.00071359658613801,0.0013775423867627978,0.026514612138271332,0.000190161750651896,0.0002737725153565407,0.00224057724699378,0,1,-1000,0,0,0,-2,1,0,1500.0,50.0
16:27:32.077,GUIDED,-35.3632622,149.1652375,8,-0.00071359658613801,0.0013775423867627978,0.026514612138271332,0.000190161750651896,0.0002737725153565407,0.00224057724699378,0,1,-1000,0,0,0,-2,1,0,1500.0,50.0
16:27:32.279,GUIDED,-35.3632622,149.1652375,8,-0.00071359658613801,0.0013775423867627978,0.026514612138271332,0.000190161750651896,0.0002737725153565407,0.00224057724699378,0,1,-1000,0,0,0,-2,1,0,1500.0,50.0
16:27:32.481,GUIDED,-35.3632622,149.1652375,8,-0.00071359658613801,0.0013775423867627978,0.026514612138271332,0.000190161750651896,0.0002737725153565407,0.00224057724699378,0,1,-1000,0,0,0,-2,1,0,1500.0,50.0
16:27:32.682,GUIDED,-35.3632622,149.1652375,8,-0.00071359658613801,0.0013775423867627978,0.026514612138271332,0.000190161750651896,0.0002737725153565407,0.00224057724699378,0,1,-1000,0,0,0,-2,1,0,1500.0,50.0
16:27:32.884,GUIDED,-35.3632622,149.1652375,8,-0.00071359658613801,0.0013775423867627978,0.026514612138271332,0.000190161750651896,0.0002737725153565407,0.00224057724699378,0,1,-1000,0,0,0,-2,1,0,1500.0,50.0
16:27:33.086,GUIDED,-35.3632622,149.1652375,5,-0.0007279344135895371,0.0012657558545470238,0.0261338260024786,0.0001564786653034389,0.00019361646263860166,0.0021756053902208805,0,1,-1000,0,0,0,-1,1,0,1500.0,50.0
16:27:33.288,GUIDED,-35.3632622,149.1652375,6,-0.0007241398561745882,0.001405596500262618,0.02562977746129036,0.00027210317784920335,0.0003097346343565732,0.0019034871365875006,0,1,-1000,0,0,0,0,0,0,1500.0,50.0
16:27:33.489,GUIDED,-35.3632622,149.1652375,6,-0.0006970044341869652,0.0014747877139598131,0.02550557814538479,0.00016370625235140324,0.0002900955732911825,0.002055672463029623,0,2,-1000,0,0,1,0,0,0,1500.0,50.0
16:27:33.691,GUIDED,-35.3632622,149.1652375,6,-0.0006970044341869652,0.0014747877139598131,0.02550557814538479,0.00016370625235140324,0.0002900955732911825,0.002055672463029623,0,2,-1000,0,0,1,0,0,0,1500.0,50.0
16:27:33.894,GUIDED,-35.3632622,149.1652375,6,-0.0006970044341869652,0.0014747877139598131,0.02550557814538479,0.00016370625235140324,0.0002900955732911825,0.002055672463029623,0,2,-1000,0,0,1,0,0,0,1500.0,50.0
16:27:34.099,GUIDED,-35.3632622,149.1652375,6,-0.0006970044341869652,0.0014747877139598131,0.02550557814538479,0.00016370625235140324,0.0002900955732911825,0.002055672463029623,0,2,-1000,0,0,1,0,0,0,1500.0,50.0
16:27:34.301,GUIDED,-35.3632622,149.1652375,6,-0.0006970044341869652,0.0014747877139598131,0.02550557814538479,0.00016370625235140324,0.0002900955732911825,0.002055672463029623,0,2,-1000,0,0,1,0,0,0,1500.0,50.0
16:27:34.503,GUIDED,-35.3632622,149.1652375,6,-0.0006970044341869652,0.0014747877139598131,0.02550557814538479,0.00016370625235140324,0.0002900955732911825,0.002055672463029623,0,2,-1000,0,0,1,0,0,0,1500.0,50.0
16:27:34.706,GUIDED,-35.3632622,149.1652375,6,-0.0006970044341869652,0.0014747877139598131,0.02550557814538479,0.00016370625235140324,0.0002900955732911825,0.002055672463029623,0,2,-1000,0,0,1,0,0,0,1500.0,50.0
16:27:34.909,GUIDED,-35.3632622,149.1652375,6,-0.0006970044341869652,0.0014747877139598131,0.02550557814538479,0.00016370625235140324,0.0002900955732911825,0.002055672463029623,0,2,-1000,0,0,1,0,0,0,1500.0,50.0
16:27:35.111,GUIDED,-35.3632622,149.1652374,8,-0.0005440553068183362,0.0017575322417542338,0.02500302717089653,0.0003114105202257633,0.0002798362111207098,0.0018935982370749116,0,2,-1000,0,0,0,0,0,0,1500.0,50.0
16:27:35.314,GUIDED,-35.3632622,149.1652374,10,-0.00012891861842945218,0.0019457762828096747,0.024606501683592796,0.009869235567748547,-0.0006628816481679678,0.002510400488972664,0,1,-1012,10,0,1,0,0,-1,1500.0,50.0
16:27:35.516,GUIDED,-35.3632622,149.1652374,47,0.0037885159254074097,-0.0003381918359082192,0.02482437714934349,0.018832646310329437,-0.004909522831439972,0.0031281306874006987,0,0,-1139,19,-4,1,0,0,-31,1500.0,50.0
16:27:35.717,GUIDED,-35.3632622,149.1652374,47,0.0037885159254074097,-0.0003381918359082192,0.02482437714934349,0.018832646310329437,-0.004909522831439972,0.0031281306874006987,0,0,-1139,19,-4,1,0,0,-31,1500.0,50.0
16:27:35.919,GUIDED,-35.3632622,149.1652374,47,0.0037885159254074097,-0.0003381918359082192,0.02482437714934349,0.018832646310329437,-0.004909522831439972,0.0031281306874006987,0,0,-1139,19,-4,1,0,0,-31,1500.0,50.0
16:27:36.120,GUIDED,-35.3632622,149.1652374,47,0.0037885159254074097,-0.0003381918359082192,0.02482437714934349,0.018832646310329437,-0.004909522831439972,0.0031281306874006987,0,0,-1139,19,-4,1,0,0,-31,1500.0,50.0
16:27:36.322,GUIDED,-35.3632622,149.1652374,47,0.0037885159254074097,-0.0003381918359082192,0.02482437714934349,0.018832646310329437,-0.004909522831439972,0.0031281306874006987,0,0,-1139,19,-4,1,0,0,-31,1500.0,50.0
16:27:36.524,GUIDED,-35.3632622,149.1652374,47,0.0037885159254074097,-0.0003381918359082192,0.02482437714934349,0.018832646310329437,-0.004909522831439972,0.0031281306874006987,0,0,-1139,19,-4,1,0,0,-31,1500.0,50.0
16:27:36.725,GUIDED,-35.3632622,149.1652374,47,0.0037885159254074097,-0.0003381918359082192,0.02482437714934349,0.018832646310329437,-0.004909522831439972,0.0031281306874006987,0,0,-1139,19,-4,1,0,0,-31,1500.0,50.0
16:27:36.928,GUIDED,-35.3632622,149.1652374,47,0.0037885159254074097,-0.0003381918359082192,0.02482437714934349,0.018832646310329437,-0.004909522831439972,0.0031281306874006987,0,0,-1139,19,-4,1,0,0,-31,1500.0,50.0
16:27:37.133,GUIDED,-35.3632622,149.1652374,47,0.0037885159254074097,-0.0003381918359082192,0.02482437714934349,0.018832646310329437,-0.004909522831439972,0.0031281306874006987,0,0,-1139,19,-4,1,0,0,-31,1500.0,50.0
16:27:37.334,GUIDED,-35.363262,149.1652376,1704,0.03053227625787258,-0.0020876561757177114,0.024252550676465034,0.045504193753004074,-0.007652587257325649,0.0031629218719899654,0,0,-1022,47,-6,1,1,9,-148,1500.0,50.0
16:27:37.536,GUIDED,-35.3632618,149.1652386,2483,0.05212026834487915,-0.00677957059815526,0.024623945355415344,0.04006562381982803,-0.01046075765043497,0.0044018873013556,1,-4,-1000,40,-9,3,4,27,-149,1500.0,50.0
16:27:37.742,GUIDED,-35.3632618,149.1652386,2483,0.05212026834487915,-0.00677957059815526,0.024623945355415344,0.04006562381982803,-0.01046075765043497,0.0044018873013556,1,-4,-1000,40,-9,3,4,27,-149,1500.0,50.0
16:27:37.945,GUIDED,-35.3632618,149.1652386,2483,0.05212026834487915,-0.00677957059815526,0.024623945355415344,0.04006562381982803,-0.01046075765043497,0.0044018873013556,1,-4,-1000,40,-9,3,4,27,-149,1500.0,50.0
16:27:38.147,GUIDED,-35.3632618,149.1652386,2483,0.05212026834487915,-0.00677957059815526,0.024623945355415344,0.04006562381982803,-0.01046075765043497,0.0044018873013556,1,-4,-1000,40,-9,3,4,27,-149,1500.0,50.0
16:27:38.349,GUIDED,-35.3632618,149.1652386,2483,0.05212026834487915,-0.00677957059815526,0.024623945355415344,0.04006562381982803,-0.01046075765043497,0.0044018873013556,1,-4,-1000,40,-9,3,4,27,-149,1500.0,50.0
16:27:38.552,GUIDED,-35.3632618,149.1652386,2483,0.05212026834487915,-0.00677957059815526,0.024623945355415344,0.04006562381982803,-0.01046075765043497,0.0044018873013556,1,-4,-1000,40,-9,3,4,27,-149,1500.0,50.0
16:27:38.758,GUIDED,-35.3632618,149.1652386,2483,0.05212026834487915,-0.00677957059815526,0.024623945355415344,0.04006562381982803,-0.01046075765043497,0.0044018873013556,1,-4,-1000,40,-9,3,4,27,-149,1500.0,50.0
16:27:38.960,GUIDED,-35.3632618,149.1652386,2483,0.05212026834487915,-0.00677957059815526,0.024623945355415344,0.04006562381982803,-0.01046075765043497,0.0044018873013556,1,-4,-1000,40,-9,3,4,27,-149,1500.0,50.0
16:27:39.163,GUIDED,-35.3632609,149.1652447,4391,-0.03263067454099655,0.020785408094525337,-0.07625330984592438,-0.02334517613053322,-0.011654403060674667,-0.055143143981695175,4,-9,-1008,-22,-11,-56,0,39,-150,1500.0,50.0
16:27:39.365,GUIDED,-35.3632609,149.1652462,5165,-0.056245505809783936,0.004801637958735228,-0.08771663904190063,-0.07625534385442734,-0.05031944066286087,0.0035129976458847523,4,-4,-998,-75,-49,2,-5,14,-150,1500.0,50.0
16:27:39.567,GUIDED,-35.363261,149.1652464,5550,-0.07490509748458862,-0.00823430996388197,-0.08411245793104172,-0.049551066011190414,-0.04099177569150925,0.00412531616166234,2,0,-1003,-49,-40,2,-5,-2,-150,1500.0,50.0
16:27:39.771,GUIDED,-35.363261,149.1652464,5550,-0.07490509748458862,-0.00823430996388197,-0.08411245793104172,-0.049551066011190414,-0.04099177569150925,0.00412531616166234,2,0,-1003,-49,-40,2,-5,-2,-150,1500.0,50.0
16:27:39.973,GUIDED,-35.363261,149.1652464,5550,-0.07490509748458862,-0.00823430996388197,-0.08411245793104172,-0.049551066011190414,-0.04099177569150925,0.00412531616166234,2,0,-1003,-49,-40,2,-5,-2,-150,1500.0,50.0
16:27:40.175,GUIDED,-35.363261,149.1652464,5550,-0.07490509748458862,-0.00823430996388197,-0.08411245793104172,-0.049551066011190414,-0.04099177569150925,0.00412531616166234,2,0,-1003,-49,-40,2,-5,-2,-150,1500.0,50.0
16:27:40.376,GUIDED,-35.363261,149.1652464,5550,-0.07490509748458862,-0.00823430996388197,-0.08411245793104172,-0.049551066011190414,-0.04099177569150925,0.00412531616166234,2,0,-1003,-49,-40,2,-5,-2,-150,1500.0,50.0
16:27:40.578,GUIDED,-35.363261,149.1652464,5550,-0.07490509748458862,-0.00823430996388197,-0.08411245793104172,-0.049551066011190414,-0.04099177569150925,0.00412531616166234,2,0,-1003,-49,-40,2,-5,-2,-150,1500.0,50.0
16:27:40.781,GUIDED,-35.363261,149.1652464,5550,-0.07490509748458862,-0.00823430996388197,-0.08411245793104172,-0.049551066011190414,-0.04099177569150925,0.00412531616166234,2,0,-1003,-49,-40,2,-5,-2,-150,1500.0,50.0
16:27:40.983,GUIDED,-35.363261,149.1652464,5550,-0.07490509748458862,-0.00823430996388197,-0.08411245793104172,-0.049551066011190414,-0.04099177569150925,0.00412531616166234,2,0,-1003,-49,-40,2,-5,-2,-150,1500.0,50.0
16:27:41.185,GUIDED,-35.3632613,149.1652401,7705,0.010737293399870396,0.0006195484311319888,-0.0880785807967186,0.06560246646404266,0.01536775566637516,0.004113250877708197,-7,9,-1003,65,15,2,0,-60,-151,1500.0,50.0
16:27:41.390,GUIDED,-35.3632614,149.1652369,8486,0.02706163376569748,0.004309014417231083,-0.08717308193445206,0.06540484726428986,0.014047481119632721,0.004334758035838604,-7,12,-1004,65,14,3,-3,-51,-153,1500.0,50.0
16:27:41.592,GUIDED,-35.3632614,149.1652369,8486,0.02706163376569748,0.004309014417231083,-0.08717308193445206,0.06540484726428986,0.014047481119632721,0.004334758035838604,-7,12,-1004,65,14,3,-3,-51,-153,1500.0,50.0
16:27:41.797,GUIDED,-35.3632614,149.1652369,8486,0.02706163376569748,0.004309014417231083,-0.08717308193445206,0.06540484726428986,0.014047481119632721,0.004334758035838604,-7,12,-1004,65,14,3,-3,-51,-153,1500.0,50.0
16:27:41.999,GUIDED,-35.3632614,149.1652369,8486,0.02706163376569748,0.004309014417231083,-0.08717308193445206,0.06540484726428986,0.014047481119632721,0.004334758035838604,-7,12,-1004,65,14,3,-3,-51,-153,1500.0,50.0
16:27:42.202,GUIDED,-35.3632614,149.1652369,8486,0.02706163376569748,0.004309014417231083,-0.08717308193445206,0.06540484726428986,0.014047481119632721,0.004334758035838604,-7,12,-1004,65,14,3,-3,-51,-153,1500.0,50.0
16:27:42.405,GUIDED,-35.3632614,149.1652369,8486,0.02706163376569748,0.004309014417231083,-0.08717308193445206,0.06540484726428986,0.014047481119632721,0.004334758035838604,-7,12,-1004,65,14,3,-3,-51,-153,1500.0,50.0
16:27:42.607,GUIDED,-35.3632614,149.1652369,8486,0.02706163376569748,0.004309014417231083,-0.08717308193445206,0.06540484726428986,0.014047481119632721,0.004334758035838604,-7,12,-1004,65,14,3,-3,-51,-153,1500.0,50.0
16:27:42.809,GUIDED,-35.3632614,149.1652369,8486,0.02706163376569748,0.004309014417231083,-0.08717308193445206,0.06540484726428986,0.014047481119632721,0.004334758035838604,-7,12,-1004,65,14,3,-3,-51,-153,1500.0,50.0
16:27:43.010,GUIDED,-35.3632614,149.1652369,8486,0.02706163376569748,0.004309014417231083,-0.08717308193445206,0.06540484726428986,0.014047481119632721,0.004334758035838604,-7,12,-1004,65,14,3,-3,-51,-153,1500.0,50.0
16:27:43.213,GUIDED,-35.3632624,149.1652353,11220,-0.0005228454247117043,-0.0026542721316218376,-0.08480461686849594,-0.05838847905397415,-0.009050550870597363,-0.01050848700106144,4,-5,-1003,-57,-8,-11,-4,24,-150,1500.0,50.0
16:27:43.415,GUIDED,-35.3632624,149.1652359,11605,-0.011750370264053345,-0.004233949817717075,-0.08903831988573074,-0.03346030414104462,-0.005111330188810825,-0.018072254955768585,3,-3,-1003,-32,-4,-19,-2,21,-151,1500.0,50.0
16:27:43.616,GUIDED,-35.3632624,149.1652359,11605,-0.011750370264053345,-0.004233949817717075,-0.08903831988573074,-0.03346030414104462,-0.005111330188810825,-0.018072254955768585,3,-3,-1003,-32,-4,-19,-2,21,-151,1500.0,50.0
16:27:43.819,GUIDED,-35.3632624,149.1652359,11605,-0.011750370264053345,-0.004233949817717075,-0.08903831988573074,-0.03346030414104462,-0.005111330188810825,-0.018072254955768585,3,-3,-1003,-32,-4,-19,-2,21,-151,1500.0,50.0
16:27:44.022,GUIDED,-35.3632624,149.1652359,11605,-0.011750370264053345,-0.004233949817717075,-0.08903831988573074,-0.03346030414104462,-0.005111330188810825,-0.018072254955768585,3,-3,-1003,-32,-4,-19,-2,21,-151,1500.0,50.0
16:27:44.226,GUIDED,-35.3632624,149.1652359,11605,-0.011750370264053345,-0.004233949817717075,-0.08903831988573074,-0.03346030414104462,-0.005111330188810825,-0.018072254955768585,3,-3,-1003,-32,-4,-19,-2,21,-151,1500.0,50.0
16:27:44.429,GUIDED,-35.3632624,149.1652359,11605,-0.011750370264053345,-0.004233949817717075,-0.08903831988573074,-0.03346030414104462,-0.005111330188810825,-0.018072254955768585,3,-3,-1003,-32,-4,-19,-2,21,-151,1500.0,50.0
16:27:44.634,GUIDED,-35.3632624,149.1652359,11605,-0.011750370264053345,-0.004233949817717075,-0.08903831988573074,-0.03346030414104462,-0.005111330188810825,-0.018072254955768585,3,-3,-1003,-32,-4,-19,-2,21,-151,1500.0,50.0
16:27:44.835,GUIDED,-35.3632624,149.1652359,11605,-0.011750370264053345,-0.004233949817717075,-0.08903831988573074,-0.03346030414104462,-0.005111330188810825,-0.018072254955768585,3,-3,-1003,-32,-4,-19,-2,21,-151,1500.0,50.0
16:27:45.037,GUIDED,-35.3632624,149.1652359,11605,-0.011750370264053345,-0.004233949817717075,-0.08903831988573074,-0.03346030414104462,-0.005111330188810825,-0.018072254955768585,3,-3,-1003,-32,-4,-19,-2,21,-151,1500.0,50.0
16:27:45.239,GUIDED,-35.3632621,149.1652364,14328,0.0006310180178843439,0.0022542609367519617,-0.13337238132953644,0.017824968323111534,0.0075513082556426525,-0.021487504243850708,-2,0,-1000,18,8,-22,3,-7,-153,1500.0,50.0
16:27:45.441,GUIDED,-35.363262,149.1652362,14727,0.004549943841993809,0.0038492593448609114,-0.1386723667383194,0.013797106221318245,0.00630975654348731,-0.019916946068406105,-2,0,-999,14,6,-21,3,-6,-153,1500.0,50.0
16:27:45.642,GUIDED,-35.363262,149.1652362,14727,0.004549943841993809,0.0038492593448609114,-0.1386723667383194,0.013797106221318245,0.00630975654348731,-0.019916946068406105,-2,0,-999,14,6,-21,3,-6,-153,1500.0,50.0
16:27:45.846,GUIDED,-35.363262,149.1652362,14727,0.004549943841993809,0.0038492593448609114,-0.1386723667383194,0.013797106221318245,0.00630975654348731,-0.019916946068406105,-2,0,-999,14,6,-21,3,-6,-153,1500.0,50.0
16:27:46.047,GUIDED,-35.363262,149.1652362,14727,0.004549943841993809,0.0038492593448609114,-0.1386723667383194,0.013797106221318245,0.00630975654348731,-0.019916946068406105,-2,0,-999,14,6,-21,3,-6,-153,1500.0,50.0
16:27:46.251,GUIDED,-35.363262,149.1652362,14727,0.004549943841993809,0.0038492593448609114,-0.1386723667383194,0.013797106221318245,0.00630975654348731,-0.019916946068406105,-2,0,-999,14,6,-21,3,-6,-153,1500.0,50.0
16:27:46.454,GUIDED,-35.363262,149.1652362,14727,0.004549943841993809,0.0038492593448609114,-0.1386723667383194,0.013797106221318245,0.00630975654348731,-0.019916946068406105,-2,0,-999,14,6,-21,3,-6,-153,1500.0,50.0
16:27:46.656,GUIDED,-35.363262,149.1652362,14727,0.004549943841993809,0.0038492593448609114,-0.1386723667383194,0.013797106221318245,0.00630975654348731,-0.019916946068406105,-2,0,-999,14,6,-21,3,-6,-153,1500.0,50.0
16:27:46.859,GUIDED,-35.363262,149.1652362,14727,0.004549943841993809,0.0038492593448609114,-0.1386723667383194,0.013797106221318245,0.00630975654348731,-0.019916946068406105,-2,0,-999,14,6,-21,3,-6,-153,1500.0,50.0
16:27:47.062,GUIDED,-35.3632617,149.1652356,15901,0.009734421037137508,0.006652615033090115,-0.15108655393123627,0.0034552235156297684,0.0012318831868469715,-0.012499050237238407,-1,0,-1000,3,1,-13,0,-2,-153,1500.0,50.0
16:27:47.264,GUIDED,-35.3632616,149.1652356,17464,0.007211610674858093,0.006130805239081383,-0.16384242475032806,-0.002585297916084528,-0.0016832983819767833,-0.010030529461801052,0,0,-1000,-2,-1,-10,-2,4,-153,1500.0,50.0
16:27:47.466,GUIDED,-35.3632616,149.1652355,17853,0.006316128186881542,0.005565865430980921,-0.16711744666099548,-0.002983046229928732,-0.0011373660527169704,-0.014005490578711033,0,0,-1000,-2,0,-15,-2,4,-153,1500.0,50.0
16:27:47.667,GUIDED,-35.3632616,149.1652355,17853,0.006316128186881542,0.005565865430980921,-0.16711744666099548,-0.002983046229928732,-0.0011373660527169704,-0.014005490578711033,0,0,-1000,-2,0,-15,-2,4,-153,1500.0,50.0
16:27:47.871,GUIDED,-35.3632616,149.1652355,17853,0.006316128186881542,0.005565865430980921,-0.16711744666099548,-0.002983046229928732,-0.0011373660527169704,-0.014005490578711033,0,0,-1000,-2,0,-15,-2,4,-153,1500.0,50.0
16:27:48.073,GUIDED,-35.3632616,149.1652355,17853,0.006316128186881542,0.005565865430980921,-0.16711744666099548,-0.002983046229928732,-0.0011373660527169704,-0.014005490578711033,0,0,-1000,-2,0,-15,-2,4,-153,1500.0,50.0
16:27:48.275,GUIDED,-35.3632616,149.1652355,17853,0.006316128186881542,0.005565865430980921,-0.16711744666099548,-0.002983046229928732,-0.0011373660527169704,-0.014005490578711033,0,0,-1000,-2,0,-15,-2,4,-153,1500.0,50.0
16:27:48.477,GUIDED,-35.3632616,149.1652355,17853,0.006316128186881542,0.005565865430980921,-0.16711744666099548,-0.002983046229928732,-0.0011373660527169704,-0.014005490578711033,0,0,-1000,-2,0,-15,-2,4,-153,1500.0,50.0
16:27:48.679,GUIDED,-35.3632616,149.1652355,17853,0.006316128186881542,0.005565865430980921,-0.16711744666099548,-0.002983046229928732,-0.0011373660527169704,-0.014005490578711033,0,0,-1000,-2,0,-15,-2,4,-153,1500.0,50.0
16:27:48.881,GUIDED,-35.3632616,149.1652355,17853,0.006316128186881542,0.005565865430980921,-0.16711744666099548,-0.002983046229928732,-0.0011373660527169704,-0.014005490578711033,0,0,-1000,-2,0,-15,-2,4,-153,1500.0,50.0
16:27:49.082,GUIDED,-35.3632616,149.1652358,19025,0.0036471381317824125,0.004205208271741867,-0.17807577550411224,-0.0020926091820001602,0.0001253590453416109,-0.0163811556994915,0,0,-1000,-1,0,-17,-3,5,-153,1500.0,50.0
16:27:49.284,GUIDED,-35.3632617,149.1652361,20587,0.0016952978912740946,0.0036609501112252474,-0.19621272385120392,-0.0027181673794984818,-0.0006489510415121913,-0.018749352544546127,0,0,-999,-2,0,-19,-3,5,-154,1500.0,50.0
16:27:49.485,GUIDED,-35.3632617,149.1652362,20978,0.0017859673826023936,0.0036163823679089546,-0.20115922391414642,0.0014178103301674128,7.043121149763465e-05,-0.019754324108362198,0,0,-1000,1,0,-20,-3,4,-154,1500.0,50.0
16:27:49.687,GUIDED,-35.3632617,149.1652362,20978,0.0017859673826023936,0.0036163823679089546,-0.20115922391414642,0.0014178103301674128,7.043121149763465e-05,-0.019754324108362198,0,0,-1000,1,0,-20,-3,4,-154,1500.0,50.0
16:27:49.892,GUIDED,-35.3632617,149.1652362,20978,0.0017859673826023936,0.0036163823679089546,-0.20115922391414642,0.0014178103301674128,7.043121149763465e-05,-0.019754324108362198,0,0,-1000,1,0,-20,-3,4,-154,1500.0,50.0
16:27:50.093,GUIDED,-35.3632617,149.1652362,20978,0.0017859673826023936,0.0036163823679089546,-0.20115922391414642,0.0014178103301674128,7.043121149763465e-05,-0.019754324108362198,0,0,-1000,1,0,-20,-3,4,-154,1500.0,50.0
16:27:50.294,GUIDED,-35.3632617,149.1652362,20978,0.0017859673826023936,0.0036163823679089546,-0.20115922391414642,0.0014178103301674128,7.043121149763465e-05,-0.019754324108362198,0,0,-1000,1,0,-20,-3,4,-154,1500.0,50.0
16:27:50.496,GUIDED,-35.3632617,149.1652362,20978,0.0017859673826023936,0.0036163823679089546,-0.20115922391414642,0.0014178103301674128,7.043121149763465e-05,-0.019754324108362198,0,0,-1000,1,0,-20,-3,4,-154,1500.0,50.0
16:27:50.698,GUIDED,-35.3632617,149.1652362,20978,0.0017859673826023936,0.0036163823679089546,-0.20115922391414642,0.0014178103301674128,7.043121149763465e-05,-0.019754324108362198,0,0,-1000,1,0,-20,-3,4,-154,1500.0,50.0
16:27:50.901,GUIDED,-35.3632617,149.1652362,20978,0.0017859673826023936,0.0036163823679089546,-0.20115922391414642,0.0014178103301674128,7.043121149763465e-05,-0.019754324108362198,0,0,-1000,1,0,-20,-3,4,-154,1500.0,50.0
16:27:51.104,GUIDED,-35.3632617,149.1652364,22149,0.001866320613771677,0.0032338390592485666,-0.21594713628292084,0.0014075349317863584,-0.0007329073850996792,-0.01860271766781807,0,0,-1000,2,0,-19,-2,4,-154,1500.0,50.0
16:27:51.312,GUIDED,-35.3632618,149.1652366,23716,0.0013113070745021105,0.0028306026943027973,-0.23566555976867676,0.0010223961435258389,0.00034609175054356456,-0.019772114232182503,0,0,-1000,1,1,-20,-2,3,-154,1500.0,50.0
16:27:51.514,GUIDED,-35.3632618,149.1652366,24106,0.0015773153863847256,0.002915250835940242,-0.2406817525625229,0.0025287435855716467,0.00022086064564064145,-0.01979825645685196,0,0,-1000,2,1,-20,-2,2,-154,1500.0,50.0
16:27:51.715,GUIDED,-35.3632618,149.1652366,24106,0.0015773153863847256,0.002915250835940242,-0.2406817525625229,0.0025287435855716467,0.00022086064564064145,-0.01979825645685196,0,0,-1000,2,1,-20,-2,2,-154,1500.0,50.0
16:27:51.916,GUIDED,-35.3632618,149.1652366,24106,0.0015773153863847256,0.002915250835940242,-0.2406817525625229,0.0025287435855716467,0.00022086064564064145,-0.01979825645685196,0,0,-1000,2,1,-20,-2,2,-154,1500.0,50.0
16:27:52.118,GUIDED,-35.3632618,149.1652366,24106,0.0015773153863847256,0.002915250835940242,-0.2406817525625229,0.0025287435855716467,0.00022086064564064145,-0.01979825645685196,0,0,-1000,2,1,-20,-2,2,-154,1500.0,50.0
16:27:52.320,GUIDED,-35.3632618,149.1652366,24106,0.0015773153863847256,0.002915250835940242,-0.2406817525625229,0.0025287435855716467,0.00022086064564064145,-0.01979825645685196,0,0,-1000,2,1,-20,-2,2,-154,1500.0,50.0
16:27:52.523,GUIDED,-35.3632618,149.1652366,24106,0.0015773153863847256,0.002915250835940242,-0.2406817525625229,0.0025287435855716467,0.00022086064564064145,-0.01979825645685196,0,0,-1000,2,1,-20,-2,2,-154,1500.0,50.0
16:27:52.724,GUIDED,-35.3632618,149.1652366,24106,0.0015773153863847256,0.002915250835940242,-0.2406817525625229,0.0025287435855716467,0.00022086064564064145,-0.01979825645685196,0,0,-1000,2,1,-20,-2,2,-154,1500.0,50.0
16:27:52.927,GUIDED,-35.3632618,149.1652366,24106,0.0015773153863847256,0.002915250835940242,-0.2406817525625229,0.0025287435855716467,0.00022086064564064145,-0.01979825645685196,0,0,-1000,2,1,-20,-2,2,-154,1500.0,50.0
16:27:53.129,GUIDED,-35.3632619,149.1652367,25275,-0.006781239528208971,0.003542614635080099,-0.2540772557258606,-0.06995387375354767,0.006753516849130392,-0.004185506142675877,0,0,-996,-69,7,-5,-2,2,-153,1500.0,50.0
16:27:53.331,GUIDED,-35.3632622,149.1652365,26833,0.00995220523327589,0.003172060940414667,-0.23947429656982422,0.014158057980239391,-0.00359756569378078,0.025246508419513702,0,1,-1000,14,-2,24,-5,0,-154,1500.0,50.0
16:27:53.532,GUIDED,-35.3632622,149.1652365,27222,0.011660776101052761,0.002271883189678192,-0.23306164145469666,0.0027892745565623045,-0.0022810588125139475,0.024496503174304962,0,0,-999,3,-1,23,-4,1,-154,1500.0,50.0
16:27:53.734,GUIDED,-35.3632622,149.1652365,27222,0.011660776101052761,0.002271883189678192,-0.23306164145469666,0.0027892745565623045,-0.0022810588125139475,0.024496503174304962,0,0,-999,3,-1,23,-4,1,-154,1500.0,50.0
16:27:53.936,GUIDED,-35.3632622,149.1652365,27222,0.011660776101052761,0.002271883189678192,-0.23306164145469666,0.0027892745565623045,-0.0022810588125139475,0.024496503174304962,0,0,-999,3,-1,23,-4,1,-154,1500.0,50.0
16:27:54.140,GUIDED,-35.3632622,149.1652365,27222,0.011660776101052761,0.002271883189678192,-0.23306164145469666,0.0027892745565623045,-0.0022810588125139475,0.024496503174304962,0,0,-999,3,-1,23,-4,1,-154,1500.0,50.0
16:27:54.345,GUIDED,-35.3632622,149.1652365,27222,0.011660776101052761,0.002271883189678192,-0.23306164145469666,0.0027892745565623045,-0.0022810588125139475,0.024496503174304962,0,0,-999,3,-1,23,-4,1,-154,1500.0,50.0
16:27:54.552,GUIDED,-35.3632622,149.1652365,27222,0.011660776101052761,0.002271883189678192,-0.23306164145469666,0.0027892745565623045,-0.0022810588125139475,0.024496503174304962,0,0,-999,3,-1,23,-4,1,-154,1500.0,50.0
16:27:54.754,GUIDED,-35.3632622,149.1652365,27222,0.011660776101052761,0.002271883189678192,-0.23306164145469666,0.0027892745565623045,-0.0022810588125139475,0.024496503174304962,0,0,-999,3,-1,23,-4,1,-154,1500.0,50.0
16:27:54.957,GUIDED,-35.3632622,149.1652365,27222,0.011660776101052761,0.002271883189678192,-0.23306164145469666,0.0027892745565623045,-0.0022810588125139475,0.024496503174304962,0,0,-999,3,-1,23,-4,1,-154,1500.0,50.0
16:27:55.161,GUIDED,-35.3632622,149.1652365,27222,0.011660776101052761,0.002271883189678192,-0.23306164145469666,0.0027892745565623045,-0.0022810588125139475,0.024496503174304962,0,0,-999,3,-1,23,-4,1,-154,1500.0,50.0
16:27:55.364,GUIDED,-35.3632624,149.1652373,29557,0.002125165890902281,0.0019409304950386286,-0.19876010715961456,-0.00760599784553051,0.0010418007150292397,0.023021172732114792,0,-1,-1000,-5,3,21,0,8,-153,1500.0,50.0
16:27:55.568,GUIDED,-35.3632624,149.1652376,30335,-0.00041217103716917336,0.0019621453247964382,-0.18914081156253815,-0.00287190405651927,-0.0006650780560448766,0.017879411578178406,0,-1,-1001,-1,0,17,0,7,-153,1500.0,50.0
16:27:55.771,GUIDED,-35.3632624,149.1652376,30335,-0.00041217103716917336,0.0019621453247964382,-0.18914081156253815,-0.00287190405651927,-0.0006650780560448766,0.017879411578178406,0,-1,-1001,-1,0,17,0,7,-153,1500.0,50.0
16:27:55.975,GUIDED,-35.3632624,149.1652376,30335,-0.00041217103716917336,0.0019621453247964382,-0.18914081156253815,-0.00287190405651927,-0.0006650780560448766,0.017879411578178406,0,-1,-1001,-1,0,17,0,7,-153,1500.0,50.0
16:27:56.176,GUIDED,-35.3632624,149.1652376,30335,-0.00041217103716917336,0.0019621453247964382,-0.18914081156253815,-0.00287190405651927,-0.0006650780560448766,0.017879411578178406,0,-1,-1001,-1,0,17,0,7,-153,1500.0,50.0
16:27:56.378,GUIDED,-35.3632624,149.1652376,30335,-0.00041217103716917336,0.0019621453247964382,-0.18914081156253815,-0.00287190405651927,-0.0006650780560448766,0.017879411578178406,0,-1,-1001,-1,0,17,0,7,-153,1500.0,50.0
16:27:56.580,GUIDED,-35.3632624,149.1652376,30335,-0.00041217103716917336,0.0019621453247964382,-0.18914081156253815,-0.00287190405651927,-0.0006650780560448766,0.017879411578178406,0,-1,-1001,-1,0,17,0,7,-153,1500.0,50.0
16:27:56.781,GUIDED,-35.3632624,149.1652376,30335,-0.00041217103716917336,0.0019621453247964382,-0.18914081156253815,-0.00287190405651927,-0.0006650780560448766,0.017879411578178406,0,-1,-1001,-1,0,17,0,7,-153,1500.0,50.0
16:27:56.984,GUIDED,-35.3632624,149.1652376,30335,-0.00041217103716917336,0.0019621453247964382,-0.18914081156253815,-0.00287190405651927,-0.0006650780560448766,0.017879411578178406,0,-1,-1001,-1,0,17,0,7,-153,1500.0,50.0
16:27:57.187,GUIDED,-35.3632623,149.165238,32282,-0.0009795738151296973,0.0013704788871109486,-0.1679745763540268,0.0031483371276408434,0.001169735100120306,0.015454943291842937,0,0,-1000,3,2,14,0,2,-153,1500.0,50.0
16:27:57.391,GUIDED,-35.3632623,149.165238,33065,1.7773914805729873e-05,0.0011372785083949566,-0.16048812866210938,0.002786005847156048,-0.0011405351106077433,0.01745687611401081,0,0,-1000,3,0,16,0,1,-153,1500.0,50.0
16:27:57.594,GUIDED,-35.3632623,149.165238,33454,0.0004871701530646533,0.0010488529223948717,-0.15689054131507874,0.004336601123213768,0.001927551464177668,0.015014595352113247,0,0,-1000,4,2,14,0,0,-153,1500.0,50.0
16:27:57.795,GUIDED,-35.3632623,149.165238,33454,0.0004871701530646533,0.0010488529223948717,-0.15689054131507874,0.004336601123213768,0.001927551464177668,0.015014595352113247,0,0,-1000,4,2,14,0,0,-153,1500.0,50.0
16:27:57.998,GUIDED,-35.3632623,149.165238,33454,0.0004871701530646533,0.0010488529223948717,-0.15689054131507874,0.004336601123213768,0.001927551464177668,0.015014595352113247,0,0,-1000,4,2,14,0,0,-153,1500.0,50.0
16:27:58.199,GUIDED,-35.3632623,149.165238,33454,0.0004871701530646533,0.0010488529223948717,-0.15689054131507874,0.004336601123213768,0.001927551464177668,0.015014595352113247,0,0,-1000,4,2,14,0,0,-153,1500.0,50.0
16:27:58.400,GUIDED,-35.3632623,149.165238,33454,0.0004871701530646533,0.0010488529223948717,-0.15689054131507874,0.004336601123213768,0.001927551464177668,0.015014595352113247,0,0,-1000,4,2,14,0,0,-153,1500.0,50.0
16:27:58.603,GUIDED,-35.3632623,149.165238,33454,0.0004871701530646533,0.0010488529223948717,-0.15689054131507874,0.004336601123213768,0.001927551464177668,0.015014595352113247,0,0,-1000,4,2,14,0,0,-153,1500.0,50.0
16:27:58.807,GUIDED,-35.3632623,149.165238,33454,0.0004871701530646533,0.0010488529223948717,-0.15689054131507874,0.004336601123213768,0.001927551464177668,0.015014595352113247,0,0,-1000,4,2,14,0,0,-153,1500.0,50.0
16:27:59.008,GUIDED,-35.3632623,149.165238,33454,0.0004871701530646533,0.0010488529223948717,-0.15689054131507874,0.004336601123213768,0.001927551464177668,0.015014595352113247,0,0,-1000,4,2,14,0,0,-153,1500.0,50.0
16:27:59.211,GUIDED,-35.3632622,149.1652379,35788,0.0011669739615172148,0.0011091154301539063,-0.13834941387176514,0.002007734030485153,0.0007407380035147071,0.013073029927909374,0,0,-1000,2,1,12,0,0,-153,1500.0,50.0
16:27:59.414,GUIDED,-35.3632622,149.1652379,36177,0.0010959862265735865,0.0010823197662830353,-0.13575342297554016,-0.003677887376397848,-0.0002406626008450985,0.01074729673564434,0,0,-1000,-2,0,10,0,0,-153,1500.0,50.0
16:27:59.617,GUIDED,-35.3632622,149.1652378,36566,0.001158660277724266,0.00106727983802557,-0.13310308754444122,0.00157580291852355,0.0007804618217051029,0.012713190168142319,0,0,-1000,2,1,12,0,0,-153,1500.0,50.0
16:27:59.821,GUIDED,-35.3632622,149.1652378,36566,0.001158660277724266,0.00106727983802557,-0.13310308754444122,0.00157580291852355,0.0007804618217051029,0.012713190168142319,0,0,-1000,2,1,12,0,0,-153,1500.0,50.0
16:28:00.024,GUIDED,-35.3632622,149.1652378,36566,0.001158660277724266,0.00106727983802557,-0.13310308754444122,0.00157580291852355,0.0007804618217051029,0.012713190168142319,0,0,-1000,2,1,12,0,0,-153,1500.0,50.0
16:28:00.225,GUIDED,-35.3632622,149.1652378,36566,0.001158660277724266,0.00106727983802557,-0.13310308754444122,0.00157580291852355,0.0007804618217051029,0.012713190168142319,0,0,-1000,2,1,12,0,0,-153,1500.0,50.0
16:28:00.428,GUIDED,-35.3632622,149.1652378,36566,0.001158660277724266,0.00106727983802557,-0.13310308754444122,0.00157580291852355,0.0007804618217051029,0.012713190168142319,0,0,-1000,2,1,12,0,0,-153,1500.0,50.0
16:28:00.632,GUIDED,-35.3632622,149.1652378,36566,0.001158660277724266,0.00106727983802557,-0.13310308754444122,0.00157580291852355,0.0007804618217051029,0.012713190168142319,0,0,-1000,2,1,12,0,0,-153,1500.0,50.0
16:28:00.834,GUIDED,-35.3632622,149.1652378,36566,0.001158660277724266,0.00106727983802557,-0.13310308754444122,0.00157580291852355,0.0007804618217051029,0.012713190168142319,0,0,-1000,2,1,12,0,0,-153,1500.0,50.0
16:28:01.036,GUIDED,-35.3632622,149.1652378,36566,0.001158660277724266,0.00106727983802557,-0.13310308754444122,0.00157580291852355,0.0007804618217051029,0.012713190168142319,0,0,-1000,2,1,12,0,0,-153,1500.0,50.0
16:28:01.241,GUIDED,-35.3632621,149.1652376,38366,0.0021790568716824055,0.0015067982021719217,-0.12200052291154861,-0.0009935273556038737,0.0011670701205730438,0.010747868567705154,0,0,-999,0,2,10,0,0,-153,1500.0,50.0
16:28:01.444,GUIDED,-35.3632621,149.1652375,39535,0.002226050477474928,0.001544606639072299,-0.11575254052877426,0.0007270252681337297,0.0013405256904661655,0.009982849471271038,0,0,-999,1,2,9,0,0,-153,1500.0,50.0
16:28:01.647,GUIDED,-35.3632621,149.1652375,39535,0.002226050477474928,0.001544606639072299,-0.11575254052877426,0.0007270252681337297,0.0013405256904661655,0.009982849471271038,0,0,-999,1,2,9,0,0,-153,1500.0,50.0
16:28:01.848,GUIDED,-35.3632621,149.1652375,39535,0.002226050477474928,0.001544606639072299,-0.11575254052877426,0.0007270252681337297,0.0013405256904661655,0.009982849471271038,0,0,-999,1,2,9,0,0,-153,1500.0,50.0
16:28:02.050,GUIDED,-35.3632621,149.1652375,39535,0.002226050477474928,0.001544606639072299,-0.11575254052877426,0.0007270252681337297,0.0013405256904661655,0.009982849471271038,0,0,-999,1,2,9,0,0,-153,1500.0,50.0
16:28:02.253,GUIDED,-35.3632621,149.1652375,39535,0.002226050477474928,0.001544606639072299,-0.11575254052877426,0.0007270252681337297,0.0013405256904661655,0.009982849471271038,0,0,-999,1,2,9,0,0,-153,1500.0,50.0
16:28:02.456,GUIDED,-35.3632621,149.1652375,39535,0.002226050477474928,0.001544606639072299,-0.11575254052877426,0.0007270252681337297,0.0013405256904661655,0.009982849471271038,0,0,-999,1,2,9,0,0,-153,1500.0,50.0
16:28:02.659,GUIDED,-35.3632621,149.1652375,39535,0.002226050477474928,0.001544606639072299,-0.11575254052877426,0.0007270252681337297,0.0013405256904661655,0.009982849471271038,0,0,-999,1,2,9,0,0,-153,1500.0,50.0
16:28:02.862,GUIDED,-35.3632621,149.1652375,39535,0.002226050477474928,0.001544606639072299,-0.11575254052877426,0.0007270252681337297,0.0013405256904661655,0.009982849471271038,0,0,-999,1,2,9,0,0,-153,1500.0,50.0
16:28:03.064,GUIDED,-35.3632621,149.1652375,39535,0.002226050477474928,0.001544606639072299,-0.11575254052877426,0.0007270252681337297,0.0013405256904661655,0.009982849471271038,0,0,-999,1,2,9,0,0,-153,1500.0,50.0
16:28:03.267,GUIDED,-35.363262,149.1652374,42263,0.0017058617668226361,0.0016907172976061702,-0.10315703600645065,0.0015717423520982265,0.002213995438069105,0.010584961622953415,0,0,-1000,2,3,10,-1,1,-153,1500.0,50.0
16:28:03.470,GUIDED,-35.363262,149.1652374,42653,0.001623864402063191,0.0015753550687804818,-0.10170785337686539,-0.00014859694056212902,0.0008412001188844442,0.008740739896893501,0,0,-999,0,1,8,-1,1,-153,1500.0,50.0
16:28:03.672,GUIDED,-35.363262,149.1652374,42653,0.001623864402063191,0.0015753550687804818,-0.10170785337686539,-0.00014859694056212902,0.0008412001188844442,0.008740739896893501,0,0,-999,0,1,8,-1,1,-153,1500.0,50.0
16:28:03.873,GUIDED,-35.363262,149.1652374,42653,0.001623864402063191,0.0015753550687804818,-0.10170785337686539,-0.00014859694056212902,0.0008412001188844442,0.008740739896893501,0,0,-999,0,1,8,-1,1,-153,1500.0,50.0
16:28:04.076,GUIDED,-35.363262,149.1652374,42653,0.001623864402063191,0.0015753550687804818,-0.10170785337686539,-0.00014859694056212902,0.0008412001188844442,0.008740739896893501,0,0,-999,0,1,8,-1,1,-153,1500.0,50.0
16:28:04.278,GUIDED,-35.363262,149.1652374,42653,0.001623864402063191,0.0015753550687804818,-0.10170785337686539,-0.00014859694056212902,0.0008412001188844442,0.008740739896893501,0,0,-999,0,1,8,-1,1,-153,1500.0,50.0
16:28:04.480,GUIDED,-35.363262,149.1652374,42653,0.001623864402063191,0.0015753550687804818,-0.10170785337686539,-0.00014859694056212902,0.0008412001188844442,0.008740739896893501,0,0,-999,0,1,8,-1,1,-153,1500.0,50.0
16:28:04.683,GUIDED,-35.363262,149.1652374,42653,0.001623864402063191,0.0015753550687804818,-0.10170785337686539,-0.00014859694056212902,0.0008412001188844442,0.008740739896893501,0,0,-999,0,1,8,-1,1,-153,1500.0,50.0
16:28:04.888,GUIDED,-35.363262,149.1652374,42653,0.001623864402063191,0.0015753550687804818,-0.10170785337686539,-0.00014859694056212902,0.0008412001188844442,0.008740739896893501,0,0,-999,0,1,8,-1,1,-153,1500.0,50.0
16:28:05.090,GUIDED,-35.363262,149.1652374,43818,0.0017997552640736103,0.0014351364225149155,-0.09727371484041214,0.0013933032751083374,0.000600527913775295,0.007055018097162247,0,0,-1000,2,1,6,-1,1,-153,1500.0,50.0
16:28:05.292,GUIDED,-35.363262,149.1652373,45375,0.0015195785090327263,0.0010467529064044356,-0.09122050553560257,-0.0021083145402371883,0.0002707822131924331,0.006738615222275257,0,0,-999,-1,1,6,-1,1,-153,1500.0,50.0
16:28:05.493,GUIDED,-35.363262,149.1652373,45764,0.001603532349690795,0.0012296979548409581,-0.08961556106805801,-3.4311087802052498e-06,0.0015758720692247152,0.006798838265240192,0,0,-1000,0,2,6,-1,1,-153,1500.0,50.0
16:28:05.695,GUIDED,-35.363262,149.1652373,45764,0.001603532349690795,0.0012296979548409581,-0.08961556106805801,-3.4311087802052498e-06,0.0015758720692247152,0.006798838265240192,0,0,-1000,0,2,6,-1,1,-153,1500.0,50.0
16:28:05.897,GUIDED,-35.363262,149.1652373,45764,0.001603532349690795,0.0012296979548409581,-0.08961556106805801,-3.4311087802052498e-06,0.0015758720692247152,0.006798838265240192,0,0,-1000,0,2,6,-1,1,-153,1500.0,50.0
16:28:06.100,GUIDED,-35.363262,149.1652373,45764,0.001603532349690795,0.0012296979548409581,-0.08961556106805801,-3.4311087802052498e-06,0.0015758720692247152,0.006798838265240192,0,0,-1000,0,2,6,-1,1,-153,1500.0,50.0
16:28:06.303,GUIDED,-35.363262,149.1652373,45764,0.001603532349690795,0.0012296979548409581,-0.08961556106805801,-3.4311087802052498e-06,0.0015758720692247152,0.006798838265240192,0,0,-1000,0,2,6,-1,1,-153,1500.0,50.0
16:28:06.504,GUIDED,-35.363262,149.1652373,45764,0.001603532349690795,0.0012296979548409581,-0.08961556106805801,-3.4311087802052498e-06,0.0015758720692247152,0.006798838265240192,0,0,-1000,0,2,6,-1,1,-153,1500.0,50.0
16:28:06.708,GUIDED,-35.363262,149.1652373,45764,0.001603532349690795,0.0012296979548409581,-0.08961556106805801,-3.4311087802052498e-06,0.0015758720692247152,0.006798838265240192,0,0,-1000,0,2,6,-1,1,-153,1500.0,50.0
16:28:06.909,GUIDED,-35.363262,149.1652373,45764,0.001603532349690795,0.0012296979548409581,-0.08961556106805801,-3.4311087802052498e-06,0.0015758720692247152,0.006798838265240192,0,0,-1000,0,2,6,-1,1,-153,1500.0,50.0
16:28:07.112,GUIDED,-35.363262,149.1652373,47323,0.0014581265859305859,0.0012103780172765255,-0.08426695317029953,-0.0007731225923635066,4.548882134258747e-05,0.005928880535066128,0,0,-1000,3,1,6,-1,1,-153,1500.0,50.0
16:28:07.313,GUIDED,-35.363262,149.1652373,48491,0.001385183772072196,0.0010611391626298428,-0.08036863803863525,0.0014268204104155302,0.0011741867056116462,0.004917846992611885,0,0,-1000,2,2,5,-1,1,-153,1500.0,50.0
16:28:07.514,GUIDED,-35.363262,149.1652373,48880,0.0013716864632442594,0.001042426680214703,-0.07929643988609314,0.0013932542642578483,0.001636287197470665,0.004699618089944124,0,0,-1000,2,2,5,-1,1,-153,1500.0,50.0
16:28:07.716,GUIDED,-35.363262,149.1652373,48880,0.0013716864632442594,0.001042426680214703,-0.07929643988609314,0.0013932542642578483,0.001636287197470665,0.004699618089944124,0,0,-1000,2,2,5,-1,1,-153,1500.0,50.0
16:28:07.918,GUIDED,-35.363262,149.1652373,48880,0.0013716864632442594,0.001042426680214703,-0.07929643988609314,0.0013932542642578483,0.001636287197470665,0.004699618089944124,0,0,-1000,2,2,5,-1,1,-153,1500.0,50.0
16:28:08.122,GUIDED,-35.363262,149.1652373,48880,0.0013716864632442594,0.001042426680214703,-0.07929643988609314,0.0013932542642578483,0.001636287197470665,0.004699618089944124,0,0,-1000,2,2,5,-1,1,-153,1500.0,50.0
16:28:08.324,GUIDED,-35.363262,149.1652373,48880,0.0013716864632442594,0.001042426680214703,-0.07929643988609314,0.0013932542642578483,0.001636287197470665,0.004699618089944124,0,0,-1000,2,2,5,-1,1,-153,1500.0,50.0
16:28:08.528,GUIDED,-35.363262,149.1652373,48880,0.0013716864632442594,0.001042426680214703,-0.07929643988609314,0.0013932542642578483,0.001636287197470665,0.004699618089944124,0,0,-1000,2,2,5,-1,1,-153,1500.0,50.0
16:28:08.729,GUIDED,-35.363262,149.1652373,48880,0.0013716864632442594,0.001042426680214703,-0.07929643988609314,0.0013932542642578483,0.001636287197470665,0.004699618089944124,0,0,-1000,2,2,5,-1,1,-153,1500.0,50.0
16:28:08.932,GUIDED,-35.363262,149.1652373,48880,0.0013716864632442594,0.001042426680214703,-0.07929643988609314,0.0013932542642578483,0.001636287197470665,0.004699618089944124,0,0,-1000,2,2,5,-1,1,-153,1500.0,50.0
16:28:09.134,GUIDED,-35.363262,149.1652373,50826,0.002149368403479457,0.0014738442841917276,-0.07280688732862473,-0.004126488696783781,0.0005753845325671136,0.007278375327587128,0,0,-999,-2,1,7,-1,1,-153,1500.0,50.0
16:28:09.337,GUIDED,-35.363262,149.1652372,51609,0.002108629560098052,0.0009837000397965312,-0.07035484164953232,0.0009884568862617016,0.0008479527896270156,0.005411114078015089,0,0,-999,2,1,5,-1,1,-153,1500.0,50.0
16:28:09.539,GUIDED,-35.363262,149.1652372,51999,0.0020097193773835897,0.0008396595949307084,-0.06920753419399261,-0.0021412719506770372,-0.00025684176944196224,0.004387333989143372,0,0,-1000,-1,0,4,-1,1,-153,1500.0,50.0
16:28:09.743,LAND,-35.363262,149.1652372,51999,0.0020097193773835897,0.0008396595949307084,-0.06920753419399261,-0.0021412719506770372,-0.00025684176944196224,0.004387333989143372,0,0,-1000,-1,0,4,-1,1,-153,1500.0,50.0
16:28:09.947,LAND,-35.363262,149.1652372,51999,0.0020097193773835897,0.0008396595949307084,-0.06920753419399261,-0.0021412719506770372,-0.00025684176944196224,0.004387333989143372,0,0,-1000,-1,0,4,-1,1,-153,1500.0,50.0
16:28:10.149,LAND,-35.363262,149.1652372,51999,0.0020097193773835897,0.0008396595949307084,-0.06920753419399261,-0.0021412719506770372,-0.00025684176944196224,0.004387333989143372,0,0,-1000,-1,0,4,-1,1,-153,1500.0,50.0
16:28:10.352,LAND,-35.363262,149.1652372,51999,0.0020097193773835897,0.0008396595949307084,-0.06920753419399261,-0.0021412719506770372,-0.00025684176944196224,0.004387333989143372,0,0,-1000,-1,0,4,-1,1,-153,1500.0,50.0
16:28:10.559,LAND,-35.363262,149.1652372,51999,0.0020097193773835897,0.0008396595949307084,-0.06920753419399261,-0.0021412719506770372,-0.00025684176944196224,0.004387333989143372,0,0,-1000,-1,0,4,-1,1,-153,1500.0,50.0
16:28:10.763,LAND,-35.363262,149.1652372,51999,0.0020097193773835897,0.0008396595949307084,-0.06920753419399261,-0.0021412719506770372,-0.00025684176944196224,0.004387333989143372,0,0,-1000,-1,0,4,-1,1,-153,1500.0,50.0
16:28:10.965,LAND,-35.363262,149.1652372,51999,0.0020097193773835897,0.0008396595949307084,-0.06920753419399261,-0.0021412719506770372,-0.00025684176944196224,0.004387333989143372,0,0,-1000,-1,0,4,-1,1,-153,1500.0,50.0
16:28:11.166,LAND,-35.363262,149.1652371,54295,-0.051744494587183,0.06001842021942139,0.07929106801748276,-0.21264268457889557,0.18577982485294342,0.658710241317749,0,0,-954,-211,186,659,-9,-7,-135,1500.0,50.0
16:28:11.368,LAND,-35.3632624,149.1652367,54617,-0.06482922285795212,0.07309237122535706,0.21233224868774414,0.004957749042659998,-0.13566607236862183,0.4062809348106384,3,4,-908,5,-134,406,-23,-23,-115,1500.0,30.0
16:28:11.569,LAND,-35.363263,149.1652359,54882,-0.041098982095718384,0.024882055819034576,0.28925254940986633,0.12204994261264801,-0.22337567806243896,0.21946938335895538,4,8,-907,123,-222,219,-30,-36,-91,1500.0,30.0
16:28:11.771,LAND,-35.363263,149.1652359,54882,-0.041098982095718384,0.024882055819034576,0.28925254940986633,0.12204994261264801,-0.22337567806243896,0.21946938335895538,4,8,-907,123,-222,219,-30,-36,-91,1500.0,30.0
16:28:11.974,LAND,-35.363263,149.1652359,54882,-0.041098982095718384,0.024882055819034576,0.28925254940986633,0.12204994261264801,-0.22337567806243896,0.21946938335895538,4,8,-907,123,-222,219,-30,-36,-91,1500.0,30.0
16:28:12.176,LAND,-35.363263,149.1652359,54882,-0.041098982095718384,0.024882055819034576,0.28925254940986633,0.12204994261264801,-0.22337567806243896,0.21946938335895538,4,8,-907,123,-222,219,-30,-36,-91,1500.0,30.0
16:28:12.378,LAND,-35.363263,149.1652359,54882,-0.041098982095718384,0.024882055819034576,0.28925254940986633,0.12204994261264801,-0.22337567806243896,0.21946938335895538,4,8,-907,123,-222,219,-30,-36,-91,1500.0,30.0
16:28:12.581,LAND,-35.363263,149.1652359,54882,-0.041098982095718384,0.024882055819034576,0.28925254940986633,0.12204994261264801,-0.22337567806243896,0.21946938335895538,4,8,-907,123,-222,219,-30,-36,-91,1500.0,30.0
16:28:12.784,LAND,-35.363263,149.1652359,54882,-0.041098982095718384,0.024882055819034576,0.28925254940986633,0.12204994261264801,-0.22337567806243896,0.21946938335895538,4,8,-907,123,-222,219,-30,-36,-91,1500.0,30.0
16:28:12.986,LAND,-35.363263,149.1652359,54882,-0.041098982095718384,0.024882055819034576,0.28925254940986633,0.12204994261264801,-0.22337567806243896,0.21946938335895538,4,8,-907,123,-222,219,-30,-36,-91,1500.0,30.0
16:28:13.189,LAND,-35.3632641,149.1652327,55334,0.02105531096458435,-0.026230454444885254,0.31368666887283325,-1.0818758010864258,0.05018254369497299,-0.03650602698326111,-3,-55,-946,-840,55,-44,17,20,28,1500.0,30.0
16:28:13.391,LAND,-35.3632641,149.1652327,55334,0.02105531096458435,-0.026230454444885254,0.31368666887283325,-1.0818758010864258,0.05018254369497299,-0.03650602698326111,-3,-47,-945,-1081,51,-36,17,20,28,1500.0,30.0
16:28:13.597,LAND,-35.3632637,149.1652333,55251,0.01512552984058857,-0.014597252942621708,0.3037654459476471,-0.6954391002655029,0.04936171695590019,-0.03309999033808708,-4,-19,-980,-691,50,-32,19,26,34,1500.0,30.0
16:28:13.812,LAND,-35.3632637,149.1652333,55251,0.01512552984058857,-0.014597252942621708,0.3037654459476471,-0.6954391002655029,0.04936171695590019,-0.03309999033808708,-4,-19,-980,-691,50,-32,19,26,34,1500.0,30.0
16:28:14.022,LAND,-35.3632637,149.1652333,55251,0.01512552984058857,-0.014597252942621708,0.3037654459476471,-0.6954391002655029,0.04936171695590019,-0.03309999033808708,-4,-19,-980,-691,50,-32,19,26,34,1500.0,30.0
16:28:14.224,LAND,-35.3632637,149.1652333,55251,0.01512552984058857,-0.014597252942621708,0.3037654459476471,-0.6954391002655029,0.04936171695590019,-0.03309999033808708,-4,-19,-980,-691,50,-32,19,26,34,1500.0,30.0
16:28:14.430,LAND,-35.3632637,149.1652333,55251,0.01512552984058857,-0.014597252942621708,0.3037654459476471,-0.6954391002655029,0.04936171695590019,-0.03309999033808708,-4,-19,-980,-691,50,-32,19,26,34,1500.0,30.0
16:28:14.634,LAND,-35.3632637,149.1652333,55251,0.01512552984058857,-0.014597252942621708,0.3037654459476471,-0.6954391002655029,0.04936171695590019,-0.03309999033808708,-4,-19,-980,-691,50,-32,19,26,34,1500.0,30.0
16:28:14.841,LAND,-35.3632637,149.1652333,55251,0.01512552984058857,-0.014597252942621708,0.3037654459476471,-0.6954391002655029,0.04936171695590019,-0.03309999033808708,-4,-19,-980,-691,50,-32,19,26,34,1500.0,30.0
16:28:15.042,LAND,-35.3632637,149.1652333,55251,0.01512552984058857,-0.014597252942621708,0.3037654459476471,-0.6954391002655029,0.04936171695590019,-0.03309999033808708,-4,-19,-980,-691,50,-32,19,26,34,1500.0,30.0
16:28:15.246,LAND,-35.3632623,149.1652358,54914,0.00703465798869729,0.009945724159479141,0.27699264883995056,0.7261901497840881,0.018116682767868042,-0.027577761560678482,-2,40,-1023,732,19,-27,17,32,40,1500.0,30.0
16:28:15.449,LAND,-35.3632612,149.1652384,54561,0.002937118988484144,0.013167740777134895,0.2448144257068634,0.25985509157180786,-0.004483068361878395,-0.02765899896621704,0,-13,-1019,256,-3,-27,6,16,23,1500.0,130.0
16:28:15.651,LAND,-35.3632611,149.1652388,54496,-0.0037688210140913725,0.011557307094335556,0.23910926282405853,-0.48588910698890686,-0.010659178718924522,-0.026752227917313576,0,-47,-959,-490,-9,-26,4,12,24,1500.0,130.0
16:28:15.854,LAND,-35.3632611,149.1652388,54496,-0.0037688210140913725,0.011557307094335556,0.23910926282405853,-0.48588910698890686,-0.010659178718924522,-0.026752227917313576,0,-47,-959,-490,-9,-26,4,12,24,1500.0,130.0
16:28:16.059,LAND,-35.3632611,149.1652388,54496,-0.0037688210140913725,0.011557307094335556,0.23910926282405853,-0.48588910698890686,-0.010659178718924522,-0.026752227917313576,0,-47,-959,-490,-9,-26,4,12,24,1500.0,130.0
16:28:16.264,LAND,-35.3632611,149.1652388,54496,-0.0037688210140913725,0.011557307094335556,0.23910926282405853,-0.48588910698890686,-0.010659178718924522,-0.026752227917313576,0,-47,-959,-490,-9,-26,4,12,24,1500.0,130.0
16:28:16.465,LAND,-35.3632611,149.1652388,54496,-0.0037688210140913725,0.011557307094335556,0.23910926282405853,-0.48588910698890686,-0.010659178718924522,-0.026752227917313576,0,-47,-959,-490,-9,-26,4,12,24,1500.0,130.0
16:28:16.669,LAND,-35.3632611,149.1652388,54496,-0.0037688210140913725,0.011557307094335556,0.23910926282405853,-0.48588910698890686,-0.010659178718924522,-0.026752227917313576,0,-47,-959,-490,-9,-26,4,12,24,1500.0,130.0
16:28:16.873,LAND,-35.3632611,149.1652388,54496,-0.0037688210140913725,0.011557307094335556,0.23910926282405853,-0.48588910698890686,-0.010659178718924522,-0.026752227917313576,0,-47,-959,-490,-9,-26,4,12,24,1500.0,130.0
16:28:17.074,LAND,-35.3632611,149.1652388,54496,-0.0037688210140913725,0.011557307094335556,0.23910926282405853,-0.48588910698890686,-0.010659178718924522,-0.026752227917313576,0,-47,-959,-490,-9,-26,4,12,24,1500.0,130.0
16:28:17.276,LAND,-35.363261,149.1652386,53615,-0.005505464971065521,0.0006352569907903671,0.2084331065416336,-1.4124079942703247,-0.002424746984615922,-0.03469580411911011,0,-84,-884,-1610,14,-44,-3,2,100,1500.0,130.0
16:28:17.497,LAND,-35.3632611,149.1652379,52833,0.01860039494931698,-0.0020363256335258484,0.1931682974100113,-0.7022692561149597,-0.016999535262584686,-0.041406624019145966,-1,-61,-1000,-709,-16,-40,-3,4,93,1500.0,130.0
16:28:17.700,LAND,-35.3632611,149.1652379,52833,0.01860039494931698,-0.0020363256335258484,0.1931682974100113,-0.7022692561149597,-0.016999535262584686,-0.041406624019145966,-1,-61,-1000,-709,-16,-40,-3,4,93,1500.0,130.0
16:28:17.927,LAND,-35.3632611,149.1652379,52833,0.01860039494931698,-0.0020363256335258484,0.1931682974100113,-0.7022692561149597,-0.016999535262584686,-0.041406624019145966,-1,-61,-1000,-709,-16,-40,-3,4,93,1500.0,130.0
16:28:18.151,LAND,-35.3632611,149.1652379,52833,0.01860039494931698,-0.0020363256335258484,0.1931682974100113,-0.7022692561149597,-0.016999535262584686,-0.041406624019145966,-1,-61,-1000,-709,-16,-40,-3,4,93,1500.0,130.0
16:28:18.356,LAND,-35.3632611,149.1652379,52833,0.01860039494931698,-0.0020363256335258484,0.1931682974100113,-0.7022692561149597,-0.016999535262584686,-0.041406624019145966,-1,-61,-1000,-709,-16,-40,-3,4,93,1500.0,130.0
16:28:18.560,LAND,-35.3632611,149.1652379,52833,0.01860039494931698,-0.0020363256335258484,0.1931682974100113,-0.7022692561149597,-0.016999535262584686,-0.041406624019145966,-1,-61,-1000,-709,-16,-40,-3,4,93,1500.0,130.0
16:28:18.764,LAND,-35.3632611,149.1652379,52833,0.01860039494931698,-0.0020363256335258484,0.1931682974100113,-0.7022692561149597,-0.016999535262584686,-0.041406624019145966,-1,-61,-1000,-709,-16,-40,-3,4,93,1500.0,130.0
16:28:18.967,LAND,-35.3632611,149.1652379,52833,0.01860039494931698,-0.0020363256335258484,0.1931682974100113,-0.7022692561149597,-0.016999535262584686,-0.041406624019145966,-1,-61,-1000,-709,-16,-40,-3,4,93,1500.0,130.0
16:28:19.170,LAND,-35.3632611,149.1652379,52833,0.01860039494931698,-0.0020363256335258484,0.1931682974100113,-0.7022692561149597,-0.016999535262584686,-0.041406624019145966,-1,-61,-1000,-709,-16,-40,-3,4,93,1500.0,130.0
16:28:19.377,LAND,-35.3632615,149.1652358,51480,0.04044805467128754,-0.0056830462999641895,0.1656259447336197,0.6297922730445862,-0.0028158705681562424,-0.017221443355083466,0,-9,-971,625,-1,-16,-2,14,85,1500.0,130.0
16:28:19.586,LAND,-35.3632616,149.1652355,50956,0.049293942749500275,-0.0049662101082503796,0.15631815791130066,1.7802057266235352,-0.00814477913081646,-0.024294886738061905,0,71,-922,1779,-7,-23,-2,19,130,1500.0,200.0
16:28:19.788,LAND,-35.3632616,149.1652355,50956,0.049293942749500275,-0.0049662101082503796,0.15631815791130066,1.7802057266235352,-0.00814477913081646,-0.024294886738061905,0,71,-922,1779,-7,-23,-2,19,130,1500.0,200.0
16:28:19.990,LAND,-35.3632616,149.1652355,50956,0.049293942749500275,-0.0049662101082503796,0.15631815791130066,1.7802057266235352,-0.00814477913081646,-0.024294886738061905,0,71,-922,1779,-7,-23,-2,19,130,1500.0,200.0
16:28:20.193,LAND,-35.3632616,149.1652355,50956,0.049293942749500275,-0.0049662101082503796,0.15631815791130066,1.7802057266235352,-0.00814477913081646,-0.024294886738061905,0,71,-922,1779,-7,-23,-2,19,130,1500.0,200.0
16:28:20.395,LAND,-35.3632616,149.1652355,50956,0.049293942749500275,-0.0049662101082503796,0.15631815791130066,1.7802057266235352,-0.00814477913081646,-0.024294886738061905,0,71,-922,1779,-7,-23,-2,19,130,1500.0,200.0
16:28:20.598,LAND,-35.3632616,149.1652355,50956,0.049293942749500275,-0.0049662101082503796,0.15631815791130066,1.7802057266235352,-0.00814477913081646,-0.024294886738061905,0,71,-922,1779,-7,-23,-2,19,130,1500.0,200.0
16:28:20.799,LAND,-35.3632616,149.1652355,50956,0.049293942749500275,-0.0049662101082503796,0.15631815791130066,1.7802057266235352,-0.00814477913081646,-0.024294886738061905,0,71,-922,1779,-7,-23,-2,19,130,1500.0,200.0
16:28:21.002,LAND,-35.3632616,149.1652355,50956,0.049293942749500275,-0.0049662101082503796,0.15631815791130066,1.7802057266235352,-0.00814477913081646,-0.024294886738061905,0,71,-922,1779,-7,-23,-2,19,130,1500.0,200.0
16:28:21.203,LAND,-35.3632616,149.1652355,50956,0.049293942749500275,-0.0049662101082503796,0.15631815791130066,1.7802057266235352,-0.00814477913081646,-0.024294886738061905,0,71,-922,1779,-7,-23,-2,19,130,1500.0,200.0
16:28:21.405,LAND,-35.3632619,149.1652353,48425,-0.01149323396384716,-0.0023471065796911716,0.13468654453754425,-1.0517576932907104,-0.0030268491245806217,-0.01581345684826374,0,17,-1009,-541,4,-7,0,23,134,1500.0,200.0
16:28:21.619,LAND,-35.3632619,149.1652354,48083,-0.012421284802258015,-0.0013740257127210498,0.13125568628311157,-1.5464046001434326,-0.006255927961319685,0.008024942129850388,0,-36,-998,-1541,-5,8,0,23,129,1500.0,200.0
16:28:21.847,LAND,-35.3632619,149.1652354,48083,-0.012421284802258015,-0.0013740257127210498,0.13125568628311157,-1.5464046001434326,-0.006255927961319685,0.008024942129850388,0,-36,-998,-1541,-5,8,0,23,129,1500.0,200.0
16:28:22.050,LAND,-35.3632619,149.1652354,48083,-0.012421284802258015,-0.0013740257127210498,0.13125568628311157,-1.5464046001434326,-0.006255927961319685,0.008024942129850388,0,-36,-998,-1541,-5,8,0,23,129,1500.0,200.0
16:28:22.258,LAND,-35.3632619,149.1652354,48083,-0.012421284802258015,-0.0013740257127210498,0.13125568628311157,-1.5464046001434326,-0.006255927961319685,0.008024942129850388,0,-36,-998,-1541,-5,8,0,23,129,1500.0,200.0
16:28:22.461,LAND,-35.3632619,149.1652354,48083,-0.012421284802258015,-0.0013740257127210498,0.13125568628311157,-1.5464046001434326,-0.006255927961319685,0.008024942129850388,0,-36,-998,-1541,-5,8,0,23,129,1500.0,200.0
16:28:22.662,LAND,-35.3632619,149.1652354,48083,-0.012421284802258015,-0.0013740257127210498,0.13125568628311157,-1.5464046001434326,-0.006255927961319685,0.008024942129850388,0,-36,-998,-1541,-5,8,0,23,129,1500.0,200.0
16:28:22.865,LAND,-35.3632619,149.1652354,48083,-0.012421284802258015,-0.0013740257127210498,0.13125568628311157,-1.5464046001434326,-0.006255927961319685,0.008024942129850388,0,-36,-998,-1541,-5,8,0,23,129,1500.0,200.0
16:28:23.067,LAND,-35.3632619,149.1652354,48083,-0.012421284802258015,-0.0013740257127210498,0.13125568628311157,-1.5464046001434326,-0.006255927961319685,0.008024942129850388,0,-36,-998,-1541,-5,8,0,23,129,1500.0,200.0
16:28:23.271,LAND,-35.3632621,149.1652359,46358,0.026975929737091064,0.0006378573016263545,0.11790352314710617,0.43596282601356506,-0.0031064096838235855,-0.023059312254190445,1,-58,-984,-136,-2,-23,1,19,134,1500.0,200.0
16:28:23.474,LAND,-35.3632621,149.1652363,45674,0.022002320736646652,0.0024661964271217585,0.1132199764251709,1.4867724180221558,0.005044673103839159,0.002010383177548647,2,33,-987,1484,5,2,2,17,131,1500.0,200.0
16:28:23.675,LAND,-35.3632621,149.1652364,45336,0.02449674718081951,0.0017181335715577006,0.11050884425640106,1.3417294025421143,-0.007652532309293747,-1.9953586161136627e-06,1,39,-1029,1342,-6,0,2,14,118,1500.0,200.0
16:28:23.878,LAND,-35.3632621,149.1652364,45336,0.02449674718081951,0.0017181335715577006,0.11050884425640106,1.3417294025421143,-0.007652532309293747,-1.9953586161136627e-06,1,39,-1029,1342,-6,0,2,14,118,1500.0,200.0
16:28:24.080,LAND,-35.3632621,149.1652364,45336,0.02449674718081951,0.0017181335715577006,0.11050884425640106,1.3417294025421143,-0.007652532309293747,-1.9953586161136627e-06,1,39,-1029,1342,-6,0,2,14,118,1500.0,200.0
16:28:24.282,LAND,-35.3632621,149.1652364,45336,0.02449674718081951,0.0017181335715577006,0.11050884425640106,1.3417294025421143,-0.007652532309293747,-1.9953586161136627e-06,1,39,-1029,1342,-6,0,2,14,118,1500.0,200.0
16:28:24.484,LAND,-35.3632621,149.1652364,45336,0.02449674718081951,0.0017181335715577006,0.11050884425640106,1.3417294025421143,-0.007652532309293747,-1.9953586161136627e-06,1,39,-1029,1342,-6,0,2,14,118,1500.0,200.0
16:28:24.685,LAND,-35.3632621,149.1652364,45336,0.02449674718081951,0.0017181335715577006,0.11050884425640106,1.3417294025421143,-0.007652532309293747,-1.9953586161136627e-06,1,39,-1029,1342,-6,0,2,14,118,1500.0,200.0
16:28:24.895,LAND,-35.3632621,149.1652364,45336,0.02449674718081951,0.0017181335715577006,0.11050884425640106,1.3417294025421143,-0.007652532309293747,-1.9953586161136627e-06,1,39,-1029,1342,-6,0,2,14,118,1500.0,200.0
