time_stamp,MODE,lat,lon,relative_alt,roll,pitch,yaw,rollspeed,pitchspeed,yawspeed,xacc,yacc,zacc,xgyro,ygyro,zgyro,vx,vy,vz,RTL_ALT,LAND_SPEED
16:33:58.181,GUIDED,-35.3632621,149.1652374,9,0.00023820102796889842,0.001384195638820529,0.027652869001030922,0.00022995879407972097,0.0002861957182176411,0.0022770091891288757,0,0,-1003,0,0,0,0,0,0,1500.0,110.0
16:33:58.384,GUIDED,-35.3632621,149.1652374,3,0.000314174045342952,0.0015228893607854843,0.027065064758062363,0.0002759511990007013,0.0003435953985899687,0.0024128614459186792,0,1,-1000,0,0,0,-1,1,0,1500.0,110.0
16:33:58.585,GUIDED,-35.3632621,149.1652374,2,0.0003193994634784758,0.0015419140690937638,0.026876844465732574,0.0002376228803768754,0.0003214040771126747,0.002352534793317318,0,1,-1000,0,0,0,-1,1,0,1500.0,110.0
16:33:58.788,GUIDED,-35.3632621,149.1652374,2,0.0003193994634784758,0.0015419140690937638,0.026876844465732574,0.0002376228803768754,0.0003214040771126747,0.002352534793317318,0,1,-1000,0,0,0,-1,1,0,1500.0,110.0
16:33:58.995,GUIDED,-35.3632621,149.1652374,2,0.0003193994634784758,0.0015419140690937638,0.026876844465732574,0.0002376228803768754,0.0003214040771126747,0.002352534793317318,0,1,-1000,0,0,0,-1,1,0,1500.0,110.0
16:33:59.197,GUIDED,-35.3632621,149.1652374,2,0.0003193994634784758,0.0015419140690937638,0.026876844465732574,0.0002376228803768754,0.0003214040771126747,0.002352534793317318,0,1,-1000,0,0,0,-1,1,0,1500.0,110.0
16:33:59.399,GUIDED,-35.3632621,149.1652374,2,0.0003193994634784758,0.0015419140690937638,0.026876844465732574,0.0002376228803768754,0.0003214040771126747,0.002352534793317318,0,1,-1000,0,0,0,-1,1,0,1500.0,110.0
16:33:59.601,GUIDED,-35.3632621,149.1652374,2,0.0003193994634784758,0.0015419140690937638,0.026876844465732574,0.0002376228803768754,0.0003214040771126747,0.002352534793317318,0,1,-1000,0,0,0,-1,1,0,1500.0,110.0
16:33:59.804,GUIDED,-35.3632621,149.1652374,2,0.0003193994634784758,0.0015419140690937638,0.026876844465732574,0.0002376228803768754,0.0003214040771126747,0.002352534793317318,0,1,-1000,0,0,0,-1,1,0,1500.0,110.0
16:34:00.006,GUIDED,-35.3632621,149.1652374,2,0.0003193994634784758,0.0015419140690937638,0.026876844465732574,0.0002376228803768754,0.0003214040771126747,0.002352534793317318,0,1,-1000,0,0,0,-1,1,0,1500.0,110.0
16:34:00.207,GUIDED,-35.3632621,149.1652375,0,8.556738612242043e-05,0.0014676188584417105,0.02596377208828926,0.0002532295184209943,0.00022635329514741898,0.002209977712482214,0,1,-1000,0,0,0,-1,2,0,1500.0,110.0
16:34:00.409,GUIDED,-35.3632622,149.1652375,0,-7.917586481198668e-05,0.0013848916860297322,0.025632960721850395,0.00026818126207217574,0.00026008186978287995,0.0021908681374043226,0,2,-1000,0,0,0,-2,2,0,1500.0,110.0
16:34:00.610,GUIDED,-35.3632622,149.1652375,4,-0.00017467430734541267,0.0013350506778806448,0.02549203485250473,0.0004318488063290715,0.00023035993217490613,0.0020988835021853447,0,1,-1000,0,0,0,-1,2,0,1500.0,110.0
16:34:00.813,GUIDED,-35.3632622,149.1652375,4,-0.00017467430734541267,0.0013350506778806448,0.02549203485250473,0.0004318488063290715,0.00023035993217490613,0.0020988835021853447,0,1,-1000,0,0,0,-1,2,0,1500.0,110.0
16:34:01.015,GUIDED,-35.3632622,149.1652375,4,-0.00017467430734541267,0.0013350506778806448,0.02549203485250473,0.0004318488063290715,0.00023035993217490613,0.0020988835021853447,0,1,-1000,0,0,0,-1,2,0,1500.0,110.0
16:34:01.217,GUIDED,-35.3632622,149.1652375,4,-0.00017467430734541267,0.0013350506778806448,0.02549203485250473,0.0004318488063290715,0.00023035993217490613,0.0020988835021853447,0,1,-1000,0,0,0,-1,2,0,1500.0,110.0
16:34:01.421,GUIDED,-35.3632622,149.1652375,4,-0.00017467430734541267,0.0013350506778806448,0.02549203485250473,0.0004318488063290715,0.00023035993217490613,0.0020988835021853447,0,1,-1000,0,0,0,-1,2,0,1500.0,110.0
16:34:01.622,GUIDED,-35.3632622,149.1652375,4,-0.00017467430734541267,0.0013350506778806448,0.02549203485250473,0.0004318488063290715,0.00023035993217490613,0.0020988835021853447,0,1,-1000,0,0,0,-1,2,0,1500.0,110.0
16:34:01.823,GUIDED,-35.3632622,149.1652375,4,-0.00017467430734541267,0.0013350506778806448,0.02549203485250473,0.0004318488063290715,0.00023035993217490613,0.0020988835021853447,0,1,-1000,0,0,0,-1,2,0,1500.0,110.0
16:34:02.025,GUIDED,-35.3632622,149.1652375,4,-0.00017467430734541267,0.0013350506778806448,0.02549203485250473,0.0004318488063290715,0.00023035993217490613,0.0020988835021853447,0,1,-1000,0,0,0,-1,2,0,1500.0,110.0
16:34:02.226,GUIDED,-35.3632622,149.1652375,4,-0.00017467430734541267,0.0013350506778806448,0.02549203485250473,0.0004318488063290715,0.00023035993217490613,0.0020988835021853447,0,1,-1000,0,0,0,-1,2,0,1500.0,110.0
16:34:02.428,GUIDED,-35.3632621,149.1652375,0,-7.395655120490119e-05,0.001360338064841926,0.024475200101733208,0.00019001762848347425,0.0003219285572413355,0.0020178495906293392,0,1,-1000,0,0,0,0,0,1,1500.0,110.0
16:34:02.629,GUIDED,-35.3632621,149.1652375,0,-3.2151525374501944e-05,0.001416348502971232,0.024328036233782768,0.000298821774777025,0.00027251202845945954,0.0019229867029935122,0,1,-1000,0,0,0,0,0,1,1500.0,110.0
16:34:02.832,GUIDED,-35.3632621,149.1652375,0,-3.2151525374501944e-05,0.001416348502971232,0.024328036233782768,0.000298821774777025,0.00027251202845945954,0.0019229867029935122,0,1,-1000,0,0,0,0,0,1,1500.0,110.0
16:34:03.033,GUIDED,-35.3632621,149.1652375,0,-3.2151525374501944e-05,0.001416348502971232,0.024328036233782768,0.000298821774777025,0.00027251202845945954,0.0019229867029935122,0,1,-1000,0,0,0,0,0,1,1500.0,110.0
16:34:03.238,GUIDED,-35.3632621,149.1652375,0,-3.2151525374501944e-05,0.001416348502971232,0.024328036233782768,0.000298821774777025,0.00027251202845945954,0.0019229867029935122,0,1,-1000,0,0,0,0,0,1,1500.0,110.0
16:34:03.440,GUIDED,-35.3632621,149.1652375,0,-3.2151525374501944e-05,0.001416348502971232,0.024328036233782768,0.000298821774777025,0.00027251202845945954,0.0019229867029935122,0,1,-1000,0,0,0,0,0,1,1500.0,110.0
16:34:03.641,GUIDED,-35.3632621,149.1652375,0,-3.2151525374501944e-05,0.001416348502971232,0.024328036233782768,0.000298821774777025,0.00027251202845945954,0.0019229867029935122,0,1,-1000,0,0,0,0,0,1,1500.0,110.0
16:34:03.844,GUIDED,-35.3632621,149.1652375,0,-3.2151525374501944e-05,0.001416348502971232,0.024328036233782768,0.000298821774777025,0.00027251202845945954,0.0019229867029935122,0,1,-1000,0,0,0,0,0,1,1500.0,110.0
16:34:04.053,GUIDED,-35.3632621,149.1652375,0,-3.2151525374501944e-05,0.001416348502971232,0.024328036233782768,0.000298821774777025,0.00027251202845945954,0.0019229867029935122,0,1,-1000,0,0,0,0,0,1,1500.0,110.0
16:34:04.255,GUIDED,-35.3632621,149.1652374,0,0.0002013674529734999,0.0017558052204549313,0.02365177311003208,0.00032161298440769315,0.0002396787458565086,0.0019234626088291407,0,1,-1000,0,0,0,0,0,1,1500.0,110.0
16:34:04.457,GUIDED,-35.3632621,149.1652374,0,0.00041882257210090756,0.001896218629553914,0.023347076028585434,0.00392922293394804,0.0002310718991793692,0.002178205642849207,0,2,-1004,4,0,1,0,0,0,1500.0,110.0
16:34:04.659,GUIDED,-35.3632621,149.1652374,22,0.0045131174847483635,-0.00024182825291063637,0.023366538807749748,0.021064069122076035,-0.004324744921177626,0.0017866978887468576,0,0,-1138,21,-3,1,0,0,-28,1500.0,110.0
16:34:04.860,GUIDED,-35.3632621,149.1652374,22,0.0045131174847483635,-0.00024182825291063637,0.023366538807749748,0.021064069122076035,-0.004324744921177626,0.0017866978887468576,0,0,-1138,21,-3,1,0,0,-28,1500.0,110.0
16:34:05.062,GUIDED,-35.3632621,149.1652374,22,0.0045131174847483635,-0.00024182825291063637,0.023366538807749748,0.021064069122076035,-0.004324744921177626,0.0017866978887468576,0,0,-1138,21,-3,1,0,0,-28,1500.0,110.0
16:34:05.268,GUIDED,-35.3632621,149.1652374,22,0.0045131174847483635,-0.00024182825291063637,0.023366538807749748,0.021064069122076035,-0.004324744921177626,0.0017866978887468576,0,0,-1138,21,-3,1,0,0,-28,1500.0,110.0
16:34:05.470,GUIDED,-35.3632621,149.1652374,22,0.0045131174847483635,-0.00024182825291063637,0.023366538807749748,0.021064069122076035,-0.004324744921177626,0.0017866978887468576,0,0,-1138,21,-3,1,0,0,-28,1500.0,110.0
16:34:05.671,GUIDED,-35.3632621,149.1652374,22,0.0045131174847483635,-0.00024182825291063637,0.023366538807749748,0.021064069122076035,-0.004324744921177626,0.0017866978887468576,0,0,-1138,21,-3,1,0,0,-28,1500.0,110.0
16:34:05.873,GUIDED,-35.3632621,149.1652374,22,0.0045131174847483635,-0.00024182825291063637,0.023366538807749748,0.021064069122076035,-0.004324744921177626,0.0017866978887468576,0,0,-1138,21,-3,1,0,0,-28,1500.0,110.0
16:34:06.077,GUIDED,-35.3632621,149.1652374,22,0.0045131174847483635,-0.00024182825291063637,0.023366538807749748,0.021064069122076035,-0.004324744921177626,0.0017866978887468576,0,0,-1138,21,-3,1,0,0,-28,1500.0,110.0
16:34:06.282,GUIDED,-35.3632619,149.1652379,2043,0.04152446612715721,-0.004241466987878084,0.02309940569102764,0.043751832097768784,-0.008797035552561283,0.0036377457436174154,0,-1,-1009,45,-7,2,2,16,-148,1500.0,110.0
16:34:06.484,GUIDED,-35.3632619,149.1652379,2043,0.04152446612715721,-0.004241466987878084,0.02309940569102764,0.043751832097768784,-0.008797035552561283,0.0036377457436174154,0,-2,-1003,44,-8,2,2,16,-148,1500.0,110.0
16:34:06.686,GUIDED,-35.3632618,149.1652385,2428,0.0519229993224144,-0.006712834816426039,0.023302532732486725,0.04036366567015648,-0.010310168378055096,0.003970895428210497,0,-5,-1000,41,-9,3,4,26,-148,1500.0,110.0
16:34:06.887,GUIDED,-35.3632618,149.1652385,2428,0.0519229993224144,-0.006712834816426039,0.023302532732486725,0.04036366567015648,-0.010310168378055096,0.003970895428210497,0,-5,-1000,41,-9,3,4,26,-148,1500.0,110.0
16:34:07.092,GUIDED,-35.3632618,149.1652385,2428,0.0519229993224144,-0.006712834816426039,0.023302532732486725,0.04036366567015648,-0.010310168378055096,0.003970895428210497,0,-5,-1000,41,-9,3,4,26,-148,1500.0,110.0
16:34:07.294,GUIDED,-35.3632618,149.1652385,2428,0.0519229993224144,-0.006712834816426039,0.023302532732486725,0.04036366567015648,-0.010310168378055096,0.003970895428210497,0,-5,-1000,41,-9,3,4,26,-148,1500.0,110.0
16:34:07.498,GUIDED,-35.3632618,149.1652385,2428,0.0519229993224144,-0.006712834816426039,0.023302532732486725,0.04036366567015648,-0.010310168378055096,0.003970895428210497,0,-5,-1000,41,-9,3,4,26,-148,1500.0,110.0
16:34:07.701,GUIDED,-35.3632618,149.1652385,2428,0.0519229993224144,-0.006712834816426039,0.023302532732486725,0.04036366567015648,-0.010310168378055096,0.003970895428210497,0,-5,-1000,41,-9,3,4,26,-148,1500.0,110.0
16:34:07.903,GUIDED,-35.3632618,149.1652385,2428,0.0519229993224144,-0.006712834816426039,0.023302532732486725,0.04036366567015648,-0.010310168378055096,0.003970895428210497,0,-5,-1000,41,-9,3,4,26,-148,1500.0,110.0
16:34:08.105,GUIDED,-35.3632618,149.1652385,2428,0.0519229993224144,-0.006712834816426039,0.023302532732486725,0.04036366567015648,-0.010310168378055096,0.003970895428210497,0,-5,-1000,41,-9,3,4,26,-148,1500.0,110.0
16:34:08.306,GUIDED,-35.3632609,149.1652446,4333,-0.032431747764348984,0.018092641606926918,-0.07375792413949966,-0.027500253170728683,-0.014545917510986328,-0.05143589526414871,5,-9,-1008,-27,-14,-52,0,39,-148,1500.0,110.0
16:34:08.508,GUIDED,-35.3632609,149.1652462,5109,-0.05065407231450081,0.006019576918333769,-0.08817283064126968,-0.06447179615497589,-0.03698926046490669,-0.010049697011709213,3,-4,-999,-63,-36,-11,-4,15,-149,1500.0,110.0
16:34:08.710,GUIDED,-35.363261,149.1652464,5494,-0.0699676051735878,-0.00427673477679491,-0.08717772364616394,-0.08426510542631149,-0.043592266738414764,0.008983654901385307,2,-1,-998,-83,-43,8,-4,0,-148,1500.0,110.0
16:34:08.913,GUIDED,-35.363261,149.1652464,5494,-0.0699676051735878,-0.00427673477679491,-0.08717772364616394,-0.08426510542631149,-0.043592266738414764,0.008983654901385307,2,-1,-998,-83,-43,8,-4,0,-148,1500.0,110.0
16:34:09.116,GUIDED,-35.363261,149.1652464,5494,-0.0699676051735878,-0.00427673477679491,-0.08717772364616394,-0.08426510542631149,-0.043592266738414764,0.008983654901385307,2,-1,-998,-83,-43,8,-4,0,-148,1500.0,110.0
16:34:09.318,GUIDED,-35.363261,149.1652464,5494,-0.0699676051735878,-0.00427673477679491,-0.08717772364616394,-0.08426510542631149,-0.043592266738414764,0.008983654901385307,2,-1,-998,-83,-43,8,-4,0,-148,1500.0,110.0
16:34:09.520,GUIDED,-35.363261,149.1652464,5494,-0.0699676051735878,-0.00427673477679491,-0.08717772364616394,-0.08426510542631149,-0.043592266738414764,0.008983654901385307,2,-1,-998,-83,-43,8,-4,0,-148,1500.0,110.0
16:34:09.722,GUIDED,-35.363261,149.1652464,5494,-0.0699676051735878,-0.00427673477679491,-0.08717772364616394,-0.08426510542631149,-0.043592266738414764,0.008983654901385307,2,-1,-998,-83,-43,8,-4,0,-148,1500.0,110.0
16:34:09.927,GUIDED,-35.363261,149.1652464,5494,-0.0699676051735878,-0.00427673477679491,-0.08717772364616394,-0.08426510542631149,-0.043592266738414764,0.008983654901385307,2,-1,-998,-83,-43,8,-4,0,-148,1500.0,110.0
16:34:10.131,GUIDED,-35.3632611,149.1652449,6492,-0.05384095013141632,-0.009151329286396503,-0.09196238964796066,0.05759783834218979,0.0022103514056652784,-0.002298135543242097,-4,7,-1001,58,2,-3,-2,-43,-149,1500.0,110.0
16:34:10.335,GUIDED,-35.3632613,149.1652387,8047,0.00978623516857624,0.0017211795784533024,-0.09280341118574142,0.06537170708179474,0.014543004333972931,0.003207575995475054,-7,12,-1004,65,14,2,-3,-57,-151,1500.0,110.0
16:34:10.537,GUIDED,-35.3632614,149.1652371,8439,0.026224303990602493,0.005148870404809713,-0.0919630154967308,0.06532089412212372,0.012954344972968102,0.0037579345516860485,-7,12,-1004,65,13,3,-5,-51,-152,1500.0,110.0
16:34:10.738,GUIDED,-35.3632614,149.1652371,8439,0.026224303990602493,0.005148870404809713,-0.0919630154967308,0.06532089412212372,0.012954344972968102,0.0037579345516860485,-7,12,-1004,65,13,3,-5,-51,-152,1500.0,110.0
16:34:10.946,GUIDED,-35.3632614,149.1652371,8439,0.026224303990602493,0.005148870404809713,-0.0919630154967308,0.06532089412212372,0.012954344972968102,0.0037579345516860485,-7,12,-1004,65,13,3,-5,-51,-152,1500.0,110.0
16:34:11.148,GUIDED,-35.3632614,149.1652371,8439,0.026224303990602493,0.005148870404809713,-0.0919630154967308,0.06532089412212372,0.012954344972968102,0.0037579345516860485,-7,12,-1004,65,13,3,-5,-51,-152,1500.0,110.0
16:34:11.349,GUIDED,-35.3632614,149.1652371,8439,0.026224303990602493,0.005148870404809713,-0.0919630154967308,0.06532089412212372,0.012954344972968102,0.0037579345516860485,-7,12,-1004,65,13,3,-5,-51,-152,1500.0,110.0
16:34:11.551,GUIDED,-35.3632614,149.1652371,8439,0.026224303990602493,0.005148870404809713,-0.0919630154967308,0.06532089412212372,0.012954344972968102,0.0037579345516860485,-7,12,-1004,65,13,3,-5,-51,-152,1500.0,110.0
16:34:11.754,GUIDED,-35.3632614,149.1652371,8439,0.026224303990602493,0.005148870404809713,-0.0919630154967308,0.06532089412212372,0.012954344972968102,0.0037579345516860485,-7,12,-1004,65,13,3,-5,-51,-152,1500.0,110.0
16:34:11.956,GUIDED,-35.3632614,149.1652371,8439,0.026224303990602493,0.005148870404809713,-0.0919630154967308,0.06532089412212372,0.012954344972968102,0.0037579345516860485,-7,12,-1004,65,13,3,-5,-51,-152,1500.0,110.0
16:34:12.158,GUIDED,-35.3632614,149.1652371,8439,0.026224303990602493,0.005148870404809713,-0.0919630154967308,0.06532089412212372,0.012954344972968102,0.0037579345516860485,-7,12,-1004,65,13,3,-5,-51,-152,1500.0,110.0
16:34:12.360,GUIDED,-35.3632624,149.1652353,11159,0.0005062732961960137,-0.0047620139084756374,-0.08384106308221817,-0.059074439108371735,2.349773421883583e-05,-0.017590973526239395,2,-4,-1002,-58,0,-18,0,22,-149,1500.0,110.0
16:34:12.562,GUIDED,-35.3632624,149.1652358,11545,-0.010518056340515614,-0.004575850907713175,-0.08975449949502945,-0.031332261860370636,0.0017471109749749303,-0.024078167974948883,2,-3,-1004,-30,1,-25,1,19,-150,1500.0,110.0
16:34:12.765,GUIDED,-35.3632624,149.1652358,11545,-0.010518056340515614,-0.004575850907713175,-0.08975449949502945,-0.031332261860370636,0.0017471109749749303,-0.024078167974948883,2,-3,-1004,-30,1,-25,1,19,-150,1500.0,110.0
16:34:12.969,GUIDED,-35.3632624,149.1652358,11545,-0.010518056340515614,-0.004575850907713175,-0.08975449949502945,-0.031332261860370636,0.0017471109749749303,-0.024078167974948883,2,-3,-1004,-30,1,-25,1,19,-150,1500.0,110.0
16:34:13.170,GUIDED,-35.3632624,149.1652358,11545,-0.010518056340515614,-0.004575850907713175,-0.08975449949502945,-0.031332261860370636,0.0017471109749749303,-0.024078167974948883,2,-3,-1004,-30,1,-25,1,19,-150,1500.0,110.0
16:34:13.373,GUIDED,-35.3632624,149.1652358,11545,-0.010518056340515614,-0.004575850907713175,-0.08975449949502945,-0.031332261860370636,0.0017471109749749303,-0.024078167974948883,2,-3,-1004,-30,1,-25,1,19,-150,1500.0,110.0
16:34:13.575,GUIDED,-35.3632624,149.1652358,11545,-0.010518056340515614,-0.004575850907713175,-0.08975449949502945,-0.031332261860370636,0.0017471109749749303,-0.024078167974948883,2,-3,-1004,-30,1,-25,1,19,-150,1500.0,110.0
16:34:13.778,GUIDED,-35.3632624,149.1652358,11545,-0.010518056340515614,-0.004575850907713175,-0.08975449949502945,-0.031332261860370636,0.0017471109749749303,-0.024078167974948883,2,-3,-1004,-30,1,-25,1,19,-150,1500.0,110.0
16:34:13.980,GUIDED,-35.3632624,149.1652358,11545,-0.010518056340515614,-0.004575850907713175,-0.08975449949502945,-0.031332261860370636,0.0017471109749749303,-0.024078167974948883,2,-3,-1004,-30,1,-25,1,19,-150,1500.0,110.0
16:34:14.183,GUIDED,-35.3632622,149.1652366,13102,-0.011159462854266167,-0.00016603642143309116,-0.11964914202690125,0.0188947431743145,0.006792576517909765,-0.02779967337846756,0,-1,-1001,12,6,-30,4,-1,-152,1500.0,110.0
16:34:14.385,GUIDED,-35.3632618,149.1652362,14276,0.0028571831062436104,0.004136516246944666,-0.1375293731689453,0.015515310689806938,0.005232714582234621,-0.019986484199762344,-2,1,-1000,15,5,-20,3,-6,-153,1500.0,110.0
16:34:14.586,GUIDED,-35.3632618,149.165236,14668,0.005931947845965624,0.00551014905795455,-0.14252983033657074,0.013133477419614792,0.005385056138038635,-0.01824827492237091,-1,0,-1000,13,5,-19,2,-6,-153,1500.0,110.0
16:34:14.788,GUIDED,-35.3632618,149.165236,14668,0.005931947845965624,0.00551014905795455,-0.14252983033657074,0.013133477419614792,0.005385056138038635,-0.01824827492237091,-1,0,-1000,13,5,-19,2,-6,-153,1500.0,110.0
16:34:14.992,GUIDED,-35.3632618,149.165236,14668,0.005931947845965624,0.00551014905795455,-0.14252983033657074,0.013133477419614792,0.005385056138038635,-0.01824827492237091,-1,0,-1000,13,5,-19,2,-6,-153,1500.0,110.0
16:34:15.195,GUIDED,-35.3632618,149.165236,14668,0.005931947845965624,0.00551014905795455,-0.14252983033657074,0.013133477419614792,0.005385056138038635,-0.01824827492237091,-1,0,-1000,13,5,-19,2,-6,-153,1500.0,110.0
16:34:15.397,GUIDED,-35.3632618,149.165236,14668,0.005931947845965624,0.00551014905795455,-0.14252983033657074,0.013133477419614792,0.005385056138038635,-0.01824827492237091,-1,0,-1000,13,5,-19,2,-6,-153,1500.0,110.0
16:34:15.600,GUIDED,-35.3632618,149.165236,14668,0.005931947845965624,0.00551014905795455,-0.14252983033657074,0.013133477419614792,0.005385056138038635,-0.01824827492237091,-1,0,-1000,13,5,-19,2,-6,-153,1500.0,110.0
16:34:15.804,GUIDED,-35.3632618,149.165236,14668,0.005931947845965624,0.00551014905795455,-0.14252983033657074,0.013133477419614792,0.005385056138038635,-0.01824827492237091,-1,0,-1000,13,5,-19,2,-6,-153,1500.0,110.0
16:34:16.006,GUIDED,-35.3632618,149.165236,14668,0.005931947845965624,0.00551014905795455,-0.14252983033657074,0.013133477419614792,0.005385056138038635,-0.01824827492237091,-1,0,-1000,13,5,-19,2,-6,-153,1500.0,110.0
16:34:16.207,GUIDED,-35.3632616,149.1652356,15842,0.010172868147492409,0.0066403415985405445,-0.15344275534152985,0.0019125626422464848,0.0012710632290691137,-0.013912790454924107,-1,0,-1000,2,1,-14,0,-1,-153,1500.0,110.0
16:34:16.413,GUIDED,-35.3632616,149.1652355,17412,0.0072978283278644085,0.0052612847648561,-0.16566526889801025,-0.004514523781836033,-0.0019195444183424115,-0.012688136659562588,0,0,-1000,-3,-1,-13,-2,4,-153,1500.0,110.0
16:34:16.615,GUIDED,-35.3632616,149.1652355,17802,0.006322045810520649,0.004795494489371777,-0.16916437447071075,-0.001218397868797183,-0.000894498429261148,-0.015609114430844784,0,0,-1000,0,0,-16,-3,5,-153,1500.0,110.0
16:34:16.817,GUIDED,-35.3632616,149.1652355,17802,0.006322045810520649,0.004795494489371777,-0.16916437447071075,-0.001218397868797183,-0.000894498429261148,-0.015609114430844784,0,0,-1000,0,0,-16,-3,5,-153,1500.0,110.0
16:34:17.023,GUIDED,-35.3632616,149.1652355,17802,0.006322045810520649,0.004795494489371777,-0.16916437447071075,-0.001218397868797183,-0.000894498429261148,-0.015609114430844784,0,0,-1000,0,0,-16,-3,5,-153,1500.0,110.0
16:34:17.226,GUIDED,-35.3632616,149.1652355,17802,0.006322045810520649,0.004795494489371777,-0.16916437447071075,-0.001218397868797183,-0.000894498429261148,-0.015609114430844784,0,0,-1000,0,0,-16,-3,5,-153,1500.0,110.0
16:34:17.428,GUIDED,-35.3632616,149.1652355,17802,0.006322045810520649,0.004795494489371777,-0.16916437447071075,-0.001218397868797183,-0.000894498429261148,-0.015609114430844784,0,0,-1000,0,0,-16,-3,5,-153,1500.0,110.0
16:34:17.633,GUIDED,-35.3632616,149.1652355,17802,0.006322045810520649,0.004795494489371777,-0.16916437447071075,-0.001218397868797183,-0.000894498429261148,-0.015609114430844784,0,0,-1000,0,0,-16,-3,5,-153,1500.0,110.0
16:34:17.836,GUIDED,-35.3632616,149.1652355,17802,0.006322045810520649,0.004795494489371777,-0.16916437447071075,-0.001218397868797183,-0.000894498429261148,-0.015609114430844784,0,0,-1000,0,0,-16,-3,5,-153,1500.0,110.0
16:34:18.039,GUIDED,-35.3632616,149.1652355,17802,0.006322045810520649,0.004795494489371777,-0.16916437447071075,-0.001218397868797183,-0.000894498429261148,-0.015609114430844784,0,0,-1000,0,0,-16,-3,5,-153,1500.0,110.0
16:34:18.242,GUIDED,-35.3632616,149.1652355,17802,0.006322045810520649,0.004795494489371777,-0.16916437447071075,-0.001218397868797183,-0.000894498429261148,-0.015609114430844784,0,0,-1000,0,0,-16,-3,5,-153,1500.0,110.0
16:34:18.445,GUIDED,-35.3632617,149.165236,19756,0.0029553608037531376,0.0037996808532625437,-0.19068604707717896,0.0004709611530415714,0.0007869387045502663,-0.019437365233898163,0,0,-1000,1,1,-20,-3,5,-153,1500.0,110.0
16:34:18.648,GUIDED,-35.3632617,149.1652362,20928,0.0026658845599740744,0.0033330246806144714,-0.20530717074871063,0.0010220140684396029,-0.0014857847709208727,-0.019825825467705727,0,0,-1000,1,-1,-20,-3,4,-153,1500.0,110.0
16:34:18.850,GUIDED,-35.3632617,149.1652362,20928,0.0026658845599740744,0.0033330246806144714,-0.20530717074871063,0.0010220140684396029,-0.0014857847709208727,-0.019825825467705727,0,0,-1000,1,-1,-20,-3,4,-153,1500.0,110.0
16:34:19.055,GUIDED,-35.3632617,149.1652362,20928,0.0026658845599740744,0.0033330246806144714,-0.20530717074871063,0.0010220140684396029,-0.0014857847709208727,-0.019825825467705727,0,0,-1000,1,-1,-20,-3,4,-153,1500.0,110.0
16:34:19.258,GUIDED,-35.3632617,149.1652362,20928,0.0026658845599740744,0.0033330246806144714,-0.20530717074871063,0.0010220140684396029,-0.0014857847709208727,-0.019825825467705727,0,0,-1000,1,-1,-20,-3,4,-153,1500.0,110.0
16:34:19.459,GUIDED,-35.3632617,149.1652362,20928,0.0026658845599740744,0.0033330246806144714,-0.20530717074871063,0.0010220140684396029,-0.0014857847709208727,-0.019825825467705727,0,0,-1000,1,-1,-20,-3,4,-153,1500.0,110.0
16:34:19.661,GUIDED,-35.3632617,149.1652362,20928,0.0026658845599740744,0.0033330246806144714,-0.20530717074871063,0.0010220140684396029,-0.0014857847709208727,-0.019825825467705727,0,0,-1000,1,-1,-20,-3,4,-153,1500.0,110.0
16:34:19.862,GUIDED,-35.3632617,149.1652362,20928,0.0026658845599740744,0.0033330246806144714,-0.20530717074871063,0.0010220140684396029,-0.0014857847709208727,-0.019825825467705727,0,0,-1000,1,-1,-20,-3,4,-153,1500.0,110.0
16:34:20.063,GUIDED,-35.3632617,149.1652362,20928,0.0026658845599740744,0.0033330246806144714,-0.20530717074871063,0.0010220140684396029,-0.0014857847709208727,-0.019825825467705727,0,0,-1000,1,-1,-20,-3,4,-153,1500.0,110.0
16:34:20.267,GUIDED,-35.3632618,149.1652366,23667,0.0024119061417877674,0.003015221329405904,-0.23997649550437927,-0.0012781715486198664,-0.0007853389251977205,-0.0194399356842041,0,0,-1000,1,1,-21,-2,3,-153,1500.0,110.0
16:34:20.469,GUIDED,-35.3632618,149.1652366,23667,0.0024119061417877674,0.003015221329405904,-0.23997649550437927,-0.0012781715486198664,-0.0007853389251977205,-0.0194399356842041,0,0,-999,0,0,-19,-2,3,-153,1500.0,110.0
16:34:20.670,GUIDED,-35.3632618,149.1652366,24058,0.0025703422725200653,0.0027229597326368093,-0.24469821155071259,0.0012793319765478373,-0.0009064322803169489,-0.020623331889510155,0,0,-1000,2,0,-21,-2,2,-153,1500.0,110.0
16:34:20.873,GUIDED,-35.3632618,149.1652366,24058,0.0025703422725200653,0.0027229597326368093,-0.24469821155071259,0.0012793319765478373,-0.0009064322803169489,-0.020623331889510155,0,0,-1000,2,0,-21,-2,2,-153,1500.0,110.0
16:34:21.078,GUIDED,-35.3632618,149.1652366,24058,0.0025703422725200653,0.0027229597326368093,-0.24469821155071259,0.0012793319765478373,-0.0009064322803169489,-0.020623331889510155,0,0,-1000,2,0,-21,-2,2,-153,1500.0,110.0
16:34:21.280,GUIDED,-35.3632618,149.1652366,24058,0.0025703422725200653,0.0027229597326368093,-0.24469821155071259,0.0012793319765478373,-0.0009064322803169489,-0.020623331889510155,0,0,-1000,2,0,-21,-2,2,-153,1500.0,110.0
16:34:21.482,GUIDED,-35.3632618,149.1652366,24058,0.0025703422725200653,0.0027229597326368093,-0.24469821155071259,0.0012793319765478373,-0.0009064322803169489,-0.020623331889510155,0,0,-1000,2,0,-21,-2,2,-153,1500.0,110.0
16:34:21.683,GUIDED,-35.3632618,149.1652366,24058,0.0025703422725200653,0.0027229597326368093,-0.24469821155071259,0.0012793319765478373,-0.0009064322803169489,-0.020623331889510155,0,0,-1000,2,0,-21,-2,2,-153,1500.0,110.0
16:34:21.886,GUIDED,-35.3632618,149.1652366,24058,0.0025703422725200653,0.0027229597326368093,-0.24469821155071259,0.0012793319765478373,-0.0009064322803169489,-0.020623331889510155,0,0,-1000,2,0,-21,-2,2,-153,1500.0,110.0
16:34:22.090,GUIDED,-35.3632618,149.1652366,24058,0.0025703422725200653,0.0027229597326368093,-0.24469821155071259,0.0012793319765478373,-0.0009064322803169489,-0.020623331889510155,0,0,-1000,2,0,-21,-2,2,-153,1500.0,110.0
16:34:22.293,GUIDED,-35.363262,149.1652366,26011,-0.0016107921255752444,0.00471424451097846,-0.2514859139919281,0.03576415032148361,-0.0017371458234265447,0.01914573460817337,0,0,-1002,36,-1,18,-4,-2,-153,1500.0,110.0
16:34:22.497,GUIDED,-35.3632622,149.1652365,26793,0.010604155249893665,0.0030377821531146765,-0.23927053809165955,0.009702449664473534,-0.004923698026686907,0.0254611074924469,0,0,-1000,10,-4,24,-5,0,-153,1500.0,110.0
16:34:22.699,GUIDED,-35.3632623,149.1652365,27183,0.01219297293573618,0.0020614515524357557,-0.23268653452396393,0.003501276718452573,-0.0024653784930706024,0.026051189750432968,0,0,-999,4,-1,25,-4,2,-153,1500.0,110.0
16:34:22.900,GUIDED,-35.3632623,149.1652365,27183,0.01219297293573618,0.0020614515524357557,-0.23268653452396393,0.003501276718452573,-0.0024653784930706024,0.026051189750432968,0,0,-999,4,-1,25,-4,2,-153,1500.0,110.0
16:34:23.104,GUIDED,-35.3632623,149.1652365,27183,0.01219297293573618,0.0020614515524357557,-0.23268653452396393,0.003501276718452573,-0.0024653784930706024,0.026051189750432968,0,0,-999,4,-1,25,-4,2,-153,1500.0,110.0
16:34:23.306,GUIDED,-35.3632623,149.1652365,27183,0.01219297293573618,0.0020614515524357557,-0.23268653452396393,0.003501276718452573,-0.0024653784930706024,0.026051189750432968,0,0,-999,4,-1,25,-4,2,-153,1500.0,110.0
16:34:23.510,GUIDED,-35.3632623,149.1652365,27183,0.01219297293573618,0.0020614515524357557,-0.23268653452396393,0.003501276718452573,-0.0024653784930706024,0.026051189750432968,0,0,-999,4,-1,25,-4,2,-153,1500.0,110.0
16:34:23.714,GUIDED,-35.3632623,149.1652365,27183,0.01219297293573618,0.0020614515524357557,-0.23268653452396393,0.003501276718452573,-0.0024653784930706024,0.026051189750432968,0,0,-999,4,-1,25,-4,2,-153,1500.0,110.0
16:34:23.915,GUIDED,-35.3632623,149.1652365,27183,0.01219297293573618,0.0020614515524357557,-0.23268653452396393,0.003501276718452573,-0.0024653784930706024,0.026051189750432968,0,0,-999,4,-1,25,-4,2,-153,1500.0,110.0
16:34:24.117,GUIDED,-35.3632623,149.1652365,27183,0.01219297293573618,0.0020614515524357557,-0.23268653452396393,0.003501276718452573,-0.0024653784930706024,0.026051189750432968,0,0,-999,4,-1,25,-4,2,-153,1500.0,110.0
16:34:24.319,GUIDED,-35.3632624,149.1652372,29513,0.0028746898751705885,0.0017901320243254304,-0.19909322261810303,-0.005966431926935911,0.0021209092810750008,0.021772945299744606,0,-1,-1000,-5,3,21,0,8,-153,1500.0,110.0
16:34:24.522,GUIDED,-35.3632624,149.1652375,30291,0.0005555941024795175,0.0018897572299465537,-0.18964403867721558,-0.005720238201320171,-0.0005105675663799047,0.019327329471707344,0,-1,-1001,-3,0,19,0,7,-153,1500.0,110.0
16:34:24.724,GUIDED,-35.3632624,149.1652375,30291,0.0005555941024795175,0.0018897572299465537,-0.18964403867721558,-0.005720238201320171,-0.0005105675663799047,0.019327329471707344,0,-1,-1000,-5,0,18,0,7,-153,1500.0,110.0
16:34:24.926,GUIDED,-35.3632624,149.1652375,30291,0.0005555941024795175,0.0018897572299465537,-0.18964403867721558,-0.005720238201320171,-0.0005105675663799047,0.019327329471707344,0,-1,-1000,-5,0,18,0,7,-153,1500.0,110.0
16:34:25.132,GUIDED,-35.3632624,149.1652375,30291,0.0005555941024795175,0.0018897572299465537,-0.18964403867721558,-0.005720238201320171,-0.0005105675663799047,0.019327329471707344,0,-1,-1000,-5,0,18,0,7,-153,1500.0,110.0
16:34:25.333,GUIDED,-35.3632624,149.1652375,30291,0.0005555941024795175,0.0018897572299465537,-0.18964403867721558,-0.005720238201320171,-0.0005105675663799047,0.019327329471707344,0,-1,-1000,-5,0,18,0,7,-153,1500.0,110.0
16:34:25.536,GUIDED,-35.3632624,149.1652375,30291,0.0005555941024795175,0.0018897572299465537,-0.18964403867721558,-0.005720238201320171,-0.0005105675663799047,0.019327329471707344,0,-1,-1000,-5,0,18,0,7,-153,1500.0,110.0
16:34:25.739,GUIDED,-35.3632624,149.1652375,30291,0.0005555941024795175,0.0018897572299465537,-0.18964403867721558,-0.005720238201320171,-0.0005105675663799047,0.019327329471707344,0,-1,-1000,-5,0,18,0,7,-153,1500.0,110.0
16:34:25.944,GUIDED,-35.3632624,149.1652375,30291,0.0005555941024795175,0.0018897572299465537,-0.18964403867721558,-0.005720238201320171,-0.0005105675663799047,0.019327329471707344,0,-1,-1000,-5,0,18,0,7,-153,1500.0,110.0
16:34:26.146,GUIDED,-35.3632624,149.1652375,30291,0.0005555941024795175,0.0018897572299465537,-0.18964403867721558,-0.005720238201320171,-0.0005105675663799047,0.019327329471707344,0,-1,-1000,-5,0,18,0,7,-153,1500.0,110.0
16:34:26.349,GUIDED,-35.3632623,149.165238,32628,0.0003322277043480426,0.0011884926352649927,-0.16504788398742676,-0.0019394587725400925,0.0005848665023222566,0.014098338782787323,0,0,-1001,6,0,16,0,1,-153,1500.0,110.0
16:34:26.552,GUIDED,-35.3632623,149.165238,33407,0.0010987268760800362,0.001042372896336019,-0.15788602828979492,0.006108191329985857,0.0013286765897646546,0.01574028469622135,0,0,-1000,6,2,15,0,0,-153,1500.0,110.0
16:34:26.753,GUIDED,-35.3632623,149.165238,33407,0.0010987268760800362,0.001042372896336019,-0.15788602828979492,0.006108191329985857,0.0013286765897646546,0.01574028469622135,0,0,-1000,6,2,15,0,0,-153,1500.0,110.0
16:34:26.956,GUIDED,-35.3632623,149.165238,33407,0.0010987268760800362,0.001042372896336019,-0.15788602828979492,0.006108191329985857,0.0013286765897646546,0.01574028469622135,0,0,-1000,6,2,15,0,0,-153,1500.0,110.0
16:34:27.161,GUIDED,-35.3632623,149.165238,33407,0.0010987268760800362,0.001042372896336019,-0.15788602828979492,0.006108191329985857,0.0013286765897646546,0.01574028469622135,0,0,-1000,6,2,15,0,0,-153,1500.0,110.0
16:34:27.363,GUIDED,-35.3632623,149.165238,33407,0.0010987268760800362,0.001042372896336019,-0.15788602828979492,0.006108191329985857,0.0013286765897646546,0.01574028469622135,0,0,-1000,6,2,15,0,0,-153,1500.0,110.0
16:34:27.566,GUIDED,-35.3632623,149.165238,33407,0.0010987268760800362,0.001042372896336019,-0.15788602828979492,0.006108191329985857,0.0013286765897646546,0.01574028469622135,0,0,-1000,6,2,15,0,0,-153,1500.0,110.0
16:34:27.768,GUIDED,-35.3632623,149.165238,33407,0.0010987268760800362,0.001042372896336019,-0.15788602828979492,0.006108191329985857,0.0013286765897646546,0.01574028469622135,0,0,-1000,6,2,15,0,0,-153,1500.0,110.0
16:34:27.972,GUIDED,-35.3632623,149.165238,33407,0.0010987268760800362,0.001042372896336019,-0.15788602828979492,0.006108191329985857,0.0013286765897646546,0.01574028469622135,0,0,-1000,6,2,15,0,0,-153,1500.0,110.0
16:34:28.174,GUIDED,-35.3632622,149.165238,34811,0.0018629481783136725,0.0013039072509855032,-0.1463778018951416,0.004613527096807957,0.00023921695537865162,0.013174441643059254,0,0,-1001,5,1,12,0,0,-153,1500.0,110.0
16:34:28.376,GUIDED,-35.3632622,149.1652379,35983,0.0019308411283418536,0.0009494205587543547,-0.13766178488731384,8.74125980772078e-05,-0.0001274521928280592,0.010759511031210423,0,0,-1000,0,0,10,0,0,-153,1500.0,110.0
16:34:28.577,GUIDED,-35.3632622,149.1652378,36373,0.0023391845170408487,0.0011947661405429244,-0.1351119726896286,0.00367391062900424,0.0018336409702897072,0.011030320078134537,0,0,-1000,4,2,10,0,0,-153,1500.0,110.0
16:34:28.778,GUIDED,-35.3632622,149.1652378,36373,0.0023391845170408487,0.0011947661405429244,-0.1351119726896286,0.00367391062900424,0.0018336409702897072,0.011030320078134537,0,0,-1000,4,2,10,0,0,-153,1500.0,110.0
16:34:28.980,GUIDED,-35.3632622,149.1652378,36373,0.0023391845170408487,0.0011947661405429244,-0.1351119726896286,0.00367391062900424,0.0018336409702897072,0.011030320078134537,0,0,-1000,4,2,10,0,0,-153,1500.0,110.0
16:34:29.182,GUIDED,-35.3632622,149.1652378,36373,0.0023391845170408487,0.0011947661405429244,-0.1351119726896286,0.00367391062900424,0.0018336409702897072,0.011030320078134537,0,0,-1000,4,2,10,0,0,-153,1500.0,110.0
16:34:29.383,GUIDED,-35.3632622,149.1652378,36373,0.0023391845170408487,0.0011947661405429244,-0.1351119726896286,0.00367391062900424,0.0018336409702897072,0.011030320078134537,0,0,-1000,4,2,10,0,0,-153,1500.0,110.0
16:34:29.584,GUIDED,-35.3632622,149.1652378,36373,0.0023391845170408487,0.0011947661405429244,-0.1351119726896286,0.00367391062900424,0.0018336409702897072,0.011030320078134537,0,0,-1000,4,2,10,0,0,-153,1500.0,110.0
16:34:29.787,GUIDED,-35.3632622,149.1652378,36373,0.0023391845170408487,0.0011947661405429244,-0.1351119726896286,0.00367391062900424,0.0018336409702897072,0.011030320078134537,0,0,-1000,4,2,10,0,0,-153,1500.0,110.0
16:34:29.987,GUIDED,-35.3632622,149.1652378,36373,0.0023391845170408487,0.0011947661405429244,-0.1351119726896286,0.00367391062900424,0.0018336409702897072,0.011030320078134537,0,0,-1000,4,2,10,0,0,-153,1500.0,110.0
16:34:30.191,GUIDED,-35.3632622,149.1652377,37538,0.002908440073952079,0.001383222988806665,-0.12786905467510223,0.00396413030102849,0.0019705179147422314,0.00985665712505579,0,0,-1000,4,2,9,0,0,-153,1500.0,110.0
16:34:30.392,GUIDED,-35.3632621,149.1652375,39095,0.002806803211569786,0.0014143536100164056,-0.11901360750198364,-0.0026029059663414955,0.0005824855761602521,0.008234241046011448,0,0,-1000,-1,1,8,0,0,-153,1500.0,110.0
16:34:30.594,GUIDED,-35.3632621,149.1652375,39485,0.0029416086617857218,0.0014506708830595016,-0.11704467236995697,0.002640813123434782,0.001023398246616125,0.009262547828257084,0,0,-1000,3,1,9,0,0,-153,1500.0,110.0
16:34:30.796,GUIDED,-35.3632621,149.1652375,39485,0.0029416086617857218,0.0014506708830595016,-0.11704467236995697,0.002640813123434782,0.001023398246616125,0.009262547828257084,0,0,-1000,3,1,9,0,0,-153,1500.0,110.0
16:34:31.000,GUIDED,-35.3632621,149.1652375,39485,0.0029416086617857218,0.0014506708830595016,-0.11704467236995697,0.002640813123434782,0.001023398246616125,0.009262547828257084,0,0,-1000,3,1,9,0,0,-153,1500.0,110.0
16:34:31.203,GUIDED,-35.3632621,149.1652375,39485,0.0029416086617857218,0.0014506708830595016,-0.11704467236995697,0.002640813123434782,0.001023398246616125,0.009262547828257084,0,0,-1000,3,1,9,0,0,-153,1500.0,110.0
16:34:31.405,GUIDED,-35.3632621,149.1652375,39485,0.0029416086617857218,0.0014506708830595016,-0.11704467236995697,0.002640813123434782,0.001023398246616125,0.009262547828257084,0,0,-1000,3,1,9,0,0,-153,1500.0,110.0
16:34:31.607,GUIDED,-35.3632621,149.1652375,39485,0.0029416086617857218,0.0014506708830595016,-0.11704467236995697,0.002640813123434782,0.001023398246616125,0.009262547828257084,0,0,-1000,3,1,9,0,0,-153,1500.0,110.0
16:34:31.809,GUIDED,-35.3632621,149.1652375,39485,0.0029416086617857218,0.0014506708830595016,-0.11704467236995697,0.002640813123434782,0.001023398246616125,0.009262547828257084,0,0,-1000,3,1,9,0,0,-153,1500.0,110.0
16:34:32.010,GUIDED,-35.3632621,149.1652375,39485,0.0029416086617857218,0.0014506708830595016,-0.11704467236995697,0.002640813123434782,0.001023398246616125,0.009262547828257084,0,0,-1000,3,1,9,0,0,-153,1500.0,110.0
16:34:32.213,GUIDED,-35.3632621,149.1652374,41046,0.0024794305209070444,0.0010671488707885146,-0.10794313997030258,-0.004170828033238649,-0.0010994788026437163,0.007485562935471535,0,0,-999,2,2,9,0,0,-153,1500.0,110.0
16:34:32.416,GUIDED,-35.3632621,149.1652374,42214,0.0026936440262943506,0.0012952813412994146,-0.10473944246768951,0.00329865631647408,0.003718269057571888,0.008213574066758156,0,0,-1000,4,4,8,0,1,-153,1500.0,110.0
16:34:32.617,GUIDED,-35.3632621,149.1652374,42611,0.0025477809831500053,0.0014696071157231927,-0.1031704843044281,-0.002438806463032961,0.0010031209094449878,0.006509826518595219,0,0,-1000,-1,1,6,0,1,-153,1500.0,110.0
16:34:32.820,GUIDED,-35.3632621,149.1652374,42611,0.0025477809831500053,0.0014696071157231927,-0.1031704843044281,-0.002438806463032961,0.0010031209094449878,0.006509826518595219,0,0,-1000,-1,1,6,0,1,-153,1500.0,110.0
16:34:33.025,GUIDED,-35.3632621,149.1652374,42611,0.0025477809831500053,0.0014696071157231927,-0.1031704843044281,-0.002438806463032961,0.0010031209094449878,0.006509826518595219,0,0,-1000,-1,1,6,0,1,-153,1500.0,110.0
16:34:33.228,GUIDED,-35.3632621,149.1652374,42611,0.0025477809831500053,0.0014696071157231927,-0.1031704843044281,-0.002438806463032961,0.0010031209094449878,0.006509826518595219,0,0,-1000,-1,1,6,0,1,-153,1500.0,110.0
16:34:33.431,GUIDED,-35.3632621,149.1652374,42611,0.0025477809831500053,0.0014696071157231927,-0.1031704843044281,-0.002438806463032961,0.0010031209094449878,0.006509826518595219,0,0,-1000,-1,1,6,0,1,-153,1500.0,110.0
16:34:33.633,GUIDED,-35.3632621,149.1652374,42611,0.0025477809831500053,0.0014696071157231927,-0.1031704843044281,-0.002438806463032961,0.0010031209094449878,0.006509826518595219,0,0,-1000,-1,1,6,0,1,-153,1500.0,110.0
16:34:33.836,GUIDED,-35.3632621,149.1652374,42611,0.0025477809831500053,0.0014696071157231927,-0.1031704843044281,-0.002438806463032961,0.0010031209094449878,0.006509826518595219,0,0,-1000,-1,1,6,0,1,-153,1500.0,110.0
16:34:34.047,GUIDED,-35.3632621,149.1652374,42611,0.0025477809831500053,0.0014696071157231927,-0.1031704843044281,-0.002438806463032961,0.0010031209094449878,0.006509826518595219,0,0,-1000,-1,1,6,0,1,-153,1500.0,110.0
16:34:34.249,GUIDED,-35.363262,149.1652373,44161,0.002328550908714533,0.001297681243158877,-0.09706160426139832,0.0018122723558917642,-0.0006312791956588626,0.006598754320293665,0,0,-1000,2,0,6,-1,1,-153,1500.0,110.0
16:34:34.451,GUIDED,-35.363262,149.1652373,45329,0.0020444588735699654,0.0010120022343471646,-0.09274949133396149,-0.0009901529410853982,2.7396599762141705e-06,0.0037485253997147083,0,0,-1000,0,0,3,-1,1,-153,1500.0,110.0
16:34:34.652,GUIDED,-35.363262,149.1652373,45719,0.00209099636413157,0.0009654402383603156,-0.09122835844755173,0.0027493215166032314,-0.0009618870099075139,0.007075561210513115,0,0,-1001,3,0,7,-1,1,-153,1500.0,110.0
16:34:34.854,GUIDED,-35.363262,149.1652373,45719,0.00209099636413157,0.0009654402383603156,-0.09122835844755173,0.0027493215166032314,-0.0009618870099075139,0.007075561210513115,0,0,-1001,3,0,7,-1,1,-153,1500.0,110.0
16:34:35.063,GUIDED,-35.363262,149.1652373,45719,0.00209099636413157,0.0009654402383603156,-0.09122835844755173,0.0027493215166032314,-0.0009618870099075139,0.007075561210513115,0,0,-1001,3,0,7,-1,1,-153,1500.0,110.0
16:34:35.264,GUIDED,-35.363262,149.1652373,45719,0.00209099636413157,0.0009654402383603156,-0.09122835844755173,0.0027493215166032314,-0.0009618870099075139,0.007075561210513115,0,0,-1001,3,0,7,-1,1,-153,1500.0,110.0
16:34:35.466,GUIDED,-35.363262,149.1652373,45719,0.00209099636413157,0.0009654402383603156,-0.09122835844755173,0.0027493215166032314,-0.0009618870099075139,0.007075561210513115,0,0,-1001,3,0,7,-1,1,-153,1500.0,110.0
16:34:35.668,GUIDED,-35.363262,149.1652373,45719,0.00209099636413157,0.0009654402383603156,-0.09122835844755173,0.0027493215166032314,-0.0009618870099075139,0.007075561210513115,0,0,-1001,3,0,7,-1,1,-153,1500.0,110.0
16:34:35.869,GUIDED,-35.363262,149.1652373,45719,0.00209099636413157,0.0009654402383603156,-0.09122835844755173,0.0027493215166032314,-0.0009618870099075139,0.007075561210513115,0,0,-1001,3,0,7,-1,1,-153,1500.0,110.0
16:34:36.071,GUIDED,-35.363262,149.1652373,45719,0.00209099636413157,0.0009654402383603156,-0.09122835844755173,0.0027493215166032314,-0.0009618870099075139,0.007075561210513115,0,0,-1001,3,0,7,-1,1,-153,1500.0,110.0
16:34:36.275,GUIDED,-35.363262,149.1652372,47666,0.0030590847600251436,0.0009969589300453663,-0.08430926501750946,0.001564900390803814,0.0002127318293787539,0.00925577525049448,0,0,-1000,0,0,6,-1,1,-153,1500.0,110.0
16:34:36.476,GUIDED,-35.363262,149.1652372,48444,0.002805424388498068,0.0009706101845949888,-0.0819002240896225,0.003559703240171075,0.00036024930886924267,0.0055787586607038975,0,0,-1000,4,1,5,-1,1,-153,1500.0,110.0
16:34:36.677,GUIDED,-35.363262,149.1652372,48834,0.002589183859527111,0.0008984639425761998,-0.08074207603931427,-5.49759715795517e-06,-5.362939555197954e-05,0.0038908515125513077,0,0,-1000,1,1,3,-1,1,-153,1500.0,110.0
16:34:36.880,GUIDED,-35.363262,149.1652372,48834,0.002589183859527111,0.0008984639425761998,-0.08074207603931427,-5.49759715795517e-06,-5.362939555197954e-05,0.0038908515125513077,0,0,-1000,1,1,3,-1,1,-153,1500.0,110.0
16:34:37.082,GUIDED,-35.363262,149.1652372,48834,0.002589183859527111,0.0008984639425761998,-0.08074207603931427,-5.49759715795517e-06,-5.362939555197954e-05,0.0038908515125513077,0,0,-1000,1,1,3,-1,1,-153,1500.0,110.0
16:34:37.283,GUIDED,-35.363262,149.1652372,48834,0.002589183859527111,0.0008984639425761998,-0.08074207603931427,-5.49759715795517e-06,-5.362939555197954e-05,0.0038908515125513077,0,0,-1000,1,1,3,-1,1,-153,1500.0,110.0
16:34:37.485,GUIDED,-35.363262,149.1652372,48834,0.002589183859527111,0.0008984639425761998,-0.08074207603931427,-5.49759715795517e-06,-5.362939555197954e-05,0.0038908515125513077,0,0,-1000,1,1,3,-1,1,-153,1500.0,110.0
16:34:37.686,GUIDED,-35.363262,149.1652372,48834,0.002589183859527111,0.0008984639425761998,-0.08074207603931427,-5.49759715795517e-06,-5.362939555197954e-05,0.0038908515125513077,0,0,-1000,1,1,3,-1,1,-153,1500.0,110.0
16:34:37.888,GUIDED,-35.363262,149.1652372,48834,0.002589183859527111,0.0008984639425761998,-0.08074207603931427,-5.49759715795517e-06,-5.362939555197954e-05,0.0038908515125513077,0,0,-1000,1,1,3,-1,1,-153,1500.0,110.0
16:34:38.089,GUIDED,-35.363262,149.1652372,48834,0.002589183859527111,0.0008984639425761998,-0.08074207603931427,-5.49759715795517e-06,-5.362939555197954e-05,0.0038908515125513077,0,0,-1000,1,1,3,-1,1,-153,1500.0,110.0
16:34:38.291,GUIDED,-35.363262,149.1652372,50002,0.0024061535950750113,0.0010264263255521655,-0.07721256464719772,-0.002545858733355999,6.48883287794888e-05,0.0033667711541056633,0,0,-1000,-1,1,3,-1,1,-153,1500.0,110.0
16:34:38.493,GUIDED,-35.363262,149.1652372,51567,0.0022799603175371885,0.0010222138371318579,-0.07181306183338165,0.0024227616377174854,0.001731681521050632,0.005160116124898195,0,0,-1000,3,2,5,-1,1,-153,1500.0,110.0
16:34:38.697,LAND,-35.363262,149.1652372,51957,0.0020981745328754187,0.0009256989578716457,-0.07071276754140854,-0.004725471138954163,-0.0008719475590623915,0.004718374460935593,0,0,-999,-3,0,4,-1,1,-153,1500.0,110.0
16:34:38.901,LAND,-35.363262,149.1652372,51957,0.0020981745328754187,0.0009256989578716457,-0.07071276754140854,-0.004725471138954163,-0.0008719475590623915,0.004718374460935593,0,0,-999,-3,0,4,-1,1,-153,1500.0,110.0
16:34:39.102,LAND,-35.363262,149.1652372,51957,0.0020981745328754187,0.0009256989578716457,-0.07071276754140854,-0.004725471138954163,-0.0008719475590623915,0.004718374460935593,0,0,-999,-3,0,4,-1,1,-153,1500.0,110.0
16:34:39.307,LAND,-35.363262,149.1652372,51957,0.0020981745328754187,0.0009256989578716457,-0.07071276754140854,-0.004725471138954163,-0.0008719475590623915,0.004718374460935593,0,0,-999,-3,0,4,-1,1,-153,1500.0,110.0
16:34:39.515,LAND,-35.363262,149.1652372,51957,0.0020981745328754187,0.0009256989578716457,-0.07071276754140854,-0.004725471138954163,-0.0008719475590623915,0.004718374460935593,0,0,-999,-3,0,4,-1,1,-153,1500.0,110.0
16:34:39.719,LAND,-35.363262,149.1652372,51957,0.0020981745328754187,0.0009256989578716457,-0.07071276754140854,-0.004725471138954163,-0.0008719475590623915,0.004718374460935593,0,0,-999,-3,0,4,-1,1,-153,1500.0,110.0
16:34:39.921,LAND,-35.363262,149.1652372,51957,0.0020981745328754187,0.0009256989578716457,-0.07071276754140854,-0.004725471138954163,-0.0008719475590623915,0.004718374460935593,0,0,-999,-3,0,4,-1,1,-153,1500.0,110.0
16:34:40.127,LAND,-35.363262,149.1652372,51957,0.0020981745328754187,0.0009256989578716457,-0.07071276754140854,-0.004725471138954163,-0.0008719475590623915,0.004718374460935593,0,0,-999,-3,0,4,-1,1,-153,1500.0,110.0
16:34:40.330,LAND,-35.363262,149.1652372,53125,0.0016611773753538728,0.0006936292629688978,-0.06774721294641495,0.0004191874759271741,0.0009115651482716203,0.00556284049525857,0,0,-999,1,1,5,-1,1,-153,1500.0,110.0
16:34:40.532,LAND,-35.3632629,149.165236,54865,-0.04433489218354225,0.03302114084362984,0.27902838587760925,0.09742005914449692,-0.227361798286438,0.2463691234588623,2,5,-907,-2,-86,447,-30,-35,-94,1500.0,30.0
16:34:40.734,LAND,-35.3632629,149.165236,54865,-0.04433489218354225,0.03302114084362984,0.27902838587760925,0.09742005914449692,-0.227361798286438,0.2463691234588623,3,8,-906,98,-226,246,-30,-35,-94,1500.0,30.0
16:34:40.936,LAND,-35.3632629,149.165236,54865,-0.04433489218354225,0.03302114084362984,0.27902838587760925,0.09742005914449692,-0.227361798286438,0.2463691234588623,3,8,-906,98,-226,246,-30,-35,-94,1500.0,30.0
16:34:41.137,LAND,-35.3632629,149.165236,54865,-0.04433489218354225,0.03302114084362984,0.27902838587760925,0.09742005914449692,-0.227361798286438,0.2463691234588623,3,8,-906,98,-226,246,-30,-35,-94,1500.0,30.0
16:34:41.339,LAND,-35.3632629,149.165236,54865,-0.04433489218354225,0.03302114084362984,0.27902838587760925,0.09742005914449692,-0.227361798286438,0.2463691234588623,3,8,-906,98,-226,246,-30,-35,-94,1500.0,30.0
16:34:41.541,LAND,-35.3632629,149.165236,54865,-0.04433489218354225,0.03302114084362984,0.27902838587760925,0.09742005914449692,-0.227361798286438,0.2463691234588623,3,8,-906,98,-226,246,-30,-35,-94,1500.0,30.0
16:34:41.742,LAND,-35.3632629,149.165236,54865,-0.04433489218354225,0.03302114084362984,0.27902838587760925,0.09742005914449692,-0.227361798286438,0.2463691234588623,3,8,-906,98,-226,246,-30,-35,-94,1500.0,30.0
16:34:41.947,LAND,-35.3632629,149.165236,54865,-0.04433489218354225,0.03302114084362984,0.27902838587760925,0.09742005914449692,-0.227361798286438,0.2463691234588623,3,8,-906,98,-226,246,-30,-35,-94,1500.0,30.0
16:34:42.149,LAND,-35.3632629,149.165236,54865,-0.04433489218354225,0.03302114084362984,0.27902838587760925,0.09742005914449692,-0.227361798286438,0.2463691234588623,3,8,-906,98,-226,246,-30,-35,-94,1500.0,30.0
16:34:42.352,LAND,-35.3632646,149.1652322,55436,0.03962806239724159,-0.0512438528239727,0.3341079652309418,0.37412747740745544,0.03220129758119583,-0.030181724578142166,-1,35,-903,380,33,-29,5,0,1,1500.0,30.0
16:34:42.577,LAND,-35.3632638,149.165233,55262,0.04638795182108879,-0.018155789002776146,0.304193377494812,0.9213557839393616,0.048149947077035904,-0.03406896814703941,-2,13,-965,920,48,-33,19,26,38,1500.0,30.0
16:34:42.782,LAND,-35.3632638,149.165233,55262,0.04638795182108879,-0.018155789002776146,0.304193377494812,0.9213557839393616,0.048149947077035904,-0.03406896814703941,-2,13,-965,920,48,-33,19,26,38,1500.0,30.0
16:34:42.995,LAND,-35.3632638,149.165233,55262,0.04638795182108879,-0.018155789002776146,0.304193377494812,0.9213557839393616,0.048149947077035904,-0.03406896814703941,-2,13,-965,920,48,-33,19,26,38,1500.0,30.0
16:34:43.208,LAND,-35.3632638,149.165233,55262,0.04638795182108879,-0.018155789002776146,0.304193377494812,0.9213557839393616,0.048149947077035904,-0.03406896814703941,-2,13,-965,920,48,-33,19,26,38,1500.0,30.0
16:34:43.411,LAND,-35.3632638,149.165233,55262,0.04638795182108879,-0.018155789002776146,0.304193377494812,0.9213557839393616,0.048149947077035904,-0.03406896814703941,-2,13,-965,920,48,-33,19,26,38,1500.0,30.0
16:34:43.612,LAND,-35.3632638,149.165233,55262,0.04638795182108879,-0.018155789002776146,0.304193377494812,0.9213557839393616,0.048149947077035904,-0.03406896814703941,-2,13,-965,920,48,-33,19,26,38,1500.0,30.0
16:34:43.814,LAND,-35.3632638,149.165233,55262,0.04638795182108879,-0.018155789002776146,0.304193377494812,0.9213557839393616,0.048149947077035904,-0.03406896814703941,-2,13,-965,920,48,-33,19,26,38,1500.0,30.0
16:34:44.017,LAND,-35.3632638,149.165233,55262,0.04638795182108879,-0.018155789002776146,0.304193377494812,0.9213557839393616,0.048149947077035904,-0.03406896814703941,-2,13,-965,920,48,-33,19,26,38,1500.0,30.0
16:34:44.220,LAND,-35.3632638,149.165233,55262,0.04638795182108879,-0.018155789002776146,0.304193377494812,0.9213557839393616,0.048149947077035904,-0.03406896814703941,-2,13,-965,920,48,-33,19,26,38,1500.0,30.0
16:34:44.424,LAND,-35.3632613,149.1652371,54283,0.021915890276432037,0.013261445797979832,0.25035807490348816,1.0289915800094604,-0.00017392821609973907,-0.013533265329897404,2,16,-994,1026,0,-13,9,26,75,1500.0,30.0
16:34:44.626,LAND,-35.363261,149.1652377,53902,0.014387493021786213,0.0100047392770648,0.23768417537212372,0.19649842381477356,-0.009324190206825733,-0.02287444658577442,-1,-25,-1007,191,-8,-22,3,18,67,1500.0,30.0
16:34:44.829,LAND,-35.363261,149.1652377,53902,0.014387493021786213,0.0100047392770648,0.23768417537212372,0.19649842381477356,-0.009324190206825733,-0.02287444658577442,-1,-25,-1007,191,-8,-22,3,18,67,1500.0,30.0
16:34:45.036,LAND,-35.363261,149.1652377,53902,0.014387493021786213,0.0100047392770648,0.23768417537212372,0.19649842381477356,-0.009324190206825733,-0.02287444658577442,-1,-25,-1007,191,-8,-22,3,18,67,1500.0,30.0
16:34:45.239,LAND,-35.363261,149.1652377,53902,0.014387493021786213,0.0100047392770648,0.23768417537212372,0.19649842381477356,-0.009324190206825733,-0.02287444658577442,-1,-25,-1007,191,-8,-22,3,18,67,1500.0,30.0
16:34:45.441,LAND,-35.363261,149.1652377,53902,0.014387493021786213,0.0100047392770648,0.23768417537212372,0.19649842381477356,-0.009324190206825733,-0.02287444658577442,-1,-25,-1007,191,-8,-22,3,18,67,1500.0,30.0
16:34:45.647,LAND,-35.363261,149.1652377,53902,0.014387493021786213,0.0100047392770648,0.23768417537212372,0.19649842381477356,-0.009324190206825733,-0.02287444658577442,-1,-25,-1007,191,-8,-22,3,18,67,1500.0,30.0
16:34:45.849,LAND,-35.363261,149.1652377,53902,0.014387493021786213,0.0100047392770648,0.23768417537212372,0.19649842381477356,-0.009324190206825733,-0.02287444658577442,-1,-25,-1007,191,-8,-22,3,18,67,1500.0,30.0
16:34:46.051,LAND,-35.363261,149.1652377,53902,0.014387493021786213,0.0100047392770648,0.23768417537212372,0.19649842381477356,-0.009324190206825733,-0.02287444658577442,-1,-25,-1007,191,-8,-22,3,18,67,1500.0,30.0
16:34:46.253,LAND,-35.3632608,149.1652376,53568,0.0045142583549022675,0.0026264179032295942,0.22367173433303833,-0.8024440407752991,-0.012528905645012856,-0.02193659171462059,-1,-25,-1007,191,-8,-22,-3,13,14,1500.0,30.0
16:34:46.456,LAND,-35.3632608,149.1652369,53425,0.029288457706570625,-0.0036352896131575108,0.20217595994472504,0.7156484723091125,-0.010036149993538857,-0.02957097254693508,-1,20,-1002,716,-9,-28,-6,15,10,1500.0,30.0
16:34:46.668,LAND,-35.3632609,149.1652366,53386,0.02988806553184986,-0.0053089335560798645,0.19667045772075653,0.2777707874774933,-0.007029122672975063,-0.03527951240539551,0,-3,-986,275,-5,-34,-6,15,13,1500.0,30.0
16:34:46.869,LAND,-35.3632609,149.1652366,53386,0.02988806553184986,-0.0053089335560798645,0.19667045772075653,0.2777707874774933,-0.007029122672975063,-0.03527951240539551,0,-3,-986,275,-5,-34,-6,15,13,1500.0,30.0
16:34:47.073,LAND,-35.3632609,149.1652366,53386,0.02988806553184986,-0.0053089335560798645,0.19667045772075653,0.2777707874774933,-0.007029122672975063,-0.03527951240539551,0,-3,-986,275,-5,-34,-6,15,13,1500.0,30.0
16:34:47.280,LAND,-35.3632609,149.1652366,53386,0.02988806553184986,-0.0053089335560798645,0.19667045772075653,0.2777707874774933,-0.007029122672975063,-0.03527951240539551,0,-3,-986,275,-5,-34,-6,15,13,1500.0,30.0
16:34:47.483,LAND,-35.3632609,149.1652366,53386,0.02988806553184986,-0.0053089335560798645,0.19667045772075653,0.2777707874774933,-0.007029122672975063,-0.03527951240539551,0,-3,-986,275,-5,-34,-6,15,13,1500.0,30.0
16:34:47.686,LAND,-35.3632609,149.1652366,53386,0.02988806553184986,-0.0053089335560798645,0.19667045772075653,0.2777707874774933,-0.007029122672975063,-0.03527951240539551,0,-3,-986,275,-5,-34,-6,15,13,1500.0,30.0
16:34:47.888,LAND,-35.3632609,149.1652366,53386,0.02988806553184986,-0.0053089335560798645,0.19667045772075653,0.2777707874774933,-0.007029122672975063,-0.03527951240539551,0,-3,-986,275,-5,-34,-6,15,13,1500.0,30.0
16:34:48.090,LAND,-35.3632609,149.1652366,53386,0.02988806553184986,-0.0053089335560798645,0.19667045772075653,0.2777707874774933,-0.007029122672975063,-0.03527951240539551,0,-3,-986,275,-5,-34,-6,15,13,1500.0,30.0
16:34:48.293,LAND,-35.3632614,149.1652359,53112,0.015355519950389862,-0.0053224810399115086,0.16644500195980072,0.47517845034599304,0.0028806733898818493,-0.01517730113118887,1,19,-991,-204,0,-15,-4,21,16,1500.0,30.0
16:34:48.495,LAND,-35.3632615,149.1652359,53062,0.02185477875173092,-0.0047421688213944435,0.16168680787086487,0.841011106967926,-0.000618651625700295,-0.01961098238825798,0,44,-996,845,0,-19,-3,21,16,1500.0,30.0
16:34:48.697,LAND,-35.3632615,149.1652359,53011,0.02381405606865883,-0.00519643584266305,0.1575274020433426,0.6021732091903687,-0.007309800945222378,-0.02191751077771187,0,15,-1014,602,-6,-21,-3,20,16,1500.0,30.0
16:34:48.899,LAND,-35.3632615,149.1652359,53011,0.02381405606865883,-0.00519643584266305,0.1575274020433426,0.6021732091903687,-0.007309800945222378,-0.02191751077771187,0,15,-1014,602,-6,-21,-3,20,16,1500.0,30.0
16:34:49.101,LAND,-35.3632615,149.1652359,53011,0.02381405606865883,-0.00519643584266305,0.1575274020433426,0.6021732091903687,-0.007309800945222378,-0.02191751077771187,0,15,-1014,602,-6,-21,-3,20,16,1500.0,30.0
16:34:49.305,LAND,-35.3632615,149.1652359,53011,0.02381405606865883,-0.00519643584266305,0.1575274020433426,0.6021732091903687,-0.007309800945222378,-0.02191751077771187,0,15,-1014,602,-6,-21,-3,20,16,1500.0,30.0
16:34:49.508,LAND,-35.3632615,149.1652359,53011,0.02381405606865883,-0.00519643584266305,0.1575274020433426,0.6021732091903687,-0.007309800945222378,-0.02191751077771187,0,15,-1014,602,-6,-21,-3,20,16,1500.0,30.0
16:34:49.710,LAND,-35.3632615,149.1652359,53011,0.02381405606865883,-0.00519643584266305,0.1575274020433426,0.6021732091903687,-0.007309800945222378,-0.02191751077771187,0,15,-1014,602,-6,-21,-3,20,16,1500.0,30.0
16:34:49.912,LAND,-35.3632615,149.1652359,53011,0.02381405606865883,-0.00519643584266305,0.1575274020433426,0.6021732091903687,-0.007309800945222378,-0.02191751077771187,0,15,-1014,602,-6,-21,-3,20,16,1500.0,30.0
16:34:50.114,LAND,-35.3632615,149.1652359,53011,0.02381405606865883,-0.00519643584266305,0.1575274020433426,0.6021732091903687,-0.007309800945222378,-0.02191751077771187,0,15,-1014,602,-6,-21,-3,20,16,1500.0,30.0
16:34:50.317,LAND,-35.3632618,149.1652361,52778,0.0045904419384896755,-0.0037806935142725706,0.14096799492835999,-0.7331583499908447,0.003922046162188053,-0.01627112179994583,3,-44,-998,-734,4,-15,0,16,16,1500.0,30.0
16:34:50.524,LAND,-35.363262,149.1652368,52624,-0.001999286003410816,-0.0024000799749046564,0.13087692856788635,0.2722621262073517,0.0011042447295039892,-0.013543110340833664,3,28,-1021,279,1,-13,0,15,17,1500.0,30.0
16:34:50.731,LAND,-35.363262,149.1652368,52624,-0.001999286003410816,-0.0024000799749046564,0.13087692856788635,0.2722621262073517,0.0011042447295039892,-0.013543110340833664,3,28,-1021,279,1,-13,0,15,17,1500.0,30.0
16:34:50.964,LAND,-35.363262,149.1652368,52624,-0.001999286003410816,-0.0024000799749046564,0.13087692856788635,0.2722621262073517,0.0011042447295039892,-0.013543110340833664,3,28,-1021,279,1,-13,0,15,17,1500.0,30.0
16:34:51.200,LAND,-35.363262,149.1652368,52624,-0.001999286003410816,-0.0024000799749046564,0.13087692856788635,0.2722621262073517,0.0011042447295039892,-0.013543110340833664,3,28,-1021,279,1,-13,0,15,17,1500.0,30.0
16:34:51.405,LAND,-35.363262,149.1652368,52624,-0.001999286003410816,-0.0024000799749046564,0.13087692856788635,0.2722621262073517,0.0011042447295039892,-0.013543110340833664,3,28,-1021,279,1,-13,0,15,17,1500.0,30.0
16:34:51.608,LAND,-35.363262,149.1652368,52624,-0.001999286003410816,-0.0024000799749046564,0.13087692856788635,0.2722621262073517,0.0011042447295039892,-0.013543110340833664,3,28,-1021,279,1,-13,0,15,17,1500.0,30.0
16:34:51.811,LAND,-35.363262,149.1652368,52624,-0.001999286003410816,-0.0024000799749046564,0.13087692856788635,0.2722621262073517,0.0011042447295039892,-0.013543110340833664,3,28,-1021,279,1,-13,0,15,17,1500.0,30.0
16:34:52.013,LAND,-35.363262,149.1652368,52624,-0.001999286003410816,-0.0024000799749046564,0.13087692856788635,0.2722621262073517,0.0011042447295039892,-0.013543110340833664,3,28,-1021,279,1,-13,0,15,17,1500.0,30.0
16:34:52.215,LAND,-35.363262,149.1652368,52624,-0.001999286003410816,-0.0024000799749046564,0.13087692856788635,0.2722621262073517,0.0011042447295039892,-0.013543110340833664,3,28,-1021,279,1,-13,0,15,17,1500.0,30.0
16:34:52.417,LAND,-35.3632623,149.1652379,52376,-0.01602286845445633,-0.004165251739323139,0.11752787232398987,-0.8998023271560669,-0.00917700957506895,-0.012139527127146721,1,-41,-990,-898,-8,-11,1,2,19,1500.0,30.0
16:34:52.619,LAND,-35.3632623,149.1652379,52220,0.00291640916839242,-0.004171885550022125,0.11042553186416626,0.800547182559967,-0.003586860839277506,-0.006283970549702644,-1,43,-987,805,-2,-5,2,0,18,1500.0,200.0
16:34:52.822,LAND,-35.3632623,149.1652379,52220,0.00291640916839242,-0.004171885550022125,0.11042553186416626,0.800547182559967,-0.003586860839277506,-0.006283970549702644,-1,43,-987,805,-2,-5,2,0,18,1500.0,200.0
16:34:53.025,LAND,-35.3632623,149.1652379,52220,0.00291640916839242,-0.004171885550022125,0.11042553186416626,0.800547182559967,-0.003586860839277506,-0.006283970549702644,-1,43,-987,805,-2,-5,2,0,18,1500.0,200.0
16:34:53.228,LAND,-35.3632623,149.1652379,52220,0.00291640916839242,-0.004171885550022125,0.11042553186416626,0.800547182559967,-0.003586860839277506,-0.006283970549702644,-1,43,-987,805,-2,-5,2,0,18,1500.0,200.0
16:34:53.431,LAND,-35.3632623,149.1652379,52220,0.00291640916839242,-0.004171885550022125,0.11042553186416626,0.800547182559967,-0.003586860839277506,-0.006283970549702644,-1,43,-987,805,-2,-5,2,0,18,1500.0,200.0
16:34:53.635,LAND,-35.3632623,149.1652379,52220,0.00291640916839242,-0.004171885550022125,0.11042553186416626,0.800547182559967,-0.003586860839277506,-0.006283970549702644,-1,43,-987,805,-2,-5,2,0,18,1500.0,200.0
16:34:53.837,LAND,-35.3632623,149.1652379,52220,0.00291640916839242,-0.004171885550022125,0.11042553186416626,0.800547182559967,-0.003586860839277506,-0.006283970549702644,-1,43,-987,805,-2,-5,2,0,18,1500.0,200.0
