time_stamp,roll,pitch,yaw,rollspeed,pitchspeed,yawspeed,MODE,lat,lon,relative_alt,vx,vy,vz,xacc,yacc,zacc,xgyro,ygyro,zgyro,RTL_ALT
03:11:37,-0.0008929565665312111,0.000977261457592249,0.022048253566026688,0.0027942266315221786,0.0003067671786993742,0.0015666383551433682,AUTO,-35.3632622,149.1652375,7.5,-1.0,1.5,-0.5,0.0,15.0,-980.0,2.0,1.0,1.0,81918.5
03:11:39,-0.0007284067978616804,0.0012510782107710838,0.02166200801730156,0.0002540334826335311,0.00029283095500431955,0.0014771951246075332,AUTO,-35.3632621,149.1652375,5.0,0.0,0.0,0.0,0.0,1.0,-1000.0,0.5,0.0,0.0,162337.0
03:11:40,-0.0004824016650673002,0.0015336541400756687,0.021378351841121912,0.00036810775054618716,0.00027109259099233896,0.0014349421835504472,AUTO,-35.3632621,149.1652374,5.0,0.0,0.0,0.0,0.0,1.5,-1000.0,0.25,0.0,0.5,5286.0
03:11:41,0.0012460478174034506,0.0011000909435097128,0.02126061264425516,0.0005078644899185747,0.0022519794292747974,0.001955450978130102,AUTO,-35.3632621,149.16523745,142.0,0.0,0.0,-44.0,0.0,0.5,-1064.5,1.0,2.0,0.5,5286.0
03:11:43,0.0477487538009882,-0.0035590421175584197,0.002861690241843462,-0.012250781059265137,0.0342903402633965,-0.044143801904283464,AUTO,-35.36326175,149.16523899999999,2531.5,5.5,30.5,-148.0,0.0,-5.5,-997.0,-11.5,35.0,-44.5,60716.5
03:11:45,-0.08372847735881805,0.004842306021600962,-0.08481115102767944,0.013785055838525295,-0.010346000082790852,-0.030123423784971237,AUTO,-35.3632609,149.1652452,4997.0,-2.0,-4.0,-150.0,1.0,-1.0,-1005.0,14.0,-9.0,-30.0,116147.0
03:11:46,-0.015496517647989094,0.004908438364509493,-0.10181687958538532,0.0664985291659832,0.008315046201460063,-0.0025377822312293574,AUTO,-35.3632616,149.165239725,6884.5,-12.0,-58.0,-150.5,-5.25,12.5,-1002.5,66.5,8.5,-2.5,85647.0
03:11:47,0.035185981541872025,0.010804960504174232,-0.10126020386815071,0.06660373881459236,0.003765052300877869,0.0037562836660072207,AUTO,-35.3632627,149.16523505,8048.5,-19.0,-44.5,-152.5,-2.5,10.5,-1003.5,67.0,4.0,2.5,85647.0
03:11:49,-0.020134327933192253,-0.0035452591255307198,-0.08502942075332005,-0.019223798687259357,0.056102112556497254,-0.0790380264321963,AUTO,-35.36326256666667,149.16523553333332,11539.333333333334,30.333333333333332,12.0,-150.66666666666666,-3.3333333333333335,-6.666666666666667,-1004.6666666666666,-18.666666666666668,56.333333333333336,-79.0,166368.0
03:11:51,0.014214448630809784,0.017510952427983284,-0.15829282999038696,0.0002935286611318588,-0.011956549249589443,0.00107486080378294,AUTO,-35.36326005,149.16523445,14883.0,-9.0,0.5,-152.5,0.5,1.5,-998.5,1.0,-11.0,0.5,247089.0
03:11:52,0.007344319892581552,0.004455621266970411,-0.1572844162583351,-0.009430404868908226,-0.010075382771901786,-0.006379197235219181,AUTO,-35.363260999999994,149.165234725,16433.5,-13.25,10.0,-152.0,2.75,0.0,-1000.0,-8.25,-8.5,-6.25,121569.0
03:11:53,0.001553267939016223,-0.0013078402262181044,-0.16305583715438843,-0.006755950395017862,-0.006252395920455456,-0.015140296891331673,AUTO,-35.3632616,149.1652353,17405.0,-10.0,11.0,-152.0,2.0,0.0,-1000.0,-6.0,-5.0,-15.0,121569.0
03:11:55,0.002351978444494307,0.0010150487360078841,-0.2131781205534935,0.004169064341112971,0.004099171725101769,-0.026315883733332157,AUTO,-35.3632622,149.1652362,20482.0,-0.5,2.0,-153.0,0.0,0.0,-1000.0,4.5,4.0,-26.0,174690.0
03:11:57,0.0035135509679093957,0.0032993339700624347,-0.25814078748226166,-0.0008953874930739403,-0.00011178679415024817,-0.01776622049510479,AUTO,-35.3632622,149.16523635,23602.0,-1.0,4.0,-153.0,0.0,0.0,-1000.0,-0.5,0.5,-17.5,227811.0
03:11:58,-0.0037482606421690434,0.0054050496546551585,-0.27075572311878204,0.006108440109528601,0.0017546071321703494,0.011171736288815737,AUTO,-35.3632621,149.16523662499998,25551.0,-2.75,1.5,-152.5,0.0,0.0,-1001.0,6.75,2.75,10.75,272919.0
03:11:59,0.008157260017469525,0.004033682052977383,-0.25246747583150864,0.011510760057717562,-0.005033261375501752,0.02963444497436285,AUTO,-35.363262250000005,149.1652366,26717.5,-5.0,0.5,-153.0,0.0,0.0,-999.5,12.0,-3.5,29.0,272919.0
03:12:01,0.0007103930256562307,0.001483128929976374,-0.2058921754360199,-0.0037708100862801075,0.0012597180611919612,0.019461327232420444,AUTO,-35.3632624,149.1652375,29817.0,0.0,7.0,-153.0,0.5,-1.0,-1000.0,-2.5,1.5,19.0,255009.5
03:12:03,-0.024526801891624928,-0.00016370881348848343,0.17502086609601974,0.11764641478657722,-0.17113885283470154,0.081865050829947,AUTO,-35.36326385,149.1652363,32651.5,-32.0,-34.5,-97.5,3.5,9.5,-941.0,118.0,-170.0,81.0,237100.0
03:12:04,0.037869695108383894,-0.037849714513868093,0.1516711413860321,-0.06029960699379444,0.03460933570750058,-0.02534715970978141,AUTO,-35.3632652,149.165233575,33547.5,10.25,4.75,-53.25,-1.75,-4.0,-988.75,-59.25,35.25,-24.5,39826.0
03:12:05,0.025004051625728607,-0.008075897698290646,0.13653171062469482,0.22793007642030716,0.03554561734199524,-0.014321914874017239,AUTO,-35.363264,149.16523454999998,33927.0,23.5,25.5,-48.5,-2.5,6.5,-990.5,229.0,36.0,-14.0,39826.0
03:12:07,-0.007480872794985771,0.017514437902718782,0.11346236616373062,-0.2946932092308998,-0.07033863104879856,-0.007877667434513569,AUTO,-35.36326115,149.16523915,34282.0,-6.0,0.5,6.0,1.5,-5.5,-1002.0,-293.5,-69.0,-7.5,165244.0
03:12:09,0.08796011656522751,-0.07456260919570923,0.7190644443035126,-0.008475139737129211,-0.018698296509683132,0.8144752085208893,AUTO,-35.3632615,149.16525055,34429.0,12.0,119.5,-25.0,-4.5,-38.5,-1021.5,-8.0,-18.0,814.0,290662.0
03:12:10,0.01767930423375219,-0.16263796389102936,1.5547598600387573,0.003505527100060135,-0.027785273268818855,0.3977064215578139,AUTO,-35.36325955000001,149.16527762500002,34869.25,27.0,255.25,-49.0,-56.75,-30.25,-1027.0,4.25,-27.0,397.5,18227.0
03:12:11,0.013238849584013224,-0.1722971349954605,1.6395748257637024,0.0036180615425109863,0.004663386702304706,-0.11381601542234421,AUTO,-35.36325765,149.1653029,35280.5,34.0,344.5,-65.0,-72.0,-30.5,-1027.5,4.5,5.0,-113.0,18227.0
03:12:13,0.05666666105389595,-0.10581883415579796,1.4506755471229553,0.01682057062862441,0.02151556219905615,-0.13381464034318924,AUTO,-35.36325025,149.16539699999998,36992.5,50.5,462.5,-97.0,-95.0,-56.0,-1002.5,17.0,22.0,-133.5,27775.0
03:12:15,0.11891090124845505,-0.07197746820747852,1.1958884596824646,-0.02065883798059076,0.06683240830898285,-0.011156935477629304,AUTO,-35.363241099999996,149.16551095,38497.0,42.5,562.0,-77.5,-79.0,-100.0,-1031.5,-19.5,67.0,-11.5,37323.0
03:12:16,0.08046860992908478,-0.022870835731737316,1.2328774333000183,-0.03508268669247627,0.04699918837286532,0.03606804693117738,AUTO,-35.363238025,149.16558757500002,39731.75,18.75,529.75,-115.0,-89.0,-88.5,-1027.25,-34.25,47.5,35.5,11633.0
03:12:17,0.05480224825441837,0.0005139670101925731,1.256384015083313,-0.041669055819511414,0.028074483620002866,0.03169853426516056,AUTO,-35.36323695,149.1656302,40685.5,17.5,482.0,-135.5,-70.0,-88.5,-1017.0,-40.5,28.5,31.5,11633.0
03:12:19,0.04602817818522453,0.10247147083282471,1.6739882230758667,-0.12293852493166924,0.14393482729792595,-0.024065500358119607,AUTO,-35.36323565,149.16572105,43174.0,-11.5,323.5,-72.0,-67.5,-37.5,-945.0,-122.0,144.5,-23.5,49624.5
03:12:21,0.014659462962299585,0.04949367046356201,1.6269371509552002,0.19451332837343216,-0.05274735577404499,-0.001737147686071694,AUTO,-35.36323275,149.16575925,43633.0,32.0,54.5,-18.5,-17.0,-1.5,-1020.5,194.5,-51.0,-1.5,87616.0
03:12:22,0.023401375859975815,0.023051309399306774,1.6146661937236786,0.07843561097979546,-0.01017118664458394,-0.010735793737694621,AUTO,-35.36322935,149.1657633,43839.5,18.0,9.5,-5.75,-6.0,1.5,-984.0,78.75,-8.75,-10.5,113578.0
03:12:23,0.021311050280928612,0.01607458246871829,1.6075581908226013,0.257083211094141,-0.008548485348001122,-0.010008950717747211,AUTO,-35.363228050000004,149.16576394999998,43867.0,5.5,-2.5,0.0,-2.0,26.0,-997.0,258.5,-6.5,-9.5,113578.0
03:12:25,0.004871251090662554,0.015867440961301327,1.5916908383369446,-0.5484155714511871,0.004378751269541681,-0.0018135937862098217,RTL,-35.363227050000006,149.1657647,43861.5,-6.0,-4.0,-3.5,-1.5,-23.0,-1018.0,-547.0,5.5,-1.0,103854.0
03:12:27,0.003174919867888093,0.013800808228552341,1.5795202255249023,-0.09684906154870987,0.0022169057046994567,-0.003186257788911462,RTL,-35.363227249999994,149.16576525,44529.0,-5.5,-11.0,-68.5,0.0,-3.0,-1036.5,-96.0,3.5,-2.5,94130.0
03:12:28,0.0009725861600600183,0.011910487897694111,1.5726215541362762,0.010927252122201025,0.0010603473929222673,-0.003372667997609824,RTL,-35.3632275,149.165765125,45694.0,-3.25,-10.75,-114.25,0.0,0.75,-1040.0,12.25,2.25,-2.5,6926.0
03:12:29,0.003894038964062929,0.010592505801469088,1.5681302547454834,0.01786246942356229,-0.0008979522972367704,-0.005269739078357816,RTL,-35.3632275,149.165765,46660.5,-2.0,-10.0,-141.5,0.0,0.0,-1028.0,18.5,1.0,-4.5,6926.0
03:12:31,-0.009235241159331053,0.0072365934029221535,1.527131974697113,-0.06283202394843102,-0.0020263175247237086,-0.03256179206073284,RTL,-35.363230099999996,149.16576485000002,49701.0,-29.5,-2.5,-149.0,3.0,-5.0,-1001.5,-61.0,0.0,-32.0,127158.5
03:12:33,-0.022300805896520615,0.005032293265685439,1.4759337902069092,0.03912346065044403,-0.0025573321618139744,0.0011324274819344282,RTL,-35.3632282,149.16576465,52779.0,43.0,-6.0,-150.5,-3.0,8.0,-1001.0,40.0,-1.0,2.0,247391.0
03:12:34,0.03939915169030428,0.0013096380280330777,1.549693763256073,0.03728427609894425,-0.025197757640853524,0.042441176949068904,RTL,-35.363223399999995,149.1657632,54687.25,23.5,-12.0,-146.25,-1.25,7.0,-997.25,38.0,-23.0,43.0,188064.0
03:12:35,0.04572129435837269,-0.00999000808224082,1.5501614809036255,-0.023185109719634056,0.007039280608296394,-0.012262118980288506,RTL,-35.3632225,149.16576235000002,55810.5,-11.0,-2.5,-147.5,0.5,0.0,-1005.0,-21.5,8.0,-11.5,188064.0
03:12:37,-0.004920024424791336,0.011201035231351852,1.5410104393959045,-0.006764003541320562,0.002371723181568086,-0.0021331230527721345,RTL,-35.36322665,149.1657635,58855.0,-24.0,6.5,-149.0,0.5,-5.5,-1000.0,-4.5,3.5,-1.0,195062.5
03:12:39,-0.001636264263652265,0.006415852112695575,1.534325659275055,0.0030061957077123225,-0.003843320533633232,-0.00337052543181926,RTL,-35.3632284,149.1657641,61885.0,-3.0,0.0,-148.0,0.0,0.0,-1002.0,4.0,-1.5,-2.0,202061.0
03:12:40,0.0019673138158395886,0.005249968613497913,1.5305385291576385,0.005283370177494362,-0.00022242928389459848,-0.001661961548961699,RTL,-35.36322835,149.1657641,63785.0,0.0,0.0,-150.25,0.0,0.0,-1003.0,6.5,1.0,-0.75,255481.0
03:12:41,0.018726239446550608,0.0033749593421816826,1.5289261937141418,0.04706393927335739,-0.007167489500716329,0.00029762879421468824,RTL,-35.3632283,149.1657641,64940.0,-3.0,0.0,-152.5,0.0,0.0,-1004.0,48.0,-4.5,0.5,255481.0
03:12:43,-0.06335322372615337,0.016946746967732906,1.4691352248191833,-0.0928660836070776,-0.026974540203809738,-0.030126995407044888,RTL,-35.363233550000004,149.16576544999998,68040.0,-31.5,1.5,-150.5,4.0,-8.0,-1009.5,-91.0,-24.5,-29.0,202331.5
03:12:45,-0.02062384830787778,0.01292232470586896,1.447107195854187,0.07493326812982559,0.016446859575808048,0.0016991241718642414,RTL,-35.36322675,149.16576379999998,71101.5,82.5,-20.0,-151.0,-8.0,17.0,-1004.5,76.0,17.5,2.0,149182.0
03:12:46,0.08350820187479258,-0.027154244715347886,1.437131643295288,0.0697062211111188,-0.08174370508641005,0.021016970742493868,RTL,-35.3632195,149.165760175,73052.0,24.5,-19.25,-153.5,-0.75,10.5,-1002.0,70.5,-79.5,22.0,154369.0
03:12:47,0.11214492470026016,-0.061591723933815956,1.465625822544098,0.0008444339036941528,0.025241969153285027,0.010429834946990013,RTL,-35.3632195,149.16576014999998,74213.0,-42.5,29.5,-149.0,-0.5,-7.0,-995.0,2.5,27.5,11.5,154369.0
03:12:49,-0.09933416172862053,0.039853792637586594,1.2663347721099854,0.005617617629468441,-0.01327372808009386,-0.05472336523234844,RTL,-35.363231999999996,149.16577035,77239.0,-25.0,6.0,-155.5,4.5,-9.5,-1006.5,7.5,-11.0,-53.0,145878.5
03:12:51,0.008786712773144245,0.012338678585365415,1.25003319978714,0.04155205748975277,-0.03728835005313158,0.07538454234600067,RTL,-35.3632272,149.16576315,80348.5,40.0,-56.0,-152.0,1.5,15.5,-1000.0,43.0,-35.0,76.5,137388.0
03:12:52,0.04396679811179638,-0.05307102296501398,1.4421905875205994,0.03301722044125199,-0.02798617840744555,0.16362511925399303,RTL,-35.3632246,149.16575797500002,82285.75,2.25,-8.75,-152.75,1.25,4.5,-1001.0,34.25,-25.75,164.25,186106.0
03:12:53,0.037675218656659126,-0.03383244015276432,1.5256462693214417,-0.06615279987454414,0.1127466931939125,0.03421630151569843,RTL,-35.36322495,149.16575890000001,83441.5,-25.0,36.0,-148.5,-4.5,-7.5,-995.5,-64.0,114.0,35.0,186106.0
03:12:55,0.002040037768892944,0.014882728923112154,1.584632933139801,0.006823635194450617,-0.016656655818223953,-0.013683437835425138,RTL,-35.36322765,149.1657645,86463.5,-6.5,3.0,-148.0,0.0,-1.0,-1000.5,8.0,-14.0,-12.0,99692.5
03:12:57,0.0019469152321107686,0.0064278708305209875,1.5716562271118164,0.001072028069756925,0.0005016105715185404,-0.006579241249710321,RTL,-35.3632281,149.1657647,89499.5,-4.5,0.0,-149.0,0.0,0.0,-1000.0,2.5,2.0,-5.0,13279.0
03:12:58,0.001702446345007047,0.0062794850673526525,1.564926028251648,0.000740078481612727,-0.0005063540884293616,-0.004523421288467944,RTL,-35.36322815,149.165764675,91396.75,-2.0,-1.0,-149.0,0.0,0.0,-999.5,2.5,1.25,-2.75,258944.0
03:12:59,0.01611301116645336,0.003567288280464709,1.5620452165603638,0.04668518342077732,-0.007663958007469773,-0.0009658755152486265,RTL,-35.3632281,149.1657646,92543.5,-3.5,-0.5,-152.5,0.0,0.0,-1006.5,48.0,-5.5,0.5,258944.0
03:13:01,-0.05616717413067818,0.01956844562664628,1.4979462027549744,-0.11458242312073708,-0.03191712871193886,-0.034732069820165634,RTL,-35.3632334,149.16576555,95625.5,-36.5,0.0,-150.0,4.5,-7.5,-1008.5,-112.0,-29.5,-33.0,227275.5
03:13:03,0.004186891485005617,0.009527910500764847,1.4712378978729248,0.0658520869910717,0.008553233463317156,0.0007791931857354939,RTL,-35.363228750000005,149.16576435000002,98729.5,54.0,-13.0,-153.5,-5.0,11.5,-1003.5,67.0,10.0,1.5,195607.0
03:13:04,0.041540530510246754,-0.016982852248474956,1.502720206975937,-0.04048079578205943,-0.03665917553007603,0.049373958143405616,RTL,-35.363225275000005,149.16576245000002,100684.0,1.25,-9.0,-152.5,0.0,2.75,-997.0,-38.0,-34.5,50.75,30325.0
03:13:05,-0.008180036442354321,-0.012889051344245672,1.5076810121536255,-0.07932565733790398,0.04946233332157135,-0.04945715144276619,RTL,-35.3632255,149.1657626,101840.5,-10.0,13.5,-150.0,-0.5,-4.0,-1000.0,-77.0,51.0,-47.5,30325.0
03:13:07,0.019389698281884193,0.017764322459697723,1.4399978518486023,0.01863898290321231,-0.0027939354768022895,-0.003431905643083155,RTL,-35.36322335,149.165765,104948.5,12.5,-2.0,-153.5,-2.0,2.5,-999.0,20.0,-0.5,-2.0,110242.5
03:13:09,0.013960598036646843,0.005634470144286752,1.4218788743019104,-0.022234617732465267,-0.0011980634881183505,-0.026552335359156132,RTL,-35.363224450000004,149.1657643,108065.5,-26.0,-2.5,-152.0,3.5,-3.5,-1000.0,-19.5,0.5,-24.5,190160.0
03:13:10,-0.003855564573314041,0.008565528434701264,1.3922832608222961,-0.0049747112789191306,0.006120086589362472,-0.005622270778985694,RTL,-35.363227125,149.16576435000002,110001.75,-20.5,0.25,-152.0,2.0,-4.0,-999.75,-2.5,8.0,-4.0,183197.0
03:13:11,0.0048526969767408445,0.00783780962228775,1.3919519782066345,0.04144929349422455,-0.012630369048565626,0.002687037456780672,RTL,-35.36322835,149.1657644,111167.0,-15.0,0.0,-153.5,1.5,-2.0,-1002.5,43.0,-10.0,3.5,183197.0
03:13:13,-0.04207816161215305,0.0067687619011849165,1.3423948884010315,0.005625455407425761,-0.004699532059021294,-0.024843708612024784,RTL,-35.3632317,149.1657652,114270.0,0.0,-2.0,-152.5,0.5,-0.5,-1002.5,8.0,-2.0,-22.5,209851.0
03:13:15,0.008542735129594803,0.00334378972183913,1.3260257840156555,0.028814636170864105,-0.000583855202421546,0.0035878365160897374,RTL,-35.3632276,149.16576375,117385.0,27.5,-9.5,-153.0,-2.5,6.0,-1000.5,30.0,1.5,5.0,236505.0
03:13:16,0.021401659585535526,0.006940636201761663,1.3532760739326477,-0.004864246468059719,0.004781239258591086,0.04401866067200899,RTL,-35.363225625,149.165762975,119326.75,3.0,-3.75,-151.75,-0.75,1.5,-999.0,-2.5,6.75,45.25,263434.0
03:13:17,0.022157564759254456,0.006493186112493277,1.3826438784599304,0.02227330207824707,-0.005066965240985155,0.023205485194921494,RTL,-35.363225650000004,149.1657628,120489.5,-9.5,-1.5,-152.5,0.0,-0.5,-1002.5,24.0,-2.0,24.5,263434.0
03:13:19,-0.020159738138318062,0.004372152267023921,1.359921932220459,-0.021869642660021782,0.003616099595092237,-0.02975580468773842,RTL,-35.363228899999996,149.16576394999998,123586.0,-12.5,6.5,-152.0,0.5,-3.5,-1001.5,-19.0,5.5,-27.5,277099.5
03:13:21,0.005748653551563621,0.011732933577150106,1.3303375840187073,0.02182629331946373,0.0041998038068413734,0.027873847633600235,RTL,-35.3632276,149.16576455,126699.0,13.5,-4.5,-152.5,-1.0,3.0,-999.0,23.5,6.0,29.0,290765.0
03:13:22,0.011105060344561934,0.0069490737514570355,1.3749207854270935,-0.006382178049534559,-0.0048074660007841885,0.0301179732196033,RTL,-35.363226725,149.16576379999998,128640.25,-1.0,-6.25,-152.0,0.0,0.75,-1000.0,-4.0,-2.0,31.5,95972.0
03:13:23,0.01870853267610073,0.0026324489735998213,1.3913882970809937,0.04461231455206871,-0.009757845662534237,0.015002590138465166,RTL,-35.363226749999995,149.16576345,129806.0,-7.0,-3.0,-153.0,1.0,0.0,-1003.0,46.0,-7.0,16.5,95972.0
03:13:25,-0.013551155105233192,0.004459864227101207,1.3585017919540405,0.013799512758851051,0.004002152825705707,-0.024070272222161293,RTL,-35.3632284,149.16576405,132908.5,1.5,3.0,-153.0,-0.5,-0.5,-1001.0,15.5,5.5,-21.5,124232.5
03:13:27,-0.0047039000783115625,0.01864487584680319,1.4586307406425476,0.004076937795616686,-0.017576332204043865,0.10540792346000671,RTL,-35.3632272,149.16576385000002,136006.5,7.0,-13.5,-151.0,0.5,2.5,-1002.5,6.0,-15.0,107.0,152493.0
03:13:28,0.005197916470933706,-0.003251676316722296,1.5630056262016296,0.007055219786707312,-0.005254955962300301,0.0737796202301979,RTL,-35.36322615,149.165762,137932.75,4.25,-11.25,-152.0,0.75,2.5,-1000.0,8.75,-2.75,75.25,46809.0
03:13:29,0.019475760404020548,-0.0005666628057952039,1.6075925827026367,0.04616817459464073,0.00016973866149783134,0.039100997149944305,RTL,-35.3632258,149.16576135000003,139099.5,-1.5,-4.0,-152.5,0.0,1.0,-1004.0,47.5,2.5,40.5,46809.0
03:13:31,-0.02252912800759077,0.17832107841968536,1.539986491203308,-0.121909249573946,0.07365953736007214,0.21343819797039032,RTL,-35.36322875,149.16575634999998,142135.0,-27.0,-101.0,-132.0,14.5,2.5,-971.0,-119.0,75.5,215.0,50823.5
03:13:33,0.02048912551254034,0.15468081831932068,1.7136285901069641,-0.021716018905863166,0.010121720377355814,-0.03153500705957413,RTL,-35.363231,149.1657098,143702.0,-27.0,-298.5,-26.0,70.5,26.0,-969.5,-18.5,12.0,-29.5,54838.0
03:13:34,-0.013490061450283974,0.17627030238509178,1.682740330696106,0.01508008036762476,-7.621082477271557e-05,-0.01682933361735195,RTL,-35.3632354,149.165661,143827.25,-46.5,-404.25,-0.75,88.75,35.25,-989.5,17.75,2.25,-14.75,148133.0
03:13:35,-0.03577996138483286,0.17524320632219315,1.6689147353172302,-0.18244662508368492,-0.020549937151372433,-0.024112134240567684,RTL,-35.36323865,149.1656257,143805.5,-47.0,-458.0,1.5,98.5,27.5,-995.0,-180.0,-17.5,-21.5,148133.0
03:13:37,-0.05215969309210777,0.13112514466047287,1.6429687142372131,0.1041141152381897,-0.027692978270351887,-0.015213504899293184,RTL,-35.36324665,149.1655141,143813.0,-36.0,-536.5,-4.0,114.5,47.0,-991.5,106.0,-24.5,-13.0,217567.0
03:13:39,-0.06487376242876053,0.07300948724150658,1.622176170349121,-0.36756516993045807,-0.054724741727113724,-0.02372862515039742,RTL,-35.36325335,149.16539725,143827.0,-31.0,-515.0,-5.0,111.0,34.5,-992.0,-365.0,-51.5,-22.0,287001.0
03:13:40,-0.0569351427257061,0.011648706160485744,1.613673597574234,-0.10578152444213629,-0.04571441491134465,-0.0010042628273367882,RTL,-35.36325657500001,149.16533207499998,143836.5,-26.5,-432.0,-2.0,87.25,48.75,-990.0,-103.5,-43.0,1.0,235192.0
03:13:41,-0.04004588723182678,-0.027070606127381325,1.608959674835205,0.1121777892112732,-0.051485875621438026,-0.020905140321701765,RTL,-35.363257950000005,149.16529930000002,143823.5,-22.0,-360.5,-1.5,76.5,32.5,-994.5,113.5,-48.5,-19.0,235192.0
03:13:43,-0.014870224986225367,-0.05726657249033451,1.5955058932304382,-0.08355394005775452,0.0334687614813447,0.016244475729763508,RTL,-35.36325925,149.16524700000002,143800.0,-17.0,-133.0,-2.0,25.0,26.5,-996.0,-80.5,35.5,18.0,245002.0
03:13:45,0.01943516219034791,-0.01697397604584694,1.5847346782684326,0.0206214040517807,0.016165131703019142,-0.007907310500741005,RTL,-35.36325935,149.16523395000002,143805.5,-18.5,-23.0,-3.0,2.0,-11.5,-1001.0,23.0,18.5,-5.0,254812.0
03:13:46,0.01958374073728919,0.013420654344372451,1.580502450466156,-0.11679803021252155,0.016026416327804327,-0.009197928360663354,RTL,-35.363259475,149.165233725,143810.75,-22.5,-6.25,-1.75,0.75,-10.5,-1003.75,-114.25,18.75,-6.25,217219.0
03:13:47,0.0161645389162004,0.007685226621106267,1.5775039792060852,0.4869300574064255,-0.022458532825112343,-0.008901070337742567,RTL,-35.3632599,149.1652338,143812.5,-23.5,-7.5,-2.0,0.5,23.5,-1002.5,490.5,-19.0,-6.0,217219.0
03:13:49,-0.00044696827535517514,0.009548419620841742,1.5680556297302246,-0.34198860824108124,0.005290798842906952,-0.003783989290241152,RTL,-35.36326115,149.16523505,143814.0,-13.0,2.0,-0.5,-1.0,-10.5,-1005.5,-338.0,8.0,-1.5,217219.0
03:13:50,-0.0015262244633049704,0.01263288757763803,1.5627955496311188,-0.06720571964979172,0.0005328788538463414,-0.002499765279935673,RTL,-35.363261875,149.1652363,143816.25,-6.75,0.5,-0.25,0.0,-5.75,-1000.5,-63.75,3.25,-0.25,149060.0
03:13:51,-0.00401178642641753,0.012669416144490242,1.5599891543388367,-0.42988308519124985,-0.0006075451383367181,-0.0024423468858003616,RTL,-35.363262250000005,149.16523684999999,143817.0,-2.5,-1.0,0.0,0.0,-32.5,-985.0,-426.5,3.0,0.0,149060.0
03:13:53,-0.01973487203940749,0.009936721064150333,1.5528854727745056,-1.3257699012756348,0.001465835259296,-0.002087916655000299,RTL,-35.363262950000006,149.1652375,143189.0,4.5,-3.5,83.0,-1.5,-59.0,-956.0,-1322.0,4.5,0.0,239339.0
03:13:55,-0.012962389271706343,0.007407339755445719,1.5486460328102112,-1.3792464137077332,0.008642081287689507,0.0028956664027646184,RTL,-35.363262500000005,149.1652378,141104.5,6.0,-5.0,98.5,-4.0,-43.0,-986.0,-1375.0,12.0,4.5,239339.0
03:13:56,0.007878113145125099,0.008814142551273108,1.5442334711551666,0.3012550473213196,0.004280206572730094,-0.0027217392926104367,RTL,-35.36326135,149.16523792499999,139862.75,-4.75,-4.75,87.75,-1.0,47.25,-1006.75,306.0,7.25,-0.5,213938.0
03:13:57,0.014563011936843395,0.010684610344469547,1.5434476137161255,1.11477792263031,0.008071509073488414,0.003167883027344942,RTL,-35.3632611,149.165238,139165.0,-9.5,-4.0,94.5,-1.5,74.5,-986.5,1119.5,11.5,5.0,213938.0
03:13:59,0.0046243094257079065,0.013619157020002604,1.5386347770690918,1.2867217659950256,0.0006830348866060376,-0.004738757212180644,RTL,-35.363262649999996,149.1652384,137120.5,-2.0,-6.0,105.0,3.5,41.5,-1039.5,1289.0,4.0,-2.5,127793.0
03:14:01,0.0012802004348486662,0.009720811154693365,1.5352293848991394,1.321953535079956,0.0020607729675248265,0.00010217411909252405,RTL,-35.3632642,149.1652382,135051.0,15.5,-6.0,97.0,2.5,45.0,-1016.0,1324.5,5.5,2.5,127793.0
03:14:02,-0.0024941773008322343,0.007777228485792875,1.5330799520015717,1.2237678468227386,-0.001254647911991924,-0.0009207000839523971,RTL,-35.363264825,149.165238075,133718.5,22.0,-6.0,115.75,0.0,25.0,-1005.5,1225.25,2.0,1.0,34274.0
03:14:03,0.004940893159073312,0.005048597697168589,1.5323942303657532,0.9088681042194366,-0.00458746706135571,-0.007013119990006089,RTL,-35.3632646,149.16523795,132842.0,24.0,-5.5,105.5,0.0,12.5,-1012.0,910.0,-0.5,-4.0,34274.0
03:14:05,0.005902034870814532,0.00356289348565042,1.5288656949996948,-0.8470299243927002,0.00035180163104087114,0.0016352226957678795,RTL,-35.363262500000005,149.1652376,130766.5,11.5,-2.5,85.0,-1.5,-60.5,-1014.0,-845.5,3.5,3.5,110619.0
03:14:07,-0.0176813006401062,0.00965892057865858,1.52683687210083,-0.46463023126125336,0.0013575094053521752,-0.0023574538063257933,RTL,-35.3632621,149.1652378,128957.5,0.0,-1.0,105.0,1.5,16.5,-1004.0,-460.0,4.5,0.0,110619.0
03:14:08,-0.03365452867001295,0.010440582875162363,1.525022178888321,-0.3674202375113964,-0.0038242113078013062,0.008009193814359605,RTL,-35.36326335,149.165238,127647.25,4.75,-2.5,106.75,1.0,23.5,-989.25,-362.5,0.5,9.75,63829.0
03:14:09,-0.021689807064831257,0.008934863843023777,1.5243979096412659,0.5776118338108063,-0.0014671941753476858,0.005476438673213124,RTL,-35.3632639,149.165238,126840.0,11.0,-4.0,100.5,1.0,57.5,-997.0,581.5,2.0,7.0,63829.0
03:14:11,0.0073324101977050304,0.0037459651939570904,1.5229873657226562,1.2286272048950195,-0.0030306971166282892,0.0006701276288367808,RTL,-35.3632639,149.16523784999998,124785.5,19.5,-4.0,102.0,-1.5,43.0,-989.5,1229.5,1.0,3.0,134936.0
03:14:13,0.025190444663167,0.004075078293681145,1.5208354592323303,0.21532702818512917,0.003450320800766349,0.0013439407339319587,RTL,-35.3632621,149.1652376,122718.5,6.0,-1.0,103.5,-1.0,-29.0,-988.0,215.0,7.0,3.5,134936.0
03:14:14,-0.001150413474533707,0.006539243855513632,1.519864171743393,-1.3016332983970642,-0.00010009738616645336,0.00010761356679722667,RTL,-35.363261475,149.165237625,121454.5,-2.0,-1.0,99.5,-0.5,-64.5,-992.25,-1300.0,3.5,2.25,239686.0
03:14:15,-0.010613312013447285,0.006743864854797721,1.519320547580719,-1.1994940638542175,-0.0011718348832800984,-0.001730268937535584,RTL,-35.3632613,149.1652377,120683.0,-5.5,-1.0,100.0,-1.0,-31.5,-998.5,-1196.5,2.5,0.5,239686.0
03:14:17,0.0036869308169116266,0.008509840350598097,1.5176931619644165,0.5005304142832756,0.00026025809347629547,0.0031848372891545296,RTL,-35.3632611,149.1652378,118635.0,-10.5,-2.0,105.5,0.0,57.0,-986.5,504.5,4.0,5.5,131024.0
03:14:19,-0.004845700226724148,0.009485202375799417,1.5175601840019226,0.5582630932331085,0.0004048713017255068,0.0034103564685210586,RTL,-35.363261550000004,149.165238,116444.0,-8.0,-3.0,102.0,-0.5,59.5,-1014.0,562.0,4.0,5.5,131024.0
03:14:20,-0.0038235920947045088,0.011368124280124903,1.5169195234775543,0.7416374906897545,0.003031861037015915,-0.002116420364473015,RTL,-35.36326255,149.1652381,115254.5,-3.0,-3.75,76.0,1.75,37.5,-1061.5,744.0,7.25,0.25,192209.0
03:14:21,-0.004018037507194094,0.01268952526152134,1.5166059136390686,0.9935014545917511,-0.003468688577413559,-0.0005551960784941912,RTL,-35.3632635,149.1652383,114687.5,4.5,-4.5,86.0,1.0,12.5,-962.5,993.5,0.5,1.5,192209.0
03:14:23,-0.015193844679743052,0.008897853083908558,1.5155121088027954,-0.06236012652516365,-0.0026866665575653315,-0.0025163493119180202,RTL,-35.36326495,149.1652383,112665.0,24.5,-6.0,103.5,1.0,-47.5,-962.0,-62.5,2.0,0.0,18151.0
03:14:25,-0.00021115737035870552,0.0019448917591944337,1.5143465399742126,-0.8167101442813873,-0.002488981350325048,-0.00218943995423615,RTL,-35.36326365,149.1652378,110602.5,24.0,-5.5,98.0,-2.5,-64.0,-991.5,-816.5,1.5,0.5,18151.0
03:14:26,-0.002594578603748232,0.005165357608348131,1.5142584443092346,-1.3793403506278992,0.004072918207384646,0.002579856081865728,RTL,-35.363262524999996,149.1652377,109263.25,11.0,-2.0,119.0,-0.25,-82.75,-974.75,-1379.0,8.25,5.0,1205.0
03:14:27,0.005337643495295197,0.0063824213575571775,1.5154732465744019,-0.620487853884697,0.007577061420306563,-0.0020185138564556837,RTL,-35.3632623,149.1652377,108350.0,4.5,-1.0,111.5,0.5,-66.5,-1017.5,-620.5,11.5,0.5,1205.0
03:14:29,-0.008412037277594209,0.007705878699198365,1.5137699842453003,-1.1244972348213196,0.012867633253335953,-0.0057310787960886955,RTL,-35.3632622,149.1652377,106253.5,1.5,-1.5,85.5,-0.5,-55.0,-1104.0,-1123.5,16.5,-2.5,190108.0
03:14:31,-0.003805584623478353,0.00881084380671382,1.5124247074127197,1.3142476677894592,-0.00922957167495042,-0.003937277069780976,RTL,-35.363263450000005,149.165238,104489.0,7.5,-3.0,100.5,1.5,73.5,-978.5,1316.0,-5.0,-1.0,190108.0
03:14:32,0.003087332850554958,0.007091098697856069,1.5127563774585724,1.5684029757976532,-0.00013933167792856693,0.002403874066658318,RTL,-35.363263950000004,149.165237975,103164.5,13.5,-3.0,114.25,0.25,64.5,-999.75,1569.0,3.75,4.75,36613.0
03:14:33,0.0048753919545561075,0.005665571894496679,1.5124984383583069,1.389508068561554,-0.0014408857095986605,0.00529107847250998,RTL,-35.36326405,149.1652379,102276.0,16.0,-4.0,109.5,0.0,52.5,-1051.0,1389.5,2.5,7.5,36613.0
03:14:35,0.02553442493081093,-8.111409078992438e-05,1.5121456980705261,-0.727937638759613,0.004853175720199943,0.0038696937263011932,RTL,-35.36326175,149.1652375,100194.0,9.0,-2.5,103.5,-4.5,-61.5,-935.5,-729.0,9.0,6.0,8314.0
03:14:37,0.016520509496331215,0.007203572895377874,1.5111916065216064,-0.6358053684234619,0.0035394933074712753,0.008141590282320976,RTL,-35.3632586,149.1652374,98033.0,-29.5,1.0,102.5,0.0,11.0,-996.5,-633.0,7.5,10.5,8314.0
03:14:38,-0.0031955872545950115,0.009226680267602205,1.5121248066425323,-0.7278616707772017,-0.0021495180553756654,0.0029579800902865827,RTL,-35.36325945,149.16523765000002,96912.5,-31.25,0.25,85.75,0.5,-6.5,-1010.0,-724.75,2.5,5.5,249390.0
03:14:39,0.011746033560484648,0.00869770348072052,1.5122119188308716,0.720391184091568,-0.0014780352357774973,0.003675839980132878,RTL,-35.36325995,149.1652377,96279.0,-27.5,0.0,91.0,1.0,61.5,-969.0,723.0,2.5,6.0,249390.0
03:14:41,0.021287853829562664,0.00789841078221798,1.5126819610595703,1.534218668937683,0.005938567221164703,0.006597476080060005,RTL,-35.3632609,149.1652377,94241.5,-18.5,0.0,106.5,1.5,75.5,-923.5,1536.0,10.5,9.0,293761.0
03:14:43,-0.0032837404093394675,0.007413299599041541,1.5118474960327148,-0.35769591977198917,0.0003381194546818733,0.0006686654717971882,RTL,-35.363262866666666,149.1652377,91989.33333333333,0.3333333333333333,-1.3333333333333333,101.0,1.0,-52.0,-991.3333333333334,-357.3333333333333,5.0,3.3333333333333335,293761.0
03:14:44,-0.02467778092250228,0.007270994014106691,1.5117968320846558,-1.0821833163499832,-0.00042325304821133614,-0.0008798219496384263,RTL,-35.36326335,149.1652378,90650.5,7.5,-2.0,81.75,0.0,-34.75,-1014.5,-1080.0,4.0,1.5,271907.0
03:14:45,-0.02507143560796976,0.007613390684127808,1.5116767287254333,-0.45456914603710175,0.0013111280277371407,0.00045016175135970116,RTL,-35.3632635,149.1652378,90005.0,9.5,-2.0,90.0,-0.5,15.5,-995.5,-451.0,5.5,3.5,271907.0
03:14:47,-0.0170777328312397,0.008303900249302387,1.5118384957313538,0.5973720848560333,0.001366650452837348,0.009026749059557915,RTL,-35.36326365,149.1652379,87976.5,10.0,-2.5,110.5,0.0,67.5,-953.0,600.5,6.0,11.5,234431.0
03:14:49,-0.012231128755956888,0.0067245804239064455,1.511570930480957,1.3289199471473694,-0.005494579207152128,-0.0022698381217196584,RTL,-35.3632646,149.1652379,85761.5,21.5,-3.0,101.5,0.5,71.5,-1027.5,1331.5,-1.0,1.0,234431.0
03:14:50,-0.00430005924620976,0.006707681342959404,1.5113639831542969,0.8897949655850729,0.002054038302352031,-0.0019102441146969795,RTL,-35.36326463333334,149.1652379,84640.66666666667,24.666666666666668,-3.0,88.0,1.0,27.0,-1044.0,889.3333333333334,6.333333333333333,1.0,299817.0
03:14:51,-0.02195257507264614,0.007050910188506047,1.5112051566441853,-0.7897016406059265,0.001296898660560449,-0.0005631618356953064,RTL,-35.363264799999996,149.1652379,83996.66666666667,27.0,-3.0,92.33333333333333,-0.3333333333333333,-66.33333333333333,-952.3333333333334,-790.6666666666666,6.0,2.3333333333333335,299817.0
03:14:53,-0.030295591801404953,0.00601654468725125,1.5110351244608562,-1.289967139561971,-0.00023972250831623873,0.0033500620629638433,RTL,-35.3632651,149.1652379,81974.0,30.666666666666668,-3.0,99.66666666666667,-0.3333333333333333,-67.66666666666667,-1007.6666666666666,-1290.6666666666667,4.333333333333333,5.666666666666667,24577.0
03:14:55,-0.008550744658956924,0.0016918656571457784,1.5111839771270752,0.19360442770024142,-0.0032213684947540364,0.0024806996807456017,RTL,-35.3632635,149.16523766666668,80001.33333333333,21.0,-3.0,102.0,-4.333333333333333,54.666666666666664,-996.3333333333334,195.0,1.6666666666666667,5.666666666666667,24577.0
03:14:56,0.0018105070727566879,0.0015372875301788251,1.5108336607615154,-0.37773747742176056,-0.00016303608814875284,0.0030430773428330817,RTL,-35.363261466666664,149.16523746666667,78703.0,4.0,-1.0,113.33333333333333,-2.6666666666666665,35.0,-966.6666666666666,-375.3333333333333,4.666666666666667,6.0,266055.0
03:14:57,0.006713858184715112,0.0026125076692551374,1.510399580001831,-0.23341800117244324,-0.0012057201626400154,-0.006072690710425377,RTL,-35.36326043333333,149.1652374,77815.0,-7.666666666666667,0.0,113.0,-3.3333333333333335,38.666666666666664,-995.3333333333334,-230.66666666666666,3.3333333333333335,-2.6666666666666665,266055.0
03:14:59,0.026914888992905617,0.0021764240227639675,1.5104467471440632,0.4834657609462738,-0.000796645957355698,-0.0022553954428682723,RTL,-35.363258599999995,149.1652373,75711.33333333333,-30.666666666666668,1.0,101.33333333333333,-4.0,64.66666666666667,-981.0,485.3333333333333,3.3333333333333335,0.3333333333333333,110698.0
03:15:01,0.060294354955355324,0.002736015012487769,1.5114049116770427,0.9559818903605143,0.0016737573314458132,0.0028379124899705253,RTL,-35.36325566666667,149.16523693333332,73682.66666666667,-59.666666666666664,4.0,99.0,-2.3333333333333335,73.0,-1003.6666666666666,958.6666666666666,6.333333333333333,5.666666666666667,110698.0
03:15:02,0.07166147232055664,0.004391840969522794,1.5102636814117432,0.8892211516698202,-0.0007725971130033334,0.002560759816939632,RTL,-35.36325493333334,149.165237,72434.33333333333,-70.33333333333333,4.333333333333333,92.0,-1.0,21.0,-1027.0,890.3333333333334,3.6666666666666665,5.333333333333333,125038.0
03:15:03,0.07544463127851486,0.005559488354871671,1.5103129545847576,0.39812031884988147,0.003643098442504803,-0.0021366140184303126,RTL,-35.36325473333333,149.165237,71736.66666666667,-73.33333333333333,4.0,96.0,0.0,-21.0,-983.6666666666666,398.6666666666667,8.0,1.0,125038.0
03:15:05,0.030077277993162472,0.012276506361862024,1.511394778887431,-1.0227262377738953,-0.0008088471367955208,-0.006865702879925569,RTL,-35.36325633333333,149.16523743333332,69707.0,-70.0,3.3333333333333335,95.33333333333333,6.0,-75.0,-1030.0,-1019.6666666666666,4.0,-3.3333333333333335,83927.0
03:15:07,-0.023173524687687557,0.011650419483582178,1.5112213293711345,-0.49914393325646716,-0.00019129559708138308,0.007072256878018379,RTL,-35.36326073333333,149.16523776666668,67769.66666666667,-34.0,0.0,100.33333333333333,5.0,14.0,-1007.6666666666666,-492.3333333333333,4.333333333333333,10.333333333333334,83927.0
03:15:08,-0.007559747473957638,0.010254172918697199,1.5117735465367634,1.2854868570963542,0.0014023277908563614,0.006465118533621232,RTL,-35.363262999999996,149.1652378,66486.33333333333,-10.0,-1.3333333333333333,106.0,2.6666666666666665,70.66666666666667,-991.0,1290.6666666666667,5.666666666666667,9.333333333333334,231285.0
03:15:09,-0.014819049586852392,0.008034905418753624,1.511418342590332,1.1811551253000896,-0.001194519301255544,0.0026766350492835045,RTL,-35.3632639,149.1652378,65639.0,2.0,-2.0,103.0,1.3333333333333333,70.33333333333333,-1028.6666666666667,1186.3333333333333,3.0,5.666666666666667,231285.0
03:15:11,0.005847556438917915,0.004062995004157226,1.5115951299667358,-0.12100197747349739,-0.001100023277103901,-0.0008926546045889457,RTL,-35.363263966666665,149.1652377,63594.666666666664,18.333333333333332,-3.0,100.33333333333333,-2.3333333333333335,-36.666666666666664,-969.6666666666666,-118.66666666666667,3.6666666666666665,1.6666666666666667,294099.0
03:15:13,0.0001828172244131565,0.007165296158442895,1.5113666852315266,-1.0535257856051128,0.001138711969057719,-0.0033074055487910905,RTL,-35.3632623,149.1652377,61516.0,5.0,-1.0,97.0,1.0,-70.66666666666667,-1001.6666666666666,-1050.3333333333333,5.666666666666667,0.0,294099.0
03:15:14,-0.023185239483912785,0.009111231503387293,1.5099589029947917,-1.3150442441304524,-0.009024496035029491,0.0016020274876306455,RTL,-35.363262733333336,149.1652379,60244.0,2.6666666666666665,-2.3333333333333335,97.33333333333333,0.3333333333333333,-54.666666666666664,-1009.6666666666666,-1310.6666666666667,-3.3333333333333335,4.333333333333333,119411.0
03:15:15,-0.024304452662666638,0.006685343726227681,1.5104412237803142,-1.1092899044354756,-0.003274214221164584,-0.001051811734214425,RTL,-35.36326276666667,149.16523793333332,59496.0,5.333333333333333,-3.6666666666666665,98.66666666666667,-2.0,-17.333333333333332,-986.0,-1104.0,1.6666666666666667,2.0,119411.0
03:15:17,-0.00023954769130796194,0.005019760069747766,1.511405110359192,0.10029644270737965,-0.0007574398381014665,-0.0017317136904845636,RTL,-35.363261533333336,149.16523773333336,57450.666666666664,-5.666666666666667,-2.0,96.0,-1.6666666666666667,47.0,-1031.0,106.66666666666667,4.0,1.6666666666666667,281415.0
03:15:19,0.047560207545757294,0.002353205345571041,1.5112176338831584,1.338781714439392,-0.0006184709879259268,-0.0010415301658213139,RTL,-35.363259666666664,149.16523746666667,55530.666666666664,-17.666666666666668,-0.6666666666666666,102.0,-2.6666666666666665,55.333333333333336,-1013.3333333333334,1343.3333333333333,4.333333333333333,2.0,281415.0
03:15:20,0.0507448340455691,0.004588833622013529,1.512089689572652,0.5199971993764242,-0.0029657481548686824,-0.009267934753249088,RTL,-35.36325866666667,149.1652373,54249.333333333336,-30.0,1.0,107.33333333333333,-0.3333333333333333,-10.666666666666666,-1000.3333333333334,523.0,2.6666666666666665,-6.0,297024.0
03:15:21,0.04146536936362585,0.0074712491283814115,1.5118951797485352,0.8706775506337484,0.006908058809737365,-0.0008905566452691952,RTL,-35.363258933333334,149.16523733333335,53435.666666666664,-34.333333333333336,2.0,104.33333333333333,2.6666666666666665,2.0,-1016.0,874.0,11.666666666666666,2.0,297024.0
03:15:23,0.005006264274319013,0.009327389920751253,1.5110875368118286,-0.9341215888659159,-0.0026555354706943035,-0.010971270967274904,RTL,-35.36326076666666,149.16523766666668,51398.666666666664,-18.666666666666668,0.0,99.66666666666667,1.3333333333333333,-70.66666666666667,-995.3333333333334,-930.0,2.3333333333333335,-7.0,151729.0
03:15:25,-0.01951723701010148,0.008532944445808729,1.5114065408706665,-1.2117230892181396,0.002115607261657715,-0.004304579148689906,RTL,-35.36326213333333,149.1652377,49404.666666666664,-7.0,0.0,98.0,4.0,-52.0,-1017.0,-1205.3333333333333,7.0,-0.6666666666666666,151729.0
03:15:26,-0.03871797521909078,0.009132977575063705,1.5111550092697144,-1.1367622415224712,-0.003342617846404513,0.0031379424035549164,RTL,-35.36326376666667,149.16523776666668,48116.333333333336,5.666666666666667,-1.0,98.0,2.3333333333333335,-32.666666666666664,-1006.0,-1130.0,2.0,6.333333333333333,18906.0
03:15:27,-0.041727449744939804,0.009583642706274986,1.5116462310155232,-0.015126600861549377,-0.0007121327798813581,0.004736414644867182,RTL,-35.36326473333333,149.16523783333332,47362.666666666664,14.333333333333334,-1.6666666666666667,97.33333333333333,1.6666666666666667,32.333333333333336,-1004.6666666666666,-8.0,4.0,7.666666666666667,18906.0
03:15:29,-0.022039048684140045,0.004770481958985329,1.5118110179901123,0.8244373202323914,-0.0008764667436480522,0.00031978163557748,RTL,-35.3632655,149.1652379,45322.666666666664,31.333333333333332,-4.0,98.0,-1.0,72.33333333333333,-979.0,830.6666666666666,4.333333333333333,3.3333333333333335,263241.0
03:15:31,0.01171816714728872,0.00416618740806977,1.5115563074747722,0.8949409325917562,0.0024808389134705067,0.00278285751119256,RTL,-35.363264,149.1652378,43287.333333333336,24.333333333333332,-3.0,97.66666666666667,-1.3333333333333333,13.333333333333334,-1013.0,897.6666666666666,7.333333333333333,6.0,263241.0
03:15:32,0.01788182059923808,0.005514731785903375,1.5117677450180054,0.20082239682475725,0.0016084839589893818,-0.003603339350471894,RTL,-35.3632631,149.1652378,41995.0,16.0,-2.0,110.66666666666667,-0.3333333333333333,-29.0,-951.3333333333334,202.66666666666666,6.666666666666667,0.0,176536.0
03:15:33,0.01348621491342783,0.004677528360237678,1.5115418831507366,0.315078300734361,-0.0024210072588175535,0.002507228093842665,RTL,-35.36326273333333,149.16523776666668,41113.333333333336,10.666666666666666,-2.0,110.0,-1.6666666666666667,-22.0,-993.3333333333334,317.3333333333333,3.0,6.0,176536.0
03:15:35,0.01207727969934543,0.00593601322422425,1.5114741722742717,-1.05548894405365,0.0012633756268769503,-0.0008953332435339689,RTL,-35.363261200000004,149.1652377,39033.666666666664,-2.0,-1.0,100.33333333333333,-0.6666666666666666,-68.66666666666667,-999.0,-1052.3333333333333,6.0,2.6666666666666665,169377.0
03:15:37,-0.016979322768747807,0.00869647910197576,1.5114676554997761,-0.795725961526235,0.0007290599557260672,0.00016555089193085829,RTL,-35.363261533333336,149.1652378,36978.333333333336,-8.333333333333334,-1.0,101.66666666666667,0.3333333333333333,-3.6666666666666665,-990.6666666666666,-789.6666666666666,6.0,3.6666666666666665,169377.0
03:15:38,-0.007555499052007993,0.007782139349728823,1.5113521814346313,0.24171261489391327,-0.0017165344518919785,0.002404643843571345,RTL,-35.3632621,149.16523786666664,35725.333333333336,-2.3333333333333335,-2.3333333333333335,90.0,0.0,38.666666666666664,-1035.0,248.0,3.3333333333333335,5.666666666666667,56590.0
03:15:39,0.013200022901097933,0.008334525084743897,1.5119240283966064,1.34837810198466,0.00011193488414088885,0.003087593320136269,RTL,-35.363262166666665,149.1652379,35094.0,-0.6666666666666666,-2.3333333333333335,86.66666666666667,0.6666666666666666,66.0,-976.6666666666666,1353.6666666666667,5.333333333333333,6.666666666666667,56590.0
03:15:41,0.0025804650989963798,0.00767599248016874,1.5116517543792725,1.4692018429438274,-0.0011013318629314501,0.006929200841113925,RTL,-35.36326343333334,149.1652379,33086.333333333336,6.666666666666667,-2.3333333333333335,101.66666666666667,2.0,58.0,-997.6666666666666,1473.3333333333333,3.6666666666666665,10.333333333333334,208585.0
03:15:43,0.006696328055113554,0.004031744009504716,1.5116521120071411,1.5173546473185222,-0.00022625100488464037,0.0037175038984666267,RTL,-35.3632642,149.1652377,30803.333333333332,19.0,-2.6666666666666665,104.66666666666667,-1.0,51.333333333333336,-999.0,1520.6666666666667,5.0,7.0,208585.0
03:15:44,0.014069149581094583,0.004272316582500935,1.5113438367843628,0.773521492878596,0.0002076245533923308,0.0023869183690597615,RTL,-35.36326353333333,149.1652377,29525.0,16.666666666666668,-2.0,97.33333333333333,-1.3333333333333333,9.666666666666666,-988.6666666666666,775.3333333333334,5.0,5.333333333333333,149212.0
03:15:45,0.01608702912926674,0.005021300166845322,1.512021501859029,0.6975538531939188,0.0021409117616713047,0.001026246463879943,RTL,-35.3632631,149.1652377,28787.666666666668,13.333333333333334,-1.0,98.33333333333333,-1.0,-5.0,-999.0,699.3333333333334,7.666666666666667,4.666666666666667,149212.0
03:15:47,-0.0039112979332761215,0.005346497520804405,1.5115188360214233,-0.9060545961062113,-0.004123479438324769,0.0008959443463633457,RTL,-35.3632628,149.1652377,26764.333333333332,9.0,-1.0,99.66666666666667,-0.6666666666666666,-64.33333333333333,-1018.0,-904.0,1.3333333333333333,4.333333333333333,267789.0
03:15:49,-0.009874253378560146,0.0034003712547322116,1.5111627181371052,-0.2644893325244387,-0.0022041782115896544,0.007748216390609741,RTL,-35.3632622,149.1652375,24930.333333333332,1.3333333333333333,0.0,101.66666666666667,-0.3333333333333333,26.666666666666668,-1017.3333333333334,-259.0,3.0,11.666666666666666,267789.0
03:15:50,0.005528423624734084,0.0038074078038334846,1.5112533966700237,1.0325212876001995,0.0022125618221859136,0.0053395764747013645,RTL,-35.36326196666666,149.1652374,23642.0,-1.6666666666666667,0.3333333333333333,104.33333333333333,-0.6666666666666666,75.33333333333333,-998.6666666666666,1037.3333333333333,7.333333333333333,9.0,61944.0
03:15:51,0.008300391607917845,0.0036641020948688188,1.5116285880406697,1.1130187114079793,-0.0040711408170561,0.0020046463857094445,RTL,-35.3632619,149.1652374,22808.666666666668,-3.6666666666666665,0.6666666666666666,107.0,-0.3333333333333333,77.66666666666667,-1031.0,1117.6666666666667,1.3333333333333333,6.0,61944.0
03:15:53,0.03752079978585243,0.002058727239879469,1.5122417608896892,1.3886950413386028,-0.0018702175778647263,-0.004766767689337333,RTL,-35.36326056666667,149.1652372,20747.0,-12.0,1.6666666666666667,99.0,0.0,50.0,-978.6666666666666,1392.0,3.3333333333333335,-0.6666666666666666,25418.0
03:15:55,0.033983056123058,0.006107296173771222,1.5121893882751465,0.9760317007700602,0.0008827021811157465,-0.002623227114478747,RTL,-35.363260200000006,149.16523726666668,18720.333333333332,-20.0,2.0,97.33333333333333,1.0,10.0,-998.3333333333334,978.6666666666666,6.0,1.3333333333333333,25418.0
03:15:56,0.008834994242837032,0.006092692104478677,1.5114926099777222,-0.5526383680601915,-0.002964129283403357,-0.003036205812046925,RTL,-35.3632608,149.1652374,17449.666666666668,-15.0,0.6666666666666666,96.0,0.3333333333333333,-53.333333333333336,-998.6666666666666,-550.0,2.3333333333333335,1.3333333333333333,75942.0
03:15:57,-0.003987089575578769,0.004192625094826023,1.511991024017334,-1.2672652403513591,-0.0026908195577561855,-0.00010282848961651325,RTL,-35.36326073333333,149.1652374,16722.666666666668,-13.666666666666666,0.0,94.66666666666667,-0.6666666666666666,-45.333333333333336,-976.6666666666666,-1262.3333333333333,2.6666666666666665,3.3333333333333335,75942.0
03:15:59,-0.002142528537660837,0.004321125956873099,1.5116792519887288,-0.37699150542418164,-0.0006511408525208632,-0.0004619984732319911,RTL,-35.3632605,149.1652373,14699.333333333334,-17.333333333333332,1.6666666666666667,101.0,0.0,20.666666666666668,-1000.6666666666666,-370.3333333333333,4.333333333333333,3.0,169480.0
03:16:01,-0.004819189120704929,0.0069448867191871004,1.5124103625615437,0.9044015804926554,-0.001269484559694926,0.0028651103687783084,RTL,-35.363262033333335,149.16523736666667,12604.0,-9.666666666666666,1.6666666666666667,98.0,1.3333333333333333,61.0,-1007.0,910.6666666666666,3.6666666666666665,6.333333333333333,169480.0
03:16:02,0.0016835844532276194,0.006502181912461917,1.5122147798538208,0.8677028218905131,-0.0029320736260463796,-0.0009103925743450721,RTL,-35.36326303333334,149.16523746666667,11363.0,1.3333333333333333,0.3333333333333333,79.0,0.6666666666666666,28.333333333333332,-1066.6666666666667,872.0,2.3333333333333335,2.6666666666666665,61796.0
03:16:03,-0.008150044130161405,0.004706487370034059,1.5122323036193848,-0.4649743257711331,-0.0047936955622086925,-0.0005443970828006665,RTL,-35.36326326666667,149.1652375,10879.666666666666,7.666666666666667,0.0,41.333333333333336,0.0,-32.0,-1039.0,-460.6666666666667,0.6666666666666666,2.6666666666666665,61796.0
03:16:05,-0.007483171299099922,0.004737724860509236,1.5128522316614788,-0.46814970175425213,0.0019156940591832001,-0.0016628114972263575,RTL,-35.3632627,149.16523746666667,10232.333333333334,5.666666666666667,0.0,33.0,0.0,-11.666666666666666,-990.6666666666666,-463.0,6.666666666666667,2.0,59081.0
03:16:07,-0.019125711793700855,0.00690851282949249,1.5120372374852498,0.34206191698710126,-0.0005906121805310249,-0.00034093034143249196,RTL,-35.3632641,149.1652375,9580.0,13.0,0.0,33.0,1.3333333333333333,19.333333333333332,-1002.6666666666666,346.6666666666667,4.333333333333333,3.0,59081.0
03:16:08,-0.03243882767856121,0.005562210610757272,1.512402852376302,-0.5931807160377502,-0.0028583452415963015,0.001466508178661267,RTL,-35.363265000000006,149.16523753333334,9152.666666666666,23.666666666666668,0.0,31.666666666666668,0.3333333333333333,-20.0,-998.0,-588.6666666666666,2.0,5.0,59095.0
03:16:09,-0.012411606187621752,0.004641307362665732,1.5125109354654949,0.5014838750163714,-0.004715098378558953,-0.0007272210593024889,RTL,-35.36326506666666,149.1652376,8908.333333333334,27.333333333333332,-1.0,29.333333333333332,0.0,14.333333333333334,-1020.6666666666666,504.6666666666667,0.6666666666666666,3.0,59095.0
03:16:11,-0.014766803166518608,0.002276503170530001,1.5118955771128337,-0.2343589166800181,-0.0006286483258008957,0.0006924630142748356,RTL,-35.36326413333334,149.16523746666667,8783.666666666666,22.666666666666668,0.0,0.3333333333333333,-0.6666666666666666,5.666666666666667,-1003.0,-230.0,4.333333333333333,4.0,273439.0
03:16:13,-0.0013865929407378037,0.002943389738599459,1.5120859146118164,-0.13803449273109436,0.0015026312321424484,-0.0006230829749256372,RTL,-35.36326303333333,149.1652374,8786.666666666666,13.0,0.6666666666666666,0.0,-0.6666666666666666,-11.333333333333334,-998.6666666666666,-135.0,6.333333333333333,3.0,273439.0
03:16:14,-0.00641092611476779,0.0041918710339814425,1.511863112449646,-0.28759285310904187,-0.00013955837736527124,-0.0012433993785331647,RTL,-35.3632628,149.1652374,8785.0,8.666666666666666,1.0,0.3333333333333333,-0.3333333333333333,-16.666666666666668,-999.0,-284.6666666666667,5.333333333333333,2.6666666666666665,5609.0
03:16:15,0.0018867900750289361,0.004113698999087016,1.5121304194132488,0.45223796367645264,0.002153096410135428,-0.0003262098568181197,RTL,-35.3632628,149.1652374,8784.666666666666,7.333333333333333,1.0,0.6666666666666666,0.0,19.333333333333332,-1004.0,455.0,7.333333333333333,3.3333333333333335,5609.0
03:16:17,-0.009868160511056582,0.004316222698738177,1.5122671922047932,-0.5755519916613897,0.0004061926156282425,0.0005688881501555443,RTL,-35.3632628,149.1652374,8576.666666666666,7.0,0.3333333333333333,39.333333333333336,0.0,-20.666666666666668,-975.3333333333334,-572.3333333333334,5.333333333333333,4.0,78875.0
03:16:19,-0.012008854188024998,0.005314482531199853,1.5124581654866536,-0.06296155198166768,-0.00030046491883695126,0.0009829152065018814,RTL,-35.363263,149.1652374,7879.666666666667,6.333333333333333,1.0,34.333333333333336,0.3333333333333333,16.0,-996.0,-59.0,4.666666666666667,5.0,78875.0
03:16:20,-0.018893150612711906,0.004588382473836343,1.5119810899098713,-0.6917387843132019,-0.0003479272127151489,-0.0015300762218733628,RTL,-35.363263366666665,149.1652374,7456.666666666667,11.0,0.0,34.666666666666664,-0.6666666666666666,-29.0,-999.3333333333334,-689.0,4.333333333333333,2.3333333333333335,124731.0
03:16:21,-0.00021017874435832104,0.0029878284937391677,1.5115979115168254,0.501713448514541,-0.003838267099733154,-0.0005908359307795763,RTL,-35.363263133333334,149.1652374,7190.0,11.333333333333334,0.0,34.333333333333336,-0.6666666666666666,32.333333333333336,-1009.6666666666666,504.3333333333333,1.6666666666666667,3.0,124731.0
03:16:23,0.010016759547094503,0.004145171648512284,1.5123766263326008,0.6516006688276926,0.0017789885556946199,0.00026953499764204025,RTL,-35.3632624,149.1652374,6500.666666666667,3.0,1.0,32.666666666666664,-0.3333333333333333,19.666666666666668,-1012.3333333333334,653.0,6.333333333333333,3.6666666666666665,229236.0
03:16:25,0.0073690420637528104,0.004116409768660863,1.5119393269220989,0.5537588546673456,-0.0014404190393785636,-0.0016594967649628718,RTL,-35.3632625,149.1652374,5761.0,3.0,0.3333333333333333,33.0,-0.3333333333333333,17.666666666666668,-1007.6666666666666,555.6666666666666,3.3333333333333335,2.0,229236.0
03:16:26,0.005745789268985391,0.0034602444308499494,1.5122980674107869,0.199232816696167,-0.0013574741315096617,0.0021140817552804947,RTL,-35.36326193333333,149.1652374,5337.666666666667,0.0,0.0,29.333333333333332,-1.3333333333333333,28.666666666666668,-1014.0,202.66666666666666,3.3333333333333335,6.0,150968.0
03:16:27,0.010394210383916894,0.0036198471983273826,1.5121523539225261,-0.4028221070766449,-0.0017529467586427927,4.147792545457681e-05,RTL,-35.363261466666664,149.1652374,5161.0,-2.3333333333333335,0.6666666666666666,22.666666666666668,-1.0,-27.0,-979.0,-401.0,3.0,3.6666666666666665,150968.0
03:16:29,0.0012143441029669095,0.00382162358922263,1.512101689974467,-0.6232934892177582,-0.0029969681054353714,0.0010860141677161057,RTL,-35.36326093333333,149.1652372,4487.0,-10.666666666666666,2.0,33.0,0.3333333333333333,-24.666666666666668,-999.6666666666666,-620.0,2.0,5.0,173556.0
03:16:31,-0.00030518338705102604,0.004936442400018374,1.5120785236358643,-0.24394076069196066,-0.001143807079643011,-0.0015300125814974308,RTL,-35.3632612,149.1652373,3769.0,-10.333333333333334,1.3333333333333333,34.0,-0.6666666666666666,5.666666666666667,-1009.0,-240.0,3.6666666666666665,2.3333333333333335,173556.0
03:16:32,0.007694488151173573,0.0042730899682889385,1.5121647119522095,-0.4407990115384261,0.003385629660139481,-0.0010116897368182738,RTL,-35.36326103333334,149.1652373,3352.0,-9.333333333333334,1.0,32.333333333333336,0.0,-30.0,-1004.6666666666666,-438.3333333333333,8.0,2.6666666666666665,9890.0
03:16:33,0.01064082064355413,0.005308909807354212,1.5126214822133381,0.4746217628320058,-0.00025538293023904163,0.00115182235216101,RTL,-35.36326103333334,149.1652373,3123.6666666666665,-12.333333333333334,1.3333333333333333,29.666666666666668,-0.3333333333333333,33.666666666666664,-993.0,478.6666666666667,4.666666666666667,4.333333333333333,9890.0
03:16:35,0.011074666399508715,0.0051870825700461864,1.5122198263804119,0.6247092187404633,0.0008956063538789749,0.0009302146111925443,RTL,-35.36326160000001,149.1652373,2446.0,-8.0,1.0,32.666666666666664,0.3333333333333333,20.666666666666668,-1012.0,627.6666666666666,5.666666666666667,4.666666666666667,236839.0
03:16:37,-0.006481411944453915,0.006359864802410205,1.5120838483174641,0.2538800736268361,0.0006187236091742913,-0.0009842460664610069,RTL,-35.3632632,149.16523743333332,1735.0,3.6666666666666665,0.3333333333333333,33.0,0.6666666666666666,-7.333333333333333,-997.3333333333334,256.0,5.0,2.6666666666666665,236839.0
03:16:38,-0.0055732692902286845,0.004997418727725744,1.5122809012730916,0.645887037118276,-0.002124276477843523,0.000594327924773097,RTL,-35.3632638,149.1652375,1311.6666666666667,11.333333333333334,0.0,31.666666666666668,0.3333333333333333,30.333333333333332,-1012.6666666666666,648.3333333333334,2.6666666666666665,3.6666666666666665,116462.0
03:16:39,-0.012567476679881414,0.0038651428961505494,1.5120351314544678,-0.6294246812661489,-0.0011030221357941628,-0.0009252942012002071,RTL,-35.3632636,149.1652375,1084.0,14.666666666666666,0.0,28.666666666666668,-0.6666666666666666,-32.666666666666664,-989.6666666666666,-626.6666666666666,3.3333333333333335,2.3333333333333335,116462.0
03:16:41,0.006243489934907605,0.0019743708738436303,1.5121776660283406,-0.43103235960006714,-0.001100860924149553,-0.0008458485826849937,RTL,-35.3632621,149.1652373,406.3333333333333,4.333333333333333,0.3333333333333333,31.0,-1.0,-20.0,-1004.0,-428.0,3.3333333333333335,2.6666666666666665,67996.0
03:16:43,0.011249509019156298,0.0025598326853166022,1.513191024462382,0.0003254079104711612,-0.0019609470230837664,-0.000574412290006876,RTL,-35.36326160000001,149.16523593333332,46.333333333333336,-12.666666666666666,-15.333333333333334,6.333333333333333,0.0,0.0,-1000.0,3.0,3.0,3.0,67996.0
03:16:44,0.009185474055508772,-0.0020315846583495536,1.510835886001587,0.00022852770052850246,-0.002027440428112944,-0.0007060580731679996,RTL,-35.3632618,149.16523646666667,13.0,-13.666666666666666,0.0,5.0,0.0,0.0,-1000.0,3.0,3.0,3.0,210162.0
03:16:45,0.007680387236177921,-0.0036732604106267295,1.5099341471989949,7.360847666859627e-05,-0.0020160016138106585,-0.0006847886834293604,RTL,-35.3632618,149.1652369,0.6666666666666666,-12.333333333333334,6.666666666666667,4.333333333333333,0.0,0.0,-1000.0,3.0,3.0,3.0,210162.0
03:16:47,0.003593583203231295,-0.004607511063416799,1.5091625054677327,-0.00013317478199799856,-0.0019344314156721036,-0.0007343183582027754,RTL,-35.3632616,149.16523783333332,0.0,-6.0,14.666666666666666,3.0,0.0,0.0,-1000.0,3.0,3.0,3.0,210162.0
03:16:49,0.0009084966732189059,-0.0028707668340454497,1.5082770586013794,-0.0002941830704609553,-0.0017719735236217578,-0.0006512955296784639,RTL,-35.36326126666666,149.165238,0.0,0.0,13.666666666666666,1.0,0.0,0.0,-1000.0,3.0,3.0,3.0,210162.0
