time_stamp,MODE,lat,lon,relative_alt,roll,pitch,yaw,rollspeed,pitchspeed,yawspeed,xacc,yacc,zacc,xgyro,ygyro,zgyro,vx,vy,vz,RTL_ALT
19:04:52.709,STABILIZE,-35.3632621,149.1652374,55,-0.00014675836428068578,0.0014313431456685066,0.02563043124973774,0.0001280592114198953,0.00025621207896620035,0.0020953433122485876,0,1,-1000,0,1,0,-1,1,-2,1500.0
19:04:52.914,STABILIZE,-35.3632621,149.1652374,55,-0.00014675836428068578,0.0014313431456685066,0.02563043124973774,0.0001280592114198953,0.00025621207896620035,0.0020953433122485876,0,1,-1000,0,1,0,-1,1,-2,1500.0
19:04:53.116,STABILIZE,-35.3632621,149.1652374,55,-0.00014675836428068578,0.0014313431456685066,0.02563043124973774,0.0001280592114198953,0.00025621207896620035,0.0020953433122485876,0,1,-1000,0,1,0,-1,1,-2,1500.0
19:04:53.317,STABILIZE,-35.3632621,149.1652374,55,-0.00014675836428068578,0.0014313431456685066,0.02563043124973774,0.0001280592114198953,0.00025621207896620035,0.0020953433122485876,0,1,-1000,0,1,0,-1,1,-2,1500.0
19:04:53.519,STABILIZE,-35.3632621,149.1652374,55,-0.00014675836428068578,0.0014313431456685066,0.02563043124973774,0.0001280592114198953,0.00025621207896620035,0.0020953433122485876,0,1,-1000,0,1,0,-1,1,-2,1500.0
19:04:53.721,STABILIZE,-35.3632621,149.1652374,55,-0.00014675836428068578,0.0014313431456685066,0.02563043124973774,0.0001280592114198953,0.00025621207896620035,0.0020953433122485876,0,1,-1000,0,1,0,-1,1,-2,1500.0
19:04:53.923,STABILIZE,-35.3632621,149.1652374,55,-0.00014675836428068578,0.0014313431456685066,0.02563043124973774,0.0001280592114198953,0.00025621207896620035,0.0020953433122485876,0,1,-1000,0,1,0,-1,1,-2,1500.0
19:04:54.126,STABILIZE,-35.3632621,149.1652374,55,-0.00014675836428068578,0.0014313431456685066,0.02563043124973774,0.0001280592114198953,0.00025621207896620035,0.0020953433122485876,0,1,-1000,0,1,0,-1,1,-2,1500.0
19:04:54.328,STABILIZE,-35.3632621,149.1652374,55,-0.00014675836428068578,0.0014313431456685066,0.02563043124973774,0.0001280592114198953,0.00025621207896620035,0.0020953433122485876,0,1,-1000,0,1,0,-1,1,-2,1500.0
19:04:54.542,STABILIZE,-35.3632621,149.1652374,55,-2.206188401032705e-05,0.0011122232535853982,0.024689694866538048,0.00019767554476857185,0.0001663201255723834,0.0020332932472229004,0,1,-1000,0,1,0,-1,1,-2,1500.0
19:04:54.745,STABILIZE,-35.3632621,149.1652374,55,-2.206188401032705e-05,0.0011122232535853982,0.024689694866538048,0.00019767554476857185,0.0001663201255723834,0.0020332932472229004,0,1,-1000,0,1,0,-1,1,-2,1500.0
19:04:54.946,STABILIZE,-35.3632621,149.1652374,55,-2.206188401032705e-05,0.0011122232535853982,0.024689694866538048,0.00019767554476857185,0.0001663201255723834,0.0020332932472229004,0,1,-1000,0,1,0,-1,1,-2,1500.0
19:04:55.148,STABILIZE,-35.3632621,149.1652374,55,-2.206188401032705e-05,0.0011122232535853982,0.024689694866538048,0.00019767554476857185,0.0001663201255723834,0.0020332932472229004,0,1,-1000,0,1,0,-1,1,-2,1500.0
19:04:55.350,STABILIZE,-35.3632621,149.1652374,55,-2.206188401032705e-05,0.0011122232535853982,0.024689694866538048,0.00019767554476857185,0.0001663201255723834,0.0020332932472229004,0,1,-1000,0,1,0,-1,1,-2,1500.0
19:04:55.552,STABILIZE,-35.3632621,149.1652374,55,-2.206188401032705e-05,0.0011122232535853982,0.024689694866538048,0.00019767554476857185,0.0001663201255723834,0.0020332932472229004,0,1,-1000,0,1,0,-1,1,-2,1500.0
19:04:55.755,STABILIZE,-35.3632621,149.1652374,55,-2.206188401032705e-05,0.0011122232535853982,0.024689694866538048,0.00019767554476857185,0.0001663201255723834,0.0020332932472229004,0,1,-1000,0,1,0,-1,1,-2,1500.0
19:04:55.957,STABILIZE,-35.3632621,149.1652374,55,-2.206188401032705e-05,0.0011122232535853982,0.024689694866538048,0.00019767554476857185,0.0001663201255723834,0.0020332932472229004,0,1,-1000,0,1,0,-1,1,-2,1500.0
19:04:56.159,STABILIZE,-35.3632622,149.1652375,32,-0.00021545331401284784,0.0009901184821501374,0.024006308987736702,7.391479448415339e-05,0.0002334863820578903,0.0018882290460169315,0,1,-1000,0,1,0,-1,2,0,1500.0
19:04:56.361,STABILIZE,-35.3632622,149.1652375,32,-0.00021545331401284784,0.0009901184821501374,0.024006308987736702,7.391479448415339e-05,0.0002334863820578903,0.0018882290460169315,0,1,-1000,0,1,0,-1,2,0,1500.0
19:04:56.567,STABILIZE,-35.3632622,149.1652375,32,-0.00021545331401284784,0.0009901184821501374,0.024006308987736702,7.391479448415339e-05,0.0002334863820578903,0.0018882290460169315,0,1,-1000,0,1,0,-1,2,0,1500.0
19:04:56.771,STABILIZE,-35.3632622,149.1652375,32,-0.00021545331401284784,0.0009901184821501374,0.024006308987736702,7.391479448415339e-05,0.0002334863820578903,0.0018882290460169315,0,1,-1000,0,1,0,-1,2,0,1500.0
19:04:56.973,STABILIZE,-35.3632622,149.1652375,32,-0.00021545331401284784,0.0009901184821501374,0.024006308987736702,7.391479448415339e-05,0.0002334863820578903,0.0018882290460169315,0,1,-1000,0,1,0,-1,2,0,1500.0
19:04:57.174,STABILIZE,-35.3632622,149.1652375,32,-0.00021545331401284784,0.0009901184821501374,0.024006308987736702,7.391479448415339e-05,0.0002334863820578903,0.0018882290460169315,0,1,-1000,0,1,0,-1,2,0,1500.0
19:04:57.376,STABILIZE,-35.3632622,149.1652375,32,-0.00021545331401284784,0.0009901184821501374,0.024006308987736702,7.391479448415339e-05,0.0002334863820578903,0.0018882290460169315,0,1,-1000,0,1,0,-1,2,0,1500.0
19:04:57.578,STABILIZE,-35.3632622,149.1652375,18,-0.00037102331407368183,0.0009411501814611256,0.023310216143727303,0.0003518058802001178,0.00025668152375146747,0.0018550530076026917,0,1,-1000,0,0,0,-1,2,0,1500.0
19:04:57.779,STABILIZE,-35.3632622,149.1652375,13,-0.00042549241334199905,0.000934584706556052,0.02320205233991146,0.00036496500251814723,0.00028904149075970054,0.001904994249343872,0,2,-1000,1,0,0,-1,2,1,1500.0
19:04:57.980,STABILIZE,-35.3632622,149.1652375,13,-0.0005798953352496028,0.0009218614432029426,0.022880280390381813,0.0002460164250805974,0.00022464891662821174,0.0017670764354988933,0,2,-1000,1,0,0,-1,2,1,1500.0
19:04:58.184,STABILIZE,-35.3632622,149.1652375,13,-0.0005798953352496028,0.0009218614432029426,0.022880280390381813,0.0002460164250805974,0.00022464891662821174,0.0017670764354988933,0,2,-1000,1,0,0,-1,2,1,1500.0
19:04:58.385,STABILIZE,-35.3632622,149.1652375,13,-0.0005798953352496028,0.0009218614432029426,0.022880280390381813,0.0002460164250805974,0.00022464891662821174,0.0017670764354988933,0,2,-1000,1,0,0,-1,2,1,1500.0
19:04:58.586,STABILIZE,-35.3632622,149.1652375,13,-0.0005798953352496028,0.0009218614432029426,0.022880280390381813,0.0002460164250805974,0.00022464891662821174,0.0017670764354988933,0,2,-1000,1,0,0,-1,2,1,1500.0
19:04:58.791,STABILIZE,-35.3632622,149.1652375,13,-0.0005798953352496028,0.0009218614432029426,0.022880280390381813,0.0002460164250805974,0.00022464891662821174,0.0017670764354988933,0,2,-1000,1,0,0,-1,2,1,1500.0
19:04:59.000,STABILIZE,-35.3632622,149.1652375,13,-0.0005798953352496028,0.0009218614432029426,0.022880280390381813,0.0002460164250805974,0.00022464891662821174,0.0017670764354988933,0,2,-1000,1,0,0,-1,2,1,1500.0
19:04:59.205,STABILIZE,-35.3632622,149.1652375,13,-0.0005798953352496028,0.0009218614432029426,0.022880280390381813,0.0002460164250805974,0.00022464891662821174,0.0017670764354988933,0,2,-1000,1,0,0,-1,2,1,1500.0
19:04:59.412,STABILIZE,-35.3632622,149.1652375,13,-0.0005798953352496028,0.0009218614432029426,0.022880280390381813,0.0002460164250805974,0.00022464891662821174,0.0017670764354988933,0,2,-1000,1,0,0,-1,2,1,1500.0
19:04:59.614,STABILIZE,-35.3632622,149.1652375,13,-0.0005798953352496028,0.0009218614432029426,0.022880280390381813,0.0002460164250805974,0.00022464891662821174,0.0017670764354988933,0,2,-1000,1,0,0,-1,2,1,1500.0
19:04:59.815,STABILIZE,-35.3632622,149.1652375,0,-0.0004968316061422229,0.0009287973516620696,0.022341322153806686,0.00031255936482921243,0.0003327239537611604,0.0016429878305643797,0,1,-1000,0,0,0,-1,1,1,1500.0
19:05:00.016,STABILIZE,-35.3632622,149.1652375,0,-0.0006290609017014503,0.0009275267948396504,0.02217448316514492,0.00025797210400924087,0.0003011342487297952,0.0016357451677322388,0,1,-1000,0,0,0,-1,2,3,1500.0
19:05:00.218,STABILIZE,-35.3632622,149.1652375,0,-0.0006290609017014503,0.0009275267948396504,0.02217448316514492,0.00025797210400924087,0.0003011342487297952,0.0016357451677322388,0,1,-1000,0,0,0,-1,2,3,1500.0
19:05:00.421,STABILIZE,-35.3632622,149.1652375,0,-0.0006290609017014503,0.0009275267948396504,0.02217448316514492,0.00025797210400924087,0.0003011342487297952,0.0016357451677322388,0,1,-1000,0,0,0,-1,2,3,1500.0
19:05:00.626,STABILIZE,-35.3632622,149.1652375,0,-0.0006290609017014503,0.0009275267948396504,0.02217448316514492,0.00025797210400924087,0.0003011342487297952,0.0016357451677322388,0,1,-1000,0,0,0,-1,2,3,1500.0
19:05:00.827,STABILIZE,-35.3632622,149.1652375,0,-0.0006290609017014503,0.0009275267948396504,0.02217448316514492,0.00025797210400924087,0.0003011342487297952,0.0016357451677322388,0,1,-1000,0,0,0,-1,2,3,1500.0
19:05:01.029,STABILIZE,-35.3632622,149.1652375,0,-0.0006290609017014503,0.0009275267948396504,0.02217448316514492,0.00025797210400924087,0.0003011342487297952,0.0016357451677322388,0,1,-1000,0,0,0,-1,2,3,1500.0
19:05:01.231,STABILIZE,-35.3632622,149.1652375,0,-0.0006290609017014503,0.0009275267948396504,0.02217448316514492,0.00025797210400924087,0.0003011342487297952,0.0016357451677322388,0,1,-1000,0,0,0,-1,2,3,1500.0
19:05:01.434,STABILIZE,-35.3632622,149.1652375,0,-0.0006290609017014503,0.0009275267948396504,0.02217448316514492,0.00025797210400924087,0.0003011342487297952,0.0016357451677322388,0,1,-1000,0,0,0,-1,2,3,1500.0
19:05:01.636,STABILIZE,-35.3632622,149.1652375,0,-0.0006290609017014503,0.0009275267948396504,0.02217448316514492,0.00025797210400924087,0.0003011342487297952,0.0016357451677322388,0,1,-1000,0,0,0,-1,2,3,1500.0
19:05:01.838,STABILIZE,-35.3632622,149.1652375,0,-0.0008694531861692667,0.000942982966080308,0.021817833185195923,0.00028654717607423663,0.0002621366293169558,0.0016475147567689419,0,1,-1000,0,0,0,-1,1,2,1500.0
19:05:02.039,STABILIZE,-35.3632622,149.1652375,0,-0.0009713629842735827,0.000960216042585671,0.02161647006869316,0.00020245189080014825,0.00020441552624106407,0.0015847105532884598,0,1,-1000,1,0,0,-1,1,2,1500.0
19:05:02.241,STABILIZE,-35.3632622,149.1652375,0,-0.0009713629842735827,0.000960216042585671,0.02161647006869316,0.00020245189080014825,0.00020441552624106407,0.0015847105532884598,0,1,-1000,1,0,0,-1,1,2,1500.0
19:05:02.447,STABILIZE,-35.3632622,149.1652375,0,-0.0009713629842735827,0.000960216042585671,0.02161647006869316,0.00020245189080014825,0.00020441552624106407,0.0015847105532884598,0,1,-1000,1,0,0,-1,1,2,1500.0
19:05:02.650,STABILIZE,-35.3632622,149.1652375,0,-0.0009713629842735827,0.000960216042585671,0.02161647006869316,0.00020245189080014825,0.00020441552624106407,0.0015847105532884598,0,1,-1000,1,0,0,-1,1,2,1500.0
19:05:02.851,STABILIZE,-35.3632622,149.1652375,0,-0.0009713629842735827,0.000960216042585671,0.02161647006869316,0.00020245189080014825,0.00020441552624106407,0.0015847105532884598,0,1,-1000,1,0,0,-1,1,2,1500.0
19:05:03.059,STABILIZE,-35.3632622,149.1652375,0,-0.0009713629842735827,0.000960216042585671,0.02161647006869316,0.00020245189080014825,0.00020441552624106407,0.0015847105532884598,0,1,-1000,1,0,0,-1,1,2,1500.0
19:05:03.260,STABILIZE,-35.3632622,149.1652375,0,-0.0009713629842735827,0.000960216042585671,0.02161647006869316,0.00020245189080014825,0.00020441552624106407,0.0015847105532884598,0,1,-1000,1,0,0,-1,1,2,1500.0
19:05:03.464,STABILIZE,-35.3632622,149.1652375,0,-0.0009713629842735827,0.000960216042585671,0.02161647006869316,0.00020245189080014825,0.00020441552624106407,0.0015847105532884598,0,1,-1000,1,0,0,-1,1,2,1500.0
19:05:03.669,STABILIZE,-35.3632622,149.1652375,0,-0.0009713629842735827,0.000960216042585671,0.02161647006869316,0.00020245189080014825,0.00020441552624106407,0.0015847105532884598,0,1,-1000,1,0,0,-1,1,2,1500.0
19:05:03.876,STABILIZE,-35.3632622,149.1652375,0,-0.001070315600372851,0.0009527629008516669,0.021412286907434464,0.0004161788965575397,0.00020471826428547502,0.0015888819471001625,0,2,-1000,0,0,0,-1,1,1,1500.0
19:05:04.079,STABILIZE,-35.3632622,149.1652375,0,-0.0011241043685004115,0.0009597094031050801,0.0212339386343956,0.0002387768472544849,0.000304663204587996,0.0015028277412056923,0,1,-1000,0,0,0,-1,1,1,1500.0
19:05:04.282,STABILIZE,-35.3632622,149.1652375,0,-0.0011241043685004115,0.0009597094031050801,0.0212339386343956,0.0002387768472544849,0.000304663204587996,0.0015028277412056923,0,1,-1000,0,0,0,-1,1,1,1500.0
19:05:04.485,STABILIZE,-35.3632622,149.1652375,0,-0.0011241043685004115,0.0009597094031050801,0.0212339386343956,0.0002387768472544849,0.000304663204587996,0.0015028277412056923,0,1,-1000,0,0,0,-1,1,1,1500.0
19:05:04.687,STABILIZE,-35.3632622,149.1652375,0,-0.0011241043685004115,0.0009597094031050801,0.0212339386343956,0.0002387768472544849,0.000304663204587996,0.0015028277412056923,0,1,-1000,0,0,0,-1,1,1,1500.0
19:05:04.889,STABILIZE,-35.3632622,149.1652375,0,-0.0011241043685004115,0.0009597094031050801,0.0212339386343956,0.0002387768472544849,0.000304663204587996,0.0015028277412056923,0,1,-1000,0,0,0,-1,1,1,1500.0
19:05:05.091,STABILIZE,-35.3632622,149.1652375,0,-0.0011241043685004115,0.0009597094031050801,0.0212339386343956,0.0002387768472544849,0.000304663204587996,0.0015028277412056923,0,1,-1000,0,0,0,-1,1,1,1500.0
19:05:05.293,STABILIZE,-35.3632622,149.1652375,0,-0.0011241043685004115,0.0009597094031050801,0.0212339386343956,0.0002387768472544849,0.000304663204587996,0.0015028277412056923,0,1,-1000,0,0,0,-1,1,1,1500.0
19:05:05.496,STABILIZE,-35.3632622,149.1652375,0,-0.0011241043685004115,0.0009597094031050801,0.0212339386343956,0.0002387768472544849,0.000304663204587996,0.0015028277412056923,0,1,-1000,0,0,0,-1,1,1,1500.0
19:05:05.698,STABILIZE,-35.3632622,149.1652375,0,-0.0011241043685004115,0.0009597094031050801,0.0212339386343956,0.0002387768472544849,0.000304663204587996,0.0015028277412056923,0,1,-1000,0,0,0,-1,1,1,1500.0
19:05:05.909,STABILIZE,-35.3632622,149.1652375,0,-0.0011383278761059046,0.0009963808115571737,0.02095196209847927,0.00016135815531015396,0.00024324283003807068,0.0014794270973652601,0,1,-1000,1,0,0,-1,1,1,1500.0
19:05:06.111,STABILIZE,-35.3632622,149.1652375,0,-0.0011383278761059046,0.0009963808115571737,0.02095196209847927,0.00016135815531015396,0.00024324283003807068,0.0014794270973652601,0,2,-1000,0,0,0,-1,1,1,1500.0
19:05:06.313,STABILIZE,-35.3632622,149.1652375,0,-0.0011383278761059046,0.0009963808115571737,0.02095196209847927,0.00016135815531015396,0.00024324283003807068,0.0014794270973652601,0,2,-1000,0,0,0,-1,1,1,1500.0
19:05:06.515,STABILIZE,-35.3632622,149.1652375,0,-0.0011383278761059046,0.0009963808115571737,0.02095196209847927,0.00016135815531015396,0.00024324283003807068,0.0014794270973652601,0,2,-1000,0,0,0,-1,1,1,1500.0
19:05:06.716,STABILIZE,-35.3632622,149.1652375,0,-0.0011383278761059046,0.0009963808115571737,0.02095196209847927,0.00016135815531015396,0.00024324283003807068,0.0014794270973652601,0,2,-1000,0,0,0,-1,1,1,1500.0
19:05:06.918,STABILIZE,-35.3632622,149.1652375,0,-0.0011383278761059046,0.0009963808115571737,0.02095196209847927,0.00016135815531015396,0.00024324283003807068,0.0014794270973652601,0,2,-1000,0,0,0,-1,1,1,1500.0
19:05:07.120,STABILIZE,-35.3632622,149.1652375,0,-0.0011383278761059046,0.0009963808115571737,0.02095196209847927,0.00016135815531015396,0.00024324283003807068,0.0014794270973652601,0,2,-1000,0,0,0,-1,1,1,1500.0
19:05:07.322,STABILIZE,-35.3632622,149.1652375,0,-0.0011383278761059046,0.0009963808115571737,0.02095196209847927,0.00016135815531015396,0.00024324283003807068,0.0014794270973652601,0,2,-1000,0,0,0,-1,1,1,1500.0
19:05:07.526,STABILIZE,-35.3632622,149.1652375,0,-0.0011383278761059046,0.0009963808115571737,0.02095196209847927,0.00016135815531015396,0.00024324283003807068,0.0014794270973652601,0,2,-1000,0,0,0,-1,1,1,1500.0
19:05:07.727,STABILIZE,-35.3632622,149.1652375,0,-0.0011383278761059046,0.0009963808115571737,0.02095196209847927,0.00016135815531015396,0.00024324283003807068,0.0014794270973652601,0,2,-1000,0,0,0,-1,1,1,1500.0
19:05:07.928,STABILIZE,-35.3632622,149.1652375,0,-0.0011109693441540003,0.0009982656920328736,0.020632155239582062,0.00016503105871379375,0.00034703087294474244,0.0013666738523170352,0,1,-1000,0,0,1,-1,1,0,1500.0
19:05:08.131,STABILIZE,-35.3632622,149.1652375,0,-0.0011109693441540003,0.0009982656920328736,0.020632155239582062,0.00016503105871379375,0.00034703087294474244,0.0013666738523170352,0,1,-1000,0,0,1,-1,1,0,1500.0
19:05:08.334,STABILIZE,-35.3632622,149.1652375,0,-0.0011109693441540003,0.0009982656920328736,0.020632155239582062,0.00016503105871379375,0.00034703087294474244,0.0013666738523170352,0,1,-1000,0,0,1,-1,1,0,1500.0
19:05:08.536,STABILIZE,-35.3632622,149.1652375,0,-0.0011109693441540003,0.0009982656920328736,0.020632155239582062,0.00016503105871379375,0.00034703087294474244,0.0013666738523170352,0,1,-1000,0,0,1,-1,1,0,1500.0
19:05:08.740,STABILIZE,-35.3632622,149.1652375,0,-0.0011109693441540003,0.0009982656920328736,0.020632155239582062,0.00016503105871379375,0.00034703087294474244,0.0013666738523170352,0,1,-1000,0,0,1,-1,1,0,1500.0
19:05:08.942,STABILIZE,-35.3632622,149.1652375,0,-0.0011109693441540003,0.0009982656920328736,0.020632155239582062,0.00016503105871379375,0.00034703087294474244,0.0013666738523170352,0,1,-1000,0,0,1,-1,1,0,1500.0
19:05:09.144,STABILIZE,-35.3632622,149.1652375,0,-0.0011109693441540003,0.0009982656920328736,0.020632155239582062,0.00016503105871379375,0.00034703087294474244,0.0013666738523170352,0,1,-1000,0,0,1,-1,1,0,1500.0
19:05:09.346,STABILIZE,-35.3632622,149.1652375,0,-0.0011109693441540003,0.0009982656920328736,0.020632155239582062,0.00016503105871379375,0.00034703087294474244,0.0013666738523170352,0,1,-1000,0,0,1,-1,1,0,1500.0
19:05:09.547,STABILIZE,-35.3632622,149.1652375,0,-0.0011109693441540003,0.0009982656920328736,0.020632155239582062,0.00016503105871379375,0.00034703087294474244,0.0013666738523170352,0,1,-1000,0,0,1,-1,1,0,1500.0
19:05:09.748,STABILIZE,-35.3632622,149.1652375,0,-0.0011109693441540003,0.0009982656920328736,0.020632155239582062,0.00016503105871379375,0.00034703087294474244,0.0013666738523170352,0,1,-1000,0,1,1,-1,1,0,1500.0
19:05:09.950,STABILIZE,-35.3632622,149.1652375,0,-0.0007715558167546988,0.0009718914516270161,0.020317187532782555,0.0002377836499363184,0.0003310086322017014,0.0013512256555259228,0,2,-1000,0,1,0,-1,1,1,1500.0
19:05:10.153,STABILIZE,-35.3632622,149.1652375,0,-0.0007715558167546988,0.0009718914516270161,0.020317187532782555,0.0002377836499363184,0.0003310086322017014,0.0013512256555259228,0,2,-1000,0,1,0,-1,1,1,1500.0
19:05:10.358,STABILIZE,-35.3632622,149.1652375,0,-0.0007715558167546988,0.0009718914516270161,0.020317187532782555,0.0002377836499363184,0.0003310086322017014,0.0013512256555259228,0,2,-1000,0,1,0,-1,1,1,1500.0
19:05:10.561,STABILIZE,-35.3632622,149.1652375,0,-0.0007715558167546988,0.0009718914516270161,0.020317187532782555,0.0002377836499363184,0.0003310086322017014,0.0013512256555259228,0,2,-1000,0,1,0,-1,1,1,1500.0
19:05:10.763,STABILIZE,-35.3632622,149.1652375,0,-0.0007715558167546988,0.0009718914516270161,0.020317187532782555,0.0002377836499363184,0.0003310086322017014,0.0013512256555259228,0,2,-1000,0,1,0,-1,1,1,1500.0
19:05:10.965,STABILIZE,-35.3632622,149.1652375,0,-0.0007715558167546988,0.0009718914516270161,0.020317187532782555,0.0002377836499363184,0.0003310086322017014,0.0013512256555259228,0,2,-1000,0,1,0,-1,1,1,1500.0
19:05:11.168,STABILIZE,-35.3632622,149.1652375,0,-0.0007715558167546988,0.0009718914516270161,0.020317187532782555,0.0002377836499363184,0.0003310086322017014,0.0013512256555259228,0,2,-1000,0,1,0,-1,1,1,1500.0
19:05:11.374,STABILIZE,-35.3632622,149.1652375,0,-0.0007715558167546988,0.0009718914516270161,0.020317187532782555,0.0002377836499363184,0.0003310086322017014,0.0013512256555259228,0,2,-1000,0,1,0,-1,1,1,1500.0
19:05:11.576,STABILIZE,-35.3632622,149.1652375,0,-0.0007715558167546988,0.0009718914516270161,0.020317187532782555,0.0002377836499363184,0.0003310086322017014,0.0013512256555259228,0,2,-1000,0,1,0,-1,1,1,1500.0
19:05:11.777,STABILIZE,-35.3632622,149.1652375,0,-0.0007715558167546988,0.0009718914516270161,0.020317187532782555,0.0002377836499363184,0.0003310086322017014,0.0013512256555259228,0,2,-1000,0,1,0,-1,1,1,1500.0
19:05:11.981,STABILIZE,-35.3632622,149.1652375,4,-0.0008578648557886481,0.0009727053693495691,0.01997547037899494,0.0004632574855349958,0.00017642078455537558,0.0013536539627239108,0,1,-1000,1,1,1,-1,1,0,1500.0
19:05:12.183,AUTO,-35.3632622,149.1652375,4,-0.0008578648557886481,0.0009727053693495691,0.01997547037899494,0.0004632574855349958,0.00017642078455537558,0.0013536539627239108,0,1,-1000,1,1,1,-1,1,0,1500.0
19:05:12.385,AUTO,-35.3632622,149.1652375,4,-0.0008578648557886481,0.0009727053693495691,0.01997547037899494,0.0004632574855349958,0.00017642078455537558,0.0013536539627239108,0,1,-1000,1,1,1,-1,1,0,1500.0
19:05:12.587,AUTO,-35.3632622,149.1652375,4,-0.0008578648557886481,0.0009727053693495691,0.01997547037899494,0.0004632574855349958,0.00017642078455537558,0.0013536539627239108,0,1,-1000,1,1,1,-1,1,0,1500.0
19:05:12.789,AUTO,-35.3632622,149.1652375,4,-0.0008578648557886481,0.0009727053693495691,0.01997547037899494,0.0004632574855349958,0.00017642078455537558,0.0013536539627239108,0,1,-1000,1,1,1,-1,1,0,1500.0
19:05:12.990,AUTO,-35.3632622,149.1652375,4,-0.0008578648557886481,0.0009727053693495691,0.01997547037899494,0.0004632574855349958,0.00017642078455537558,0.0013536539627239108,0,1,-1000,1,1,1,-1,1,0,1500.0
19:05:13.195,AUTO,-35.3632622,149.1652375,4,-0.0008578648557886481,0.0009727053693495691,0.01997547037899494,0.0004632574855349958,0.00017642078455537558,0.0013536539627239108,0,1,-1000,1,1,1,-1,1,0,1500.0
19:05:13.396,AUTO,-35.3632622,149.1652375,4,-0.0008578648557886481,0.0009727053693495691,0.01997547037899494,0.0004632574855349958,0.00017642078455537558,0.0013536539627239108,0,1,-1000,1,1,1,-1,1,0,1500.0
19:05:13.598,AUTO,-35.3632622,149.1652375,4,-0.0008578648557886481,0.0009727053693495691,0.01997547037899494,0.0004632574855349958,0.00017642078455537558,0.0013536539627239108,0,1,-1000,1,1,1,-1,1,0,1500.0
19:05:13.800,AUTO,-35.3632622,149.1652375,7,-0.0006251886952668428,0.0011354760499671102,0.019753603264689445,0.0004331726231612265,0.0002915424993261695,0.0013354650000110269,0,4,-997,2,0,1,0,0,-1,1500.0
19:05:14.001,AUTO,-35.3632622,149.1652375,9,-0.0005738807958550751,0.0011954535730183125,0.019713828340172768,0.0003582845092751086,0.0002288104733452201,0.0012499295407906175,0,1,-1000,0,1,1,0,0,-1,1500.0
19:05:14.206,AUTO,-35.3632622,149.1652375,9,-0.0005738807958550751,0.0011954535730183125,0.019713828340172768,0.0003582845092751086,0.0002288104733452201,0.0012499295407906175,0,1,-1000,0,1,1,0,0,-1,1500.0
19:05:14.408,AUTO,-35.3632622,149.1652375,9,-0.0005738807958550751,0.0011954535730183125,0.019713828340172768,0.0003582845092751086,0.0002288104733452201,0.0012499295407906175,0,1,-1000,0,1,1,0,0,-1,1500.0
19:05:14.611,AUTO,-35.3632622,149.1652375,9,-0.0005738807958550751,0.0011954535730183125,0.019713828340172768,0.0003582845092751086,0.0002288104733452201,0.0012499295407906175,0,1,-1000,0,1,1,0,0,-1,1500.0
19:05:14.814,AUTO,-35.3632622,149.1652375,9,-0.0005738807958550751,0.0011954535730183125,0.019713828340172768,0.0003582845092751086,0.0002288104733452201,0.0012499295407906175,0,1,-1000,0,1,1,0,0,-1,1500.0
19:05:15.015,AUTO,-35.3632622,149.1652375,9,-0.0005738807958550751,0.0011954535730183125,0.019713828340172768,0.0003582845092751086,0.0002288104733452201,0.0012499295407906175,0,1,-1000,0,1,1,0,0,-1,1500.0
19:05:15.216,AUTO,-35.3632622,149.1652375,9,-0.0005738807958550751,0.0011954535730183125,0.019713828340172768,0.0003582845092751086,0.0002288104733452201,0.0012499295407906175,0,1,-1000,0,1,1,0,0,-1,1500.0
19:05:15.418,AUTO,-35.3632622,149.1652375,9,-0.0005738807958550751,0.0011954535730183125,0.019713828340172768,0.0003582845092751086,0.0002288104733452201,0.0012499295407906175,0,1,-1000,0,1,1,0,0,-1,1500.0
19:05:15.620,AUTO,-35.3632622,149.1652375,13,-0.00011851367889903486,0.0017054451163858175,0.019359149038791656,0.00038074306212365627,0.00034064112696796656,0.0012181372148916125,0,2,-1000,1,1,0,0,0,0,1500.0
19:05:15.824,AUTO,-35.3632622,149.1652375,13,-0.00011851367889903486,0.0017054451163858175,0.019359149038791656,0.00038074306212365627,0.00034064112696796656,0.0012181372148916125,0,1,-1000,0,1,0,0,0,0,1500.0
19:05:16.026,AUTO,-35.3632622,149.1652375,13,-0.00011851367889903486,0.0017054451163858175,0.019359149038791656,0.00038074306212365627,0.00034064112696796656,0.0012181372148916125,0,1,-1000,0,1,0,0,0,0,1500.0
19:05:16.228,AUTO,-35.3632622,149.1652375,13,-0.00011851367889903486,0.0017054451163858175,0.019359149038791656,0.00038074306212365627,0.00034064112696796656,0.0012181372148916125,0,1,-1000,0,1,0,0,0,0,1500.0
19:05:16.430,AUTO,-35.3632622,149.1652375,13,-0.00011851367889903486,0.0017054451163858175,0.019359149038791656,0.00038074306212365627,0.00034064112696796656,0.0012181372148916125,0,1,-1000,0,1,0,0,0,0,1500.0
19:05:16.633,AUTO,-35.3632622,149.1652375,13,-0.00011851367889903486,0.0017054451163858175,0.019359149038791656,0.00038074306212365627,0.00034064112696796656,0.0012181372148916125,0,1,-1000,0,1,0,0,0,0,1500.0
19:05:16.835,AUTO,-35.3632622,149.1652375,13,-0.00011851367889903486,0.0017054451163858175,0.019359149038791656,0.00038074306212365627,0.00034064112696796656,0.0012181372148916125,0,1,-1000,0,1,0,0,0,0,1500.0
19:05:17.037,AUTO,-35.3632622,149.1652375,13,-0.00011851367889903486,0.0017054451163858175,0.019359149038791656,0.00038074306212365627,0.00034064112696796656,0.0012181372148916125,0,1,-1000,0,1,0,0,0,0,1500.0
19:05:17.241,AUTO,-35.3632622,149.1652375,13,-0.00011851367889903486,0.0017054451163858175,0.019359149038791656,0.00038074306212365627,0.00034064112696796656,0.0012181372148916125,0,1,-1000,0,1,0,0,0,0,1500.0
19:05:17.443,AUTO,-35.3632621,149.1652375,1183,0.015222289599478245,0.00028455740539357066,0.018843485042452812,0.04819907248020172,-0.006657827645540237,0.0014404747635126114,0,0,-1030,49,-5,1,0,2,-142,1500.0
19:05:17.670,AUTO,-35.363262,149.1652375,1554,0.02701527625322342,-0.00143875100184232,0.018885519355535507,0.046482402831315994,-0.006748853716999292,0.0022901627235114574,0,0,-1012,47,-5,2,1,7,-146,1500.0
19:05:17.897,AUTO,-35.363262,149.1652375,1554,0.02701527625322342,-0.00143875100184232,0.018885519355535507,0.046482402831315994,-0.006748853716999292,0.0022901627235114574,0,0,-1012,47,-5,2,1,7,-146,1500.0
19:05:18.126,AUTO,-35.363262,149.1652375,1554,0.02701527625322342,-0.00143875100184232,0.018885519355535507,0.046482402831315994,-0.006748853716999292,0.0022901627235114574,0,0,-1012,47,-5,2,1,7,-146,1500.0
19:05:18.353,AUTO,-35.363262,149.1652375,1554,0.02701527625322342,-0.00143875100184232,0.018885519355535507,0.046482402831315994,-0.006748853716999292,0.0022901627235114574,0,0,-1012,47,-5,2,1,7,-146,1500.0
19:05:18.589,AUTO,-35.363262,149.1652375,1554,0.02701527625322342,-0.00143875100184232,0.018885519355535507,0.046482402831315994,-0.006748853716999292,0.0022901627235114574,0,0,-1012,47,-5,2,1,7,-146,1500.0
19:05:18.814,AUTO,-35.363262,149.1652375,1554,0.02701527625322342,-0.00143875100184232,0.018885519355535507,0.046482402831315994,-0.006748853716999292,0.0022901627235114574,0,0,-1012,47,-5,2,1,7,-146,1500.0
19:05:19.040,AUTO,-35.3632613,149.1652417,3547,0.018388306722044945,0.021510299295186996,-0.04201434552669525,-0.17740556597709656,0.03639207407832146,-0.08288838714361191,1,-9,-991,-80,95,-106,8,56,-145,1500.0
19:05:19.243,AUTO,-35.363261,149.1652444,4304,-0.03232767805457115,0.03487549349665642,-0.09063000977039337,-0.02931230701506138,0.026490168645977974,-0.10185637325048447,5,-10,-1008,-28,27,-102,-2,42,-148,1500.0
19:05:19.445,AUTO,-35.363261,149.1652444,4304,-0.03232767805457115,0.03487549349665642,-0.09063000977039337,-0.02931230701506138,0.026490168645977974,-0.10185637325048447,5,-10,-1008,-28,27,-102,-2,42,-148,1500.0
19:05:19.649,AUTO,-35.363261,149.1652444,4304,-0.03232767805457115,0.03487549349665642,-0.09063000977039337,-0.02931230701506138,0.026490168645977974,-0.10185637325048447,5,-10,-1008,-28,27,-102,-2,42,-148,1500.0
19:05:19.851,AUTO,-35.363261,149.1652444,4304,-0.03232767805457115,0.03487549349665642,-0.09063000977039337,-0.02931230701506138,0.026490168645977974,-0.10185637325048447,5,-10,-1008,-28,27,-102,-2,42,-148,1500.0
19:05:20.052,AUTO,-35.363261,149.1652444,4304,-0.03232767805457115,0.03487549349665642,-0.09063000977039337,-0.02931230701506138,0.026490168645977974,-0.10185637325048447,5,-10,-1008,-28,27,-102,-2,42,-148,1500.0
19:05:20.254,AUTO,-35.363261,149.1652444,4304,-0.03232767805457115,0.03487549349665642,-0.09063000977039337,-0.02931230701506138,0.026490168645977974,-0.10185637325048447,5,-10,-1008,-28,27,-102,-2,42,-148,1500.0
19:05:20.456,AUTO,-35.363261,149.1652444,4304,-0.03232767805457115,0.03487549349665642,-0.09063000977039337,-0.02931230701506138,0.026490168645977974,-0.10185637325048447,5,-10,-1008,-28,27,-102,-2,42,-148,1500.0
19:05:20.658,AUTO,-35.363261,149.1652444,4304,-0.03232767805457115,0.03487549349665642,-0.09063000977039337,-0.02931230701506138,0.026490168645977974,-0.10185637325048447,5,-10,-1008,-28,27,-102,-2,42,-148,1500.0
19:05:20.859,AUTO,-35.3632618,149.1652463,5765,-0.07076359540224075,-0.029927531257271767,-0.07604526728391647,-0.0012993512209504843,-0.030281752347946167,0.02787594310939312,2,1,-1004,0,-29,27,-9,-10,-149,1500.0
19:05:21.065,AUTO,-35.363262,149.1652437,6918,-0.040267426520586014,-0.02362925000488758,-0.07267092168331146,0.06012134626507759,0.00975674856454134,0.007660458795726299,-6,8,-1001,60,10,7,6,-51,-149,1500.0
19:05:21.266,AUTO,-35.363262,149.1652437,6918,-0.040267426520586014,-0.02362925000488758,-0.07267092168331146,0.06012134626507759,0.00975674856454134,0.007660458795726299,-6,8,-1001,60,10,7,6,-51,-149,1500.0
19:05:21.467,AUTO,-35.363262,149.1652437,6918,-0.040267426520586014,-0.02362925000488758,-0.07267092168331146,0.06012134626507759,0.00975674856454134,0.007660458795726299,-6,8,-1001,60,10,7,6,-51,-149,1500.0
19:05:21.670,AUTO,-35.363262,149.1652437,6918,-0.040267426520586014,-0.02362925000488758,-0.07267092168331146,0.06012134626507759,0.00975674856454134,0.007660458795726299,-6,8,-1001,60,10,7,6,-51,-149,1500.0
19:05:21.873,AUTO,-35.363262,149.1652437,6918,-0.040267426520586014,-0.02362925000488758,-0.07267092168331146,0.06012134626507759,0.00975674856454134,0.007660458795726299,-6,8,-1001,60,10,7,6,-51,-149,1500.0
19:05:22.076,AUTO,-35.363262,149.1652437,6918,-0.040267426520586014,-0.02362925000488758,-0.07267092168331146,0.06012134626507759,0.00975674856454134,0.007660458795726299,-6,8,-1001,60,10,7,6,-51,-149,1500.0
19:05:22.318,AUTO,-35.363262,149.1652437,6918,-0.040267426520586014,-0.02362925000488758,-0.07267092168331146,0.06012134626507759,0.00975674856454134,0.007660458795726299,-6,8,-1001,60,10,7,6,-51,-149,1500.0
19:05:22.531,AUTO,-35.363262,149.1652437,6918,-0.040267426520586014,-0.02362925000488758,-0.07267092168331146,0.06012134626507759,0.00975674856454134,0.007660458795726299,-6,8,-1001,60,10,7,6,-51,-149,1500.0
19:05:22.743,AUTO,-35.363262,149.1652437,6918,-0.040267426520586014,-0.02362925000488758,-0.07267092168331146,0.06012134626507759,0.00975674856454134,0.007660458795726299,-6,8,-1001,60,10,7,6,-51,-149,1500.0
19:05:22.957,AUTO,-35.3632604,149.1652333,9889,0.055211469531059265,0.032316870987415314,-0.09432628005743027,0.028241818770766258,0.03737124800682068,-0.04341302067041397,-6,5,-1001,32,42,-34,-1,-13,-152,1500.0
19:05:23.163,AUTO,-35.3632605,149.1652331,10281,0.06058371067047119,0.041858602315187454,-0.1066242903470993,0.021469369530677795,0.03248034417629242,-0.055202532559633255,0,2,-999,22,33,-55,-8,1,-152,1500.0
19:05:23.365,AUTO,-35.3632605,149.1652331,10281,0.06058371067047119,0.041858602315187454,-0.1066242903470993,0.021469369530677795,0.03248034417629242,-0.055202532559633255,0,2,-999,22,33,-55,-8,1,-152,1500.0
19:05:23.567,AUTO,-35.3632605,149.1652331,10281,0.06058371067047119,0.041858602315187454,-0.1066242903470993,0.021469369530677795,0.03248034417629242,-0.055202532559633255,0,2,-999,22,33,-55,-8,1,-152,1500.0
19:05:23.769,AUTO,-35.3632605,149.1652331,10281,0.06058371067047119,0.041858602315187454,-0.1066242903470993,0.021469369530677795,0.03248034417629242,-0.055202532559633255,0,2,-999,22,33,-55,-8,1,-152,1500.0
19:05:23.972,AUTO,-35.3632605,149.1652331,10281,0.06058371067047119,0.041858602315187454,-0.1066242903470993,0.021469369530677795,0.03248034417629242,-0.055202532559633255,0,2,-999,22,33,-55,-8,1,-152,1500.0
19:05:27.368,AUTO,-35.3632605,149.1652331,10281,0.06058371067047119,0.041858602315187454,-0.1066242903470993,0.021469369530677795,0.03248034417629242,-0.055202532559633255,0,2,-999,22,33,-55,-8,1,-152,1500.0
19:05:27.570,AUTO,-35.3632605,149.1652331,10281,0.06058371067047119,0.041858602315187454,-0.1066242903470993,0.021469369530677795,0.03248034417629242,-0.055202532559633255,0,2,-999,22,33,-55,-8,1,-152,1500.0
19:05:27.774,AUTO,-35.3632605,149.1652331,10281,0.06058371067047119,0.041858602315187454,-0.1066242903470993,0.021469369530677795,0.03248034417629242,-0.055202532559633255,0,2,-999,22,33,-55,-8,1,-152,1500.0
19:05:27.976,AUTO,-35.3632626,149.1652362,12200,-0.014440681785345078,-0.010788709856569767,-0.09622874855995178,-0.04479658976197243,-0.026555493474006653,0.00755474204197526,8,-3,-1004,-65,-44,23,-19,30,-150,1500.0
19:05:28.177,AUTO,-35.3632632,149.1652375,12976,-0.024893661960959435,-0.01784748025238514,-0.09896204620599747,-0.0015780373942106962,-0.0053317733108997345,-0.014660725370049477,4,-1,-1003,0,-4,-14,-8,16,-152,1500.0
19:05:28.378,AUTO,-35.3632634,149.1652378,13367,-0.02380271442234516,-0.018202660605311394,-0.10396996885538101,0.008991200476884842,0.002172331092879176,-0.02185971476137638,2,-1,-1001,9,3,-22,-3,8,-152,1500.0
19:05:28.580,AUTO,-35.3632634,149.1652378,13367,-0.02380271442234516,-0.018202660605311394,-0.10396996885538101,0.008991200476884842,0.002172331092879176,-0.02185971476137638,2,-1,-1001,9,3,-22,-3,8,-152,1500.0
19:05:28.782,AUTO,-35.3632634,149.1652378,13367,-0.02380271442234516,-0.018202660605311394,-0.10396996885538101,0.008991200476884842,0.002172331092879176,-0.02185971476137638,2,-1,-1001,9,3,-22,-3,8,-152,1500.0
19:05:28.985,AUTO,-35.3632634,149.1652378,13367,-0.02380271442234516,-0.018202660605311394,-0.10396996885538101,0.008991200476884842,0.002172331092879176,-0.02185971476137638,2,-1,-1001,9,3,-22,-3,8,-152,1500.0
19:05:29.187,AUTO,-35.3632634,149.1652378,13367,-0.02380271442234516,-0.018202660605311394,-0.10396996885538101,0.008991200476884842,0.002172331092879176,-0.02185971476137638,2,-1,-1001,9,3,-22,-3,8,-152,1500.0
19:05:29.389,AUTO,-35.3632634,149.1652378,13367,-0.02380271442234516,-0.018202660605311394,-0.10396996885538101,0.008991200476884842,0.002172331092879176,-0.02185971476137638,2,-1,-1001,9,3,-22,-3,8,-152,1500.0
19:05:29.592,AUTO,-35.3632634,149.1652378,13367,-0.02380271442234516,-0.018202660605311394,-0.10396996885538101,0.008991200476884842,0.002172331092879176,-0.02185971476137638,2,-1,-1001,9,3,-22,-3,8,-152,1500.0
19:05:29.796,AUTO,-35.3632634,149.1652378,13367,-0.02380271442234516,-0.018202660605311394,-0.10396996885538101,0.008991200476884842,0.002172331092879176,-0.02185971476137638,2,-1,-1001,9,3,-22,-3,8,-152,1500.0
19:05:29.998,AUTO,-35.3632628,149.1652371,15323,0.0008287819218821824,-0.003200179198756814,-0.143385112285614,0.02032509632408619,0.0177154578268528,-0.030388932675123215,-4,0,-1000,20,18,-30,9,-11,-152,1500.0
19:05:30.200,AUTO,-35.3632624,149.1652363,16106,0.008605103939771652,0.003979233093559742,-0.15718501806259155,0.01038330141454935,0.011556514538824558,-0.022914569824934006,-4,0,-1000,11,12,-22,8,-10,-153,1500.0
19:05:30.402,AUTO,-35.3632621,149.165236,16498,0.01071646437048912,0.00653808144852519,-0.1626613736152649,0.007220108062028885,0.009806148707866669,-0.017958568409085274,-4,0,-1000,7,10,-17,7,-8,-153,1500.0
19:05:30.606,AUTO,-35.3632621,149.165236,16498,0.01071646437048912,0.00653808144852519,-0.1626613736152649,0.007220108062028885,0.009806148707866669,-0.017958568409085274,-4,0,-1000,7,10,-17,7,-8,-153,1500.0
19:05:30.809,AUTO,-35.3632621,149.165236,16498,0.01071646437048912,0.00653808144852519,-0.1626613736152649,0.007220108062028885,0.009806148707866669,-0.017958568409085274,-4,0,-1000,7,10,-17,7,-8,-153,1500.0
19:05:31.014,AUTO,-35.3632621,149.165236,16498,0.01071646437048912,0.00653808144852519,-0.1626613736152649,0.007220108062028885,0.009806148707866669,-0.017958568409085274,-4,0,-1000,7,10,-17,7,-8,-153,1500.0
19:05:31.217,AUTO,-35.3632621,149.165236,16498,0.01071646437048912,0.00653808144852519,-0.1626613736152649,0.007220108062028885,0.009806148707866669,-0.017958568409085274,-4,0,-1000,7,10,-17,7,-8,-153,1500.0
19:05:31.421,AUTO,-35.3632621,149.165236,16498,0.01071646437048912,0.00653808144852519,-0.1626613736152649,0.007220108062028885,0.009806148707866669,-0.017958568409085274,-4,0,-1000,7,10,-17,7,-8,-153,1500.0
19:05:31.623,AUTO,-35.3632621,149.165236,16498,0.01071646437048912,0.00653808144852519,-0.1626613736152649,0.007220108062028885,0.009806148707866669,-0.017958568409085274,-4,0,-1000,7,10,-17,7,-8,-153,1500.0
19:05:31.825,AUTO,-35.3632621,149.165236,16498,0.01071646437048912,0.00653808144852519,-0.1626613736152649,0.007220108062028885,0.009806148707866669,-0.017958568409085274,-4,0,-1000,7,10,-17,7,-8,-153,1500.0
19:05:32.028,AUTO,-35.3632621,149.165236,16498,0.01071646437048912,0.00653808144852519,-0.1626613736152649,0.007220108062028885,0.009806148707866669,-0.017958568409085274,-4,0,-1000,7,10,-17,7,-8,-153,1500.0
19:05:32.230,AUTO,-35.3632614,149.1652355,19237,0.00729835219681263,0.0078102052211761475,-0.185087651014328,-0.006078953854739666,-0.0029841274954378605,-0.011459870263934135,0,0,-1000,-5,-1,-11,-2,6,-152,1500.0
19:05:32.434,AUTO,-35.3632614,149.1652356,19628,0.005889044143259525,0.0069344802759587765,-0.18783892691135406,-0.00457431934773922,-0.0021280543878674507,-0.012672550044953823,0,0,-1000,-3,-1,-12,-3,7,-152,1500.0
19:05:32.682,AUTO,-35.3632614,149.1652356,19628,0.005889044143259525,0.0069344802759587765,-0.18783892691135406,-0.00457431934773922,-0.0021280543878674507,-0.012672550044953823,0,0,-1000,-3,-1,-12,-3,7,-152,1500.0
19:05:32.912,AUTO,-35.3632614,149.1652356,19628,0.005889044143259525,0.0069344802759587765,-0.18783892691135406,-0.00457431934773922,-0.0021280543878674507,-0.012672550044953823,0,0,-1000,-3,-1,-12,-3,7,-152,1500.0
19:05:33.117,AUTO,-35.3632614,149.1652356,19628,0.005889044143259525,0.0069344802759587765,-0.18783892691135406,-0.00457431934773922,-0.0021280543878674507,-0.012672550044953823,0,0,-1000,-3,-1,-12,-3,7,-152,1500.0
19:05:33.340,AUTO,-35.3632614,149.1652356,19628,0.005889044143259525,0.0069344802759587765,-0.18783892691135406,-0.00457431934773922,-0.0021280543878674507,-0.012672550044953823,0,0,-1000,-3,-1,-12,-3,7,-152,1500.0
19:05:33.576,AUTO,-35.3632614,149.1652356,19628,0.005889044143259525,0.0069344802759587765,-0.18783892691135406,-0.00457431934773922,-0.0021280543878674507,-0.012672550044953823,0,0,-1000,-3,-1,-12,-3,7,-152,1500.0
19:05:33.786,AUTO,-35.3632614,149.1652356,19628,0.005889044143259525,0.0069344802759587765,-0.18783892691135406,-0.00457431934773922,-0.0021280543878674507,-0.012672550044953823,0,0,-1000,-3,-1,-12,-3,7,-152,1500.0
19:05:33.988,AUTO,-35.3632614,149.1652359,20643,0.002572389552369714,0.00444163428619504,-0.19596794247627258,-0.005677517503499985,-0.002923948224633932,-0.0143814068287611,1,0,-1000,-4,-2,-14,-4,7,-153,1500.0
19:05:34.189,AUTO,-35.3632616,149.1652364,22213,0.0005519050755538046,0.002946742344647646,-0.2135183960199356,0.0019818672444671392,-0.0007678251131437719,-0.01960531808435917,0,0,-1000,2,0,-19,-3,5,-153,1500.0
19:05:34.394,AUTO,-35.3632616,149.1652365,22604,0.0007847600500099361,0.002703965175896883,-0.21842162311077118,0.0013520196080207825,-0.00025129609275609255,-0.0220399908721447,0,0,-1000,2,0,-22,-3,4,-153,1500.0
19:05:34.597,AUTO,-35.3632616,149.1652365,22604,0.0007847600500099361,0.002703965175896883,-0.21842162311077118,0.0013520196080207825,-0.00025129609275609255,-0.0220399908721447,0,0,-1000,2,0,-22,-3,4,-153,1500.0
19:05:34.798,AUTO,-35.3632616,149.1652365,22604,0.0007847600500099361,0.002703965175896883,-0.21842162311077118,0.0013520196080207825,-0.00025129609275609255,-0.0220399908721447,0,0,-1000,2,0,-22,-3,4,-153,1500.0
19:05:35.001,AUTO,-35.3632616,149.1652365,22604,0.0007847600500099361,0.002703965175896883,-0.21842162311077118,0.0013520196080207825,-0.00025129609275609255,-0.0220399908721447,0,0,-1000,2,0,-22,-3,4,-153,1500.0
19:05:35.204,AUTO,-35.3632616,149.1652365,22604,0.0007847600500099361,0.002703965175896883,-0.21842162311077118,0.0013520196080207825,-0.00025129609275609255,-0.0220399908721447,0,0,-1000,2,0,-22,-3,4,-153,1500.0
19:05:35.411,AUTO,-35.3632616,149.1652365,22604,0.0007847600500099361,0.002703965175896883,-0.21842162311077118,0.0013520196080207825,-0.00025129609275609255,-0.0220399908721447,0,0,-1000,2,0,-22,-3,4,-153,1500.0
19:05:35.615,AUTO,-35.3632616,149.1652365,22604,0.0007847600500099361,0.002703965175896883,-0.21842162311077118,0.0013520196080207825,-0.00025129609275609255,-0.0220399908721447,0,0,-1000,2,0,-22,-3,4,-153,1500.0
19:05:35.816,AUTO,-35.3632616,149.1652365,22604,0.0007847600500099361,0.002703965175896883,-0.21842162311077118,0.0013520196080207825,-0.00025129609275609255,-0.0220399908721447,0,0,-1000,2,0,-22,-3,4,-153,1500.0
19:05:36.018,AUTO,-35.3632618,149.1652367,25332,-0.010592701844871044,0.003078106325119734,-0.25221458077430725,-0.059662286192178726,0.004455409944057465,-0.010991916991770267,0,0,-1000,3,2,-20,-2,1,-152,1500.0
19:05:36.220,AUTO,-35.3632618,149.1652367,25332,-0.010592701844871044,0.003078106325119734,-0.25221458077430725,-0.059662286192178726,0.004455409944057465,-0.010991916991770267,0,0,-999,-58,5,-10,-2,1,-152,1500.0
19:05:36.422,AUTO,-35.3632618,149.1652367,25721,-0.01138918288052082,0.004542976152151823,-0.2536471486091614,0.0315818153321743,0.003629660001024604,-0.0002360013750148937,0,0,-1004,32,4,0,-4,-1,-152,1500.0
19:05:36.624,AUTO,-35.3632618,149.1652367,25721,-0.01138918288052082,0.004542976152151823,-0.2536471486091614,0.0315818153321743,0.003629660001024604,-0.0002360013750148937,0,0,-1004,32,4,0,-4,-1,-152,1500.0
19:05:36.825,AUTO,-35.3632618,149.1652367,25721,-0.01138918288052082,0.004542976152151823,-0.2536471486091614,0.0315818153321743,0.003629660001024604,-0.0002360013750148937,0,0,-1004,32,4,0,-4,-1,-152,1500.0
19:05:37.033,AUTO,-35.3632618,149.1652367,25721,-0.01138918288052082,0.004542976152151823,-0.2536471486091614,0.0315818153321743,0.003629660001024604,-0.0002360013750148937,0,0,-1004,32,4,0,-4,-1,-152,1500.0
19:05:37.253,AUTO,-35.3632618,149.1652367,25721,-0.01138918288052082,0.004542976152151823,-0.2536471486091614,0.0315818153321743,0.003629660001024604,-0.0002360013750148937,0,0,-1004,32,4,0,-4,-1,-152,1500.0
19:05:37.464,AUTO,-35.3632618,149.1652367,25721,-0.01138918288052082,0.004542976152151823,-0.2536471486091614,0.0315818153321743,0.003629660001024604,-0.0002360013750148937,0,0,-1004,32,4,0,-4,-1,-152,1500.0
19:05:37.698,AUTO,-35.3632618,149.1652367,25721,-0.01138918288052082,0.004542976152151823,-0.2536471486091614,0.0315818153321743,0.003629660001024604,-0.0002360013750148937,0,0,-1004,32,4,0,-4,-1,-152,1500.0
19:05:37.904,AUTO,-35.3632622,149.1652364,27673,0.012322774156928062,0.0018234462477266788,-0.22998999059200287,-0.005891802255064249,-0.0022463505156338215,0.024729512631893158,0,0,-999,3,-1,24,-4,4,-153,1500.0
19:05:38.107,AUTO,-35.3632623,149.1652366,28452,0.008434929884970188,0.0011738510802388191,-0.21808291971683502,-0.010650167241692543,0.0003024754114449024,0.02327682636678219,1,-1,-999,-9,1,23,-2,8,-152,1500.0
19:05:38.308,AUTO,-35.3632623,149.1652368,28840,0.0060160402208566666,0.0012456933036446571,-0.21265925467014313,-0.008551093749701977,0.001614982495084405,0.01972881518304348,1,0,-1000,-7,2,19,-1,9,-152,1500.0
19:05:38.514,AUTO,-35.3632623,149.1652368,28840,0.0060160402208566666,0.0012456933036446571,-0.21265925467014313,-0.008551093749701977,0.001614982495084405,0.01972881518304348,1,0,-1000,-7,2,19,-1,9,-152,1500.0
19:05:38.716,AUTO,-35.3632623,149.1652368,28840,0.0060160402208566666,0.0012456933036446571,-0.21265925467014313,-0.008551093749701977,0.001614982495084405,0.01972881518304348,1,0,-1000,-7,2,19,-1,9,-152,1500.0
19:05:38.920,AUTO,-35.3632623,149.1652368,28840,0.0060160402208566666,0.0012456933036446571,-0.21265925467014313,-0.008551093749701977,0.001614982495084405,0.01972881518304348,1,0,-1000,-7,2,19,-1,9,-152,1500.0
19:05:39.122,AUTO,-35.3632623,149.1652368,28840,0.0060160402208566666,0.0012456933036446571,-0.21265925467014313,-0.008551093749701977,0.001614982495084405,0.01972881518304348,1,0,-1000,-7,2,19,-1,9,-152,1500.0
19:05:39.325,AUTO,-35.3632623,149.1652368,28840,0.0060160402208566666,0.0012456933036446571,-0.21265925467014313,-0.008551093749701977,0.001614982495084405,0.01972881518304348,1,0,-1000,-7,2,19,-1,9,-152,1500.0
19:05:39.527,AUTO,-35.3632623,149.1652368,28840,0.0060160402208566666,0.0012456933036446571,-0.21265925467014313,-0.008551093749701977,0.001614982495084405,0.01972881518304348,1,0,-1000,-7,2,19,-1,9,-152,1500.0
19:05:39.729,AUTO,-35.3632623,149.1652368,28840,0.0060160402208566666,0.0012456933036446571,-0.21265925467014313,-0.008551093749701977,0.001614982495084405,0.01972881518304348,1,0,-1000,-7,2,19,-1,9,-152,1500.0
19:05:39.931,AUTO,-35.3632623,149.1652377,30794,-0.0005889319581910968,0.0017806123942136765,-0.18774190545082092,0.0019547189585864544,0.0021633505821228027,0.01889638416469097,0,0,-1001,3,3,18,0,6,-153,1500.0
19:05:40.133,AUTO,-35.3632623,149.1652379,31573,-0.0009203576482832432,0.0018264998216181993,-0.17898821830749512,-0.002520260401070118,0.00014554813969880342,0.01782195083796978,0,0,-1000,-1,1,17,0,4,-153,1500.0
19:05:40.335,AUTO,-35.3632623,149.1652379,31963,-0.0007760951993986964,0.0017041969113051891,-0.1749223917722702,0.004682726692408323,-0.0005655747372657061,0.017271889373660088,0,0,-1001,6,0,17,0,4,-153,1500.0
19:05:40.538,AUTO,-35.3632623,149.1652379,31963,-0.0007760951993986964,0.0017041969113051891,-0.1749223917722702,0.004682726692408323,-0.0005655747372657061,0.017271889373660088,0,0,-1001,6,0,17,0,4,-153,1500.0
19:05:40.740,AUTO,-35.3632623,149.1652379,31963,-0.0007760951993986964,0.0017041969113051891,-0.1749223917722702,0.004682726692408323,-0.0005655747372657061,0.017271889373660088,0,0,-1001,6,0,17,0,4,-153,1500.0
19:05:40.945,AUTO,-35.3632623,149.1652379,31963,-0.0007760951993986964,0.0017041969113051891,-0.1749223917722702,0.004682726692408323,-0.0005655747372657061,0.017271889373660088,0,0,-1001,6,0,17,0,4,-153,1500.0
19:05:41.155,AUTO,-35.3632623,149.1652379,31963,-0.0007760951993986964,0.0017041969113051891,-0.1749223917722702,0.004682726692408323,-0.0005655747372657061,0.017271889373660088,0,0,-1001,6,0,17,0,4,-153,1500.0
19:05:41.373,AUTO,-35.3632623,149.1652379,31963,-0.0007760951993986964,0.0017041969113051891,-0.1749223917722702,0.004682726692408323,-0.0005655747372657061,0.017271889373660088,0,0,-1001,6,0,17,0,4,-153,1500.0
19:05:41.576,AUTO,-35.3632623,149.1652379,31963,-0.0007760951993986964,0.0017041969113051891,-0.1749223917722702,0.004682726692408323,-0.0005655747372657061,0.017271889373660088,0,0,-1001,6,0,17,0,4,-153,1500.0
19:05:41.789,AUTO,-35.3632623,149.1652379,31963,-0.0007760951993986964,0.0017041969113051891,-0.1749223917722702,0.004682726692408323,-0.0005655747372657061,0.017271889373660088,0,0,-1001,6,0,17,0,4,-153,1500.0
19:05:42.021,AUTO,-35.3632623,149.1652379,31963,-0.0007760951993986964,0.0017041969113051891,-0.1749223917722702,0.004682726692408323,-0.0005655747372657061,0.017271889373660088,0,0,-1001,6,0,17,0,4,-153,1500.0
19:05:42.229,AUTO,-35.3632623,149.165238,34692,0.0014300395268946886,0.0009078830480575562,-0.1497260183095932,0.002349983435124159,0.0004448021063581109,0.015414085239171982,0,0,-1000,3,1,15,0,0,-153,1500.0
19:05:42.434,AUTO,-35.3632623,149.165238,35081,0.0015249296557158232,0.0006702959653921425,-0.14655712246894836,0.003910939209163189,0.0011424305848777294,0.01335572823882103,0,0,-1000,4,2,13,0,0,-153,1500.0
19:05:42.643,AUTO,-35.3632623,149.165238,35081,0.0015249296557158232,0.0006702959653921425,-0.14655712246894836,0.003910939209163189,0.0011424305848777294,0.01335572823882103,0,0,-1000,4,2,13,0,0,-153,1500.0
19:05:42.845,AUTO,-35.3632623,149.165238,35081,0.0015249296557158232,0.0006702959653921425,-0.14655712246894836,0.003910939209163189,0.0011424305848777294,0.01335572823882103,0,0,-1000,4,2,13,0,0,-153,1500.0
19:05:43.047,AUTO,-35.3632623,149.165238,35081,0.0015249296557158232,0.0006702959653921425,-0.14655712246894836,0.003910939209163189,0.0011424305848777294,0.01335572823882103,0,0,-1000,4,2,13,0,0,-153,1500.0
19:05:43.249,AUTO,-35.3632623,149.165238,35081,0.0015249296557158232,0.0006702959653921425,-0.14655712246894836,0.003910939209163189,0.0011424305848777294,0.01335572823882103,0,0,-1000,4,2,13,0,0,-153,1500.0
19:05:43.450,AUTO,-35.3632623,149.165238,35081,0.0015249296557158232,0.0006702959653921425,-0.14655712246894836,0.003910939209163189,0.0011424305848777294,0.01335572823882103,0,0,-1000,4,2,13,0,0,-153,1500.0
19:05:43.655,AUTO,-35.3632623,149.165238,35081,0.0015249296557158232,0.0006702959653921425,-0.14655712246894836,0.003910939209163189,0.0011424305848777294,0.01335572823882103,0,0,-1000,4,2,13,0,0,-153,1500.0
19:05:43.857,AUTO,-35.3632623,149.165238,35081,0.0015249296557158232,0.0006702959653921425,-0.14655712246894836,0.003910939209163189,0.0011424305848777294,0.01335572823882103,0,0,-1000,4,2,13,0,0,-153,1500.0
19:05:44.059,AUTO,-35.3632622,149.1652378,36640,0.0017373322043567896,0.0009472031961195171,-0.135445699095726,0.0027175303548574448,0.0002987314946949482,0.009424195624887943,0,0,-1000,4,2,12,0,0,-153,1500.0
19:05:44.261,AUTO,-35.3632622,149.1652377,37810,0.002624511020258069,0.0012163938954472542,-0.12832626700401306,0.0025684149004518986,0.00010332977399230003,0.008025534451007843,0,0,-1000,3,1,8,0,0,-153,1500.0
19:05:44.463,AUTO,-35.3632622,149.1652376,38199,0.0027392152696847916,0.0012084393529221416,-0.12596482038497925,-0.0007703772862441838,0.0005610348889604211,0.010910019278526306,0,0,-999,0,1,11,0,0,-153,1500.0
19:05:44.666,AUTO,-35.3632622,149.1652376,38199,0.0027392152696847916,0.0012084393529221416,-0.12596482038497925,-0.0007703772862441838,0.0005610348889604211,0.010910019278526306,0,0,-999,0,1,11,0,0,-153,1500.0
19:05:44.868,AUTO,-35.3632622,149.1652376,38199,0.0027392152696847916,0.0012084393529221416,-0.12596482038497925,-0.0007703772862441838,0.0005610348889604211,0.010910019278526306,0,0,-999,0,1,11,0,0,-153,1500.0
19:05:45.069,AUTO,-35.3632622,149.1652376,38199,0.0027392152696847916,0.0012084393529221416,-0.12596482038497925,-0.0007703772862441838,0.0005610348889604211,0.010910019278526306,0,0,-999,0,1,11,0,0,-153,1500.0
19:05:45.270,AUTO,-35.3632622,149.1652376,38199,0.0027392152696847916,0.0012084393529221416,-0.12596482038497925,-0.0007703772862441838,0.0005610348889604211,0.010910019278526306,0,0,-999,0,1,11,0,0,-153,1500.0
19:05:45.473,AUTO,-35.3632622,149.1652376,38199,0.0027392152696847916,0.0012084393529221416,-0.12596482038497925,-0.0007703772862441838,0.0005610348889604211,0.010910019278526306,0,0,-999,0,1,11,0,0,-153,1500.0
19:05:45.676,AUTO,-35.3632622,149.1652376,38199,0.0027392152696847916,0.0012084393529221416,-0.12596482038497925,-0.0007703772862441838,0.0005610348889604211,0.010910019278526306,0,0,-999,0,1,11,0,0,-153,1500.0
19:05:45.877,AUTO,-35.3632621,149.1652376,39368,0.002381099620833993,0.0016672349302098155,-0.11947119235992432,0.000876840204000473,-3.444426693022251e-05,0.009071361273527145,0,0,-999,0,1,11,0,0,-153,1500.0
19:05:46.078,AUTO,-35.3632621,149.1652375,40930,0.0019909986294806004,0.001640839851461351,-0.11181163787841797,0.001233330462127924,-0.0006776672089472413,0.007398388348519802,0,0,-1001,2,0,7,-1,0,-153,1500.0
19:05:46.280,AUTO,-35.3632621,149.1652375,40930,0.0019909986294806004,0.001640839851461351,-0.11181163787841797,0.001233330462127924,-0.0006776672089472413,0.007398388348519802,0,0,-1001,2,0,7,-1,0,-153,1500.0
19:05:46.504,AUTO,-35.3632621,149.1652375,41320,0.0019758089911192656,0.001441766507923603,-0.11000272631645203,0.0016700583510100842,-0.0005737731116823852,0.007116961292922497,0,0,-1000,2,0,7,-1,0,-153,1500.0
19:05:46.727,AUTO,-35.3632621,149.1652375,41320,0.0019758089911192656,0.001441766507923603,-0.11000272631645203,0.0016700583510100842,-0.0005737731116823852,0.007116961292922497,0,0,-1000,2,0,7,-1,0,-153,1500.0
19:05:46.939,AUTO,-35.3632621,149.1652375,41320,0.0019758089911192656,0.001441766507923603,-0.11000272631645203,0.0016700583510100842,-0.0005737731116823852,0.007116961292922497,0,0,-1000,2,0,7,-1,0,-153,1500.0
19:05:47.158,AUTO,-35.3632621,149.1652375,41320,0.0019758089911192656,0.001441766507923603,-0.11000272631645203,0.0016700583510100842,-0.0005737731116823852,0.007116961292922497,0,0,-1000,2,0,7,-1,0,-153,1500.0
19:05:47.389,AUTO,-35.3632621,149.1652375,41320,0.0019758089911192656,0.001441766507923603,-0.11000272631645203,0.0016700583510100842,-0.0005737731116823852,0.007116961292922497,0,0,-1000,2,0,7,-1,0,-153,1500.0
19:05:47.591,AUTO,-35.3632621,149.1652375,41320,0.0019758089911192656,0.001441766507923603,-0.11000272631645203,0.0016700583510100842,-0.0005737731116823852,0.007116961292922497,0,0,-1000,2,0,7,-1,0,-153,1500.0
19:05:47.793,AUTO,-35.3632621,149.1652375,41320,0.0019758089911192656,0.001441766507923603,-0.11000272631645203,0.0016700583510100842,-0.0005737731116823852,0.007116961292922497,0,0,-1000,2,0,7,-1,0,-153,1500.0
19:05:47.995,AUTO,-35.363262,149.1652374,42874,0.0018440718995407224,0.001429529394954443,-0.10327077656984329,0.0011412641033530235,-0.0014024656265974045,0.006998398341238499,0,0,-1001,2,0,7,-1,1,-153,1500.0
19:05:48.196,AUTO,-35.363262,149.1652374,44043,0.0019038731697946787,0.0014160213759168983,-0.09868591278791428,0.0008768957341089845,0.0004388263914734125,0.0032423269003629684,0,0,-1000,1,1,3,-1,1,-153,1500.0
19:05:48.399,AUTO,-35.363262,149.1652374,44436,0.0019709004554897547,0.0013754257233813405,-0.0973309874534607,0.0007967156125232577,-0.0014040017267689109,0.004707663785666227,0,0,-1000,1,0,5,-1,1,-153,1500.0
19:05:48.602,AUTO,-35.363262,149.1652374,44436,0.0019709004554897547,0.0013754257233813405,-0.0973309874534607,0.0007967156125232577,-0.0014040017267689109,0.004707663785666227,0,0,-1000,1,0,5,-1,1,-153,1500.0
19:05:48.804,AUTO,-35.363262,149.1652374,44436,0.0019709004554897547,0.0013754257233813405,-0.0973309874534607,0.0007967156125232577,-0.0014040017267689109,0.004707663785666227,0,0,-1000,1,0,5,-1,1,-153,1500.0
19:05:49.005,AUTO,-35.363262,149.1652374,44436,0.0019709004554897547,0.0013754257233813405,-0.0973309874534607,0.0007967156125232577,-0.0014040017267689109,0.004707663785666227,0,0,-1000,1,0,5,-1,1,-153,1500.0
19:05:49.207,AUTO,-35.363262,149.1652374,44436,0.0019709004554897547,0.0013754257233813405,-0.0973309874534607,0.0007967156125232577,-0.0014040017267689109,0.004707663785666227,0,0,-1000,1,0,5,-1,1,-153,1500.0
19:05:49.409,AUTO,-35.363262,149.1652374,44436,0.0019709004554897547,0.0013754257233813405,-0.0973309874534607,0.0007967156125232577,-0.0014040017267689109,0.004707663785666227,0,0,-1000,1,0,5,-1,1,-153,1500.0
19:05:49.610,AUTO,-35.363262,149.1652374,44436,0.0019709004554897547,0.0013754257233813405,-0.0973309874534607,0.0007967156125232577,-0.0014040017267689109,0.004707663785666227,0,0,-1000,1,0,5,-1,1,-153,1500.0
19:05:49.812,AUTO,-35.363262,149.1652374,44436,0.0019709004554897547,0.0013754257233813405,-0.0973309874534607,0.0007967156125232577,-0.0014040017267689109,0.004707663785666227,0,0,-1000,1,0,5,-1,1,-153,1500.0
19:05:50.013,AUTO,-35.363262,149.1652373,46771,0.0018448837799951434,0.0011021341197192669,-0.08863958716392517,0.001421015476807952,0.0011490881443023682,0.005842629354447126,0,0,-1000,4,1,7,-1,1,-153,1500.0
19:05:50.215,AUTO,-35.363262,149.1652373,47157,-0.008359504863619804,0.010747437365353107,-0.06699735671281815,-0.08754906803369522,0.08649201691150665,0.18716204166412354,0,0,-972,-86,87,187,-2,0,-148,1500.0
19:05:50.416,AUTO,-35.363262,149.1652373,47527,-0.03550927713513374,0.04119997099041939,0.01244929526001215,-0.13578933477401733,0.12510688602924347,0.43847203254699707,0,0,-974,-134,126,438,-7,-4,-141,1500.0
19:05:50.619,AUTO,-35.363262,149.1652373,47527,-0.03550927713513374,0.04119997099041939,0.01244929526001215,-0.13578933477401733,0.12510688602924347,0.43847203254699707,0,0,-974,-134,126,438,-7,-4,-141,1500.0
19:05:50.830,AUTO,-35.363262,149.1652373,47527,-0.03550927713513374,0.04119997099041939,0.01244929526001215,-0.13578933477401733,0.12510688602924347,0.43847203254699707,0,0,-974,-134,126,438,-7,-4,-141,1500.0
19:05:51.063,AUTO,-35.363262,149.1652373,47527,-0.03550927713513374,0.04119997099041939,0.01244929526001215,-0.13578933477401733,0.12510688602924347,0.43847203254699707,0,0,-974,-134,126,438,-7,-4,-141,1500.0
19:05:51.320,AUTO,-35.363262,149.1652373,47527,-0.03550927713513374,0.04119997099041939,0.01244929526001215,-0.13578933477401733,0.12510688602924347,0.43847203254699707,0,0,-974,-134,126,438,-7,-4,-141,1500.0
19:05:51.532,AUTO,-35.363262,149.1652373,47527,-0.03550927713513374,0.04119997099041939,0.01244929526001215,-0.13578933477401733,0.12510688602924347,0.43847203254699707,0,0,-974,-134,126,438,-7,-4,-141,1500.0
19:05:51.761,AUTO,-35.363262,149.1652373,47527,-0.03550927713513374,0.04119997099041939,0.01244929526001215,-0.13578933477401733,0.12510688602924347,0.43847203254699707,0,0,-974,-134,126,438,-7,-4,-141,1500.0
19:05:51.965,AUTO,-35.363262,149.1652373,47527,-0.03550927713513374,0.04119997099041939,0.01244929526001215,-0.13578933477401733,0.12510688602924347,0.43847203254699707,0,0,-974,-134,126,438,-7,-4,-141,1500.0
19:05:52.167,AUTO,-35.3632645,149.1652332,48962,0.025079209357500076,-0.05314666032791138,0.3065827488899231,0.07225389778614044,-0.02821248024702072,0.001993526704609394,3,9,-955,82,-89,47,-14,-26,-82,1500.0
19:05:52.370,AUTO,-35.3632646,149.1652324,49490,0.03986416384577751,-0.03853130340576172,0.28712981939315796,0.0770600438117981,0.04349615052342415,-0.03723493963479996,-1,4,-975,79,44,-36,11,9,-57,1500.0
19:05:52.573,AUTO,-35.3632646,149.1652324,49490,0.03986416384577751,-0.03853130340576172,0.28712981939315796,0.0770600438117981,0.04349615052342415,-0.03723493963479996,-1,4,-975,79,44,-36,11,9,-57,1500.0
19:05:52.775,AUTO,-35.3632646,149.1652324,49490,0.03986416384577751,-0.03853130340576172,0.28712981939315796,0.0770600438117981,0.04349615052342415,-0.03723493963479996,-1,4,-975,79,44,-36,11,9,-57,1500.0
19:05:52.977,AUTO,-35.3632646,149.1652324,49490,0.03986416384577751,-0.03853130340576172,0.28712981939315796,0.0770600438117981,0.04349615052342415,-0.03723493963479996,-1,4,-975,79,44,-36,11,9,-57,1500.0
19:05:53.178,AUTO,-35.3632646,149.1652324,49490,0.03986416384577751,-0.03853130340576172,0.28712981939315796,0.0770600438117981,0.04349615052342415,-0.03723493963479996,-1,4,-975,79,44,-36,11,9,-57,1500.0
19:05:53.383,AUTO,-35.3632646,149.1652324,49490,0.03986416384577751,-0.03853130340576172,0.28712981939315796,0.0770600438117981,0.04349615052342415,-0.03723493963479996,-1,4,-975,79,44,-36,11,9,-57,1500.0
19:05:53.585,AUTO,-35.3632646,149.1652324,49490,0.03986416384577751,-0.03853130340576172,0.28712981939315796,0.0770600438117981,0.04349615052342415,-0.03723493963479996,-1,4,-975,79,44,-36,11,9,-57,1500.0
19:05:53.786,AUTO,-35.3632646,149.1652324,49490,0.03986416384577751,-0.03853130340576172,0.28712981939315796,0.0770600438117981,0.04349615052342415,-0.03723493963479996,-1,4,-975,79,44,-36,11,9,-57,1500.0
19:05:53.988,AUTO,-35.3632646,149.1652324,49490,0.03986416384577751,-0.03853130340576172,0.28712981939315796,0.0770600438117981,0.04349615052342415,-0.03723493963479996,-1,4,-975,79,44,-36,11,9,-57,1500.0
