time_stamp,RTL_ALT,MODE,xacc,yacc,zacc,xgyro,ygyro,zgyro,roll,pitch,yaw,rollspeed,pitchspeed,yawspeed,lat,lon,relative_alt,vx,vy,vz
14:23:24,44305.0,STABILIZE,0.0,1.0,-1000.0,0.0,0.0,0.0,-7.621796248713508e-05,0.0015919046709313989,0.027672909200191498,0.00025184566038660705,0.00028631649911403656,0.002323842141777277,-35.3632621,149.1652374,0.0,-1.0,1.0,0.0
14:23:34,44305.0,STABILIZE,0.0,1.0,-1000.0,0.0,0.0,1.0,-0.0005052261403761804,0.0009872348746284842,0.023488890379667282,0.0002099911798723042,0.0002861780230887234,0.0016557469498366117,-35.3632622,149.1652375,17.0,-1.0,1.0,-1.0
14:23:36,44305.0,STABILIZE,0.0,1.0,-1000.0,0.0,0.0,1.0,-0.0005686712684109807,0.0009838789701461792,0.022667158395051956,0.00020133191719651222,0.00020518398378044367,0.0015368100721389055,-35.3632622,149.1652376,0.0,-1.0,2.0,0.0
14:23:37,137307.0,AUTO,0.0,1.0,-1000.0,0.25,0.5,0.5,-0.0006968942179810256,0.0009804757428355515,0.0224772822111845,0.00027218632749281824,0.0002560002321843058,0.0015976222639437765,-35.3632622,149.165237575,3.5,-1.0,1.75,0.0
14:23:38,137307.0,AUTO,0.0,3.0,-998.0,0.0,0.0,0.0,-0.0007042296638246626,0.001107522170059383,0.02214541845023632,0.0002788576821330935,0.00019262608839198947,0.0015821022097952664,-35.3632621,149.1652375,4.0,0.0,-1.0,-1.0
14:23:40,137307.0,AUTO,0.0,1.0,-1000.0,0.5,0.0,0.0,-0.0002374305040575564,0.0016469346592202783,0.021595392376184464,0.00032676802948117256,0.0002896107325796038,0.0014508695458061993,-35.3632621,149.16523745,15.0,0.0,0.0,-1.0
14:23:41,300000.0,AUTO,0.0,0.0,-1120.5,2.5,0.0,0.75,0.0011173512757522985,0.00042948629561578855,0.02131762122735381,0.0018946799827972427,-0.0005085462762508541,0.0015469932404812425,-35.3632621,149.1652375,189.75,0.0,0.0,-56.5
14:23:42,300000.0,AUTO,0.0,-0.5,-1011.0,46.0,-6.5,2.0,0.0297660818323493,-0.0020659895380958915,0.021092628128826618,0.04604071192443371,-0.007431870326399803,0.0027561455499380827,-35.36326205,149.16523755,1630.0,0.5,8.5,-146.5
14:23:44,300000.0,AUTO,5.0,-8.0,-1002.0,-46.5,-21.0,-34.0,-0.037849534302949905,0.012290454935282469,-0.07964346930384636,-0.04762937221676111,-0.021818851120769978,-0.033837263472378254,-35.36326095,149.16524535000002,4669.5,-1.0,31.5,-149.0
14:23:45,156129.0,AUTO,-0.25,1.5,-1001.25,3.5,-12.5,-7.25,-0.06828894093632698,-0.005737027415307239,-0.08842778019607067,0.0027970829978585243,-0.013293603988131508,-0.007093572407029569,-35.363260975,149.16524585000002,5819.5,-2.25,-16.25,-148.0
14:23:46,156129.0,AUTO,-6.5,10.0,-1003.5,66.0,14.5,1.5,-0.0028400884475558996,-0.0001657275133766234,-0.09417318925261497,0.06628390401601791,0.014367695432156324,0.002322358777746558,-35.363261249999994,149.1652396,7736.5,-3.5,-60.0,-149.5
14:23:48,156129.0,AUTO,3.0,-4.5,-1001.0,-90.0,4.5,-12.0,0.013712643645703793,-0.009593195281922817,-0.07569004967808723,-0.09143030270934105,0.004338571452535689,-0.012421143241226673,-35.3632626,149.1652349,10845.5,-1.5,26.5,-147.5
14:23:49,32577.0,AUTO,1.0,-3.5,-1002.5,-13.5,8.0,-33.5,-0.01925062295049429,-0.00430679670535028,-0.09813401475548744,-0.014067345102375839,0.008027361938729882,-0.03369914088398218,-35.3632625,149.165236525,11998.75,5.0,13.5,-150.0
14:23:50,32577.0,AUTO,-2.0,0.5,-999.5,21.5,6.5,-22.0,-0.0023272178950719535,0.004315083380788565,-0.1370268538594246,0.02148340456187725,0.006805445300415158,-0.02199134323745966,-35.363261800000004,149.16523660000001,13942.5,4.0,-8.5,-151.0
14:23:52,32577.0,AUTO,0.0,1.0,-990.0,-77.0,26.5,45.0,-0.04072288051247597,0.007476078346371651,-0.1600874811410904,-0.0786500945687294,0.02530798432417214,0.04541730880737305,-35.363261550000004,149.16523510000002,17046.5,-5.5,-9.5,-148.0
14:23:53,200.0,AUTO,0.75,9.0,-960.5,98.25,-55.75,197.25,-0.012536333641037345,0.018356345826759934,0.0038612761127296835,0.09799416206078604,-0.056752635166049004,0.19794559708680026,-35.363262475,149.16523275,18120.5,-24.0,-33.75,-126.5
14:23:54,200.0,AUTO,1.0,-2.0,-969.0,-32.0,25.0,-15.5,0.06077354960143566,-0.030020134523510933,0.0364165473729372,-0.03366651851683855,0.024873503483831882,-0.015861355233937502,-35.3632644,149.16523025,19425.5,-0.5,18.5,-76.0
14:23:56,200.0,AUTO,0.0,-7.0,-975.5,-7.0,3.0,-1.5,-0.011460382491350174,0.013953800313174725,0.030865410342812538,-0.008459264761768281,0.0028649743762798607,-0.0018656357424333692,-35.363262,149.16523784999998,20484.5,10.5,30.0,-28.0
14:23:57,265930.0,AUTO,0.25,-5.75,-962.0,-82.0,5.25,-2.5,-0.022714750841259956,0.015744532458484173,0.029049023520201445,-0.08327197865583003,0.004230554157402366,-0.002687115171283949,-35.36326145,149.165239525,20610.5,3.25,13.75,-5.25
14:23:58,265930.0,AUTO,1.0,-9.5,-1018.5,-72.0,17.5,-8.5,-0.012820694129914045,0.03536596521735191,0.026348410174250603,-0.07164311408996582,0.01700672321021557,-0.008707188069820404,-35.3632619,149.16523890000002,20451.0,-22.0,-21.5,14.0
14:24:00,265930.0,AUTO,-12.5,16.0,-1006.5,-247.0,3.0,-1434.5,-0.10102490335702896,-0.0017623966559767723,-1.1033055782318115,-0.24767717416398227,0.0026970742328558117,-1.4346083998680115,-35.36327325,149.16523254999998,20441.0,-119.0,-42.0,-9.0
14:24:01,243072.0,AUTO,-40.0,7.5,-1009.5,4.5,-56.5,-1228.75,-0.05922882235608995,-0.11622152850031853,-2.078945517539978,0.003206482157111168,-0.057736353017389774,-1.2291119396686554,-35.3632835,149.16522849999998,20512.25,-180.75,-62.5,-11.5
14:24:02,243072.0,AUTO,-64.5,-40.0,-1013.0,61.5,-8.0,149.0,0.06127533130347729,-0.17502610385417938,-2.839984893798828,0.060453396290540695,-0.009400335140526295,0.1494254320859909,-35.36331045,149.16521740000002,20693.5,-308.5,-114.5,-19.0
14:24:04,243072.0,AUTO,-105.0,-66.5,-1012.5,-0.5,36.0,-4.0,0.060471415519714355,-0.18403059989213943,-2.7745732069015503,-0.0010313857346773148,0.035384172573685646,-0.0041707155760377645,-35.3633835,149.1651837,21242.5,-497.5,-194.0,-37.0
14:24:05,79279.0,AUTO,-118.75,-63.75,-1001.75,4.0,15.25,0.25,0.06932087056338787,-0.1657097078859806,-2.775693893432617,0.003684378185425885,0.014518059033434838,0.000810170138720423,-35.36341925,149.165167025,21562.5,-543.0,-210.0,-45.0
14:24:06,79279.0,AUTO,-120.0,-70.0,-987.5,19.5,10.0,-6.0,0.07731441408395767,-0.14855382591485977,-2.7753214836120605,0.018565111560747027,0.009585784544469789,-0.006085600703954697,-35.363483349999996,149.16513709999998,22151.5,-589.5,-225.5,-47.0
14:24:08,79279.0,AUTO,-129.0,-73.0,-1002.0,-6.0,73.5,-4.5,0.07865417003631592,-0.1076410673558712,-2.7755247354507446,-0.007061376236379147,0.07338773459196091,-0.0050088646821677685,-35.363591400000004,149.16508679999998,23082.5,-597.0,-228.0,-42.5
14:24:09,42256.0,AUTO,-123.25,-84.25,-991.75,-11.0,41.5,-4.25,0.07890833541750908,-0.06652268022298813,-2.774697244167328,-0.011829448194475845,0.04106858465820551,-0.004186721198493615,-35.36363115,149.16506825,23429.5,-572.0,-217.5,-45.0
14:24:10,42256.0,AUTO,-105.5,-67.5,-985.5,-18.5,38.0,-1.0,0.07559620589017868,-0.00822000706102699,-2.7739970684051514,-0.019537470303475857,0.03806940279901028,-0.001342020696029067,-35.36369175,149.1650399,23961.0,-489.5,-186.5,-34.5
14:24:12,42256.0,AUTO,-55.5,-21.0,-990.0,318.0,-0.5,-11.0,0.04795905761420727,0.062058642506599426,-2.773587942123413,0.3170141465961933,-0.0017193681560456753,-0.011588218854740262,-35.363762,149.1650064,24466.0,-274.5,-108.0,-10.0
14:24:13,224553.0,AUTO,-45.0,-28.0,-999.0,-70.25,20.5,1.5,0.0329719721339643,0.07385307364165783,-2.774479329586029,-0.07099933736026287,0.01984778547193855,0.001639962021727115,-35.363777775,149.164998725,24525.0,-196.0,-77.5,-5.0
14:24:14,224553.0,AUTO,-18.0,-8.5,-1000.0,-161.5,-21.5,-4.5,0.012718785554170609,0.061040449887514114,-2.774703860282898,-0.16277800500392914,-0.023059269413352013,-0.004700067569501698,-35.36379355,149.16499115,24591.0,-79.0,-33.0,-2.5
14:24:16,224553.0,AUTO,-1.0,-6.5,-992.0,-333.0,-21.5,1.0,0.006344235967844725,0.020784122869372368,-2.776568293571472,-0.3347028587013483,-0.02371393609791994,0.0010871783451875672,-35.36379985,149.16498925000002,24621.5,5.5,-0.5,1.0
14:24:17,185596.0,AUTO,0.25,0.5,-999.5,35.25,-12.25,3.5,0.01297621155390516,0.0019399718730710447,-2.777458608150482,0.034566305577754974,-0.01346819824539125,0.004234289284795523,-35.36379985,149.1649897,24617.5,10.0,-1.5,0.5
14:24:18,185596.0,RTL,0.5,-22.0,-1012.5,-386.5,17.0,1.5,2.093263901770115e-05,0.007495329715311527,-2.776826024055481,-0.3877379149198532,0.01576562225818634,0.00214394589420408,-35.3637999,149.1649896,24614.0,4.0,-4.0,-1.5
14:24:20,185596.0,RTL,0.5,3.0,-1042.0,43.0,2.5,-2.0,-0.005947818281129003,0.006477421848103404,-2.7755792140960693,0.041974663734436035,0.0013364950427785516,-0.0023981062695384026,-35.3637997,149.16498825000002,25335.0,6.0,6.5,-87.0
14:24:21,145575.0,RTL,0.25,-0.75,-1038.5,-12.5,-0.25,-2.25,-0.0037597454502247274,0.004310382122639567,-2.7758652567863464,-0.01358840859029442,-0.0016244933649431914,-0.0024755597405601293,-35.363799525,149.16498804999998,26122.5,4.75,8.75,-115.5
14:24:22,145575.0,RTL,0.5,0.0,-1005.0,48.0,-7.5,1.5,0.03083974402397871,-0.0032406896934844553,-2.7763110399246216,0.04749113880097866,-0.009776047896593809,0.0018240904319100082,-35.3637993,149.16498810000002,27860.5,5.5,-0.5,-148.5
14:24:24,145575.0,RTL,2.0,-2.5,-1007.0,-12.0,-14.5,-25.0,-0.0736219733953476,0.004333803430199623,-2.847140908241272,-0.012650866527110338,-0.0168777615763247,-0.025039933621883392,-35.36379805,149.1649819,30898.0,5.0,-4.0,-148.5
14:24:25,107888.0,RTL,-2.5,7.5,-1001.25,58.5,1.25,-7.75,-0.04461733251810074,-0.0016159227234311402,-2.8587138056755066,0.05792237725108862,-0.00026817270554602146,-0.008207754348404706,-35.36379815,149.1649837,32052.75,-6.25,39.0,-149.0
14:24:26,107888.0,RTL,-3.5,10.5,-1003.5,67.0,5.5,4.0,0.036429314874112606,0.005484152119606733,-2.8615012168884277,0.0663902759552002,0.004817350651137531,0.004385786480270326,-35.3637988,149.16499085,33996.0,1.0,42.5,-152.0
14:24:28,107888.0,RTL,-3.5,-3.5,-1002.5,-5.0,33.5,-54.5,-9.927089558914304e-05,-0.001550745335407555,-2.843358874320984,-0.006194371031597257,0.03216757718473673,-0.05515439994633198,-35.3637995,149.1649927,37103.0,-17.0,-15.5,-150.5
14:24:29,247618.0,RTL,-3.0,-1.25,-1000.75,12.5,10.75,-32.75,0.004250482066709083,0.011524574947543442,-2.8769442439079285,0.011951492168009281,0.009592305839760229,-0.03318147221580148,-35.3638007,149.164992325,38272.0,-11.75,-6.5,-151.5
14:24:30,247618.0,RTL,0.0,0.0,-999.5,1.0,-5.5,-6.0,0.014724970329552889,0.010663026478141546,-2.900204062461853,-3.591057611629367e-05,-0.00778809585608542,-0.006810712395235896,-35.3638013,149.16499234999998,40220.5,4.5,-5.5,-151.5
14:24:32,247618.0,RTL,1.0,-0.5,-1000.0,-0.5,-0.5,-20.0,0.004296254133805633,-0.0019474391592666507,-2.929017186164856,-0.001515906915301457,-0.0022292445646598935,-0.02107387874275446,-35.3638,149.16499140000002,43334.5,7.5,-8.5,-152.0
14:24:33,156864.0,RTL,0.75,0.0,-1000.0,3.5,1.25,-22.75,0.004509985679760575,-0.0022997501655481756,-2.947580635547638,0.0026327223458793014,0.00023345433874055743,-0.02376553788781166,-35.363799674999996,149.1649911,44503.75,4.25,-6.5,-152.0
14:24:34,156864.0,RTL,0.0,0.0,-1000.0,4.0,2.0,-23.0,0.007295332849025726,-9.869999848888256e-05,-2.980894923210144,0.0029441131046041846,0.0011309069814160466,-0.024066956713795662,-35.3637995,149.1649909,46455.0,1.0,-5.0,-152.0
14:24:36,156864.0,RTL,0.0,0.0,-1000.0,2.5,0.5,-18.5,0.006928591523319483,0.0011722487397491932,-3.0278849601745605,0.0016728153568692505,-0.0008511282503604889,-0.019556875340640545,-35.3637994,149.16499045,49570.0,1.5,-5.0,-152.0
14:24:37,2791.0,RTL,0.0,0.0,-1000.0,1.75,1.25,-18.75,0.006351923919282854,0.0010781871678773314,-3.0438987016677856,0.0008981766732176766,-8.928356692194939e-06,-0.019636621698737144,-35.3637993,149.16499034999998,50740.0,1.25,-5.0,-152.0
14:24:38,2791.0,RTL,0.0,0.0,-999.5,3.0,3.0,17.0,0.008833406493067741,0.0031909880926832557,-3.054350972175598,0.0018045417964458466,0.0016877114539965987,0.01674335030838847,-35.3637992,149.1649901,52683.5,2.5,-5.0,-152.0
14:24:40,2791.0,RTL,0.0,0.0,-1000.0,2.0,0.0,28.5,0.004633652279153466,0.00029291549981280696,-3.003714084625244,0.0008384594111703336,-0.0014334163279272616,0.02832536306232214,-35.36379875,149.1649894,55787.0,3.0,-5.5,-152.0
14:24:41,261463.0,RTL,0.0,0.0,-1000.25,0.5,0.0,22.75,0.0040339757688343525,-0.0007065713216434233,-2.986030876636505,-0.0005154685932211578,-0.0014352266734931618,0.022551130037754774,-35.36379865,149.16498925000002,56952.0,1.5,-3.75,-152.0
14:24:42,261463.0,RTL,0.0,0.0,-1000.5,5.5,0.5,20.5,0.005463476991280913,-0.0011806589900515974,-2.9615535736083984,0.004267883487045765,-0.000446160149294883,0.019782667979598045,-35.3637986,149.1649892,58894.0,0.0,-2.0,-152.0
14:24:44,261463.0,RTL,0.0,0.0,-1000.0,3.0,3.5,16.0,0.006643342785537243,-4.0516537410439923e-05,-2.9308249950408936,0.002450253232382238,0.0023380028433166444,0.015415186528116465,-35.36379875,149.1649894,61998.0,-1.0,-1.5,-152.0
14:24:45,255350.0,RTL,0.0,0.0,-1000.0,1.25,1.75,14.5,0.006882693036459386,0.00033026552773662843,-2.9215190410614014,0.0001909818674903363,0.0005894943315070122,0.01397895603440702,-35.36379885,149.164989475,63170.75,0.0,-2.0,-152.0
14:24:46,255350.0,RTL,0.0,0.0,-1000.5,2.5,1.0,12.0,0.006738487631082535,0.0005671196267940104,-2.907781481742859,0.0009847096516750753,-0.0002301940694451332,0.011611392255872488,-35.363799,149.1649896,65103.5,0.0,-2.0,-152.0
14:24:48,255350.0,RTL,0.0,0.0,-1000.0,4.0,2.0,10.0,0.005962835159152746,-3.53409150193329e-05,-2.8904507160186768,0.003113437443971634,0.0005645767087116838,0.009768326301127672,-35.363799,149.1649896,68216.5,0.0,-2.0,-152.0
14:24:49,300000.0,RTL,0.0,0.0,-1000.0,2.75,2.75,8.75,0.006165125872939825,0.00027787944782176055,-2.8849424719810486,0.0014236447750590742,0.0014733559801243246,0.008246693294495344,-35.3637991,149.1649896,69380.25,0.0,-2.0,-152.0
14:24:50,300000.0,RTL,0.0,0.0,-1000.0,2.0,2.0,7.5,0.0059435192961245775,0.0005268320383038372,-2.877059578895569,0.00041982659604400396,0.0007635164656676352,0.007172530982643366,-35.3637991,149.1649896,71322.0,0.0,-2.0,-152.0
14:24:52,300000.0,RTL,0.0,0.0,-999.5,2.0,0.5,9.0,0.0059988240245729685,0.000787069380749017,-2.8650829792022705,0.0008933819481171668,-0.0006829719641245902,0.008397688390687108,-35.3637992,149.1649896,74426.0,1.0,-2.0,-152.0
14:24:53,65543.0,RTL,0.0,0.0,-999.75,1.25,1.75,7.75,0.005843183724209666,0.0008767644903855398,-2.8607181310653687,1.1528813047334552e-05,0.0004764776967931539,0.0072088579181581736,-35.3637992,149.1649896,75593.5,1.0,-2.0,-152.0
14:24:54,65543.0,RTL,0.0,0.0,-1000.5,3.5,1.5,7.5,0.005551439709961414,0.0007511759467888623,-2.854258894920349,0.002337478566914797,0.00034286483423784375,0.00651459232904017,-35.3637992,149.1649896,77531.0,1.0,-2.0,-152.0
14:24:56,65543.0,RTL,0.0,0.0,-999.5,1.5,0.0,8.0,0.005496827885508537,-0.0002284276924910955,-2.8452067375183105,0.0002871028264053166,-0.0017488598241470754,0.007407466880977154,-35.3637992,149.1649896,80637.0,1.0,-2.0,-152.0
14:24:57,507.0,RTL,0.0,0.0,-1000.25,3.0,2.25,5.5,0.005719446926377714,9.035072343976935e-05,-2.8423038721084595,0.001562923367600888,0.0012542655458673835,0.004701380443293601,-35.3637992,149.1649896,81801.0,0.75,-2.0,-152.0
14:24:58,507.0,RTL,0.0,0.0,-1000.0,3.0,3.0,7.0,0.006065352121368051,0.0007295332034118474,-2.837659478187561,0.0013947569532319903,0.0014511856134049594,0.006122805643826723,-35.3637992,149.1649896,83744.5,0.0,-1.0,-152.0
14:25:00,507.0,RTL,0.0,0.0,-1000.5,2.5,1.0,5.0,0.005947052268311381,0.0015919309225864708,-2.8309303522109985,0.0013676440576091409,-1.5087600331753492e-05,0.004180371528491378,-35.3637993,149.1649896,86848.0,2.0,-1.0,-152.0
14:25:01,300000.0,RTL,0.0,0.0,-999.5,1.5,2.0,5.5,0.0055214103776961565,0.0012857272231485695,-2.8287059664726257,1.2485368642956018e-05,0.0007147225260268897,0.004630811512470245,-35.3637993,149.1649896,88014.75,2.0,-1.0,-152.0
14:25:02,300000.0,RTL,0.0,0.0,-1000.0,2.0,1.0,5.0,0.005463898414745927,0.0010535683250054717,-2.825248599052429,0.00039552414091303945,-0.0007646689191460609,0.004231325117871165,-35.3637993,149.1649896,89960.5,2.0,-1.0,-152.0
14:25:04,300000.0,RTL,0.0,0.0,-1000.0,3.0,2.5,3.5,0.005375496810302138,0.0006656372279394418,-2.8201489448547363,0.0016825832426548004,0.0011697246227413416,0.0025174065958708525,-35.3637993,149.1649896,93062.5,1.0,-1.0,-152.0
14:25:05,156604.0,RTL,0.0,0.0,-999.75,2.0,1.75,5.5,0.005546981585212052,0.0009102290496230125,-2.8181660175323486,0.0005132047226652503,0.00041597854578867555,0.004382163635455072,-35.3637993,149.1649896,94231.5,1.0,-1.0,-152.0
14:25:06,156604.0,RTL,0.0,0.0,-999.5,2.5,2.0,5.0,0.0055542325135320425,0.001017677946947515,-2.8155624866485596,0.00023232761304825544,0.000888585695065558,0.003912205575034022,-35.3637993,149.1649896,96168.0,1.0,-1.0,-152.0
14:25:08,156604.0,RTL,0.0,0.0,-1000.0,2.0,2.0,4.5,0.005436910083517432,0.0009148479730356485,-2.8116352558135986,0.00011865992564707994,0.0008027494186535478,0.003478801343590021,-35.3637993,149.1649896,99282.5,1.0,-1.0,-152.0
14:25:09,235154.0,RTL,0.0,0.0,-1000.0,3.75,2.25,4.75,0.005493193864822388,0.0011658410949166864,-2.810108721256256,0.0018258346244692802,0.0009815176017582417,0.00406400253996253,-35.3637993,149.1649896,100446.75,1.0,-1.0,-152.0
14:25:10,235154.0,RTL,0.0,0.0,-1000.0,1.0,1.0,4.5,0.005652102641761303,0.0008264843781944364,-2.8076725006103516,-0.0008776614558883011,-0.0005624614423140883,0.003099062596447766,-35.3637993,149.1649896,102390.0,1.0,-1.0,-152.0
14:25:12,235154.0,RTL,0.0,0.0,-1000.0,3.0,0.5,5.0,0.005652082851156592,0.001066662312950939,-2.804493546485901,0.0013565665576606989,-0.0006480206502601504,0.00338676362298429,-35.3637993,149.1649896,105495.0,1.0,-1.0,-152.0
14:25:13,202756.0,RTL,0.0,0.0,-999.75,1.75,2.0,3.25,0.005593763547949493,0.0010238300892524421,-2.803743064403534,1.491716830059886e-05,0.0004905735258944333,0.0021255041647236794,-35.3637993,149.1649896,106663.0,1.0,-1.0,-152.0
14:25:14,202756.0,RTL,0.0,0.0,-999.5,3.0,3.5,3.5,0.005553985247388482,0.0011988800251856446,-2.8024814128875732,0.0010592240141704679,0.001983193797059357,0.0024969460209831595,-35.3637993,149.1649896,108602.5,1.0,-1.0,-152.0
14:25:16,202756.0,RTL,0.0,0.0,-1000.0,2.0,2.0,3.0,0.0057880752719938755,0.0010739740682765841,-2.7998331785202026,0.000652644201181829,0.0009138858877122402,0.0016270558116957545,-35.3637993,149.1649896,111709.0,1.0,-1.0,-152.0
14:25:17,142139.0,RTL,0.0,0.0,-999.5,1.25,1.75,3.0,0.005505605833604932,0.0011081344564445317,-2.7992851734161377,-0.0005386570701375604,0.0006116894073784351,0.0017753685533534735,-35.3637993,149.1649896,112873.75,1.0,-1.0,-152.0
14:25:18,142139.0,RTL,0.0,0.0,-999.5,3.5,3.0,4.0,0.005813316209241748,0.0015395688242278993,-2.7981069087982178,0.0013610117603093386,0.0014446642016991973,0.0030416741501539946,-35.3637993,149.1649896,114816.5,2.0,-1.0,-152.0
14:25:20,142139.0,RTL,0.0,0.0,-1000.0,0.0,1.0,1.0,0.004791878862306476,0.001516088901553303,-2.796428918838501,-0.0022020827746018767,-0.00030787073774263263,-0.00027900643181055784,-35.3637993,149.1649895,117923.0,2.0,-1.0,-152.0
14:25:21,71472.0,RTL,0.0,0.0,-999.75,2.75,1.75,3.75,0.0048839261289685965,0.001358159090159461,-2.7957934737205505,0.001276817114558071,0.000227038050070405,0.0023137040552683175,-35.3637993,149.1649895,119088.0,2.0,-0.25,-152.0
14:25:22,71472.0,RTL,0.0,0.0,-1000.0,2.0,1.0,4.0,0.00525106699205935,0.0007430031546391547,-2.794952154159546,0.0006194588495418429,-0.0009654548484832048,0.002816392690874636,-35.3637993,149.1649895,121032.0,2.0,0.0,-152.0
14:25:24,71472.0,RTL,0.0,0.0,-1000.0,3.0,2.0,4.5,0.005806080996990204,0.0008763830701354891,-2.7937434911727905,0.0011566723696887493,-5.606969352811575e-06,0.0033435840159654617,-35.3637993,149.1649895,124138.5,1.0,-1.0,-152.0
14:25:25,53523.0,RTL,0.0,0.0,-1000.25,0.75,1.25,3.75,0.005910776671953499,0.00099060453067068,-2.793142020702362,-0.0009365794830955565,-0.00025544845266267657,0.0021676587930414826,-35.3637993,149.164989575,125305.5,1.0,-1.0,-152.0
14:25:26,53523.0,RTL,0.0,0.0,-1000.0,3.0,2.0,3.5,0.0056900763884186745,0.0012128226226195693,-2.7916793823242188,0.0010880178306251764,-4.722457379102707e-05,0.0015443370211869478,-35.3637993,149.1649896,127245.0,1.0,-1.0,-152.0
14:25:28,53523.0,RTL,0.0,0.0,-1000.0,0.0,1.5,3.0,0.004865751834586263,0.0013392700930126011,-2.790778398513794,-0.0023606469621881843,-0.00034103001235052943,0.0018960877205245197,-35.3637993,149.16498955,130360.0,1.0,-1.0,-152.0
14:25:29,210357.0,RTL,0.0,0.0,-1000.25,2.5,1.75,3.25,0.004826487507671118,0.001400983048370108,-2.790729820728302,0.00048449618043377995,4.5468652388080955e-05,0.001955233223270625,-35.3637993,149.1649895,131524.5,1.0,-0.25,-152.0
14:25:30,210357.0,RTL,0.0,0.0,-1000.0,2.0,0.5,2.0,0.005443933652713895,0.0009453738748561591,-2.790060043334961,-0.00020248384680598974,-0.0009915654081851244,0.0005943342694081366,-35.3637993,149.1649895,133466.5,1.0,0.0,-152.0
14:25:32,210357.0,RTL,0.0,0.0,-1000.0,4.0,2.5,2.5,0.006211485946550965,0.0013705893070437014,-2.7893826961517334,0.0020140332635492086,0.0005990181816741824,0.001214678108226508,-35.3637993,149.1649895,136574.0,1.5,-1.0,-152.0
14:25:33,30374.0,RTL,0.0,0.0,-1000.0,1.5,1.5,2.5,0.005742009612731636,0.001387765514664352,-2.789340019226074,-0.0004244833253324032,-0.00018238904885947704,0.0010395423450972885,-35.3637993,149.1649895,137739.5,2.0,-1.0,-152.0
14:25:34,30374.0,RTL,0.0,0.0,-1000.0,4.0,2.5,3.5,0.005464630201458931,0.0014958183746784925,-2.789113163948059,0.001986808958463371,0.0003066067583858967,0.0019506652606651187,-35.3637993,149.1649895,139679.5,2.0,-1.0,-152.0
14:25:36,30374.0,RTL,0.0,0.0,-1000.5,2.5,1.0,4.0,0.0054602285381406546,0.0010857542511075735,-2.7885570526123047,0.0005715066799893975,-0.0009740284876897931,0.0025076529709622264,-35.3637993,149.1649895,142788.0,2.0,-1.0,-152.0
14:25:37,126302.0,RTL,0.0,0.0,-1000.0,2.0,1.25,2.5,0.00536530336830765,0.0008040865213843063,-2.7881603837013245,-0.00013110737199895084,-0.0006993514543864876,0.0011361766373738647,-35.3637993,149.1649895,143955.25,1.75,-1.0,-152.0
14:25:38,126302.0,RTL,0.0,0.0,-1000.0,2.0,2.0,2.5,0.004920826526358724,0.001229460642207414,-2.7880717515945435,-0.0004239254631102085,0.0003020957810804248,0.0005343573284335434,-35.3637993,149.1649895,145894.0,1.0,-1.0,-152.0
14:25:40,126302.0,RTL,0.0,0.0,-1000.0,3.5,1.5,1.0,0.005414539482444525,0.0011231126845814288,-2.7876758575439453,0.0013527489500120282,6.000639405101538e-05,-0.0004603209672495723,-35.3637993,149.1649895,149000.0,1.0,0.0,-152.0
14:25:41,300000.0,RTL,0.0,0.0,-999.75,2.0,2.25,4.25,0.006140590296126902,0.0009435939282411709,-2.787350296974182,7.94223160482943e-05,0.00023907091235741973,0.002552561985794455,-35.3637993,149.1649895,150165.0,1.75,-0.5,-152.0
14:25:42,300000.0,RTL,0.0,0.0,-1000.0,2.5,1.5,2.5,0.005699198925867677,0.0010653594508767128,-2.786539673805237,0.00010240182746201754,-0.0005907487357035279,0.0009307250147685409,-35.3637993,149.1649895,152111.0,2.0,-1.0,-152.0
14:25:44,300000.0,RTL,0.0,0.0,-1000.5,2.5,1.0,2.5,0.005700790788978338,0.001570404856465757,-2.7862194776535034,0.00021071668015792966,-0.0011622968595474958,0.0008221223251894116,-35.3637993,149.1649895,155216.5,2.0,-1.0,-152.0
14:25:45,67180.0,RTL,0.0,0.0,-1000.25,3.5,2.25,3.25,0.005572248948737979,0.0014737654128111899,-2.7863139510154724,0.0015663249650970101,0.00037298002280294895,0.0014310787082649767,-35.3637993,149.1649895,156381.75,2.0,-1.0,-152.0
14:25:46,67180.0,RTL,0.0,0.0,-1000.0,0.5,1.5,0.5,0.005436928244307637,0.001195802935399115,-2.786302924156189,-0.0019542189547792077,-0.00018869165796786547,-0.000810644356533885,-35.3637993,149.1649895,158322.5,2.0,-1.0,-152.0
14:25:48,67180.0,RTL,0.0,0.0,-1000.0,0.5,1.5,1.5,0.004969530506059527,0.0009932375396601856,-2.7860368490219116,-0.002553413389250636,-0.0009407105389982462,0.00010316778207197785,-35.3637993,149.1649895,161430.0,2.0,-1.0,-152.0
14:25:49,202569.0,RTL,0.0,0.0,-1000.0,2.0,3.0,2.5,0.004609870142303407,0.001090653007850051,-2.7859345078468323,1.9664206774905324e-05,0.0008485031430609524,0.000886716356035322,-35.3637993,149.1649895,162602.25,1.25,-0.5,-152.0
14:25:50,202569.0,RTL,0.0,0.0,-1000.0,5.0,2.5,3.5,0.005149105796590447,0.0010650177719071507,-2.7859649658203125,0.0024987251963466406,0.0004680352285504341,0.0015848894836381078,-35.3637993,149.1649895,164544.0,1.0,0.0,-152.0
14:25:52,202569.0,RTL,0.0,0.0,-1000.0,2.0,3.0,1.5,0.005986939650028944,0.000911740236915648,-2.7857937812805176,-0.0008535118540748954,0.0014370536664500833,-0.0002149036736227572,-35.3637993,149.1649895,167651.0,1.0,-1.0,-152.0
14:25:53,300000.0,RTL,0.0,0.0,-999.75,3.5,3.25,3.75,0.005655077868141234,0.001080510119209066,-2.785897731781006,0.0012427878100425005,0.0010765132028609514,0.002166710910387337,-35.3637993,149.1649895,168815.75,1.0,-1.0,-152.0
14:25:54,300000.0,RTL,0.0,0.0,-1000.0,0.5,1.5,2.0,0.005407633725553751,0.0011083571589551866,-2.7857863903045654,-0.0016527852276340127,-0.00019061926286667585,2.740172203630209e-05,-35.3637993,149.1649895,170756.5,1.5,-1.0,-152.0
14:25:56,300000.0,RTL,0.0,0.0,-999.5,1.5,2.5,2.0,0.005572113674134016,0.001339190115686506,-2.78564453125,-0.001211923430673778,0.0004248399054631591,0.00012352305930107832,-35.3637993,149.1649895,173863.5,2.0,-1.0,-152.0
14:25:57,240156.0,RTL,0.0,0.0,-999.75,0.5,2.75,2.5,0.005384040530771017,0.001687596959527582,-2.7854658365249634,-0.0015410083287861198,0.0006467176717706025,0.0005872227484360337,-35.3637993,149.1649895,175032.0,2.0,-1.0,-152.0
14:25:58,240156.0,RTL,0.0,0.0,-1000.5,3.5,1.0,3.0,0.004814114887267351,0.0015674875467084348,-2.7847293615341187,0.0014334629522636533,-0.0009366336744278669,0.001257483963854611,-35.3637993,149.1649895,176969.0,2.0,0.0,-152.0
14:26:00,240156.0,RTL,0.0,0.0,-1000.5,3.5,1.0,1.0,0.005893411580473185,0.0009574429132044315,-2.784894585609436,0.0009441371075809002,-0.001196106430143118,-0.0005215751007199287,-35.3637993,149.1649895,180077.5,2.0,0.0,-152.0
14:26:01,98205.0,RTL,0.0,0.0,-999.25,2.25,2.5,3.25,0.0058277781354263425,0.000517784668772947,-2.7848310470581055,-8.313290891237557e-05,0.000482779840240255,0.0014573785592801869,-35.3637993,149.1649895,181242.0,1.75,-1.0,-152.0
14:26:02,98205.0,RTL,0.0,0.0,-1000.5,2.5,2.5,1.5,0.005504992790520191,0.0009783166751731187,-2.7848767042160034,-2.7889502234756947e-05,3.551237750798464e-05,-0.0006677160272374749,-35.3637993,149.1649895,183187.5,1.0,-1.0,-152.0
14:26:04,98205.0,RTL,0.0,0.0,-1000.0,2.5,1.0,0.5,0.005507054505869746,0.0009824286680668592,-2.784839153289795,0.00031967018730938435,-0.0007175176870077848,-0.0013285502209328115,-35.3637993,149.1649895,186294.5,1.0,-1.0,-152.0
14:26:05,72543.0,RTL,0.0,0.0,-999.75,3.25,3.0,2.25,0.005613605142571032,0.001053012310876511,-2.7847233414649963,0.0007354900008067489,0.000818406930193305,0.00013090181164443493,-35.3637993,149.1649895,187460.25,1.0,-1.0,-152.0
14:26:06,72543.0,RTL,0.0,0.0,-1000.0,3.0,2.0,2.0,0.005406438140198588,0.001177638245280832,-2.7849318981170654,0.0004486050456762314,-0.0002175177214667201,0.0006275514606386423,-35.3637993,149.1649895,189401.5,1.0,-1.0,-152.0
14:26:08,72543.0,RTL,0.0,0.0,-998.5,4.0,19.5,2.5,0.005058450857177377,0.003415996616240591,-2.784809947013855,0.0014949790202081203,0.017505552270449698,0.0003338606911711395,-35.3637993,149.1649895,192663.5,2.0,0.0,-152.0
14:26:09,148004.0,RTL,1.25,0.25,-998.75,1.0,49.75,3.25,0.004794384585693479,0.036644835490733385,-2.7845770120620728,-0.001207681227242574,0.047649405896663666,0.0009215640020556748,-35.36379895,149.1649896,193824.25,15.0,3.75,-150.5
14:26:10,148004.0,RTL,11.5,7.5,-995.0,-9.5,33.5,3.5,-0.0003004021127708256,0.07885202020406723,-2.7843905687332153,-0.012754704337567091,0.031390054151415825,0.0019084038212895393,-35.363795249999995,149.1649912,195579.5,68.5,22.5,-146.0
14:26:12,148004.0,RTL,59.0,13.0,-939.0,104.0,-123.5,250.5,0.027831583749502897,0.1581360623240471,-2.3469375371932983,0.10112322866916656,-0.12662704288959503,0.2483849748969078,-35.36376955,149.16500505,198023.0,238.0,129.5,-64.0
14:26:13,44174.0,RTL,76.25,6.5,-944.5,21.0,16.0,72.0,0.08559231087565422,0.12089604698121548,-2.2515185475349426,0.01796922110952437,0.013243431661976501,0.07009869581088424,-35.36375115,149.165015875,198326.0,302.5,125.5,-19.5
14:26:14,44174.0,RTL,102.0,-1.0,-992.5,56.0,66.0,-29.0,0.08258114755153656,0.19548116624355316,-2.2261250019073486,0.05379834026098251,0.06348262913525105,-0.032011743634939194,-35.36371065,149.1650325,198221.0,426.5,123.0,26.0
14:26:16,44174.0,RTL,128.0,10.5,-998.0,5.0,-32.0,-38.0,0.005628830520436168,0.19036176800727844,-2.316321015357971,0.002446557395160198,-0.034852505661547184,-0.04119143262505531,-35.363612950000004,149.16507145,197928.5,583.5,211.5,-0.5
14:26:17,168487.0,RTL,141.75,15.75,-990.25,-12.25,-16.0,-34.75,-0.0029278448346303776,0.17033850401639938,-2.3469045758247375,-0.015593601390719414,-0.018911845108959824,-0.03783486457541585,-35.363573075,149.165090125,197954.0,604.75,228.0,-5.0
14:26:18,168487.0,RTL,143.5,33.0,-976.0,-3.0,10.5,-29.5,-0.01596473902463913,0.1473160907626152,-2.3955860137939453,-0.006298527121543884,0.008509308099746704,-0.03267859574407339,-35.363505,149.16512275000002,198021.0,612.0,233.5,-3.0
14:26:20,168487.0,RTL,137.5,40.5,-989.5,311.5,-38.5,-21.0,-0.042869750410318375,0.06531490944325924,-2.4540377855300903,0.3091012239456177,-0.04227139614522457,-0.023141534067690372,-35.363398950000004,149.16517355000002,198081.0,550.5,207.0,-1.5
14:26:21,300000.0,RTL,115.5,34.5,-991.75,71.5,-39.75,-17.0,-0.05141593515872955,0.03018787852488458,-2.472358763217926,0.06805581040680408,-0.043269986752420664,-0.01981192734092474,-35.363364274999995,149.16519012499998,198083.5,492.5,185.75,1.0
14:26:22,300000.0,RTL,88.5,39.0,-996.0,-170.5,-20.0,13.0,-0.06891937181353569,-0.03266910370439291,-2.4968791007995605,-0.17474016547203064,-0.02330501237884164,0.00987180694937706,-35.3633162,149.165213,198057.5,363.5,137.5,3.0
14:26:24,300000.0,RTL,34.0,42.5,-1006.5,693.5,2.5,3.5,-0.02211175486445427,-0.07168145105242729,-2.528923749923706,0.6904457211494446,-0.0004890561103820801,0.0004727644845843315,-35.363271600000004,149.16523525,198000.5,149.0,55.5,1.5
14:26:25,240057.0,RTL,19.5,-6.0,-1002.0,-296.0,29.5,-12.5,-0.018577196402475238,-0.053798130713403225,-2.539710223674774,-0.2998244874179363,0.02707560546696186,-0.015731632243841887,-35.3632644,149.16523892499998,197990.0,85.75,30.25,1.25
14:26:26,240057.0,RTL,4.0,-25.0,-999.5,-479.0,22.0,-7.0,-0.008215149864554405,-0.02930556610226631,-2.554273009300232,-0.4826194792985916,0.01944342814385891,-0.010702934814617038,-35.3632591,149.1652411,197985.0,21.5,3.0,0.0
14:26:28,240057.0,RTL,0.0,22.5,-1005.0,563.5,-25.0,-1.0,0.0014219932490959764,0.0060924653662368655,-2.5712060928344727,0.5605993866920471,-0.028632238507270813,-0.0037609514547511935,-35.3632584,149.16523934999998,198003.0,0.0,1.5,0.0
14:26:29,195824.0,RTL,-1.0,0.5,-1001.25,-20.25,-4.0,-3.0,-0.0035117607039865106,-0.005282176018226892,-2.576285183429718,-0.023716159164905548,-0.007217954669613391,-0.006528479803819209,-35.363258475,149.16523905,198004.75,-3.25,3.25,0.0
14:26:30,195824.0,RTL,-4.0,12.0,-994.0,-67.5,7.5,-0.5,0.0024928130442276597,-0.002089420915581286,-2.58463978767395,-0.0718211978673935,0.00504102767445147,-0.004194427048787475,-35.36325945,149.1652389,198005.0,-9.0,0.5,0.5
14:26:32,195824.0,RTL,-2.0,-7.0,-997.5,160.0,3.5,-5.0,0.018786047119647264,0.0043056802824139595,-2.5959062576293945,0.15714357793331146,0.0005393038736656308,-0.008376187179237604,-35.3632615,149.1652387,197997.5,-1.5,-2.0,0.0
14:26:33,200.0,RTL,-0.25,4.25,-970.25,63.75,4.5,-1.0,0.00929463520878926,0.004946387489326298,-2.59987610578537,0.06003972142934799,0.0016948770498856902,-0.003861298522679135,-35.363261949999995,149.165238525,197986.0,1.25,-4.0,7.75
14:26:34,200.0,RTL,-0.5,-63.5,-941.5,-807.0,6.0,-8.5,0.002719863536185585,0.00511965760961175,-2.6058881282806396,-0.8089328408241272,0.0031947328243404627,-0.012084824498742819,-35.3632622,149.16523795,197496.5,2.5,-1.0,77.5
14:26:36,200.0,RTL,-2.0,-70.0,-956.5,-884.5,1.0,-9.5,0.0023198786366265267,0.0010321445151930675,-2.6132208108901978,-0.8864940404891968,-0.002659932943060994,-0.013038906268775463,-35.3632622,149.16523715,195322.5,2.0,5.0,106.0
14:26:37,194150.0,RTL,-4.5,-65.75,-990.75,-956.0,1.75,1.5,0.014453263720497489,-0.0016329864301951602,-2.616962730884552,-0.9586848467588425,-0.0017957434756681323,-0.0008020439418032765,-35.36326255,149.165238075,194534.25,3.5,2.5,100.75
14:26:38,194150.0,RTL,-5.0,-64.5,-960.5,-1427.0,6.0,-3.0,0.028339327313005924,-0.0027453616494312882,-2.622789978981018,-1.430821180343628,0.0029417017940431833,-0.006393624586053193,-35.3632638,149.16524075,193261.5,11.0,-11.5,100.5
14:26:40,194150.0,RTL,1.0,-33.0,-990.0,-1311.0,0.5,3.5,0.017852135002613068,0.0047469413839280605,-2.6284639835357666,-1.31736421585083,-0.002779625472612679,0.0012611178681254387,-35.363265150000004,149.165243,191228.0,26.0,-40.5,101.0
14:26:41,129585.0,RTL,2.5,-39.5,-996.25,-1324.25,6.75,-0.25,0.011293421790469438,0.007225158275105059,-2.631531596183777,-1.3306291997432709,0.003749647527001798,-0.0031357220141217113,-35.363265,149.165242325,190457.25,27.5,-42.75,101.75
14:26:42,129585.0,RTL,3.0,-16.0,-1017.0,-961.5,4.5,-4.0,-0.011137941386550665,0.009412807412445545,-2.634485602378845,-0.9688505828380585,0.0011222324101254344,-0.007008658489212394,-35.3632641,149.16524005,189181.5,23.0,-31.5,97.5
14:26:44,129585.0,RTL,1.0,47.5,-1023.0,484.5,0.5,4.5,-0.013934148475527763,0.005036879330873489,-2.6388367414474487,0.477681040763855,-0.00330325192771852,0.0019621155224740505,-35.363262399999996,149.16523675,187122.5,8.0,-2.5,96.5
14:26:45,128352.0,RTL,0.0,73.25,-998.0,1052.5,1.25,4.5,-0.00011803171946667135,0.0029067235300317407,-2.6406220197677612,1.0459505319595337,-0.00231641938444227,0.0021468756604008377,-35.363262150000004,149.16523642500002,186357.5,4.5,2.5,99.75
14:26:46,128352.0,RTL,-2.0,61.5,-1035.0,1353.0,0.5,-1.5,0.023167967796325684,-0.00015405967133119702,-2.643617630004883,1.3475728631019592,-0.003386187949217856,-0.004964187508448958,-35.36326215,149.165237,185089.0,2.0,6.0,97.0
14:26:48,128352.0,RTL,-1.0,-14.0,-995.0,485.5,4.5,3.5,0.049133867025375366,-0.0004174297282588668,-2.6481151580810547,0.4818708449602127,0.0012940652668476105,0.001360020600259304,-35.3632632,149.16523949999998,183053.0,7.0,-7.0,99.5
14:26:49,114088.0,RTL,-0.5,-32.5,-982.5,48.75,5.25,1.5,0.03796782623976469,0.0012311567770666443,-2.6490378379821777,0.04462306760251522,0.0018099244916811585,-0.0013829558156430721,-35.3632635,149.165240025,182293.0,10.5,-15.0,101.0
14:26:50,114088.0,RTL,1.5,-68.5,-1011.0,-1285.5,5.0,3.0,0.010934105142951012,0.002531570033170283,-2.651620864868164,-1.2909837365150452,0.0015676156617701054,0.00032447674311697483,-35.3632637,149.16524034999998,181028.5,13.0,-21.0,100.5
14:26:52,114088.0,RTL,1.5,-39.5,-1010.5,-1233.0,-0.5,6.0,-0.01399498013779521,0.0037162507651373744,-2.6540396213531494,-1.2405715584754944,-0.004543751943856478,0.0032979079987853765,-35.363263149999995,149.16523899999999,178984.5,11.0,-15.5,98.0
14:26:53,200.0,RTL,0.5,-0.5,-1008.5,-717.0,3.0,1.0,-0.010575431399047375,0.0029718592995777726,-2.655099928379059,-0.7252313643693924,-0.0005305897211655974,-0.0019079979392699897,-35.3632629,149.16523847500002,178228.75,9.75,-12.25,101.5
14:26:54,200.0,RTL,-1.0,5.5,-987.5,-762.0,0.5,2.0,-0.0061963602202013135,-0.0009349234169349074,-2.656071662902832,-0.7708925604820251,-0.003873256267979741,-0.0010281652212142944,-35.3632628,149.16523865,176941.0,7.5,-7.5,101.0
14:26:56,200.0,RTL,-1.5,78.5,-983.5,996.0,4.0,7.5,0.03377819247543812,4.165389691479504e-05,-2.6585922241210938,0.9876088201999664,0.0006713359616696835,0.004817783017642796,-35.3632635,149.16524040000002,174911.5,12.0,-20.0,103.0
14:26:57,300000.0,RTL,1.0,63.25,-1027.5,1091.0,7.5,-1.0,0.03042159555479884,0.00260517283459194,-2.660489797592163,1.0819810181856155,0.003929213446099311,-0.003559098462574184,-35.3632636,149.16524049999998,174141.5,13.5,-23.75,100.5
14:26:58,300000.0,RTL,4.0,61.0,-1017.5,1278.0,8.0,18.5,0.005382572999224067,0.008894952479749918,-2.6607435941696167,1.2698007822036743,0.0046798111870884895,0.015867273788899183,-35.36326315,149.16523865,172861.0,12.0,-20.5,99.5
14:27:00,300000.0,RTL,3.0,28.5,-973.5,1435.0,-5.5,-1.5,-0.015317287296056747,0.005758864805102348,-2.6625183820724487,1.4288938641548157,-0.010086576454341412,-0.0048528125043958426,-35.36326115,149.16523395,170804.0,-3.5,16.0,100.0
14:27:01,37515.0,RTL,2.25,19.5,-1016.0,1137.5,-0.25,5.5,-0.013714472996070981,0.0036746509140357375,-2.6626793146133423,1.1316886097192764,-0.004449426545761526,0.002411525056231767,-35.363260624999995,149.16523315,170043.25,-9.5,27.75,100.0
14:27:02,37515.0,RTL,0.0,0.0,-1042.5,736.0,-2.0,2.0,-0.016568413469940424,-0.00036949393870600034,-2.663124203681946,0.7315991818904877,-0.006428915541619062,-0.0013094511814415455,-35.3632602,149.16523285,168765.5,-15.5,37.0,100.0
14:27:04,37515.0,RTL,-3.0,-18.0,-988.0,325.5,5.0,4.0,0.01050600316375494,-0.0033035967499017715,-2.664059281349182,0.3220311403274536,0.0011212634854018688,0.0011820289655588567,-35.36326095,149.16523515,166718.5,-14.0,29.0,101.0
14:27:05,237397.0,RTL,-0.25,-24.0,-1008.5,352.5,7.0,1.75,0.015089728171005845,-0.0012162965285824612,-2.665471613407135,0.34876899793744087,0.003169967560097575,-0.001298506511375308,-35.363261349999995,149.1652359,165946.5,-11.5,21.75,98.25
14:27:06,237397.0,RTL,0.5,-55.5,-991.5,-550.5,3.5,-0.5,-0.00910370983183384,0.003648775164037943,-2.666227340698242,-0.5546459034085274,-0.00042527203913778067,-0.0037446944043040276,-35.3632615,149.16523575,164670.5,-8.5,16.0,99.0
14:27:08,237397.0,RTL,-0.5,-45.0,-1023.0,-1319.5,1.0,0.5,-0.03452837746590376,0.0005757639264629688,-2.666675567626953,-1.325273871421814,-0.00292504474055022,-0.0028960120398551226,-35.36326115,149.1652346,162638.5,-10.0,25.5,96.0
14:27:09,220308.0,RTL,-2.0,14.5,-972.5,-556.0,3.5,-2.5,-0.027343859896063805,-0.0007261437331180787,-2.6672040224075317,-0.5627570152282715,-0.0005686787189915776,-0.005859680532012135,-35.36326115,149.16523492500002,161874.25,-9.5,24.25,100.0
14:27:10,220308.0,RTL,-2.5,63.5,-991.0,867.0,7.0,3.0,0.000963014317676425,-0.0015915048425085843,-2.6674082279205322,0.8607523292303085,0.0033225584775209427,-0.00020188908092677593,-35.363261449999996,149.16523595,160593.5,-7.5,18.0,97.0
14:27:12,220308.0,RTL,-2.0,80.5,-986.0,1215.5,1.0,-2.0,0.019194631837308407,-0.0014862751122564077,-2.6677969694137573,1.2100236415863037,-0.002874710247851908,-0.005619716597720981,-35.36326235,149.16523784999998,158556.0,0.0,3.5,99.5
14:27:13,200.0,RTL,-1.25,36.0,-1014.0,1156.25,6.0,3.25,0.03296745615079999,5.108388722874224e-05,-2.668525516986847,1.1524921506643295,0.0020865192636847496,0.00045367178972810507,-35.363262675,149.16523845,157787.75,1.0,-0.75,98.75
14:27:14,200.0,RTL,0.5,4.5,-991.0,945.5,7.0,4.5,0.03317568451166153,0.0033042459981516004,-2.669243812561035,0.942669540643692,0.0032536573708057404,0.0010876269079744816,-35.3632629,149.16523865,156510.0,4.0,-5.5,100.5
14:27:16,200.0,RTL,2.5,-18.0,-951.5,572.0,6.0,8.5,0.019780590664595366,0.0050566536374390125,-2.6701266765594482,0.569187343120575,0.002418685471639037,0.005343693541362882,-35.363262750000004,149.1652377,154474.5,4.0,-2.0,102.5
14:27:17,268718.0,RTL,2.0,-29.0,-971.0,285.75,4.5,5.25,0.005638915143208578,0.0056036749156191945,-2.6698325872421265,0.28351327031850815,-0.00014973978977650404,0.0019187240395694971,-35.3632624,149.1652369,153712.5,2.5,1.0,99.5
14:27:18,268718.0,RTL,2.0,-58.0,-1028.0,-534.5,6.5,3.5,-0.011811633594334126,0.0036555910483002663,-2.6694395542144775,-0.537940725684166,0.0027972038369625807,0.0006364893633872271,-35.36326185,149.16523575000002,152436.0,-1.0,11.0,98.0
14:27:20,268718.0,RTL,0.5,-76.0,-947.5,-1175.0,-0.5,1.5,-0.0123370960354805,0.0016440553590655327,-2.670610785484314,-1.1783219575881958,-0.0052292183972895145,-0.0013023323845118284,-35.3632617,149.1652359,150401.5,-4.0,16.0,101.5
14:27:21,300000.0,RTL,0.0,-63.75,-1022.5,-1046.25,1.5,1.5,-0.008702123304829001,9.988467718358152e-05,-2.6699993014335632,-1.0494803339242935,-0.00332188222091645,-0.0016837941948324442,-35.3632617,149.165236075,149634.5,-3.5,14.25,99.0
14:27:22,300000.0,RTL,-1.5,-50.5,-1001.5,-1452.5,3.0,3.5,-0.015884446445852518,-0.0011774682207033038,-2.670804023742676,-1.4565943479537964,-0.0010348011273890734,0.00023282761685550213,-35.3632619,149.16523669999998,148376.0,-3.0,11.5,99.5
14:27:24,300000.0,RTL,-0.5,29.0,-984.5,-150.5,9.5,2.5,0.0013657515519298613,0.0007070521824061871,-2.671650767326355,-0.15639033075422049,0.005700353998690844,-0.0010424403008073568,-35.3632626,149.16523834999998,146336.0,2.5,-2.0,101.5
14:27:25,162905.0,RTL,-0.25,59.25,-1001.75,610.25,6.25,8.5,0.007144852424971759,0.001950206235051155,-2.6716262102127075,0.6050482206046581,0.00198820314835757,0.005281392484903336,-35.3632627,149.16523840000002,145569.25,3.75,-5.75,102.0
14:27:26,162905.0,RTL,-2.0,71.5,-1010.5,1473.0,8.0,9.5,0.02487084921449423,-0.00011102753705927171,-2.6705352067947388,1.4682799577713013,0.0034951597917824984,0.0067958327708765864,-35.3632627,149.16523845,144295.5,5.0,-6.0,102.0
14:27:28,162905.0,RTL,-7.0,17.0,-998.5,973.0,0.0,4.5,0.06758804246783257,-0.006948517402634025,-2.6711947917938232,0.9695658683776855,-0.004718521144241095,0.0020359994377940893,-35.36326375,149.1652416,142254.5,12.5,-19.5,101.0
14:27:29,300000.0,RTL,-3.5,-43.25,-968.75,-103.25,8.5,3.75,0.07388660311698914,-0.0056346062337979674,-2.672009229660034,-0.10697122476994991,0.004467330407351255,0.0005574683309532702,-35.363264574999995,149.165243575,141492.5,17.25,-33.25,102.25
14:27:30,300000.0,RTL,-2.5,-69.5,-1003.0,-1142.0,15.0,-1.0,0.05502541922032833,0.0013018838071729988,-2.6711241006851196,-1.146985948085785,0.01054284255951643,-0.004611826152540743,-35.36326545,149.1652452,140220.5,28.0,-56.5,100.5
14:27:32,300000.0,RTL,2.0,2.0,-1014.5,-702.0,8.5,15.5,0.03207164816558361,0.0062200690153986216,-2.6738544702529907,-0.7115092277526855,0.004179406678304076,0.012772178277373314,-35.363265549999994,149.1652445,138179.5,34.0,-64.0,102.5
14:27:33,200.0,RTL,3.0,49.0,-977.0,288.0,4.25,11.25,0.020090140867978334,0.006810628576204181,-2.6718037724494934,0.27906280755996704,-0.000451647094450891,0.008526871853973716,-35.363265,149.16524315,137403.75,32.5,-59.0,102.25
14:27:34,200.0,RTL,0.5,55.5,-985.5,374.5,-0.5,10.5,0.013652836438268423,0.0031056100269779563,-2.6716703176498413,0.36486315727233887,-0.00548889278434217,0.007289012894034386,-35.363264150000006,149.1652413,136116.0,25.5,-42.0,100.0
14:27:36,200.0,RTL,1.5,60.5,-1008.5,1332.0,6.0,9.5,0.043735599145293236,0.002324112690985203,-2.672045588493347,1.3226609826087952,0.0014215721748769283,0.006586134433746338,-35.3632638,149.16524095,134054.5,18.5,-33.0,94.5
14:27:37,300000.0,RTL,2.5,49.0,-997.75,1395.25,4.5,9.75,0.0368875851854682,0.004102181759662926,-2.671836256980896,1.3864812552928925,0.00030655425507575274,0.006541870709042996,-35.363263525,149.16524032499998,133290.25,16.75,-30.75,100.25
14:27:38,300000.0,RTL,1.5,6.0,-992.5,1021.5,7.0,10.0,0.023339350707829,0.004933909745886922,-2.6717922687530518,1.0142106413841248,0.002818311331793666,0.007043986697681248,-35.363262950000006,149.1652387,132013.5,11.0,-18.5,98.0
14:27:40,300000.0,RTL,2.5,-77.5,-980.5,-1137.0,0.0,-2.0,-0.017349799163639545,0.003078143927268684,-2.6721450090408325,-1.145570158958435,-0.005244038067758083,-0.005861256504431367,-35.36326215,149.165237,129966.5,1.5,-0.5,100.0
14:27:41,300000.0,RTL,3.25,-71.75,-993.0,-1267.5,7.5,2.75,-0.025585877476260066,0.0038147339946590364,-2.672575056552887,-1.276419848203659,0.0027903991285711527,-0.00088591716485098,-35.36326165,149.16523610000002,129196.5,-1.5,4.75,97.0
14:27:42,300000.0,RTL,3.5,-49.0,-1001.5,-1324.0,5.0,4.5,-0.057142987847328186,0.005831445334479213,-2.672208309173584,-1.3337469696998596,0.00040230771992355585,0.0008006648859009147,-35.3632607,149.16523365,127936.5,-10.0,20.0,98.0
14:27:44,300000.0,RTL,0.5,31.0,-943.0,-355.0,4.0,12.0,-0.06343438476324081,0.002264947397634387,-2.671205759048462,-0.36488157510757446,-0.0004686221946030855,0.007776183076202869,-35.36325945,149.16523085,125919.0,-22.5,49.0,102.5
14:27:45,235010.0,RTL,-1.0,19.75,-1020.0,-432.5,2.0,0.5,-0.05650473665446043,0.00047663087434557383,-2.670712411403656,-0.44240014255046844,-0.0024580310564488173,-0.0037936391308903694,-35.36325935,149.16523087500002,125151.25,-25.5,54.5,98.75
14:27:46,235010.0,RTL,0.0,40.0,-1008.0,12.5,5.5,10.0,-0.050361163914203644,-0.00010185301653109491,-2.671872854232788,0.004262679489329457,0.0008400878868997097,0.006465679733082652,-35.36325945,149.1652312,123890.5,-27.0,55.5,101.0
14:27:48,235010.0,RTL,-4.0,78.5,-1014.0,986.5,3.5,-2.5,-0.028249294497072697,-0.0026599966222420335,-2.6715484857559204,0.9796251356601715,-0.0009550924878567457,-0.007063005585223436,-35.36325975,149.16523205,121838.0,-25.0,51.5,98.5
14:27:49,242431.0,RTL,-4.75,82.5,-996.0,1361.0,6.0,2.5,-0.003953413135604933,-0.004276722727809101,-2.671390473842621,1.3545162677764893,0.0016382938483729959,-0.0011796204489655793,-35.363260225,149.1652333,121064.75,-22.75,46.0,100.0
14:27:50,242431.0,RTL,-5.0,71.0,-1032.0,1338.5,2.5,-3.0,0.021356755401939154,-0.005751382326707244,-2.6716374158859253,1.3327712416648865,-0.001550805289298296,-0.007770280819386244,-35.36326135,149.16523610000002,119775.5,-14.0,28.5,97.0
14:27:52,242431.0,RTL,-2.0,51.0,-1024.0,1404.5,4.0,-0.5,0.053763916715979576,-0.0019420069875195622,-2.671647310256958,1.3998140692710876,-0.0009843735024333,-0.004442132776603103,-35.363263,149.1652396,117738.0,1.0,-4.0,98.5
14:27:53,34042.0,RTL,-1.0,-4.5,-1006.0,624.0,5.25,1.25,0.04481284134089947,-0.0007515941470046528,-2.6717920303344727,0.6205032169818878,0.0007119739893823862,-0.0023247610370162874,-35.363263425,149.16524034999998,116976.75,5.75,-13.25,98.25
14:27:54,34042.0,RTL,0.5,-46.5,-979.0,-191.0,7.5,5.5,0.031038549728691578,0.001593403983861208,-2.6717331409454346,-0.19454232975840569,0.003048965707421303,0.002235041814856231,-35.3632637,149.16524065,115699.0,10.5,-21.5,101.0
14:27:56,34042.0,RTL,3.0,-60.5,-1002.5,-1355.5,7.5,0.0,-0.026249014772474766,0.005738815758377314,-2.671733260154724,-1.3615689873695374,0.0030576896388083696,-0.0038234698586165905,-35.363262750000004,149.16523815,113644.5,7.5,-14.5,94.0
14:27:57,114108.0,RTL,2.0,-38.25,-995.25,-1240.25,1.5,0.25,-0.03605132084339857,0.004059005179442465,-2.6718591451644897,-1.246696412563324,-0.002797790279146284,-0.00352477771230042,-35.363262125,149.16523682499997,112873.5,2.75,-4.0,98.25
14:27:58,114108.0,RTL,-1.0,19.5,-1041.0,-535.0,-2.5,3.5,-0.026985942386090755,-0.0006801869312766939,-2.6706653833389282,-0.542968139052391,-0.007623295299708843,0.00015917501877993345,-35.3632616,149.16523604999998,111597.0,-1.5,8.0,97.0
14:28:00,114108.0,RTL,-4.0,58.5,-1013.0,395.0,9.0,0.5,0.029616123996675014,-0.006639834959059954,-2.6719682216644287,0.3880462795495987,0.004647225607186556,-0.0034006081987172365,-35.3632627,149.16523975,109566.0,2.5,-5.5,98.0
14:28:01,149985.0,RTL,-1.5,70.25,-1019.25,865.5,10.5,8.5,0.0370400520041585,-0.002738822833634913,-2.671564280986786,0.8581089973449707,0.006301969289779663,0.005093324580229819,-35.363263225,149.16524074999998,108802.75,7.25,-19.25,96.0
14:28:02,149985.0,RTL,0.0,25.5,-994.0,1172.0,3.5,3.5,0.04669784568250179,0.0008874737832229584,-2.6710727214813232,1.1666406691074371,-0.0009998227469623089,-0.0006348071619868279,-35.3632636,149.1652409,107539.5,11.0,-25.5,98.5
14:28:04,149985.0,RTL,-2.0,-64.5,-997.0,-962.0,3.0,5.5,0.03393751382827759,-0.0034453223925083876,-2.6710410118103027,-0.9679531753063202,-0.0013946942053735256,0.001852005603723228,-35.3632638,149.16524164999998,105510.5,14.0,-27.5,100.5
14:28:05,200.0,RTL,0.0,-63.25,-998.25,-944.0,4.75,1.75,0.038722666911780834,-0.0025043038185685873,-2.6710909008979797,-0.9500263184309006,0.00022074917796999216,-0.0022846866049803793,-35.363264,149.16524222500001,104742.5,16.0,-33.75,100.75
14:28:06,200.0,RTL,1.5,-56.5,-1037.0,-1322.5,10.0,3.5,0.017584400717169046,0.00019910384435206652,-2.6717599630355835,-1.330406129360199,0.005508992588147521,3.819586709141731e-07,-35.3632641,149.16524235,103483.5,17.5,-39.0,101.5
14:28:08,200.0,RTL,4.5,59.0,-991.0,875.5,6.5,14.0,0.007696025422774255,0.004169998224824667,-2.671672224998474,0.8656665980815887,0.0024115510750561953,0.010166683234274387,-35.3632632,149.1652397,101441.5,13.5,-29.0,101.5
14:28:09,200.0,RTL,2.75,60.5,-1034.75,1187.0,4.0,6.75,0.005723301728721708,0.004093720286618918,-2.671431005001068,1.177913874387741,-0.00043037068098783493,0.00301491841673851,-35.363262625,149.16523842499998,100670.5,9.0,-20.0,100.5
14:28:10,200.0,RTL,0.0,52.5,-1029.0,1432.0,-0.5,5.5,0.013429753948003054,-0.000660002522636205,-2.6703606843948364,1.42405503988266,-0.0057260890025645494,0.0015580423641949892,-35.363262,149.1652372,99401.5,2.0,-3.5,103.0
14:28:12,200.0,RTL,-1.0,-21.5,-995.5,454.5,1.5,3.0,0.03146339859813452,-0.0039800957310944796,-2.671763777732849,0.44819679856300354,-0.0031743585132062435,-0.0009783331770449877,-35.3632621,149.1652382,97367.0,0.0,-2.5,104.5
14:28:13,220806.0,RTL,-1.25,-24.0,-987.0,349.25,4.25,3.0,0.03713386505842209,-0.0037977249012328684,-2.6716495156288147,0.3429911322891712,-0.00029071676544845104,-0.000663559534586966,-35.363262425,149.165239025,96601.75,0.75,-6.0,102.75
14:28:14,220806.0,RTL,0.5,-75.0,-990.0,-1008.0,9.0,2.5,0.01656672591343522,0.0006844099880254362,-2.671291470527649,-1.0160772502422333,0.004887070506811142,-0.001779239159077406,-35.3632628,149.16523984999998,95327.5,3.5,-15.0,104.0
14:28:16,220806.0,RTL,4.5,-79.5,-985.5,-1249.5,3.5,-2.0,-0.02411209885030985,0.003909383900463581,-2.671807885169983,-1.2573144435882568,-0.0007153821643441916,-0.006841715425252914,-35.363261949999995,149.16523690000002,93271.5,-0.5,-2.5,103.0
14:28:17,137817.0,RTL,2.75,-51.75,-1005.5,-1281.25,1.5,4.25,-0.03970093745738268,0.003169375704601407,-2.671632468700409,-1.2903996109962463,-0.002590326825156808,0.00037782813888043165,-35.36326137500001,149.16523565,92514.5,-4.0,5.25,101.75
14:28:18,137817.0,RTL,1.5,15.0,-978.0,-434.0,1.5,5.5,-0.05029045417904854,0.002320187515579164,-2.670869827270508,-0.4449668973684311,-0.003222269704565406,0.0019095640163868666,-35.36326055,149.16523375,91252.5,-12.0,22.0,104.0
14:28:20,137817.0,RTL,0.0,70.5,-977.5,508.0,5.5,0.5,-0.03714491240680218,-0.0007996145286597311,-2.671154260635376,0.4987814575433731,0.0014669836964458227,-0.0039608689257875085,-35.36326,149.1652328,89213.5,-18.5,35.5,104.5
14:28:21,101099.0,RTL,-2.5,71.5,-1016.5,976.25,3.75,5.25,-0.018272430170327425,-0.0023145228769863024,-2.6706977486610413,0.9679128378629684,-0.00031420611776411533,0.0013579836813732982,-35.363260175,149.16523329999998,88447.75,-19.5,37.75,103.25
14:28:22,101099.0,RTL,-1.5,81.0,-963.5,1337.0,5.0,8.0,-0.0003188293194398284,-0.0031819053692743182,-2.6704643964767456,1.329472303390503,0.0009174244478344917,0.004308050964027643,-35.36326065,149.16523460000002,87163.0,-17.0,31.5,105.5
14:28:24,101099.0,RTL,3.5,31.0,-1042.0,1216.5,2.0,7.0,-0.006451363749874872,0.0032685549231246114,-2.6707664728164673,1.2111241221427917,-0.0023081509862095118,0.003378687659278512,-35.3632608,149.16523435,85119.0,-14.0,23.0,101.5
14:28:25,155652.0,RTL,0.75,8.75,-1005.75,985.0,2.5,7.0,-0.014652225188910961,0.00163689223700203,-2.670566141605377,0.9805947095155716,-0.0016260409611277282,0.0035095211933366954,-35.363260475000004,149.16523355,84356.5,-16.25,29.25,102.75
14:28:26,155652.0,RTL,-2.0,1.5,-1018.5,535.0,-0.5,-2.5,-0.009842825587838888,-0.002773146377876401,-2.6696857213974,0.5317281484603882,-0.005124192219227552,-0.006459419149905443,-35.3632601,149.16523325,83088.0,-19.5,37.5,103.5
14:28:28,155652.0,RTL,-4.0,-51.5,-1034.5,-638.5,4.0,3.0,0.011999184731394053,-0.006283039227128029,-2.6695497035980225,-0.6426568329334259,5.565537139773369e-05,-0.000327545334585011,-35.3632612,149.16523615,81035.5,-15.0,26.0,99.5
14:28:29,150197.0,RTL,-1.75,-50.25,-1005.75,-1316.25,7.75,4.5,-0.0014064847346162423,-0.003807713626883924,-2.6700475215911865,-1.3217737078666687,0.0038232008228078485,0.0008032788173295557,-35.36326175,149.165237325,80262.75,-9.75,14.0,101.75
14:28:30,150197.0,RTL,-0.5,-7.0,-967.0,-912.0,4.0,4.5,-0.021370649337768555,0.0015574496355839074,-2.6707723140716553,-0.9189070463180542,-2.47518764808774e-05,0.00046867411583662033,-35.3632622,149.1652378,78995.0,-3.0,1.5,102.0
14:28:32,150197.0,RTL,0.5,60.5,-978.5,623.5,2.0,7.0,-0.023449859581887722,0.0030488638440147042,-2.6707550287246704,0.61777164041996,-0.0017226031050086021,0.0033170604147017,-35.36326165,149.16523605,76952.5,-3.5,6.0,99.5
14:28:33,107948.0,RTL,0.25,70.5,-1000.5,1044.75,6.25,9.75,-0.016014762921258807,0.0014491449546767399,-2.6702452301979065,1.038792446255684,0.0023067492293193936,0.006119267083704472,-35.363261324999996,149.165235275,76187.75,-6.5,13.0,101.75
14:28:34,107948.0,RTL,-2.5,71.5,-1044.0,1383.5,-0.5,1.0,0.004180714546237141,-0.004185985075309873,-2.669705390930176,1.3785211443901062,-0.005587458144873381,-0.0026725218631327152,-35.36326115,149.1652355,74910.5,-9.0,19.5,100.5
14:28:36,107948.0,RTL,-3.5,59.5,-1031.5,1333.0,1.5,-2.5,0.030247023329138756,-0.004702665144577622,-2.6697709560394287,1.3283351063728333,-0.003073764266446233,-0.006597880972549319,-35.36326205,149.1652383,72857.5,-2.5,0.5,99.0
14:28:37,108131.0,RTL,-4.5,15.0,-999.5,891.75,3.25,6.0,0.045051450841128826,-0.005390097154304385,-2.669240653514862,0.8888877630233765,-0.001094209961593151,0.002352948591578752,-35.36326255,149.165239375,72101.0,0.0,-4.75,102.0
14:28:38,108131.0,RTL,-1.5,-44.0,-1005.0,-308.5,7.5,-2.0,0.05307919345796108,-0.0056184930726885796,-2.6700061559677124,-0.31193578243255615,0.003384291660040617,-0.005972336977720261,-35.363263599999996,149.1652419,70823.0,7.0,-21.0,98.0
14:28:40,108131.0,RTL,3.0,-76.0,-995.5,-1353.5,13.5,-1.5,0.008830333361402154,0.0052998794708400965,-2.67041015625,-1.3582645654678345,0.009408363606780767,-0.005359535338357091,-35.3632638,149.16524135,68777.0,14.0,-36.5,100.5
14:28:41,146406.0,RTL,4.75,-65.5,-985.5,-1348.25,3.5,-0.25,-0.012867796505815932,0.006220720475539565,-2.670025110244751,-1.3537724018096924,-0.0003523093182593584,-0.0043625395046547055,-35.363263225000004,149.165239725,68015.25,11.5,-28.25,100.0
14:28:42,146406.0,RTL,4.0,-56.0,-1048.0,-1314.5,1.5,-1.5,-0.032445333898067474,0.004626202629879117,-2.6696035861968994,-1.3211100101470947,-0.002942201681435108,-0.005709088174626231,-35.36326205,149.16523695,66740.5,3.0,-8.5,100.5
14:28:44,146406.0,RTL,-1.5,-24.0,-1027.0,-1066.0,8.0,-4.0,-0.029828802682459354,-0.0023173870285972953,-2.669103741645813,-1.0727388858795166,0.004152645356953144,-0.008522539399564266,-35.3632609,149.16523535,64699.0,-8.5,15.5,99.5
14:28:45,280962.0,RTL,-0.25,-9.75,-1001.75,-928.0,4.5,1.75,-0.02826509950682521,-0.0019983643433079123,-2.669990062713623,-0.9350387901067734,0.0010490203276276588,-0.0022019267780706286,-35.36326095,149.1652355,63934.5,-9.75,16.0,100.5
14:28:46,280962.0,RTL,-3.5,34.5,-985.5,-144.5,5.5,11.0,-0.019705609418451786,-0.0024778597289696336,-2.6685460805892944,-0.15163077786564827,0.002070679794996977,0.007361807860434055,-35.36326115,149.16523585,62657.5,-9.0,14.5,101.0
14:28:48,280962.0,RTL,-1.0,79.5,-1009.0,1237.0,1.0,6.5,0.01747875940054655,-0.0024036731338128448,-2.6678534746170044,1.2312953472137451,-0.0030514616519212723,0.003279033349826932,-35.36326185,149.1652374,60609.5,-3.5,4.0,99.0
14:28:49,232290.0,RTL,-2.0,63.0,-1019.0,1273.5,8.25,6.5,0.022846927400678396,-0.0019937641045544297,-2.669225811958313,1.2683760821819305,0.0045026998850516975,0.003349697624798864,-35.363262125000006,149.16523784999998,59846.0,-1.75,0.5,99.25
14:28:50,232290.0,RTL,-2.0,32.5,-1028.5,1205.5,0.0,-5.0,0.0376031119376421,-0.0023895124322734773,-2.6689072847366333,1.2015327215194702,-0.004121453734114766,-0.008787316968664527,-35.3632625,149.1652388,58563.5,0.5,-3.5,99.5
14:28:52,232290.0,RTL,-1.5,-38.5,-1003.5,50.5,7.5,3.5,0.04397395998239517,-0.002840097062289715,-2.669443368911743,0.047421665862202644,0.003808732144534588,-9.971519466489553e-05,-35.36326335,149.16524075,56530.5,7.5,-18.5,98.5
14:28:53,52425.0,RTL,0.0,-63.0,-967.75,-752.75,3.75,4.75,0.033567673061043024,-0.0009490285374340601,-2.6696633100509644,-0.7573629096150398,0.0002451895270496607,0.0012743283878080547,-35.363263550000006,149.1652411,55767.75,10.0,-24.0,101.5
14:28:54,52425.0,RTL,1.5,-74.0,-1010.5,-1266.5,7.5,2.5,0.017763878218829632,0.0013917347532697022,-2.6690807342529297,-1.2721571326255798,0.0037790967617183924,-0.0006924289045855403,-35.3632637,149.1652412,54483.0,12.5,-28.5,99.5
14:28:56,52425.0,RTL,5.5,-52.0,-985.0,-1381.5,8.0,1.0,-0.03684736602008343,0.007967783603817225,-2.6700879335403442,-1.3885183930397034,0.003676951862871647,-0.0031676795333623886,-35.36326235,149.16523755,52432.5,6.0,-15.5,99.5
14:28:57,167778.0,RTL,2.5,-34.0,-983.75,-1210.0,1.25,-3.75,-0.048483370803296566,0.005121233931276947,-2.668967068195343,-1.216978445649147,-0.0027376532088965178,-0.007908304105512798,-35.363261475,149.165235575,51663.5,0.25,-0.75,98.75
14:28:58,167778.0,RTL,-1.5,30.0,-1007.5,-258.5,-2.0,-2.0,-0.03150795679539442,-0.0028644423000514507,-2.6679271459579468,-0.2666945978999138,-0.005965828662738204,-0.006696020718663931,-35.36326085,149.1652348,50385.5,-8.5,19.0,97.5
14:29:00,167778.0,RTL,-2.5,83.0,-968.5,1136.5,13.0,4.5,0.018958971835672855,-0.0041671437211334705,-2.6689529418945312,1.129494309425354,0.009325968101620674,0.0011960070114582777,-35.36326185,149.1652379,48348.0,-3.5,2.0,100.5
14:29:01,90845.0,RTL,-0.75,71.25,-1031.5,1288.5,8.5,1.75,0.02184105943888426,-0.00197723256496829,-2.6689355969429016,1.2819106578826904,0.004942044615745544,-0.0017808448756113648,-35.363262175,149.165238375,47576.25,-1.25,-2.5,97.5
14:29:02,90845.0,RTL,0.0,-55.0,-958.0,-353.0,4.0,0.0,0.021677352488040924,-0.0001942293019965291,-2.6692094802856445,-0.35705721378326416,0.00017705513164401054,-0.0031135561875998974,-35.3632626,149.1652389,46324.0,0.0,-6.0,97.0
14:29:04,90845.0,RTL,2.0,-73.5,-1019.0,-1029.0,-2.5,-1.0,-0.0013354772236198187,0.0002313911318196915,-2.668625235557556,-1.0340697169303894,-0.006462192162871361,-0.004408442764542997,-35.36326235,149.16523825,44669.0,0.5,-6.0,97.5
14:29:05,139681.0,RTL,0.75,-33.25,-1017.75,-1055.25,3.25,1.75,-0.019033173797652125,-8.63653294800315e-05,-2.669105648994446,-1.0619603395462036,-0.0002388542052358389,-0.0018506027408875525,-35.363262025,149.165237625,43657.5,-0.5,-2.5,98.25
14:29:06,139681.0,RTL,1.0,29.0,-922.5,-386.0,4.0,8.0,-0.029295334592461586,0.00041288594366051257,-2.6691163778305054,-0.394686296582222,0.0005301821511238813,0.005135462852194905,-35.36326165,149.1652368,42636.0,-2.0,0.0,103.5
14:29:08,139681.0,RTL,0.0,68.0,-982.5,974.5,4.5,4.5,-0.012448726687580347,7.111830927897245e-05,-2.668591260910034,0.9677487015724182,0.0014768759720027447,0.001105907722376287,-35.363261050000006,149.16523545,40599.0,-8.5,12.5,95.0
14:29:09,65958.0,RTL,0.25,47.75,-994.0,1315.5,0.5,6.0,0.003804155916441232,0.0002328885457245633,-2.6693989634513855,1.310211032629013,-0.003331993822939694,0.002508178469724953,-35.36326095,149.16523517500002,39588.75,-10.75,17.0,100.5
14:29:10,65958.0,RTL,-1.0,29.0,-991.5,1192.0,2.0,5.0,0.009530410636216402,-0.0013886142987757921,-2.6685434579849243,1.1879311800003052,-0.0012787246378138661,0.002158532850444317,-35.36326095,149.16523519999998,38570.5,-11.0,19.5,99.0
14:29:12,65958.0,RTL,-3.5,-14.0,-925.0,550.0,4.5,3.5,0.03160741552710533,-0.003980467445217073,-2.6692917346954346,0.5473751537501812,0.00107830751221627,0.00027074606623500586,-35.36326185,149.16523725,36542.5,-7.0,12.5,107.5
14:29:13,151334.0,RTL,-1.75,-61.75,-987.75,-833.25,3.0,-1.5,0.019030133727937937,-0.003627206082455814,-2.6686400771141052,-0.8373490199446678,-0.0005064475117251277,-0.0047954155306797475,-35.36326245,149.16523869999997,35526.25,-1.75,1.25,100.25
