time_stamp,RTL_ALT,MODE,roll,pitch,yaw,rollspeed,pitchspeed,yawspeed,lat,lon,relative_alt,vx,vy,vz,xacc,yacc,zacc,xgyro,ygyro,zgyro
04:56:21,1500.0,STABILIZE,-0.0007505182293243706,0.0009290453745052218,0.024412205442786217,0.0002908375463448465,0.0002730952110141516,0.001760147511959076,-35.3632621,149.1652375,0.0,-1.0,1.0,0.0,0.0,1.0,-1000.0,0.0,0.0,0.0
04:56:31,1500.0,AUTO,-0.0007669455371797085,0.001153282937593758,0.021911781281232834,0.00032730901148170233,0.0002747430116869509,0.0014240375021472573,-35.3632621,149.1652375,15.0,0.0,0.0,-1.0,0.0,2.0,-1000.0,1.0,0.0,0.0
04:56:32,2463.0,AUTO,-0.00032324150670319795,0.0014879669994115829,0.02158731333911419,0.0002939785132184625,0.00028831236995756625,0.0014540897449478508,-35.3632621,149.16523744,23.2,0.0,0.0,-2.0,0.0,1.2,-1000.0,0.2,0.2,0.4
04:56:33,2463.0,AUTO,-0.0001226290041813627,0.0017177134286612272,0.02135505899786949,0.00035130936885252595,0.00041443249210715294,0.00140808941796422,-35.3632621,149.1652375,24.0,0.0,0.0,-2.0,0.0,2.0,-1000.0,1.0,0.0,0.0
04:56:35,2463.0,AUTO,0.03561058267951012,-0.002949959132820368,0.021266167983412743,0.04476314038038254,-0.0077546765096485615,0.0030901674181222916,-35.363262,149.1652376,1805.0,1.0,12.0,-148.0,0.0,-1.0,-1006.0,45.0,-7.0,2.0
04:56:36,95763.0,AUTO,0.006877131015062332,0.019902720116078854,-0.054686290211975574,-0.0817111674696207,0.031039736792445184,-0.08236648589372635,-35.36326126,149.16524242000003,3709.4,3.4,47.6,-146.8,3.8,-9.2,-1000.8,-80.4,31.4,-82.2
04:56:37,95763.0,AUTO,-0.05288338661193848,0.01427201647311449,-0.09793730825185776,-0.07470637559890747,-0.1071404293179512,0.027086544781923294,-35.3632611,149.1652458,4852.0,-11.0,25.0,-149.0,6.0,-5.0,-1001.0,-73.0,-106.0,26.0
04:56:39,95763.0,AUTO,0.007347520906478167,-0.006357094272971153,-0.074370838701725,0.06472041457891464,0.020214896649122238,0.004615219309926033,-35.3632613,149.1652385,7917.0,8.0,-59.0,-151.0,-9.0,11.0,-1004.0,65.0,21.0,4.0
04:56:40,62435.0,AUTO,0.05703695397824049,0.02631718898192048,-0.08930349722504616,0.007793202996253967,0.0294598788022995,-0.03439952852204442,-35.363260875,149.16523360000002,9679.5,-3.0,-9.5,-151.5,-2.5,3.0,-998.0,8.25,30.0,-34.5
04:56:41,62435.0,AUTO,0.029525562189519405,0.021046773996204138,-0.10387783870100975,-0.08658713474869728,-0.05993536673486233,0.01922740414738655,-35.3632615,149.16523410000002,10845.0,-19.0,27.5,-148.0,6.0,-0.5,-997.5,-85.5,-58.5,18.0
04:56:43,62435.0,AUTO,-0.009021922945976257,-0.009318061172962189,-0.12329839169979095,0.022210415452718735,0.01185542717576027,-0.030272020027041435,-35.3632631,149.1652374,14121.0,5.0,-7.0,-152.0,-1.0,0.0,-1000.0,22.0,12.0,-30.0
04:56:44,300000.0,AUTO,0.00879889316856861,0.005185938451904804,-0.15601637363433837,0.008658680552616715,0.007975946227088571,-0.019208377040922642,-35.363262119999995,149.16523606,16069.4,5.8,-6.6,-152.0,-2.2,0.0,-999.8,8.8,8.2,-19.2
04:56:45,300000.0,AUTO,0.011253722012043,0.008797768503427505,-0.16858263313770294,-0.0023632755037397146,0.0012935148552060127,-0.013178815133869648,-35.3632617,149.1652355,17238.0,2.0,0.0,-152.0,-1.0,0.0,-999.0,-1.0,1.0,-13.0
04:56:47,300000.0,AUTO,0.0026303891791030765,0.004448952153325081,-0.19117578119039536,-0.004013837315142155,-0.0015935577685013413,-0.015527811367064714,-35.3632615,149.16523585,20163.5,-3.0,7.0,-152.0,0.5,0.0,-1000.0,-3.0,0.0,-15.5
04:56:48,300000.0,AUTO,0.000879842642461881,0.003148035961203277,-0.21357499063014984,0.0007305498293135315,-0.00031239030067808926,-0.019668360706418753,-35.363261625,149.165236375,22109.5,-3.0,4.5,-152.0,0.0,0.0,-999.75,1.25,0.0,-19.5
04:56:49,300000.0,AUTO,0.0012479029246605933,0.002717847703024745,-0.22821453213691711,0.0016360994195565581,7.76603992562741e-05,-0.019639882259070873,-35.3632617,149.16523654999997,23278.5,-3.0,3.0,-152.0,0.0,0.0,-1000.0,3.0,0.5,-19.5
04:56:51,300000.0,AUTO,0.006334677687846124,0.0047250252682715654,-0.2477734163403511,0.022845192812383175,-0.0010512324515730143,0.01785055547952652,-35.363261949999995,149.16523645,26389.0,-5.0,-1.5,-152.0,0.0,0.5,-999.5,23.5,-0.5,17.0
04:56:52,123672.0,AUTO,0.007842722348868847,0.001353879546513781,-0.21807551011443138,-0.007778192521072924,0.0005977698019705713,0.02316007064655423,-35.363262275000004,149.165236675,28331.25,-2.0,7.5,-152.0,0.5,-0.5,-999.25,-6.5,1.25,22.5
04:56:53,123672.0,AUTO,0.001783556304872036,0.0019478938193060458,-0.20187826454639435,-0.005061489762738347,0.0012260045623406768,0.021832830272614956,-35.3632623,149.1652372,29497.0,-0.5,8.5,-152.0,1.0,-1.0,-1000.0,-3.5,1.5,21.0
04:56:55,123672.0,AUTO,-0.0006417644181055948,0.0013681736891157925,-0.16617170721292496,0.0015152174746617675,0.0010962601227220148,0.013271214440464973,-35.3632623,149.165238,32598.5,0.0,1.5,-152.0,0.0,0.0,-1000.0,2.0,1.5,12.5
04:56:56,200.0,AUTO,0.0011568684712983668,0.0009179584740195423,-0.1490662880241871,0.00010277164983563125,-0.000109443164546974,0.013195356586948037,-35.3632623,149.165238,34539.5,0.0,0.0,-152.0,0.0,0.0,-999.75,1.0,0.75,12.75
04:56:57,200.0,AUTO,0.001296328497119248,0.001076465065125376,-0.14005576074123383,-0.0004237595130689442,0.0011378043272998184,0.012012825813144445,-35.3632622,149.1652379,35705.5,0.0,0.0,-152.0,0.0,0.0,-1000.0,0.5,1.5,11.5
04:56:59,200.0,AUTO,0.0024384079733863473,0.0014685571659356356,-0.12042364478111267,0.00016087366384454072,0.0006281452369876206,0.009953704196959734,-35.36326215,149.1652376,38816.0,0.0,0.0,-152.0,0.0,0.0,-1000.0,0.5,1.5,9.5
04:57:00,300000.0,AUTO,-0.04098515585064888,0.03934395918622613,0.11944126151502132,-0.01721682772040367,-0.04264450818300247,0.3380173221230507,-35.363262625,149.165236675,40658.5,-20.75,-20.5,-126.75,2.0,4.75,-957.75,-16.25,-41.25,337.5
04:57:01,300000.0,AUTO,0.012479045079089701,-0.04062529467046261,0.2598765790462494,0.08574077114462852,-0.0747534167021513,0.01669185608625412,-35.36326425,149.16523404999998,41506.5,-22.5,-32.0,-90.0,2.5,9.5,-956.5,86.0,-73.5,17.0
04:57:03,300000.0,AUTO,0.016284643672406673,0.0025372355012223125,0.20468373596668243,0.18522487208247185,0.026918441988527775,-0.022182630375027657,-35.36326295,149.1652349,42691.5,20.5,30.0,-32.0,-2.0,5.5,-976.5,186.5,27.5,-21.5
04:57:04,137964.0,AUTO,-0.016996402060613036,0.02606095839291811,0.17861654236912727,0.2340070977807045,0.009143397735897452,-0.02622345235431567,-35.36326115,149.165238275,42891.0,6.0,15.25,1.25,1.5,9.25,-963.5,235.25,10.5,-25.75
04:57:05,137964.0,AUTO,-0.034667473286390305,-0.0014275852590799332,0.16596443951129913,-0.4418633282184601,-0.09066502377390862,-0.005786573397926986,-35.363261050000006,149.16523890000002,42802.5,-4.0,-9.5,14.5,0.5,-35.0,-998.0,-441.5,-89.0,-5.5
04:57:07,137964.0,AUTO,-0.01301348052220419,-0.11097710952162743,-0.21279789879918098,-0.012926101684570312,-0.0322127565741539,-0.6891314685344696,-35.36325625,149.1652332,42673.5,86.5,-50.0,1.0,-22.5,8.0,-1005.5,-11.0,-30.5,-688.0
04:57:08,245439.0,AUTO,0.010357281484175473,-0.13048099726438522,-0.3544607236981392,-0.010132968425750732,0.066917032469064,0.024731085868552327,-35.363240975000004,149.165223425,42612.5,191.75,-103.25,3.25,-46.75,-23.75,-1012.0,-9.0,67.5,24.75
04:57:09,245439.0,AUTO,0.018868250772356987,-0.09212324023246765,-0.3493540287017822,-0.38954342901706696,-0.08203095942735672,-0.009379221126437187,-35.36322705,149.16521475000002,42579.5,226.5,-121.0,3.0,-50.0,-50.0,-983.0,-388.5,-80.5,-9.5
04:57:11,245439.0,AUTO,0.03988924063742161,-0.1260443590581417,-0.3725898563861847,0.08145080506801605,-0.27218084037303925,0.03753312677145004,-35.36317735,149.16518435,42433.0,298.5,-160.0,10.5,-65.0,-42.0,-970.0,81.5,-270.5,37.5
04:57:12,96218.0,AUTO,0.049437517300248146,-0.04158298601396382,-0.38145409524440765,0.24355828203260899,0.12825297936797142,-0.02793414051120635,-35.3631385,149.16516047500002,42274.75,362.0,-193.75,0.25,-83.75,-39.0,-1011.0,244.25,129.0,-27.25
04:57:13,96218.0,AUTO,0.04699424467980862,-0.13621725514531136,-0.38676130771636963,-0.02176886796951294,-0.32228605449199677,0.06324806995689869,-35.36311525,149.165146,42233.5,337.0,-179.0,15.5,-74.0,-58.0,-961.5,-22.0,-321.0,63.5
04:57:15,96218.0,AUTO,0.05414353497326374,-0.15072458237409592,-0.39661331474781036,0.07285720109939575,-0.3490922302007675,0.07146516442298889,-35.3630488,149.16510445,42009.5,347.0,-180.5,20.5,-73.5,-54.5,-957.5,72.5,-348.0,72.0
04:57:16,212039.0,AUTO,0.06202237494289875,0.011082537472248077,-0.4011344611644745,-0.12477618455886841,0.04153155907988548,-0.0502440826385282,-35.363005775000005,149.165077375,41828.25,376.75,-193.5,-3.5,-85.25,-49.5,-995.75,-124.0,42.25,-49.0
04:57:17,212039.0,AUTO,0.05683819204568863,-0.16333087533712387,-0.4058252274990082,0.3465658091008663,-0.35417868196964264,0.02926095947623253,-35.362982349999996,149.16506264999998,41778.5,341.5,-170.5,21.5,-77.5,-36.0,-964.0,346.5,-353.0,30.0
04:57:19,212039.0,AUTO,0.05518099293112755,-0.1714484691619873,-0.4152984023094177,0.35079869627952576,-0.3501124829053879,-0.01650713663548231,-35.362916299999995,149.16502144999998,41546.5,340.5,-167.5,22.0,-79.0,-24.5,-966.0,351.5,-349.0,-16.0
04:57:20,156900.0,AUTO,0.06622664351016283,0.012840787880122662,-0.41881295293569565,-0.16937095671892166,-0.0013814345002174377,0.023881002329289913,-35.362874075,149.16499505000002,41381.5,364.75,-181.25,-3.75,-83.5,-65.0,-994.25,-169.5,-0.5,24.75
04:57:21,156900.0,AUTO,0.05199667811393738,-0.17993349581956863,-0.421944260597229,-0.025710225105285645,-0.3325943201780319,-0.04104954935610294,-35.3628511,149.16498055,41324.0,339.0,-163.0,22.5,-73.0,-29.5,-964.0,-24.0,-331.5,-40.0
04:57:23,156900.0,AUTO,0.05033457651734352,-0.18888729810714722,-0.4278048723936081,-0.2675000745803118,-0.3461533188819885,-0.023162685334682465,-35.362785349999996,149.16493924999997,41091.5,348.5,-164.5,24.0,-74.0,-51.5,-966.5,-266.0,-345.0,-22.0
04:57:24,126803.0,AUTO,0.06446786597371101,0.009472293313592672,-0.43057820945978165,-0.04225196689367294,-0.023131810128688812,0.04674082389101386,-35.36274205,149.164912925,40932.0,370.5,-180.25,-2.75,-82.25,-69.25,-981.5,-42.0,-22.5,47.75
04:57:25,126803.0,AUTO,0.03591172955930233,-0.19358394294977188,-0.43309809267520905,-0.28085759724490345,-0.32626791298389435,-0.022124447394162416,-35.3627183,149.1648989,40857.5,352.0,-171.5,24.0,-74.0,-60.0,-968.0,-279.0,-325.5,-21.0
04:57:27,126803.0,AUTO,0.03009393997490406,-0.20001119375228882,-0.4375625103712082,-0.38137581944465637,-0.31704938411712646,0.05243784748017788,-35.36265145,149.1648591,40624.5,343.0,-182.5,25.5,-78.5,-71.5,-969.5,-381.0,-316.0,53.0
04:57:28,179563.0,AUTO,0.04820915870368481,0.01703674008604139,-0.4409807249903679,-0.13843279983848333,-0.0535002201795578,-0.04293185204733163,-35.362609074999995,149.16483275000002,40481.0,346.75,-191.75,-2.75,-79.75,-45.25,-989.75,-137.5,-52.75,-41.5
04:57:29,179563.0,AUTO,0.043682925403118134,-0.195379376411438,-0.44410867989063263,-0.08912541717290878,-0.2991286516189575,0.060168951749801636,-35.3625867,149.16481875,40402.5,331.5,-182.0,24.5,-71.0,-66.0,-971.5,-89.5,-298.0,60.5
04:57:31,179563.0,AUTO,0.05312899500131607,-0.1914750039577484,-0.4480806142091751,0.27879012236371636,-0.20963724702596664,-0.00373042281717062,-35.36252455,149.1647789,40177.5,329.0,-173.0,22.5,-78.0,-36.5,-984.5,278.5,-208.5,-2.0
04:57:32,300000.0,AUTO,0.054615311324596405,0.006704448547679931,-0.44687050580978394,-0.3926687054336071,-0.12629873678088188,0.0003475160337984562,-35.362485725,149.164754125,40058.75,314.75,-162.25,1.25,-68.5,-64.5,-969.0,-392.25,-125.25,1.5
04:57:33,300000.0,AUTO,0.048710426315665245,-0.15680624544620514,-0.44948531687259674,0.41017311811447144,-0.009758174419403076,-0.02653968147933483,-35.3624653,149.1647415,39961.0,313.5,-156.0,18.5,-69.5,-25.5,-1003.5,410.0,-9.0,-24.5
04:57:35,300000.0,AUTO,0.02819169219583273,-0.07649343460798264,-0.4495651125907898,-0.3276440240442753,0.15732845896854997,0.012185452971607447,-35.36241435,149.1647103,39787.5,256.0,-128.5,9.5,-60.0,-42.5,-1014.5,-326.5,157.5,13.0
04:57:36,300000.0,AUTO,0.028780619613826275,0.047256949823349714,-0.45048101991415024,-0.37059014942497015,0.036510542035102844,0.014930161531083286,-35.36238975,149.16469515,39724.0,175.5,-88.25,3.5,-38.5,-41.75,-1008.0,-369.75,36.75,16.0
04:57:37,300000.0,AUTO,0.02547311782836914,0.08216706290841103,-0.45090994238853455,0.5337945818901062,-0.03225546097382903,-0.004874026868492365,-35.362379649999994,149.16468945,39688.5,109.0,-51.5,3.0,-23.0,8.0,-1009.0,533.5,-31.0,-3.5
04:57:39,300000.0,AUTO,-0.011160686146467924,0.012726421933621168,-0.45291614532470703,-0.5056864768266678,-0.02708633430302143,0.0018483903259038925,-35.362371550000006,149.1646854,39648.5,4.5,-9.5,0.0,-1.5,-12.5,-1002.0,-504.5,-26.5,3.0
04:57:40,134060.0,RTL,-0.0023130986373871565,-0.01127423346042633,-0.4535093605518341,-0.14796843379735947,-0.0027515148976817727,0.0013012206763960421,-35.362371575000004,149.164684725,39657.75,-0.75,-7.0,-0.5,-0.5,-2.5,-1002.5,-147.25,-2.25,2.75
04:57:41,134060.0,RTL,0.004497793910559267,-0.0021053917589597404,-0.4536333978176117,0.017580047249794006,0.011520925909280777,-0.005642318865284324,-35.362371550000006,149.1646844,39662.0,2.0,-7.5,-2.0,-2.0,-14.5,-1007.5,16.5,11.0,-4.0
04:57:43,134060.0,RTL,0.006394845433533192,-0.0016776014235801995,-0.4576072096824646,-0.01236002892255783,-0.0009404607699252665,7.022669888101518e-05,-35.362371249999995,149.1646837,40297.5,-3.0,-2.5,-67.5,-1.0,-3.0,-1027.0,-12.5,-0.5,1.0
04:57:44,195973.0,RTL,0.010906110284850001,-0.002216240915004164,-0.4596438854932785,-0.022769736126065254,0.00016900774062378332,0.002435752801829949,-35.362371550000006,149.164682925,41290.5,-1.0,2.25,-81.0,-0.5,-1.0,-999.0,-22.25,0.5,3.5
04:57:45,195973.0,RTL,0.010382745414972305,-0.0016306720790453255,-0.4598899632692337,0.04286568332463503,0.0033292985754087567,0.0025439822347834706,-35.3623716,149.1646826,41910.0,0.0,5.5,-75.5,-0.5,3.5,-987.0,43.5,3.0,3.5
04:57:47,195973.0,RTL,0.002853171550668776,0.0007419909234158695,-0.46019451320171356,-0.3574386462569237,-0.0004342471365816891,0.00418646284379065,-35.3623715,149.1646824,43070.0,0.0,8.5,-26.0,-0.5,-11.5,-968.5,-356.5,0.0,5.5
04:57:48,152110.0,RTL,0.0031649734009988606,0.003224506333936006,-0.4602986052632332,-0.1568744033575058,0.0021431878994917497,-0.0003466155903879553,-35.3623712,149.164682475,43203.0,-1.5,9.25,3.0,0.0,-4.75,-987.5,-156.0,2.25,1.0
04:57:49,152110.0,RTL,0.013673131819814444,0.0028324476443231106,-0.46045708656311035,0.2847876325249672,-0.0014534031506627798,-0.0031565227545797825,-35.3623711,149.16468255,43169.0,-3.0,9.0,5.5,0.5,0.5,-1013.5,284.5,-0.5,-1.5
04:57:51,152110.0,RTL,0.0129713318310678,-0.0027566658100113273,-0.46210870146751404,0.2054131105542183,-0.0010039892513304949,-0.0006226938567124307,-35.362371550000006,149.1646824,43498.5,-2.0,10.0,-47.5,0.0,11.0,-1025.5,205.5,0.0,0.5
04:57:52,300000.0,RTL,0.016970227705314755,-0.004162700846791267,-0.4627872705459595,0.10152748972177505,0.0009954656125046313,-0.0003619575290940702,-35.36237199999999,149.164681975,44106.75,1.5,12.5,-33.5,-0.25,6.25,-964.75,102.75,1.5,1.0
04:57:53,300000.0,RTL,0.015642995480448008,-0.003310939879156649,-0.46321581304073334,-0.24767781794071198,0.0025455843133386225,-0.0037873752880841494,-35.3623721,149.1646818,44278.5,3.5,13.0,-5.5,0.0,-20.5,-973.0,-248.0,3.0,-1.5
04:57:55,300000.0,RTL,0.014815892558544874,-0.0017900503007695079,-0.4634109139442444,0.34407591447234154,-5.791225703433156e-06,-0.004557908920105547,-35.362372,149.1646822,44272.5,3.5,12.5,-9.0,0.5,7.5,-1034.0,344.5,0.5,-2.5
04:57:56,247461.0,RTL,0.0037871169479331,-0.0017711548134684563,-0.4646623358130455,0.0007692314684391022,-0.0010615611099638045,-0.0006542642659042031,-35.36237185,149.16468265,44693.5,2.75,10.5,-49.25,0.25,-0.5,-1018.5,2.0,0.0,0.5
04:57:57,247461.0,RTL,0.00532283796928823,-0.00261454947758466,-0.46466340124607086,0.19147218950092793,0.0006056165148038417,0.0005840432713739574,-35.3623718,149.16468294999999,45093.0,1.5,8.0,-47.5,0.0,4.0,-975.0,192.0,1.5,2.0
04:57:59,247461.0,RTL,0.001265917206183076,-0.0015443339361809194,-0.4649834781885147,0.2622074820101261,-0.0007103935640770942,0.00047020375495776534,-35.3623715,149.16468355,45427.5,0.0,2.5,4.0,0.5,25.5,-1010.0,264.5,0.5,2.0
04:58:00,9562.0,RTL,-0.004289798671379685,-0.0029247416532598436,-0.46522919833660126,-0.10240501910448074,-0.00102416449226439,0.0003518282319419086,-35.3623714,149.164684,45441.75,-1.0,-0.25,-11.75,0.0,-1.0,-1035.5,-101.0,-0.5,1.75
04:58:01,9562.0,RTL,-0.006670461967587471,-0.002628863090649247,-0.46607843041419983,-0.23868828266859055,-0.0015606014057993889,-0.0013016036245971918,-35.3623714,149.16468425,45639.5,-2.0,-2.0,-39.0,0.0,-11.0,-1029.5,-237.0,-0.5,0.5
04:58:03,9562.0,RTL,-0.010840181726962328,-0.0037178369238972664,-0.4664919227361679,-0.47623211145401,-0.004323157714679837,-0.00020763988140970469,-35.3623712,149.1646845,46431.5,-3.5,-6.0,-8.0,-0.5,-13.0,-970.5,-474.5,-3.0,0.5
04:58:04,300000.0,RTL,0.003438392945099622,-0.004596469341777265,-0.4665176719427109,-0.09913639910519123,0.00023458636133000255,0.001619719434529543,-35.362371425,149.164683875,46438.75,-2.25,-3.25,3.5,-1.25,-1.5,-1004.0,-97.75,0.75,3.0
04:58:05,300000.0,RTL,0.015717715956270695,-0.004508839687332511,-0.466845378279686,0.3119160123169422,-0.0008582772279623896,0.00018266140250489116,-35.36237165,149.16468344999998,46431.5,-1.0,-0.5,-3.5,-1.0,1.5,-1037.0,312.0,0.0,1.5
04:58:07,300000.0,RTL,-0.0002184875775128603,-0.0020459970692172647,-0.46744219958782196,-0.2047327607870102,-0.0018111257231794298,-0.0020491654868237674,-35.3623717,149.16468325,47178.5,1.0,3.5,-48.0,0.0,-14.0,-981.5,-204.0,-0.5,0.0
04:58:08,291488.0,RTL,-0.006219994800630957,-0.0014619250141549855,-0.46723392605781555,-0.10994303971529007,-0.0014309905527625233,0.0015567399677820504,-35.3623714,149.16468387499998,47538.25,-0.25,0.0,-6.25,1.0,-4.0,-974.25,-108.75,-0.25,3.25
04:58:09,291488.0,RTL,0.001552004825498443,-0.0010374761186540127,-0.4671241194009781,0.4108356013894081,0.004083671839907765,-0.001837919873651117,-35.3623712,149.16468415,47550.0,-1.5,-2.0,4.5,0.0,8.0,-999.5,411.0,4.5,0.0
04:58:11,291488.0,RTL,-0.003395681589609012,-0.0025584498653188348,-0.46803784370422363,0.15172075107693672,-5.6480057537555695e-06,-0.0001319519360549748,-35.3623711,149.1646843,47756.0,-3.0,-4.0,-39.5,0.0,12.0,-1036.5,153.5,1.0,1.0
04:58:12,114306.0,RTL,-0.007622260309290141,-0.0029711118550039828,-0.4684409499168396,0.00963960587978363,-5.282580968923867e-05,0.00015878875274211168,-35.3623711,149.164684575,48387.75,-4.0,-6.25,-44.0,0.25,3.0,-973.25,10.5,0.75,1.75
04:58:13,114306.0,RTL,-0.0018917413071903866,-0.003301334334537387,-0.468473345041275,0.22781027108430862,0.002286674513015896,0.0015227594412863255,-35.3623711,149.1646848,48650.0,-4.5,-7.5,-16.0,-0.5,0.5,-961.5,228.5,2.5,3.0
04:58:15,114306.0,RTL,-0.00785420648753643,-0.0018768757581710815,-0.4677939862012863,-0.2555849477648735,-0.0013527466799132526,0.0024065354373306036,-35.3623711,149.1646845,48666.0,-5.5,-7.5,-2.5,-1.0,1.5,-1022.5,-254.0,0.0,4.0
04:58:16,62651.0,RTL,-0.0004848675453104079,-0.0027283765957690775,-0.4688817039132118,-0.05001629330217838,0.0009861409780569375,0.0003112147096544504,-35.36237115,149.164684175,48986.25,-5.0,-5.25,-44.0,-0.25,-3.0,-1025.25,-49.5,1.75,1.75
04:58:17,62651.0,RTL,0.0008979031117632985,-0.0035348833771422505,-0.46901969611644745,-0.0014458149671554565,0.0018727914430201054,0.0009923758334480226,-35.3623713,149.16468394999998,49370.0,-4.0,-3.5,-51.0,-0.5,5.5,-991.5,-0.5,2.5,2.0
04:58:19,62651.0,RTL,-0.0006713896291330457,-0.0023400383070111275,-0.4686036854982376,-0.09915730357170105,-0.00016265083104372025,0.004181925090961158,-35.3623715,149.1646834,49813.5,-0.5,0.5,2.5,-1.5,10.0,-996.0,-98.0,1.0,6.0
04:58:20,200.0,RTL,0.0040003174799494445,-0.0017361310601700097,-0.46836625784635544,-0.02714110165834427,0.0004374611598905176,0.0011743236100301147,-35.3623715,149.1646831,49806.25,0.0,2.5,-9.75,0.0,0.25,-1029.5,-26.25,1.5,2.75
04:58:21,200.0,RTL,0.002565743518061936,-0.001039983006194234,-0.4687991142272949,-0.2928716391324997,0.0009527294314466417,-0.0018022997537627816,-35.3623715,149.164683,49969.5,0.0,3.5,-37.5,0.0,-11.0,-1040.0,-292.0,1.5,0.0
04:58:23,200.0,RTL,-0.0035868820268660784,-0.003206986002624035,-0.46908585727214813,0.01580171287059784,-0.0029064497794024646,0.001399880275130272,-35.3623715,149.1646836,50971.5,-1.0,1.0,-29.5,0.0,8.5,-954.0,17.5,-1.5,3.0
04:58:24,139744.0,RTL,0.005716304949601181,-0.002891630050726235,-0.4687436744570732,0.14865086041390896,0.00161296347505413,0.0027718215133063495,-35.3623715,149.164683525,51088.5,-1.0,0.25,2.25,-0.5,9.25,-991.0,149.25,2.25,4.5
04:58:25,139744.0,RTL,0.00386301102116704,-0.0029423467349261045,-0.4689364731311798,-0.49849772453308105,-0.0031418113503605127,0.0016319939168170094,-35.3623716,149.16468315,51061.5,-0.5,1.5,1.5,-1.5,-22.5,-1014.0,-498.0,-1.5,3.5
04:58:27,139744.0,RTL,0.01391821913421154,-0.004173527006059885,-0.4696994572877884,-0.17089710757136345,-0.002718539326451719,0.0008315223967656493,-35.3623722,149.16468205,51627.0,3.0,9.5,-55.5,0.0,-8.0,-1004.5,-169.5,-1.5,2.0
04:58:28,271291.0,RTL,0.020651455968618393,-0.003925687458831817,-0.46950217336416245,0.15505032241344452,0.002745056030107662,0.001197172561660409,-35.3623724,149.1646816,52211.0,6.0,14.0,-24.75,-0.75,5.0,-954.75,156.0,3.5,2.75
04:58:29,271291.0,RTL,0.009647647151723504,-0.0022604939294978976,-0.4688657820224762,-0.5239673405885696,0.002339475555345416,0.001360825845040381,-35.36237235,149.16468155,52319.0,7.0,15.5,-1.0,-0.5,-20.5,-985.5,-522.0,3.0,3.0
04:58:31,271291.0,RTL,0.011810243129730225,-0.000327400877722539,-0.46928074955940247,0.18085794150829315,0.00018966151401400566,-0.0007355270208790898,-35.362371949999996,149.16468225,52337.5,5.0,13.5,-17.5,0.5,-5.0,-1040.5,181.5,1.5,1.5
04:58:32,157683.0,RTL,0.0034086740197381005,-0.0019034711585845798,-0.4695397764444351,0.0626523345708847,-0.0009227205300703645,-0.0005239238380454481,-35.3623718,149.16468285,52850.25,2.25,9.25,-51.75,0.25,2.25,-1005.0,64.75,0.25,1.25
04:58:33,157683.0,RTL,0.0011372196022421122,-0.0032972305780276656,-0.46957828104496,-0.2682710736989975,-0.0043514707358554006,0.00019436562433838844,-35.3623717,149.16468315,53242.0,1.0,6.0,-41.5,0.5,-16.5,-962.5,-266.0,-2.5,2.0
04:58:35,157683.0,RTL,-0.0018744743429124355,-0.0005127138283569366,-0.46908071637153625,0.0145539790391922,0.0004329507937654853,-0.001570042921230197,-35.362371249999995,149.1646841,53474.0,-0.5,0.0,5.0,1.0,-19.0,-984.0,15.5,1.5,1.0
04:58:36,184301.0,RTL,-0.0057886426147888415,-0.0020720805623568594,-0.46920863538980484,0.04747980087995529,-0.000759232570999302,0.0001906324177980423,-35.362371,149.164684575,53532.5,-4.0,-4.25,-20.5,0.25,4.0,-1034.5,49.0,0.25,2.5
04:58:37,184301.0,RTL,0.0008623535977676511,-0.0030249353731051087,-0.4696970731019974,0.2358866110444069,-0.0003265703562647104,0.0007037884788587689,-35.3623711,149.16468455,53789.0,-5.0,-5.5,-46.0,0.0,9.5,-1024.0,237.0,1.0,2.5
04:58:39,184301.0,RTL,0.02151945699006319,-0.004954020492732525,-0.46928223967552185,0.35573877952992916,0.00363043523975648,-0.0013385008205659688,-35.362371749999994,149.1646832,54545.0,-0.5,-0.5,-5.0,-0.5,3.5,-976.5,356.5,4.5,0.5
04:58:40,214124.0,RTL,0.011304015526548028,-0.0018059735302813351,-0.4690537676215172,0.21342874690890312,0.0015737244248157367,0.0004862832429353148,-35.3623718,149.16468272499998,54531.5,1.5,5.75,3.5,-0.25,9.5,-1008.75,215.0,2.5,2.5
04:58:41,214124.0,RTL,0.0041504777618683875,-0.0015049290959723294,-0.4689682722091675,-0.06144432723522186,-0.001639045134652406,1.2295553460717201e-05,-35.3623718,149.16468255,54548.0,2.0,8.0,-11.0,0.0,11.0,-1034.5,-59.0,0.0,2.0
04:58:43,214124.0,RTL,1.9627390429377556e-05,-0.0015863612643443048,-0.46967713534832,0.17888651927933097,0.002553938247729093,-0.0010438683675602078,-35.3623716,149.16468325,55400.0,1.0,5.5,-48.0,0.0,8.5,-976.5,181.0,4.0,0.5
04:58:44,300000.0,RTL,0.00068213815393392,-0.0027150230016559362,-0.46970681846141815,-0.10063795745372772,-0.0009844536398304626,0.0005353310552891344,-35.3623715,149.1646836,55725.25,-0.5,0.75,-4.25,0.25,-7.5,-976.5,-99.0,0.5,2.75
04:58:45,300000.0,RTL,0.0024629672698210925,-0.002217609668150544,-0.4688107669353485,0.3480265513062477,0.0025134945171885192,0.000615401251707226,-35.3623715,149.1646836,55721.5,0.0,1.0,4.0,0.0,31.5,-1000.0,350.5,3.5,2.5
04:58:47,300000.0,RTL,0.00992497312836349,-0.003295109490863979,-0.4701143354177475,0.11169088631868362,5.298055475577712e-05,0.0021077734418213367,-35.3623717,149.1646829,55992.0,0.0,4.0,-45.0,-0.5,11.5,-1031.5,114.0,1.5,4.0
04:58:48,53687.0,RTL,0.013773436774499714,-0.0039055976667441428,-0.46972712874412537,0.08019772730767727,1.3809563824906945e-05,0.0022533361916430295,-35.362372,149.164682375,56636.25,2.75,8.25,-41.5,-0.5,7.0,-968.5,82.5,1.25,3.75
04:58:49,53687.0,RTL,0.015212875325232744,-0.0031988241244107485,-0.4694458544254303,-0.053335875272750854,0.0003670234582386911,-0.0020416618208400905,-35.3623721,149.1646822,56871.0,4.0,10.0,-12.5,0.0,-16.0,-961.0,-52.0,2.0,0.0
04:58:51,53687.0,RTL,0.0016982047818601131,-6.152335481601767e-05,-0.46933142840862274,0.28052785340696573,0.001275453600101173,0.0029039932414889336,-35.3623716,149.164683,56879.0,2.0,8.5,-4.5,1.0,19.0,-1029.0,283.0,3.0,5.0
04:58:52,200.0,RTL,-0.00021765846759080887,-0.0018548666266724467,-0.4698224440217018,-0.04941884055733681,-0.0013375054695643485,0.000442264077719301,-35.3623714,149.1646835,57239.25,-0.25,3.25,-47.0,0.0,-3.0,-1025.25,-47.5,0.25,2.25
04:58:53,200.0,RTL,0.0006240655202418566,-0.0032420277129858732,-0.4698646366596222,0.10868868231773376,-0.0028054025024175644,0.0008001259993761778,-35.3623714,149.1646837,57641.0,-1.0,1.5,-52.0,0.0,6.5,-985.0,111.0,-0.5,2.5
04:58:55,200.0,RTL,0.006039447151124477,-0.0023932175245136023,-0.46872398257255554,0.3875739797949791,0.0026992374914698303,0.0009675822220742702,-35.3623715,149.1646835,58073.5,0.0,1.5,3.5,0.0,27.0,-998.5,390.5,4.0,3.0
04:58:56,300000.0,RTL,0.0003864073078148067,-0.0016295852838084102,-0.4691924452781677,0.0533494483679533,0.000988613668596372,0.00033785239793360233,-35.3623715,149.16468355,58064.0,0.0,1.25,-8.0,0.0,4.0,-1032.75,55.75,2.25,2.5
04:58:57,300000.0,RTL,-0.005841737147420645,-0.0012848173500970006,-0.469864159822464,-0.2300832187756896,0.00028283632127568126,-0.0005780725041404366,-35.3623714,149.1646838,58219.0,-1.0,0.0,-35.5,0.5,-8.0,-1039.5,-227.5,1.5,1.5
04:58:59,300000.0,RTL,0.004767275531776249,-0.003113796701654792,-0.46934475004673004,0.45125459134578705,0.002615052362671122,0.003410091041587293,-35.3623712,149.1646843,59186.5,-3.0,-3.5,-20.0,-0.5,16.5,-959.5,453.0,4.0,5.0
04:59:00,85041.0,RTL,0.00781965169153409,-0.0028391071246005595,-0.4693714827299118,0.33621144481003284,0.0015315386408474296,0.0010621411493048072,-35.362371350000004,149.1646839,59244.0,-2.5,-2.5,3.5,0.0,15.25,-993.75,338.0,3.0,3.25
04:59:01,85041.0,RTL,-0.0015666790422983468,-0.002982480335049331,-0.4697022885084152,-0.42694537341594696,-0.0007489108247682452,0.0006162619683891535,-35.36237145,149.16468365,59220.5,-2.0,-1.0,-0.5,-0.5,-13.5,-1021.0,-424.0,1.0,2.5
04:59:03,85041.0,RTL,0.0057049543829634786,-0.0033625804353505373,-0.4700106978416443,-0.08429578691720963,-0.0020890649757348,0.00012957293074578047,-35.36237165,149.16468325,59817.0,0.0,2.0,-57.0,0.0,-9.5,-1004.5,-82.5,-0.5,2.0
04:59:04,188289.0,RTL,0.0025888937525451183,-0.0021790757309645414,-0.4696401506662369,0.0608433373272419,0.0008557215624023229,0.00041148794116452336,-35.36237165,149.1646834,60432.5,0.5,2.25,-22.0,0.25,-0.75,-956.25,63.0,2.5,2.5
04:59:05,188289.0,RTL,-0.007798406528308988,-0.001684627786744386,-0.4695732891559601,-0.16789602488279343,-0.002023091190494597,0.0030155316926538944,-35.3623715,149.1646836,60519.5,0.0,1.0,-0.5,0.0,6.5,-987.5,-164.5,0.0,5.0
04:59:07,188289.0,RTL,0.015628039836883545,-0.004394311690703034,-0.4699629992246628,0.06808936595916748,-0.0010627084411680698,-0.001758721366059035,-35.3623718,149.16468285000002,60579.5,0.0,2.5,-27.0,-1.0,-6.5,-1043.5,69.5,0.5,0.5
04:59:08,282519.0,RTL,0.01629363722167909,-0.003991004487033933,-0.4698384404182434,0.007777174934744835,-0.0010160378878936172,0.00031581491930410266,-35.362372175000004,149.16468207499997,61175.0,3.25,9.75,-55.0,-0.25,-0.75,-996.75,10.5,1.25,2.5
04:59:09,282519.0,RTL,0.01356202783063054,-0.004059104365296662,-0.4697280824184418,-0.05986775457859039,0.000943769933655858,0.0029665923211723566,-35.3623723,149.1646819,61565.5,5.5,12.5,-39.5,0.0,2.5,-963.0,-57.0,3.0,5.0
04:59:11,282519.0,RTL,0.0046071191027294844,-0.0006191508437041193,-0.46938639879226685,-0.42714082449674606,-0.0015558027371298522,-0.002035701647400856,-35.3623719,149.16468235000002,61751.0,4.0,11.0,3.5,0.0,-27.0,-1003.0,-424.5,0.0,0.5
04:59:12,283597.0,RTL,0.008544734038878232,-0.0014989813644206151,-0.46961524337530136,0.044071782380342484,-0.0008560697024222463,-0.0003024910984095186,-35.3623718,149.1646826,61860.25,2.25,9.5,-28.0,0.0,1.0,-1037.75,46.75,0.75,1.75
04:59:13,283597.0,RTL,0.010003270814195275,-0.0018357982044108212,-0.4696345180273056,-0.0571652427315712,-0.0023723190533928573,-0.0002607033820822835,-35.3623718,149.1646825,62163.0,2.0,9.0,-52.5,0.0,-10.0,-1022.0,-54.5,0.0,2.0
04:59:15,283597.0,RTL,-0.001758319791406393,-0.0020410887664183974,-0.46925143897533417,-0.27926086634397507,0.00025784969329833984,0.005171521566808224,-35.3623718,149.1646828,63001.5,2.5,7.5,-6.5,0.0,0.5,-968.5,-275.5,2.5,7.5
04:59:16,245650.0,RTL,-0.000903385465790052,-0.00026988757963408716,-0.4689842760562897,-0.15828130394220352,0.00019483460346236825,-8.328934200108051e-05,-35.36237155,149.1646832,62995.75,0.5,5.0,3.0,0.25,-6.0,-1007.25,-154.75,1.75,2.0
04:59:17,245650.0,RTL,0.0018975365674123168,-0.00041390197293367237,-0.4695484936237335,0.1186358630657196,-0.001329828577581793,-0.0038494077743962407,-35.362371350000004,149.16468355,62997.5,0.0,3.0,-8.5,1.5,-5.5,-1033.5,121.5,0.0,-0.5
04:59:19,245650.0,RTL,-0.0020860754302702844,-0.0029470749432221055,-0.4702669829130173,-0.04869268834590912,-0.005312015302479267,-0.00018367415759712458,-35.3623712,149.16468425,63827.5,-4.0,-3.5,-51.5,0.0,-9.0,-977.5,-46.0,-3.0,2.0
04:59:20,95132.0,RTL,0.0023897775972727686,-0.004503389820456505,-0.46954623609781265,-0.013625450432300568,0.00179314921842888,0.0021633527940139174,-35.36237145,149.164683925,64210.5,-2.25,-2.25,-7.75,-0.75,3.5,-969.5,-10.5,3.5,4.5
04:59:21,95132.0,RTL,0.0136029371060431,-0.0036538364365696907,-0.46943844854831696,0.2884456869214773,0.0011000848608091474,-0.0023870718432590365,-35.3623716,149.16468365,64225.0,-1.0,-1.0,4.0,-0.5,-1.0,-992.5,291.0,3.0,0.5
04:59:23,95132.0,RTL,-0.008043076610192657,-0.0016343489405699074,-0.46989983320236206,0.025575146079063416,-0.00018252118024975061,0.002426796010695398,-35.3623714,149.16468394999998,64409.5,0.0,0.0,-39.5,0.0,8.0,-1034.0,29.5,2.0,5.0
04:59:24,209036.0,RTL,-0.00783273676643148,-0.00205017245025374,-0.4696773737668991,-0.051507205702364445,0.00048476728261448443,0.0010238253744319081,-35.362371124999996,149.16468455,65059.25,-3.25,-4.75,-48.5,0.0,-2.75,-977.0,-48.0,2.0,3.25
04:59:25,209036.0,RTL,-0.004155163711402565,-0.0027441460406407714,-0.4697412699460983,0.4003920406103134,0.0004187487065792084,0.002328004571609199,-35.3623711,149.1646847,65362.0,-4.0,-6.0,-22.5,0.5,21.0,-958.5,403.5,3.0,4.5
04:59:27,209036.0,RTL,-0.007780657848343253,-0.0023800720227882266,-0.46912018954753876,-0.46186740696430206,-0.0018525131745263934,-0.002731296350248158,-35.3623711,149.16468455,65407.5,-4.5,-7.5,1.0,-0.5,-20.5,-1014.0,-459.0,0.5,0.0
04:59:28,144533.0,RTL,-0.001961817019036971,-0.002313103701453656,-0.46977052837610245,-0.010658144019544125,-0.0002767188707366586,-0.00022867560619488358,-35.362371124999996,149.164684425,65659.25,-4.25,-6.5,-40.75,0.0,-2.0,-1032.5,-8.25,1.75,2.25
04:59:29,144533.0,RTL,-0.004505322547629476,-0.002833913662470877,-0.47017909586429596,-0.15467320382595062,-0.0007685727905482054,-0.0006298599764704704,-35.3623712,149.16468435000002,66034.0,-4.0,-5.5,-54.0,0.0,-6.0,-998.5,-151.5,1.5,1.5
04:59:31,144533.0,RTL,-0.00036611990071833134,-0.004345201887190342,-0.4697249233722687,-0.08995261788368225,0.0009851554641500115,0.004806861048564315,-35.362371550000006,149.1646836,66606.5,-1.5,-1.5,1.0,-1.5,12.0,-989.0,-86.0,2.5,7.5
04:59:32,200.0,RTL,0.008084389715804718,-0.0030392378685064614,-0.4694768339395523,-0.05765092745423317,-7.121125236153603e-07,0.00047756789717823267,-35.362371775,149.164682975,66582.5,0.5,2.5,-4.0,-1.0,-0.75,-1019.25,-54.75,2.0,3.25
04:59:33,200.0,RTL,0.008251717081293464,-0.002646184526383877,-0.4696118235588074,-0.19697186071425676,0.002049695234745741,-0.0011288899695500731,-35.3623718,149.16468279999998,66696.0,1.0,4.5,-29.5,-0.5,-15.5,-1036.5,-195.0,4.0,1.0
04:59:35,200.0,RTL,0.0025794144021347165,-0.0016554677858948708,-0.4696323424577713,0.06418897211551666,0.0008626807248219848,0.0010120206279680133,-35.362371749999994,149.1646829,67657.5,2.0,6.0,-32.5,0.5,7.0,-956.0,67.5,2.5,3.5
04:59:36,237670.0,RTL,-0.0034537105821073055,-0.0003126416813756805,-0.4693022519350052,-0.0629909411072731,0.000719992647645995,0.0016141401138156652,-35.362371475,149.16468335,67799.0,0.25,3.75,2.0,0.0,5.5,-989.0,-59.75,2.75,3.75
04:59:37,237670.0,RTL,0.002435753820464015,-0.0013627008302137256,-0.46932026743888855,-0.10376611351966858,-0.00400086521403864,-0.0013262161519378424,-35.3623714,149.1646835,67776.5,-1.0,1.5,3.0,0.0,-19.0,-1003.5,-102.0,-2.0,1.5
04:59:39,237670.0,RTL,0.006495636305771768,-0.0024101624730974436,-0.4696255028247833,0.007787272334098816,-0.0014731746632605791,-0.0017759705078788102,-35.3623715,149.1646834,68263.5,-1.0,1.0,-54.5,0.0,-3.5,-1016.5,10.0,0.5,0.5
04:59:40,153072.0,RTL,0.005565383631619625,-0.003391121281310916,-0.46944134682416916,0.02505684643983841,-0.0012556667788885534,0.0025550771970301867,-35.3623716,149.1646833,68885.25,0.0,2.75,-30.5,0.0,1.5,-962.5,28.0,1.0,5.0
04:59:41,153072.0,RTL,-0.004473331093322486,-0.0016501702484674752,-0.4691663533449173,-0.5207813680171967,-8.762779179960489e-05,0.0009934522677212954,-35.3623716,149.1646833,69031.0,0.0,2.5,-3.0,0.0,-18.0,-973.0,-517.5,2.0,3.0
04:59:43,153072.0,RTL,0.006308468757197261,-0.002007147646509111,-0.4692525565624237,0.35226111486554146,0.0014996040845289826,-0.0009897025302052498,-35.3623714,149.16468365,69036.0,-1.0,0.0,-15.5,0.0,9.5,-1045.0,354.5,3.5,1.5
04:59:44,200.0,RTL,0.0014879746013320982,-0.002578666608314961,-0.4699830263853073,0.049101416021585464,-0.0013901111669838428,0.000828683958388865,-35.36237145,149.1646837,69523.0,-1.0,0.0,-54.0,-0.5,5.25,-1013.75,52.0,1.25,3.5
04:59:45,200.0,RTL,0.004516843880992383,-0.0039475904777646065,-0.47017769515514374,-0.02732318639755249,-0.001938647124916315,0.0012820513220503926,-35.362371550000006,149.16468355,69938.5,-1.0,0.0,-49.0,0.0,-4.0,-972.5,-25.0,0.5,3.5
04:59:47,200.0,RTL,0.017619219608604908,-0.0020363000221550465,-0.4691675305366516,0.5383566915988922,0.005046183476224542,-0.0019668666645884514,-35.3623717,149.16468294999999,70257.0,1.0,4.0,3.5,0.0,17.0,-994.5,540.5,7.0,1.5
04:59:48,282736.0,RTL,0.004642928251996636,-0.002056720230029896,-0.4693753942847252,-0.05775955319404602,0.002554663806222379,0.00028397655114531517,-35.3623717,149.16468294999999,70299.0,1.0,5.0,-20.25,0.25,2.25,-1038.25,-54.5,4.5,3.25
04:59:49,282736.0,RTL,0.0072149597108364105,-0.0022974995663389564,-0.47001664340496063,0.0824938639998436,-0.0003674341132864356,0.0015660729259252548,-35.362371749999994,149.16468285000002,70543.0,1.0,6.0,-47.0,-1.0,8.0,-1033.0,86.0,2.0,4.5
04:59:51,282736.0,RTL,0.012008745223283768,-0.00254235346801579,-0.4694683700799942,0.24291220679879189,0.0018400868866592646,-0.0009460920700803399,-35.3623719,149.1646827,71462.0,2.0,7.0,-16.0,0.0,6.5,-954.5,245.5,4.0,2.0
04:59:52,93866.0,RTL,0.009073538007214665,-0.0011138837289763615,-0.46910425275564194,0.1275607943534851,0.0006024317699484527,-9.978364687412977e-05,-35.362371749999994,149.164682825,71489.25,1.5,6.75,3.0,0.75,-0.5,-1001.75,130.5,3.0,3.0
04:59:53,93866.0,RTL,-0.002923677838225558,-0.0008302446221932769,-0.4691125899553299,-0.13088395446538925,-0.001376959728077054,0.00025826808996498585,-35.36237165,149.16468305,71477.5,1.0,7.0,-4.5,0.5,10.0,-1028.5,-126.5,1.0,3.0
04:59:55,93866.0,RTL,-0.003050798608455807,-0.00214996375143528,-0.4698774218559265,0.1235618144273758,-0.000718072522431612,-0.0009636139729991555,-35.3623714,149.16468385000002,72246.5,-1.5,0.5,-54.5,0.0,7.5,-989.5,127.0,1.5,2.0
04:59:56,84633.0,RTL,-0.002215257816715166,-0.002097726857755333,-0.46942271292209625,-0.04221940040588379,0.0014066394069232047,6.658837082795799e-05,-35.362371350000004,149.1646841,72693.75,-2.0,-2.0,-11.75,0.25,-3.25,-967.5,-38.75,4.0,3.0
04:59:57,84633.0,RTL,-0.007953963009640574,-0.0003086594952037558,-0.4688591808080673,0.20632513612508774,0.00013529235729947686,0.0030558770522475243,-35.3623712,149.16468425,72730.5,-2.5,-2.5,3.0,0.0,23.5,-991.5,210.5,2.0,6.0
04:59:59,84633.0,RTL,-0.0051599609432742,-0.002138310228474438,-0.4696163535118103,-0.2920291796326637,-0.0026676071574911475,0.00046023388858884573,-35.362371,149.1646845,72846.0,-5.5,-6.5,-33.5,0.0,-14.0,-1037.0,-289.0,0.0,3.0
05:00:00,225921.0,RTL,-0.0032947662111837417,-0.0026748604141175747,-0.46990836411714554,-0.008601686917245388,-0.0007935725734569132,0.0007895718445070088,-35.3623711,149.164684575,73465.5,-5.0,-6.25,-51.75,0.0,-5.0,-986.25,-5.75,2.0,3.75
05:00:01,225921.0,RTL,-0.005509296548552811,-0.0037442751927301288,-0.4698823243379593,0.10040020942687988,-0.0001679279375821352,0.0027541760355234146,-35.3623711,149.1646846,73803.5,-4.5,-7.0,-28.5,0.0,13.0,-952.5,104.5,2.0,5.5
05:00:03,225921.0,RTL,-0.0027613238198682666,-0.0028213440673425794,-0.469063937664032,-0.5467065572738647,0.0011295770527794957,0.0015029271016828716,-35.362371249999995,149.16468415,73889.5,-3.5,-5.5,2.5,-0.5,-26.5,-999.0,-543.5,3.0,4.0
05:00:04,171883.0,RTL,0.010054251062683761,-0.004357264144346118,-0.4698977842926979,0.0586807057261467,-0.0002692403504624963,0.00033939204877242446,-35.362371575,149.1646834,74095.5,-2.25,-1.25,-37.5,-1.25,2.25,-1032.5,61.75,2.25,3.5
05:00:05,171883.0,RTL,0.013015517499297857,-0.00437193363904953,-0.4700451046228409,-0.1238446980714798,-0.0024176303995773196,0.0016924870433285832,-35.36237185,149.16468279999998,74457.5,0.0,2.0,-54.5,-1.0,-6.0,-1004.5,-121.0,0.0,4.5
05:00:07,171883.0,RTL,0.00820087583269924,-0.000833920028526336,-0.46931786835193634,-0.4790937900543213,-0.00034150597639381886,-0.0014246046775951982,-35.362372,149.16468214999998,75109.5,4.0,10.0,0.5,0.0,-30.0,-978.0,-476.0,2.5,1.5
05:00:08,200.0,RTL,0.00460302212741226,-0.0003464784676907584,-0.46911344677209854,-0.07009467855095863,0.0033564563491381705,-0.0010876402957364917,-35.362371800000005,149.1646825,75079.5,3.25,9.75,-0.5,0.5,-6.75,-1015.5,-66.75,5.5,2.0
05:00:09,200.0,RTL,0.005210611969232559,-0.00019770057951973286,-0.4694904237985611,0.32328687608242035,0.0001370585523545742,-0.0008750773267820477,-35.36237165,149.164683,75147.5,1.5,8.0,-22.5,0.5,10.0,-1043.0,326.0,2.5,2.0
05:00:11,200.0,RTL,-0.007802208885550499,-0.003524334286339581,-0.46946994960308075,-0.3459274098277092,-0.003116668085567653,0.0010017013410106301,-35.3623713,149.16468415,76080.0,-2.0,-1.5,-38.0,0.0,-13.0,-962.0,-342.5,0.0,4.0
05:00:12,200.0,RTL,-0.00038014028541510925,-0.0033005846198648214,-0.4691498950123787,-0.25622501224279404,-0.0025820699229370803,-0.00023116584634408355,-35.362371350000004,149.16468405,76283.5,-2.0,-2.75,0.25,-0.5,-13.5,-983.75,-253.25,0.0,3.0
05:00:13,200.0,RTL,0.015537870582193136,-0.0030759150395169854,-0.4690030366182327,0.6507401466369629,0.0020139875123277307,-0.0008395579643547535,-35.3623715,149.16468365,76267.0,-1.0,-0.5,4.0,0.0,29.5,-1004.0,653.5,4.0,2.0
05:00:15,200.0,RTL,0.020401938818395138,-0.00378386490046978,-0.46948815882205963,0.19137607514858246,0.0014657212886959314,0.0016660213004797697,-35.36237215,149.16468220000002,76682.0,2.5,7.5,-52.0,-1.0,10.0,-1019.0,194.5,4.5,5.0
05:00:16,200.0,RTL,0.017862473847344518,-0.0031664992566220462,-0.46955058723688126,0.009249784052371979,0.0019622492836788297,0.002210483537055552,-35.36237235,149.16468162500001,77308.0,6.75,14.0,-34.0,0.0,1.75,-962.25,13.0,4.5,5.5
05:00:17,200.0,RTL,0.015169177204370499,-0.0009664851822890341,-0.4690519869327545,-0.039501041173934937,0.003866640035994351,-0.0007818113081157207,-35.3623723,149.1646816,77480.0,7.0,15.5,-6.5,0.0,-12.5,-973.5,-36.5,6.0,2.5
05:00:19,200.0,RTL,0.001030721701681614,-0.0007869898690842092,-0.4690038114786148,0.2995094358921051,0.0011399614159017801,0.002483415068127215,-35.36237165,149.16468305,77486.0,2.5,9.0,-13.0,0.5,18.0,-1038.0,303.5,3.5,5.5
05:00:20,300000.0,RTL,0.0017454620538046584,-0.0029180102283135056,-0.4695631116628647,0.04648965992964804,5.744770169258118e-05,0.0002913550124503672,-35.3623716,149.16468345,77952.0,0.0,3.75,-52.25,0.25,2.75,-1017.0,50.25,2.75,3.5
05:00:21,300000.0,RTL,0.005291110137477517,-0.0031961583299562335,-0.46983905136585236,-0.03645189106464386,0.00026776804588735104,0.0018290518783032894,-35.3623716,149.1646835,78369.0,0.0,2.0,-49.5,0.0,-8.0,-972.5,-33.0,3.5,5.0
05:00:23,300000.0,RTL,0.012231312226504087,-0.0029382359934970737,-0.4688345640897751,0.17664221674203873,0.0005064348224550486,0.00024057121481746435,-35.3623716,149.16468335000002,78718.0,0.0,2.0,3.5,-1.0,-4.0,-1001.0,179.5,3.0,3.5
05:00:24,152214.0,RTL,0.013189015444368124,-0.0030679882038384676,-0.4691585674881935,0.05761249363422394,-4.975154297426343e-05,0.0010647973394952714,-35.362371825,149.16468267500002,78735.25,1.25,5.75,-14.5,-0.5,3.5,-1036.0,61.75,2.25,4.25
05:00:25,152214.0,RTL,0.017980697564780712,-0.0031696006190031767,-0.469142884016037,0.25906818360090256,0.002551124489400536,0.0005763145163655281,-35.362372,149.16468235000002,78942.5,3.0,9.5,-42.0,0.0,11.0,-1035.0,263.0,5.0,3.5
05:00:27,152214.0,RTL,0.010811560554429889,-0.0018151646363548934,-0.46934671700000763,-0.05158287286758423,0.003793689305894077,3.385287709534168e-05,-35.362372,149.16468245,79859.0,4.5,9.5,-17.0,0.5,-16.0,-959.0,-48.0,6.5,3.0
05:00:28,200.0,RTL,0.0010239000112051144,-0.0005067223901278339,-0.4686131998896599,0.011811956763267517,0.0007226284360513091,-0.001341017137747258,-35.362371625,149.1646832,79901.0,2.0,6.5,3.25,0.25,-8.0,-996.5,16.0,3.25,2.25
05:00:29,200.0,RTL,-0.003537695563863963,-0.000754169246647507,-0.46932297945022583,0.34260593354701996,-0.0018671436700969934,0.0007566541898995638,-35.36237145,149.16468365,79884.0,0.5,4.0,-2.0,0.5,27.0,-1031.5,347.5,1.0,4.0
05:00:31,200.0,RTL,0.0004608298186212778,-0.0033677148167043924,-0.4697931557893753,0.20943590253591537,0.0014228004729375243,0.0005220694001764059,-35.3623713,149.1646842,80598.0,-2.5,-2.5,-55.0,0.0,8.5,-993.5,213.5,4.0,3.5
05:00:32,98557.0,RTL,0.0006264674884732813,-0.0034128674305975437,-0.4690578505396843,-0.05093051493167877,0.0010382062755525112,0.0010111923329532146,-35.362371325000005,149.16468415,81075.0,-2.0,-3.25,-14.25,0.0,-4.75,-963.0,-46.5,3.75,4.25
05:00:33,98557.0,RTL,0.002174660563468933,-0.00262588809709996,-0.46900907158851624,0.5119632482528687,0.004187430255115032,0.0033691173885017633,-35.3623713,149.1646841,81123.0,-1.5,-2.5,2.0,-0.5,30.5,-994.0,516.5,6.5,6.5
05:00:35,98557.0,RTL,-0.00235920085106045,-0.0022942429641261697,-0.46948380768299103,-0.18388283252716064,-0.002315094869118184,0.0017677367432042956,-35.3623713,149.164684,81227.5,-2.0,-2.0,-31.0,0.0,-1.0,-1038.5,-179.0,0.5,5.0
05:00:36,300000.0,RTL,-0.0002695438452064991,-0.003627168305683881,-0.4697660729289055,-0.020733919460326433,-0.0010862606577575207,0.00047587091103196144,-35.362371425,149.1646839,81837.5,-2.0,-1.25,-51.5,-0.75,1.5,-989.75,-16.25,1.75,4.0
05:00:37,300000.0,RTL,0.010088368318974972,-0.0049607527907937765,-0.46972833573818207,0.3513943627476692,0.003949614241719246,0.0024897035909816623,-35.362371550000006,149.16468375,82183.0,-1.0,-1.0,-30.0,0.0,13.0,-958.5,355.5,6.5,6.0
05:00:39,300000.0,RTL,0.01108439639210701,-0.004885435337200761,-0.4689759463071823,-0.3788316734135151,-0.0016558674979023635,0.0018966719508171082,-35.362372050000005,149.1646825,82286.0,2.5,5.5,2.5,-1.0,-11.5,-1004.0,-373.5,1.0,5.5
05:00:40,72363.0,RTL,0.015869067516177893,-0.0038606434245593846,-0.4693007171154022,-0.0502130463719368,-0.0001625979202799499,0.0001600932446308434,-35.362372324999995,149.16468185,82473.0,6.25,12.0,-35.75,0.0,-3.25,-1035.5,-45.5,2.75,3.5
05:00:41,72363.0,RTL,0.01228518970310688,-0.002609681454487145,-0.469210222363472,-0.11660496890544891,0.0007750783697701991,-0.0012800408294424415,-35.3623724,149.1646818,82824.0,7.0,14.0,-55.0,0.0,-3.0,-1007.0,-111.5,3.5,2.0
05:00:43,72363.0,RTL,-0.0006241275696083903,-0.0022538350895047188,-0.46871034801006317,-0.5247156023979187,-0.005098898196592927,-0.0006413515657186508,-35.362372,149.16468275,83522.0,5.0,9.0,-1.5,-0.5,-29.5,-970.0,-519.5,-2.0,2.5
05:00:44,300000.0,RTL,0.006749247975676553,-0.0027989913360215724,-0.4687674194574356,-0.18557543028146029,-0.001663855044171214,-0.0004321206361055374,-35.3623719,149.164682775,83495.75,3.0,7.25,0.75,-0.5,-9.0,-1009.5,-180.25,1.5,3.25
05:00:45,300000.0,RTL,0.016848792787641287,-0.0035242396406829357,-0.4689279794692993,0.30226781917735934,-0.0005922997370362282,-0.0009555129799991846,-35.3623719,149.16468264999997,83546.5,3.0,7.5,-20.0,-1.0,6.5,-1042.5,306.5,2.0,2.5
05:00:47,300000.0,RTL,0.006787828810047358,-0.0034975511953234673,-0.4691709876060486,-0.07532763481140137,-6.9440808147192e-05,-0.0018258128548040986,-35.362372050000005,149.16468270000001,84464.5,5.0,9.5,-41.5,1.0,-10.5,-964.5,-70.0,2.5,1.5
05:00:48,32834.0,RTL,-0.0028365104808472097,-0.0014327661192510277,-0.46866127848625183,-0.020348869264125824,0.0015622135251760483,-0.0027338502113707364,-35.36237165,149.1646836,84697.5,2.5,3.5,-0.25,1.0,-7.0,-982.5,-15.5,4.0,1.25
05:00:49,32834.0,RTL,-0.0016445291694253683,-0.0020566523890011013,-0.46906067430973053,0.5547112226486206,-0.0038994746282696724,0.0003130609402433038,-35.36237145,149.16468405,84681.5,0.5,0.5,3.5,1.5,29.5,-1006.0,560.5,0.0,4.0
05:00:51,32834.0,RTL,-0.003180754487402737,-0.004438986303284764,-0.4694601893424988,-0.08553825318813324,0.0004588261363096535,0.0005826151464134455,-35.3623714,149.16468435000002,85041.5,-2.0,-4.5,-50.5,0.0,2.0,-1023.5,-79.5,3.5,4.0
05:00:52,300000.0,RTL,0.003871916371736006,-0.005866657244041562,-0.4693938121199608,-0.06748614925891161,0.0003022489254362881,0.0008426458807662129,-35.362371675,149.1646839,85679.25,-0.25,-2.75,-37.0,-0.25,-1.25,-962.75,-62.5,3.0,4.25
05:00:53,300000.0,RTL,0.009871839080005884,-0.005267241271212697,-0.46912842988967896,0.5050054490566254,0.004534876788966358,0.0005634049884974957,-35.3623717,149.1646838,85871.0,0.5,-1.0,-8.0,-0.5,20.0,-970.5,510.0,7.0,4.0
05:00:55,300000.0,RTL,-0.004661530256271362,-0.0022460257168859243,-0.46891652047634125,-0.4111301004886627,0.00015556893777102232,0.00013212859630584717,-35.362371550000006,149.1646838,85868.0,0.0,-1.0,-10.0,0.0,-16.5,-1038.5,-405.5,2.5,3.5
05:00:56,116107.0,RTL,-0.004301410517655313,-0.00200106090051122,-0.4694996625185013,-0.06439948081970215,-0.001225536601850763,-0.000656771648209542,-35.362371375,149.16468415,86304.0,-1.25,-2.75,-52.0,0.5,-6.0,-1016.0,-59.5,1.5,2.75
05:00:57,116107.0,RTL,-0.007381039089523256,-0.0036857587983831763,-0.469539538025856,0.06346145272254944,0.000381526886485517,0.0006217708578333259,-35.3623713,149.16468444999998,86724.0,-2.0,-4.0,-52.5,0.0,6.5,-979.0,68.5,3.0,4.0
05:00:59,116107.0,RTL,-0.011592258233577013,-0.003424897091463208,-0.46879905462265015,-0.5721481442451477,0.0012791180051863194,0.001737122656777501,-35.3623712,149.1646847,87118.0,-3.0,-8.5,3.0,-2.0,-24.0,-999.5,-567.0,3.5,5.0
05:01:00,156854.0,RTL,-0.0027773077454185113,-0.0034341623540967703,-0.46887776255607605,0.002849869430065155,0.0011703564669005573,0.00015864911256358027,-35.3623712,149.1646846,87120.0,-3.25,-7.75,-12.5,-0.25,-1.5,-1034.75,7.5,3.75,3.75
05:01:01,156854.0,RTL,-0.0014971214113757014,-0.0037985026137903333,-0.4695310741662979,-0.05750922113656998,-0.0015102431643754244,-0.0013439394533634186,-35.3623712,149.1646846,87306.5,-3.0,-7.0,-39.5,0.0,-9.5,-1035.5,-53.5,1.0,2.0
05:01:03,156854.0,RTL,-0.00648550339974463,-0.005264323437586427,-0.46910639107227325,-0.010679960250854492,-0.0019336981349624693,0.0008722497150301933,-35.3623713,149.1646848,88258.5,-3.0,-9.0,-22.0,0.0,8.5,-958.0,-5.5,0.5,4.5
05:01:04,1678.0,RTL,-0.005960307433269918,-0.004301656037569046,-0.4686061218380928,-0.011456601321697235,-0.0010915402381215245,-0.0009273703908547759,-35.3623713,149.1646847,88322.75,-2.5,-8.75,2.75,0.0,3.75,-992.5,-6.25,1.5,2.75
05:01:05,1678.0,RTL,-0.003894415218383074,-0.004026668495498598,-0.46899548172950745,-0.2678239047527313,-0.0021842215210199356,0.00012291304301470518,-35.3623713,149.1646847,88298.5,-3.0,-8.5,0.0,0.0,-21.0,-1014.5,-264.0,0.5,4.0
05:01:07,1678.0,RTL,0.0015423972508870065,-0.0053303653839975595,-0.4693431854248047,-0.0989549309015274,-0.003912024782039225,-0.0010973907774314284,-35.362371550000006,149.1646842,88963.5,-1.0,-5.5,-56.5,0.0,-8.0,-998.0,-95.0,-0.5,2.0
05:01:08,300000.0,RTL,0.0006583801441593096,-0.005284930695779622,-0.4689217209815979,0.06574490293860435,0.0012041680165566504,0.0021235911990515888,-35.3623716,149.1646841,89503.5,0.0,-4.25,-20.75,0.0,5.75,-962.0,70.25,3.75,5.75
05:01:09,300000.0,RTL,0.0015643578954041004,-0.00429002707824111,-0.4686732739210129,-0.19576993584632874,-0.002492492727469653,0.0008325937669724226,-35.3623716,149.1646841,89580.0,0.0,-4.0,0.5,0.0,-23.5,-991.0,-192.5,0.0,4.0
05:01:11,300000.0,RTL,-0.003241018974222243,-0.0030365040292963386,-0.46880216896533966,0.3279635161161423,0.00327977049164474,-0.00013378914445638657,-35.3623714,149.1646845,89646.5,0.0,-4.5,-28.0,0.0,13.5,-1048.5,332.0,5.5,3.5
05:01:12,59366.0,RTL,-0.009047416620887816,-0.004283471556846052,-0.469730943441391,0.05877819564193487,-0.0028247108566574752,0.0008303103968501091,-35.3623712,149.164685,90240.25,-2.75,-9.5,-56.25,0.0,1.75,-998.75,62.75,0.25,4.25
05:01:13,59366.0,RTL,-0.008130639442242682,-0.005045001860707998,-0.4696037769317627,-0.1735328957438469,-9.61691839620471e-05,-0.0013534527970477939,-35.3623712,149.1646851,90640.5,-4.0,-11.0,-41.5,0.0,-11.5,-958.5,-170.0,2.0,1.5
05:01:15,59366.0,RTL,0.005182674794923514,-0.0052047837525606155,-0.4689041078090668,0.5848938226699829,0.002011112868785858,0.0007173087215051055,-35.362371350000004,149.16468465,90839.0,-2.5,-9.0,3.0,-1.0,26.0,-1004.0,589.0,4.5,4.0
05:01:16,195189.0,RTL,0.005181006796192378,-0.005537744495086372,-0.4690417945384979,0.008503109216690063,-0.00043902796460315585,-0.0010473010479472578,-35.3623716,149.164684,90954.25,-0.75,-5.5,-29.0,-1.0,1.25,-1035.75,12.25,2.25,2.25
05:01:17,195189.0,RTL,0.007473494159057736,-0.00526456325314939,-0.4694831818342209,0.10801660642027855,0.002211419283412397,0.0005373713793233037,-35.3623718,149.16468365,91264.0,0.0,-1.5,-54.5,-0.5,9.5,-1024.5,112.0,4.5,4.0
05:01:19,195189.0,RTL,0.009670931147411466,-0.0038611209020018578,-0.46869461238384247,-0.005578547716140747,0.002705676481127739,0.0007830689428374171,-35.362372,149.1646831,92163.0,3.0,2.0,-10.0,0.0,-14.0,-963.0,-2.5,5.5,4.5
05:01:20,274402.0,RTL,0.00613909272942692,-0.002674597781151533,-0.468767873942852,0.14099703915417194,0.0001067350385710597,-0.0007580077508464456,-35.362371825000004,149.16468325,92166.25,2.5,1.75,3.25,0.0,-4.75,-1001.5,144.5,2.5,2.75
05:01:21,274402.0,RTL,-0.002259456319734454,-0.0024186602095142007,-0.46870338916778564,0.029970809817314148,0.0018605131190270185,0.000976156909018755,-35.3623717,149.1646835,92167.0,2.0,2.0,-8.5,0.5,8.5,-1036.5,35.0,4.0,4.5
05:01:23,274402.0,RTL,-0.0032729831291362643,-0.0045965975150465965,-0.4691348969936371,0.19737124349921942,-0.0005751694552600384,0.00041610654443502426,-35.3623714,149.1646846,92990.0,-1.5,-4.5,-50.5,0.0,4.5,-979.5,200.5,2.0,4.0
05:01:24,75859.0,RTL,-0.00046688767906744033,-0.004825731157325208,-0.4691453129053116,-0.011944890022277832,0.0020440623338799924,-0.0007645266014151275,-35.3623714,149.164684525,93366.75,-1.25,-6.5,-7.25,-0.25,-6.5,-971.75,-8.75,4.5,3.0
05:01:25,75859.0,RTL,0.001475469907745719,-0.004274777835235,-0.46908657252788544,0.47149917483329773,0.0014766587410122156,0.00039892224594950676,-35.3623714,149.16468444999998,93380.0,-1.0,-5.5,3.5,-0.5,27.5,-996.0,475.5,4.0,4.0
05:01:27,75859.0,RTL,-0.000172446045326069,-0.0036020809784531593,-0.4689670652151108,-0.2431717850267887,4.1727093048393726e-05,0.00026426068507134914,-35.3623716,149.1646839,93570.5,0.0,-3.0,-39.5,0.0,-8.5,-1036.5,-239.5,2.5,3.5
05:01:28,300000.0,RTL,-0.007153005135478452,-0.004542010952718556,-0.46932993829250336,-0.07830909825861454,-0.003754616598598659,0.0002891886397264898,-35.362371525,149.16468425,94218.75,0.0,-3.25,-48.25,0.5,-1.75,-974.25,-74.5,-1.25,3.5
05:01:29,300000.0,RTL,0.0005743177316617221,-0.005770279793068767,-0.4693247526884079,0.43836598098278046,0.0004999047378078103,0.0018188221147283912,-35.3623715,149.1646846,94514.0,-0.5,-6.0,-21.5,0.5,13.0,-953.5,441.5,2.5,5.5
05:01:31,300000.0,RTL,-0.01032812986522913,-0.003855460789054632,-0.46853214502334595,-0.5355799347162247,-0.0022638787049800158,-0.0010980425868183374,-35.3623713,149.1646848,94555.5,-2.0,-8.5,-1.0,0.0,-17.0,-1023.0,-531.5,0.5,2.0
05:01:32,162423.0,RTL,-0.006175212300149724,-0.0037007450591772795,-0.46896447241306305,-0.024543579667806625,-0.000594237819314003,-0.001098610577173531,-35.3623713,149.16468485000001,94842.5,-2.5,-9.0,-44.0,0.5,-2.25,-1032.0,-21.75,1.5,2.75
05:01:33,162423.0,RTL,-0.009053297806531191,-0.004392342176288366,-0.46946026384830475,-0.2118639349937439,-0.0024308410938829184,-0.0005462170811370015,-35.3623713,149.1646849,95239.5,-3.0,-9.5,-57.5,0.0,-7.0,-996.5,-208.0,-0.5,3.0
05:01:35,162423.0,RTL,-0.00655124825425446,-0.005394068080931902,-0.46841952204704285,-0.5050082802772522,0.0002885861322283745,0.0012339346576482058,-35.362371550000006,149.16468415,95860.0,-0.5,-6.0,2.0,-1.0,-4.5,-973.5,-501.0,2.0,4.5
05:01:36,223911.0,RTL,0.0009298086806666106,-0.004622143227607012,-0.4685017615556717,-0.15214774757623672,-0.0006493559048976749,-0.000712511595338583,-35.3623716,149.1646839,95834.5,0.25,-3.25,-5.25,0.0,-5.75,-1024.25,-149.5,1.5,2.75
05:01:37,223911.0,RTL,0.002094436204060912,-0.004057571291923523,-0.4691297709941864,0.18582382798194885,0.00023488840088248253,-0.0012187870452180505,-35.3623716,149.1646839,95947.0,0.5,-2.0,-31.0,-0.5,1.5,-1040.5,188.5,2.0,2.0
05:01:39,223911.0,RTL,-0.003379761183168739,-0.005776500329375267,-0.469219908118248,-0.2426941990852356,-0.002168669947423041,0.0022043786011636257,-35.3623716,149.164684,96971.0,0.0,-3.5,-40.5,0.0,-8.5,-956.0,-239.5,0.0,5.5
05:01:40,179383.0,RTL,0.0015321814571507275,-0.004235534928739071,-0.46875477582216263,-0.1895090825855732,-0.0006779944524168968,0.0003799065016210079,-35.3623716,149.164683825,97179.0,0.25,-2.25,-0.75,-1.0,-6.0,-988.0,-186.75,1.75,3.5
05:01:41,179383.0,RTL,0.01212270138785243,-0.0035376857267692685,-0.4688961058855057,0.41463249549269676,0.001867369981482625,-0.0010571831371635199,-35.3623716,149.1646836,97160.5,0.5,-0.5,2.5,-0.5,6.0,-1003.0,416.0,4.0,2.5
05:01:43,179383.0,RTL,0.0049654318718239665,-0.0031658924417570233,-0.46916137635707855,0.10553053021430969,0.0019121266668662429,-0.001967980060726404,-35.3623718,149.16468325,97599.0,2.0,3.0,-55.5,0.0,3.0,-1025.0,108.0,4.5,1.0
05:01:44,117971.0,RTL,-0.0005772450822405517,-0.003907216712832451,-0.4693893492221832,0.02436847798526287,-0.0005529773770831525,0.0010691143688745797,-35.362371724999996,149.164683675,98287.75,1.25,0.75,-41.0,0.0,-1.25,-962.75,27.0,1.75,4.5
05:01:45,117971.0,RTL,-0.004731273831566796,-0.003945484291762114,-0.4687873274087906,-0.44493574649095535,-0.005947081372141838,-0.001961470698006451,-35.3623716,149.1646838,98504.0,0.0,-1.0,-11.0,0.0,-24.5,-961.0,-442.0,-3.0,2.0
05:01:47,117971.0,RTL,0.00938065117225051,-0.004126764368265867,-0.4689243584871292,0.33429644629359245,0.00015132594853639603,-0.0007104327669367194,-35.3623717,149.1646834,98510.0,1.0,1.5,-9.5,0.0,10.0,-1032.0,336.5,2.0,2.5
05:01:48,276408.0,RTL,1.3958895578980446e-05,-0.00351469696033746,-0.4689801558852196,0.04467279836535454,0.00014466955326497555,-0.0007896618917584419,-35.3623717,149.164683625,98928.25,1.0,0.75,-52.5,0.0,2.25,-1023.0,47.5,2.25,2.25
05:01:49,276408.0,RTL,-0.0010374636622145772,-0.0039270182605832815,-0.4692450612783432,0.06682922691106796,3.661157097667456e-05,-0.0008142777951434255,-35.3623717,149.164684,99362.5,0.5,-0.5,-57.0,0.0,-3.0,-984.5,69.5,2.5,2.5
05:01:51,276408.0,RTL,0.008304486284032464,-0.003988967509940267,-0.4685947299003601,0.6946465075016022,0.0012686164118349552,-0.00013679452240467072,-35.3623715,149.1646842,99862.5,0.0,-3.5,3.0,0.0,25.0,-990.0,697.0,3.5,3.0
05:01:52,100458.0,RTL,0.00442196853691712,-0.003686430980451405,-0.4685521796345711,0.07267354428768158,-0.00018312397878617048,-0.00043907423969358206,-35.362371550000006,149.16468385000002,99850.25,0.0,-2.0,-8.25,-0.5,7.0,-1029.5,75.75,1.75,3.0
05:01:53,100458.0,RTL,0.0013060597702860832,-0.003927420941181481,-0.46894995868206024,-0.05787430703639984,-0.0012433842057362199,7.867382373660803e-05,-35.3623716,149.1646837,99997.5,0.0,-0.5,-35.0,0.0,4.5,-1036.5,-54.5,1.0,3.0
05:01:55,100458.0,RTL,0.00826874584890902,-0.004976985277608037,-0.46903471648693085,0.3289546072483063,0.004440797492861748,0.0005746915703639388,-35.3623718,149.1646835,101003.0,2.0,0.5,-32.0,0.0,11.5,-960.5,331.0,6.5,4.0
05:01:56,83090.0,RTL,0.00012383411376504228,-0.0024134103441610932,-0.46838756650686264,0.11593707837164402,0.0022379334550350904,-0.0006043168832547963,-35.36237165,149.16468385000002,101142.75,1.5,-0.25,1.75,0.75,-0.25,-994.0,118.25,4.0,3.0
05:01:57,83090.0,RTL,-0.017721581272780895,-0.002337391721084714,-0.4683029055595398,-0.3223349340260029,-0.0025376881239935756,0.0030497320694848895,-35.362371350000004,149.16468444999998,101118.0,0.0,-2.5,3.5,0.5,0.0,-999.5,-319.0,-0.5,6.0
05:01:59,83090.0,RTL,-0.018763992004096508,-0.0032036338234320283,-0.46925075352191925,-0.06262179464101791,0.001132881734520197,-0.0007781391032040119,-35.3623709,149.16468575,101621.0,-5.0,-12.5,-54.5,0.5,-0.5,-1011.0,-60.0,2.5,2.0
05:02:00,300000.0,RTL,-0.01406554295681417,-0.005145957926288247,-0.469250813126564,0.04829506855458021,-0.0013656665687449276,0.00010789540829136968,-35.36237075,149.164686175,102217.25,-7.5,-18.5,-28.25,-0.25,1.5,-955.5,50.25,0.5,3.0
05:02:01,300000.0,RTL,-0.014413260389119387,-0.005861354526132345,-0.46873919665813446,-0.006034255027770996,0.0004739859141409397,0.0016496505122631788,-35.3623708,149.16468600000002,102346.0,-8.0,-19.0,-2.5,-2.0,14.0,-985.5,-3.0,3.0,5.0
05:02:03,300000.0,RTL,0.013194768689572811,-0.006867997348308563,-0.4688914567232132,-0.11003958433866501,0.0007416732842102647,-0.0024521456798538566,-35.3623717,149.16468385000002,102367.0,-2.5,-8.0,-20.0,-1.5,-10.0,-1040.5,-108.5,3.0,0.5
05:02:04,23529.0,RTL,0.016455356031656265,-0.0067704857016603155,-0.4692220191160838,0.00042462100585301715,0.0003935707888255517,-0.0005834721184025208,-35.3623723,149.16468253333332,102882.66666666667,3.0,2.6666666666666665,-56.0,-1.6666666666666667,4.666666666666667,-1009.6666666666666,3.0,1.6666666666666667,2.6666666666666665
05:02:05,23529.0,RTL,0.017837656972308952,-0.006584018624077241,-0.4688240985075633,0.021398539344469707,-0.0012390555736298363,0.0008244616134713093,-35.362372533333335,149.16468203333332,103298.0,6.0,8.0,-46.333333333333336,-0.6666666666666666,4.666666666666667,-967.0,24.0,0.3333333333333333,3.6666666666666665
05:02:07,23529.0,RTL,0.017416924238204956,-0.0031822926830500364,-0.4686635136604309,0.07189764082431793,0.0013639909448102117,-0.0032919140066951513,-35.3623724,149.1646819,103589.0,9.0,13.5,4.5,0.0,-13.5,-995.0,73.0,3.0,0.0
05:02:08,168368.0,RTL,0.011917191402365765,-0.0033408779030044875,-0.4685327112674713,-0.10106168687343597,0.0009231422251711289,-0.00018605155249436697,-35.36237236666667,149.16468193333333,103630.66666666667,8.0,14.333333333333334,-19.333333333333332,0.0,-4.333333333333333,-1040.3333333333333,-99.0,2.3333333333333335,2.6666666666666665
