time_stamp,RTL_ALT,MODE,roll,pitch,yaw,rollspeed,pitchspeed,yawspeed,lat,lon,relative_alt,vx,vy,vz,xacc,yacc,zacc,xgyro,ygyro,zgyro
18:10:57,1500.0,STABILIZE,0.0003030582156497985,0.0013851335970684886,0.02884220890700817,0.00041004540980793536,0.000204711890546605,0.0023583213333040476,-35.3632621,149.1652374,0.0,0.0,0.0,0.0,0.0,1.0,-1000.0,0.0,0.0,0.0
18:11:01,1500.0,STABILIZE,-0.00013480243796948344,0.0012030487414449453,0.025952231138944626,0.00032171967905014753,0.0003327316662762314,0.001989798853173852,-35.3632622,149.1652376,0.0,-1.0,2.0,1.0,0.0,1.0,-1000.0,0.0,0.0,0.0
18:11:13,1500.0,AUTO,-0.0011877676006406546,0.0010406526853330433,0.02252527605742216,0.00023274330305866897,0.00024116082931868732,0.0016404762864112854,-35.3632621,149.1652375,10.0,-0.5,0.0,0.0,0.0,1.5,-1000.0,0.0,1.0,0.0
18:11:14,138313.0,AUTO,-0.0008238716691266745,0.0012473840324673802,0.022295531816780567,0.0002824376570060849,0.0002717963798204437,0.001485080982092768,-35.3632621,149.1652375,12.0,0.0,0.0,0.0,0.0,1.5,-1000.0,0.25,0.25,0.0
18:11:15,138313.0,AUTO,-0.0005403636023402214,0.0015298938378691673,0.022026533260941505,0.0002921974810305983,0.0002749493287410587,0.0014519348042085767,-35.3632621,149.1652375,15.0,0.0,0.0,0.0,0.0,1.0,-1000.0,0.0,0.0,0.0
18:11:17,138313.0,AUTO,0.012174434086773545,0.0001035535242408514,0.021500608883798122,0.019079042598605156,-0.00251240492798388,0.0009865572210401297,-35.36326205,149.1652375,921.0,0.0,3.0,-123.5,0.0,0.0,-1062.5,19.5,-1.5,0.5
18:11:18,300000.0,AUTO,0.04904754925519228,-0.006221531191840768,0.014675012091174722,0.02876087580807507,-0.0016207511071115732,-0.010030413512140512,-35.363261824999995,149.1652386,2373.25,4.25,26.5,-148.5,0.75,-4.0,-1000.5,29.25,-0.75,-11.0
18:11:19,300000.0,AUTO,0.0013797581195831299,0.028483344707638025,-0.06899379938840866,-0.09176807664334774,0.04531469102948904,-0.0845131203532219,-35.36326125,149.16524305000002,3900.5,0.5,44.5,-148.0,4.5,-10.0,-996.5,-90.5,46.5,-84.5
18:11:21,300000.0,AUTO,-0.03414742695167661,-0.02230064570903778,-0.06814795732498169,0.05678332783281803,0.014819681644439697,0.008041201392188668,-35.363261800000004,149.16524275,6969.5,7.0,-51.5,-150.5,-7.0,9.0,-1002.0,57.0,15.0,7.0
18:11:22,104056.0,AUTO,0.025218921480700374,-0.0003788108006119728,-0.06754440441727638,0.051630398258566856,0.032332641538232565,-0.007136668908060528,-35.363260875,149.165236375,8522.25,12.25,-50.5,-153.0,-9.5,8.5,-1002.75,51.75,32.5,-7.5
18:11:23,104056.0,AUTO,0.05635115131735802,0.03746182098984718,-0.09742691367864609,-0.0018597831949591637,0.013742699287831783,-0.030012392438948154,-35.3632604,149.1652332,10086.5,-7.0,-2.0,-152.5,-1.5,3.5,-997.0,-1.0,14.5,-30.0
18:11:25,104056.0,AUTO,-0.02565265353769064,-0.019096344709396362,-0.10097001492977142,-0.0008019851520657539,-0.004296761006116867,-0.017318858299404383,-35.36326345,149.16523784999998,13167.5,-8.0,13.0,-152.5,3.5,-1.5,-1002.5,-0.5,-3.5,-17.0
18:11:26,200.0,AUTO,-0.009075855632545426,-0.010742077196482569,-0.12978963367640972,0.02544661844149232,0.017550751566886902,-0.033350050915032625,-35.363263375,149.16523790000002,14730.5,8.5,-10.5,-153.0,-2.75,0.25,-1000.0,25.5,17.5,-33.25
18:11:27,200.0,AUTO,0.0094006999861449,0.004424239814397879,-0.15851645171642303,0.011833949480205774,0.01136566000059247,-0.019862372893840075,-35.363262399999996,149.16523635,16290.5,9.0,-10.0,-153.0,-4.0,0.5,-1000.0,12.0,11.5,-19.5
18:11:29,200.0,AUTO,-0.020064939744770527,0.014498760923743248,-0.17027410864830017,-0.030487234704196453,0.04147278727032244,0.09908168902620673,-35.363261449999996,149.16523525000002,19399.0,-4.0,-3.5,-150.0,0.0,0.0,-989.0,-29.5,42.5,99.0
18:11:30,191338.0,AUTO,-0.012610244644747581,0.01843368634581566,0.028942261822521687,0.07870259089395404,-0.07247592881321907,0.21657260740175843,-35.363262524999996,149.16523335,20844.0,-27.0,-28.25,-127.25,1.25,7.5,-962.75,79.25,-71.25,216.0
18:11:31,191338.0,AUTO,0.04923435486853123,-0.03388525266200304,0.0675680972635746,0.013035108335316181,0.0004039481282234192,-0.027460182551294565,-35.3632642,149.16523139999998,21924.5,-8.5,3.5,-88.0,1.5,1.5,-966.0,13.5,1.5,-27.5
18:11:33,191338.0,AUTO,-0.0051368389395065606,0.011363660916686058,0.05185041017830372,-0.015941134770400822,0.010256692301481962,-0.0017739215400069952,-35.363262250000005,149.16523725,23144.5,13.5,30.5,-36.0,0.0,-8.0,-976.0,-14.5,10.5,-1.5
18:11:34,53305.0,AUTO,-0.018793865805491805,0.016494703711941838,0.048285034485161304,0.012785642640665174,0.007825226086424664,-0.004173392080701888,-35.363261275,149.16523957500002,23375.25,3.75,12.25,-7.5,0.25,-2.5,-960.25,13.5,8.75,-4.0
18:11:35,53305.0,AUTO,0.0018133651465177536,-0.010510090738534927,0.044400740414857864,0.16633939743041992,-0.06432334892451763,-0.003869637264870107,-35.3632611,149.16523975,23276.5,1.0,-3.5,14.0,-1.0,3.0,-1009.0,167.0,-63.0,-4.0
18:11:37,53305.0,AUTO,0.03169957594946027,-0.13217903673648834,0.7192596793174744,0.321911359205842,-0.02643081801943481,0.6340955682098866,-35.36325395,149.16524629999998,23130.5,96.5,94.0,-1.5,-26.5,4.0,-1010.0,322.5,-25.0,634.0
18:11:38,255718.0,AUTO,0.026964970398694277,-0.18351930007338524,0.85418801009655,0.04591098427772522,-0.03843097318895161,-0.0821911864914,-35.363242150000005,149.16525984999998,23126.75,173.75,178.25,-0.5,-50.75,-26.0,-1005.25,47.0,-37.0,-81.75
18:11:39,255718.0,AUTO,0.04341156966984272,-0.19340386986732483,0.8276278078556061,0.17291930317878723,0.0013434200081974268,0.00029610597994178534,-35.36322255,149.1652838,23121.5,259.0,265.0,-1.5,-76.5,-40.5,-1007.5,173.0,2.0,0.5
18:11:41,255718.0,AUTO,0.05900002457201481,-0.20130105316638947,0.8230234682559967,0.029230115935206413,0.0217679007910192,-0.006329647032544017,-35.36316235,149.16535829999998,23147.0,402.5,412.0,-5.0,-109.0,-71.5,-1002.0,29.5,22.5,-6.0
18:11:42,296735.0,AUTO,0.06821304187178612,-0.1781461276113987,0.8210640549659729,0.011053562833694741,0.02128042560070753,-0.005040247575379908,-35.36312395,149.16540619999998,23214.5,447.75,458.75,-9.5,-127.75,-69.75,-993.5,12.25,21.75,-4.75
18:11:43,296735.0,AUTO,0.07046320289373398,-0.16012076288461685,0.8202571868896484,-0.013753804843872786,0.04865729250013828,0.005419564782641828,-35.363082250000005,149.1654583,23300.5,471.0,483.0,-9.0,-131.0,-76.0,-987.0,-12.5,49.0,5.5
18:11:45,296735.0,AUTO,0.0760105811059475,-0.142839215695858,0.8152808547019958,-0.05951882526278496,-0.0057552679209038615,0.003017883180291392,-35.36299605,149.16556595,23417.0,476.0,488.5,-1.0,-131.5,-66.5,-976.0,-58.0,-4.5,2.5
18:11:46,69986.0,AUTO,0.07288585603237152,-0.14380361512303352,0.8139606416225433,0.013213847414590418,0.005012783920392394,-0.0035043927346123382,-35.36295307499999,149.165619875,23406.75,481.25,491.5,-2.0,-138.5,-71.25,-990.25,14.25,6.25,-3.5
18:11:47,69986.0,AUTO,0.07955194264650345,-0.13650503754615784,0.8115761578083038,0.0003583827055990696,0.016358010470867157,-0.003522919985698536,-35.362909200000004,149.1656743,23430.5,483.0,492.0,-5.0,-143.0,-66.5,-992.5,1.5,17.5,-4.0
18:11:49,69986.0,AUTO,0.07880338281393051,-0.13265160471200943,0.8083642423152924,-0.011119849979877472,-0.006414287723600864,0.006018027197569609,-35.36282205,149.16578255000002,23496.5,478.5,487.5,-4.5,-133.0,-77.5,-985.0,-10.0,-5.5,5.5
18:11:50,164039.0,AUTO,0.07982521504163742,-0.10057640075683594,0.8080389350652695,0.01045283954590559,0.05386126134544611,-0.0006122502963989973,-35.362779125,149.16583609999998,23547.5,469.25,476.5,-9.5,-137.25,-79.25,-997.25,11.75,54.25,-0.75
18:11:51,164039.0,AUTO,0.07658177614212036,-0.04327734839171171,0.8082266747951508,-0.1045929305255413,0.03809716086834669,-0.0019130667787976563,-35.3627384,149.1658869,23643.0,430.5,437.5,-10.0,-123.0,-80.0,-989.0,-103.0,38.5,-1.5
18:11:53,164039.0,AUTO,0.058356571942567825,0.03688151389360428,0.8079180717468262,0.0044606029987335205,0.01725578447803855,-0.005942847579717636,-35.3626725,149.16596955,23692.0,287.5,296.0,2.0,-83.5,-58.5,-1000.5,5.5,18.5,-6.0
18:11:54,72458.0,AUTO,0.03568701632320881,0.051435526460409164,0.806669220328331,0.13451162539422512,0.016040373680880293,-0.00887921458343044,-35.362650224999996,149.16599839999998,23660.75,207.25,214.75,2.0,-59.75,-28.75,-1012.25,136.25,16.75,-8.75
18:11:55,72458.0,AUTO,0.01978718675673008,0.07365148887038231,0.8062301278114319,0.20620731264352798,0.009781134547665715,0.003365690354257822,-35.36263555,149.1660182,23649.0,134.5,133.5,0.0,-37.0,-24.0,-1003.0,207.5,11.0,3.5
18:11:57,72458.0,AUTO,-0.01020424319722224,0.041384877637028694,0.8053845763206482,-0.0077839195728302,-0.0189259871840477,-0.0026223183376714587,-35.362623400000004,149.16603475,23649.0,30.5,12.5,0.0,-5.5,-7.5,-997.5,-7.0,-17.5,-2.0
18:11:58,261653.0,AUTO,-0.018295203568413854,0.01893153926357627,0.8059110343456268,0.09605497680604458,-0.025598413310945034,-0.004784412449225783,-35.362622675,149.166036125,23656.25,10.5,-13.25,0.0,0.0,4.5,-1003.25,96.75,-23.75,-4.25
18:11:59,261653.0,AUTO,-0.018327832454815507,-0.0022689555771648884,0.8051834404468536,-0.1301283836364746,-0.014679249841719866,-0.006399170611985028,-35.3626228,149.1660355,23664.0,10.5,-20.5,0.0,-1.0,-7.5,-1003.0,-130.0,-13.0,-6.0
18:12:01,261653.0,RTL,0.012459451798349619,0.0026774763537105173,0.8016926050186157,0.29118168354034424,0.0100002596154809,-0.00029897817876189947,-35.3626211,149.16603435000002,23715.0,8.5,-3.5,-12.5,-3.0,8.0,-1025.5,291.0,10.5,-0.5
18:12:02,259832.0,RTL,0.007687537698075175,0.0038850082783028483,0.8003076314926147,-0.04098932445049286,-0.002074208838166669,0.002102894039126113,-35.362620275,149.166034025,24001.25,-0.75,-2.5,-48.5,-1.25,-0.75,-1043.5,-40.5,-0.75,1.75
18:12:03,259832.0,RTL,0.008509581442922354,0.0012511218556028325,0.7993577718734741,-0.006547198630869389,-0.0010856962180696428,0.00391092908103019,-35.362619949999996,149.16603355,24725.5,-6.5,-1.0,-90.0,-0.5,0.0,-1041.5,-6.0,0.0,3.5
18:12:05,259832.0,RTL,0.047234248369932175,-0.009559120750054717,0.7981738150119781,0.04372190311551094,-0.011089598760008812,0.0036610191455110908,-35.36262025,149.1660334,27389.0,-21.5,21.0,-148.0,0.5,-2.5,-1001.5,44.0,-9.0,3.5
18:12:06,229535.0,RTL,0.005526114720851183,0.011106192599982023,0.7547600567340851,-0.13393629249185324,0.02159903012216091,-0.07146615162491798,-35.362622075,149.16603655,28903.0,-37.75,43.5,-145.0,4.5,-9.5,-999.25,-132.5,23.25,-70.5
18:12:07,229535.0,RTL,-0.06739090010523796,0.0013727968325838447,0.7096653282642365,0.005608877167105675,-0.011429621605202556,-0.02433824399486184,-35.3626235,149.1660385,30429.0,-4.0,-3.0,-148.5,1.0,-0.5,-1005.0,6.5,-9.5,-23.5
18:12:09,229535.0,RTL,0.038327586837112904,0.001436941180145368,0.6973013281822205,0.03478062909562141,-0.0217887950129807,0.025266270618885756,-35.36261975,149.16603105000002,33530.5,8.0,-28.0,-152.0,-2.0,9.5,-1000.0,35.5,-20.0,25.0
18:12:10,300000.0,RTL,0.0250909576570848,-0.026566937565803528,0.7262428998947144,-0.060407696291804314,-0.0045589819783344865,0.013869722839444876,-35.36261955,149.16602934999997,35098.75,-10.0,10.75,-149.5,0.75,-1.0,-998.5,-59.0,-3.25,14.75
18:12:11,300000.0,RTL,-0.010667348746210337,-0.0015398194082081318,0.6895450949668884,-0.00664526829496026,0.021065987646579742,-0.04585282690823078,-35.3626195,149.166031,36643.5,2.5,15.5,-151.0,-1.5,-3.0,-1002.5,-5.5,22.0,-44.5
18:12:13,300000.0,RTL,0.0052386135794222355,0.007723599206656218,0.6317126452922821,0.002151834429241717,-0.004271448706276715,-0.01464986801147461,-35.36261855,149.16603205,39768.0,-4.5,0.0,-152.0,0.5,0.0,-999.5,4.0,-2.5,-13.0
18:12:14,42225.0,RTL,0.0019204845011699945,0.002013201677982579,0.617856577038765,-0.005152413155883551,-0.005288110114634037,-0.014393356395885348,-35.36261905,149.1660321,41324.25,-10.25,0.0,-152.0,1.25,0.0,-999.75,-3.25,-3.25,-13.0
18:12:15,42225.0,RTL,-0.0014634440885856748,-0.0018037965637631714,0.5985657274723053,-0.0007356917485594749,-0.0017249006778001785,-0.02026770543307066,-35.36261975,149.1660321,42881.5,-8.5,1.0,-152.0,1.0,0.0,-1000.5,0.5,-0.5,-18.5
18:12:17,42225.0,RTL,-1.3855285942554474e-05,-0.0007960506627568975,0.5487155318260193,0.0027179819298908114,0.0013926646206527948,-0.02413317561149597,-35.36262035,149.16603225,46002.0,-3.0,1.0,-152.0,0.0,0.0,-1000.0,3.5,3.0,-23.0
18:12:18,90539.0,RTL,0.0003427374194870936,0.00010034790602730936,0.5246672481298447,-0.0005142197187524289,0.00047314006951637566,-0.021364365238696337,-35.362620424999996,149.1660324,47559.25,-3.0,1.0,-152.0,0.0,0.0,-999.75,0.75,1.75,-19.75
18:12:19,90539.0,RTL,0.0012378668616292998,0.0015046097178128548,0.5129681825637817,0.0026005415129475296,0.003234740986954421,0.003024105913937092,-35.36262055,149.16603255,49117.0,-4.0,1.5,-152.0,0.0,0.0,-999.0,3.5,4.5,4.0
18:12:21,90539.0,RTL,-0.0013424802309600636,-0.0007254953707160894,0.5592853724956512,-0.00021750049199908972,-0.0014062518603168428,0.028463437221944332,-35.3626212,149.16603295,52219.0,-5.5,1.5,-152.0,0.0,0.0,-1000.5,1.0,0.0,29.0
18:12:22,269171.0,RTL,-0.0022445808281190693,-0.0017829847347456962,0.5839010179042816,0.0014864264812786132,-7.801799802109599e-05,0.022849241737276316,-35.362621450000006,149.1660331,53771.75,-2.75,0.75,-152.0,0.0,0.0,-1000.25,2.5,1.25,23.25
18:12:23,269171.0,RTL,-0.0015359692624770105,-0.0016105304821394384,0.6038513481616974,-0.0004194899811409414,0.0005570914945565164,0.01945627201348543,-35.3626215,149.1660331,55325.0,-0.5,0.0,-152.0,0.0,0.0,-1000.0,0.5,1.5,20.5
18:12:25,269171.0,RTL,-0.0001481331864852109,-0.0006707784632453695,0.6362035274505615,0.0013366143102757633,0.0024175370344892144,0.015597239602357149,-35.3626213,149.1660331,58435.0,0.0,0.0,-152.0,0.0,0.0,-999.5,2.5,3.5,16.5
18:12:26,223351.0,RTL,2.741573734965641e-05,-0.00016961137123416847,0.6492334455251694,-0.0007185604190453887,3.776460653170943e-05,0.013270664494484663,-35.362621149999995,149.1660331,59987.75,-0.25,0.0,-152.0,0.0,0.0,-999.75,0.5,1.5,14.0
18:12:27,223351.0,RTL,-0.00015450714818143751,-6.776046575396322e-05,0.6604454219341278,0.0005272040143609047,0.0001790537207853049,0.012260121293365955,-35.36262105,149.1660331,61541.0,-1.0,0.0,-152.0,0.0,0.0,-1000.0,2.0,1.5,13.0
18:12:29,223351.0,RTL,-0.000495930653414689,-0.00036559086584020406,0.6787220537662506,-0.0007027296232990921,-0.001050245889928192,0.008588225115090609,-35.3626209,149.1660331,64649.5,-2.0,0.0,-152.0,0.0,0.0,-1000.0,1.0,1.0,9.5
18:12:30,90378.0,RTL,-0.0004666153254220262,-0.0005881582910660654,0.6860309988260269,0.0010399758466519415,8.732455899007618e-05,0.006500270566903055,-35.3626209,149.1660331,66198.5,-2.0,0.0,-152.0,0.0,0.0,-1000.25,2.25,1.25,7.0
18:12:31,90378.0,RTL,-0.00024266991022159345,-0.0006920437444932759,0.6922454535961151,0.001121319888625294,-0.00034350453643128276,0.007017072755843401,-35.3626209,149.1660331,67755.5,-2.0,0.0,-152.0,0.0,0.0,-999.5,2.5,1.5,8.0
18:12:33,90378.0,RTL,-0.0002211028040619567,-0.0006602015346288681,0.7044963836669922,0.0015325674903579056,0.00020156038226559758,0.0066809263080358505,-35.3626209,149.1660331,70864.5,-1.0,0.0,-152.0,0.0,0.0,-1000.5,3.0,1.5,7.5
18:12:34,219499.0,RTL,-0.0002275914539495716,-0.0006824931770097464,0.7099508047103882,0.0011789590353146195,-0.0003180848143529147,0.006467165541835129,-35.36262085,149.1660331,72421.5,-1.0,0.0,-152.0,0.0,0.0,-1000.0,2.5,1.0,7.5
18:12:35,219499.0,RTL,-0.0001940084111993201,-0.0007404307543765754,0.7149244248867035,3.3302465453743935e-05,-0.0010847511584870517,0.006169955246150494,-35.3626208,149.1660331,73971.5,-1.5,0.0,-152.0,0.0,0.0,-1000.0,1.5,0.5,7.5
18:12:37,219499.0,RTL,0.00028537469916045666,-0.0005883416306460276,0.7248060405254364,0.0010192382032983005,-0.0006051285308785737,0.004826156888157129,-35.3626208,149.1660331,77077.0,-2.0,0.0,-152.0,0.0,0.0,-1000.0,2.0,1.0,6.0
18:12:38,300000.0,RTL,0.00024766694423306035,-0.0008620055741630495,0.7288138121366501,-0.0005989011260680854,0.001073920662747696,0.005121017340570688,-35.3626208,149.1660331,78627.25,-2.0,0.0,-152.0,0.0,0.0,-999.5,0.75,2.75,5.75
18:12:39,300000.0,RTL,3.264015322201885e-05,-0.0006917057617101818,0.7325589656829834,-0.00011043483391404152,-0.0012027467018924654,0.004547519842162728,-35.3626208,149.1660331,80180.0,-2.0,0.0,-152.0,0.0,0.0,-1000.5,2.0,1.0,5.5
18:12:41,300000.0,RTL,-0.00016817035066196695,-0.0005263703496893868,0.7395519614219666,-0.00021043996093794703,0.0004918514168821275,0.0027119761798530817,-35.3626208,149.1660331,83285.5,-2.0,0.0,-152.0,0.0,0.0,-999.5,1.5,2.0,4.0
18:12:42,200.0,RTL,-0.0002380094629188534,-0.0005418531291070394,0.7426072210073471,5.877140210941434e-05,0.00021876790560781956,0.0035824133083224297,-35.3626208,149.1660331,84840.75,-2.0,0.0,-152.0,0.0,0.0,-1000.0,1.5,1.75,4.75
18:12:43,200.0,RTL,-0.00012914948456455022,-0.0007069251441862434,0.7457621991634369,-0.00037467514630407095,-0.0011125969176646322,0.005603434052318335,-35.3626208,149.1660331,86392.5,-2.0,0.0,-152.0,0.0,0.0,-1000.0,1.0,0.5,6.5
18:12:45,200.0,RTL,-0.0003007112754858099,-0.0007966887205839157,0.7507335841655731,-0.0011511245975270867,-0.0009035742259584367,0.002787903416901827,-35.3626208,149.1660331,89499.0,-2.0,0.0,-152.0,0.0,0.0,-999.5,0.5,1.0,4.0
18:12:46,200.0,RTL,-0.00035114532147417776,-0.0010687898029573262,0.753235325217247,0.001473185431677848,-5.836327909491956e-05,0.004264139803126454,-35.3626208,149.1660331,91057.75,-1.5,0.0,-152.0,0.0,0.0,-1000.25,2.75,1.5,5.75
18:12:47,200.0,RTL,-0.0001639859656279441,-0.0007916156610008329,0.7552505731582642,0.00030240154592320323,-0.00018420559354126453,0.0016381042078137398,-35.3626208,149.1660331,92608.5,-1.0,0.0,-152.0,0.0,0.0,-1000.0,1.5,1.5,3.0
18:12:49,200.0,RTL,-7.529897993663326e-05,-0.001061739632859826,0.7587531208992004,0.0030530260410159826,-2.114684320986271e-05,0.004826466552913189,-35.3626208,149.1660331,95137.0,-2.0,0.0,-152.0,0.0,0.0,-1000.0,4.0,2.0,6.0
18:12:50,200.0,RTL,0.00015141793301154394,-0.0004591543329297565,0.7606747448444366,0.0012032262166030705,0.0005212880787439644,0.002743288117926568,-35.3626208,149.1660331,97032.0,-1.75,0.0,-152.0,0.0,0.0,-1000.25,2.5,2.0,4.25
18:12:51,200.0,RTL,8.998513476399239e-05,-0.0004882433277089149,0.7621207237243652,0.0010656360536813736,0.0003340517287142575,0.0029076605569571257,-35.3626208,149.1660331,98196.5,-2.0,0.0,-152.0,0.0,0.0,-1000.0,2.5,2.0,4.0
18:12:53,200.0,RTL,-0.0002592735763755627,-0.0004918518388876691,0.7657595872879028,0.0012650530552491546,-0.00044433592120185494,0.0026192324003204703,-35.3626208,149.1660331,101310.0,-2.0,0.0,-152.0,0.0,0.0,-1000.0,3.0,1.0,4.0
18:12:54,73444.0,RTL,-5.8456182614463614e-05,-0.0007600761600770056,0.7675910741090775,-0.0001024513621814549,0.00032154639484360814,0.0024690361169632524,-35.3626208,149.1660331,103247.5,-2.0,0.0,-152.0,0.0,0.0,-999.75,1.5,2.25,3.5
18:12:55,73444.0,RTL,-0.00021690725407097489,-0.0007167460571508855,0.7684659957885742,-0.0007733234670013189,0.0012750872410833836,0.002132198540493846,-35.3626208,149.1660331,104413.0,-2.0,0.0,-152.0,0.0,0.0,-999.5,0.5,3.0,3.5
18:12:57,73444.0,RTL,-0.00023854515893617645,-0.0007552630559075624,0.7707710564136505,0.001247626030817628,0.0017150831408798695,0.0030872526112943888,-35.3626208,149.1660331,107519.5,-2.0,0.0,-152.0,0.0,0.0,-999.0,3.0,4.0,4.5
18:12:58,138995.0,RTL,-0.00022784603061154485,-0.0007392794941551983,0.772096261382103,-0.0004307183262426406,0.00042620350723154843,0.0009971130639314651,-35.3626208,149.1660331,109464.25,-2.0,0.0,-152.0,0.0,0.0,-999.75,1.5,2.25,2.25
18:12:59,138995.0,RTL,-0.000562756322324276,-0.0011296026059426367,0.7728812396526337,0.0013333630049601197,0.0011592806549742818,0.0008622139575891197,-35.3626208,149.1660331,110633.5,-2.0,0.0,-152.0,0.0,0.0,-1000.5,2.5,3.0,2.5
18:13:01,138995.0,RTL,-9.776235310710035e-05,-0.000804172654170543,0.7744099497795105,0.0009071241365745664,0.00031544931698590517,0.0017028814763762057,-35.3626208,149.1660331,113742.5,-1.0,0.0,-152.0,0.0,0.0,-1000.0,2.5,2.0,3.0
18:13:02,181929.0,RTL,-0.0003124746526736999,-0.0008317977044498548,0.7756118774414062,-0.00015004642773419619,0.00023904300178401172,0.000603638036409393,-35.3626208,149.1660331,115682.75,-1.75,0.0,-152.0,0.0,0.0,-999.75,1.75,2.25,2.0
18:13:03,181929.0,RTL,-0.0002644226042320952,-0.0006632670119870454,0.7760008275508881,0.0021311602322384715,0.001263150479644537,0.0010383129701949656,-35.3626208,149.1660331,116847.5,-1.0,0.0,-152.0,0.0,0.0,-1000.0,4.0,3.0,2.5
18:13:05,181929.0,RTL,0.0002115985844284296,-0.00043656848720274866,0.7775007784366608,0.0007030976703390479,0.0012318174703978002,0.0010118796490132809,-35.3626208,149.1660331,119954.5,-2.0,0.0,-152.0,0.0,0.0,-1000.0,2.0,3.0,2.0
18:13:06,56551.0,RTL,-9.710104677651543e-05,-0.0006806354649597779,0.7782072573900223,0.00018165202345699072,0.00020338702597655356,0.001719962659990415,-35.3626208,149.1660331,121896.5,-2.0,0.0,-152.0,0.0,0.0,-999.75,2.0,2.25,3.0
18:13:07,56551.0,RTL,-0.00018897065456258133,-0.0006451276422012597,0.7785446643829346,-0.0009767067385837436,0.0012804806465283036,0.0013852796982973814,-35.3626208,149.1660331,123064.5,-2.0,0.0,-152.0,0.0,0.0,-999.5,1.0,3.5,3.0
18:13:09,56551.0,RTL,-0.00040431873640045524,-0.0005095421511214226,0.7801874577999115,-0.0005606213817372918,0.0008869331795722246,0.0011743937502615154,-35.3626208,149.1660331,126168.0,-2.0,0.0,-152.0,0.0,0.0,-1000.0,2.0,3.0,2.5
18:13:10,295942.0,RTL,-0.0001343663457191724,-0.000856404221849516,0.7808315604925156,0.00023862518719397485,0.0004450026317499578,0.0008893273770809174,-35.3626208,149.1660331,128109.0,-2.0,0.0,-152.0,0.0,0.0,-999.75,2.25,2.5,2.0
18:13:11,295942.0,RTL,-0.0005974479427095503,-0.0009212064614985138,0.7810201048851013,0.0002435104688629508,0.001446879468858242,0.0008141540456563234,-35.3626208,149.1660331,129273.5,-2.0,0.0,-152.0,0.0,0.0,-999.5,2.5,3.0,2.0
18:13:13,295942.0,RTL,-0.00034861241874750704,-0.0008289655379485339,0.7818382680416107,0.0017190207727253437,0.0002461508847773075,0.0006032432429492474,-35.3626208,149.1660331,132383.5,-1.0,0.0,-152.0,0.0,0.0,-1000.0,3.5,2.0,2.0
18:13:14,298692.0,RTL,-0.00032824929076014087,-0.0008012228645384312,0.7819457948207855,0.0006061593885533512,0.0005187795613892376,0.002477974514476955,-35.3626208,149.1660331,134326.25,-1.25,0.0,-152.0,0.0,0.0,-999.75,2.5,2.5,4.0
18:13:15,298692.0,RTL,-0.0003196919278707355,-0.0009107333899009973,0.7821328341960907,0.0012270633596926928,-8.291297126561403e-05,0.0007456087041646242,-35.3626208,149.1660331,135491.0,-1.0,0.0,-152.0,0.0,0.0,-999.5,3.0,2.0,2.0
18:13:17,298692.0,RTL,0.00022674370848108083,-0.0002736113965511322,0.7828557193279266,0.0014201015001162887,0.001707669347524643,0.00045954453526064754,-35.3626208,149.1660331,138605.5,-2.0,0.0,-152.0,0.0,0.0,-1000.0,3.5,3.5,2.0
18:13:18,241946.0,RTL,-0.00017834395748650422,-0.0005856887873960659,0.7831721752882004,-8.854331099428236e-05,-0.00010689542978070676,0.0008851215243339539,-35.3626208,149.1660331,140539.0,-2.0,0.0,-152.0,0.0,0.0,-1000.25,2.0,1.75,2.25
18:13:19,241946.0,RTL,-0.00010495907554286532,-0.0005982492002658546,0.7833344042301178,-0.001129300333559513,0.0008952581556513906,0.001222828053869307,-35.3626208,149.1660331,141712.5,-2.0,0.0,-152.0,0.0,0.0,-999.5,1.0,3.0,2.5
18:13:21,241946.0,RTL,-0.0002061293344013393,-0.0005770997959189117,0.7837333679199219,0.0016294976230710745,0.0022319589043036103,0.0006977879675105214,-35.3626208,149.1660331,144819.0,-2.0,0.0,-152.0,0.0,0.0,-999.5,4.0,4.0,2.5
18:13:22,142389.0,RTL,-0.0002956132884719409,-0.0006753422494512051,0.7838373631238937,0.00023886433336883783,0.0004344468470662832,0.0008147655171342194,-35.3626208,149.1660331,146760.5,-2.0,0.0,-152.0,0.0,0.0,-1000.0,2.5,2.5,2.25
18:13:23,142389.0,RTL,-0.00011818144412245601,-0.0006518659938592464,0.7841956317424774,0.002060464583337307,0.0010354570113122463,0.0007678004913032055,-35.3626208,149.1660331,147925.0,-2.0,0.0,-152.0,0.0,0.0,-1000.0,4.0,3.0,2.5
18:13:25,142389.0,RTL,-0.0007382223266176879,-0.0004876345192315057,0.7847304344177246,-0.0006258587818592787,0.0009619004558771849,0.0026722621405497193,-35.3626208,149.1660331,151035.0,-1.0,0.0,-152.0,0.0,0.0,-1000.0,2.0,3.0,4.5
18:13:26,283826.0,RTL,-0.00031288860918721184,-0.0009592297137714922,0.7852002531290054,0.001036445377394557,0.000572397664655,0.001851442561019212,-35.3626208,149.1660331,152971.75,-1.0,0.0,-152.0,0.0,0.0,-1000.0,3.0,2.5,3.5
18:13:27,283826.0,RTL,-0.0001528680804767646,-0.0008252006664406508,0.7853751480579376,0.0008001458481885493,0.0008671435061842203,0.0018420792184770107,-35.3626208,149.1660331,154140.5,-1.0,0.0,-152.0,0.0,0.0,-999.5,3.0,3.5,3.5
18:13:29,283826.0,RTL,0.00010534145258134231,-0.0006480151205323637,0.7854014933109283,0.00038178765680640936,0.0007951161824166775,0.0015917345881462097,-35.3626208,149.1660331,157244.5,-2.0,0.0,-152.0,0.0,0.0,-999.5,3.0,2.5,3.0
18:13:30,300000.0,RTL,-8.397411829719204e-05,-0.0006749765743734315,0.7855695337057114,0.0006713022012263536,-0.00032429894781671464,0.00034226238494738936,-35.3626208,149.1660331,159186.0,-2.0,0.0,-152.0,0.0,0.0,-1000.0,2.75,1.75,2.25
18:13:31,300000.0,RTL,-0.00023321027401834726,-0.0008258144371211529,0.7854835093021393,0.0018210879061371088,-0.00011166930198669434,0.0027439399855211377,-35.3626208,149.1660331,160351.0,-2.0,0.0,-152.0,0.0,0.0,-1000.0,4.0,2.0,4.5
18:13:33,300000.0,RTL,-0.000170024526596535,-0.0007839390018489212,0.7858761548995972,0.0011637357529252768,0.000849318690598011,0.0014541320269927382,-35.3626208,149.1660331,163460.5,-2.0,0.0,-152.0,0.0,0.0,-999.5,3.5,3.0,3.5
18:13:34,27014.0,RTL,-0.00023671990129514597,-0.0006884924368932843,0.7858290374279022,0.00019087173859588802,9.716581553220749e-05,0.0007739540305919945,-35.3626208,149.1660331,165402.0,-2.0,0.0,-152.0,0.0,0.0,-999.75,2.5,2.25,2.5
18:13:35,27014.0,RTL,-0.000210164362215437,-0.0005027152074035257,0.7857444882392883,0.0004499501665122807,0.0008325516246259212,0.0006042023887857795,-35.3626208,149.1660331,166567.0,-2.0,0.0,-152.0,0.0,0.0,-1000.0,2.5,3.0,2.0
18:13:37,27014.0,RTL,-0.0003005060934810899,-0.0009259320504497737,0.7857908308506012,-0.0005776063771918416,-0.00029066414572298527,0.001328953425399959,-35.3626208,149.1660331,169681.5,-1.0,0.0,-152.0,0.0,0.0,-1000.0,1.5,2.0,3.5
18:13:38,200.0,RTL,-0.0003900426236214116,-0.0007703533483436331,0.7857835590839386,0.00011171877849847078,0.0003227339475415647,-0.00023933342890813947,-35.3626208,149.1660331,171615.0,-1.0,0.0,-152.0,0.0,0.0,-1000.0,2.5,2.75,1.5
18:13:39,200.0,RTL,-0.0002968590415548533,-0.0009081757452804595,0.7857703268527985,0.00022254406940191984,-0.0005398121429607272,0.00023120176047086716,-35.3626208,149.1660331,172784.0,-1.0,0.0,-152.0,0.0,0.0,-1000.0,2.5,2.0,2.0
18:13:41,200.0,RTL,-0.00026698224610299803,-0.0006880119617562741,0.786397397518158,-0.0007231732597574592,0.00043022038880735636,0.0010400715400464833,-35.3626208,149.1660331,175894.0,-2.0,0.0,-152.0,0.0,0.0,-1000.0,1.5,2.5,3.0
18:13:42,31225.0,RTL,-0.00025056133381440304,-0.0009621414646971971,0.7866926491260529,0.0004334350232966244,-0.0005035465292166919,0.0003620036004576832,-35.3626208,149.1660331,177835.25,-1.5,0.0,-152.0,0.0,0.0,-1000.0,3.0,1.75,2.0
18:13:43,31225.0,RTL,-3.1441188184544444e-05,-0.0006741094111930579,0.7868049442768097,0.0017666786443442106,0.002123307785950601,-0.00023436691844835877,-35.3626208,149.1660331,179000.0,-1.0,0.0,-152.0,0.0,0.0,-1000.0,4.0,4.5,1.5
18:13:45,31225.0,RTL,-0.00019728838378796354,-0.0007021187921054661,0.7867575883865356,0.00016228144522756338,-0.00017026730347424746,0.0001495666801929474,-35.3626208,149.1660331,182111.0,-2.0,0.0,-152.0,0.0,0.0,-999.5,2.5,2.0,2.5
18:13:46,300000.0,RTL,-0.0001467569436499616,-0.0007067524711601436,0.7867874950170517,0.0013944929814897478,0.0006944702472537756,0.0008593195234425366,-35.3626208,149.1660331,184049.0,-2.0,0.0,-152.0,0.0,0.0,-1000.0,3.75,3.0,2.75
18:13:47,300000.0,RTL,-0.00034866285568568856,-0.0006670188740827143,0.7865916788578033,-0.0020305500365793705,-0.0009659153874963522,-0.0005437400541268289,-35.3626208,149.1660331,185214.0,-2.0,0.0,-152.0,0.0,0.0,-1000.0,0.5,1.5,1.0
18:13:49,300000.0,RTL,-0.0005933069041930139,-0.0010285089374519885,0.7864396572113037,-0.001208373112604022,-0.0006120081525295973,-0.0006182505749166012,-35.3626208,149.1660331,188320.5,-2.0,0.0,-152.0,0.0,0.0,-1000.0,1.0,1.5,1.5
18:13:50,200.0,RTL,-0.0003072523031732999,-0.0008821371156955138,0.7866186946630478,0.0001711485965643078,0.00038524065166711807,-8.136031101457775e-05,-35.3626208,149.1660331,190265.75,-1.0,0.0,-152.0,0.0,0.0,-1000.0,2.5,2.5,1.75
18:13:51,200.0,RTL,-0.00022105946845840663,-0.000756022724090144,0.7866239249706268,-0.0008044518763199449,6.0425023548305035e-05,0.0006482119206339121,-35.3626208,149.1660331,191432.0,-1.0,0.0,-152.0,0.0,0.0,-1000.0,1.5,2.5,2.5
18:13:53,200.0,RTL,-0.00023018947831587866,-0.0007890234119258821,0.7864362299442291,0.0002628851216286421,7.184105925261974e-05,-0.0011389791616238654,-35.3626208,149.1660331,194538.0,-1.5,0.0,-152.0,0.0,0.0,-1000.0,3.0,3.0,1.0
18:13:54,200.0,RTL,0.00013399588533502538,-0.00051191019883845,0.7866401672363281,0.0006972572591621429,0.0010903030633926392,0.001744612818583846,-35.3626208,149.1660331,196486.0,-2.0,0.0,-152.0,0.0,0.0,-999.75,3.0,3.75,4.0
18:13:55,200.0,RTL,3.8222066905291285e-05,-0.0005180582083994523,0.7866811156272888,0.002578620216809213,0.0003879525465890765,0.0007865602383390069,-35.3626208,149.1660331,197653.0,-2.0,0.0,-152.0,0.0,0.0,-1000.5,5.0,3.0,3.0
18:13:57,200.0,RTL,-0.00021918215497862548,-0.0007143271795939654,0.7865311205387115,-0.00027812086045742035,-0.00110977963777259,0.0014753744471818209,-35.3626208,149.1660331,200760.0,-2.0,0.0,-152.0,0.0,0.0,-1000.0,2.5,1.0,3.5
18:13:58,80895.0,RTL,-0.00025296623789472505,-0.0007603064295835793,0.7873419970273972,0.0003637914778664708,-9.80544718913734e-05,0.0008731007692404091,-35.3626208,149.1660331,202693.0,-2.0,0.0,-152.0,0.0,0.0,-999.75,2.75,2.5,3.0
18:13:59,80895.0,RTL,-0.0002581076405476779,-0.0009645505633670837,0.78737473487854,0.0014679121086373925,-0.0006435264367610216,0.0005712962592951953,-35.3626208,149.1660331,203858.0,-2.0,0.0,-152.0,0.0,0.0,-1000.5,4.0,2.0,2.5
18:14:01,80895.0,RTL,-0.0004833444254472852,-0.0009674552129581571,0.7871358394622803,0.00041082664392888546,3.827502951025963e-06,-0.0002596303238533437,-35.3626208,149.1660331,206972.5,-1.0,0.0,-152.0,0.0,0.0,-1000.0,3.0,2.5,2.0
18:14:02,205161.0,RTL,-0.00026960988907376304,-0.0009383428114233539,0.7871159017086029,0.00028881686739623547,0.0001121830428019166,0.0007974758045747876,-35.3626208,149.1660331,208916.25,-1.0,0.0,-152.0,0.0,0.0,-1000.0,2.75,2.75,3.0
18:14:03,205161.0,RTL,-0.00019097269250778481,-0.0008080734696704894,0.7870148122310638,-0.0011871051974594593,-0.0005672192201018333,-0.0005325265228748322,-35.3626208,149.1660331,210083.0,-1.0,0.0,-152.0,0.0,0.0,-1000.0,1.5,2.0,1.5
18:14:05,205161.0,RTL,-0.0005554338858928531,-0.0008856697822920978,0.7866689562797546,-0.00160929374396801,-0.0002959428820759058,8.235330460593104e-05,-35.3626208,149.1660331,213187.5,-1.5,0.0,-152.0,0.0,0.0,-1000.0,1.5,2.5,2.5
18:14:06,2199.0,RTL,0.00022661923276245943,-0.00044141168473288417,0.7870461493730545,0.0004604438436217606,0.00023440818767994642,0.001220744103193283,-35.3626208,149.1660331,215126.75,-1.75,0.0,-152.0,0.0,0.0,-1000.0,3.0,3.0,3.5
18:14:07,2199.0,RTL,-6.8999121140223e-05,-0.0005161044682608917,0.7869989275932312,-0.0007444032235071063,-0.00032481865491718054,-0.0009649771964177489,-35.3626208,149.1660331,216291.0,-2.0,0.0,-152.0,0.0,0.0,-999.5,2.0,2.5,1.5
18:14:09,2199.0,RTL,-0.00028437719447538257,-0.0006952449912205338,0.7868496477603912,0.0006068027578294277,-0.00020191376097500324,0.00228167325258255,-35.3626208,149.1660331,219397.0,-2.0,0.0,-152.0,0.0,0.0,-1000.0,3.5,2.5,4.5
18:14:10,217525.0,RTL,-0.0002679002900549676,-0.0007574338524136692,0.7869191318750381,-9.290711022913456e-05,-0.0001240900601260364,1.9706727471202612e-05,-35.3626208,149.1660331,221340.25,-2.0,0.0,-152.0,0.0,0.0,-1000.0,2.75,2.5,2.5
18:14:11,217525.0,RTL,-0.00024526159540982917,-0.0006525069766212255,0.7868630588054657,-0.0004890259588137269,-0.000571690034121275,0.0013960341457277536,-35.3626208,149.1660331,222506.5,-2.0,0.0,-152.0,0.0,0.0,-1000.0,2.0,2.0,4.0
18:14:13,217525.0,RTL,-0.000560296859475784,-0.0008887704752851278,0.7866916954517365,4.571292083710432e-05,0.0007238314719870687,-0.0003290273016318679,-35.3626208,149.1660331,225611.5,-1.5,0.0,-152.0,0.0,0.0,-1000.0,3.0,3.0,2.0
18:14:14,300000.0,RTL,-0.00029768503009108827,-0.0009868507186183706,0.7874522060155869,0.0008671801770105958,0.0002521143760532141,0.0004457171307876706,-35.3626208,149.1660331,227556.0,-1.0,0.0,-152.0,0.0,0.0,-1000.0,3.5,2.75,2.75
18:14:15,300000.0,RTL,-0.00012824092846130952,-0.0008827400743030012,0.7873361706733704,-0.001542723155580461,0.00018498976714909077,-0.00014757062308490276,-35.3626208,149.1660331,228726.5,-1.0,0.0,-152.0,0.0,0.0,-1000.0,1.0,3.0,2.0
18:14:17,300000.0,RTL,-0.0003756557416636497,-0.000996649294393137,0.7872568666934967,-9.450595825910568e-07,-0.0005393543979153037,-0.0007796260761097074,-35.3626208,149.1660331,231828.5,-1.5,0.0,-152.0,0.0,0.0,-1000.0,3.0,2.0,1.5
18:14:18,18257.0,RTL,-1.7091668269131333e-05,-0.0007026343373581767,0.7871519774198532,0.0016684095025993884,0.0005543198785744607,-7.084780372679234e-05,-35.3626208,149.1660331,233766.0,-2.0,0.0,-152.0,0.0,0.0,-1000.25,4.5,3.25,2.25
18:14:19,18257.0,RTL,9.903945806399861e-05,-0.0006165944796521217,0.7870005369186401,-0.0005638482980430126,0.0002720558550208807,0.0008611842058598995,-35.3626208,149.1660331,234932.0,-2.0,0.0,-152.0,0.0,0.0,-999.5,2.0,3.5,3.5
18:14:21,18257.0,RTL,-0.00035893148742616177,-0.0008351959404535592,0.7870861291885376,-0.00020607991609722376,0.0006918470608070493,0.00047941377852112055,-35.3626208,149.1660331,238045.0,-2.0,0.0,-152.0,0.0,0.0,-999.5,2.5,3.5,3.0
18:14:22,266491.0,RTL,-0.0002345207722100895,-0.0006808308826293796,0.7870267033576965,-0.0003450334188528359,-0.0005333104636520147,0.00023856633924879134,-35.3626208,149.1660331,239988.25,-2.0,0.0,-152.0,0.0,0.0,-999.75,2.75,2.75,2.75
18:14:23,266491.0,RTL,-0.000264457703451626,-0.000603615480940789,0.7867784202098846,0.0004906817339360714,0.0001542272511869669,0.0008374347817152739,-35.3626208,149.1660331,241156.0,-2.0,0.0,-152.0,0.0,0.0,-1000.0,3.5,3.0,3.5
18:14:25,266491.0,RTL,-0.0005337916954886168,-0.0011066290317103267,0.7868353128433228,0.0004555420018732548,-5.8854115195572376e-05,0.00030208879616111517,-35.3626208,149.1660331,244259.0,-2.0,0.0,-152.0,0.0,0.0,-1000.0,3.5,3.0,3.0
18:14:26,300000.0,RTL,-0.00037883006734773517,-0.0008554239175282419,0.7867998778820038,0.0006254818290472031,0.00019892887212336063,0.0004582810215651989,-35.3626208,149.1660331,246200.75,-1.0,0.0,-152.0,0.0,0.0,-1000.0,3.25,3.25,3.0
18:14:27,300000.0,RTL,-0.00023673770192544907,-0.0009031407826114446,0.7868286967277527,0.00013929978013038635,3.907980863004923e-05,0.0011124532902613282,-35.3626208,149.1660331,247366.0,-1.0,0.0,-152.0,0.0,0.0,-1000.0,3.0,3.0,3.5
18:14:29,300000.0,RTL,-0.0002956716052722186,-0.0008400752849411219,0.7867989540100098,0.0012089943047612906,0.00012502481695264578,-0.0010735680116340518,-35.3626208,149.1660331,250477.0,-1.0,0.0,-152.0,0.0,0.0,-1000.0,4.5,3.0,1.5
18:14:30,156291.0,RTL,-0.00030698562477482483,-0.0007311354274861515,0.7874852865934372,0.000610549992416054,-0.0001012526627164334,0.0004331028903834522,-35.3626208,149.1660331,252415.0,-2.0,0.0,-152.0,0.0,0.0,-1000.25,3.5,2.75,3.0
18:14:31,156291.0,RTL,1.8617862224346027e-05,-0.0006409360212273896,0.7873804867267609,-0.00012526079080998898,0.0008475589565932751,0.0009345355210825801,-35.3626208,149.1660331,253583.5,-2.0,0.0,-152.0,0.0,0.0,-999.5,2.5,4.0,3.5
18:14:33,156291.0,RTL,-0.00018175833974964917,-0.0006068114598747343,0.7872271537780762,0.0007280622376129031,-0.00032898993231356144,0.00022556958720088005,-35.3626208,149.1660331,256686.5,-2.0,0.0,-152.0,0.0,0.0,-1000.0,4.0,2.5,3.0
18:14:34,300000.0,RTL,-0.0002957669639727101,-0.0006872180383652449,0.7871934473514557,0.0013340894365683198,0.0002669122186489403,0.00017067973385564983,-35.3626208,149.1660331,258633.5,-2.0,0.0,-152.0,0.0,0.0,-1000.0,4.5,3.25,3.0
18:14:35,300000.0,RTL,-0.0003082906187046319,-0.0007138719374779612,0.7872582972049713,-0.0011397252092137933,-0.0013118244241923094,-0.000664339167997241,-35.3626208,149.1660331,259804.0,-2.0,0.0,-152.0,0.0,0.0,-1000.0,2.0,2.0,2.0
18:14:37,300000.0,RTL,-0.0005406138661783189,-0.0010284758172929287,0.7870236337184906,-0.0008225810015574098,0.00011954084038734436,-1.643085852265358e-06,-35.3626208,149.1660331,262905.5,-2.0,0.0,-152.0,0.0,0.0,-999.5,2.5,3.0,3.0
18:14:38,121271.0,RTL,-0.0003826024476438761,-0.0007903454243205488,0.7869506031274796,3.496702993288636e-05,0.00037564802914857864,0.0009551583207212389,-35.3626208,149.1660331,264843.5,-1.0,0.0,-152.0,0.0,0.0,-999.5,3.0,3.5,4.0
18:14:39,121271.0,RTL,-0.0002646412904141471,-0.0009580142505001277,0.7868224382400513,-0.0016287054168060422,-2.2147083654999733e-05,-0.0008564876625314355,-35.3626208,149.1660331,266008.5,-1.0,0.0,-152.0,0.0,0.0,-1000.0,1.5,3.0,2.0
18:14:41,121271.0,RTL,-0.0002828621363732964,-0.0007569400186184794,0.7869835793972015,0.00010629522148519754,0.0012783228885382414,0.00042157911229878664,-35.3626208,149.1660331,269123.0,-1.0,0.0,-152.0,0.0,0.0,-999.5,3.0,4.5,3.5
18:14:42,215513.0,RTL,-0.0003044154291274026,-0.0008818006463116035,0.7869742065668106,0.0006127587403170764,0.00045094062807038426,0.001063539064489305,-35.3626208,149.1660331,271066.0,-2.0,0.0,-152.0,0.0,0.0,-1000.0,3.75,3.5,3.5
18:14:43,215513.0,RTL,6.549913723574718e-05,-0.0004513585154199973,0.7869821786880493,0.0003814034862443805,0.002085464890114963,0.000885461107827723,-35.3626208,149.1660331,272233.0,-2.0,0.0,-152.0,0.0,0.0,-999.5,3.5,5.5,3.5
18:14:45,215513.0,RTL,-0.00012723984764306806,-0.0008238119771704078,0.7869510054588318,-0.00013108039274811745,-0.00044381734915077686,-0.0007124536787159741,-35.3626208,149.1660331,275339.0,-2.0,0.0,-152.0,0.0,0.0,-1000.5,3.0,2.5,2.0
18:14:46,300000.0,RTL,-0.0004357185898697935,-0.0005594772446784191,0.7876083105802536,0.00037689448799937963,0.0006212209700606763,0.0011971997446380556,-35.3626208,149.1660331,277276.75,-2.0,0.0,-152.0,0.0,0.0,-999.75,3.5,4.0,4.25
18:14:47,300000.0,RTL,-0.00021858406398678198,-0.0009022674930747598,0.7873621881008148,0.0011133465450257063,-1.188961323350668e-05,0.0006301420507952571,-35.3626208,149.1660331,278442.0,-2.0,0.0,-152.0,0.0,0.0,-1000.0,4.5,3.5,3.5
18:14:49,300000.0,RTL,-0.0007891909044701606,-0.001034730114042759,0.7875432074069977,0.0004837473388761282,-7.95027008280158e-05,-0.00021309684962034225,-35.3626208,149.1660331,281548.5,-2.0,0.0,-152.0,0.0,0.0,-1000.5,4.0,3.5,3.0
18:14:50,77957.0,RTL,-0.0003912620304618031,-0.0008911569020710886,0.7874261438846588,0.0006552578997798264,0.00010195543291047215,0.0015783501439727843,-35.3626208,149.1660331,283493.75,-1.0,0.0,-152.0,0.0,0.0,-999.75,4.0,3.75,4.75
18:14:51,77957.0,RTL,-0.0003540126926964149,-0.0007336501439567655,0.7870738506317139,0.00023202644661068916,-0.00011150003410875797,0.0016390755772590637,-35.3626208,149.1660331,284660.5,-1.0,0.0,-152.0,0.0,0.0,-1000.0,3.0,3.5,4.5
18:14:53,77957.0,RTL,-0.00012344703463895712,-0.0011444496922194958,0.7872011661529541,-0.0012373311910778284,0.00024807523004710674,0.0011657754657790065,-35.3626208,149.1660331,287766.5,-1.0,0.0,-152.0,0.0,0.0,-999.5,2.0,4.0,4.0
18:14:54,200.0,RTL,7.091484803822823e-05,-0.0009665178513387218,0.7872690856456757,0.00042726268293336034,0.00018740544328466058,0.001247792155481875,-35.3626208,149.1660331,289713.25,-1.25,0.0,-152.0,0.0,0.0,-1000.0,4.0,3.75,4.5
18:14:55,200.0,RTL,-0.00012026475451420993,-0.000824796239612624,0.7871575653553009,-7.336598355323076e-05,1.515471376478672e-05,0.0027021595742553473,-35.3626208,149.1660331,290880.0,-2.0,0.0,-152.0,0.0,0.0,-999.5,3.0,3.5,5.5
18:14:57,200.0,RTL,-0.00019343085295986384,-0.0004342019819887355,0.7869988679885864,0.001378856599330902,0.0007545287953689694,0.0006650802679359913,-35.3626208,149.1660331,293987.0,-2.0,0.0,-152.0,0.0,0.0,-1000.0,5.0,4.0,4.0
18:14:58,200.0,RTL,-0.0001575909845996648,-0.0006243297975743189,0.7869735211133957,2.112856600433588e-05,0.00013623450649902225,0.0001217794488184154,-35.3626208,149.1660331,295920.75,-2.0,0.0,-152.0,0.0,0.0,-999.5,3.25,3.75,3.25
18:14:59,200.0,RTL,-0.00039759278297424316,-0.0008533000072930008,0.7867539525032043,0.0005833185277879238,-0.00035191839560866356,0.0005115519743412733,-35.3626208,149.1660331,297085.5,-2.0,0.0,-152.0,0.0,0.0,-1000.5,4.0,3.0,3.5
18:15:01,200.0,RTL,-0.00023227582278195769,-0.0006972318224143237,0.7868030965328217,0.0019669404719024897,0.0014960141852498055,0.0011289148824289441,-35.3626208,149.1660331,300199.0,-2.0,0.0,-152.0,0.0,0.0,-1000.0,5.5,4.5,4.0
18:15:02,174698.0,RTL,-0.0008426263666478917,-0.0009067061182577163,0.7873652279376984,0.0007932162843644619,0.0005165871698409319,0.001616310910321772,-35.3626208,149.1660331,302139.0,-1.75,0.0,-152.0,0.0,0.0,-999.75,4.25,4.25,5.0
18:15:03,174698.0,RTL,-0.000385270468541421,-0.001100378402043134,0.7874791920185089,0.001918287482112646,0.0006086307112127542,0.00047320127487182617,-35.3626208,149.1660331,303304.5,-1.0,0.0,-152.0,0.0,0.0,-1000.0,5.0,4.0,3.5
18:15:05,174698.0,RTL,-0.0002887107912101783,-0.0007198572566267103,0.7873468995094299,0.0007174978964030743,0.0011884677223861217,0.0016889472026377916,-35.3626208,149.1660331,306414.5,-1.0,0.0,-152.0,0.0,0.0,-999.5,4.5,5.0,5.0
18:15:06,300000.0,RTL,-0.0002997517367475666,-0.0008723618811927736,0.7870481312274933,0.0013392370892688632,0.00035766640212386847,0.0011016074568033218,-35.3626208,149.1660331,308352.75,-1.0,0.0,-152.0,0.0,0.0,-999.75,4.75,4.0,4.5
18:15:07,300000.0,RTL,-0.00026781673659570515,-0.0007426212832797319,0.7871769368648529,0.0010072097647935152,-0.00038820295594632626,0.0017920230748131871,-35.3626208,149.1660331,309520.0,-1.5,0.0,-152.0,0.0,0.0,-1000.5,4.5,3.0,5.0
18:15:09,300000.0,RTL,-0.00011015701602445915,-0.0008546985627617687,0.787146270275116,0.0009639749769121408,0.0005712045822292566,9.659270290285349e-05,-35.3626208,149.1660331,312624.5,-1.5,0.0,-152.0,0.0,0.0,-1000.0,4.5,4.0,3.0
18:15:10,97150.0,RTL,-7.89509276728495e-05,-0.00048707313544582576,0.7871508300304413,0.0011148620978929102,0.0010983425891026855,0.000229394412599504,-35.3626208,149.1660331,314566.25,-2.0,0.0,-152.0,0.0,0.0,-1000.25,4.75,4.75,3.25
18:15:11,97150.0,RTL,-1.0325980838388205e-05,-0.00037344946758821607,0.7868169248104095,8.578714914619923e-05,0.0002632283139973879,-0.0008391146548092365,-35.3626208,149.1660331,315731.5,-2.0,0.0,-152.0,0.0,0.0,-1000.0,3.5,3.5,2.5
18:15:13,97150.0,RTL,-0.00010121038212673739,-0.0007930069987196475,0.7868446409702301,-0.0018885270692408085,-0.0007497607730329037,-4.161905962973833e-05,-35.3626208,149.1660331,318842.5,-2.0,0.0,-152.0,0.0,0.0,-1000.0,2.0,3.0,3.5
18:15:14,262136.0,RTL,-0.0002406527601124253,-0.0007337709830608219,0.7869765311479568,0.0003639284987002611,0.0001274374662898481,0.001600063347723335,-35.3626208,149.1660331,320783.75,-2.0,0.0,-152.0,0.0,0.0,-999.75,4.0,3.5,5.0
18:15:15,262136.0,RTL,-0.0005663673509843647,-0.001026972895488143,0.7870378494262695,0.0009450929937884212,-0.00028657889924943447,0.0003250198205932975,-35.3626208,149.1660331,321948.5,-2.0,0.0,-152.0,0.0,0.0,-1000.0,4.5,3.5,4.0
18:15:17,262136.0,RTL,-0.0006212122971192002,-0.0008243818883784115,0.7867175340652466,-0.0003245825646445155,-0.00011087488383054733,0.002018548082560301,-35.3626208,149.1660331,325063.0,-1.0,0.0,-152.0,0.0,0.0,-999.5,3.0,3.5,5.5
18:15:18,109397.0,RTL,-0.000750881023122929,-0.0007955030305311084,0.7874256819486618,0.0005761506618000567,0.0005851975292898715,0.001711991266347468,-35.3626208,149.1660331,326996.25,-1.0,0.0,-152.0,0.0,0.0,-999.75,4.0,4.25,5.0
18:15:19,109397.0,RTL,-0.0007380252936854959,-0.000980773416813463,0.7876023054122925,0.00012767058797180653,-0.00013636983931064606,0.00024613714776933193,-35.3626208,149.1660331,328168.5,-1.0,0.0,-152.0,0.0,0.0,-999.5,3.5,3.5,3.5
18:15:21,109397.0,RTL,-0.0013802778557874262,-0.0016820590826682746,0.7872626781463623,-0.0016863755881786346,0.0005542123690247536,0.0009626639075577259,-35.3626209,149.1660331,331274.5,-0.5,0.0,-152.0,0.0,0.0,-999.0,2.0,4.5,4.0
18:15:22,167571.0,RTL,-0.0013993081520311534,-0.00192762550432235,0.787245899438858,0.0009946220088750124,0.000320776947773993,0.0002571350196376443,-35.36262095,149.1660331,333215.5,0.0,0.0,-152.0,0.0,0.0,-1000.0,4.75,3.75,3.5
18:15:23,167571.0,RTL,-0.0011067489394918084,-0.001729760318994522,0.78720623254776,0.00025540729984641075,0.000285653630271554,-8.323101792484522e-05,-35.362621,149.1660331,334380.5,0.0,0.0,-152.0,0.0,0.0,-1000.0,4.0,4.0,3.5
18:15:25,167571.0,RTL,-0.001041799201630056,-0.0021321241511031985,0.7871005535125732,-0.0016771471127867699,-0.00013456062879413366,-0.0009205123642459512,-35.362621,149.1660331,337490.5,0.0,0.0,-152.0,0.0,0.0,-1000.0,2.5,3.5,2.5
18:15:26,222713.0,RTL,-0.0011546773312147707,-0.0018994167621713132,0.7872720807790756,-0.0005374513566493988,-0.0002554035745561123,-3.906502388417721e-05,-35.362621,149.166033,339430.0,0.0,0.0,-152.0,0.0,0.0,-1000.25,3.0,3.25,3.25
18:15:27,222713.0,RTL,-0.0014090870972722769,-0.0018928119097836316,0.7871102094650269,0.0004902551881968975,-0.000463076401501894,0.0021348369773477316,-35.362621,149.166033,340597.5,0.0,0.0,-152.0,0.0,0.0,-1000.0,4.0,3.5,5.5
18:15:29,222713.0,RTL,-0.0014690992538817227,-0.0019075597519986331,0.7870607376098633,-0.00021405378356575966,-0.00046653684694319963,-0.0006503225304186344,-35.362621,149.166033,343701.0,0.0,0.0,-152.0,0.0,0.0,-1000.5,3.5,3.0,3.0
18:15:30,300000.0,RTL,-0.0018528903601691127,-0.0018765175773296505,0.786919355392456,0.00014586624456569552,-9.470304939895868e-05,0.00019496155437082052,-35.362621,149.166033,345640.5,0.0,0.0,-152.0,0.0,0.0,-1000.0,3.75,3.5,3.75
18:15:31,300000.0,RTL,-0.0017038409714587033,-0.0019671814516186714,0.787022203207016,0.0002706995001062751,-0.0007803060580044985,0.0012466523330658674,-35.362621,149.166033,346805.5,0.0,0.0,-152.0,0.0,0.0,-1000.0,4.0,3.0,4.5
18:15:33,300000.0,RTL,-0.0023792972788214684,-0.002482918440364301,0.7867124378681183,-0.0009989410173147917,0.0003506508655846119,-0.002157485345378518,-35.3626211,149.166033,349917.0,0.5,0.0,-152.0,0.0,0.0,-1000.5,2.5,4.0,1.5
18:15:34,300000.0,RTL,-0.0021134831476956606,-0.0024307158309966326,0.7870422750711441,-0.0006181729841046035,-0.0007132447208277881,-1.7969869077205658e-06,-35.3626211,149.166033,351856.75,1.0,0.0,-152.0,0.0,0.0,-1000.0,3.0,3.0,3.5
18:15:35,300000.0,RTL,-0.0019212878542020917,-0.0025149995926767588,0.7875965237617493,-0.00037730089388787746,-0.000684590544551611,-0.0011252982076257467,-35.3626211,149.166033,353021.0,1.0,0.0,-152.0,0.0,0.0,-1000.5,3.0,3.0,2.5
18:15:37,300000.0,RTL,-0.001914815919008106,-0.0025904910871759057,0.7873086035251617,-0.0002489073667675257,-0.00035784963984042406,-0.0004982597893103957,-35.3626211,149.166033,356127.0,1.0,0.0,-152.0,0.0,0.0,-1000.0,3.0,3.5,3.0
18:15:38,151312.0,RTL,-0.0018674145685508847,-0.0025200319942086935,0.7872009724378586,0.0003993970458395779,-0.0006147375679574907,2.5173532776534557e-05,-35.3626211,149.166033,358070.5,1.0,0.0,-152.0,0.0,0.0,-1000.25,4.25,3.25,3.75
18:15:39,151312.0,RTL,-0.0018463049782440066,-0.0025236576329916716,0.7873356640338898,0.001248509157449007,-0.000464768148958683,-7.087644189596176e-05,-35.3626211,149.166033,359236.5,1.0,0.0,-152.0,0.0,0.0,-1000.0,4.5,3.0,3.5
18:15:41,151312.0,RTL,-0.004223794559948146,0.0580875501036644,0.7868452072143555,-0.0022819044534116983,0.03241884056478739,0.0011808518320322037,-35.36262235,149.1660316,362322.5,-27.5,-28.5,-148.5,6.0,3.5,-997.5,1.0,36.0,4.5
18:15:42,206494.0,RTL,-0.018524056067690253,0.10908717475831509,0.80181023478508,-0.0458617735421285,0.07801111415028572,0.09749331173952669,-35.362628825,149.166023875,364170.25,-86.0,-86.75,-136.0,21.0,9.75,-976.0,-41.5,81.75,101.0
18:15:43,206494.0,RTL,-0.04533986747264862,0.20155733823776245,1.015980839729309,-0.06070872861891985,0.04901790805160999,0.4959469437599182,-35.362635999999995,149.16601455,365122.0,-128.5,-157.5,-100.0,44.5,15.0,-941.0,-56.5,53.0,499.5
18:15:45,206494.0,RTL,0.057597797363996506,0.11699597537517548,1.322723627090454,-0.035035726614296436,0.03656413033604622,-0.006382092135027051,-35.362671950000006,149.1659649,365897.0,-269.5,-246.0,12.0,84.0,1.5,-966.5,-30.5,40.0,-2.5
18:15:46,200.0,RTL,0.008866951509844512,0.14721164479851723,1.2816338539123535,0.09622830525040627,0.011425951146520674,-0.028195638908073306,-35.362706100000004,149.16592874999998,365623.5,-319.5,-284.25,16.75,103.0,9.5,-1016.0,100.25,15.25,-23.5
18:15:47,200.0,RTL,-0.020050019025802612,0.13976532965898514,1.2482742667198181,-0.25959256663918495,-0.01371873077005148,-0.04351929761469364,-35.36272835,149.1659042,365527.0,-330.5,-314.0,3.5,103.5,-1.0,-1007.5,-255.5,-9.0,-39.5
18:15:49,200.0,RTL,-0.01768679078668356,0.11751600354909897,1.1657894253730774,-0.3158499747514725,-0.011886730557307601,-0.05875539779663086,-35.362787049999994,149.165831,365512.0,-326.5,-341.0,0.0,109.0,12.0,-993.5,-312.0,-8.0,-54.0
18:15:50,40232.0,RTL,-0.01625369186513126,0.11302336305379868,1.1204991340637207,0.06152079254388809,0.007343555218540132,-0.03491360042244196,-35.36282357499999,149.165783525,365513.5,-337.0,-343.0,-1.5,109.75,27.25,-993.75,65.25,11.25,-30.5
18:15:51,40232.0,RTL,-0.02385352086275816,0.11109423264861107,1.098461925983429,-0.314952552318573,-0.019578534178435802,-0.03432121709920466,-35.3628457,149.16575505,365520.0,-340.5,-344.0,-1.0,111.0,17.0,-991.5,-310.5,-15.0,-30.0
18:15:53,40232.0,RTL,-0.03855123743414879,0.10922405123710632,1.0516279339790344,-0.3512740880250931,-0.01754022529348731,-0.02967915148474276,-35.36290595,149.1656798,365528.5,-342.0,-338.5,0.0,111.5,21.5,-1000.0,-346.5,-12.5,-25.0
18:15:54,68722.0,RTL,-0.041535649448633194,0.1062494870275259,1.0298127830028534,0.01231421297416091,-0.009277831646613777,-0.019633117131888866,-35.362943925,149.16563335,365528.25,-336.5,-340.25,0.0,109.0,34.0,-998.0,16.25,-4.75,-15.25
18:15:55,68722.0,RTL,-0.04951467178761959,0.11128423735499382,1.016385018825531,-0.3045925498008728,-0.002005103975534439,-0.0360281728208065,-35.3629667,149.16560565,365526.0,-332.5,-341.0,0.0,107.0,7.0,-991.0,-300.5,2.5,-31.5
18:15:57,68722.0,RTL,-0.06024454906582832,0.10710249096155167,0.9884500205516815,-0.3072599023580551,-0.006174564128741622,-0.03490881621837616,-35.3630277,149.1655318,365533.5,-322.5,-347.5,0.0,108.0,26.5,-992.5,-303.5,-2.0,-30.5
18:15:58,71562.0,RTL,-0.05423593521118164,0.10239286720752716,0.978935569524765,-0.06324191391468048,0.002750830026343465,-0.013117143767885864,-35.36306545,149.165485075,365537.5,-318.5,-350.5,0.0,104.5,35.5,-995.25,-59.5,7.0,-9.0
18:15:59,71562.0,RTL,-0.05380150489509106,0.10441223904490471,0.9705058336257935,-0.1521635353565216,-0.006555527914315462,-0.03722274675965309,-35.363088000000005,149.16545695000002,365542.5,-318.5,-350.0,1.0,101.0,33.5,-987.0,-149.0,-2.0,-32.5
18:16:01,71562.0,RTL,-0.03894905559718609,0.10104913264513016,0.9548346996307373,0.11855421215295792,-0.0052466257475316525,-0.02909889235161245,-35.363147,149.1653816,365547.0,-323.5,-345.5,2.0,101.0,35.5,-993.5,122.0,-1.0,-25.5
18:16:02,62236.0,RTL,-0.05053825117647648,0.0565220583230257,0.9492716938257217,-0.09221191331744194,-0.05912715941667557,-0.013858013320714235,-35.36318385,149.165334925,365566.25,-317.5,-328.75,-1.5,101.25,40.75,-997.0,-88.5,-54.0,-9.75
18:16:03,62236.0,RTL,-0.04854540713131428,0.020181888714432716,0.9469287693500519,0.613846480846405,-0.03064474370330572,0.009371357969939709,-35.363204800000005,149.16530875,365593.0,-290.5,-299.0,0.5,95.5,55.0,-997.5,616.5,-25.5,13.0
18:16:05,62236.0,RTL,-0.045333439484238625,-0.07477425783872604,0.9408697187900543,0.5760079324245453,-0.05287996865808964,-0.004631809890270233,-35.36324715000001,149.16525615,365578.0,-154.5,-168.0,4.0,51.5,34.0,-1005.5,578.5,-48.0,-1.0
18:16:06,300000.0,RTL,-0.04321607109159231,-0.05873033497482538,0.9355742484331131,0.14627146068960428,0.03936850046738982,-0.006853798869997263,-35.36325995,149.165241175,365557.5,-55.0,-76.25,4.5,21.5,23.5,-1008.5,150.0,43.25,-2.75
18:16:07,300000.0,RTL,-0.03569814749062061,-0.04027588292956352,0.9305486381053925,-0.309759970754385,0.015413175337016582,-0.021350542083382607,-35.36326375,149.1652371,365546.5,-18.0,-46.0,3.0,10.0,-24.5,-995.5,-307.5,19.5,-17.0
18:16:09,300000.0,RTL,-0.027271133847534657,-0.00458911235909909,0.9174306988716125,-0.07333850115537643,0.027633942663669586,0.005059023387730122,-35.3632664,149.16523525000002,365548.5,21.0,-12.0,1.0,0.0,18.5,-997.0,-70.0,31.5,8.0
18:16:10,300000.0,RTL,-0.016636576736345887,-0.013341331388801336,0.9120249599218369,-0.42927984334528446,-0.011978488531894982,0.004389438196085393,-35.36326615,149.16523505,365544.0,20.5,-11.75,1.75,-1.5,-18.0,-1003.25,-427.0,-7.5,7.75
18:16:11,300000.0,RTL,-0.0005510609480552375,-0.01419582637026906,0.9104474782943726,0.5409435331821442,0.004915549885481596,0.0020487778820097446,-35.3632656,149.16523495,365544.0,20.5,-4.0,0.0,-2.0,28.0,-1007.0,543.0,9.0,5.0
18:16:13,300000.0,RTL,-0.005391045764554292,-0.0031026697251945734,0.9053207039833069,-0.10485818982124329,-0.0030830088071525097,-0.0020768801914528012,-35.363263950000004,149.165236,365543.0,14.5,3.0,0.5,-0.5,-22.0,-997.5,-104.0,1.0,2.0
18:16:14,152001.0,RTL,-0.006485866979346611,-0.0025493231951259077,0.9018206894397736,0.3582985159009695,-0.0013186399592086673,0.0004848632961511612,-35.3632637,149.165236975,365535.5,12.25,0.5,3.0,-0.25,12.5,-987.25,360.0,2.5,4.0
18:16:15,152001.0,RTL,-0.022211343050003052,-0.0017507053562439978,0.9003195762634277,-0.9812791347503662,-0.001221342827193439,-0.00023278524167835712,-35.3632637,149.1652375,365441.5,13.0,-2.0,34.5,1.0,-45.0,-919.5,-979.5,2.5,3.0
18:16:17,152001.0,RTL,-0.011049578431993723,-0.004220932489261031,0.8955083787441254,-0.7400897145271301,-0.00041295564733445644,-0.002895078156143427,-35.363264,149.1652385,363646.0,17.5,-10.0,117.0,-0.5,-75.0,-1002.5,-740.5,3.5,1.5
18:16:18,179896.0,RTL,0.006046549649909139,-0.005360442562960088,0.8936942219734192,0.5671593956649303,0.00035549968015402555,0.007617958006449044,-35.363263700000005,149.165238325,362286.75,15.25,-9.0,99.25,-1.5,-5.0,-989.5,566.0,4.25,11.0
18:16:19,179896.0,RTL,0.014908097218722105,-0.006255087908357382,0.8918878138065338,0.3581925556063652,-0.00012318592052906752,-6.449292413890362e-06,-35.3632633,149.16523795,361509.5,13.5,-7.5,101.0,-1.0,-23.0,-957.5,356.5,4.0,3.0
18:16:21,179896.0,RTL,0.01222093217074871,-0.005052470602095127,0.8888368904590607,1.1331491470336914,-5.955761298537254e-05,-0.002385781263001263,-35.363262750000004,149.1652375,359466.0,6.5,-1.0,99.0,0.0,24.0,-1051.0,1133.0,3.5,1.0
18:16:22,300000.0,RTL,0.01692019938491285,-0.004456574446521699,0.8869367390871048,1.120120033621788,9.163346840068698e-05,-0.002982519508805126,-35.363262549999995,149.1652374,358194.5,4.5,0.0,98.75,0.0,29.25,-1015.0,1119.5,3.75,0.75
18:16:23,300000.0,RTL,0.013729892671108246,-0.00474766525439918,0.8865941762924194,1.069929152727127,0.0014866362325847149,-0.0013206267030909657,-35.3632625,149.1652374,357431.0,3.5,0.0,98.5,0.5,20.5,-1000.0,1069.0,5.0,2.5
18:16:25,300000.0,RTL,0.029285618104040623,-0.006029769778251648,0.8828226923942566,0.8965452015399933,0.0010142037644982338,0.0015594327123835683,-35.3632619,149.1652367,355377.5,0.5,2.5,100.5,-1.0,5.0,-971.0,895.5,5.0,5.0
18:16:26,200.0,RTL,0.00686208203114802,-0.0033248818363063037,0.8814836144447327,1.0626622438430786,0.0022174668265506625,0.0036585263442248106,-35.363261775,149.16523669999998,354090.25,-4.5,7.75,95.75,0.0,73.0,-993.5,1064.5,6.25,6.75
18:16:27,200.0,RTL,-0.011818466242402792,-0.003262426587752998,0.8817272484302521,0.5753829777240753,-0.009271280840039253,-0.015799740562215447,-35.36326205,149.16523705,353327.0,-4.0,7.0,98.0,-1.0,69.5,-977.5,578.0,-4.5,-12.0
18:16:29,200.0,RTL,0.007914684480056167,-0.008213391527533531,0.8792428970336914,-0.7395241260528564,6.503146141767502e-05,-0.002845405600965023,-35.3632608,149.16523565,351284.0,-8.0,8.5,99.5,-5.0,9.5,-996.5,-736.0,3.5,1.0
18:16:30,64507.0,RTL,0.013272142270579934,-0.006659281556494534,0.8786738812923431,-1.1357653886079788,-0.001456091064028442,-0.002366096363402903,-35.363259425,149.165234275,350008.25,-20.75,20.25,99.0,-2.0,-17.0,-979.0,-1132.5,2.5,1.25
18:16:31,64507.0,RTL,0.015481570735573769,-0.005625003017485142,0.8775699436664581,-1.082661658525467,-0.0038665159372612834,0.00524277170188725,-35.363258849999994,149.1652338,349243.0,-27.5,26.5,96.5,1.0,-21.0,-1008.5,-1078.5,0.5,8.5
18:16:33,64507.0,RTL,-0.010797353694215417,0.0018641908536665142,0.8754598498344421,-1.291224181652069,0.006881939130835235,-0.009587422013282776,-35.36325985,149.16523515,347214.5,-27.5,26.5,97.0,3.5,-43.5,-964.5,-1287.5,10.5,-6.0
18:16:34,126736.0,RTL,-0.03572710417211056,0.001780103862984106,0.8755425363779068,-1.3865025341510773,-0.0030728885903954506,-0.004044504079502076,-35.36326185,149.165237225,345937.75,-13.0,13.0,97.0,4.0,-52.75,-1003.0,-1382.75,0.75,-0.25
18:16:35,126736.0,RTL,-0.04131334275007248,-0.00012010997670586221,0.8745507597923279,-1.3755589723587036,-0.0023840272333472967,-0.0026527629233896732,-35.363263,149.1652383,345180.0,-2.0,2.5,99.0,4.0,-48.5,-1008.0,-1372.5,1.5,0.5
18:16:37,126736.0,RTL,-0.01950979884713888,-0.006623481633141637,0.8731655180454254,-0.8655023276805878,-0.0028626734856516123,-0.008115526987239718,-35.3632642,149.16523905000003,343165.5,18.0,-13.0,101.0,0.0,-64.5,-994.5,-864.5,0.5,-4.0
18:16:38,146494.0,RTL,-0.016921311616897583,-0.004178718780167401,0.872851699590683,-0.9224904179573059,-0.0008468888117931783,-0.01141558907693252,-35.363264125,149.16523885,341904.5,19.25,-11.0,100.75,2.5,-73.75,-985.5,-921.75,2.75,-7.5
18:16:39,146494.0,RTL,-0.018665368668735027,-0.0022393818362616003,0.8738540709018707,-0.21625130623579025,0.002141702570952475,-0.007467296323738992,-35.3632645,149.1652393,341127.0,21.0,-12.5,103.5,1.0,-42.5,-992.5,-216.5,5.5,-4.0
18:16:41,146494.0,RTL,-0.04880180396139622,0.00010378732986282557,0.8721050918102264,0.8661340475082397,-0.002837566426023841,-0.00034777261316776276,-35.363267199999996,149.16524235,339084.0,42.5,-31.5,103.0,2.5,-4.5,-996.5,865.0,0.5,3.0
18:16:42,932.0,RTL,-0.03656986216083169,-0.004659850324969739,0.871546670794487,1.303570568561554,-0.004465867416001856,0.0023512557963840663,-35.363267925,149.16524295,337818.75,54.0,-43.25,103.0,0.0,37.25,-1021.0,1302.5,-0.75,5.25
18:16:43,932.0,RTL,-0.0278524961322546,-0.006394230993464589,0.8712518811225891,1.4394563436508179,0.00036728510167449713,0.00737939216196537,-35.3632678,149.16524264999998,337052.0,55.5,-44.0,102.0,-1.5,51.5,-981.0,1438.0,3.5,10.5
18:16:45,932.0,RTL,-0.004124561324715614,-0.01044823694974184,0.8705283403396606,1.0467525124549866,-0.0008445791900157928,-3.2261363230645657e-05,-35.36326545,149.16524005,334979.0,43.5,-32.5,99.0,-4.0,77.5,-1042.5,1046.5,2.5,3.0
18:16:46,200.0,RTL,-0.010004190255131107,-0.01003733929246664,0.8702709227800369,0.2539332821033895,-0.002132374793291092,0.0044231758220121264,-35.3632637,149.165238325,333686.0,25.5,-16.5,98.25,-5.0,61.25,-970.75,254.0,1.25,7.5
18:16:47,200.0,RTL,-0.00020258146105334163,-0.010429162066429853,0.8699006140232086,-0.02868904545903206,0.0017351435963064432,0.0038829578552395105,-35.36326255,149.16523715,332908.5,14.0,-7.0,100.0,-5.0,50.0,-945.0,-28.5,5.0,7.0
18:16:49,200.0,RTL,0.01755700958892703,-0.006557924207299948,0.8701246678829193,-1.2774283289909363,0.0028086527017876506,-0.0018599274335429072,-35.36325965,149.16523445,330861.0,-13.0,16.5,95.0,-1.0,-46.0,-1019.0,-1278.0,6.0,1.0
18:16:50,200.0,RTL,-0.0033081019937526435,-0.0009430885893380037,0.8700768053531647,-1.4765838980674744,0.003329036582726985,-0.006313591962680221,-35.3632597,149.16523485000002,329609.25,-22.25,23.5,97.5,1.0,-69.75,-987.5,-1477.75,6.25,-2.75
18:16:51,200.0,RTL,-0.016186323016881943,-7.918158735265024e-05,0.8698386549949646,-1.5339417457580566,-0.005685089156031609,-0.0033316779881715775,-35.3632603,149.16523560000002,328848.5,-20.0,19.5,98.5,0.5,-77.5,-946.0,-1535.5,-2.0,0.0
