time_stamp,MODE,roll,pitch,yaw,rollspeed,pitchspeed,yawspeed,lat,lon,relative_alt,vx,vy,vz,xacc,yacc,zacc,xgyro,ygyro,zgyro,RTL_ALT
00:44:52,STABILIZE,-0.0008974178344942629,0.0010767257772386074,0.025510095059871674,0.0001162164262495935,0.0003095329739153385,0.002167764585465193,-35.3632622,149.1652375,0.0,-1.0,1.0,2.0,0.0,1.0,-1000.0,0.0,0.0,0.0,1500.0
00:44:54,STABILIZE,-0.0008340940694324672,0.0009478296269662678,0.0248090997338295,0.0002183985197916627,0.0003568555403035134,0.0019187277648597956,-35.3632621,149.1652375,0.0,-1.0,0.0,0.0,0.0,1.0,-1000.0,0.0,0.0,0.0,1500.0
00:45:03,AUTO,-0.0008567853559119006,0.000991111892896394,0.022147956614693005,0.0002007892083687087,0.0002777237289895614,0.0015893880433092515,-35.3632622,149.1652375,2.3333333333333335,-1.0,1.6666666666666667,1.0,0.0,1.5,-1000.0,0.0,0.5,0.0,245505.0
00:45:04,AUTO,-0.0009196160826832056,0.0009906633058562875,0.022019789554178715,0.0003372867649886757,0.00021475486573763192,0.0015778017695993185,-35.3632622,149.1652375,5.5,-1.0,1.0,1.0,0.0,1.5,-1000.0,0.5,0.5,0.0,245505.0
00:45:06,AUTO,-0.0006938821461517364,0.0013613615301437676,0.02157126273959875,0.0003078749286942184,0.00029970804462209344,0.0014575158711522818,-35.3632621,149.1652375,3.5,0.0,0.0,0.0,0.0,1.5,-1000.0,0.5,1.0,0.0,176477.0
00:45:08,AUTO,0.0021365730208344758,0.0007080152499838732,0.02106655389070511,-0.000429681153036654,0.003932871390134096,0.0017723394557833672,-35.3632621,149.1652375,331.5,0.0,0.0,-92.5,0.0,0.0,-1120.5,0.5,4.0,0.5,107449.0
00:45:10,AUTO,0.025932224467396736,-0.00043814952368848026,-0.006467462284490466,0.046526702120900154,-0.007244745502248406,0.0025845752097666264,-35.363262,149.16523745,3142.0,0.0,5.5,-148.5,0.0,0.0,-1004.0,47.0,-6.5,1.5,223618.0
00:45:12,AUTO,-0.010626010713167489,0.027189763262867928,-0.09637653827667236,-0.05527286883443594,-0.024415429215878248,-0.050804647617042065,-35.3632611,149.1652456,6224.5,-5.0,50.0,-149.0,7.0,-10.5,-1001.5,-54.0,-23.5,-50.5,223618.0
00:45:13,AUTO,-0.08276939578354359,-0.022276178002357483,-0.08834525756537914,0.01802548160776496,-0.010826737037859857,0.010772583191283047,-35.363261625,149.1652477,8137.5,-1.0,-30.75,-148.75,-1.25,4.25,-1002.0,18.5,-10.25,10.0,484.0
00:45:14,AUTO,-0.0439525842666626,-0.01653924398124218,-0.07931216433644295,0.06771725788712502,0.02221460174769163,0.006491711130365729,-35.3632614,149.16524325,9282.0,8.0,-77.5,-148.5,-11.0,12.0,-1002.0,68.0,22.5,5.5,484.0
00:45:16,AUTO,0.09203728288412094,0.025685171596705914,-0.06236632540822029,0.05687396787106991,-0.0028019913006573915,0.006572377867996693,-35.36326115,149.16522885,12417.0,-17.0,-6.0,-154.5,0.0,5.0,-999.5,57.0,-2.0,6.0,101718.0
00:45:18,AUTO,-0.08324270322918892,-0.017405244521796703,-0.11370423063635826,-0.126451313495636,0.009830905706621706,-0.07733389735221863,-35.3632626,149.16524295,15447.0,13.0,59.0,-152.0,7.0,-16.0,-1012.5,-125.0,10.0,-77.0,101718.0
00:45:19,AUTO,-0.08142520984013875,-0.008978771278634667,-0.18276163438955942,0.05937137578924497,0.021268039320906002,-0.024211935698986053,-35.36326103333334,149.1652416,17337.333333333332,9.0,-68.66666666666667,-149.33333333333334,-11.0,7.0,-998.6666666666666,59.666666666666664,21.333333333333332,-24.333333333333332,24661.0
00:45:20,AUTO,-0.030895746623476345,0.013375095402201017,-0.19309696555137634,0.07420520236094792,0.03669033944606781,-0.006419517177467545,-35.36326076666666,149.16523426666666,18477.0,-5.0,-100.0,-150.0,-15.0,16.333333333333332,-1005.0,74.66666666666667,37.0,-6.333333333333333,24661.0
00:45:22,AUTO,0.11669017126162846,0.034408221021294594,-0.18296311299006143,0.05912785977125168,-0.033285403003295265,0.009493611132105192,-35.363266833333334,149.16522053333333,21611.666666666668,-57.0,27.333333333333332,-152.0,9.666666666666666,7.0,-998.0,59.666666666666664,-32.0,8.666666666666666,84903.0
00:45:24,AUTO,-0.03288921061903238,-0.08549767732620239,-0.16341912746429443,-0.16967070599397024,0.08432755370934804,-0.1254215861360232,-35.36326653333333,149.1652465666667,24507.333333333332,100.66666666666667,140.66666666666666,-143.0,3.6666666666666665,-38.333333333333336,-1026.3333333333333,-168.0,84.33333333333333,-125.66666666666667,84903.0
00:45:25,AUTO,-0.1677113175392151,0.01075906166806817,-0.34894928336143494,0.026912589867909748,0.12537660698095957,-0.08347085242470105,-35.363253666666665,149.1652539,26416.0,91.66666666666667,-49.666666666666664,-151.0,-18.0,-16.666666666666668,-1007.6666666666666,27.666666666666668,126.0,-83.33333333333333,200602.0
00:45:26,AUTO,-0.11618661880493164,0.09181379526853561,-0.37860046823819477,0.07596426457166672,0.08479737987120946,3.267584058145682e-06,-35.363250099999995,149.16524596666665,27540.333333333332,2.6666666666666665,-129.66666666666666,-144.66666666666666,-24.0,11.666666666666666,-1005.3333333333334,76.66666666666667,85.0,-0.3333333333333333,200602.0
00:45:28,AUTO,0.07487309351563454,0.09389002496997516,-0.3434990346431732,0.0638384943207105,-0.12773402531941733,0.08523640781641006,-35.363273,149.16522256666667,30376.666666666668,-222.0,-13.666666666666666,-138.0,27.666666666666668,46.0,-1017.0,64.0,-126.33333333333333,84.66666666666667,128858.0
00:45:30,AUTO,0.08450625091791153,-0.25057142476240796,-0.17265065014362335,-0.14012663811445236,-0.11675688748558362,0.11239646499355634,-35.3632966,149.165245,33342.333333333336,58.666666666666664,184.33333333333334,-133.66666666666666,23.666666666666668,-31.666666666666668,-995.0,-138.66666666666666,-116.0,111.66666666666667,128858.0
00:45:31,AUTO,-0.14023968080679575,-0.13313009589910507,-0.3341399331887563,-0.1138507155701518,0.21728111803531647,-0.18582325677076975,-35.36327453333333,149.16526206666666,34839.333333333336,285.0,20.0,-120.0,-39.0,-54.333333333333336,-1049.6666666666667,-112.66666666666667,218.0,-185.66666666666666,120384.0
00:45:32,AUTO,-0.13588809967041016,0.02445828914642334,-0.42026888330777484,0.034753378170231976,0.19841188689072928,-0.017937966001530487,-35.36325626666667,149.16525753333335,35834.333333333336,237.0,-118.33333333333333,-145.0,-55.333333333333336,-32.666666666666664,-1055.3333333333333,35.333333333333336,198.66666666666666,-17.333333333333332,120384.0
00:45:34,AUTO,-0.03351212044556936,0.23230789601802826,-0.44461387395858765,0.03495455843706926,-0.08324860781431198,0.07887289122057457,-35.36324976666666,149.16522383333333,38879.666666666664,-190.0,-108.0,-124.66666666666667,-0.3333333333333333,45.0,-984.0,35.666666666666664,-82.0,78.66666666666667,91412.0
00:45:36,AUTO,0.1336891601483027,-0.0945765661696593,-0.25011774400870007,0.08598257849613826,-0.15145234763622284,0.07098512848218282,-35.363294966666665,149.16522226666666,41596.0,-188.33333333333334,92.0,-161.66666666666666,52.333333333333336,25.666666666666668,-1032.0,86.66666666666667,-149.66666666666666,70.66666666666667,91412.0
00:45:37,AUTO,0.13778186837832132,-0.2624008407195409,-0.19610849022865295,-0.13327325880527496,-0.064436470468839,0.04344267398118973,-35.36330086666667,149.16524406666667,43467.333333333336,110.0,207.0,-115.0,17.666666666666668,-38.0,-971.0,-132.0,-63.333333333333336,43.666666666666664,67988.0
00:45:38,AUTO,-0.01904337853193283,-0.21184256176153818,-0.2628039171298345,-0.25573847194512683,0.1463994781176249,-0.19706652561823526,-35.36328716666667,149.16526026666668,44227.666666666664,287.0,164.33333333333334,-95.0,-21.666666666666668,-79.33333333333333,-1047.3333333333333,-254.0,147.0,-196.66666666666666,67988.0
00:45:40,AUTO,-0.14202370742956796,0.1240453024705251,-0.47214897473653156,0.06034656163925926,0.19656360149383545,0.047587670696278415,-35.36323443333333,149.16525523333334,46920.0,163.33333333333334,-170.33333333333334,-163.33333333333334,-57.333333333333336,-21.0,-1030.0,61.0,197.0,48.0,248394.0
00:45:42,AUTO,0.051297283420960106,-0.07953754377861817,-0.14426111181577048,-0.10818610606171812,-0.20606527477502823,-0.06393955151240031,-35.36325096666667,149.16523336666668,49160.666666666664,-205.33333333333334,12.333333333333334,-63.666666666666664,40.333333333333336,27.666666666666668,-983.6666666666666,-107.33333333333333,-204.66666666666666,-62.666666666666664,248394.0
00:45:43,AUTO,-0.003080254808689157,-0.09135089814662933,-0.18105579415957132,-0.13232303659121195,0.07789195328950882,-0.01962657164161404,-35.3632644,149.16523753333334,49717.0,-37.0,24.666666666666668,-30.666666666666668,11.666666666666666,-5.333333333333333,-998.3333333333334,-131.33333333333334,78.33333333333333,-18.333333333333332,22227.0
00:45:44,AUTO,-0.008614666061475873,-0.0373862919708093,-0.19308310747146606,0.053329686323801674,0.05825401097536087,-0.01626446144655347,-35.36326516666667,149.16523936666667,49923.666666666664,10.0,9.333333333333334,-22.0,0.3333333333333333,-5.666666666666667,-975.0,53.666666666666664,59.0,-15.0,22227.0
00:45:46,AUTO,-0.048565314461787544,0.01128737535327673,-0.2264458735783895,0.24919340014457703,-0.004930575766290228,-0.01700949389487505,-35.363262533333334,149.16523633333333,49917.333333333336,-0.3333333333333333,-49.333333333333336,5.333333333333333,-8.333333333333334,29.666666666666668,-988.6666666666666,250.0,-3.3333333333333335,-16.0,255625.0
00:45:48,AUTO,-0.02090343087911606,-0.11013426383336385,-1.4434004227320354,-0.09745614230632782,-0.04258145888646444,-0.7130237221717834,-35.36326786666667,149.16521486666667,49469.333333333336,-55.333333333333336,-156.33333333333334,36.666666666666664,-40.666666666666664,-25.333333333333332,-983.0,-97.33333333333333,-41.333333333333336,-712.0,255625.0
00:45:49,AUTO,0.042945634573698044,-0.12134690086046855,-1.8013910452524822,0.5328513036171595,0.03648321454723676,0.0673976515730222,-35.363276299999995,149.1651853,48778.333333333336,-86.66666666666667,-254.33333333333334,63.666666666666664,-60.666666666666664,-23.333333333333332,-981.0,532.6666666666666,37.0,67.66666666666667,262715.0
00:45:50,AUTO,0.031235582505663235,-0.10528899232546489,-1.7802247206370037,-0.8496208588282267,0.018862985850622255,0.018607911343375843,-35.36328256666667,149.16516193333334,48216.666666666664,-96.0,-294.0,77.33333333333333,-69.0,-75.33333333333333,-971.6666666666666,-849.0,19.333333333333332,19.0,262715.0
00:45:52,AUTO,0.05965752402941386,-0.08425202965736389,-1.7953232526779175,0.26110339164733887,0.03022030647844076,0.029040697341163952,-35.36330123333334,149.16508953333332,46359.0,-109.66666666666667,-345.6666666666667,102.0,-74.0,-68.33333333333333,-963.0,260.3333333333333,30.333333333333332,29.0,173447.0
00:45:54,AUTO,0.05986268694202105,-0.08833131442467372,-1.8066762288411458,0.9340650041898092,0.0010892938201626141,-0.04190547081331412,-35.3633212,149.16501233333335,44301.333333333336,-111.66666666666667,-359.3333333333333,96.33333333333333,-83.33333333333333,4.666666666666667,-1004.0,935.0,2.0,-41.0,173447.0
00:45:55,AUTO,0.05285131558775902,-0.08246758331855138,-1.8114608526229858,-0.6119249562422434,0.0027831057086586952,0.06349295005202293,-35.3633341,149.16496286666668,43040.333333333336,-114.66666666666667,-366.3333333333333,110.66666666666667,-80.33333333333333,-111.0,-961.6666666666666,-612.3333333333334,3.3333333333333335,63.666666666666664,3769.0
00:45:56,AUTO,0.03944562003016472,-0.07921937853097916,-1.81490425268809,-0.970017671585083,0.00529193552210927,0.012993086439867815,-35.363341866666666,149.16493276666668,42216.0,-113.33333333333333,-367.3333333333333,105.66666666666667,-83.66666666666667,-85.33333333333333,-1014.6666666666666,-968.3333333333334,6.0,13.666666666666666,3769.0
00:45:58,AUTO,0.049509222308794655,0.0067369142003978295,-1.8223206599553425,0.9814989765485128,0.039431837697823845,-0.023767210931206744,-35.363360433333334,149.16485696666666,40307.333333333336,-95.0,-300.0,71.0,-64.66666666666667,-2.0,-1057.3333333333333,982.3333333333334,39.666666666666664,-22.333333333333332,227104.0
00:46:00,AUTO,0.017141468822956085,0.07885669668515523,-1.8282747268676758,0.46583467225233716,-0.02083263359963894,-0.013501392987867197,-35.36337196666667,149.16480900000002,39229.333333333336,-41.666666666666664,-120.66666666666667,40.0,-25.666666666666668,21.666666666666668,-1033.0,467.6666666666667,-20.0,-12.0,227104.0
00:46:01,AUTO,0.004417023854330182,0.03426511399447918,-1.8320797284444172,-0.20055760939915976,-0.023060692474246025,-0.004128197984149058,-35.3633748,149.16479906666666,38917.666666666664,-15.0,-38.333333333333336,11.333333333333334,-9.333333333333334,-6.666666666666667,-1017.6666666666666,-199.33333333333334,-22.0,-3.0,58808.0
00:46:02,AUTO,0.014707283116877079,0.02230633112291495,-1.83408784866333,-0.08218181629975636,-0.01564748554180066,-0.0013875983810673158,-35.363375966666666,149.16479716666666,38865.0,-6.333333333333333,-15.333333333333334,6.0,-5.0,-13.333333333333334,-1002.0,-82.0,-14.666666666666666,-0.3333333333333333,58808.0
00:46:04,RTL,0.023547296101848286,0.0014244825579226017,-1.8417582511901855,0.4249233802159627,0.01936049371336897,0.004526500357314944,-35.363378000000004,149.1647968,38847.666666666664,10.666666666666666,-7.333333333333333,0.6666666666666666,-2.3333333333333335,17.666666666666668,-1007.3333333333334,425.6666666666667,19.333333333333332,5.0,253175.0
00:46:06,RTL,0.01693303572634856,0.005411956459283829,-1.8475640217463176,0.025784552097320557,0.0002211734924154977,0.005188905323545138,-35.36337886666667,149.1647965,39298.666666666664,19.666666666666668,-4.0,-51.333333333333336,-0.3333333333333333,0.3333333333333333,-1035.6666666666667,28.0,0.6666666666666666,6.333333333333333,253175.0
00:46:07,RTL,0.011435216603179773,0.0050462813427050906,-1.8503468831380208,-0.02197914756834507,0.0012737620854750276,0.0031737718575944505,-35.36337876666666,149.16479643333332,40256.333333333336,21.0,-3.0,-97.0,0.0,-2.6666666666666665,-1040.3333333333333,-20.0,1.0,4.666666666666667,269268.0
00:46:08,RTL,0.009033633396029472,0.004947091918438673,-1.8516076405843098,-0.004859634054203828,0.0009359313213887314,0.0020791681793828807,-35.36337856666666,149.1647964,41114.0,19.333333333333332,-2.0,-123.0,0.0,-1.3333333333333333,-1032.6666666666667,-3.0,1.0,3.3333333333333335,269268.0
00:46:10,RTL,0.017061274498701096,0.004054681009923418,-1.870052973429362,0.009930078561107317,-0.004964191272544364,-0.013807978170613447,-35.363377166666666,149.16479566666666,44063.666666666664,24.333333333333332,-5.0,-149.0,0.6666666666666666,-4.0,-1001.6666666666666,12.0,-4.0,-11.666666666666666,262360.0
00:46:12,RTL,-0.06900213162104289,0.012782190615932146,-1.9453778266906738,-0.03992861198882262,-0.013625746282438437,-0.03271751788755258,-35.36337219999999,149.16479230000002,47135.0,13.666666666666666,0.0,-149.0,1.6666666666666667,-5.0,-1006.3333333333334,-37.333333333333336,-12.333333333333334,-30.0,262360.0
00:46:13,RTL,-0.026868863341708977,0.007611210302760203,-1.9651418129603069,0.05305483937263489,0.005084632507835825,-0.0030680975566307702,-35.3633745,149.16479343333333,49070.0,-43.0,26.666666666666668,-150.66666666666666,-4.333333333333333,8.666666666666666,-1000.6666666666666,54.666666666666664,5.666666666666667,-1.3333333333333333,181001.0
00:46:14,RTL,0.006844960541153948,0.005215772893279791,-1.9574723641077678,0.03254673629999161,-0.006736377525764207,0.016835785781343777,-35.3633775,149.16479523333334,50239.0,-39.333333333333336,29.333333333333332,-151.66666666666666,-4.666666666666667,9.333333333333334,-1000.6666666666666,34.333333333333336,-5.0,18.0,181001.0
00:46:16,RTL,0.005678821665545304,-0.0004742280386077861,-1.9466665188471477,-0.059810559963807464,0.0033133262962413332,-0.014352259847025076,-35.3633807,149.1647979,53363.333333333336,1.0,5.0,-151.33333333333334,0.0,0.0,-996.6666666666666,-57.333333333333336,4.0,-12.0,160057.0
00:46:18,RTL,0.034215749551852546,-0.007433528934294979,-1.8293184439341228,0.00927456592520078,-0.016232258174568415,-0.011278680758550763,-35.363381366666665,149.16479886666667,56427.666666666664,9.0,8.0,-148.0,1.3333333333333333,0.0,-999.6666666666666,11.666666666666666,-14.666666666666666,-9.333333333333334,160057.0
00:46:19,RTL,0.022223643337686855,-0.0037674699754764638,-1.8414982159932454,0.021329734940081835,-0.0055312660212318105,-0.003532225382514298,-35.3633789,149.1647975666667,58329.0,31.666666666666668,-14.666666666666666,-151.66666666666666,1.0,-7.333333333333333,-1005.6666666666666,23.333333333333332,-4.0,-1.6666666666666667,160840.0
00:46:20,RTL,0.03373458298544089,-0.0010968150260547798,-1.8556009928385417,-0.012235318000117937,0.030047882348299026,-0.05046903776625792,-35.3633764,149.1647954,59493.333333333336,45.0,-28.0,-151.33333333333334,1.6666666666666667,-12.0,-998.0,-10.0,30.666666666666668,-48.0,160840.0
00:46:22,RTL,-0.07545737425486247,0.007282863991955916,-1.9587124188741047,0.04333238676190376,-0.006441892124712467,-0.016016025096178055,-35.363370366666665,149.1647911,62593.666666666664,-19.666666666666668,16.0,-152.66666666666666,-0.3333333333333333,2.3333333333333335,-1001.3333333333334,45.0,-5.0,-13.333333333333334,65652.0
00:46:24,RTL,0.04583824301759402,0.00886851514223963,-1.9564343293507893,0.03537463769316673,-0.026216529464970034,0.03026814650123318,-35.363377633333336,149.16479676666665,65705.66666666667,-19.666666666666668,31.333333333333332,-154.66666666666666,-1.0,9.333333333333334,-1000.3333333333334,37.333333333333336,-24.333333333333332,31.666666666666668,65652.0
00:46:25,RTL,-0.005391772060344617,-0.022274229985972244,-1.9178885618845622,-0.05792264019449552,0.05481618021925291,-0.0475083893785874,-35.363377766666666,149.1647978,67647.33333333333,5.666666666666667,-13.666666666666666,-151.0,-0.3333333333333333,-3.3333333333333335,-1000.6666666666666,-55.333333333333336,56.0,-45.333333333333336,196357.0
00:46:26,RTL,-0.029885475213329,0.005555581434843286,-1.9616388082504272,-0.007699122341970603,0.024925128867228825,-0.054436917106310524,-35.363377899999996,149.16479633333333,68805.33333333333,-11.0,-12.666666666666666,-152.33333333333334,-3.3333333333333335,-1.6666666666666667,-1002.0,-5.0,26.0,-52.0,196357.0
00:46:28,RTL,0.019123763777315617,0.019811378171046574,-1.9697311321894329,0.017689495192219813,0.010450118687003851,0.09547390912969907,-35.36338153333333,149.16479653333334,71927.33333333333,-8.0,16.0,-152.0,-0.3333333333333333,3.3333333333333335,-996.3333333333334,19.333333333333332,11.666666666666666,97.0,275902.0
00:46:30,RTL,0.016023355225721996,-0.016270387917757034,-1.8226046562194824,-0.01167411527906855,0.005040677109112342,-0.016192589265604813,-35.3633796,149.16479903333334,74980.66666666667,24.666666666666668,-1.0,-148.0,2.6666666666666665,-3.6666666666666665,-999.6666666666666,-9.0,6.666666666666667,-13.666666666666666,275902.0
00:46:31,RTL,-0.0016235927469097078,0.0012884819104025762,-1.8335363070170085,-0.005894495639950037,0.011990555872519812,-0.013220962757865587,-35.36337696666667,149.16479726666668,76872.66666666667,21.0,-16.0,-151.0,0.0,-5.666666666666667,-1004.0,-3.3333333333333335,13.333333333333334,-11.0,18507.0
00:46:32,RTL,-0.008571055252104998,0.007586320862174034,-1.849344809850057,-0.013025781139731407,0.0069204905691246195,-0.020382711042960484,-35.3633758,149.16479573333334,78034.0,14.0,-13.0,-153.0,-0.6666666666666666,-4.666666666666667,-1000.3333333333334,-10.333333333333334,7.666666666666667,-18.0,18507.0
00:46:34,RTL,-0.00018025484556953111,0.005827882559970021,-1.8391086260477703,0.023359994093577068,-0.01176312038054069,-0.005030950841804345,-35.363375399999995,149.16479446666668,81128.33333333333,-2.6666666666666665,6.666666666666667,-151.66666666666666,0.0,1.3333333333333333,-1001.3333333333334,25.333333333333332,-9.666666666666666,-2.3333333333333335,251973.0
00:46:36,RTL,0.0004647978106125568,0.004924394966413577,-1.8743527730305989,-0.06999403486649196,-0.006210563238710165,-0.03329009376466274,-35.36337293333333,149.16479379999998,84234.0,34.666666666666664,-8.666666666666666,-151.0,3.0,-8.0,-1000.3333333333334,-67.0,-3.6666666666666665,-31.0,251973.0
00:46:37,RTL,-0.0805480033159256,0.0019423985698570807,-1.9185118277867634,-0.04475923255085945,0.0049092342766622705,-0.03250135978062948,-35.363371300000004,149.16479286666666,86155.0,-17.666666666666668,5.0,-150.33333333333334,-1.3333333333333333,0.6666666666666666,-1000.6666666666666,-42.333333333333336,6.333333333333333,-30.0,147668.0
00:46:38,RTL,-0.0683291032910347,0.0063541844331969815,-1.9354023536046345,0.06550093988577525,0.01368285125742356,-0.013178604654967785,-35.363374300000004,149.16479386666666,87297.66666666667,-68.33333333333333,27.0,-149.0,-7.333333333333333,11.666666666666666,-1002.0,67.33333333333333,15.333333333333334,-11.0,147668.0
00:46:40,RTL,0.12199345976114273,-0.022650059933463734,-1.9984501600265503,0.05817257116238276,-0.05326888834436735,-0.02298319824816038,-35.363385300000004,149.16480243333334,90392.66666666667,2.6666666666666665,19.333333333333332,-154.0,1.0,7.333333333333333,-1003.0,59.666666666666664,-50.666666666666664,-21.666666666666668,165663.0
00:46:42,RTL,-0.12157061447699864,0.015357084882756075,-2.1832938194274902,-0.10642164138456185,0.05517026036977768,-0.18759856621424356,-35.363374300000004,149.16478993333334,93356.66666666667,40.666666666666664,-67.33333333333333,-153.0,2.3333333333333335,-24.0,-1031.3333333333333,-103.66666666666667,56.333333333333336,-185.33333333333334,165663.0
00:46:43,RTL,-0.06561580176154773,0.06554555768767993,-2.264608303705851,0.09129140029350917,0.046023644506931305,0.025124842611451943,-35.36337553333333,149.16478866666668,95295.33333333333,-39.666666666666664,53.333333333333336,-148.66666666666666,-5.333333333333333,10.666666666666666,-999.3333333333334,93.0,47.666666666666664,26.333333333333332,106142.0
00:46:44,RTL,-0.0025363946527553103,0.07644686599572499,-2.2430617809295654,0.06341391677657764,-0.026786114283216495,0.03595581650733948,-35.3633777,149.16479513333334,96426.66666666667,-13.666666666666666,102.33333333333333,-148.0,3.0,21.666666666666668,-1002.3333333333334,65.0,-24.666666666666668,37.666666666666664,106142.0
00:46:46,RTL,0.08013394971688588,-0.1513246943553289,-2.1187148094177246,0.050648052245378494,0.016610637307167053,0.050388126323620476,-35.363377,149.16480826666665,99493.66666666667,-4.333333333333333,-65.33333333333333,-147.0,-5.333333333333333,-6.666666666666667,-991.0,53.0,18.333333333333332,51.333333333333336,234992.0
00:46:48,RTL,-0.09093369791905086,0.12704518189032873,-2.1878774960835776,-0.027217956880728405,-0.03321561093131701,0.004823192022740841,-35.3633763,149.16478266666667,102411.66666666667,23.333333333333332,-27.333333333333332,-157.0,0.0,-13.333333333333334,-1009.3333333333334,-24.333333333333332,-30.666666666666668,6.666666666666667,234992.0
00:46:49,RTL,-0.06212742626667023,0.05829065417249998,-2.1306944688161216,0.012953350863729915,-0.10967076569795609,0.09386965011556943,-35.36337509999999,149.16478936666667,104317.0,10.0,112.0,-144.0,13.0,18.666666666666668,-1000.3333333333334,15.0,-107.0,95.33333333333333,293143.0
00:46:50,RTL,-0.04839610308408737,-0.029473293128830846,-2.032845139503479,0.037974185620745025,-0.13332029928763708,0.12514044344425201,-35.3633753,149.16479943333331,105432.0,-12.0,121.66666666666667,-148.66666666666666,13.666666666666666,27.666666666666668,-1010.6666666666666,39.666666666666664,-131.0,126.66666666666667,293143.0
00:46:52,RTL,0.13429738581180573,-0.09355478733778,-1.9058100779851277,0.02018761883179347,0.06302656854192416,0.04305682828028997,-35.363380799999995,149.16480416666667,108503.0,10.333333333333334,-110.33333333333333,-141.33333333333334,-14.333333333333334,-15.0,-992.3333333333334,22.666666666666668,64.33333333333333,45.0,215876.0
00:46:54,RTL,-0.08692390968402226,0.11723425487677257,-2.0137345790863037,0.033947139978408813,-0.02120376688738664,0.014080948196351528,-35.36337493333334,149.16478299999997,111466.33333333333,15.0,21.666666666666668,-153.66666666666666,3.0,-3.0,-998.3333333333334,36.0,-18.666666666666668,15.666666666666666,215876.0
00:46:55,RTL,-0.044015311946471534,0.0342252595971028,-1.9469341039657593,-0.027483471979697544,-0.16040654480457306,0.13662016640106836,-35.3633747,149.16479436666665,113337.66666666667,0.0,127.66666666666667,-144.0,17.333333333333332,21.333333333333332,-1004.3333333333334,-25.0,-157.33333333333334,138.0,33086.0
00:46:56,RTL,-0.05923592671751976,-0.08930032203594844,-1.808854579925537,0.06228548536698023,-0.14528864373763403,0.13485664377609888,-35.36337583333333,149.1648043,114470.0,-35.0,98.66666666666667,-152.33333333333334,13.333333333333334,22.666666666666668,-1016.3333333333334,65.0,-142.66666666666666,136.33333333333334,33086.0
00:46:58,RTL,0.12891544898351034,-0.0403859360764424,-1.6274731159210205,0.0727699485917886,0.1189134915669759,0.12195383757352829,-35.3633845,149.16479963333333,117518.66666666667,6.666666666666667,-116.66666666666667,-145.33333333333334,-23.0,-11.666666666666666,-1008.3333333333334,75.0,120.66666666666667,123.33333333333333,176369.0
00:47:00,RTL,-0.11640691757202148,0.09617819140354793,-1.7456482251485188,-0.08904519801338513,-0.14139578491449356,0.0189437223598361,-35.363370233333335,149.16478356666667,120493.33333333333,69.66666666666667,37.0,-151.33333333333334,19.0,-12.666666666666666,-1015.3333333333334,-86.0,-138.33333333333334,21.0,176369.0
00:47:01,RTL,-0.0663530429204305,0.01710734112809102,-1.6966941356658936,0.09623112032810847,-0.01991085521876812,0.04595817252993584,-35.363369666666664,149.16479333333334,122410.66666666667,-46.666666666666664,89.66666666666667,-148.66666666666666,9.333333333333334,19.666666666666668,-1001.0,98.33333333333333,-17.333333333333332,47.333333333333336,262275.0
00:47:02,RTL,0.021600634790956974,0.02401123351107041,-1.6386673053105671,0.11730144172906876,0.060820166332026325,0.096199964483579,-35.3633733,149.16480113333333,123550.66666666667,-47.333333333333336,94.66666666666667,-150.33333333333334,12.333333333333334,20.666666666666668,-1000.0,119.66666666666667,62.666666666666664,97.66666666666667,262275.0
00:47:04,RTL,0.08107729256153107,0.08936070402463277,-1.3194970687230427,0.04823933355510235,0.012943112601836523,0.03309225725630919,-35.36337266666666,149.16483630000002,125910.0,55.333333333333336,230.66666666666666,-61.0,52.666666666666664,5.0,-942.6666666666666,50.333333333333336,15.0,35.0,161233.0
00:47:06,RTL,0.03130339210232099,0.15787027776241302,-1.365960677464803,-0.12082583705584209,0.013505742962782582,-0.036613923187057175,-35.36335176666666,149.16490083333335,126248.66666666667,159.0,358.6666666666667,10.0,92.0,-9.666666666666666,-988.0,-118.0,15.333333333333334,-34.0,161233.0
00:47:07,RTL,-0.0009670337288601635,0.15860620637734732,-1.3932130336761475,0.004163856307665507,-0.0268308042238156,-0.012958885092909137,-35.36333389999999,149.16495570000004,126116.66666666667,158.0,432.6666666666667,1.6666666666666667,115.0,4.333333333333333,-1009.3333333333334,7.0,-24.333333333333332,-11.333333333333334,196760.0
00:47:08,RTL,-0.010715982566277185,0.1354631781578064,-1.4070709943771362,0.027294571201006573,-0.03370713194211324,-0.02107469628875454,-35.36332356666667,149.16499293333334,126108.66666666667,152.66666666666666,461.3333333333333,-4.0,109.66666666666667,9.0,-1001.3333333333334,30.666666666666668,-31.0,-18.666666666666668,196760.0
00:47:10,RTL,-0.03094632551074028,0.08024188876152039,-1.4400876363118489,-0.056232248122493424,-0.03993262847264608,-0.023106257741649944,-35.36329753333334,149.1650961,126151.66666666667,141.0,453.6666666666667,-3.3333333333333335,110.33333333333333,13.0,-993.0,-53.666666666666664,-37.333333333333336,-21.0,265147.0
00:47:12,RTL,-0.06413580353061359,-0.01352435334896048,-1.4609822432200115,0.07581305503845215,-0.050622752557198204,-0.020686186229189236,-35.3632753,149.16518413333333,126169.33333333333,95.33333333333333,318.6666666666667,0.0,83.66666666666667,15.0,-1000.3333333333334,78.0,-47.666666666666664,-18.666666666666668,265147.0
00:47:13,RTL,-0.06295150890946388,-0.07174509267012279,-1.4691104491551716,0.45007873450716335,-0.01205003634095192,-0.0038438678408662477,-35.3632665,149.1652197,126150.33333333333,43.333333333333336,178.0,2.0,44.333333333333336,23.0,-1008.6666666666666,452.3333333333333,-9.333333333333334,-2.0,66527.0
00:47:14,RTL,-0.048670943826436996,-0.05946959058443705,-1.4770737091700237,-0.2959726055463155,0.033598177755872406,-0.011038703378289938,-35.363263966666665,149.16523180000002,126129.33333333333,19.333333333333332,101.33333333333333,1.3333333333333333,27.333333333333332,3.0,-1010.3333333333334,-293.0,35.333333333333336,-9.0,66527.0
00:47:16,RTL,-0.002646686160005629,-0.024844591195384663,-1.4919721682866414,-0.04593627154827118,0.01755343284457922,-0.006963718061645825,-35.36326233333333,149.1652427,126135.66666666667,0.3333333333333333,3.0,-0.3333333333333333,1.6666666666666667,-8.666666666666666,-1001.0,-43.666666666666664,19.0,-4.666666666666667,125937.0
00:47:18,RTL,-0.000998227692131574,-0.005245330044999719,-1.5040594339370728,0.19929490486780801,-0.013978126148382822,-0.0027630457965036235,-35.363261566666665,149.16524246666668,126138.0,1.0,-5.333333333333333,-0.3333333333333333,0.3333333333333333,3.0,-999.3333333333334,201.66666666666666,-11.333333333333334,-1.0,125937.0
00:47:19,RTL,-0.0046463881541664405,-0.005849208993216355,-1.510547121365865,0.17271952827771506,0.0022725036833435297,-0.003273725121592482,-35.3632611,149.1652417,126135.0,-5.0,-12.0,-0.6666666666666666,-1.0,-2.6666666666666665,-997.0,175.0,4.0,-1.0,120276.0
00:47:20,RTL,-0.008110472602614513,-0.0030513598661248884,-1.5143948396046956,-0.11112675070762634,0.006362201878800988,-0.002104707877151668,-35.36326113333333,149.1652409333333,126131.66666666667,-6.666666666666667,-13.0,-0.3333333333333333,-2.0,3.6666666666666665,-1003.6666666666666,-107.66666666666667,7.666666666666667,-0.3333333333333333,120276.0
00:47:22,RTL,-0.004320271157970031,7.213643160260592e-05,-1.5230850378672283,-0.30083007117112476,0.0002619907803212603,-0.0024354644507790604,-35.363261466666664,149.1652392,126134.0,-5.666666666666667,-8.333333333333334,0.0,-1.6666666666666667,-16.333333333333332,-1001.6666666666666,-298.6666666666667,2.0,-0.3333333333333333,299561.0
00:47:24,RTL,-0.025817159563302994,0.0003225060160427044,-1.5308162768681843,-1.399007519086202,-0.0016866895991067092,-0.008004433009773493,-35.3632614,149.16523833333332,125336.33333333333,-6.333333333333333,-4.0,95.66666666666667,-2.0,-51.333333333333336,-950.6666666666666,-1396.0,0.3333333333333333,-5.666666666666667,299561.0
00:47:25,RTL,-0.009894052248758575,-0.0025559914453576007,-1.5342174371083577,-0.7634239320953687,-0.0018825461156666279,-0.001958953682333231,-35.363262,149.1652382,123976.66666666667,-4.0,-2.6666666666666665,90.66666666666667,-1.6666666666666667,-4.0,-1019.0,-759.6666666666666,-0.3333333333333333,0.6666666666666666,173548.0
00:47:26,RTL,0.015530703899761042,-0.003636227222159505,-1.5370323657989502,1.0314477284749348,0.00015159281125913063,-0.0033580446615815163,-35.363262533333334,149.1652381,123322.33333333333,0.6666666666666666,-2.3333333333333335,81.0,-1.0,66.66666666666667,-992.6666666666666,1034.6666666666667,1.6666666666666667,-1.0,173548.0
00:47:28,RTL,0.03708899145325025,-0.001720510908247282,-1.5434264341990154,0.7677464137474695,0.0012424349940071504,-0.0048705353401601315,-35.36326403333334,149.16523793333332,121333.0,13.333333333333334,-3.0,96.0,-0.3333333333333333,9.333333333333334,-998.0,768.3333333333334,2.6666666666666665,-2.0,27727.0
00:47:30,RTL,0.012185320568581423,-0.0009687352576293051,-1.54872727394104,-1.028361399968465,-0.0018696109764277935,-0.004355595757563909,-35.3632642,149.1652378,119283.0,18.0,-1.0,96.66666666666667,-0.6666666666666666,-66.66666666666667,-998.3333333333334,-1026.6666666666667,0.3333333333333333,-2.3333333333333335,27727.0
00:47:31,RTL,0.011402998430033525,-0.002654263904939095,-1.5517853895823162,-1.5500883261362712,-0.0021127864407996335,-0.007106033153831959,-35.36326496666667,149.1652378,118012.66666666667,22.666666666666668,-1.0,108.0,-1.3333333333333333,-58.333333333333336,-976.0,-1546.6666666666667,-0.3333333333333333,-4.666666666666667,78273.0
00:47:32,RTL,0.015306900876263777,-0.002660210166747371,-1.5533898274103801,-1.434145172437032,0.002346875650497774,-0.002284446149133146,-35.363265500000004,149.1652378,117118.0,28.333333333333332,-1.0,111.66666666666667,-0.6666666666666666,-68.33333333333333,-1003.0,-1430.6666666666667,3.6666666666666665,-0.3333333333333333,78273.0
00:47:34,RTL,0.01804572468002637,0.00021692508016712964,-1.5570931037267048,0.06519729395707448,0.0002551286791761716,0.001451427039379875,-35.363266,149.1652377,115027.66666666667,40.666666666666664,-2.0,101.0,0.0,41.0,-997.6666666666666,71.33333333333333,1.6666666666666667,3.3333333333333335,167111.0
00:47:36,RTL,0.039201460778713226,0.0012004409606258075,-1.5598990122477214,1.0399694641431172,-0.004013717756606638,-0.002485603947813312,-35.3632655,149.1652376,112959.66666666667,36.333333333333336,-1.0,99.0,0.3333333333333333,23.666666666666668,-1022.0,1043.3333333333333,-2.0,0.0,167111.0
00:47:37,RTL,0.03483404343326887,0.0022370549074063697,-1.5618125597635906,0.14080934723218283,0.00362025146993498,-0.00150528767456611,-35.3632654,149.1652375,111682.0,33.666666666666664,0.0,95.66666666666667,0.3333333333333333,-31.0,-1019.0,143.66666666666666,4.666666666666667,1.0,236923.0
00:47:38,RTL,0.013546928142507872,0.0037812093117584786,-1.5631104707717896,-0.9945255915323893,0.003801997285336256,-0.007113895223786433,-35.3632651,149.16523746666667,110982.0,32.666666666666664,0.0,90.66666666666667,1.3333333333333333,-70.66666666666667,-970.3333333333334,-990.3333333333334,4.666666666666667,-4.333333333333333,236923.0
00:47:40,RTL,-0.01285037212073803,0.003078776722153028,-1.5653849045435588,-1.257360299428304,-0.002658095754062136,0.003769141621887684,-35.36326353333333,149.1652373,108973.66666666667,19.666666666666668,1.0,99.66666666666667,0.3333333333333333,-36.0,-999.3333333333334,-1250.6666666666667,-1.0,6.0,226574.0
00:47:42,RTL,0.025157297030091286,0.0027854991300652423,-1.567795991897583,1.338832179705302,0.007731467951089144,0.00616450235247612,-35.3632635,149.16523733333332,107017.0,14.666666666666666,0.3333333333333333,98.66666666666667,0.3333333333333333,58.666666666666664,-1031.0,1345.0,8.666666666666666,8.0,226574.0
00:47:43,RTL,0.013024578336626291,0.005171278957277536,-1.5694995721181233,0.6164287825425466,0.0008275926423569521,-0.0011383076974501212,-35.363262600000006,149.1652373,105731.0,10.0,0.0,105.66666666666667,3.0,-13.333333333333334,-963.0,620.6666666666666,2.3333333333333335,1.6666666666666667,26159.0
00:47:44,RTL,-0.006385900996974669,0.005276994314044714,-1.5701916217803955,-0.3720366383592288,-0.0005439699549848834,-0.012426770602663359,-35.363261666666666,149.1652373,104927.33333333333,2.3333333333333335,0.0,103.0,4.0,-59.666666666666664,-981.0,-367.6666666666667,1.0,-9.333333333333334,26159.0
00:47:46,RTL,-0.02401202917098999,0.002788763570909699,-1.5723244746526082,0.9269242882728577,-0.0011374499493589003,0.007436667336151004,-35.3632595,149.1652374,102764.66666666667,-18.333333333333332,1.0,100.33333333333333,0.0,68.0,-1008.0,934.0,0.0,9.333333333333334,61056.0
00:47:48,RTL,-0.008132011784861485,0.0013718550326302648,-1.5734751224517822,1.2607654730478923,0.003054474713280797,0.0018943859031423926,-35.3632596,149.1652375,100762.0,-24.666666666666668,0.0,100.0,-0.3333333333333333,72.66666666666667,-1005.3333333333334,1267.3333333333333,4.333333333333333,4.0,61056.0
00:47:49,RTL,0.0011488217860460281,0.0019929721020162106,-1.5738386710484822,1.0760284066200256,-0.0005808281518208483,0.003979895186300079,-35.363259633333335,149.1652375,99489.33333333333,-25.333333333333332,0.0,96.33333333333333,0.3333333333333333,31.0,-1017.0,1080.0,0.6666666666666666,6.0,236445.0
00:47:50,RTL,-0.01635052589699626,0.0018036049247408907,-1.574337363243103,-0.4924358328183492,-0.002022276089216272,-0.004401424744476874,-35.363259633333335,149.1652375,98734.66666666667,-27.333333333333332,0.0,98.0,0.0,-50.0,-984.0,-489.3333333333333,0.0,-1.6666666666666667,236445.0
00:47:52,RTL,-0.02316104682783286,0.001537923914535592,-1.5756052335103352,-0.14549188781529665,0.0017449764418415725,0.006373858079314232,-35.36326036666667,149.1652375,96594.33333333333,-20.0,0.0,97.66666666666667,-0.3333333333333333,30.0,-1014.3333333333334,-139.0,2.6666666666666665,9.0,225487.0
00:47:54,RTL,0.009586660812298456,0.0008149080094881356,-1.576109528541565,0.8921118875344595,-0.0042422697103271885,-0.003550901310518384,-35.3632608,149.1652374,94685.33333333333,-17.333333333333332,1.0,99.66666666666667,-0.3333333333333333,14.666666666666666,-1009.0,894.6666666666666,-2.3333333333333335,-0.6666666666666666,225487.0
00:47:55,RTL,0.003127395078384628,0.0004955720893728236,-1.5774725675582886,-0.6856518884499868,0.0026279760835071406,0.0005463126581162214,-35.3632615,149.1652374,93389.66666666667,-12.333333333333334,1.0,105.0,-1.3333333333333333,-61.333333333333336,-999.6666666666666,-683.3333333333334,4.0,3.0,128195.0
00:47:56,RTL,-0.0010044391577442486,0.0009895523447388161,-1.5773571729660034,-0.9823049902915955,0.0003159746217230956,-0.008525773882865906,-35.3632618,149.1652374,92563.0,-9.333333333333334,0.6666666666666666,105.66666666666667,0.6666666666666666,-70.0,-1004.6666666666666,-980.0,2.3333333333333335,-5.333333333333333,128195.0
00:47:58,RTL,-0.021362089241544407,0.004086305076877276,-1.5782808860143025,-1.3037736018498738,0.0038126131209234395,-0.0024875087353090444,-35.363261566666665,149.16523733333332,90608.66666666667,-6.333333333333333,0.0,99.66666666666667,1.0,-71.66666666666667,-990.6666666666666,-1301.0,5.0,0.6666666666666666,99278.0
00:48:00,RTL,-0.004464849131181836,0.0029982858492682376,-1.5784638325373332,1.1164172291755676,-0.00016504840459674597,0.006952809247498711,-35.3632609,149.1652372,88584.33333333333,-11.333333333333334,2.0,100.33333333333333,-0.3333333333333333,68.66666666666667,-1007.3333333333334,1121.0,1.3333333333333333,9.333333333333334,99278.0
00:48:01,RTL,0.012430638074874878,0.002245302894152701,-1.5788949728012085,1.3169183731079102,0.0007249546470120549,0.005474871334930261,-35.36326103333334,149.16523723333333,87289.33333333333,-12.0,2.0,108.66666666666667,-0.3333333333333333,37.666666666666664,-1008.6666666666666,1319.3333333333333,2.0,8.0,269093.0
00:48:02,RTL,0.011556351557374,0.000341117096392433,-1.5795057614644368,0.8217730422814687,-0.002563910558819771,-0.0015120025879393022,-35.36326113333333,149.16523733333335,86435.66666666667,-12.0,1.6666666666666667,110.33333333333333,-1.0,5.333333333333333,-1018.6666666666666,823.3333333333334,-0.6666666666666666,1.3333333333333333,269093.0
00:48:04,RTL,-0.01326382781068484,0.0006159986854375651,-1.5794732570648193,-1.4489802122116089,-0.0031436833863457045,0.004074688069522381,-35.3632618,149.1652374,84336.33333333333,-7.666666666666667,1.0,100.33333333333333,-0.6666666666666666,-65.0,-1005.3333333333334,-1446.0,-1.3333333333333333,6.333333333333333,32716.0
00:48:06,RTL,-0.001758432403827707,0.0018907747774695356,-1.5805734793345134,-0.006079003214836121,0.004185078277563055,0.004526133416220546,-35.36326283333334,149.1652374,82358.0,3.0,1.0,100.0,-0.6666666666666666,38.333333333333336,-1013.0,-0.6666666666666666,5.666666666666667,6.666666666666667,32716.0
00:48:07,RTL,0.010950406392415365,0.003652099830408891,-1.5810896555582683,1.273081660270691,0.005700501729734242,0.007268977041045825,-35.3632629,149.1652373,81077.0,7.0,0.3333333333333333,102.0,1.0,73.66666666666667,-1003.6666666666666,1277.0,7.333333333333333,9.666666666666666,250379.0
00:48:08,RTL,0.004382295534014702,0.004140698118135333,-1.581382950146993,1.2991937001546223,0.0013690904791777332,0.006823563094561298,-35.36326246666667,149.1652373,80267.66666666667,5.333333333333333,0.6666666666666666,103.33333333333333,1.0,75.0,-1008.6666666666666,1303.3333333333333,2.6666666666666665,9.333333333333334,250379.0
00:48:10,RTL,0.01549214186767737,0.0008293913560919464,-1.5810779730478923,0.964819331963857,-0.007938348532964786,-0.001967546995729208,-35.36326183333333,149.16523733333335,78212.33333333333,-3.3333333333333335,1.6666666666666667,98.66666666666667,-0.6666666666666666,15.666666666666666,-1016.3333333333334,966.6666666666666,-5.666666666666667,0.3333333333333333,231840.0
00:48:11,RTL,0.015678989080091316,-0.0025396897302319608,-1.5817471742630005,-0.992960254351298,-0.0018841774047662814,0.0004885828432937463,-35.36326306666666,149.16523753333334,77090.33333333333,1.3333333333333333,1.0,89.0,-2.6666666666666665,-62.0,-995.3333333333334,-990.3333333333334,0.0,3.3333333333333335,231840.0
00:48:13,RTL,0.020694727698961895,-0.0005520394382377466,-1.5810941457748413,-0.7760376234849294,0.005552334090073903,-0.0032505604904145002,-35.36326576666667,149.1652376,75071.0,27.0,0.0,99.66666666666667,-3.0,-0.6666666666666666,-997.6666666666666,-770.3333333333334,7.0,0.0,157147.5
00:48:15,RTL,0.03473935772975286,0.005542133003473282,-1.5818722248077393,1.2967442671457927,0.004068586975336075,0.007491193090875943,-35.363265866666666,149.16523733333332,73035.66666666667,40.666666666666664,0.0,100.0,1.0,50.333333333333336,-1015.3333333333334,1301.6666666666667,5.666666666666667,9.666666666666666,82455.0
00:48:16,RTL,0.031344057992100716,0.00674567340562741,-1.581701437632243,1.1831279198328655,-0.0007363538801049193,0.0016673776941994827,-35.3632651,149.16523726666665,72260.0,35.333333333333336,0.0,100.0,3.6666666666666665,27.666666666666668,-1014.3333333333334,1187.0,1.0,4.333333333333333,236061.0
00:48:17,RTL,0.004500001775644098,0.006683800369501114,-1.581143816312154,0.3437546541293462,0.000220949063077569,-0.0012573928106576204,-35.363263,149.1652372,71002.33333333333,20.0,0.3333333333333333,100.66666666666667,4.0,-26.0,-974.0,458.5,1.0,1.5,236061.0
00:48:19,RTL,-0.03424610880513986,0.00379473987656335,-1.5830610593159993,-1.495620568593343,0.002010466104062895,-0.0023207146053512893,-35.36326056666667,149.1652373,68957.0,-8.333333333333334,1.0,108.33333333333333,3.0,-65.0,-1003.0,-1430.5,0.0,3.0,164195.0
00:48:21,RTL,-0.027129318565130234,0.0014586723409593105,-1.5820249915122986,-0.10325668472796679,-0.0016881403280422091,0.0004513575113378465,-35.363260049999994,149.1652374,66919.0,-19.0,2.0,101.0,-1.0,34.0,-1001.5,-97.0,0.0,3.5,92329.0
00:48:22,RTL,-0.01488951570354402,0.0005791581934317946,-1.5820075273513794,0.5456638112664223,0.0007608323357999325,0.0024078984861262143,-35.36326035,149.1652374,66150.75,-18.0,1.0,100.5,-1.0,63.5,-975.25,551.75,2.5,5.0,207149.0
00:48:23,RTL,0.008718118304386735,0.0023734132992103696,-1.5818243622779846,1.2938257455825806,0.007201899075880647,0.0064661563374102116,-35.3632607,149.1652374,64993.0,-15.5,0.0,92.5,-1.0,46.5,-975.0,1297.5,9.0,9.0,207149.0
00:48:25,RTL,-0.003183982626069337,0.0032729122322052717,-1.5825634598731995,-0.4275163412094116,-0.005768737755715847,-0.004586335737258196,-35.3632607,149.16523734999998,62963.5,-17.0,1.0,101.5,0.5,-55.0,-994.5,-425.0,-3.0,-1.5,190277.5
00:48:27,RTL,-0.01824870239943266,0.002155469381250441,-1.582305133342743,-1.208159863948822,0.00221568054985255,-0.0025181162636727095,-35.3632608,149.1652373,60855.5,-16.0,1.0,99.5,-0.5,-74.5,-1002.5,-1205.5,3.5,1.0,173406.0
00:48:28,RTL,-0.021535422187298536,0.0020541677658911794,-1.5826074182987213,-1.3347184658050537,0.0014300490729510784,0.0011629978544078767,-35.36326095,149.1652373,60093.0,-15.0,1.0,102.0,-0.5,-61.75,-996.25,-1331.25,3.5,3.75,271462.0
00:48:29,RTL,-0.018945693969726562,0.0018799221143126488,-1.5823755264282227,-0.16839825548231602,0.004092846880666912,0.006131049245595932,-35.3632612,149.1652373,58849.5,-10.5,1.0,100.0,-0.5,29.0,-991.5,-163.0,6.0,9.0,271462.0
00:48:31,RTL,0.011442853836342692,0.0011324252700433135,-1.5824348330497742,1.3256325721740723,-0.001753330696374178,0.0029093134216964245,-35.363261249999994,149.1652373,56810.0,-11.0,2.0,99.0,-1.0,60.0,-995.5,1329.0,0.5,5.5,144275.5
00:48:33,RTL,0.019340828992426395,0.0004116262716706842,-1.5826263427734375,0.0318385511636734,-0.0010278545087203383,-0.002567506395280361,-35.36326245,149.1652374,54712.0,-2.5,1.0,100.5,0.0,-36.0,-968.0,33.5,1.0,0.5,17089.0
00:48:34,RTL,0.011922446545213461,0.0004898052357020788,-1.583031415939331,-0.7586485743522644,-0.0005362287629395723,-0.007079593720845878,-35.363262775,149.1652374,53949.0,-0.25,0.0,102.25,-0.25,-68.25,-979.0,-756.75,1.75,-4.0,85815.0
00:48:35,RTL,-0.009154769591987133,0.0017691548564471304,-1.5824205875396729,-1.0838052332401276,-0.0015843778382986784,-0.0024428103351965547,-35.3632631,149.1652374,52750.5,6.0,0.0,95.0,-2.5,-26.5,-977.0,-1079.5,1.0,1.0,85815.0
00:48:37,RTL,-0.00928416382521391,0.0018568551167845726,-1.5827068090438843,-0.21273262426257133,0.003813986317254603,0.006482797907665372,-35.3632631,149.1652374,50713.5,9.5,0.0,103.0,1.0,22.5,-1021.0,-207.0,5.5,9.5,159353.5
00:48:39,RTL,0.00891244038939476,0.0020499208476394415,-1.5826833248138428,1.036956787109375,0.00026555656222626567,0.0069605037569999695,-35.363263,149.1652374,48645.0,10.5,0.0,98.5,0.0,71.5,-1011.5,1041.5,2.0,10.0,232892.0
00:48:40,RTL,0.014054385130293667,0.0023945775465108454,-1.5827534198760986,1.351598709821701,0.002111668698489666,0.005746168491896242,-35.363262825,149.1652374,47879.0,8.75,0.0,98.75,-0.25,66.0,-1021.5,1355.5,4.0,8.5,74435.0
00:48:41,RTL,0.013207996264100075,0.0003929987142328173,-1.5831987857818604,1.345241129398346,-0.0009012757800519466,-0.0029427470872178674,-35.363262950000006,149.1652374,46473.0,9.5,1.0,110.0,-2.5,83.5,-1009.5,1349.5,1.5,0.0,74435.0
00:48:43,RTL,0.045110536739230156,0.0007998811342986301,-1.5825265049934387,0.6313108503818512,0.0014084656722843647,-0.005328518687747419,-35.36326485,149.1652375,44375.5,22.0,0.0,100.5,0.0,-7.5,-1004.5,633.5,3.0,-2.0,159532.0
00:48:45,RTL,-0.010415342170745134,0.004790102364495397,-1.582488477230072,-1.237786591053009,0.002694634662475437,-0.0012202454963698983,-35.36326405,149.1652374,42476.5,23.0,0.0,98.5,0.0,-44.5,-1053.0,-1233.0,4.5,2.0,244629.0
00:48:46,RTL,-0.015394809423014522,0.004490364342927933,-1.5827719569206238,-0.9085866510868073,-0.0021012128272559494,0.002000808424782008,-35.36326345,149.165237325,41711.75,18.5,0.25,101.0,0.25,-11.25,-990.25,-902.0,0.0,5.0,42429.0
00:48:47,RTL,-0.0010028713149949908,0.003034815308637917,-1.5824899673461914,0.5163408368825912,-0.006592377554625273,0.0041698128916323185,-35.363263,149.1652373,40507.5,11.5,1.0,93.0,2.0,56.5,-978.5,523.0,-4.0,7.0,42429.0
00:48:49,RTL,0.02281298767775297,0.0024824938736855984,-1.5826970338821411,0.7954850494861603,-0.0016158150392584503,-0.0016267147148028016,-35.363263,149.1652374,38466.0,9.5,1.0,99.5,0.5,3.0,-1013.0,799.0,0.5,1.0,153170.5
00:48:51,RTL,-0.009837455116212368,0.0027224734658375382,-1.583674132823944,-1.296700656414032,-0.0005701931659132242,-0.0051121332217007875,-35.36326255,149.1652374,36435.5,4.5,0.0,101.0,1.5,-77.0,-976.0,-1292.5,1.5,-1.0,263912.0
00:48:52,RTL,-0.011454334249719977,0.0027230874402448535,-1.5828072130680084,-1.3687719702720642,-0.002044119290076196,-0.002037398051470518,-35.36326235,149.1652374,35671.75,1.5,0.0,99.0,0.0,-67.5,-1007.5,-1364.25,0.5,1.25,22853.0
00:48:53,RTL,-0.011155443731695414,0.0038019057828933,-1.5838937163352966,-1.417699933052063,-0.002623430686071515,0.003999998443759978,-35.36326205,149.1652374,34253.0,0.5,0.0,119.0,0.5,-76.5,-1024.0,-1413.5,0.0,7.0,22853.0
00:48:55,RTL,0.004201284667942673,0.0005197030550334603,-1.5830388069152832,0.11852052342146635,0.003024954115971923,0.002372624003328383,-35.36326285,149.1652374,32108.5,3.0,1.5,102.5,-1.5,46.0,-989.0,126.0,5.0,5.5,118584.5
00:48:57,RTL,0.023929026909172535,0.004071987816132605,-1.5837169885635376,1.3639931678771973,0.0038993856869637966,-0.00266855675727129,-35.3632634,149.1652372,30194.0,11.5,2.0,104.0,-0.5,71.0,-1013.5,1370.0,6.5,0.5,214316.0
00:48:58,RTL,0.02869689604267478,0.003085561969783157,-1.5831864178180695,1.2561439871788025,5.957647226750851e-05,0.0020464928820729256,-35.363263525,149.1652372,29426.25,12.0,2.0,102.5,0.25,36.75,-1023.5,1260.5,2.5,5.75,277713.0
00:48:59,RTL,0.027712171897292137,0.004043044988065958,-1.5835357904434204,1.2252652645111084,-5.349743878468871e-05,0.004077201941981912,-35.36326355,149.1652372,28068.0,13.5,1.5,112.5,1.0,32.5,-1020.0,1229.5,1.5,7.0,277713.0
00:49:01,RTL,-0.0057157870614901185,0.003648453624919057,-1.5829559564590454,-1.102675199508667,-0.002660148311406374,-0.0064697484485805035,-35.36326245,149.1652372,25956.0,4.0,2.0,102.0,1.5,-65.0,-986.5,-1098.0,0.0,-2.5,223140.5
00:49:03,RTL,0.006889668060466647,0.001693419588264078,-1.5832240581512451,1.0383440256118774,0.0027271329890936613,0.0046089248498901725,-35.3632623,149.1652374,24194.0,3.0,1.0,102.0,0.0,73.5,-984.5,1045.0,5.0,7.5,168568.0
00:49:04,RTL,0.011953882873058319,0.0019111422298010439,-1.5826846957206726,1.3650142550468445,0.0048135173274204135,0.00850854441523552,-35.3632623,149.1652374,23416.25,2.25,0.25,102.0,0.0,65.25,-1011.5,1371.25,7.25,11.75,146787.0
00:49:05,RTL,0.016953407786786556,0.0023578708060085773,-1.5826183557510376,1.1900720000267029,0.0009794599609449506,-0.0011774097802117467,-35.36326215,149.1652374,22121.0,0.0,0.0,103.0,0.5,30.5,-1015.5,1194.5,3.5,2.5,146787.0
00:49:07,RTL,-0.0037281212862581015,0.003790364135056734,-1.582022488117218,-0.6027781069278717,0.0050998597871512175,-0.004487798549234867,-35.3632612,149.1652374,20070.5,-7.0,0.0,102.5,0.5,-64.5,-969.5,-599.0,7.5,0.0,155744.0
00:49:09,RTL,-0.03043529950082302,0.0020230283262208104,-1.5830178260803223,-1.2937074303627014,2.601579762995243e-05,-0.0023964550346136093,-35.36326045,149.1652374,17965.5,-16.5,1.0,101.5,0.0,-40.0,-1028.5,-1287.5,2.5,1.0,164701.0
00:49:10,RTL,-0.02942170901224017,0.0012448013294488192,-1.5833330154418945,-0.8145209103822708,-0.002583890745881945,0.008967935806140304,-35.363260475,149.1652374,17200.25,-16.5,1.0,98.75,-0.25,-3.5,-1005.0,-807.5,0.0,12.25,134804.0
00:49:11,RTL,-0.015532148070633411,0.0014301883056759834,-1.5834088921546936,0.37923674285411835,8.086208254098892e-05,0.0017572049982845783,-35.3632606,149.1652374,15866.0,-15.0,0.0,103.5,0.0,52.5,-1009.0,386.0,3.0,5.5,134804.0
00:49:13,RTL,0.015730601735413074,-0.00091666413936764,-1.5822488069534302,1.1818391680717468,-0.0035593711072579026,0.00017925165593624115,-35.36326115,149.1652376,13791.5,-14.0,0.0,100.0,-1.0,30.5,-967.0,1185.5,-0.5,3.5,126168.0
00:49:15,RTL,-0.005788629874587059,-0.001306802616454661,-1.5828259587287903,-1.44715416431427,-0.0005375641630962491,-0.0009411487262696028,-35.363262649999996,149.1652378,11928.5,-0.5,-1.0,99.5,-1.0,-59.5,-995.5,-1442.5,2.5,2.5,117532.0
00:49:16,RTL,-0.001335168315563351,-0.0008448434673482552,-1.5828110575675964,-0.35531874001026154,0.0010906762909144163,0.0014141889405436814,-35.363263,149.1652378,11245.75,4.75,-1.75,72.25,-1.0,10.0,-1054.0,-349.0,3.25,4.5,290326.0
00:49:17,RTL,0.019263015128672123,-0.00107493982068263,-1.5826210975646973,-0.16528692841529846,-0.0009423882002010942,-0.0025918009923771024,-35.3632635,149.1652378,10646.0,8.5,-1.0,32.5,-1.0,-27.5,-986.5,-161.5,1.5,1.0,290326.0
00:49:19,RTL,0.021178418770432472,-0.0010323028836864978,-1.5826969742774963,-0.7818830013275146,0.00263662647921592,0.001128324423916638,-35.36326495,149.16523775000002,9960.0,21.5,-1.0,34.5,-2.0,-36.0,-993.5,-776.5,5.0,4.5,205009.5
00:49:21,RTL,0.01973033184185624,0.0023916197242215276,-1.5829603672027588,0.07757236063480377,0.0046692019095644355,0.0029377383179962635,-35.363265549999994,149.16523755,9228.0,34.5,-1.0,35.0,1.0,24.5,-1006.0,85.0,7.0,6.5,119693.0
00:49:22,RTL,0.01769364025494724,0.003722573514096439,-1.582452416419983,-0.03992753475904465,0.0013110772124491632,-0.0017316790763288736,-35.363265175,149.165237475,8971.0,32.5,-0.5,32.75,2.0,-14.5,-1009.75,-34.25,3.5,2.0,253362.0
00:49:23,RTL,0.0045042665442451835,0.005846080835908651,-1.582684576511383,0.1586085855960846,0.001493200659751892,-0.0012114447308704257,-35.3632638,149.16523734999998,8761.0,24.0,0.0,-4.0,3.0,-12.0,-1009.0,164.5,4.0,2.0,253362.0
00:49:25,RTL,-0.014510237146168947,0.004797032801434398,-1.582427442073822,0.5323013663291931,-0.004044859088025987,0.0026790923438966274,-35.3632609,149.1652373,8835.0,-2.5,1.0,-0.5,1.5,17.0,-999.0,538.5,-1.0,6.5,198479.0
00:49:27,RTL,-0.01306479494087398,0.0005186431662878022,-1.582092821598053,0.18206853419542313,-0.002774001390207559,0.0029735262505710125,-35.36326015,149.16523745,8841.5,-17.5,1.0,0.0,-0.5,20.0,-998.0,189.0,-0.5,6.5,143596.0
00:49:28,RTL,-0.008736182848224416,5.7167515478795394e-05,-1.582478553056717,-0.008080389350652695,-0.00020326010417193174,-0.0009948936640284956,-35.3632604,149.1652375,8840.5,-18.25,0.5,0.25,-0.25,1.0,-1000.25,-2.0,2.0,2.5,182652.0
00:49:29,RTL,-0.013190166559070349,0.0004549924342427403,-1.5824335813522339,-0.3912828862667084,0.0015514297410845757,0.0019229997415095568,-35.36326095,149.1652375,8840.0,-15.0,0.0,2.5,0.0,-2.5,-977.5,-384.0,3.5,5.5,182652.0
00:49:31,RTL,-0.01458763051778078,0.0002443072044115979,-1.5825218558311462,-0.49835236370563507,-0.0010028929100371897,-0.001109954435378313,-35.363261249999994,149.1652375,8242.0,-9.5,0.0,31.0,-1.0,-4.0,-1011.5,-492.0,1.0,2.5,105500.5
00:49:33,RTL,0.017425385303795338,-0.0017934030620381236,-1.5825876593589783,0.5861571431159973,-0.0013184872805140913,0.0025841572787612677,-35.3632628,149.1652376,7541.0,0.5,0.0,31.5,-2.5,40.0,-1011.5,592.5,1.0,6.0,28349.0
00:49:35,RTL,0.0260581960901618,-0.0006480448064394295,-1.5823441743850708,0.21332578361034393,0.0009493374964222312,0.005088778678327799,-35.3632643,149.1652377,6865.0,15.5,-1.0,32.5,-1.5,-12.5,-989.5,218.5,3.0,8.5,136177.0
00:49:37,RTL,0.006995359435677528,0.002691686851903796,-1.5825046300888062,-0.6341448873281479,0.0030421949923038483,-0.003526453161612153,-35.36326425,149.1652376,6181.0,21.0,-1.0,32.5,1.5,-40.0,-992.5,-628.5,5.5,0.0,84887.0
00:49:40,RTL,0.003909701365046203,0.001382301896228455,-1.5821934640407562,0.19597415952011943,-0.0008085346198640764,0.0014234073460102081,-35.363262625,149.1652375,5227.25,7.0,0.0,32.0,0.25,2.0,-1000.5,202.25,1.5,4.75,66700.0
00:49:46,RTL,0.01355357188731432,0.0015848437906242907,-1.5823150873184204,0.4196711294353008,0.001503490551840514,-0.00021541077876463532,-35.3632634,149.1652377,3199.25,12.75,-1.75,32.25,0.0,10.25,-1001.5,426.75,3.75,3.25,59895.0
00:49:47,RTL,-0.011388114653527737,0.0034187912242487073,-1.5823510885238647,-0.12120087444782257,0.00149345223326236,0.0013384483754634857,-35.363262500000005,149.1652376,2780.0,8.5,-1.0,30.5,2.0,16.0,-985.0,-113.0,3.5,5.0,59895.0
00:49:52,RTL,-0.016964593203738332,-0.0003863631318381522,-1.5820623636245728,-0.33841101825237274,-0.00022168824216350913,-0.0018252775771543384,-35.36326055,149.1652377,1110.5,-16.5,-1.0,30.75,-0.25,-3.25,-990.5,-331.0,1.5,1.5,55057.0
00:49:53,RTL,-0.011942369164898992,-5.321920252754353e-05,-1.582333505153656,-0.6205816864967346,-0.0020903265103697777,-0.00016578007489442825,-35.3632608,149.1652377,702.5,-15.5,-1.0,27.0,0.0,-35.0,-999.5,-614.0,0.5,3.0,55057.0
00:49:55,RTL,-0.01554807461798191,0.0023478332441300154,-1.5808219909667969,-0.002634746255353093,0.0011281836777925491,-0.00045066361781209707,-35.36326055,149.16523784999998,139.5,1.5,5.0,0.0,0.0,0.5,-999.0,3.0,3.0,3.0,90286.5
00:49:57,RTL,-0.017719797790050507,0.003345689154230058,-1.5819059610366821,-0.0026474311016499996,0.0010472071589902043,-0.0004810425452888012,-35.36326085,149.1652381,101.5,-19.5,3.0,0.0,0.0,0.0,-1000.0,3.0,3.0,3.0,125516.0
00:49:59,RTL,-0.014980616047978401,0.0041285373736172915,-1.5824260115623474,-0.0022522960789501667,0.0010043875081464648,-0.0005549982888624072,-35.3632614,149.1652382,65.0,-24.0,4.0,1.0,0.0,0.0,-1000.0,3.0,3.0,3.0,125516.0
00:50:01,RTL,-0.01050594076514244,0.004376106895506382,-1.5827481746673584,-0.0019596549682319164,0.0008461844408884645,-0.0005417163483798504,-35.3632612,149.1652382,37.0,-17.5,4.0,0.5,0.0,0.0,-1000.0,3.0,3.0,3.0,125516.0
00:50:03,RTL,-0.008156887876490751,0.004424062712738912,-1.5835988918940227,-0.0016853437603761752,0.0007596894477804502,-0.0005077938549220562,-35.363260966666665,149.1652382,27.333333333333332,-12.0,4.0,0.0,0.0,0.0,-1000.0,3.0,3.0,3.0,125516.0
