time_stamp,MODE,lat,lon,relative_alt,roll,pitch,yaw,rollspeed,pitchspeed,yawspeed,xacc,yacc,zacc,xgyro,ygyro,zgyro,vx,vy,vz,RTL_ALT
03:39:37.214,STABILIZE,-35.3632621,149.1652374,0,-0.00024453591322526336,0.001563076046295464,0.028046054765582085,0.00022587337298318744,0.0002539459092076868,0.00245551741681993,0,1,-1000,0,0,0,-1,0,-4,1500.0
03:39:37.415,STABILIZE,-35.3632621,149.1652374,0,-0.00024453591322526336,0.001563076046295464,0.028046054765582085,0.00022587337298318744,0.0002539459092076868,0.00245551741681993,0,1,-1000,0,0,0,-1,0,-4,1500.0
03:39:37.616,STABILIZE,-35.3632621,149.1652374,0,-0.00024453591322526336,0.001563076046295464,0.028046054765582085,0.00022587337298318744,0.0002539459092076868,0.00245551741681993,0,1,-1000,0,0,0,-1,0,-4,1500.0
03:39:37.816,STABILIZE,-35.3632621,149.1652374,0,-0.00024453591322526336,0.001563076046295464,0.028046054765582085,0.00022587337298318744,0.0002539459092076868,0.00245551741681993,0,1,-1000,0,0,0,-1,0,-4,1500.0
03:39:38.017,STABILIZE,-35.3632621,149.1652374,0,-0.00024453591322526336,0.001563076046295464,0.028046054765582085,0.00022587337298318744,0.0002539459092076868,0.00245551741681993,0,1,-1000,0,0,0,-1,0,-4,1500.0
03:39:38.218,STABILIZE,-35.3632621,149.1652374,0,-0.00024453591322526336,0.001563076046295464,0.028046054765582085,0.00022587337298318744,0.0002539459092076868,0.00245551741681993,0,1,-1000,0,0,0,-1,0,-4,1500.0
03:39:38.419,STABILIZE,-35.3632621,149.1652374,0,-0.00024453591322526336,0.001563076046295464,0.028046054765582085,0.00022587337298318744,0.0002539459092076868,0.00245551741681993,0,1,-1000,0,0,0,-1,0,-4,1500.0
03:39:38.619,STABILIZE,-35.3632621,149.1652374,0,-0.00024453591322526336,0.001563076046295464,0.028046054765582085,0.00022587337298318744,0.0002539459092076868,0.00245551741681993,0,1,-1000,0,0,0,-1,0,-4,1500.0
03:39:38.820,STABILIZE,-35.3632621,149.1652374,0,-0.00024453591322526336,0.001563076046295464,0.028046054765582085,0.00022587337298318744,0.0002539459092076868,0.00245551741681993,0,1,-1000,0,0,0,-1,0,-4,1500.0
03:39:39.021,STABILIZE,-35.3632621,149.1652374,0,-0.00024453591322526336,0.001563076046295464,0.028046054765582085,0.00022587337298318744,0.0002539459092076868,0.00245551741681993,0,1,-1000,0,0,0,-2,0,-4,1500.0
03:39:39.222,STABILIZE,-35.3632621,149.1652374,0,-0.00024453591322526336,0.001563076046295464,0.028046054765582085,0.00022587337298318744,0.0002539459092076868,0.00245551741681993,0,1,-1000,0,0,0,-2,0,-4,1500.0
03:39:39.423,STABILIZE,-35.3632621,149.1652374,0,-0.00024453591322526336,0.001563076046295464,0.028046054765582085,0.00022587337298318744,0.0002539459092076868,0.00245551741681993,0,1,-1000,0,0,0,-2,0,-4,1500.0
03:39:39.625,STABILIZE,-35.3632621,149.1652374,0,-0.00024453591322526336,0.001563076046295464,0.028046054765582085,0.00022587337298318744,0.0002539459092076868,0.00245551741681993,0,1,-1000,0,0,0,-2,0,-4,1500.0
03:39:39.826,STABILIZE,-35.3632621,149.1652374,0,-0.00024453591322526336,0.001563076046295464,0.028046054765582085,0.00022587337298318744,0.0002539459092076868,0.00245551741681993,0,1,-1000,0,0,0,-2,0,-4,1500.0
03:39:40.027,STABILIZE,-35.3632621,149.1652374,0,-0.00024453591322526336,0.001563076046295464,0.028046054765582085,0.00022587337298318744,0.0002539459092076868,0.00245551741681993,0,1,-1000,0,0,0,-2,0,-4,1500.0
03:39:40.228,STABILIZE,-35.3632621,149.1652374,0,-0.00024453591322526336,0.001563076046295464,0.028046054765582085,0.00022587337298318744,0.0002539459092076868,0.00245551741681993,0,1,-1000,0,0,0,-2,0,-4,1500.0
03:39:40.429,STABILIZE,-35.3632621,149.1652374,0,-0.00024453591322526336,0.001563076046295464,0.028046054765582085,0.00022587337298318744,0.0002539459092076868,0.00245551741681993,0,1,-1000,0,0,0,-2,0,-4,1500.0
03:39:40.630,STABILIZE,-35.3632621,149.1652374,0,-0.00024453591322526336,0.001563076046295464,0.028046054765582085,0.00022587337298318744,0.0002539459092076868,0.00245551741681993,0,1,-1000,0,0,0,-2,0,-4,1500.0
03:39:40.831,STABILIZE,-35.3632622,149.1652374,0,-0.00013257117825560272,0.001200433005578816,0.026019413024187088,0.0003180144994985312,0.0002543450682424009,0.0019618566147983074,0,1,-1000,0,0,0,-1,1,-2,1500.0
03:39:41.032,STABILIZE,-35.3632622,149.1652374,0,-0.00013257117825560272,0.001200433005578816,0.026019413024187088,0.0003180144994985312,0.0002543450682424009,0.0019618566147983074,0,1,-1000,0,0,0,-1,1,-2,1500.0
03:39:41.234,STABILIZE,-35.3632622,149.1652374,0,-0.00020590181520674378,0.0011135370004922152,0.025747686624526978,0.0002518294204492122,0.00024269911227747798,0.002143336459994316,0,1,-1000,0,0,0,-1,1,-2,1500.0
03:39:41.435,STABILIZE,-35.3632622,149.1652374,0,-0.00020590181520674378,0.0011135370004922152,0.025747686624526978,0.0002518294204492122,0.00024269911227747798,0.002143336459994316,0,1,-1000,0,0,0,-1,1,-2,1500.0
03:39:41.636,STABILIZE,-35.3632622,149.1652374,0,-0.00020590181520674378,0.0011135370004922152,0.025747686624526978,0.0002518294204492122,0.00024269911227747798,0.002143336459994316,0,1,-1000,0,0,0,-1,1,-2,1500.0
03:39:41.837,STABILIZE,-35.3632622,149.1652375,0,-0.00029370124684646726,0.0010510642314329743,0.025488538667559624,0.00010528648272156715,0.0003002191660925746,0.001980350585654378,0,1,-1000,0,0,0,-1,1,-1,1500.0
03:39:42.041,STABILIZE,-35.3632622,149.1652375,0,-0.00029370124684646726,0.0010510642314329743,0.025488538667559624,0.00010528648272156715,0.0003002191660925746,0.001980350585654378,0,1,-1000,0,0,0,-1,1,-1,1500.0
03:39:42.242,STABILIZE,-35.3632622,149.1652375,0,-0.00029370124684646726,0.0010510642314329743,0.025488538667559624,0.00010528648272156715,0.0003002191660925746,0.001980350585654378,0,1,-1000,0,0,0,-1,1,-1,1500.0
03:39:42.445,STABILIZE,-35.3632622,149.1652375,0,-0.00029370124684646726,0.0010510642314329743,0.025488538667559624,0.00010528648272156715,0.0003002191660925746,0.001980350585654378,0,1,-1000,0,0,0,-1,1,-1,1500.0
03:39:42.647,STABILIZE,-35.3632622,149.1652375,0,-0.00029370124684646726,0.0010510642314329743,0.025488538667559624,0.00010528648272156715,0.0003002191660925746,0.001980350585654378,0,1,-1000,0,0,0,-1,1,-1,1500.0
03:39:42.849,STABILIZE,-35.3632622,149.1652376,0,-0.00018779331003315747,0.0009788929019123316,0.025001661852002144,7.226911839097738e-05,0.0002229259116575122,0.0019246137235313654,0,1,-1000,0,0,0,-1,3,1,1500.0
03:39:43.051,STABILIZE,-35.3632621,149.1652376,0,-0.0003048515063710511,0.0009753264603205025,0.024849610403180122,0.00020423129899427295,0.0003159536572638899,0.001976474653929472,0,1,-1000,0,0,0,-1,3,1,1500.0
03:39:43.252,STABILIZE,-35.3632621,149.1652376,0,-0.0003048515063710511,0.0009753264603205025,0.024849610403180122,0.00020423129899427295,0.0003159536572638899,0.001976474653929472,0,1,-1000,0,0,0,-1,3,1,1500.0
03:39:43.453,STABILIZE,-35.3632621,149.1652376,0,-0.0003048515063710511,0.0009753264603205025,0.024849610403180122,0.00020423129899427295,0.0003159536572638899,0.001976474653929472,0,1,-1000,0,0,0,-1,3,1,1500.0
03:39:43.655,STABILIZE,-35.3632621,149.1652376,0,-0.0003048515063710511,0.0009753264603205025,0.024849610403180122,0.00020423129899427295,0.0003159536572638899,0.001976474653929472,0,1,-1000,0,0,0,-1,3,1,1500.0
03:39:43.856,STABILIZE,-35.3632621,149.1652376,0,-0.0003048515063710511,0.0009753264603205025,0.024849610403180122,0.00020423129899427295,0.0003159536572638899,0.001976474653929472,0,1,-1000,0,0,0,-1,3,1,1500.0
03:39:44.057,STABILIZE,-35.3632621,149.1652376,0,-0.0003048515063710511,0.0009753264603205025,0.024849610403180122,0.00020423129899427295,0.0003159536572638899,0.001976474653929472,0,1,-1000,0,0,0,-1,3,1,1500.0
03:39:44.259,STABILIZE,-35.3632621,149.1652376,0,-0.0003048515063710511,0.0009753264603205025,0.024849610403180122,0.00020423129899427295,0.0003159536572638899,0.001976474653929472,0,1,-1000,0,0,0,-1,3,1,1500.0
03:39:44.461,STABILIZE,-35.3632621,149.1652376,0,-0.0003048515063710511,0.0009753264603205025,0.024849610403180122,0.00020423129899427295,0.0003159536572638899,0.001976474653929472,0,1,-1000,0,0,0,-1,3,1,1500.0
03:39:44.662,STABILIZE,-35.3632621,149.1652376,0,-0.0003048515063710511,0.0009753264603205025,0.024849610403180122,0.00020423129899427295,0.0003159536572638899,0.001976474653929472,0,1,-1000,0,0,0,-1,3,1,1500.0
03:39:44.863,STABILIZE,-35.3632621,149.1652375,0,-0.0008925360161811113,0.0009321874240413308,0.024137794971466064,0.00018715282203629613,0.00021014170488342643,0.0017123199068009853,0,2,-1000,0,0,0,-1,1,1,1500.0
03:39:45.064,STABILIZE,-35.3632621,149.1652375,0,-0.0009466540068387985,0.0009345504804514349,0.024060552939772606,0.00020046421559527516,0.00024459429550915956,0.0018693776801228523,0,1,-1000,0,0,0,-1,1,1,1500.0
03:39:45.265,STABILIZE,-35.3632621,149.1652375,0,-0.0009466540068387985,0.0009345504804514349,0.024060552939772606,0.00020046421559527516,0.00024459429550915956,0.0018693776801228523,0,1,-1000,0,0,0,-1,1,1,1500.0
03:39:45.466,STABILIZE,-35.3632621,149.1652375,0,-0.0010234874207526445,0.0009348103776574135,0.023898040875792503,0.0004042438813485205,0.00033322995295748115,0.0019349271897226572,0,1,-1000,0,1,1,-1,1,1,1500.0
03:39:45.669,STABILIZE,-35.3632621,149.1652375,0,-0.0010234874207526445,0.0009348103776574135,0.023898040875792503,0.0004042438813485205,0.00033322995295748115,0.0019349271897226572,0,1,-1000,0,1,1,-1,1,1,1500.0
03:39:45.871,STABILIZE,-35.3632621,149.1652375,0,-0.0010234874207526445,0.0009348103776574135,0.023898040875792503,0.0004042438813485205,0.00033322995295748115,0.0019349271897226572,0,0,-1003,4,0,0,-1,1,1,1500.0
03:39:46.072,STABILIZE,-35.3632621,149.1652375,0,-0.0010234874207526445,0.0009348103776574135,0.023898040875792503,0.0004042438813485205,0.00033322995295748115,0.0019349271897226572,0,0,-1003,4,0,0,-1,1,1,1500.0
03:39:46.274,STABILIZE,-35.3632621,149.1652375,0,-0.0010234874207526445,0.0009348103776574135,0.023898040875792503,0.0004042438813485205,0.00033322995295748115,0.0019349271897226572,0,0,-1003,4,0,0,-1,1,1,1500.0
03:39:46.475,STABILIZE,-35.3632621,149.1652375,0,-0.000796132895629853,0.0009376070229336619,0.023594018071889877,0.0002620159648358822,0.00029788847314193845,0.0018748986767604947,0,1,-1000,1,1,0,-1,1,1,1500.0
03:39:46.676,STABILIZE,-35.3632621,149.1652375,0,-0.000796132895629853,0.0009376070229336619,0.023594018071889877,0.0002620159648358822,0.00029788847314193845,0.0018748986767604947,0,1,-1000,1,1,0,-1,1,1,1500.0
03:39:46.877,STABILIZE,-35.3632621,149.1652375,0,-0.0008204517653211951,0.0009355709771625698,0.023512814193964005,0.00022795610129833221,0.00013915402814745903,0.001624041935428977,0,1,-1000,0,0,0,-1,1,1,1500.0
03:39:47.079,STABILIZE,-35.3632621,149.1652375,0,-0.0008204517653211951,0.0009355709771625698,0.023512814193964005,0.00022795610129833221,0.00013915402814745903,0.001624041935428977,0,1,-1000,0,0,0,-1,1,1,1500.0
03:39:47.280,STABILIZE,-35.3632621,149.1652375,0,-0.0008204517653211951,0.0009355709771625698,0.023512814193964005,0.00022795610129833221,0.00013915402814745903,0.001624041935428977,0,1,-1000,0,0,0,-1,1,1,1500.0
03:39:47.482,STABILIZE,-35.3632622,149.1652375,0,-0.0008702639606781304,0.00094812415773049,0.023289265111088753,0.0002401690580882132,0.00037640967639163136,0.0018014153465628624,0,1,-1000,0,0,0,-1,1,1,1500.0
03:39:47.683,STABILIZE,-35.3632622,149.1652375,0,-0.0008702639606781304,0.00094812415773049,0.023289265111088753,0.0002401690580882132,0.00037640967639163136,0.0018014153465628624,0,1,-1000,0,0,0,-1,1,1,1500.0
03:39:47.886,STABILIZE,-35.3632622,149.1652375,0,-0.0008939335239119828,0.0009516236605122685,0.023221030831336975,0.0003611082211136818,0.0002284020301885903,0.0016960565699264407,0,1,-1000,0,0,0,-1,1,1,1500.0
03:39:48.087,STABILIZE,-35.3632622,149.1652375,0,-0.0008939335239119828,0.0009516236605122685,0.023221030831336975,0.0003611082211136818,0.0002284020301885903,0.0016960565699264407,0,1,-1000,0,0,0,-1,1,1,1500.0
03:39:48.288,STABILIZE,-35.3632622,149.1652375,0,-0.0008939335239119828,0.0009516236605122685,0.023221030831336975,0.0003611082211136818,0.0002284020301885903,0.0016960565699264407,0,1,-1000,0,0,0,-1,1,1,1500.0
03:39:48.489,STABILIZE,-35.3632622,149.1652375,0,-0.0009500668384134769,0.0009583776700310409,0.023014867678284645,0.000285178713966161,0.00034217856591567397,0.0017191056394949555,0,1,-1000,0,0,0,-1,1,0,1500.0
03:39:48.690,STABILIZE,-35.3632622,149.1652375,0,-0.0009826294844970107,0.0009665825054980814,0.022935137152671814,5.961779970675707e-05,0.00027925934409722686,0.0016381610184907913,0,1,-1000,1,0,0,-1,1,0,1500.0
03:39:48.891,STABILIZE,-35.3632622,149.1652375,0,-0.0009826294844970107,0.0009665825054980814,0.022935137152671814,5.961779970675707e-05,0.00027925934409722686,0.0016381610184907913,0,1,-1000,1,0,0,-1,1,0,1500.0
03:39:49.092,STABILIZE,-35.3632622,149.1652375,0,-0.000995895592495799,0.0009650781867094338,0.02287060208618641,0.0004021414206363261,0.00029682047897949815,0.0016095275059342384,0,2,-1000,0,0,0,-1,1,0,1500.0
03:39:49.294,STABILIZE,-35.3632622,149.1652375,0,-0.000995895592495799,0.0009650781867094338,0.02287060208618641,0.0004021414206363261,0.00029682047897949815,0.0016095275059342384,0,2,-1000,0,0,0,-1,1,0,1500.0
03:39:49.495,STABILIZE,-35.3632622,149.1652375,0,-0.000995895592495799,0.0009650781867094338,0.02287060208618641,0.0004021414206363261,0.00029682047897949815,0.0016095275059342384,0,1,-1000,0,1,1,-1,1,0,1500.0
03:39:49.696,STABILIZE,-35.3632622,149.1652375,0,-0.000995895592495799,0.0009650781867094338,0.02287060208618641,0.0004021414206363261,0.00029682047897949815,0.0016095275059342384,0,1,-1000,0,1,1,-1,1,0,1500.0
03:39:49.898,STABILIZE,-35.3632622,149.1652375,0,-0.000995895592495799,0.0009650781867094338,0.02287060208618641,0.0004021414206363261,0.00029682047897949815,0.0016095275059342384,0,1,-1000,0,1,1,-1,1,0,1500.0
03:39:50.099,STABILIZE,-35.3632622,149.1652375,0,-0.000995895592495799,0.0009650781867094338,0.02287060208618641,0.0004021414206363261,0.00029682047897949815,0.0016095275059342384,0,1,-1000,0,1,1,-1,1,0,1500.0
03:39:50.300,STABILIZE,-35.3632622,149.1652375,0,-0.000995895592495799,0.0009650781867094338,0.02287060208618641,0.0004021414206363261,0.00029682047897949815,0.0016095275059342384,0,1,-1000,0,1,1,-1,1,0,1500.0
03:39:50.501,STABILIZE,-35.3632622,149.1652375,0,-0.001023154822178185,0.0009647489059716463,0.02248447574675083,0.00018627668032422662,0.00037360552232712507,0.0016844298224896193,0,1,-1000,0,0,1,-1,1,1,1500.0
03:39:50.702,STABILIZE,-35.3632622,149.1652375,0,-0.001023154822178185,0.0009647489059716463,0.02248447574675083,0.00018627668032422662,0.00037360552232712507,0.0016844298224896193,0,1,-1000,0,0,1,-1,1,1,1500.0
03:39:50.903,STABILIZE,-35.3632622,149.1652375,0,-0.001023154822178185,0.0009647489059716463,0.02248447574675083,0.00018627668032422662,0.00037360552232712507,0.0016844298224896193,0,1,-1000,0,0,1,-1,1,1,1500.0
03:39:51.105,AUTO,-35.3632622,149.1652375,0,-0.001094566541723907,0.0009623199002817273,0.022390926256775856,0.00017916643992066383,0.00028427463257685304,0.001481035491451621,0,1,-1000,0,0,1,-1,1,1,1500.0
03:39:51.306,AUTO,-35.3632622,149.1652375,8,-0.0011080363765358925,0.0009623953956179321,0.022335132583975792,0.0002974063972942531,0.0002665770589374006,0.0017513949424028397,0,1,-1000,1,0,0,-1,1,1,1500.0
03:39:51.508,AUTO,-35.3632622,149.1652375,8,-0.001130115007981658,0.0009638451738283038,0.022277018055319786,0.00022662110859528184,0.00018810969777405262,0.001602056552655995,0,1,-1000,0,0,0,-1,1,1,1500.0
03:39:51.709,AUTO,-35.3632622,149.1652375,7,-0.0011447092983871698,0.0009707683348096907,0.022239701822400093,0.00021024106536060572,0.0002925492590293288,0.00157065293751657,0,2,-1000,0,1,0,-1,1,1,1500.0
03:39:51.911,AUTO,-35.3632622,149.1652375,7,-0.0011447092983871698,0.0009707683348096907,0.022239701822400093,0.00021024106536060572,0.0002925492590293288,0.00157065293751657,0,2,-1000,0,1,0,-1,1,1,1500.0
03:39:52.118,AUTO,-35.3632622,149.1652375,7,-0.0011447092983871698,0.0009707683348096907,0.022239701822400093,0.00021024106536060572,0.0002925492590293288,0.00157065293751657,0,2,-1000,0,1,0,-1,1,1,1500.0
03:39:52.327,AUTO,-35.3632622,149.1652375,7,-0.0011447092983871698,0.0009707683348096907,0.022239701822400093,0.00021024106536060572,0.0002925492590293288,0.00157065293751657,0,2,-1000,0,1,0,-1,1,1,1500.0
03:39:52.535,AUTO,-35.3632621,149.1652375,6,-0.0010778820142149925,0.0010895790765061975,0.022075731307268143,0.0004088905407115817,0.0004289433709345758,0.001548159634694457,0,1,-1000,0,0,0,0,0,0,1500.0
03:39:52.737,AUTO,-35.3632621,149.1652375,5,-0.0008868394652381539,0.0011492077028378844,0.02202809974551201,0.00020622817100957036,0.00020458083599805832,0.0014347042888402939,0,0,-1002,0,1,0,0,0,2,1500.0
03:39:52.950,AUTO,-35.3632621,149.1652375,3,-0.0008469074964523315,0.0012167490785941482,0.021958258002996445,0.00011539587285369635,0.00037241081008687615,0.0013540999498218298,0,0,-1002,0,1,0,0,0,2,1500.0
03:39:53.189,AUTO,-35.3632621,149.1652375,2,-0.000805519986897707,0.0012798510724678636,0.0219058096408844,0.0002895881771109998,0.000271837052423507,0.001586736412718892,0,2,-1000,1,0,1,0,0,2,1500.0
03:39:53.391,AUTO,-35.3632621,149.1652375,2,-0.000805519986897707,0.0012798510724678636,0.0219058096408844,0.0002895881771109998,0.000271837052423507,0.001586736412718892,0,2,-1000,1,0,1,0,0,2,1500.0
03:39:53.593,AUTO,-35.3632621,149.1652375,1,-0.0007518738857470453,0.0013426048681139946,0.021851960569620132,0.00019920180784538388,0.00025746854953467846,0.0016321095172315836,0,2,-1000,0,0,0,0,0,1,1500.0
03:39:53.795,AUTO,-35.3632621,149.1652375,1,-0.0006975334836170077,0.0014090135227888823,0.02177896909415722,0.00031819636933505535,0.00025245273718610406,0.0015602424973621964,0,1,-1000,0,0,0,0,0,1,32265.0
03:39:53.997,AUTO,-35.3632621,149.1652375,1,-0.0006975334836170077,0.0014090135227888823,0.02177896909415722,0.00031819636933505535,0.00025245273718610406,0.0015602424973621964,0,1,-1000,0,0,0,0,0,1,32265.0
03:39:54.198,AUTO,-35.3632621,149.1652375,1,-0.0006975334836170077,0.0014090135227888823,0.02177896909415722,0.00031819636933505535,0.00025245273718610406,0.0015602424973621964,0,1,-1000,0,0,0,0,0,1,32265.0
03:39:54.400,AUTO,-35.3632621,149.1652375,1,-0.0006975334836170077,0.0014090135227888823,0.02177896909415722,0.00031819636933505535,0.00025245273718610406,0.0015602424973621964,0,1,-1000,0,0,0,0,0,1,32265.0
03:39:54.602,AUTO,-35.3632621,149.1652374,2,-0.0004980877274647355,0.0016648691380396485,0.021555764600634575,0.0003158056060783565,0.0003461817977949977,0.00144398701377213,0,1,-1000,0,1,0,0,0,1,32265.0
03:39:54.803,AUTO,-35.3632621,149.1652374,3,-0.00043175407336093485,0.0017459613736718893,0.02149289846420288,0.0003277811920270324,0.00034218194196000695,0.0014645559713244438,0,2,-1000,0,0,0,0,0,1,32265.0
03:39:55.005,AUTO,-35.3632621,149.1652374,3,-0.00043175407336093485,0.0017459613736718893,0.02149289846420288,0.0003277811920270324,0.00034218194196000695,0.0014645559713244438,0,2,-1000,0,0,0,0,0,1,32265.0
03:39:55.206,AUTO,-35.3632621,149.1652374,14,0.002646664623171091,0.0002991364453919232,0.021547459065914154,0.007719432935118675,-0.009585611522197723,0.0020979419350624084,0,0,-1137,8,-8,1,0,0,-15,32265.0
03:39:55.408,AUTO,-35.3632621,149.1652374,100,0.004620402120053768,-0.00046433924580924213,0.021551404148340225,0.014830698259174824,0.0022845326457172632,0.0031567709520459175,0,0,-1139,15,2,2,0,0,-50,32265.0
03:39:55.609,AUTO,-35.3632621,149.1652375,266,0.002894286997616291,0.0005680630565620959,0.021426226943731308,-0.012677698396146297,0.0032740402966737747,0.0013515204191207886,0,-1,-1121,-12,3,0,0,1,-81,32265.0
03:39:55.811,AUTO,-35.3632621,149.1652375,505,0.0015706400154158473,0.0014595916727557778,0.021369319409132004,-0.007511571981012821,0.0031768721528351307,0.003031204454600811,0,0,-1101,-6,4,2,0,1,-108,32265.0
03:39:56.012,AUTO,-35.3632621,149.1652375,505,0.0015706400154158473,0.0014595916727557778,0.021369319409132004,-0.007511571981012821,0.0031768721528351307,0.003031204454600811,0,0,-1101,-6,4,2,0,1,-108,32265.0
03:39:56.214,AUTO,-35.3632621,149.1652375,505,0.0015706400154158473,0.0014595916727557778,0.021369319409132004,-0.007511571981012821,0.0031768721528351307,0.003031204454600811,0,0,-1101,-6,4,2,0,1,-108,32265.0
03:39:56.415,AUTO,-35.3632621,149.1652375,505,0.0015706400154158473,0.0014595916727557778,0.021369319409132004,-0.007511571981012821,0.0031768721528351307,0.003031204454600811,0,0,-1101,-6,4,2,0,1,-108,32265.0
03:39:56.618,AUTO,-35.363262,149.1652376,1533,0.025901921093463898,-0.0015608406392857432,0.0209558866918087,0.046076253056526184,-0.007510432042181492,0.0024686758406460285,0,0,-1013,46,-7,1,1,7,-145,32265.0
03:39:56.819,AUTO,-35.363262,149.1652378,1915,0.03716333582997322,-0.0036089520435780287,0.02111448347568512,0.04466136917471886,-0.008525654673576355,0.003118696855381131,0,-2,-1005,45,-7,2,2,14,-147,32265.0
03:39:57.020,AUTO,-35.363262,149.1652378,1915,0.03716333582997322,-0.0036089520435780287,0.02111448347568512,0.04466136917471886,-0.008525654673576355,0.003118696855381131,0,-2,-1005,45,-7,2,2,14,-147,32265.0
03:39:57.260,AUTO,-35.3632619,149.1652383,2302,0.04780416935682297,-0.005981961265206337,0.021377775818109512,0.040923114866018295,-0.010004889219999313,0.0036477602552622557,1,-2,-1001,41,-9,3,3,23,-148,32265.0
03:39:57.499,AUTO,-35.3632617,149.1652391,2690,0.057562246918678284,-0.00878193136304617,0.021641459316015244,0.03757641837000847,-0.011796693317592144,0.004009372089058161,1,-4,-1000,38,-11,3,6,34,-148,32265.0
03:39:57.747,AUTO,-35.3632615,149.1652402,3075,0.058348648250103,-0.005055896006524563,-0.012807600200176239,-0.05572221055626869,0.06497140228748322,-0.07773701846599579,1,-9,-991,-55,65,-78,9,46,-147,32265.0
03:39:57.992,AUTO,-35.3632613,149.1652415,3454,0.028593992814421654,0.019123325124382973,-0.037000879645347595,-0.17086106538772583,0.06970478594303131,-0.09168937802314758,3,-11,-993,-170,70,-92,9,54,-145,32265.0
03:39:58.194,AUTO,-35.3632613,149.1652415,3454,0.028593992814421654,0.019123325124382973,-0.037000879645347595,-0.17086106538772583,0.06970478594303131,-0.09168937802314758,3,-11,-993,-170,70,-92,9,54,-145,32265.0
03:39:58.396,AUTO,-35.3632613,149.1652415,3454,0.028593992814421654,0.019123325124382973,-0.037000879645347595,-0.17086106538772583,0.06970478594303131,-0.09168937802314758,3,-11,-993,-170,70,-92,9,54,-145,32265.0
03:39:58.601,AUTO,-35.363261,149.1652453,4595,-0.03980676829814911,0.02500244788825512,-0.09179738163948059,-0.03358843922615051,-0.020704980939626694,-0.04802263155579567,5,-8,-1003,-33,-19,-48,-4,32,-149,32265.0
03:39:58.805,AUTO,-35.363261,149.1652461,4980,-0.052486225962638855,0.011985423974692822,-0.09466762840747833,-0.06201983988285065,-0.07175222039222717,0.0078124068677425385,4,-4,-1000,-61,-71,7,-8,19,-149,32265.0
03:39:59.014,AUTO,-35.363261,149.1652461,4980,-0.052486225962638855,0.011985423974692822,-0.09466762840747833,-0.06201983988285065,-0.07175222039222717,0.0078124068677425385,4,-4,-1000,-61,-71,7,-8,19,-149,64974.0
03:39:59.216,AUTO,-35.3632612,149.1652464,5365,-0.06937499344348907,-0.008521538227796555,-0.08500362187623978,-0.06546933948993683,-0.08729740977287292,0.04011629521846771,3,0,-1000,-64,-86,39,-8,3,-149,64974.0
03:39:59.418,AUTO,-35.3632613,149.1652462,5749,-0.07302936911582947,-0.01759573444724083,-0.08114046603441238,0.01924198865890503,-0.003778700716793537,0.0017442337702959776,1,1,-1003,19,-2,1,-5,-15,-149,64974.0
03:39:59.620,AUTO,-35.3632614,149.1652456,6135,-0.06376271694898605,-0.016621144488453865,-0.08214527368545532,0.04811282083392143,0.003595848800614476,0.0013691179919987917,-1,3,-1001,48,3,0,-2,-32,-149,64974.0
03:39:59.822,AUTO,-35.3632614,149.1652446,6520,-0.050028469413518906,-0.015857530757784843,-0.08288218826055527,0.05839143693447113,0.0034877839498221874,0.003316364251077175,-4,5,-1001,59,4,2,0,-45,-149,64974.0
03:40:00.024,AUTO,-35.3632614,149.1652446,6520,-0.050028469413518906,-0.015857530757784843,-0.08288218826055527,0.05839143693447113,0.0034877839498221874,0.003316364251077175,-4,5,-1001,59,4,2,0,-45,-149,64974.0
03:40:00.226,AUTO,-35.3632614,149.1652446,6520,-0.050028469413518906,-0.015857530757784843,-0.08288218826055527,0.05839143693447113,0.0034877839498221874,0.003316364251077175,-4,5,-1001,59,4,2,0,-45,-149,64974.0
03:40:00.428,AUTO,-35.3632614,149.1652446,6520,-0.050028469413518906,-0.015857530757784843,-0.08288218826055527,0.05839143693447113,0.0034877839498221874,0.003316364251077175,-4,5,-1001,59,4,2,0,-45,-149,64974.0
03:40:00.629,AUTO,-35.3632614,149.1652401,7677,-0.0031852249521762133,-0.007356245536357164,-0.08282133936882019,0.0649683028459549,0.016259459778666496,0.004217864014208317,-8,13,-1003,65,17,3,3,-59,-151,64974.0
03:40:00.831,AUTO,-35.3632614,149.1652385,8066,0.012976066209375858,-0.0031676001381129026,-0.08219720423221588,0.06448009610176086,0.016935475170612335,0.004232434555888176,-8,12,-1004,65,17,3,3,-55,-152,64974.0
03:40:01.033,AUTO,-35.3632614,149.1652385,8066,0.012976066209375858,-0.0031676001381129026,-0.08219720423221588,0.06448009610176086,0.016935475170612335,0.004232434555888176,-8,12,-1004,65,17,3,3,-55,-152,64974.0
03:40:01.234,AUTO,-35.3632614,149.165237,8460,0.029101217165589333,0.0009362943819724023,-0.08138582855463028,0.06424495577812195,0.015422636643052101,0.004298162180930376,-7,7,-1003,64,16,3,2,-48,-153,64974.0
03:40:01.436,AUTO,-35.3632613,149.1652358,8853,0.04460136219859123,0.00446261977776885,-0.08058211952447891,0.058421529829502106,0.01424839161336422,-0.0009120850590988994,-6,9,-1002,59,15,-1,1,-38,-153,64974.0
03:40:01.638,AUTO,-35.3632613,149.1652348,9246,0.05413960665464401,0.012048170901834965,-0.08465328812599182,0.023416895419359207,0.041743528097867966,-0.031513310968875885,-5,7,-999,24,42,-32,0,-24,-153,64974.0
03:40:01.840,AUTO,-35.3632613,149.1652343,9638,0.05814649537205696,0.024263329803943634,-0.09432683140039444,0.009318029507994652,0.04513344168663025,-0.03947688639163971,-2,3,-998,9,46,-40,-4,-9,-152,64974.0
03:40:02.042,AUTO,-35.3632613,149.1652343,9638,0.05814649537205696,0.024263329803943634,-0.09432683140039444,0.009318029507994652,0.04513344168663025,-0.03947688639163971,-2,3,-998,9,46,-40,-4,-9,-152,64974.0
03:40:02.351,AUTO,-35.3632613,149.1652343,9638,0.05814649537205696,0.024263329803943634,-0.09432683140039444,0.009318029507994652,0.04513344168663025,-0.03947688639163971,-2,3,-998,9,46,-40,-4,-9,-152,64974.0
03:40:02.556,AUTO,-35.3632613,149.1652343,9638,0.05814649537205696,0.024263329803943634,-0.09432683140039444,0.009318029507994652,0.04513344168663025,-0.03947688639163971,-2,3,-998,9,46,-40,-4,-9,-152,64974.0
03:40:02.817,AUTO,-35.3632619,149.1652347,10794,0.01692412979900837,0.006130910012871027,-0.09391386806964874,-0.06576349586248398,-0.03406669571995735,0.013270275667309761,4,0,-1000,-65,-33,12,-12,19,-149,64974.0
03:40:03.019,AUTO,-35.3632622,149.1652351,11178,0.0032859514467418194,-0.0008480402757413685,-0.09183776378631592,-0.04497179761528969,-0.023838065564632416,0.007055281661450863,4,-2,-1002,-44,-22,6,-11,20,-150,64974.0
03:40:03.222,AUTO,-35.3632624,149.1652356,11563,-0.005668616853654385,-0.005239578429609537,-0.09173811972141266,-0.02713458612561226,-0.012836039997637272,-0.004409301094710827,4,-2,-1002,-26,-11,-4,-9,18,-151,64974.0
03:40:03.423,AUTO,-35.3632625,149.165236,11950,-0.010560537688434124,-0.007589551154524088,-0.09364085644483566,-0.013431812636554241,-0.007326348219066858,-0.008214191533625126,3,-2,-1002,-13,-6,-8,-6,14,-151,64974.0
03:40:03.625,AUTO,-35.3632626,149.1652363,12338,-0.0126750897616148,-0.00844244472682476,-0.09760332852602005,-0.00228322297334671,-0.00023631897056475282,-0.017383210361003876,2,-2,-1002,-1,0,-17,-3,10,-152,265.0
03:40:03.827,AUTO,-35.3632627,149.1652365,12726,-0.012128555215895176,-0.00816739909350872,-0.10279692709445953,0.004941766615957022,0.0018281163647770882,-0.018883362412452698,1,-1,-1001,5,2,-19,-1,5,-152,265.0
03:40:04.028,AUTO,-35.3632627,149.1652365,12726,-0.012128555215895176,-0.00816739909350872,-0.10279692709445953,0.004941766615957022,0.0018281163647770882,-0.018883362412452698,1,-1,-1001,5,2,-19,-1,5,-152,265.0
03:40:04.231,AUTO,-35.3632627,149.1652365,12726,-0.012128555215895176,-0.00816739909350872,-0.10279692709445953,0.004941766615957022,0.0018281163647770882,-0.018883362412452698,1,-1,-1001,5,2,-19,-1,5,-152,265.0
03:40:04.433,AUTO,-35.3632627,149.1652365,12726,-0.012128555215895176,-0.00816739909350872,-0.10279692709445953,0.004941766615957022,0.0018281163647770882,-0.018883362412452698,1,-1,-1001,5,2,-19,-1,5,-152,265.0
03:40:04.636,AUTO,-35.3632626,149.1652364,13895,-0.0039015666116029024,-0.0043791113421320915,-0.12139227241277695,0.014950898475944996,0.008382636122405529,-0.023542549461126328,-1,0,-1000,15,8,-24,4,-3,-152,265.0
03:40:04.837,AUTO,-35.3632625,149.1652364,14284,-0.00047677336260676384,-0.0023158234544098377,-0.12776513397693634,0.014157394878566265,0.007557434029877186,-0.02282765880227089,-1,0,-1000,14,8,-23,5,-4,-153,265.0
03:40:05.039,AUTO,-35.3632624,149.1652362,14674,0.0023775461595505476,-0.0004239814297761768,-0.1337689459323883,0.009339957498013973,0.008060399442911148,-0.022668976336717606,-2,0,-1000,10,8,-23,5,-5,-153,265.0
03:40:05.241,AUTO,-35.3632624,149.1652362,14674,0.0023775461595505476,-0.0004239814297761768,-0.1337689459323883,0.009339957498013973,0.008060399442911148,-0.022668976336717606,-2,0,-1000,10,8,-23,5,-5,-153,265.0
03:40:05.443,AUTO,-35.3632623,149.165236,15064,0.004871781449764967,0.001549611915834248,-0.1395755559206009,0.010874095372855663,0.008695799857378006,-0.021758871152997017,-2,0,-1000,11,9,-22,5,-4,-153,265.0
03:40:05.644,AUTO,-35.3632621,149.1652359,15455,0.006674828939139843,0.0036056863609701395,-0.14520755410194397,0.006135077681392431,0.006772063206881285,-0.018810296431183815,-2,0,-1000,7,7,-19,4,-3,-153,265.0
03:40:05.847,AUTO,-35.363262,149.1652357,15844,0.008043779991567135,0.00501692621037364,-0.15028561651706696,0.004828173667192459,0.004604040645062923,-0.01896784082055092,-2,0,-1000,5,5,-19,4,-2,-153,265.0
03:40:06.049,AUTO,-35.363262,149.1652357,15844,0.008043779991567135,0.00501692621037364,-0.15028561651706696,0.004828173667192459,0.004604040645062923,-0.01896784082055092,-2,0,-1000,5,5,-19,4,-2,-153,265.0
03:40:06.253,AUTO,-35.363262,149.1652357,15844,0.008043779991567135,0.00501692621037364,-0.15028561651706696,0.004828173667192459,0.004604040645062923,-0.01896784082055092,-2,0,-1000,5,5,-19,4,-2,-153,265.0
03:40:06.454,AUTO,-35.363262,149.1652357,15844,0.008043779991567135,0.00501692621037364,-0.15028561651706696,0.004828173667192459,0.004604040645062923,-0.01896784082055092,-2,0,-1000,5,5,-19,4,-2,-153,265.0
03:40:06.656,AUTO,-35.3632617,149.1652355,17014,0.008886163122951984,0.007035505026578903,-0.16295596957206726,-0.00010593858314678073,0.0011538611724972725,-0.014249252155423164,0,0,-1000,0,1,-14,1,1,-153,265.0
03:40:06.858,AUTO,-35.3632617,149.1652355,17403,0.008106255903840065,0.00702662393450737,-0.16659532487392426,-0.0019383057951927185,0.00039618881419301033,-0.01294726226478815,0,0,-1000,-1,1,-13,0,3,-153,265.0
03:40:07.059,AUTO,-35.3632616,149.1652355,17797,0.007070517633110285,0.0068485308438539505,-0.1702195405960083,-0.004700126126408577,-0.0003403738373890519,-0.01482941210269928,0,0,-999,-3,0,-15,0,4,-153,265.0
03:40:07.261,AUTO,-35.3632616,149.1652355,17797,0.007070517633110285,0.0068485308438539505,-0.1702195405960083,-0.004700126126408577,-0.0003403738373890519,-0.01482941210269928,0,0,-999,-3,0,-15,0,4,-153,265.0
03:40:07.464,AUTO,-35.3632616,149.1652355,18187,0.0061442237347364426,0.006522385869175196,-0.17375750839710236,-0.0018949562218040228,-0.0004523060342762619,-0.014443674124777317,0,0,-1000,-1,0,-14,-1,5,-153,265.0
03:40:07.678,AUTO,-35.3632616,149.1652356,18576,0.005231257528066635,0.006031943950802088,-0.17719870805740356,-0.0017054579220712185,-0.0013988394057378173,-0.012397166341543198,0,0,-1000,0,0,-12,-2,5,-153,265.0
03:40:07.891,AUTO,-35.3632616,149.1652357,18965,-0.0018042760202661157,0.005410074256360531,-0.18076908588409424,-0.06061158329248428,-0.002455824287608266,-0.015157959423959255,0,-1,-995,-59,-1,-15,-2,5,-152,265.0
03:40:08.098,AUTO,-35.3632616,149.1652357,18965,-0.0018042760202661157,0.005410074256360531,-0.18076908588409424,-0.06061158329248428,-0.002455824287608266,-0.015157959423959255,0,-1,-995,-59,-1,-15,-2,5,-152,265.0
03:40:08.332,AUTO,-35.3632616,149.1652357,18965,-0.0018042760202661157,0.005410074256360531,-0.18076908588409424,-0.06061158329248428,-0.002455824287608266,-0.015157959423959255,0,-1,-995,-59,-1,-15,-2,5,-152,265.0
03:40:08.541,AUTO,-35.3632616,149.1652357,18965,-0.0018042760202661157,0.005410074256360531,-0.18076908588409424,-0.06061158329248428,-0.002455824287608266,-0.015157959423959255,0,-1,-995,-59,-1,-15,-2,5,-152,265.0
03:40:08.748,AUTO,-35.3632617,149.1652354,20107,-0.04822615534067154,0.028743501752614975,-0.13827209174633026,-0.007889220491051674,0.09783090651035309,0.299793004989624,-1,3,-982,-7,98,299,-10,-17,-145,265.0
03:40:08.950,AUTO,-35.363262,149.1652347,20470,-0.045786302536726,0.05370089039206505,-0.033170927315950394,0.014352097176015377,0.02606893517076969,0.4542849063873291,0,6,-972,15,26,454,-21,-27,-140,265.0
03:40:09.152,AUTO,-35.3632626,149.1652338,20814,-0.020978983491659164,0.03276672586798668,0.05217524617910385,0.11880680173635483,-0.16261601448059082,0.22943808138370514,1,10,-956,119,-161,229,-31,-34,-129,49162.0
03:40:09.354,AUTO,-35.3632632,149.1652328,21129,0.0120937405154109,-0.00737109174951911,0.08462108671665192,0.12201879173517227,-0.13845324516296387,0.049113769084215164,2,10,-956,122,-137,49,-32,-33,-118,49162.0
03:40:09.556,AUTO,-35.3632638,149.1652319,21418,0.0384654738008976,-0.031802136451005936,0.0848100408911705,0.08752574026584625,-0.064252108335495,-0.03314190357923508,1,8,-959,88,-63,-33,-26,-24,-108,49162.0
03:40:09.758,AUTO,-35.3632638,149.1652319,21418,0.0384654738008976,-0.031802136451005936,0.0848100408911705,0.08752574026584625,-0.064252108335495,-0.03314190357923508,1,8,-959,88,-63,-33,-26,-24,-108,49162.0
03:40:09.960,AUTO,-35.3632643,149.1652314,21679,0.05365253984928131,-0.040250133723020554,0.07383993268013,0.04063974693417549,-0.016830703243613243,-0.050173405557870865,2,7,-963,41,-15,-50,-18,-11,-98,49162.0
03:40:10.162,AUTO,-35.3632643,149.1652314,21679,0.05365253984928131,-0.040250133723020554,0.07383993268013,0.04063974693417549,-0.016830703243613243,-0.050173405557870865,2,7,-963,41,-15,-50,-18,-11,-98,49162.0
03:40:10.364,AUTO,-35.3632643,149.1652314,21679,0.05365253984928131,-0.040250133723020554,0.07383993268013,0.04063974693417549,-0.016830703243613243,-0.050173405557870865,2,7,-963,41,-15,-50,-18,-11,-98,49162.0
03:40:10.566,AUTO,-35.3632645,149.1652318,22328,0.04627127945423126,-0.026125866919755936,0.055160220712423325,-0.03272366151213646,0.033730342984199524,-0.005347814876586199,0,-4,-972,-31,34,-5,7,26,-73,49162.0
03:40:10.767,AUTO,-35.3632645,149.1652318,22328,0.04627127945423126,-0.026125866919755936,0.055160220712423325,-0.03272366151213646,0.033730342984199524,-0.005347814876586199,0,-4,-972,-31,34,-5,7,26,-73,49162.0
03:40:10.969,AUTO,-35.3632644,149.1652325,22503,0.03579550236463547,-0.017134033143520355,0.05432505160570145,-0.044171396642923355,0.036948081105947495,0.0014008015859872103,0,-7,-975,-43,37,1,12,34,-66,49162.0
03:40:11.171,AUTO,-35.363264,149.1652334,22663,0.023958515375852585,-0.008476851508021355,0.05418381467461586,-0.04397812485694885,0.034646689891815186,0.002269662916660309,0,-9,-976,-43,35,1,16,38,-60,49162.0
03:40:11.372,AUTO,-35.3632636,149.1652344,22807,0.01410701498389244,-0.0007188700838014483,0.05355607345700264,-0.03863288462162018,0.031001335009932518,0.0008935818914324045,0,-10,-977,-38,31,0,18,39,-54,49162.0
03:40:11.574,AUTO,-35.3632631,149.1652355,22939,0.005416910629719496,0.005803920794278383,0.05286796763539314,-0.026184041053056717,0.022437814623117447,-0.00011212372919544578,0,-9,-977,-25,23,0,18,38,-48,49162.0
03:40:11.776,AUTO,-35.3632631,149.1652355,22939,0.005416910629719496,0.005803920794278383,0.05286796763539314,-0.026184041053056717,0.022437814623117447,-0.00011212372919544578,0,-9,-977,-25,23,0,18,38,-48,49162.0
03:40:11.978,AUTO,-35.3632627,149.1652364,23052,-0.001415732898749411,0.010345479473471642,0.051920633763074875,-0.023337380960583687,0.01371847651898861,-0.0009321509278379381,0,-10,-977,-22,14,-1,16,36,-43,49162.0
03:40:12.180,AUTO,-35.3632627,149.1652364,23052,-0.001415732898749411,0.010345479473471642,0.051920633763074875,-0.023337380960583687,0.01371847651898861,-0.0009321509278379381,0,-10,-977,-22,14,-1,16,36,-43,49162.0
03:40:12.381,AUTO,-35.3632627,149.1652364,23052,-0.001415732898749411,0.010345479473471642,0.051920633763074875,-0.023337380960583687,0.01371847651898861,-0.0009321509278379381,0,-10,-977,-22,14,-1,16,36,-43,49162.0
03:40:12.583,AUTO,-35.3632617,149.1652388,23302,-0.011654105968773365,0.014531535096466541,0.0497865155339241,-0.00455215759575367,-0.0005398107459768653,-0.002076169475913048,0,-6,-974,-3,0,-2,9,22,-25,49162.0
03:40:12.784,AUTO,-35.3632617,149.1652388,23302,-0.011654105968773365,0.014531535096466541,0.0497865155339241,-0.00455215759575367,-0.0005398107459768653,-0.002076169475913048,0,-6,-974,-3,0,-2,9,22,-25,49162.0
03:40:12.986,AUTO,-35.3632615,149.1652393,23353,-0.012539601884782314,0.014237678609788418,0.04893720522522926,-0.010546735487878323,-0.002551368437707424,-0.004755280911922455,0,-4,-973,-9,-1,-5,6,17,-18,49162.0
03:40:13.192,AUTO,-35.3632613,149.1652397,23386,-0.012234942056238651,0.013181542046368122,0.04796374961733818,0.01523307990282774,-0.0037120943889021873,-0.003597159869968891,0,-2,-970,16,-2,-3,4,13,-11,49162.0
03:40:13.426,AUTO,-35.3632612,149.16524,23399,-0.011174451559782028,0.012019961141049862,0.046973321586847305,0.024876482784748077,0.003907232545316219,-0.007399450056254864,0,-1,-964,26,4,-7,2,9,-2,49162.0
03:40:13.720,AUTO,-35.3632611,149.1652401,23381,-0.04339264705777168,0.026286395266652107,0.04543324559926987,0.09695001691579819,-0.010746323503553867,-0.0020926406141370535,0,-2,-961,97,-9,-2,-2,0,12,49162.0
03:40:13.966,AUTO,-35.3632611,149.1652401,23337,-0.04694707691669464,0.009402556344866753,0.044980667531490326,-0.7239598631858826,-0.08949987590312958,-0.0034867555368691683,-1,-31,-971,-723,-88,-3,-5,-10,19,49162.0
03:40:14.168,AUTO,-35.3632611,149.1652401,23337,-0.04694707691669464,0.009402556344866753,0.044980667531490326,-0.7239598631858826,-0.08949987590312958,-0.0034867555368691683,-1,-31,-971,-723,-88,-3,-5,-10,19,49162.0
03:40:14.370,AUTO,-35.3632611,149.1652401,23337,-0.04694707691669464,0.009402556344866753,0.044980667531490326,-0.7239598631858826,-0.08949987590312958,-0.0034867555368691683,-1,-31,-971,-723,-88,-3,-5,-10,19,49162.0
03:40:14.571,AUTO,-35.3632611,149.1652384,23182,-0.03453397750854492,-0.034083154052495956,0.04275011271238327,-0.24617137014865875,-0.03692464157938957,-0.01825214922428131,-6,14,-1030,-244,-35,-18,7,-29,12,49162.0
03:40:14.784,AUTO,-35.3632611,149.1652384,23182,-0.03453397750854492,-0.034083154052495956,0.04275011271238327,-0.24617137014865875,-0.03692464157938957,-0.01825214922428131,-6,14,-1030,-244,-35,-18,7,-29,12,6749.0
03:40:14.986,AUTO,-35.3632609,149.1652375,23156,-0.029306698590517044,-0.04364963248372078,0.041389256715774536,0.3544703722000122,-0.03008970245718956,-0.013310661539435387,-7,31,-1005,356,-29,-13,15,-34,5,6749.0
03:40:15.187,AUTO,-35.3632604,149.1652365,23138,-0.013672739267349243,-0.05163468047976494,0.040576279163360596,0.6603572368621826,-0.027089692652225494,-0.007040935102850199,-9,31,-1026,661,-26,-7,26,-40,2,6749.0
03:40:15.389,AUTO,-35.3632597,149.1652355,23128,-0.019280845299363136,-0.05791717767715454,0.03900986164808273,0.23471233248710632,-0.021988289430737495,-0.04090461879968643,-11,-2,-1026,235,-21,-41,37,-45,0,6749.0
03:40:15.591,AUTO,-35.3632587,149.1652344,23123,-0.0301812756806612,-0.06748723238706589,-0.03227601945400238,-0.3743659555912018,-0.018764156848192215,-0.5333972573280334,-16,-28,-992,-374,-18,-533,49,-51,0,6749.0
03:40:15.795,AUTO,-35.3632575,149.1652332,23119,-0.03219146654009819,-0.08233072608709335,-0.21733635663986206,-0.5771365165710449,-0.017509059980511665,-0.8503852486610413,-19,-22,-1002,-576,-16,-850,63,-58,-1,6749.0
03:40:15.997,AUTO,-35.3632575,149.1652332,23119,-0.03219146654009819,-0.08233072608709335,-0.21733635663986206,-0.5771365165710449,-0.017509059980511665,-0.8503852486610413,-19,-22,-1002,-576,-16,-850,63,-58,-1,6749.0
03:40:16.199,AUTO,-35.3632575,149.1652332,23119,-0.03219146654009819,-0.08233072608709335,-0.21733635663986206,-0.5771365165710449,-0.017509059980511665,-0.8503852486610413,-19,-22,-1002,-576,-16,-850,63,-58,-1,6749.0
03:40:16.400,AUTO,-35.3632575,149.1652332,23119,-0.03219146654009819,-0.08233072608709335,-0.21733635663986206,-0.5771365165710449,-0.017509059980511665,-0.8503852486610413,-19,-22,-1002,-576,-16,-850,63,-58,-1,6749.0
03:40:16.602,AUTO,-35.3632518,149.1652282,23108,0.013744758442044258,-0.12037207186222076,-0.664678156375885,0.30220305919647217,-0.04615890979766846,-0.08090275526046753,-27,-23,-995,302,-45,-81,108,-94,1,6749.0
03:40:16.804,AUTO,-35.3632492,149.1652259,23099,0.010312005877494812,-0.133705735206604,-0.6561415791511536,-0.3448982536792755,-0.05162770301103592,0.08359907567501068,-29,-45,-1005,-344,-50,83,125,-109,1,6749.0
03:40:17.006,AUTO,-35.3632492,149.1652259,23099,0.010312005877494812,-0.133705735206604,-0.6561415791511536,-0.3448982536792755,-0.05162770301103592,0.08359907567501068,-29,-45,-1005,-344,-50,83,125,-109,1,6749.0
03:40:17.208,AUTO,-35.3632462,149.1652233,23088,0.0006204131059348583,-0.14727206528186798,-0.6294997930526733,-0.4311254918575287,-0.05767016112804413,0.08416292816400528,-37,-38,-1000,-430,-56,83,144,-123,2,6749.0
03:40:17.410,AUTO,-35.3632428,149.16522,23074,0.010993837378919125,-0.1593114286661148,-0.6106292605400085,0.23422831296920776,-0.05090684816241264,0.027794361114501953,-42,-5,-999,235,-49,27,164,-140,4,6749.0
03:40:17.611,AUTO,-35.3632389,149.1652163,23057,0.02218872308731079,-0.17058801651000977,-0.6032743453979492,0.2952558398246765,-0.04212140291929245,0.01175460685044527,-44,-24,-998,295,-41,11,186,-158,6,6749.0
03:40:17.823,AUTO,-35.3632346,149.1652121,23037,0.021404672414064407,-0.18203531205654144,-0.6042488217353821,-0.3160744607448578,-0.03751425817608833,-0.00469248928129673,-53,-51,-1002,-316,-36,-4,208,-176,7,6749.0
03:40:18.088,AUTO,-35.3632346,149.1652121,23037,0.021404672414064407,-0.18203531205654144,-0.6042488217353821,-0.3160744607448578,-0.03751425817608833,-0.00469248928129673,-53,-51,-1002,-316,-36,-4,208,-176,7,6749.0
03:40:18.313,AUTO,-35.3632346,149.1652121,23037,0.021404672414064407,-0.18203531205654144,-0.6042488217353821,-0.3160744607448578,-0.03751425817608833,-0.00469248928129673,-53,-51,-1002,-316,-36,-4,208,-176,7,6749.0
03:40:18.531,AUTO,-35.3632346,149.1652121,23037,0.021404672414064407,-0.18203531205654144,-0.6042488217353821,-0.3160744607448578,-0.03751425817608833,-0.00469248928129673,-53,-51,-1002,-316,-36,-4,208,-176,7,6749.0
03:40:18.733,AUTO,-35.3632187,149.1651963,22968,0.046179767698049545,-0.18758611381053925,-0.6182583570480347,0.3032118082046509,-0.012330899946391582,-0.020268339663743973,-69,-22,-999,304,-11,-20,275,-225,8,6749.0
03:40:18.934,AUTO,-35.3632126,149.1651901,22944,0.059638772159814835,-0.192681223154068,-0.6206122040748596,0.27720192074775696,-0.025692908093333244,0.009391823783516884,-83,-40,-1000,277,-25,9,296,-239,8,6749.0
03:40:19.137,AUTO,-35.3632059,149.1651835,22917,0.06266951560974121,-0.19912417232990265,-0.6221812963485718,-0.01692023314535618,-0.016857566311955452,0.010886844247579575,-78,-58,-997,-17,-16,10,319,-254,10,6749.0
03:40:19.338,AUTO,-35.3631986,149.1651763,22887,0.0611506812274456,-0.1984063684940338,-0.6219587922096252,-0.16753000020980835,0.0027023795992136,0.011383961886167526,-86,-57,-1001,-167,3,11,342,-268,10,17863.0
03:40:19.540,AUTO,-35.3631986,149.1651763,22887,0.0611506812274456,-0.1984063684940338,-0.6219587922096252,-0.16753000020980835,0.0027023795992136,0.011383961886167526,-86,-57,-1001,-167,3,11,342,-268,10,17863.0
03:40:19.742,AUTO,-35.3631908,149.1651688,22857,0.06936714053153992,-0.2023439258337021,-0.6224665641784668,0.1501358449459076,-0.028000373393297195,-0.001091665937565267,-89,-47,-996,150,-27,-1,364,-282,11,17863.0
03:40:19.944,AUTO,-35.3631826,149.1651609,22824,0.07450386136770248,-0.21128180623054504,-0.623392641544342,0.022244853898882866,-0.030283456668257713,0.0009032841771841049,-93,-60,-989,22,-29,0,386,-296,12,17863.0
03:40:20.153,AUTO,-35.3631826,149.1651609,22824,0.07450386136770248,-0.21128180623054504,-0.623392641544342,0.022244853898882866,-0.030283456668257713,0.0009032841771841049,-93,-60,-989,22,-29,0,386,-296,12,17863.0
03:40:20.355,AUTO,-35.3631826,149.1651609,22824,0.07450386136770248,-0.21128180623054504,-0.623392641544342,0.022244853898882866,-0.030283456668257713,0.0009032841771841049,-93,-60,-989,22,-29,0,386,-296,12,17863.0
03:40:20.557,AUTO,-35.3631546,149.1651348,22713,0.07510147243738174,-0.19689244031906128,-0.6234978437423706,0.019884031265974045,0.03525950387120247,-0.0016154436161741614,-114,-65,-1005,20,35,-1,450,-337,10,17863.0
03:40:20.759,AUTO,-35.3631546,149.1651348,22713,0.07510147243738174,-0.19689244031906128,-0.6234978437423706,0.019884031265974045,0.03525950387120247,-0.0016154436161741614,-114,-65,-1005,20,35,-1,450,-337,10,17863.0
03:40:20.960,AUTO,-35.3631445,149.1651253,22683,0.07826858758926392,-0.1906789243221283,-0.6250024437904358,0.012423824518918991,0.02831767126917839,0.0001621074479771778,-112,-66,-995,13,29,0,466,-348,9,17863.0
03:40:21.162,AUTO,-35.363134,149.1651156,22655,0.07975106686353683,-0.18244569003582,-0.6252180933952332,0.025420764461159706,0.013339015655219555,0.0023256202694028616,-120,-77,-1001,25,14,1,480,-358,8,17863.0
03:40:21.364,AUTO,-35.3631231,149.1651056,22628,0.08014711737632751,-0.17896027863025665,-0.6250662207603455,-0.04857537895441055,0.03119901940226555,0.004994747694581747,-93,-54,-975,-48,31,4,494,-366,10,17863.0
03:40:21.565,AUTO,-35.3631119,149.1650954,22602,0.08002296835184097,-0.17305326461791992,-0.624361515045166,0.045666005462408066,0.014235121197998524,0.002327122027054429,-123,-65,-987,46,14,2,504,-373,8,17863.0
03:40:21.767,AUTO,-35.3631119,149.1650954,22602,0.08002296835184097,-0.17305326461791992,-0.624361515045166,0.045666005462408066,0.014235121197998524,0.002327122027054429,-123,-65,-987,46,14,2,504,-373,8,17863.0
03:40:21.969,AUTO,-35.3631006,149.165085,22575,0.08254393935203552,-0.1715119332075119,-0.6249528527259827,0.031302422285079956,-0.016148893162608147,-0.000898447004146874,-124,-77,-985,31,-15,0,512,-380,9,17863.0
03:40:22.171,AUTO,-35.3631006,149.165085,22575,0.08254393935203552,-0.1715119332075119,-0.6249528527259827,0.031302422285079956,-0.016148893162608147,-0.000898447004146874,-124,-77,-985,31,-15,0,512,-380,9,17863.0
03:40:22.373,AUTO,-35.3631006,149.165085,22575,0.08254393935203552,-0.1715119332075119,-0.6249528527259827,0.031302422285079956,-0.016148893162608147,-0.000898447004146874,-124,-77,-985,31,-15,0,512,-380,9,17863.0
03:40:22.575,AUTO,-35.3630654,149.1650529,22483,0.08490009605884552,-0.15627355873584747,-0.6268211007118225,0.011997812427580357,0.024307332932949066,0.006017119623720646,-125,-79,-989,12,25,5,535,-397,10,17863.0
03:40:22.777,AUTO,-35.3630654,149.1650529,22483,0.08490009605884552,-0.15627355873584747,-0.6268211007118225,0.011997812427580357,0.024307332932949066,0.006017119623720646,-125,-79,-989,12,25,5,535,-397,10,17863.0
03:40:22.978,AUTO,-35.3630533,149.1650419,22453,0.08267775177955627,-0.1518930047750473,-0.6265352964401245,-0.05947856977581978,0.047844670712947845,-0.001412063604220748,-133,-89,-985,-59,48,-1,539,-400,11,17863.0
03:40:23.180,AUTO,-35.3630412,149.1650309,22421,0.08385201543569565,-0.14745983481407166,-0.626335084438324,0.04133279249072075,0.029630303382873535,-4.8745147068984807e-05,-141,-84,-990,41,30,0,541,-402,11,17863.0
03:40:23.392,AUTO,-35.363029,149.1650197,22388,0.08814302831888199,-0.13925474882125854,-0.6269087195396423,0.008498468436300755,0.036922577768564224,-0.0001201691193273291,-127,-95,-990,8,37,0,542,-405,11,17863.0
03:40:23.599,AUTO,-35.3630167,149.1650084,22355,0.08840394765138626,-0.12968038022518158,-0.6277405619621277,-0.014097309671342373,0.04201386123895645,-0.008704690262675285,-130,-75,-987,-13,42,-8,543,-405,11,17863.0
03:40:23.806,AUTO,-35.3630167,149.1650084,22355,0.08840394765138626,-0.12968038022518158,-0.6277405619621277,-0.014097309671342373,0.04201386123895645,-0.008704690262675285,-130,-75,-987,-13,42,-8,543,-405,11,17863.0
03:40:24.028,AUTO,-35.3630044,149.1649973,22323,0.08509472012519836,-0.12501958012580872,-0.6279723644256592,0.059655655175447464,-0.006243445444852114,0.0008681373437866569,-143,-86,-988,59,-5,0,541,-404,11,17863.0
03:40:24.248,AUTO,-35.3630044,149.1649973,22323,0.08509472012519836,-0.12501958012580872,-0.6279723644256592,0.059655655175447464,-0.006243445444852114,0.0008681373437866569,-143,-86,-988,59,-5,0,541,-404,11,17863.0
03:40:24.450,AUTO,-35.3630044,149.1649973,22323,0.08509472012519836,-0.12501958012580872,-0.6279723644256592,0.059655655175447464,-0.006243445444852114,0.0008681373437866569,-143,-86,-988,59,-5,0,541,-404,11,17863.0
03:40:24.657,AUTO,-35.362968,149.164964,22201,0.08347328752279282,-0.13716530799865723,-0.6282235980033875,0.026885677129030228,0.009153793565928936,-0.004292906261980534,-131,-89,-981,27,9,-4,540,-404,17,17863.0
03:40:24.860,AUTO,-35.3629558,149.1649528,22150,0.08563448488712311,-0.13988330960273743,-0.6295138001441956,-0.018343254923820496,-0.0004474365268833935,-0.00567590119317174,-127,-75,-980,-18,0,-5,541,-406,19,17863.0
03:40:25.062,AUTO,-35.3629436,149.1649415,22099,0.08724752813577652,-0.13913847506046295,-0.6301922798156738,0.023270683363080025,0.017977947369217873,-0.004214670974761248,-108,-75,-974,23,19,-4,542,-407,19,34843.0
03:40:25.264,AUTO,-35.3629436,149.1649415,22099,0.08724752813577652,-0.13913847506046295,-0.6301922798156738,0.023270683363080025,0.017977947369217873,-0.004214670974761248,-108,-75,-974,23,19,-4,542,-407,19,34843.0
03:40:25.466,AUTO,-35.3629314,149.1649302,22049,0.0897599384188652,-0.1401153802871704,-0.6305667757987976,0.0519462525844574,-0.020371969789266586,-0.00761528592556715,-134,-86,-995,52,-19,-7,543,-408,17,34843.0
03:40:25.668,AUTO,-35.3629191,149.1649189,22000,0.08905690163373947,-0.13946378231048584,-0.6305084824562073,-0.046705156564712524,-0.0005516201490536332,-0.0018869702471420169,-135,-87,-992,-46,0,-2,544,-409,17,34843.0
03:40:25.870,AUTO,-35.3629068,149.1649075,21954,0.09168573468923569,-0.13683269917964935,-0.6308374404907227,0.008195344358682632,0.01840795762836933,-0.009726395830512047,-138,-57,-989,8,19,-9,546,-409,16,34843.0
03:40:26.072,AUTO,-35.3629068,149.1649075,21954,0.09168573468923569,-0.13683269917964935,-0.6308374404907227,0.008195344358682632,0.01840795762836933,-0.009726395830512047,-138,-57,-989,8,19,-9,546,-409,16,34843.0
03:40:26.274,AUTO,-35.3629068,149.1649075,21954,0.09168573468923569,-0.13683269917964935,-0.6308374404907227,0.008195344358682632,0.01840795762836933,-0.009726395830512047,-138,-57,-989,8,19,-9,546,-409,16,34843.0
03:40:26.476,AUTO,-35.3629068,149.1649075,21954,0.09168573468923569,-0.13683269917964935,-0.6308374404907227,0.008195344358682632,0.01840795762836933,-0.009726395830512047,-138,-57,-989,8,19,-9,546,-409,16,34843.0
03:40:26.678,AUTO,-35.3628699,149.1648732,21830,0.09250400960445404,-0.14022693037986755,-0.6321125030517578,0.006354052107781172,-0.025677429512143135,-0.0018591157859191298,-130,-81,-977,6,-24,-2,545,-408,15,34843.0
03:40:26.879,AUTO,-35.3628576,149.1648618,21785,0.09115610271692276,-0.13709773123264313,-0.6320226788520813,-0.04401431232690811,0.028699934482574463,0.004636902827769518,-134,-94,-995,-43,29,4,547,-408,15,34843.0
03:40:27.081,AUTO,-35.3628452,149.1648503,21744,0.09076187014579773,-0.1296989470720291,-0.631792426109314,-0.025667743757367134,0.02578098699450493,-0.0009154728031717241,-134,-87,-994,-25,26,0,547,-409,13,34843.0
03:40:27.283,AUTO,-35.3628452,149.1648503,21744,0.09076187014579773,-0.1296989470720291,-0.631792426109314,-0.025667743757367134,0.02578098699450493,-0.0009154728031717241,-134,-87,-994,-25,26,0,547,-409,13,34843.0
03:40:27.485,AUTO,-35.3628328,149.1648388,21706,0.09505924582481384,-0.12677286565303802,-0.6325057148933411,-0.001767295296303928,0.023724842816591263,-0.004269945435225964,-130,-84,-987,-1,24,-4,546,-409,12,34843.0
03:40:27.687,AUTO,-35.3628205,149.1648274,21669,0.09532967954874039,-0.11842496693134308,-0.6328356266021729,0.001732458476908505,0.061099983751773834,-0.0044408151879906654,-129,-83,-988,1,62,-4,545,-407,11,34843.0
03:40:27.889,AUTO,-35.3628082,149.164816,21637,0.09469988942146301,-0.1025545597076416,-0.6326132416725159,-0.03471298888325691,0.061540231108665466,-0.0018317603971809149,-139,-88,-998,-34,62,-2,541,-403,8,34843.0
03:40:28.156,AUTO,-35.362796,149.1648046,21611,0.09377502650022507,-0.08389899134635925,-0.6317118406295776,0.00043562022619880736,0.09347451478242874,-0.012303348630666733,-135,-86,-1002,0,94,-12,534,-398,6,34843.0
03:40:28.371,AUTO,-35.362796,149.1648046,21611,0.09377502650022507,-0.08389899134635925,-0.6317118406295776,0.00043562022619880736,0.09347451478242874,-0.012303348630666733,-135,-86,-1002,0,94,-12,534,-398,6,34843.0
03:40:28.584,AUTO,-35.362796,149.1648046,21611,0.09377502650022507,-0.08389899134635925,-0.6317118406295776,0.00043562022619880736,0.09347451478242874,-0.012303348630666733,-135,-86,-1002,0,94,-12,534,-398,6,34843.0
03:40:28.830,AUTO,-35.3627674,149.1647782,21562,0.09698113799095154,-0.05025040730834007,-0.6315113306045532,-0.026518313214182854,0.03897526115179062,0.00048157121636904776,-113,-90,-978,-26,39,0,508,-378,5,34843.0
03:40:29.034,AUTO,-35.362756,149.1647677,21538,0.09480005502700806,-0.039513200521469116,-0.6315574049949646,-0.08651458472013474,0.042234331369400024,-0.0074548013508319855,-102,-73,-980,-85,43,-7,495,-367,7,34843.0
03:40:29.236,AUTO,-35.362745,149.1647576,21511,0.09267199784517288,-0.025381529703736305,-0.6314273476600647,0.1137433871626854,0.05399239808320999,-0.017227867618203163,-124,-72,-994,114,55,-17,480,-354,8,34843.0
03:40:29.439,AUTO,-35.3627343,149.1647479,21482,0.08998724073171616,-0.02168419398367405,-0.6308451294898987,-0.022876543924212456,0.0011341673089191318,0.010288498364388943,-103,-64,-976,-22,2,9,462,-340,10,34843.0
03:40:29.641,AUTO,-35.3627343,149.1647479,21482,0.08998724073171616,-0.02168419398367405,-0.6308451294898987,-0.022876543924212456,0.0011341673089191318,0.010288498364388943,-103,-64,-976,-22,2,9,462,-340,10,131084.0
03:40:29.843,AUTO,-35.3627241,149.1647385,21448,0.08177414536476135,-0.014871476218104362,-0.6304089426994324,-0.4174181818962097,0.04586827754974365,0.007756768260151148,-108,-106,-989,-417,46,7,444,-328,12,131084.0
03:40:30.047,AUTO,-35.3627143,149.1647296,21410,0.0836271196603775,-0.00015260280633810908,-0.631282389163971,0.2101650983095169,0.05864083394408226,-0.040655989199876785,-103,-54,-986,211,59,-40,427,-312,13,131084.0
03:40:30.249,AUTO,-35.3627143,149.1647296,21410,0.0836271196603775,-0.00015260280633810908,-0.631282389163971,0.2101650983095169,0.05864083394408226,-0.040655989199876785,-103,-54,-986,211,59,-40,427,-312,13,131084.0
03:40:30.458,AUTO,-35.3627143,149.1647296,21410,0.0836271196603775,-0.00015260280633810908,-0.631282389163971,0.2101650983095169,0.05864083394408226,-0.040655989199876785,-103,-54,-986,211,59,-40,427,-312,13,131084.0
03:40:30.665,AUTO,-35.3626874,149.1647055,21279,0.0782865509390831,0.028631562367081642,-0.6310376524925232,-0.10260975360870361,0.0368148535490036,0.029713589698076248,-89,-92,-994,-103,37,29,360,-263,15,131084.0
03:40:30.867,AUTO,-35.3626874,149.1647055,21279,0.0782865509390831,0.028631562367081642,-0.6310376524925232,-0.10260975360870361,0.0368148535490036,0.029713589698076248,-89,-92,-994,-103,37,29,360,-263,15,131084.0
03:40:31.069,AUTO,-35.3626794,149.1646984,21239,0.0539320707321167,0.04068215563893318,-0.6305049061775208,-0.8211956024169922,0.05841971933841705,0.03500087559223175,-78,-106,-1010,-821,59,34,337,-245,12,131084.0
03:40:31.271,AUTO,-35.362672,149.1646918,21204,0.04645347222685814,0.0495782345533371,-0.631678581237793,-0.7818852663040161,0.009485026821494102,0.01645171083509922,-74,-79,-1012,-780,10,16,312,-227,11,131084.0
03:40:31.472,AUTO,-35.3626652,149.1646858,21170,0.04948141798377037,0.04621828347444534,-0.632077693939209,-0.18385685980319977,-0.022170567885041237,-0.029911654070019722,-71,-41,-1017,-182,-21,-30,287,-210,12,131084.0
03:40:31.675,AUTO,-35.362659,149.1646803,21138,0.056868091225624084,0.042044274508953094,-0.6327467560768127,0.5456405878067017,0.0051804534159600735,-0.026843326166272163,-61,-19,-1019,547,6,-26,265,-194,9,131084.0
03:40:31.877,AUTO,-35.362659,149.1646803,21138,0.056868091225624084,0.042044274508953094,-0.6327467560768127,0.5456405878067017,0.0051804534159600735,-0.026843326166272163,-61,-19,-1019,547,6,-26,265,-194,9,131084.0
03:40:32.079,AUTO,-35.3626532,149.1646751,21107,0.059242673218250275,0.04664754867553711,-0.6318120360374451,0.8036616444587708,0.025527682155370712,-0.0209573432803154,-59,-7,-1023,804,26,-21,244,-179,8,131084.0
03:40:32.281,AUTO,-35.3626532,149.1646751,21107,0.059242673218250275,0.04664754867553711,-0.6318120360374451,0.8036616444587708,0.025527682155370712,-0.0209573432803154,-59,-7,-1023,804,26,-21,244,-179,8,131084.0
03:40:32.483,AUTO,-35.3626532,149.1646751,21107,0.059242673218250275,0.04664754867553711,-0.6318120360374451,0.8036616444587708,0.025527682155370712,-0.0209573432803154,-59,-7,-1023,804,26,-21,244,-179,8,131084.0
03:40:32.684,AUTO,-35.3626388,149.1646623,21046,0.027080979198217392,0.06284867227077484,-0.6318565607070923,-0.7723265886306763,0.024935051798820496,0.008355113677680492,-44,-51,-1003,-771,25,8,181,-132,4,131084.0
03:40:32.886,AUTO,-35.3626388,149.1646623,21046,0.027080979198217392,0.06284867227077484,-0.6318565607070923,-0.7723265886306763,0.024935051798820496,0.008355113677680492,-44,-51,-1003,-771,25,8,181,-132,4,131084.0
03:40:33.088,AUTO,-35.362635,149.164659,21030,0.024721762165427208,0.0698675587773323,-0.6323894262313843,-0.08590690791606903,0.024919401854276657,-0.005862276069819927,-38,-10,-1003,-84,25,-5,159,-116,3,131084.0
03:40:33.296,AUTO,-35.3626317,149.164656,21018,0.0346619188785553,0.0757027119398117,-0.6324519515037537,0.6039588451385498,0.01188546884804964,-0.014658830128610134,-36,12,-1018,604,12,-14,137,-99,1,131084.0
03:40:33.503,AUTO,-35.3626289,149.1646535,21007,0.034185320138931274,0.07510193437337875,-0.6324530839920044,0.6269891858100891,-0.0058408454060554504,0.00486526545137167,-26,3,-1010,627,-4,4,115,-84,2,131084.0
03:40:33.760,AUTO,-35.3626266,149.1646513,20997,0.023017343133687973,0.06663229316473007,-0.632784366607666,-0.1586133986711502,-0.046069201081991196,0.01570034958422184,-22,-38,-1001,-159,-44,15,95,-70,1,131084.0
03:40:33.992,AUTO,-35.3626248,149.1646495,20991,0.009290979243814945,0.056755006313323975,-0.6334027647972107,-0.6640920639038086,-0.033862218260765076,0.002139634918421507,-21,-36,-1006,-663,-32,2,78,-57,1,131084.0
03:40:34.195,AUTO,-35.3626248,149.1646495,20991,0.009290979243814945,0.056755006313323975,-0.6334027647972107,-0.6640920639038086,-0.033862218260765076,0.002139634918421507,-21,-36,-1006,-663,-32,2,78,-57,1,131084.0
03:40:34.397,AUTO,-35.3626248,149.1646495,20991,0.009290979243814945,0.056755006313323975,-0.6334027647972107,-0.6640920639038086,-0.033862218260765076,0.002139634918421507,-21,-36,-1006,-663,-32,2,78,-57,1,131084.0
03:40:34.606,AUTO,-35.3626248,149.1646495,20991,0.009290979243814945,0.056755006313323975,-0.6334027647972107,-0.6640920639038086,-0.033862218260765076,0.002139634918421507,-21,-36,-1006,-663,-32,2,78,-57,1,131084.0
03:40:34.809,AUTO,-35.3626216,149.1646455,20975,0.032690513879060745,0.03679853305220604,-0.6337428689002991,0.7022799849510193,-0.02216065116226673,-0.0035047102719545364,-13,26,-1013,703,-21,-3,40,-27,0,36031.0
