time_stamp,MODE,lat,lon,relative_alt,roll,pitch,yaw,rollspeed,pitchspeed,yawspeed,xacc,yacc,zacc,xgyro,ygyro,zgyro,vx,vy,vz,LAND_SPEED_HIGH,WPNAV_SPEED_DN,RTL_ALT
13:10:17.188,GUIDED,-35.3632621,149.1652374,12,-0.00030448840698227286,0.0015189850237220526,0.02875569462776184,0.0001436087186448276,0.00023404089733958244,0.0024960311129689217,0,2,-1000,0,0,0,-1,1,-1,90.0,90.0,1500.0
13:10:17.397,GUIDED,-35.3632621,149.1652375,4,1.518369998620983e-07,0.0015766689321026206,0.02803065814077854,0.00021931063383817673,0.0002074945077765733,0.0022530904971063137,0,1,-1000,0,0,0,-1,3,2,90.0,90.0,1500.0
13:10:17.600,GUIDED,-35.3632622,149.1652376,0,-0.0003017794224433601,0.0014931269688531756,0.027478815987706184,0.0002528734039515257,0.00019935710588470101,0.0021064593456685543,0,1,-1000,0,0,0,-2,3,1,90.0,90.0,1500.0
13:10:17.806,GUIDED,-35.3632622,149.1652376,0,-0.0003017794224433601,0.0014931269688531756,0.027478815987706184,0.0002528734039515257,0.00019935710588470101,0.0021064593456685543,0,1,-1000,0,0,0,-2,3,1,90.0,90.0,1500.0
13:10:18.015,GUIDED,-35.3632622,149.1652376,0,-0.0003017794224433601,0.0014931269688531756,0.027478815987706184,0.0002528734039515257,0.00019935710588470101,0.0021064593456685543,0,1,-1000,0,0,0,-2,3,1,90.0,90.0,1500.0
13:10:18.219,GUIDED,-35.3632622,149.1652376,0,-0.0003017794224433601,0.0014931269688531756,0.027478815987706184,0.0002528734039515257,0.00019935710588470101,0.0021064593456685543,0,1,-1000,0,0,0,-2,3,1,90.0,90.0,1500.0
13:10:18.422,GUIDED,-35.3632622,149.1652376,0,-0.0003017794224433601,0.0014931269688531756,0.027478815987706184,0.0002528734039515257,0.00019935710588470101,0.0021064593456685543,0,1,-1000,0,0,0,-2,3,1,90.0,90.0,1500.0
13:10:18.634,GUIDED,-35.3632622,149.1652376,0,-0.0003017794224433601,0.0014931269688531756,0.027478815987706184,0.0002528734039515257,0.00019935710588470101,0.0021064593456685543,0,1,-1000,0,0,0,-2,3,1,90.0,90.0,1500.0
13:10:18.839,GUIDED,-35.3632622,149.1652376,0,-0.0003017794224433601,0.0014931269688531756,0.027478815987706184,0.0002528734039515257,0.00019935710588470101,0.0021064593456685543,0,1,-1000,0,0,0,-2,3,1,90.0,90.0,1500.0
13:10:19.042,GUIDED,-35.3632622,149.1652376,0,-0.0003017794224433601,0.0014931269688531756,0.027478815987706184,0.0002528734039515257,0.00019935710588470101,0.0021064593456685543,0,1,-1000,0,0,0,-2,3,1,90.0,90.0,1500.0
13:10:19.245,GUIDED,-35.3632622,149.1652376,0,-0.0003017794224433601,0.0014931269688531756,0.027478815987706184,0.0002528734039515257,0.00019935710588470101,0.0021064593456685543,0,1,-1000,0,0,0,-2,3,1,90.0,90.0,1500.0
13:10:19.454,GUIDED,-35.3632622,149.1652376,0,-0.0003017794224433601,0.0014931269688531756,0.027478815987706184,0.0002528734039515257,0.00019935710588470101,0.0021064593456685543,0,1,-1000,0,0,0,-2,3,1,90.0,90.0,1500.0
13:10:19.660,GUIDED,-35.3632622,149.1652376,0,-0.0003017794224433601,0.0014931269688531756,0.027478815987706184,0.0002528734039515257,0.00019935710588470101,0.0021064593456685543,0,1,-1000,0,0,0,-2,3,1,90.0,90.0,1500.0
13:10:19.868,GUIDED,-35.3632622,149.1652376,0,-0.0003017794224433601,0.0014931269688531756,0.027478815987706184,0.0002528734039515257,0.00019935710588470101,0.0021064593456685543,0,1,-1000,0,0,0,-2,3,1,90.0,90.0,1500.0
13:10:20.074,GUIDED,-35.3632622,149.1652376,0,-0.0003017794224433601,0.0014931269688531756,0.027478815987706184,0.0002528734039515257,0.00019935710588470101,0.0021064593456685543,0,1,-1000,0,0,0,-2,3,1,90.0,90.0,1500.0
13:10:20.280,GUIDED,-35.3632622,149.1652376,0,-0.0003017794224433601,0.0014931269688531756,0.027478815987706184,0.0002528734039515257,0.00019935710588470101,0.0021064593456685543,0,1,-1000,0,0,0,-2,3,1,90.0,90.0,1500.0
13:10:20.496,GUIDED,-35.3632622,149.1652376,0,-0.0003017794224433601,0.0014931269688531756,0.027478815987706184,0.0002528734039515257,0.00019935710588470101,0.0021064593456685543,0,1,-1000,0,0,0,-2,3,1,90.0,90.0,1500.0
13:10:20.700,GUIDED,-35.3632621,149.1652375,6,-0.0009408426121808589,0.0012684983666986227,0.026694802567362785,0.0001273592351935804,0.00028993276646360755,0.0023226903285831213,0,2,-1000,0,0,0,-1,0,0,90.0,90.0,1500.0
13:10:20.903,GUIDED,-35.3632621,149.1652375,6,-0.0009124141652137041,0.0013838474405929446,0.026332754641771317,0.00017374998424202204,0.00025015033315867186,0.0020683645270764828,0,1,-1000,0,0,0,0,0,0,90.0,90.0,1500.0
13:10:23.477,GUIDED,-35.3632621,149.1652375,6,-0.0009124141652137041,0.0013838474405929446,0.026332754641771317,0.00017374998424202204,0.00025015033315867186,0.0020683645270764828,0,1,-1000,0,1,1,0,0,0,90.0,90.0,1500.0
13:10:23.684,GUIDED,-35.3632621,149.1652375,6,-0.0009124141652137041,0.0013838474405929446,0.026332754641771317,0.00017374998424202204,0.00025015033315867186,0.0020683645270764828,0,1,-1000,0,1,1,0,0,0,90.0,90.0,1500.0
13:10:23.887,GUIDED,-35.3632621,149.1652375,6,-0.0009124141652137041,0.0013838474405929446,0.026332754641771317,0.00017374998424202204,0.00025015033315867186,0.0020683645270764828,0,1,-1000,0,1,1,0,0,0,90.0,90.0,1500.0
13:10:24.089,GUIDED,-35.3632621,149.1652375,6,-0.0009124141652137041,0.0013838474405929446,0.026332754641771317,0.00017374998424202204,0.00025015033315867186,0.0020683645270764828,0,1,-1000,0,1,1,0,0,0,90.0,90.0,1500.0
13:10:24.291,GUIDED,-35.3632621,149.1652375,6,-0.0009124141652137041,0.0013838474405929446,0.026332754641771317,0.00017374998424202204,0.00025015033315867186,0.0020683645270764828,0,1,-1000,0,1,1,0,0,0,90.0,90.0,1500.0
13:10:24.498,GUIDED,-35.3632621,149.1652375,6,-0.0009124141652137041,0.0013838474405929446,0.026332754641771317,0.00017374998424202204,0.00025015033315867186,0.0020683645270764828,0,1,-1000,0,1,1,0,0,0,90.0,90.0,1500.0
13:10:24.700,GUIDED,-35.3632621,149.1652375,6,-0.0009124141652137041,0.0013838474405929446,0.026332754641771317,0.00017374998424202204,0.00025015033315867186,0.0020683645270764828,0,1,-1000,0,1,1,0,0,0,90.0,90.0,1500.0
13:10:24.903,GUIDED,-35.3632621,149.1652375,6,-0.0009124141652137041,0.0013838474405929446,0.026332754641771317,0.00017374998424202204,0.00025015033315867186,0.0020683645270764828,0,1,-1000,0,1,1,0,0,0,90.0,90.0,1500.0
13:10:25.109,GUIDED,-35.3632621,149.1652375,6,-0.0009124141652137041,0.0013838474405929446,0.026332754641771317,0.00017374998424202204,0.00025015033315867186,0.0020683645270764828,0,1,-1000,0,1,1,0,0,0,90.0,90.0,1500.0
13:10:25.319,GUIDED,-35.3632621,149.1652375,6,-0.0009124141652137041,0.0013838474405929446,0.026332754641771317,0.00017374998424202204,0.00025015033315867186,0.0020683645270764828,0,1,-1000,0,1,1,0,0,0,90.0,90.0,1500.0
13:10:25.524,GUIDED,-35.3632621,149.1652375,6,-0.0009124141652137041,0.0013838474405929446,0.026332754641771317,0.00017374998424202204,0.00025015033315867186,0.0020683645270764828,0,1,-1000,0,1,1,0,0,0,90.0,90.0,1500.0
13:10:25.726,GUIDED,-35.3632621,149.1652375,6,-0.0009124141652137041,0.0013838474405929446,0.026332754641771317,0.00017374998424202204,0.00025015033315867186,0.0020683645270764828,0,1,-1000,0,1,1,0,0,0,90.0,90.0,1500.0
13:10:25.931,GUIDED,-35.3632621,149.1652374,6,-0.0004223364812787622,0.001657687476836145,0.025797616690397263,0.0002149970969185233,0.00025265192380174994,0.002003525849431753,0,2,-1000,0,0,1,0,0,0,90.0,90.0,1500.0
13:10:26.133,GUIDED,-35.3632621,149.1652374,7,-0.0002577631385065615,0.0018606071826070547,0.02541002817451954,0.0002922525745816529,0.0003472585813142359,0.0019118322525173426,0,1,-1000,0,0,1,0,0,0,90.0,90.0,1500.0
13:10:26.335,GUIDED,-35.3632621,149.1652374,7,-0.0002577631385065615,0.0018606071826070547,0.02541002817451954,0.0002922525745816529,0.0003472585813142359,0.0019118322525173426,0,1,-1000,0,0,1,0,0,0,90.0,90.0,1500.0
13:10:26.542,GUIDED,-35.3632621,149.1652374,7,-0.0002577631385065615,0.0018606071826070547,0.02541002817451954,0.0002922525745816529,0.0003472585813142359,0.0019118322525173426,0,1,-1000,0,0,1,0,0,0,90.0,90.0,1500.0
13:10:26.748,GUIDED,-35.3632621,149.1652374,7,-0.0002577631385065615,0.0018606071826070547,0.02541002817451954,0.0002922525745816529,0.0003472585813142359,0.0019118322525173426,0,1,-1000,0,0,1,0,0,0,90.0,90.0,1500.0
13:10:26.956,GUIDED,-35.3632621,149.1652374,7,-0.0002577631385065615,0.0018606071826070547,0.02541002817451954,0.0002922525745816529,0.0003472585813142359,0.0019118322525173426,0,1,-1000,0,0,1,0,0,0,90.0,90.0,1500.0
13:10:27.169,GUIDED,-35.3632621,149.1652374,7,-0.0002577631385065615,0.0018606071826070547,0.02541002817451954,0.0002922525745816529,0.0003472585813142359,0.0019118322525173426,0,1,-1000,0,0,1,0,0,0,90.0,90.0,1500.0
13:10:27.379,GUIDED,-35.3632621,149.1652374,7,-0.0002577631385065615,0.0018606071826070547,0.02541002817451954,0.0002922525745816529,0.0003472585813142359,0.0019118322525173426,0,1,-1000,0,0,1,0,0,0,90.0,90.0,1500.0
13:10:27.582,GUIDED,-35.3632621,149.1652374,7,-0.0002577631385065615,0.0018606071826070547,0.02541002817451954,0.0002922525745816529,0.0003472585813142359,0.0019118322525173426,0,1,-1000,0,0,1,0,0,0,90.0,90.0,1500.0
13:10:27.790,GUIDED,-35.3632621,149.1652374,7,-0.0002577631385065615,0.0018606071826070547,0.02541002817451954,0.0002922525745816529,0.0003472585813142359,0.0019118322525173426,0,1,-1000,0,0,1,0,0,0,90.0,90.0,1500.0
13:10:27.996,GUIDED,-35.3632621,149.1652374,7,-0.0002577631385065615,0.0018606071826070547,0.02541002817451954,0.0002922525745816529,0.0003472585813142359,0.0019118322525173426,0,1,-1000,0,0,1,0,0,0,90.0,90.0,1500.0
13:10:28.200,GUIDED,-35.3632621,149.1652375,8,1.714024256216362e-05,0.002206838456913829,0.02472815290093422,0.00033554661786183715,0.0003127843956463039,0.0017642488237470388,0,1,-1000,0,0,0,0,0,0,90.0,90.0,1500.0
13:10:28.402,GUIDED,-35.3632621,149.1652375,9,0.00013812963152304292,0.00236307829618454,0.024423204362392426,0.00045347894774749875,0.0002955691597890109,0.001857676776126027,0,2,-1000,0,0,1,0,0,0,90.0,90.0,1500.0
13:10:28.612,GUIDED,-35.3632621,149.1652375,9,0.00013812963152304292,0.00236307829618454,0.024423204362392426,0.00045347894774749875,0.0002955691597890109,0.001857676776126027,0,2,-1000,0,0,1,0,0,0,90.0,90.0,1500.0
13:10:28.816,GUIDED,-35.3632621,149.1652375,9,0.00013812963152304292,0.00236307829618454,0.024423204362392426,0.00045347894774749875,0.0002955691597890109,0.001857676776126027,0,2,-1000,0,0,1,0,0,0,90.0,90.0,1500.0
13:10:29.028,GUIDED,-35.3632621,149.1652375,9,0.00013812963152304292,0.00236307829618454,0.024423204362392426,0.00045347894774749875,0.0002955691597890109,0.001857676776126027,0,2,-1000,0,0,1,0,0,0,90.0,90.0,1500.0
13:10:29.232,GUIDED,-35.3632621,149.1652375,9,0.00013812963152304292,0.00236307829618454,0.024423204362392426,0.00045347894774749875,0.0002955691597890109,0.001857676776126027,0,2,-1000,0,0,1,0,0,0,90.0,90.0,1500.0
13:10:29.437,GUIDED,-35.3632621,149.1652375,9,0.00013812963152304292,0.00236307829618454,0.024423204362392426,0.00045347894774749875,0.0002955691597890109,0.001857676776126027,0,2,-1000,0,0,1,0,0,0,90.0,90.0,1500.0
13:10:29.639,GUIDED,-35.3632621,149.1652375,9,0.00013812963152304292,0.00236307829618454,0.024423204362392426,0.00045347894774749875,0.0002955691597890109,0.001857676776126027,0,2,-1000,0,0,1,0,0,0,90.0,90.0,1500.0
13:10:29.843,GUIDED,-35.3632621,149.1652375,9,0.00013812963152304292,0.00236307829618454,0.024423204362392426,0.00045347894774749875,0.0002955691597890109,0.001857676776126027,0,2,-1000,0,0,1,0,0,0,90.0,90.0,1500.0
13:10:30.048,GUIDED,-35.3632621,149.1652375,9,0.00013812963152304292,0.00236307829618454,0.024423204362392426,0.00045347894774749875,0.0002955691597890109,0.001857676776126027,0,2,-1000,0,0,1,0,0,0,90.0,90.0,1500.0
13:10:30.254,GUIDED,-35.3632621,149.1652375,9,0.00013812963152304292,0.00236307829618454,0.024423204362392426,0.00045347894774749875,0.0002955691597890109,0.001857676776126027,0,2,-1000,0,0,1,0,0,0,90.0,90.0,1500.0
13:10:30.461,GUIDED,-35.3632621,149.1652375,136,0.0023346631787717342,-0.0014864568365737796,0.0238809771835804,0.0033848490566015244,0.006921196356415749,0.0026856274344027042,0,0,-1136,3,7,1,0,0,-58,90.0,90.0,1500.0
13:10:30.666,GUIDED,-35.3632621,149.1652375,136,0.0023346631787717342,-0.0014864568365737796,0.0238809771835804,0.0033848490566015244,0.006921196356415749,0.0026856274344027042,0,0,-1136,3,7,1,0,0,-58,90.0,90.0,1500.0
13:10:30.870,GUIDED,-35.3632621,149.1652375,136,0.0023346631787717342,-0.0014864568365737796,0.0238809771835804,0.0033848490566015244,0.006921196356415749,0.0026856274344027042,0,0,-1136,3,7,1,0,0,-58,90.0,90.0,1500.0
13:10:31.073,GUIDED,-35.3632621,149.1652375,136,0.0023346631787717342,-0.0014864568365737796,0.0238809771835804,0.0033848490566015244,0.006921196356415749,0.0026856274344027042,0,0,-1136,3,7,1,0,0,-58,90.0,90.0,1500.0
13:10:31.277,GUIDED,-35.3632621,149.1652375,136,0.0023346631787717342,-0.0014864568365737796,0.0238809771835804,0.0033848490566015244,0.006921196356415749,0.0026856274344027042,0,0,-1136,3,7,1,0,0,-58,90.0,90.0,1500.0
13:10:31.479,GUIDED,-35.3632621,149.1652375,136,0.0023346631787717342,-0.0014864568365737796,0.0238809771835804,0.0033848490566015244,0.006921196356415749,0.0026856274344027042,0,0,-1136,3,7,1,0,0,-58,90.0,90.0,1500.0
13:10:31.686,GUIDED,-35.3632621,149.1652375,136,0.0023346631787717342,-0.0014864568365737796,0.0238809771835804,0.0033848490566015244,0.006921196356415749,0.0026856274344027042,0,0,-1136,3,7,1,0,0,-58,90.0,90.0,1500.0
13:10:31.892,GUIDED,-35.3632621,149.1652375,136,0.0023346631787717342,-0.0014864568365737796,0.0238809771835804,0.0033848490566015244,0.006921196356415749,0.0026856274344027042,0,0,-1136,3,7,1,0,0,-58,90.0,90.0,1500.0
13:10:32.097,GUIDED,-35.3632621,149.1652375,136,0.0023346631787717342,-0.0014864568365737796,0.0238809771835804,0.0033848490566015244,0.006921196356415749,0.0026856274344027042,0,0,-1136,3,7,1,0,0,-58,90.0,90.0,1500.0
13:10:32.299,GUIDED,-35.363262,149.1652375,1319,0.019864218309521675,0.0010626631556078792,0.023544857278466225,0.0474415123462677,-0.005934944376349449,0.0021239840425550938,0,0,-1022,47,-5,1,0,3,-144,90.0,90.0,1500.0
13:10:32.505,GUIDED,-35.3632616,149.1652393,2852,0.062229447066783905,-0.007963976822793484,-0.005357604939490557,0.03610405698418617,-0.012327246367931366,0.004204924218356609,2,-5,-999,36,-11,3,6,39,-149,90.0,90.0,1500.0
13:10:32.711,GUIDED,-35.3632614,149.1652405,3239,0.055792879313230515,0.002015880076214671,-0.018821662291884422,-0.08441919088363647,0.0974189043045044,-0.10934250801801682,1,-9,-991,-83,97,-109,9,51,-147,90.0,90.0,1500.0
13:10:32.926,GUIDED,-35.3632614,149.1652405,3239,0.055792879313230515,0.002015880076214671,-0.018821662291884422,-0.08441919088363647,0.0974189043045044,-0.10934250801801682,1,-9,-991,-83,97,-109,9,51,-147,90.0,90.0,1500.0
13:10:33.133,GUIDED,-35.3632614,149.1652405,3239,0.055792879313230515,0.002015880076214671,-0.018821662291884422,-0.08441919088363647,0.0974189043045044,-0.10934250801801682,1,-9,-991,-83,97,-109,9,51,-147,90.0,90.0,1500.0
13:10:33.342,GUIDED,-35.3632614,149.1652405,3239,0.055792879313230515,0.002015880076214671,-0.018821662291884422,-0.08441919088363647,0.0974189043045044,-0.10934250801801682,1,-9,-991,-83,97,-109,9,51,-147,90.0,90.0,1500.0
13:10:33.551,GUIDED,-35.3632614,149.1652405,3239,0.055792879313230515,0.002015880076214671,-0.018821662291884422,-0.08441919088363647,0.0974189043045044,-0.10934250801801682,1,-9,-991,-83,97,-109,9,51,-147,90.0,90.0,1500.0
13:10:33.754,GUIDED,-35.3632614,149.1652405,3239,0.055792879313230515,0.002015880076214671,-0.018821662291884422,-0.08441919088363647,0.0974189043045044,-0.10934250801801682,1,-9,-991,-83,97,-109,9,51,-147,90.0,90.0,1500.0
13:10:33.957,GUIDED,-35.3632614,149.1652405,3239,0.055792879313230515,0.002015880076214671,-0.018821662291884422,-0.08441919088363647,0.0974189043045044,-0.10934250801801682,1,-9,-991,-83,97,-109,9,51,-147,90.0,90.0,1500.0
13:10:34.160,GUIDED,-35.3632614,149.1652405,3239,0.055792879313230515,0.002015880076214671,-0.018821662291884422,-0.08441919088363647,0.0974189043045044,-0.10934250801801682,1,-9,-991,-83,97,-109,9,51,-147,90.0,90.0,1500.0
13:10:34.365,GUIDED,-35.3632614,149.1652405,3239,0.055792879313230515,0.002015880076214671,-0.018821662291884422,-0.08441919088363647,0.0974189043045044,-0.10934250801801682,1,-9,-991,-83,97,-109,9,51,-147,90.0,90.0,1500.0
13:10:34.570,GUIDED,-35.3632614,149.1652405,3239,0.055792879313230515,0.002015880076214671,-0.018821662291884422,-0.08441919088363647,0.0974189043045044,-0.10934250801801682,1,-9,-991,-83,97,-109,9,51,-147,90.0,90.0,1500.0
13:10:34.776,GUIDED,-35.3632611,149.1652453,4528,-0.01805790700018406,0.043327488005161285,-0.11096872389316559,-0.017826296389102936,-0.07311692088842392,-0.0348803736269474,6,-11,-1011,-9,26,-112,-13,46,-149,90.0,90.0,1500.0
13:10:34.979,GUIDED,-35.3632623,149.1652481,6069,-0.0773254781961441,-0.02992139384150505,-0.07978320121765137,-0.066220223903656,-0.01687777042388916,0.01455911248922348,3,0,-1000,-65,-16,13,-6,-3,-149,90.0,90.0,1500.0
13:10:35.185,GUIDED,-35.3632623,149.1652481,6069,-0.0773254781961441,-0.02992139384150505,-0.07978320121765137,-0.066220223903656,-0.01687777042388916,0.01455911248922348,3,0,-1000,-65,-16,13,-6,-3,-149,90.0,90.0,1500.0
13:10:35.388,GUIDED,-35.3632623,149.1652481,6069,-0.0773254781961441,-0.02992139384150505,-0.07978320121765137,-0.066220223903656,-0.01687777042388916,0.01455911248922348,3,0,-1000,-65,-16,13,-6,-3,-149,90.0,90.0,1500.0
13:10:35.594,GUIDED,-35.3632623,149.1652481,6069,-0.0773254781961441,-0.02992139384150505,-0.07978320121765137,-0.066220223903656,-0.01687777042388916,0.01455911248922348,3,0,-1000,-65,-16,13,-6,-3,-149,90.0,90.0,1500.0
13:10:35.798,GUIDED,-35.3632623,149.1652481,6069,-0.0773254781961441,-0.02992139384150505,-0.07978320121765137,-0.066220223903656,-0.01687777042388916,0.01455911248922348,3,0,-1000,-65,-16,13,-6,-3,-149,90.0,90.0,1500.0
13:10:36.003,GUIDED,-35.3632623,149.1652481,6069,-0.0773254781961441,-0.02992139384150505,-0.07978320121765137,-0.066220223903656,-0.01687777042388916,0.01455911248922348,3,0,-1000,-65,-16,13,-6,-3,-149,90.0,90.0,1500.0
13:10:36.205,GUIDED,-35.3632623,149.1652481,6069,-0.0773254781961441,-0.02992139384150505,-0.07978320121765137,-0.066220223903656,-0.01687777042388916,0.01455911248922348,3,0,-1000,-65,-16,13,-6,-3,-149,90.0,90.0,1500.0
13:10:36.410,GUIDED,-35.3632623,149.1652481,6069,-0.0773254781961441,-0.02992139384150505,-0.07978320121765137,-0.066220223903656,-0.01687777042388916,0.01455911248922348,3,0,-1000,-65,-16,13,-6,-3,-149,90.0,90.0,1500.0
13:10:36.622,GUIDED,-35.3632623,149.1652481,6069,-0.0773254781961441,-0.02992139384150505,-0.07978320121765137,-0.066220223903656,-0.01687777042388916,0.01455911248922348,3,0,-1000,-65,-16,13,-6,-3,-149,90.0,90.0,1500.0
13:10:36.832,GUIDED,-35.363262,149.1652426,7834,-0.031769830733537674,-0.01965770684182644,-0.08390746265649796,0.06527015566825867,0.022942135110497475,0.003908831626176834,-9,10,-1001,62,16,3,13,-72,-149,90.0,90.0,1500.0
13:10:37.045,GUIDED,-35.3632611,149.1652364,8995,0.01816055178642273,0.001522960257716477,-0.08248311281204224,0.0674816370010376,0.029240267351269722,0.004237516317516565,-12,12,-1005,68,29,3,12,-70,-152,90.0,90.0,1500.0
13:10:37.248,GUIDED,-35.3632611,149.1652364,8995,0.01816055178642273,0.001522960257716477,-0.08248311281204224,0.0674816370010376,0.029240267351269722,0.004237516317516565,-12,12,-1005,68,29,3,12,-70,-152,90.0,90.0,1500.0
13:10:37.451,GUIDED,-35.3632611,149.1652364,8995,0.01816055178642273,0.001522960257716477,-0.08248311281204224,0.0674816370010376,0.029240267351269722,0.004237516317516565,-12,12,-1005,68,29,3,12,-70,-152,90.0,90.0,1500.0
13:10:37.657,GUIDED,-35.3632611,149.1652364,8995,0.01816055178642273,0.001522960257716477,-0.08248311281204224,0.0674816370010376,0.029240267351269722,0.004237516317516565,-12,12,-1005,68,29,3,12,-70,-152,90.0,90.0,1500.0
13:10:37.863,GUIDED,-35.3632611,149.1652364,8995,0.01816055178642273,0.001522960257716477,-0.08248311281204224,0.0674816370010376,0.029240267351269722,0.004237516317516565,-12,12,-1005,68,29,3,12,-70,-152,90.0,90.0,1500.0
13:10:38.066,GUIDED,-35.3632611,149.1652364,8995,0.01816055178642273,0.001522960257716477,-0.08248311281204224,0.0674816370010376,0.029240267351269722,0.004237516317516565,-12,12,-1005,68,29,3,12,-70,-152,90.0,90.0,1500.0
13:10:38.274,GUIDED,-35.3632611,149.1652364,8995,0.01816055178642273,0.001522960257716477,-0.08248311281204224,0.0674816370010376,0.029240267351269722,0.004237516317516565,-12,12,-1005,68,29,3,12,-70,-152,90.0,90.0,1500.0
13:10:38.477,GUIDED,-35.3632611,149.1652364,8995,0.01816055178642273,0.001522960257716477,-0.08248311281204224,0.0674816370010376,0.029240267351269722,0.004237516317516565,-12,12,-1005,68,29,3,12,-70,-152,90.0,90.0,1500.0
13:10:38.681,GUIDED,-35.3632611,149.1652364,8995,0.01816055178642273,0.001522960257716477,-0.08248311281204224,0.0674816370010376,0.029240267351269722,0.004237516317516565,-12,12,-1005,68,29,3,12,-70,-152,90.0,90.0,1500.0
13:10:38.885,GUIDED,-35.3632611,149.1652364,8995,0.01816055178642273,0.001522960257716477,-0.08248311281204224,0.0674816370010376,0.029240267351269722,0.004237516317516565,-12,12,-1005,68,29,3,12,-70,-152,90.0,90.0,1500.0
13:10:39.088,GUIDED,-35.3632611,149.1652364,8995,0.01816055178642273,0.001522960257716477,-0.08248311281204224,0.0674816370010376,0.029240267351269722,0.004237516317516565,-12,12,-1005,68,29,3,12,-70,-152,90.0,90.0,1500.0
13:10:39.290,GUIDED,-35.3632606,149.165231,10809,0.08851570636034012,0.021555572748184204,-0.07826518267393112,0.05264538899064064,0.0009616055758669972,0.004897299222648144,-5,6,-1001,58,10,3,-4,0,-154,90.0,90.0,1500.0
13:10:39.495,GUIDED,-35.3632615,149.1652351,12341,0.02073543518781662,0.026235755532979965,-0.11172858625650406,-0.1623309701681137,-0.09178189188241959,0.009941518306732178,12,-9,-1003,-161,-91,9,-22,68,-145,90.0,90.0,1500.0
13:10:39.698,GUIDED,-35.3632615,149.1652351,12341,0.02073543518781662,0.026235755532979965,-0.11172858625650406,-0.1623309701681137,-0.09178189188241959,0.009941518306732178,12,-9,-1003,-161,-91,9,-22,68,-145,90.0,90.0,1500.0
13:10:39.900,GUIDED,-35.3632615,149.1652351,12341,0.02073543518781662,0.026235755532979965,-0.11172858625650406,-0.1623309701681137,-0.09178189188241959,0.009941518306732178,12,-9,-1003,-161,-91,9,-22,68,-145,90.0,90.0,1500.0
13:10:40.103,GUIDED,-35.3632615,149.1652351,12341,0.02073543518781662,0.026235755532979965,-0.11172858625650406,-0.1623309701681137,-0.09178189188241959,0.009941518306732178,12,-9,-1003,-161,-91,9,-22,68,-145,90.0,90.0,1500.0
13:10:40.311,GUIDED,-35.3632615,149.1652351,12341,0.02073543518781662,0.026235755532979965,-0.11172858625650406,-0.1623309701681137,-0.09178189188241959,0.009941518306732178,12,-9,-1003,-161,-91,9,-22,68,-145,90.0,90.0,1500.0
13:10:40.515,GUIDED,-35.3632615,149.1652351,12341,0.02073543518781662,0.026235755532979965,-0.11172858625650406,-0.1623309701681137,-0.09178189188241959,0.009941518306732178,12,-9,-1003,-161,-91,9,-22,68,-145,90.0,90.0,1500.0
13:10:40.720,GUIDED,-35.3632615,149.1652351,12341,0.02073543518781662,0.026235755532979965,-0.11172858625650406,-0.1623309701681137,-0.09178189188241959,0.009941518306732178,12,-9,-1003,-161,-91,9,-22,68,-145,90.0,90.0,1500.0
13:10:40.933,GUIDED,-35.3632615,149.1652351,12341,0.02073543518781662,0.026235755532979965,-0.11172858625650406,-0.1623309701681137,-0.09178189188241959,0.009941518306732178,12,-9,-1003,-161,-91,9,-22,68,-145,90.0,90.0,1500.0
13:10:41.141,GUIDED,-35.3632615,149.1652351,12341,0.02073543518781662,0.026235755532979965,-0.11172858625650406,-0.1623309701681137,-0.09178189188241959,0.009941518306732178,12,-9,-1003,-161,-91,9,-22,68,-145,90.0,90.0,1500.0
13:10:41.346,GUIDED,-35.3632632,149.165241,14195,-0.05419139191508293,-0.0215403251349926,-0.12094932794570923,0.0249004103243351,-0.0020245674531906843,-0.02525521069765091,3,-2,-1002,25,-1,-26,-5,9,-154,90.0,90.0,1500.0
13:10:41.557,GUIDED,-35.3632632,149.165241,14195,-0.05419139191508293,-0.0215403251349926,-0.12094932794570923,0.0249004103243351,-0.0020245674531906843,-0.02525521069765091,3,-2,-1002,25,-1,-26,-5,9,-154,90.0,90.0,1500.0
13:10:41.761,GUIDED,-35.3632632,149.165241,14195,-0.05419139191508293,-0.0215403251349926,-0.12094932794570923,0.0249004103243351,-0.0020245674531906843,-0.02525521069765091,3,-2,-1002,25,-1,-26,-5,9,-154,90.0,90.0,1500.0
13:10:41.967,GUIDED,-35.3632632,149.165241,14195,-0.05419139191508293,-0.0215403251349926,-0.12094932794570923,0.0249004103243351,-0.0020245674531906843,-0.02525521069765091,3,-2,-1002,25,-1,-26,-5,9,-154,90.0,90.0,1500.0
13:10:42.169,GUIDED,-35.3632632,149.165241,14195,-0.05419139191508293,-0.0215403251349926,-0.12094932794570923,0.0249004103243351,-0.0020245674531906843,-0.02525521069765091,3,-2,-1002,25,-1,-26,-5,9,-154,90.0,90.0,1500.0
13:10:42.377,GUIDED,-35.3632632,149.165241,14195,-0.05419139191508293,-0.0215403251349926,-0.12094932794570923,0.0249004103243351,-0.0020245674531906843,-0.02525521069765091,3,-2,-1002,25,-1,-26,-5,9,-154,90.0,90.0,1500.0
13:10:42.579,GUIDED,-35.3632632,149.165241,14195,-0.05419139191508293,-0.0215403251349926,-0.12094932794570923,0.0249004103243351,-0.0020245674531906843,-0.02525521069765091,3,-2,-1002,25,-1,-26,-5,9,-154,90.0,90.0,1500.0
13:10:42.784,GUIDED,-35.3632632,149.165241,14195,-0.05419139191508293,-0.0215403251349926,-0.12094932794570923,0.0249004103243351,-0.0020245674531906843,-0.02525521069765091,3,-2,-1002,25,-1,-26,-5,9,-154,90.0,90.0,1500.0
13:10:42.992,GUIDED,-35.3632632,149.165241,14195,-0.05419139191508293,-0.0215403251349926,-0.12094932794570923,0.0249004103243351,-0.0020245674531906843,-0.02525521069765091,3,-2,-1002,25,-1,-26,-5,9,-154,90.0,90.0,1500.0
13:10:43.196,GUIDED,-35.3632625,149.165238,16473,0.0033167777583003044,-0.0054034702479839325,-0.1554635614156723,0.04221843183040619,0.026515362784266472,-0.02505132183432579,-7,4,-1001,43,27,-26,12,-31,-153,90.0,90.0,1500.0
13:10:43.403,GUIDED,-35.3632615,149.165235,18443,0.03506037965416908,0.027210742235183716,-0.1929406225681305,-0.023944217711687088,-0.01703742891550064,-0.006655399221926928,-1,0,-996,-23,-16,-7,-2,1,-153,90.0,90.0,1500.0
13:10:43.606,GUIDED,-35.3632615,149.165235,18443,0.03506037965416908,0.027210742235183716,-0.1929406225681305,-0.023944217711687088,-0.01703742891550064,-0.006655399221926928,-1,0,-996,-23,-16,-7,-2,1,-153,90.0,90.0,1500.0
13:10:43.808,GUIDED,-35.3632615,149.165235,18443,0.03506037965416908,0.027210742235183716,-0.1929406225681305,-0.023944217711687088,-0.01703742891550064,-0.006655399221926928,-1,0,-996,-23,-16,-7,-2,1,-153,90.0,90.0,1500.0
13:10:44.011,GUIDED,-35.3632615,149.165235,18443,0.03506037965416908,0.027210742235183716,-0.1929406225681305,-0.023944217711687088,-0.01703742891550064,-0.006655399221926928,-1,0,-996,-23,-16,-7,-2,1,-153,90.0,90.0,1500.0
13:10:44.213,GUIDED,-35.3632615,149.165235,18443,0.03506037965416908,0.027210742235183716,-0.1929406225681305,-0.023944217711687088,-0.01703742891550064,-0.006655399221926928,-1,0,-996,-23,-16,-7,-2,1,-153,90.0,90.0,1500.0
13:10:44.417,GUIDED,-35.3632615,149.165235,18443,0.03506037965416908,0.027210742235183716,-0.1929406225681305,-0.023944217711687088,-0.01703742891550064,-0.006655399221926928,-1,0,-996,-23,-16,-7,-2,1,-153,90.0,90.0,1500.0
13:10:44.619,GUIDED,-35.3632615,149.165235,18443,0.03506037965416908,0.027210742235183716,-0.1929406225681305,-0.023944217711687088,-0.01703742891550064,-0.006655399221926928,-1,0,-996,-23,-16,-7,-2,1,-153,90.0,90.0,1500.0
13:10:44.823,GUIDED,-35.3632615,149.165235,18443,0.03506037965416908,0.027210742235183716,-0.1929406225681305,-0.023944217711687088,-0.01703742891550064,-0.006655399221926928,-1,0,-996,-23,-16,-7,-2,1,-153,90.0,90.0,1500.0
13:10:45.025,GUIDED,-35.3632615,149.165235,18443,0.03506037965416908,0.027210742235183716,-0.1929406225681305,-0.023944217711687088,-0.01703742891550064,-0.006655399221926928,-1,0,-996,-23,-16,-7,-2,1,-153,90.0,90.0,1500.0
13:10:45.228,GUIDED,-35.3632616,149.1652355,19526,0.009140238165855408,0.0074592046439647675,-0.1872369349002838,-0.03252740576863289,-0.023369189351797104,0.011608056724071503,-1,0,-996,-23,-16,-7,-8,15,-152,90.0,90.0,1500.0
13:10:45.429,GUIDED,-35.3632619,149.1652365,20694,-0.005751598160713911,-0.0014700659085065126,-0.18796439468860626,-0.0056500984355807304,-0.002546289237216115,-0.006445210427045822,2,-1,-1001,-4,-1,-7,-5,11,-153,90.0,90.0,1500.0
13:10:45.634,GUIDED,-35.3632619,149.1652365,20694,-0.005751598160713911,-0.0014700659085065126,-0.18796439468860626,-0.0056500984355807304,-0.002546289237216115,-0.006445210427045822,2,-1,-1001,-4,-1,-7,-5,11,-153,90.0,90.0,1500.0
13:10:45.836,GUIDED,-35.3632619,149.1652365,20694,-0.005751598160713911,-0.0014700659085065126,-0.18796439468860626,-0.0056500984355807304,-0.002546289237216115,-0.006445210427045822,2,-1,-1001,-4,-1,-7,-5,11,-153,90.0,90.0,1500.0
13:10:46.039,GUIDED,-35.3632619,149.1652365,20694,-0.005751598160713911,-0.0014700659085065126,-0.18796439468860626,-0.0056500984355807304,-0.002546289237216115,-0.006445210427045822,2,-1,-1001,-4,-1,-7,-5,11,-153,90.0,90.0,1500.0
13:10:46.244,GUIDED,-35.3632619,149.1652365,20694,-0.005751598160713911,-0.0014700659085065126,-0.18796439468860626,-0.0056500984355807304,-0.002546289237216115,-0.006445210427045822,2,-1,-1001,-4,-1,-7,-5,11,-153,90.0,90.0,1500.0
13:10:46.450,GUIDED,-35.3632619,149.1652365,20694,-0.005751598160713911,-0.0014700659085065126,-0.18796439468860626,-0.0056500984355807304,-0.002546289237216115,-0.006445210427045822,2,-1,-1001,-4,-1,-7,-5,11,-153,90.0,90.0,1500.0
13:10:46.656,GUIDED,-35.3632619,149.1652365,20694,-0.005751598160713911,-0.0014700659085065126,-0.18796439468860626,-0.0056500984355807304,-0.002546289237216115,-0.006445210427045822,2,-1,-1001,-4,-1,-7,-5,11,-153,90.0,90.0,1500.0
13:10:46.861,GUIDED,-35.3632619,149.1652365,20694,-0.005751598160713911,-0.0014700659085065126,-0.18796439468860626,-0.0056500984355807304,-0.002546289237216115,-0.006445210427045822,2,-1,-1001,-4,-1,-7,-5,11,-153,90.0,90.0,1500.0
13:10:47.065,GUIDED,-35.363262,149.1652369,21953,-0.004905386827886105,-0.001665688119828701,-0.20190279185771942,0.0062187910079956055,0.004093560855835676,-0.020563626661896706,0,0,-1000,6,4,-21,-1,2,-154,90.0,90.0,1500.0
13:10:47.269,GUIDED,-35.363262,149.1652368,23912,0.002653785515576601,0.0018999306485056877,-0.2282930463552475,0.004628739319741726,0.0018460314022377133,-0.019192403182387352,0,0,-1000,5,2,-19,0,-1,-154,90.0,90.0,1500.0
13:10:47.474,GUIDED,-35.363262,149.1652368,23912,0.002653785515576601,0.0018999306485056877,-0.2282930463552475,0.004628739319741726,0.0018460314022377133,-0.019192403182387352,0,0,-1000,5,2,-19,0,-1,-154,90.0,90.0,1500.0
13:10:47.680,GUIDED,-35.363262,149.1652368,23912,0.002653785515576601,0.0018999306485056877,-0.2282930463552475,0.004628739319741726,0.0018460314022377133,-0.019192403182387352,0,0,-1000,5,2,-19,0,-1,-154,90.0,90.0,1500.0
13:10:47.884,GUIDED,-35.363262,149.1652368,23912,0.002653785515576601,0.0018999306485056877,-0.2282930463552475,0.004628739319741726,0.0018460314022377133,-0.019192403182387352,0,0,-1000,5,2,-19,0,-1,-154,90.0,90.0,1500.0
13:10:48.094,GUIDED,-35.363262,149.1652368,23912,0.002653785515576601,0.0018999306485056877,-0.2282930463552475,0.004628739319741726,0.0018460314022377133,-0.019192403182387352,0,0,-1000,5,2,-19,0,-1,-154,90.0,90.0,1500.0
13:10:48.297,GUIDED,-35.363262,149.1652368,23912,0.002653785515576601,0.0018999306485056877,-0.2282930463552475,0.004628739319741726,0.0018460314022377133,-0.019192403182387352,0,0,-1000,5,2,-19,0,-1,-154,90.0,90.0,1500.0
13:10:48.500,GUIDED,-35.363262,149.1652368,23912,0.002653785515576601,0.0018999306485056877,-0.2282930463552475,0.004628739319741726,0.0018460314022377133,-0.019192403182387352,0,0,-1000,5,2,-19,0,-1,-154,90.0,90.0,1500.0
13:10:48.702,GUIDED,-35.363262,149.1652368,23912,0.002653785515576601,0.0018999306485056877,-0.2282930463552475,0.004628739319741726,0.0018460314022377133,-0.019192403182387352,0,0,-1000,5,2,-19,0,-1,-154,90.0,90.0,1500.0
13:10:48.908,GUIDED,-35.363262,149.1652368,23912,0.002653785515576601,0.0018999306485056877,-0.2282930463552475,0.004628739319741726,0.0018460314022377133,-0.019192403182387352,0,0,-1000,5,2,-19,0,-1,-154,90.0,90.0,1500.0
13:10:49.115,GUIDED,-35.363262,149.1652368,23912,0.002653785515576601,0.0018999306485056877,-0.2282930463552475,0.004628739319741726,0.0018460314022377133,-0.019192403182387352,0,0,-1000,5,2,-19,0,-1,-154,90.0,90.0,1500.0
13:10:49.321,GUIDED,-35.3632619,149.1652359,26961,0.01302892342209816,0.005890103988349438,-0.2519725561141968,0.01882927492260933,0.0014210238587111235,0.013664139434695244,0,1,-1000,32,4,3,-3,-2,-154,90.0,90.0,1500.0
13:10:49.524,GUIDED,-35.3632619,149.1652359,26961,0.01302892342209816,0.005890103988349438,-0.2519725561141968,0.01882927492260933,0.0014210238587111235,0.013664139434695244,0,1,-999,19,2,13,-3,-2,-154,90.0,90.0,1500.0
13:10:49.728,GUIDED,-35.3632619,149.1652359,26961,0.01302892342209816,0.005890103988349438,-0.2519725561141968,0.01882927492260933,0.0014210238587111235,0.013664139434695244,0,1,-999,19,2,13,-3,-2,-154,90.0,90.0,1500.0
13:10:49.934,GUIDED,-35.3632619,149.1652359,26961,0.01302892342209816,0.005890103988349438,-0.2519725561141968,0.01882927492260933,0.0014210238587111235,0.013664139434695244,0,1,-999,19,2,13,-3,-2,-154,90.0,90.0,1500.0
13:10:50.137,GUIDED,-35.3632619,149.1652359,26961,0.01302892342209816,0.005890103988349438,-0.2519725561141968,0.01882927492260933,0.0014210238587111235,0.013664139434695244,0,1,-999,19,2,13,-3,-2,-154,90.0,90.0,1500.0
13:10:50.341,GUIDED,-35.3632619,149.1652359,26961,0.01302892342209816,0.005890103988349438,-0.2519725561141968,0.01882927492260933,0.0014210238587111235,0.013664139434695244,0,1,-999,19,2,13,-3,-2,-154,90.0,90.0,1500.0
13:10:50.546,GUIDED,-35.3632619,149.1652359,26961,0.01302892342209816,0.005890103988349438,-0.2519725561141968,0.01882927492260933,0.0014210238587111235,0.013664139434695244,0,1,-999,19,2,13,-3,-2,-154,90.0,90.0,1500.0
13:10:50.753,GUIDED,-35.3632619,149.1652359,26961,0.01302892342209816,0.005890103988349438,-0.2519725561141968,0.01882927492260933,0.0014210238587111235,0.013664139434695244,0,1,-999,19,2,13,-3,-2,-154,90.0,90.0,1500.0
13:10:50.956,GUIDED,-35.3632619,149.1652359,26961,0.01302892342209816,0.005890103988349438,-0.2519725561141968,0.01882927492260933,0.0014210238587111235,0.013664139434695244,0,1,-999,19,2,13,-3,-2,-154,90.0,90.0,1500.0
13:10:51.159,GUIDED,-35.3632619,149.1652359,26961,0.01302892342209816,0.005890103988349438,-0.2519725561141968,0.01882927492260933,0.0014210238587111235,0.013664139434695244,0,1,-999,19,2,13,-3,-2,-154,90.0,90.0,1500.0
13:10:51.373,GUIDED,-35.3632621,149.165237,29917,0.0014366204850375652,0.0029235100373625755,-0.20942701399326324,-0.006661931052803993,-0.0014702193439006805,0.023516954854130745,1,-1,-1001,-6,0,24,-1,11,-153,90.0,90.0,1500.0
13:10:51.582,GUIDED,-35.3632621,149.1652372,30306,-0.0002836847270373255,0.00281624891795218,-0.20410138368606567,-0.007068140432238579,-0.00037498303572647274,0.022123878821730614,1,-1,-1000,-6,0,21,-1,10,-153,90.0,90.0,1500.0
13:10:51.786,GUIDED,-35.3632621,149.1652372,30306,-0.0002836847270373255,0.00281624891795218,-0.20410138368606567,-0.007068140432238579,-0.00037498303572647274,0.022123878821730614,1,-1,-1000,-6,0,21,-1,10,-153,90.0,90.0,1500.0
13:10:51.988,GUIDED,-35.3632621,149.1652372,30306,-0.0002836847270373255,0.00281624891795218,-0.20410138368606567,-0.007068140432238579,-0.00037498303572647274,0.022123878821730614,1,-1,-1000,-6,0,21,-1,10,-153,90.0,90.0,1500.0
13:10:52.194,GUIDED,-35.3632621,149.1652372,30306,-0.0002836847270373255,0.00281624891795218,-0.20410138368606567,-0.007068140432238579,-0.00037498303572647274,0.022123878821730614,1,-1,-1000,-6,0,21,-1,10,-153,90.0,90.0,1500.0
13:10:52.397,GUIDED,-35.3632621,149.1652372,30306,-0.0002836847270373255,0.00281624891795218,-0.20410138368606567,-0.007068140432238579,-0.00037498303572647274,0.022123878821730614,1,-1,-1000,-6,0,21,-1,10,-153,90.0,90.0,1500.0
13:10:52.602,GUIDED,-35.3632621,149.1652372,30306,-0.0002836847270373255,0.00281624891795218,-0.20410138368606567,-0.007068140432238579,-0.00037498303572647274,0.022123878821730614,1,-1,-1000,-6,0,21,-1,10,-153,90.0,90.0,1500.0
13:10:52.809,GUIDED,-35.3632621,149.1652372,30306,-0.0002836847270373255,0.00281624891795218,-0.20410138368606567,-0.007068140432238579,-0.00037498303572647274,0.022123878821730614,1,-1,-1000,-6,0,21,-1,10,-153,90.0,90.0,1500.0
13:10:53.014,GUIDED,-35.3632621,149.1652372,30306,-0.0002836847270373255,0.00281624891795218,-0.20410138368606567,-0.007068140432238579,-0.00037498303572647274,0.022123878821730614,1,-1,-1000,-6,0,21,-1,10,-153,90.0,90.0,1500.0
13:10:53.217,GUIDED,-35.3632621,149.1652372,30306,-0.0002836847270373255,0.00281624891795218,-0.20410138368606567,-0.007068140432238579,-0.00037498303572647274,0.022123878821730614,1,-1,-1000,-6,0,21,-1,10,-153,90.0,90.0,1500.0
13:10:53.419,GUIDED,-35.3632621,149.1652372,30306,-0.0002836847270373255,0.00281624891795218,-0.20410138368606567,-0.007068140432238579,-0.00037498303572647274,0.022123878821730614,1,-1,-1000,-6,0,21,-1,10,-153,90.0,90.0,1500.0
13:10:53.624,GUIDED,-35.3632622,149.1652381,32571,-0.0018565952777862549,0.0012520061573013663,-0.17607378959655762,0.0010009024990722537,0.0002376021584495902,0.017085131257772446,0,0,-1000,1,1,16,-1,3,-153,90.0,90.0,1500.0
13:10:53.827,GUIDED,-35.3632622,149.1652381,32961,-0.0012254695175215602,0.0012840306153520942,-0.1719428300857544,0.005237603094428778,0.00045505660818889737,0.01660200022161007,0,0,-1001,5,1,16,-1,2,-153,90.0,90.0,1500.0
13:10:54.029,GUIDED,-35.3632622,149.1652381,32961,-0.0012254695175215602,0.0012840306153520942,-0.1719428300857544,0.005237603094428778,0.00045505660818889737,0.01660200022161007,0,0,-1001,5,1,16,-1,2,-153,90.0,90.0,1500.0
13:10:54.231,GUIDED,-35.3632622,149.1652381,32961,-0.0012254695175215602,0.0012840306153520942,-0.1719428300857544,0.005237603094428778,0.00045505660818889737,0.01660200022161007,0,0,-1001,5,1,16,-1,2,-153,90.0,90.0,1500.0
13:10:54.432,GUIDED,-35.3632622,149.1652381,32961,-0.0012254695175215602,0.0012840306153520942,-0.1719428300857544,0.005237603094428778,0.00045505660818889737,0.01660200022161007,0,0,-1001,5,1,16,-1,2,-153,90.0,90.0,1500.0
13:10:54.636,GUIDED,-35.3632622,149.1652381,32961,-0.0012254695175215602,0.0012840306153520942,-0.1719428300857544,0.005237603094428778,0.00045505660818889737,0.01660200022161007,0,0,-1001,5,1,16,-1,2,-153,90.0,90.0,1500.0
13:10:54.839,GUIDED,-35.3632622,149.1652381,32961,-0.0012254695175215602,0.0012840306153520942,-0.1719428300857544,0.005237603094428778,0.00045505660818889737,0.01660200022161007,0,0,-1001,5,1,16,-1,2,-153,90.0,90.0,1500.0
13:10:55.042,GUIDED,-35.3632622,149.1652381,32961,-0.0012254695175215602,0.0012840306153520942,-0.1719428300857544,0.005237603094428778,0.00045505660818889737,0.01660200022161007,0,0,-1001,5,1,16,-1,2,-153,90.0,90.0,1500.0
13:10:55.250,GUIDED,-35.3632622,149.1652381,32961,-0.0012254695175215602,0.0012840306153520942,-0.1719428300857544,0.005237603094428778,0.00045505660818889737,0.01660200022161007,0,0,-1001,5,1,16,-1,2,-153,90.0,90.0,1500.0
13:10:55.453,GUIDED,-35.3632622,149.1652381,32961,-0.0012254695175215602,0.0012840306153520942,-0.1719428300857544,0.005237603094428778,0.00045505660818889737,0.01660200022161007,0,0,-1001,5,1,16,-1,2,-153,90.0,90.0,1500.0
13:10:58.110,GUIDED,-35.3632622,149.1652381,34829,0.00102638837415725,0.0007182958070188761,-0.15438511967658997,0.0027117992285639048,0.0006403557490557432,0.01428054366260767,0,0,-1000,0,0,14,0,0,-153,90.0,90.0,1500.0
13:10:58.316,GUIDED,-35.3632622,149.1652379,36783,0.0014715418219566345,0.0009788050083443522,-0.13873854279518127,0.0007188489544205368,0.00021708238637074828,0.014628030359745026,0,0,-1000,1,1,14,0,0,-153,90.0,90.0,1500.0
13:10:58.521,GUIDED,-35.3632622,149.1652379,36783,0.0014715418219566345,0.0009788050083443522,-0.13873854279518127,0.0007188489544205368,0.00021708238637074828,0.014628030359745026,0,0,-1000,1,1,14,0,0,-153,90.0,90.0,1500.0
13:10:58.724,GUIDED,-35.3632622,149.1652379,36783,0.0014715418219566345,0.0009788050083443522,-0.13873854279518127,0.0007188489544205368,0.00021708238637074828,0.014628030359745026,0,0,-1000,1,1,14,0,0,-153,90.0,90.0,1500.0
13:10:58.929,GUIDED,-35.3632622,149.1652379,36783,0.0014715418219566345,0.0009788050083443522,-0.13873854279518127,0.0007188489544205368,0.00021708238637074828,0.014628030359745026,0,0,-1000,1,1,14,0,0,-153,90.0,90.0,1500.0
13:10:59.133,GUIDED,-35.3632622,149.1652379,36783,0.0014715418219566345,0.0009788050083443522,-0.13873854279518127,0.0007188489544205368,0.00021708238637074828,0.014628030359745026,0,0,-1000,1,1,14,0,0,-153,90.0,90.0,1500.0
13:10:59.340,GUIDED,-35.3632622,149.1652379,36783,0.0014715418219566345,0.0009788050083443522,-0.13873854279518127,0.0007188489544205368,0.00021708238637074828,0.014628030359745026,0,0,-1000,1,1,14,0,0,-153,90.0,90.0,1500.0
13:10:59.546,GUIDED,-35.3632622,149.1652379,36783,0.0014715418219566345,0.0009788050083443522,-0.13873854279518127,0.0007188489544205368,0.00021708238637074828,0.014628030359745026,0,0,-1000,1,1,14,0,0,-153,90.0,90.0,1500.0
13:10:59.753,GUIDED,-35.3632622,149.1652379,36783,0.0014715418219566345,0.0009788050083443522,-0.13873854279518127,0.0007188489544205368,0.00021708238637074828,0.014628030359745026,0,0,-1000,1,1,14,0,0,-153,90.0,90.0,1500.0
13:10:59.955,GUIDED,-35.3632622,149.1652379,36783,0.0014715418219566345,0.0009788050083443522,-0.13873854279518127,0.0007188489544205368,0.00021708238637074828,0.014628030359745026,0,0,-1000,1,1,14,0,0,-153,90.0,90.0,1500.0
13:11:00.160,GUIDED,-35.3632622,149.1652379,36783,0.0014715418219566345,0.0009788050083443522,-0.13873854279518127,0.0007188489544205368,0.00021708238637074828,0.014628030359745026,0,0,-1000,1,1,14,0,0,-153,90.0,90.0,1500.0
13:11:00.366,GUIDED,-35.3632622,149.1652377,38349,0.0019076281460002065,0.001146444003097713,-0.12795601785182953,0.005012170877307653,0.0032611428759992123,0.01064704917371273,0,0,-1000,5,4,10,0,0,-153,90.0,90.0,1500.0
13:11:00.578,GUIDED,-35.3632622,149.1652376,39519,0.0023964152205735445,0.0014605463948100805,-0.12101151049137115,-0.0012661253567785025,-0.0007811338291503489,0.009205101989209652,0,0,-1000,0,0,9,0,0,-153,90.0,90.0,1500.0
13:11:00.816,GUIDED,-35.3632622,149.1652376,39519,0.0023964152205735445,0.0014605463948100805,-0.12101151049137115,-0.0012661253567785025,-0.0007811338291503489,0.009205101989209652,0,0,-1000,0,0,9,0,0,-153,90.0,90.0,1500.0
13:11:01.035,GUIDED,-35.3632622,149.1652376,39519,0.0023964152205735445,0.0014605463948100805,-0.12101151049137115,-0.0012661253567785025,-0.0007811338291503489,0.009205101989209652,0,0,-1000,0,0,9,0,0,-153,90.0,90.0,1500.0
13:11:01.240,GUIDED,-35.3632622,149.1652376,39519,0.0023964152205735445,0.0014605463948100805,-0.12101151049137115,-0.0012661253567785025,-0.0007811338291503489,0.009205101989209652,0,0,-1000,0,0,9,0,0,-153,90.0,90.0,1500.0
13:11:01.446,GUIDED,-35.3632622,149.1652376,39519,0.0023964152205735445,0.0014605463948100805,-0.12101151049137115,-0.0012661253567785025,-0.0007811338291503489,0.009205101989209652,0,0,-1000,0,0,9,0,0,-153,90.0,90.0,1500.0
13:11:01.651,GUIDED,-35.3632622,149.1652376,39519,0.0023964152205735445,0.0014605463948100805,-0.12101151049137115,-0.0012661253567785025,-0.0007811338291503489,0.009205101989209652,0,0,-1000,0,0,9,0,0,-153,90.0,90.0,1500.0
13:11:01.854,GUIDED,-35.3632622,149.1652376,39519,0.0023964152205735445,0.0014605463948100805,-0.12101151049137115,-0.0012661253567785025,-0.0007811338291503489,0.009205101989209652,0,0,-1000,0,0,9,0,0,-153,90.0,90.0,1500.0
13:11:02.057,GUIDED,-35.3632622,149.1652376,39519,0.0023964152205735445,0.0014605463948100805,-0.12101151049137115,-0.0012661253567785025,-0.0007811338291503489,0.009205101989209652,0,0,-1000,0,0,9,0,0,-153,90.0,90.0,1500.0
13:11:02.261,GUIDED,-35.3632622,149.1652376,39519,0.0023964152205735445,0.0014605463948100805,-0.12101151049137115,-0.0012661253567785025,-0.0007811338291503489,0.009205101989209652,0,0,-1000,0,0,9,0,0,-153,90.0,90.0,1500.0
13:11:02.465,GUIDED,-35.3632622,149.1652376,39519,0.0023964152205735445,0.0014605463948100805,-0.12101151049137115,-0.0012661253567785025,-0.0007811338291503489,0.009205101989209652,0,0,-1000,0,0,9,0,0,-153,90.0,90.0,1500.0
13:11:02.669,GUIDED,-35.3632621,149.1652375,42317,0.001925518037751317,0.001191780436784029,-0.10662537068128586,0.00038255396066233516,-0.00047571348841302097,0.006071588955819607,0,0,-1000,1,0,6,-1,1,-153,90.0,90.0,1500.0
13:11:02.873,GUIDED,-35.3632621,149.1652374,43101,0.0017866694834083319,0.0011597508564591408,-0.10359858721494675,-0.0017846033442765474,-0.0002344669192098081,0.005269363522529602,0,0,-1000,0,0,5,-1,1,-153,90.0,90.0,1500.0
13:11:03.076,GUIDED,-35.3632621,149.1652374,43101,0.0017866694834083319,0.0011597508564591408,-0.10359858721494675,-0.0017846033442765474,-0.0002344669192098081,0.005269363522529602,0,0,-1000,0,0,5,-1,1,-153,90.0,90.0,1500.0
13:11:03.286,GUIDED,-35.3632621,149.1652374,43101,0.0017866694834083319,0.0011597508564591408,-0.10359858721494675,-0.0017846033442765474,-0.0002344669192098081,0.005269363522529602,0,0,-1000,0,0,5,-1,1,-153,90.0,90.0,1500.0
13:11:03.493,GUIDED,-35.3632621,149.1652374,43101,0.0017866694834083319,0.0011597508564591408,-0.10359858721494675,-0.0017846033442765474,-0.0002344669192098081,0.005269363522529602,0,0,-1000,0,0,5,-1,1,-153,90.0,90.0,1500.0
13:11:03.696,GUIDED,-35.3632621,149.1652374,43101,0.0017866694834083319,0.0011597508564591408,-0.10359858721494675,-0.0017846033442765474,-0.0002344669192098081,0.005269363522529602,0,0,-1000,0,0,5,-1,1,-153,90.0,90.0,1500.0
13:11:03.902,GUIDED,-35.3632621,149.1652374,43101,0.0017866694834083319,0.0011597508564591408,-0.10359858721494675,-0.0017846033442765474,-0.0002344669192098081,0.005269363522529602,0,0,-1000,0,0,5,-1,1,-153,90.0,90.0,1500.0
13:11:04.105,GUIDED,-35.3632621,149.1652374,43101,0.0017866694834083319,0.0011597508564591408,-0.10359858721494675,-0.0017846033442765474,-0.0002344669192098081,0.005269363522529602,0,0,-1000,0,0,5,-1,1,-153,90.0,90.0,1500.0
13:11:04.309,GUIDED,-35.3632621,149.1652374,43101,0.0017866694834083319,0.0011597508564591408,-0.10359858721494675,-0.0017846033442765474,-0.0002344669192098081,0.005269363522529602,0,0,-1000,0,0,5,-1,1,-153,90.0,90.0,1500.0
13:11:04.515,GUIDED,-35.3632621,149.1652374,43101,0.0017866694834083319,0.0011597508564591408,-0.10359858721494675,-0.0017846033442765474,-0.0002344669192098081,0.005269363522529602,0,0,-1000,0,0,5,-1,1,-153,90.0,90.0,1500.0
13:11:04.723,GUIDED,-35.3632621,149.1652374,43101,0.0017866694834083319,0.0011597508564591408,-0.10359858721494675,-0.0017846033442765474,-0.0002344669192098081,0.005269363522529602,0,0,-1000,0,0,5,-1,1,-153,90.0,90.0,1500.0
13:11:04.927,GUIDED,-35.3632621,149.1652374,43101,0.0017866694834083319,0.0011597508564591408,-0.10359858721494675,-0.0017846033442765474,-0.0002344669192098081,0.005269363522529602,0,0,-1000,0,0,5,-1,1,-153,90.0,90.0,1500.0
13:11:05.129,GUIDED,-35.3632621,149.1652374,43101,0.0017866694834083319,0.0011597508564591408,-0.10359858721494675,-0.0017846033442765474,-0.0002344669192098081,0.005269363522529602,0,0,-1000,0,0,5,-1,1,-153,90.0,90.0,1500.0
13:11:05.332,GUIDED,-35.3632621,149.1652374,45357,0.0017079878598451614,0.0014168581692501903,-0.09303861856460571,-0.003970345016568899,-0.0011387945851311088,0.006309828255325556,0,0,-1000,2,1,7,-1,1,-153,90.0,90.0,1500.0
13:11:05.539,LAND,-35.3632621,149.1652374,46916,0.002011839998885989,0.0011311109410598874,-0.08819753676652908,0.0006949264789000154,0.0022221170365810394,0.007624110672622919,0,0,-1000,1,3,7,-1,1,-153,90.0,90.0,1500.0
13:11:05.745,LAND,-35.3632621,149.1652373,48074,-0.03656412661075592,0.04128405079245567,0.004170140717178583,-0.18442517518997192,0.17974227666854858,0.5096884965896606,0,0,-954,-183,180,509,-6,-3,-140,90.0,90.0,1500.0
13:11:05.948,LAND,-35.3632621,149.1652373,48074,-0.03656412661075592,0.04128405079245567,0.004170140717178583,-0.18442517518997192,0.17974227666854858,0.5096884965896606,0,0,-954,-183,180,509,-6,-3,-140,90.0,90.0,1500.0
13:11:06.157,LAND,-35.3632621,149.1652373,48074,-0.03656412661075592,0.04128405079245567,0.004170140717178583,-0.18442517518997192,0.17974227666854858,0.5096884965896606,0,0,-954,-183,180,509,-6,-3,-140,90.0,90.0,1500.0
13:11:06.361,LAND,-35.3632621,149.1652373,48074,-0.03656412661075592,0.04128405079245567,0.004170140717178583,-0.18442517518997192,0.17974227666854858,0.5096884965896606,0,0,-954,-183,180,509,-6,-3,-140,90.0,90.0,1500.0
13:11:06.566,LAND,-35.3632621,149.1652373,48074,-0.03656412661075592,0.04128405079245567,0.004170140717178583,-0.18442517518997192,0.17974227666854858,0.5096884965896606,0,0,-954,-183,180,509,-6,-3,-140,90.0,90.0,1500.0
13:11:06.770,LAND,-35.3632621,149.1652373,48074,-0.03656412661075592,0.04128405079245567,0.004170140717178583,-0.18442517518997192,0.17974227666854858,0.5096884965896606,0,0,-954,-183,180,509,-6,-3,-140,90.0,90.0,1500.0
13:11:06.975,LAND,-35.3632621,149.1652373,48074,-0.03656412661075592,0.04128405079245567,0.004170140717178583,-0.18442517518997192,0.17974227666854858,0.5096884965896606,0,0,-954,-183,180,509,-6,-3,-140,90.0,90.0,1500.0
13:11:07.179,LAND,-35.3632621,149.1652373,48074,-0.03656412661075592,0.04128405079245567,0.004170140717178583,-0.18442517518997192,0.17974227666854858,0.5096884965896606,0,0,-954,-183,180,509,-6,-3,-140,90.0,90.0,1500.0
13:11:07.381,LAND,-35.3632621,149.1652373,48074,-0.03656412661075592,0.04128405079245567,0.004170140717178583,-0.18442517518997192,0.17974227666854858,0.5096884965896606,0,0,-954,-183,180,509,-6,-3,-140,90.0,90.0,1500.0
13:11:07.591,LAND,-35.3632647,149.1652329,49262,0.027496689930558205,-0.058977141976356506,0.32884421944618225,0.014377495273947716,-0.014070502482354641,-0.008565468713641167,0,11,-931,17,-13,-8,-11,-24,-31,170.0,90.0,1500.0
13:11:07.798,LAND,-35.3632638,149.1652333,49159,0.01874866522848606,-0.014641252346336842,0.2857854664325714,-1.0814855098724365,0.04929165169596672,-0.036326270550489426,0,-63,-961,-1083,50,-36,21,26,36,170.0,90.0,1500.0
13:11:08.003,LAND,-35.363262,149.1652368,48581,-0.013318240642547607,0.015645353123545647,0.2501288950443268,-1.289989709854126,0.01967410370707512,-0.029972534626722336,-4,-78,-965,-1295,20,-29,16,28,76,170.0,90.0,1500.0
13:11:08.207,LAND,-35.3632611,149.1652387,47488,0.03259502351284027,0.011451116763055325,0.22493521869182587,1.1534342765808105,0.004234394058585167,-0.0025291824713349342,-1,-3,-1014,1142,5,-1,4,13,141,170.0,90.0,1500.0
13:11:08.412,LAND,-35.363261,149.1652389,45833,-0.0062509565614163876,0.0013628489105030894,0.1982380896806717,0.4566015899181366,-0.006677687168121338,-0.0017597271362319589,0,63,-992,470,-5,-1,-3,8,107,170.0,90.0,1500.0
13:11:08.618,LAND,-35.3632614,149.1652386,44362,-0.010321843437850475,-0.002920876955613494,0.17405155301094055,-1.4962695837020874,-0.006046743132174015,-0.0068586720153689384,0,-63,-1029,-1498,-5,-6,-3,1,106,170.0,90.0,1500.0
13:11:08.825,LAND,-35.3632615,149.1652383,44080,-0.006639287807047367,-0.0040220459923148155,0.16910339891910553,-1.5748461484909058,0.0003110707039013505,-0.026197481900453568,0,-74,-986,-1581,1,-25,-2,0,107,170.0,90.0,1500.0
13:11:09.027,LAND,-35.3632615,149.1652383,44080,-0.006639287807047367,-0.0040220459923148155,0.16910339891910553,-1.5748461484909058,0.0003110707039013505,-0.026197481900453568,0,-74,-986,-1581,1,-25,-2,0,107,170.0,90.0,1500.0
13:11:09.232,LAND,-35.3632615,149.1652383,44080,-0.006639287807047367,-0.0040220459923148155,0.16910339891910553,-1.5748461484909058,0.0003110707039013505,-0.026197481900453568,0,-74,-986,-1581,1,-25,-2,0,107,170.0,90.0,1500.0
13:11:09.435,LAND,-35.3632615,149.1652383,44080,-0.006639287807047367,-0.0040220459923148155,0.16910339891910553,-1.5748461484909058,0.0003110707039013505,-0.026197481900453568,0,-74,-986,-1581,1,-25,-2,0,107,170.0,90.0,1500.0
13:11:09.638,LAND,-35.3632615,149.1652383,44080,-0.006639287807047367,-0.0040220459923148155,0.16910339891910553,-1.5748461484909058,0.0003110707039013505,-0.026197481900453568,0,-74,-986,-1581,1,-25,-2,0,107,170.0,90.0,1500.0
13:11:09.843,LAND,-35.3632615,149.1652383,44080,-0.006639287807047367,-0.0040220459923148155,0.16910339891910553,-1.5748461484909058,0.0003110707039013505,-0.026197481900453568,0,-74,-986,-1581,1,-25,-2,0,107,170.0,90.0,1500.0
13:11:10.048,LAND,-35.3632615,149.1652383,44080,-0.006639287807047367,-0.0040220459923148155,0.16910339891910553,-1.5748461484909058,0.0003110707039013505,-0.026197481900453568,0,-74,-986,-1581,1,-25,-2,0,107,170.0,90.0,1500.0
13:11:10.251,LAND,-35.3632615,149.1652383,44080,-0.006639287807047367,-0.0040220459923148155,0.16910339891910553,-1.5748461484909058,0.0003110707039013505,-0.026197481900453568,0,-74,-986,-1581,1,-25,-2,0,107,170.0,90.0,1500.0
13:11:10.454,LAND,-35.3632615,149.1652383,44080,-0.006639287807047367,-0.0040220459923148155,0.16910339891910553,-1.5748461484909058,0.0003110707039013505,-0.026197481900453568,0,-74,-986,-1581,1,-25,-2,0,107,170.0,90.0,1500.0
13:11:10.657,LAND,-35.3632618,149.1652371,42669,0.0245722196996212,-0.005681646056473255,0.15094685554504395,0.48737633228302,0.004106504376977682,-0.006393122021108866,0,-10,-1049,480,5,-5,-1,5,73,130.0,90.0,1500.0
13:11:10.861,LAND,-35.3632619,149.1652353,41655,0.04078181833028793,-0.006108513101935387,0.13425663113594055,0.3091081976890564,-0.004760183859616518,-0.011711222119629383,0,-7,-986,526,-5,-8,0,13,77,130.0,90.0,1500.0
13:11:11.066,LAND,-35.3632619,149.1652349,41227,0.03318224847316742,-0.0032958248630166054,0.12965770065784454,0.15613923966884613,0.006902820430696011,-0.010598935186862946,0,-23,-994,146,7,-10,1,18,82,130.0,90.0,1500.0
13:11:11.275,LAND,-35.3632619,149.1652349,41227,0.03318224847316742,-0.0032958248630166054,0.12965770065784454,0.15613923966884613,0.006902820430696011,-0.010598935186862946,0,-23,-994,146,7,-10,1,18,82,180.0,90.0,1500.0
13:11:11.478,LAND,-35.3632619,149.1652349,41227,0.03318224847316742,-0.0032958248630166054,0.12965770065784454,0.15613923966884613,0.006902820430696011,-0.010598935186862946,0,-23,-994,146,7,-10,1,18,82,180.0,90.0,1500.0
13:11:11.682,LAND,-35.3632619,149.1652349,41227,0.03318224847316742,-0.0032958248630166054,0.12965770065784454,0.15613923966884613,0.006902820430696011,-0.010598935186862946,0,-23,-994,146,7,-10,1,18,82,180.0,90.0,1500.0
13:11:11.885,LAND,-35.3632619,149.1652349,41227,0.03318224847316742,-0.0032958248630166054,0.12965770065784454,0.15613923966884613,0.006902820430696011,-0.010598935186862946,0,-23,-994,146,7,-10,1,18,82,180.0,90.0,1500.0
13:11:12.095,LAND,-35.3632619,149.1652349,41227,0.03318224847316742,-0.0032958248630166054,0.12965770065784454,0.15613923966884613,0.006902820430696011,-0.010598935186862946,0,-23,-994,146,7,-10,1,18,82,180.0,90.0,1500.0
13:11:12.303,LAND,-35.3632619,149.1652349,41227,0.03318224847316742,-0.0032958248630166054,0.12965770065784454,0.15613923966884613,0.006902820430696011,-0.010598935186862946,0,-23,-994,146,7,-10,1,18,82,180.0,90.0,1500.0
13:11:12.508,LAND,-35.3632619,149.1652349,41227,0.03318224847316742,-0.0032958248630166054,0.12965770065784454,0.15613923966884613,0.006902820430696011,-0.010598935186862946,0,-23,-994,146,7,-10,1,18,82,180.0,90.0,1500.0
13:11:12.714,LAND,-35.3632619,149.1652349,41227,0.03318224847316742,-0.0032958248630166054,0.12965770065784454,0.15613923966884613,0.006902820430696011,-0.010598935186862946,0,-23,-994,146,7,-10,1,18,82,180.0,90.0,1500.0
13:11:12.919,LAND,-35.3632619,149.1652349,41227,0.03318224847316742,-0.0032958248630166054,0.12965770065784454,0.15613923966884613,0.006902820430696011,-0.010598935186862946,0,-23,-994,146,7,-10,1,18,82,180.0,90.0,1500.0
13:11:13.121,LAND,-35.3632619,149.1652349,41227,0.03318224847316742,-0.0032958248630166054,0.12965770065784454,0.15613923966884613,0.006902820430696011,-0.010598935186862946,0,-23,-994,146,7,-10,1,18,82,180.0,90.0,1500.0
13:11:13.324,LAND,-35.3632619,149.1652351,40134,0.02830418013036251,0.0008977123652584851,0.11887383460998535,1.5201380252838135,0.004186159931123257,0.0009714239276945591,2,76,-1057,1527,4,1,1,24,128,180.0,90.0,1500.0
13:11:13.530,LAND,-35.363262,149.1652363,38836,-0.019280340522527695,0.0027642399072647095,0.11132774502038956,-1.1234067678451538,0.004071658942848444,-0.005009080283343792,1,-12,-1031,-1114,4,-4,1,20,109,180.0,90.0,1500.0
13:11:13.735,LAND,-35.3632621,149.1652372,37925,-0.01175849512219429,0.0020856186747550964,0.10226153582334518,-1.1750527620315552,-0.015204382129013538,-0.017986945807933807,1,-95,-974,-1183,-14,-17,1,9,118,450.0,90.0,1500.0
13:11:13.938,LAND,-35.3632621,149.1652372,37925,-0.01175849512219429,0.0020856186747550964,0.10226153582334518,-1.1750527620315552,-0.015204382129013538,-0.017986945807933807,1,-95,-974,-1183,-14,-17,1,9,118,300.0,90.0,1500.0
13:11:14.147,LAND,-35.3632621,149.1652372,37925,-0.01175849512219429,0.0020856186747550964,0.10226153582334518,-1.1750527620315552,-0.015204382129013538,-0.017986945807933807,1,-95,-974,-1183,-14,-17,1,9,118,300.0,90.0,1500.0
13:11:14.351,LAND,-35.3632621,149.1652372,37925,-0.01175849512219429,0.0020856186747550964,0.10226153582334518,-1.1750527620315552,-0.015204382129013538,-0.017986945807933807,1,-95,-974,-1183,-14,-17,1,9,118,300.0,90.0,1500.0
13:11:14.564,LAND,-35.3632621,149.1652372,37925,-0.01175849512219429,0.0020856186747550964,0.10226153582334518,-1.1750527620315552,-0.015204382129013538,-0.017986945807933807,1,-95,-974,-1183,-14,-17,1,9,118,300.0,90.0,1500.0
13:11:14.768,LAND,-35.3632621,149.1652372,37925,-0.01175849512219429,0.0020856186747550964,0.10226153582334518,-1.1750527620315552,-0.015204382129013538,-0.017986945807933807,1,-95,-974,-1183,-14,-17,1,9,118,300.0,90.0,1500.0
13:11:14.971,LAND,-35.3632621,149.1652372,37925,-0.01175849512219429,0.0020856186747550964,0.10226153582334518,-1.1750527620315552,-0.015204382129013538,-0.017986945807933807,1,-95,-974,-1183,-14,-17,1,9,118,300.0,90.0,1500.0
13:11:15.174,LAND,-35.3632621,149.1652372,37925,-0.01175849512219429,0.0020856186747550964,0.10226153582334518,-1.1750527620315552,-0.015204382129013538,-0.017986945807933807,1,-95,-974,-1183,-14,-17,1,9,118,300.0,90.0,1500.0
13:11:15.376,LAND,-35.3632621,149.1652372,37925,-0.01175849512219429,0.0020856186747550964,0.10226153582334518,-1.1750527620315552,-0.015204382129013538,-0.017986945807933807,1,-95,-974,-1183,-14,-17,1,9,118,300.0,90.0,1500.0
13:11:15.587,LAND,-35.3632621,149.1652372,37925,-0.01175849512219429,0.0020856186747550964,0.10226153582334518,-1.1750527620315552,-0.015204382129013538,-0.017986945807933807,1,-95,-974,-1183,-14,-17,1,9,118,300.0,90.0,1500.0
13:11:15.794,LAND,-35.3632621,149.1652372,37925,-0.01175849512219429,0.0020856186747550964,0.10226153582334518,-1.1750527620315552,-0.015204382129013538,-0.017986945807933807,1,-95,-974,-1183,-14,-17,1,9,118,300.0,90.0,1500.0
13:11:15.996,LAND,-35.3632623,149.1652374,36393,-0.004147500265389681,-0.0003473050019238144,0.0962214320898056,-1.7091498374938965,-0.010116904973983765,-0.009673137217760086,1,-116,-937,-1720,-9,-9,2,3,214,300.0,90.0,1500.0
13:11:16.200,LAND,-35.3632624,149.1652375,34105,0.020080136135220528,0.0011851954041048884,0.09274112433195114,1.9998835325241089,-0.0022468024399131536,-0.0007103085517883301,1,111,-1027,2013,-1,0,3,5,217,300.0,90.0,1500.0
13:11:16.408,LAND,-35.3632624,149.165238,33008,-0.03460390120744705,0.004410440102219582,0.0906708613038063,-1.0340324640274048,0.005990937352180481,0.011931282468140125,2,4,-990,-1017,6,12,4,4,211,300.0,90.0,1500.0
13:11:16.621,LAND,-35.3632624,149.165238,33008,-0.03460390120744705,0.004410440102219582,0.0906708613038063,-1.0340324640274048,0.005990937352180481,0.011931282468140125,2,4,-990,-1017,6,12,4,4,211,300.0,90.0,1500.0
13:11:16.824,LAND,-35.3632624,149.165238,33008,-0.03460390120744705,0.004410440102219582,0.0906708613038063,-1.0340324640274048,0.005990937352180481,0.011931282468140125,2,4,-990,-1017,6,12,4,4,211,300.0,90.0,1500.0
13:11:17.030,LAND,-35.3632624,149.165238,33008,-0.03460390120744705,0.004410440102219582,0.0906708613038063,-1.0340324640274048,0.005990937352180481,0.011931282468140125,2,4,-990,-1017,6,12,4,4,211,300.0,90.0,1500.0
