time_stamp,MODE,lat,lon,relative_alt,roll,pitch,yaw,rollspeed,pitchspeed,yawspeed,xacc,yacc,zacc,xgyro,ygyro,zgyro,vx,vy,vz,RTL_ALT
12:22:33.463,STABILIZE,-35.3632621,149.1652375,0,-0.0001405334915034473,0.001542835496366024,0.02837221510708332,0.0002894053759519011,0.00023406613036058843,0.002407622989267111,0,1,-1000,0,0,0,-2,2,1,1500.0
12:22:33.664,STABILIZE,-35.3632621,149.1652375,0,-0.0001405334915034473,0.001542835496366024,0.02837221510708332,0.0002894053759519011,0.00023406613036058843,0.002407622989267111,0,1,-1000,0,0,0,-2,2,1,1500.0
12:22:33.865,STABILIZE,-35.3632621,149.1652375,0,-0.0001405334915034473,0.001542835496366024,0.02837221510708332,0.0002894053759519011,0.00023406613036058843,0.002407622989267111,0,1,-1000,0,0,0,-2,2,1,1500.0
12:22:34.066,STABILIZE,-35.3632622,149.1652375,0,-0.00024123316688928753,0.0014578442787751555,0.026934020221233368,0.000263668509433046,0.0003182590880896896,0.0021587111987173557,0,1,-1000,0,0,0,-2,2,1,1500.0
12:22:34.267,STABILIZE,-35.3632622,149.1652375,0,-0.00024123316688928753,0.0014578442787751555,0.026934020221233368,0.000263668509433046,0.0003182590880896896,0.0021587111987173557,0,1,-1000,0,0,0,-2,2,1,1500.0
12:22:34.468,STABILIZE,-35.3632622,149.1652375,0,-0.00024123316688928753,0.0014578442787751555,0.026934020221233368,0.000263668509433046,0.0003182590880896896,0.0021587111987173557,0,1,-1000,0,0,0,-2,2,1,1500.0
12:22:34.670,STABILIZE,-35.3632622,149.1652375,0,-0.00024123316688928753,0.0014578442787751555,0.026934020221233368,0.000263668509433046,0.0003182590880896896,0.0021587111987173557,0,1,-1000,0,0,0,-2,2,1,1500.0
12:22:34.871,STABILIZE,-35.3632622,149.1652375,0,-0.00024123316688928753,0.0014578442787751555,0.026934020221233368,0.000263668509433046,0.0003182590880896896,0.0021587111987173557,0,1,-1000,0,0,0,-2,2,1,1500.0
12:22:35.072,STABILIZE,-35.3632622,149.1652375,0,-0.00024123316688928753,0.0014578442787751555,0.026934020221233368,0.000263668509433046,0.0003182590880896896,0.0021587111987173557,0,1,-1000,0,0,0,-2,2,1,1500.0
12:22:35.273,STABILIZE,-35.3632622,149.1652375,0,-0.00024123316688928753,0.0014578442787751555,0.026934020221233368,0.000263668509433046,0.0003182590880896896,0.0021587111987173557,0,1,-1000,0,1,0,-2,2,1,1500.0
12:22:35.475,STABILIZE,-35.3632622,149.1652375,0,-0.00024123316688928753,0.0014578442787751555,0.026934020221233368,0.000263668509433046,0.0003182590880896896,0.0021587111987173557,0,1,-1000,0,1,0,-2,2,1,1500.0
12:22:35.676,STABILIZE,-35.3632622,149.1652375,0,-0.00024123316688928753,0.0014578442787751555,0.026934020221233368,0.000263668509433046,0.0003182590880896896,0.0021587111987173557,0,1,-1000,0,1,0,-2,2,1,1500.0
12:22:35.877,STABILIZE,-35.3632622,149.1652375,5,-0.0008338635670952499,0.0011163722956553102,0.026074016466736794,0.0002377663622610271,0.0003035563277080655,0.001941789174452424,0,1,-1000,0,1,0,-1,1,0,1500.0
12:22:36.079,STABILIZE,-35.3632622,149.1652375,6,-0.0008906932780519128,0.0010822081239894032,0.025975316762924194,0.00020255317213013768,0.00021428047330118716,0.0019798623397946358,0,1,-1000,0,1,0,-1,1,0,1500.0
12:22:36.280,STABILIZE,-35.3632622,149.1652375,6,-0.0008906932780519128,0.0010822081239894032,0.025975316762924194,0.00020255317213013768,0.00021428047330118716,0.0019798623397946358,0,1,-1000,0,1,0,-1,1,0,1500.0
12:22:36.482,STABILIZE,-35.3632622,149.1652375,6,-0.0008906932780519128,0.0010822081239894032,0.025975316762924194,0.00020255317213013768,0.00021428047330118716,0.0019798623397946358,0,1,-1000,0,1,0,-1,1,0,1500.0
12:22:36.683,STABILIZE,-35.3632622,149.1652375,6,-0.0008906932780519128,0.0010822081239894032,0.025975316762924194,0.00020255317213013768,0.00021428047330118716,0.0019798623397946358,0,1,-1000,0,1,0,-1,1,0,1500.0
12:22:36.885,STABILIZE,-35.3632622,149.1652375,6,-0.0008906932780519128,0.0010822081239894032,0.025975316762924194,0.00020255317213013768,0.00021428047330118716,0.0019798623397946358,0,1,-1000,0,1,0,-1,1,0,1500.0
12:22:37.086,STABILIZE,-35.3632621,149.1652375,9,-0.0010481365025043488,0.0009965470526367426,0.02560296095907688,0.0001488332636654377,0.00028866183129139245,0.0020865192636847496,0,1,-1000,0,0,0,-1,0,0,1500.0
12:22:37.288,STABILIZE,-35.3632621,149.1652375,10,-0.0010787388309836388,0.0009912489913403988,0.02551104687154293,7.936538895592093e-05,0.00020405498798936605,0.0018950017401948571,0,1,-1000,0,0,0,-1,0,0,1500.0
12:22:37.489,STABILIZE,-35.3632621,149.1652375,11,-0.0010910871205851436,0.000977124902419746,0.025435594841837883,0.00025533209554851055,0.00020709080854430795,0.0019370201043784618,0,1,-1000,0,0,0,-1,0,0,1500.0
12:22:37.693,STABILIZE,-35.3632621,149.1652375,11,-0.0010910871205851436,0.000977124902419746,0.025435594841837883,0.00025533209554851055,0.00020709080854430795,0.0019370201043784618,0,1,-1000,0,0,0,-1,0,0,1500.0
12:22:37.894,STABILIZE,-35.3632621,149.1652375,11,-0.0010910871205851436,0.000977124902419746,0.025435594841837883,0.00025533209554851055,0.00020709080854430795,0.0019370201043784618,0,1,-1000,0,0,0,-1,0,0,1500.0
12:22:38.096,STABILIZE,-35.3632621,149.1652375,13,-0.0011040463577955961,0.0009544292697682977,0.025270329788327217,0.00022320408606901765,0.00023628678172826767,0.0018762294203042984,0,1,-1000,0,0,0,-1,0,0,1500.0
12:22:38.298,STABILIZE,-35.3632621,149.1652375,14,-0.00111792900133878,0.0009505601483397186,0.02519707754254341,0.00010213057976216078,0.0002035700308624655,0.0018335680942982435,0,1,-1000,0,1,0,-1,0,0,1500.0
12:22:38.500,STABILIZE,-35.3632621,149.1652375,14,-0.00111792900133878,0.0009505601483397186,0.02519707754254341,0.00010213057976216078,0.0002035700308624655,0.0018335680942982435,0,1,-1000,0,1,0,-1,0,0,1500.0
12:22:38.702,STABILIZE,-35.3632621,149.1652375,14,-0.00111792900133878,0.0009505601483397186,0.02519707754254341,0.00010213057976216078,0.0002035700308624655,0.0018335680942982435,0,1,-1000,0,1,0,-1,0,0,1500.0
12:22:38.903,STABILIZE,-35.3632621,149.1652375,14,-0.00111792900133878,0.0009505601483397186,0.02519707754254341,0.00010213057976216078,0.0002035700308624655,0.0018335680942982435,0,1,-1000,0,1,0,-1,0,0,1500.0
12:22:39.105,STABILIZE,-35.3632621,149.1652375,14,-0.00111792900133878,0.0009505601483397186,0.02519707754254341,0.00010213057976216078,0.0002035700308624655,0.0018335680942982435,0,1,-1000,0,1,0,-1,0,0,1500.0
12:22:39.308,STABILIZE,-35.3632621,149.1652375,18,-0.00111792900133878,0.0009505601483397186,0.02519707754254341,0.00010213057976216078,0.0002035700308624655,0.0018335680942982435,0,1,-1000,0,1,0,-1,0,0,1500.0
12:22:39.509,STABILIZE,-35.3632621,149.1652375,18,-0.0011426230194047093,0.0009292236063629389,0.02479795180261135,0.00018527841893956065,0.00018847809405997396,0.0018766341963782907,0,1,-1000,0,1,0,-1,0,0,1500.0
12:22:39.711,STABILIZE,-35.3632621,149.1652375,19,-0.0011360854841768742,0.00092602230142802,0.024717504158616066,0.0002230560057796538,0.00016427459195256233,0.0017793448641896248,0,1,-1000,0,1,0,-1,0,0,1500.0
12:22:39.913,STABILIZE,-35.3632621,149.1652375,19,-0.0011360854841768742,0.00092602230142802,0.024717504158616066,0.0002230560057796538,0.00016427459195256233,0.0017793448641896248,0,1,-1000,0,1,0,-1,0,0,1500.0
12:22:40.114,STABILIZE,-35.3632621,149.1652375,19,-0.0011360854841768742,0.00092602230142802,0.024717504158616066,0.0002230560057796538,0.00016427459195256233,0.0017793448641896248,0,1,-1000,0,1,0,-1,0,0,1500.0
12:22:40.316,STABILIZE,-35.3632621,149.1652375,19,-0.0011360854841768742,0.00092602230142802,0.024717504158616066,0.0002230560057796538,0.00016427459195256233,0.0017793448641896248,0,1,-1000,0,0,0,-1,0,0,1500.0
12:22:40.517,STABILIZE,-35.3632621,149.1652375,19,-0.0011360854841768742,0.00092602230142802,0.024717504158616066,0.0002230560057796538,0.00016427459195256233,0.0017793448641896248,0,1,-1000,0,0,0,-1,0,0,1500.0
12:22:40.719,STABILIZE,-35.3632621,149.1652375,19,-0.0011360854841768742,0.00092602230142802,0.024717504158616066,0.0002230560057796538,0.00016427459195256233,0.0017793448641896248,0,1,-1000,0,0,0,-1,0,0,1500.0
12:22:40.921,STABILIZE,-35.3632621,149.1652375,19,-0.0011360854841768742,0.00092602230142802,0.024717504158616066,0.0002230560057796538,0.00016427459195256233,0.0017793448641896248,0,1,-1000,0,0,0,-1,0,0,1500.0
12:22:41.122,STABILIZE,-35.3632621,149.1652374,40,-0.0007406951626762748,0.0009327416191808879,0.024327317252755165,0.0002996891853399575,0.0002932561910711229,0.0016963828820735216,0,1,-1000,0,0,1,-1,0,-3,1500.0
12:22:41.324,STABILIZE,-35.3632621,149.1652374,40,-0.0007406951626762748,0.0009327416191808879,0.024327317252755165,0.0002996891853399575,0.0002932561910711229,0.0016963828820735216,0,1,-1000,0,0,1,-1,0,-3,1500.0
12:22:41.526,STABILIZE,-35.3632621,149.1652374,40,-0.0007406951626762748,0.0009327416191808879,0.024327317252755165,0.0002996891853399575,0.0002932561910711229,0.0016963828820735216,0,1,-1000,0,0,1,-1,0,-3,1500.0
12:22:41.728,STABILIZE,-35.3632621,149.1652374,40,-0.0007406951626762748,0.0009327416191808879,0.024327317252755165,0.0002996891853399575,0.0002932561910711229,0.0016963828820735216,0,1,-1000,0,0,0,-1,0,-3,1500.0
12:22:41.930,STABILIZE,-35.3632621,149.1652374,40,-0.0007406951626762748,0.0009327416191808879,0.024327317252755165,0.0002996891853399575,0.0002932561910711229,0.0016963828820735216,0,1,-1000,0,0,0,-1,0,-3,1500.0
12:22:42.131,STABILIZE,-35.3632621,149.1652375,45,-0.0005999676650390029,0.0009458420099690557,0.02396523952484131,0.00013927114196121693,0.0002791837905533612,0.0017610093345865607,0,1,-1000,0,0,0,-1,0,-2,1500.0
12:22:42.333,STABILIZE,-35.3632621,149.1652375,45,-0.0005999676650390029,0.0009458420099690557,0.02396523952484131,0.00013927114196121693,0.0002791837905533612,0.0017610093345865607,0,1,-1000,0,0,0,-1,0,-2,1500.0
12:22:42.534,STABILIZE,-35.3632621,149.1652375,45,-0.0005999676650390029,0.0009458420099690557,0.02396523952484131,0.00013927114196121693,0.0002791837905533612,0.0017610093345865607,0,1,-1000,0,0,0,-1,0,-2,1500.0
12:22:42.736,STABILIZE,-35.3632621,149.1652375,45,-0.0005999676650390029,0.0009458420099690557,0.02396523952484131,0.00013927114196121693,0.0002791837905533612,0.0017610093345865607,0,1,-1000,0,0,0,-1,0,-2,1500.0
12:22:42.938,STABILIZE,-35.3632621,149.1652375,45,-0.0005999676650390029,0.0009458420099690557,0.02396523952484131,0.00013927114196121693,0.0002791837905533612,0.0017610093345865607,0,1,-1000,0,0,0,-1,0,-2,1500.0
12:22:43.141,STABILIZE,-35.3632621,149.1652375,47,-0.0005914539797231555,0.0009560618782415986,0.0235946886241436,5.9821526519954205e-05,0.00028163264505565166,0.0017673998372629285,0,1,-1000,0,0,0,-1,1,-1,1500.0
12:22:43.343,STABILIZE,-35.3632622,149.1652375,47,-0.0006001523579470813,0.0009654299938119948,0.023505667224526405,0.00022400455782189965,0.00031380599830299616,0.0017237768042832613,0,1,-1000,1,0,1,-1,1,-1,1500.0
12:22:43.545,STABILIZE,-35.3632622,149.1652375,47,-0.0006001523579470813,0.0009654299938119948,0.023505667224526405,0.00022400455782189965,0.00031380599830299616,0.0017237768042832613,0,1,-1000,0,0,0,-1,1,-1,1500.0
12:22:43.747,STABILIZE,-35.3632622,149.1652375,47,-0.00035048043355345726,0.0009548141388222575,0.02330329455435276,0.00034420291194692254,0.00016411428805440664,0.0016390522941946983,0,1,-1000,0,0,0,-1,1,-1,1500.0
12:22:43.949,STABILIZE,-35.3632622,149.1652375,47,-0.00035048043355345726,0.0009548141388222575,0.02330329455435276,0.00034420291194692254,0.00016411428805440664,0.0016390522941946983,0,1,-1000,0,0,0,-1,1,-1,1500.0
12:22:44.151,STABILIZE,-35.3632622,149.1652375,47,-0.00035048043355345726,0.0009548141388222575,0.02330329455435276,0.00034420291194692254,0.00016411428805440664,0.0016390522941946983,0,1,-1000,0,0,0,-1,1,-1,1500.0
12:22:44.353,STABILIZE,-35.3632622,149.1652376,35,-0.0004703986633103341,0.0009672378655523062,0.023117560893297195,0.0002868266892619431,0.0002501487033441663,0.0016345191979780793,0,1,-1000,0,0,0,-1,3,0,1500.0
12:22:44.554,STABILIZE,-35.3632622,149.1652376,35,-0.0004703986633103341,0.0009672378655523062,0.023117560893297195,0.0002868266892619431,0.0002501487033441663,0.0016345191979780793,0,1,-1000,0,0,0,-1,3,0,1500.0
12:22:44.759,STABILIZE,-35.3632622,149.1652376,35,-0.0004703986633103341,0.0009672378655523062,0.023117560893297195,0.0002868266892619431,0.0002501487033441663,0.0016345191979780793,0,1,-1000,0,0,0,-1,3,0,1500.0
12:22:44.966,STABILIZE,-35.3632622,149.1652376,31,-0.0006730590830557048,0.0009643138037063181,0.02286226861178875,0.0002916320227086544,0.00021037517581135035,0.0016644041752442718,0,1,-1000,0,1,0,-1,2,0,1500.0
12:22:45.168,STABILIZE,-35.3632622,149.1652376,31,-0.0006730590830557048,0.0009643138037063181,0.02286226861178875,0.0002916320227086544,0.00021037517581135035,0.0016644041752442718,0,1,-1000,0,1,0,-1,2,0,1500.0
12:22:45.369,STABILIZE,-35.3632622,149.1652376,29,-0.0007204379071481526,0.0009670312283560634,0.02278073877096176,0.0002692338894121349,0.00031196424970403314,0.001621610252186656,0,2,-1000,1,0,1,-1,2,0,1500.0
12:22:45.570,STABILIZE,-35.3632622,149.1652376,29,-0.0007204379071481526,0.0009670312283560634,0.02278073877096176,0.0002692338894121349,0.00031196424970403314,0.001621610252186656,0,1,-1000,0,0,0,-1,2,0,1500.0
12:22:45.772,STABILIZE,-35.3632622,149.1652376,29,-0.0007204379071481526,0.0009670312283560634,0.02278073877096176,0.0002692338894121349,0.00031196424970403314,0.001621610252186656,0,1,-1000,0,0,0,-1,2,0,1500.0
12:22:45.973,STABILIZE,-35.3632622,149.1652376,29,-0.0007204379071481526,0.0009670312283560634,0.02278073877096176,0.0002692338894121349,0.00031196424970403314,0.001621610252186656,0,1,-1000,0,0,0,-1,2,0,1500.0
12:22:46.175,STABILIZE,-35.3632622,149.1652376,29,-0.0007204379071481526,0.0009670312283560634,0.02278073877096176,0.0002692338894121349,0.00031196424970403314,0.001621610252186656,0,1,-1000,0,0,0,-1,2,0,1500.0
12:22:46.376,STABILIZE,-35.3632622,149.1652375,26,-0.0009019998251460493,0.0009721628739498556,0.022484097629785538,0.00026414787862449884,0.0003298204392194748,0.0015913950046524405,0,2,-1000,0,1,0,-1,1,0,1500.0
12:22:46.578,AUTO,-35.3632622,149.1652375,26,-0.0009019998251460493,0.0009721628739498556,0.022484097629785538,0.00026414787862449884,0.0003298204392194748,0.0015913950046524405,0,2,-1000,0,1,0,-1,1,0,1500.0
12:22:46.780,AUTO,-35.3632622,149.1652375,26,-0.0009019998251460493,0.0009721628739498556,0.022484097629785538,0.00026414787862449884,0.0003298204392194748,0.0015913950046524405,0,2,-1000,0,1,0,-1,1,0,1500.0
12:22:46.981,AUTO,-35.3632622,149.1652375,7,-0.000846171285957098,0.0009912746027112007,0.022300725802779198,0.0002665849169716239,0.000293928780592978,0.001557420357130468,0,1,-1000,0,0,1,-1,0,-1,1500.0
12:22:47.252,AUTO,-35.3632622,149.1652375,10,-0.0008534837397746742,0.0010056480532512069,0.02223602682352066,0.0003070784732699394,0.00017069181194528937,0.001416785060428083,0,1,-1000,1,1,0,-1,0,-1,1500.0
12:22:47.585,AUTO,-35.3632621,149.1652375,11,-0.0008473942871205509,0.0010239863768219948,0.02219393290579319,0.00021990359527990222,0.0002961612190119922,0.0016175629571080208,0,2,-1000,1,0,0,0,0,-1,1500.0
12:22:47.822,AUTO,-35.3632621,149.1652375,12,-0.0008141645812429488,0.0010571604361757636,0.02212047018110752,0.00031872623367235065,0.00023407582193613052,0.0015122364275157452,0,1,-1000,0,1,0,0,0,-1,1500.0
12:22:48.153,AUTO,-35.3632621,149.1652375,12,-0.0007809789385646582,0.0011015527416020632,0.022061049938201904,0.00028837675927206874,0.00022968335542827845,0.0014954496873542666,0,1,-1000,1,0,0,0,0,0,1500.0
12:22:48.355,AUTO,-35.3632621,149.1652375,13,-0.0007369389059022069,0.0011583532905206084,0.022030996158719063,0.0003693912294693291,0.00036248459946364164,0.0015678785275667906,0,2,-1000,1,0,0,0,0,0,1500.0
12:22:48.566,AUTO,-35.3632621,149.1652375,13,-0.0007369389059022069,0.0011583532905206084,0.022030996158719063,0.0003693912294693291,0.00036248459946364164,0.0015678785275667906,0,2,-1000,1,0,0,0,0,0,1500.0
12:22:48.769,AUTO,-35.3632621,149.1652375,13,-0.0007369389059022069,0.0011583532905206084,0.022030996158719063,0.0003693912294693291,0.00036248459946364164,0.0015678785275667906,0,2,-1000,1,0,0,0,0,0,1500.0
12:22:48.971,AUTO,-35.3632621,149.1652375,13,-0.0005889828898943961,0.0013634752249345183,0.021823033690452576,0.00021438096882775426,0.0003149990807287395,0.001378641463816166,0,2,-1000,0,1,0,0,0,0,209430.0
12:22:49.172,AUTO,-35.3632621,149.1652375,13,-0.0005889828898943961,0.0013634752249345183,0.021823033690452576,0.00021438096882775426,0.0003149990807287395,0.001378641463816166,0,2,-1000,0,1,0,0,0,0,209430.0
12:22:49.374,AUTO,-35.3632621,149.1652375,13,-0.0005275850417092443,0.001436328631825745,0.02174876630306244,0.00034696271177381277,0.00033045647433027625,0.0014924401184543967,0,2,-1000,1,1,0,0,0,0,209430.0
12:22:49.575,AUTO,-35.3632621,149.1652375,13,-0.0004677718970924616,0.001511002192273736,0.021664217114448547,0.000260336440987885,0.00025371438823640347,0.0014965878799557686,0,1,-1000,0,0,0,0,0,0,209430.0
12:22:49.777,AUTO,-35.3632621,149.1652375,12,-0.0004066189576406032,0.0015814915532246232,0.021592911332845688,0.0003385869204066694,0.0003297370276413858,0.00142008310649544,0,1,-1000,0,0,0,0,0,0,209430.0
12:22:49.979,AUTO,-35.3632621,149.1652375,12,-0.00034288608003407717,0.0016528851119801402,0.021517856046557426,0.00030767382122576237,0.00019947829423472285,0.0014411768643185496,0,2,-1000,0,1,0,0,0,0,209430.0
12:22:50.181,AUTO,-35.3632621,149.1652375,12,-0.00034288608003407717,0.0016528851119801402,0.021517856046557426,0.00030767382122576237,0.00019947829423472285,0.0014411768643185496,0,2,-1000,0,1,0,0,0,0,209430.0
12:22:50.382,AUTO,-35.3632621,149.1652375,12,-0.0002804669493343681,0.0017255072016268969,0.021427594125270844,0.00026502006221562624,0.0003831610665656626,0.0014818632043898106,0,2,-1000,0,0,0,0,0,0,209430.0
12:22:50.584,AUTO,-35.3632621,149.1652375,12,-0.0002804669493343681,0.0017255072016268969,0.021427594125270844,0.00026502006221562624,0.0003831610665656626,0.0014818632043898106,0,2,-1000,0,0,0,0,0,0,209430.0
12:22:50.786,AUTO,-35.3632621,149.1652375,12,-0.0002804669493343681,0.0017255072016268969,0.021427594125270844,0.00026502006221562624,0.0003831610665656626,0.0014818632043898106,0,2,-1000,0,0,0,0,0,0,209430.0
12:22:50.988,AUTO,-35.3632621,149.1652375,208,0.0027382916305214167,0.0002369045396335423,0.02137024886906147,-0.0032010285649448633,0.004207259509712458,0.0011287237284705043,0,0,-1130,-2,5,0,0,0,-72,209430.0
12:22:51.189,AUTO,-35.3632621,149.1652375,208,0.0027382916305214167,0.0002369045396335423,0.02137024886906147,-0.0032010285649448633,0.004207259509712458,0.0011287237284705043,0,0,-1130,-2,5,0,0,0,-72,209430.0
12:22:51.391,AUTO,-35.3632621,149.1652375,425,0.001887924619950354,0.0012331762118265033,0.021241746842861176,-0.004674758296459913,0.0029260965529829264,0.0018299873918294907,0,0,-1109,-4,3,1,0,1,-101,209430.0
12:22:51.592,AUTO,-35.3632621,149.1652375,707,0.0014658893924206495,0.0015967602375894785,0.021190712228417397,0.005110481288284063,-1.3952900189906359e-05,-0.00034956930903717875,0,0,-1088,5,0,0,0,0,-124,209430.0
12:22:51.794,AUTO,-35.3632621,149.1652375,1040,0.010751728899776936,0.0006075061392039061,0.020970357581973076,0.04767490550875664,-0.006422392092645168,0.001477701123803854,0,0,-1040,48,-5,0,0,1,-139,209430.0
12:22:52.044,AUTO,-35.363262,149.1652375,1404,0.022579198703169823,-0.001083311508409679,0.0209695715457201,0.047052882611751556,-0.007440946996212006,0.002249934943392873,0,0,-1017,47,-6,1,1,5,-145,209430.0
12:22:52.325,AUTO,-35.363262,149.1652377,1781,0.03402729332447052,-0.0030102620366960764,0.02112557366490364,0.0450514517724514,-0.008390679024159908,0.0029304022900760174,0,-1,-1007,45,-7,2,1,11,-147,209430.0
12:22:52.537,AUTO,-35.363262,149.1652377,1781,0.03402729332447052,-0.0030102620366960764,0.02112557366490364,0.0450514517724514,-0.008390679024159908,0.0029304022900760174,0,-1,-1007,45,-7,2,1,11,-147,209430.0
12:22:52.774,AUTO,-35.363262,149.1652377,1781,0.03402729332447052,-0.0030102620366960764,0.02112557366490364,0.0450514517724514,-0.008390679024159908,0.0029304022900760174,0,-1,-1007,45,-7,2,1,11,-147,209430.0
12:22:53.064,AUTO,-35.3632616,149.1652397,2933,0.06189258396625519,-0.009063687175512314,-0.00701832864433527,-0.006348263472318649,0.019177328795194626,-0.035229239612817764,2,-8,-994,-5,19,-35,8,43,-148,209430.0
12:22:53.268,AUTO,-35.3632614,149.165241,3312,0.04113311693072319,0.013239488936960697,-0.03027190826833248,-0.13837586343288422,0.10045410692691803,-0.1046171560883522,3,-12,-991,-137,101,-105,10,53,-145,209430.0
12:22:53.471,AUTO,-35.3632611,149.1652425,3686,-0.0016619357047602534,0.024394985288381577,-0.050013016909360886,-0.14401115477085114,-0.0053957318887114525,-0.05180685967206955,4,-9,-1007,-143,-4,-52,6,54,-145,209430.0
12:22:53.673,AUTO,-35.3632611,149.1652425,3686,-0.0016619357047602534,0.024394985288381577,-0.050013016909360886,-0.14401115477085114,-0.0053957318887114525,-0.05180685967206955,4,-9,-1007,-143,-4,-52,6,54,-145,209430.0
12:22:53.875,AUTO,-35.363261,149.1652439,4068,-0.021520622074604034,0.012450669892132282,-0.05591878667473793,-0.0406026653945446,-0.05510568991303444,-0.02045290172100067,4,-11,-1010,-39,-54,-20,3,47,-147,15654.0
12:22:54.077,AUTO,-35.3632609,149.165245,4450,-0.030354492366313934,0.0024149108212441206,-0.06005365401506424,-0.046575773507356644,-0.018483607098460197,-0.030903827399015427,4,-9,-1003,-45,-17,-31,3,38,-149,15654.0
12:22:54.279,AUTO,-35.3632608,149.1652459,4834,-0.04678766429424286,0.0018170917173847556,-0.06908863037824631,-0.08088547736406326,0.011581845581531525,-0.0461733341217041,3,-7,-1000,-79,12,-46,4,26,-149,15654.0
12:22:54.481,AUTO,-35.3632608,149.1652459,4834,-0.04678766429424286,0.0018170917173847556,-0.06908863037824631,-0.08088547736406326,0.011581845581531525,-0.0461733341217041,3,-7,-1000,-79,12,-46,4,26,-149,15654.0
12:22:54.683,AUTO,-35.3632608,149.1652459,4834,-0.04678766429424286,0.0018170917173847556,-0.06908863037824631,-0.08088547736406326,0.011581845581531525,-0.0461733341217041,3,-7,-1000,-79,12,-46,4,26,-149,15654.0
12:22:54.886,AUTO,-35.3632608,149.1652459,4834,-0.04678766429424286,0.0018170917173847556,-0.06908863037824631,-0.08088547736406326,0.011581845581531525,-0.0461733341217041,3,-7,-1000,-79,12,-46,4,26,-149,15654.0
12:22:55.088,AUTO,-35.3632606,149.1652459,5979,-0.07231438159942627,0.004982172045856714,-0.10177427530288696,0.05085191875696182,-0.002846763003617525,-0.025302447378635406,-2,3,-1002,51,-2,-25,-2,-29,-149,15654.0
12:22:55.290,AUTO,-35.3632606,149.1652449,6363,-0.05871826782822609,0.0046464307233691216,-0.10722729563713074,0.05749262869358063,0.002365762135013938,-0.017388423904776573,-4,7,-1000,58,3,-17,-5,-43,-148,15654.0
12:22:55.492,AUTO,-35.3632608,149.1652436,6745,-0.04376731067895889,0.005661842878907919,-0.11091756820678711,0.06260094791650772,0.006833170540630817,-0.012103432789444923,-4,9,-1001,63,7,-12,-8,-54,-148,15654.0
12:22:55.697,AUTO,-35.363261,149.165242,7128,-0.0276985801756382,0.0076356609351933,-0.11330244690179825,0.06572693586349487,0.009348646737635136,-0.007006161380559206,-5,11,-1002,66,10,-7,-12,-60,-149,15654.0
12:22:55.899,AUTO,-35.363261,149.165242,7128,-0.0276985801756382,0.0076356609351933,-0.11330244690179825,0.06572693586349487,0.009348646737635136,-0.007006161380559206,-5,11,-1002,66,10,-7,-12,-60,-149,15654.0
12:22:56.102,AUTO,-35.3632613,149.1652402,7512,-0.010946610011160374,0.010019551031291485,-0.11447934806346893,0.06768061965703964,0.009406945668160915,-0.0022698130924254656,-5,14,-1003,68,10,-2,-15,-62,-150,15654.0
12:22:56.304,AUTO,-35.3632617,149.1652385,7899,0.0062306723557412624,0.012423928827047348,-0.11485882848501205,0.07032110542058945,0.009168291464447975,-0.0006787357851862907,-6,14,-1004,70,9,0,-18,-60,-150,15654.0
12:22:56.506,AUTO,-35.3632617,149.1652385,7899,0.0062306723557412624,0.012423928827047348,-0.11485882848501205,0.07032110542058945,0.009168291464447975,-0.0006787357851862907,-6,14,-1004,70,9,0,-18,-60,-150,15654.0
12:22:56.708,AUTO,-35.3632617,149.1652385,7899,0.0062306723557412624,0.012423928827047348,-0.11485882848501205,0.07032110542058945,0.009168291464447975,-0.0006787357851862907,-6,14,-1004,70,9,0,-18,-60,-150,15654.0
12:22:56.910,AUTO,-35.3632617,149.1652385,7899,0.0062306723557412624,0.012423928827047348,-0.11485882848501205,0.07032110542058945,0.009168291464447975,-0.0006787357851862907,-6,14,-1004,70,9,0,-18,-60,-150,15654.0
12:22:57.112,AUTO,-35.3632633,149.1652345,9075,0.05718610808253288,0.014826050028204918,-0.11189083755016327,0.06458090990781784,-0.003942679613828659,0.004413013346493244,0,10,-1003,65,-3,3,-26,-27,-153,15654.0
12:22:57.334,AUTO,-35.3632639,149.1652339,9467,0.06885851174592972,0.009858345612883568,-0.10682365298271179,0.005697369575500488,-0.051961928606033325,0.05391930788755417,1,7,-996,6,-51,53,-27,-10,-152,15654.0
12:22:57.554,AUTO,-35.3632645,149.1652338,9856,0.06146242097020149,-0.015442448668181896,-0.08703944832086563,-0.04127752408385277,-0.11735153943300247,0.104996457695961,4,5,-997,-40,-116,104,-23,5,-150,15654.0
12:22:57.759,AUTO,-35.3632649,149.1652341,10243,0.052768953144550323,-0.045479029417037964,-0.060472894459962845,-0.020952198654413223,-0.10464486479759216,0.11640336364507675,5,0,-1001,-20,-103,115,-13,18,-150,15654.0
12:22:57.963,AUTO,-35.363265,149.1652346,10629,0.048505693674087524,-0.06894535571336746,-0.03278067335486412,-0.01901218108832836,-0.0852741152048111,0.12227053195238113,4,-3,-998,-18,-84,121,2,29,-149,15654.0
12:22:58.309,AUTO,-35.3632649,149.1652355,11018,0.02370763011276722,-0.07179313153028488,-0.02293725498020649,-0.13399213552474976,0.06533044576644897,-0.015949860215187073,1,-7,-993,-133,66,-16,22,35,-147,15654.0
12:22:58.563,AUTO,-35.3632649,149.1652355,11018,0.02370763011276722,-0.07179313153028488,-0.02293725498020649,-0.13399213552474976,0.06533044576644897,-0.015949860215187073,1,-7,-993,-133,66,-16,22,35,-147,15654.0
12:22:58.768,AUTO,-35.3632649,149.1652355,11018,0.02370763011276722,-0.07179313153028488,-0.02293725498020649,-0.13399213552474976,0.06533044576644897,-0.015949860215187073,1,-7,-993,-133,66,-16,22,35,-147,15654.0
12:22:58.971,AUTO,-35.3632649,149.1652355,11018,0.02370763011276722,-0.07179313153028488,-0.02293725498020649,-0.13399213552474976,0.06533044576644897,-0.015949860215187073,1,-7,-993,-133,66,-16,22,35,-147,15654.0
12:22:59.173,AUTO,-35.3632619,149.1652378,12301,-0.03858961910009384,0.005513967014849186,-0.10444999486207962,-0.008382096886634827,0.06056293472647667,-0.10338768362998962,-5,-8,-1007,-7,61,-103,43,9,-150,20486.0
12:22:59.375,AUTO,-35.363261,149.1652379,12689,-0.037981972098350525,0.01726839877665043,-0.13007687032222748,0.01637982204556465,0.04149027541279793,-0.08823008090257645,-6,-6,-1005,16,42,-88,37,-2,-151,20486.0
12:22:59.577,AUTO,-35.3632602,149.1652377,13079,-0.03172174096107483,0.024320492520928383,-0.14972814917564392,0.035181283950805664,0.023151522502303123,-0.06466890871524811,-7,-4,-1003,35,23,-65,29,-11,-152,20486.0
12:22:59.778,AUTO,-35.3632602,149.1652377,13079,-0.03172174096107483,0.024320492520928383,-0.14972814917564392,0.035181283950805664,0.023151522502303123,-0.06466890871524811,-7,-4,-1003,35,23,-65,29,-11,-152,20486.0
12:22:59.980,AUTO,-35.3632596,149.1652374,13471,-0.022165043279528618,0.028569867834448814,-0.1640961468219757,0.04297400638461113,0.016187982633709908,-0.047489654272794724,-7,-1,-1002,43,17,-47,20,-17,-153,20486.0
12:23:00.182,AUTO,-35.3632592,149.1652368,13862,-0.011093324050307274,0.03182361647486687,-0.17433421313762665,0.047668684273958206,0.012562530115246773,-0.03465085104107857,-6,0,-1001,48,13,-35,11,-21,-153,20486.0
12:23:00.384,AUTO,-35.363259,149.1652362,14254,0.0008869155426509678,0.03446757793426514,-0.1816636323928833,0.050110187381505966,0.009705568663775921,-0.025110267102718353,-5,2,-1001,50,10,-25,2,-20,-153,20486.0
12:23:00.586,AUTO,-35.363259,149.1652362,14254,0.0008869155426509678,0.03446757793426514,-0.1816636323928833,0.050110187381505966,0.009705568663775921,-0.025110267102718353,-5,2,-1001,50,10,-25,2,-20,-153,20486.0
12:23:00.788,AUTO,-35.363259,149.1652362,14254,0.0008869155426509678,0.03446757793426514,-0.1816636323928833,0.050110187381505966,0.009705568663775921,-0.025110267102718353,-5,2,-1001,50,10,-25,2,-20,-153,20486.0
12:23:00.990,AUTO,-35.363259,149.1652362,14254,0.0008869155426509678,0.03446757793426514,-0.1816636323928833,0.050110187381505966,0.009705568663775921,-0.025110267102718353,-5,2,-1001,50,10,-25,2,-20,-153,20486.0
12:23:01.192,AUTO,-35.3632593,149.165235,15429,0.024841755628585815,0.022811418399214745,-0.17867061495780945,-0.0006741415127180517,-0.038771260529756546,0.028420433402061462,0,3,-997,0,-38,27,-17,-4,-152,20486.0
12:23:01.394,AUTO,-35.3632597,149.1652349,15826,0.021933333948254585,0.014708396047353745,-0.17195142805576324,-0.0164287481456995,-0.02499544806778431,0.022829150781035423,2,2,-998,-15,-24,22,-19,2,-151,20486.0
12:23:01.597,AUTO,-35.3632601,149.165235,16214,0.01702836900949478,0.009139163419604301,-0.16703711450099945,-0.02062251977622509,-0.017507918179035187,0.013827786780893803,3,2,-999,-19,-16,13,-20,7,-151,20486.0
12:23:01.799,AUTO,-35.3632601,149.165235,16214,0.01702836900949478,0.009139163419604301,-0.16703711450099945,-0.02062251977622509,-0.017507918179035187,0.013827786780893803,3,2,-999,-19,-16,13,-20,7,-151,20486.0
12:23:02.001,AUTO,-35.3632605,149.1652351,16602,0.011960193514823914,0.004960169084370136,-0.1641331911087036,-0.018456997349858284,-0.015397969633340836,0.007278261706233025,4,1,-1000,-17,-14,6,-19,10,-151,20486.0
12:23:02.203,AUTO,-35.3632609,149.1652353,16990,0.007187484763562679,0.0014820689102634788,-0.1633620709180832,-0.01950237900018692,-0.011297309771180153,-0.0019824677146971226,4,0,-1000,-18,-10,-2,-18,11,-151,20486.0
12:23:02.405,AUTO,-35.3632612,149.1652355,17377,0.0029565300792455673,-0.000820441055111587,-0.1648467630147934,-0.015036044642329216,-0.007476682774722576,-0.010199842043220997,4,0,-1000,-14,-6,-10,-16,12,-151,20486.0
12:23:02.607,AUTO,-35.3632612,149.1652355,17377,0.0029565300792455673,-0.000820441055111587,-0.1648467630147934,-0.015036044642329216,-0.007476682774722576,-0.010199842043220997,4,0,-1000,-14,-6,-10,-16,12,-151,20486.0
12:23:02.809,AUTO,-35.3632612,149.1652355,17377,0.0029565300792455673,-0.000820441055111587,-0.1648467630147934,-0.015036044642329216,-0.007476682774722576,-0.010199842043220997,4,0,-1000,-14,-6,-10,-16,12,-151,20486.0
12:23:03.011,AUTO,-35.3632612,149.1652355,17377,0.0029565300792455673,-0.000820441055111587,-0.1648467630147934,-0.015036044642329216,-0.007476682774722576,-0.010199842043220997,4,0,-1000,-14,-6,-10,-16,12,-151,20486.0
12:23:03.267,AUTO,-35.3632619,149.1652362,18536,-0.0032579984981566668,-0.004767112899571657,-0.17745079100131989,-0.0042726583778858185,0.0005302470526657999,-0.024751808494329453,2,0,-1000,-3,1,-25,-9,8,-152,20486.0
12:23:03.612,AUTO,-35.3632622,149.1652365,19314,-0.002949119545519352,-0.004271532408893108,-0.19074951112270355,0.005112307611852884,0.0033485449384897947,-0.02928716130554676,1,0,-1000,6,4,-29,-5,4,-152,20486.0
12:23:04.026,AUTO,-35.3632623,149.1652365,19704,-0.0017915789503604174,-0.0035259954165667295,-0.19796240329742432,0.006432742346078157,0.004601849243044853,-0.028288327157497406,0,0,-1000,7,5,-28,-4,2,-152,20486.0
12:23:04.283,AUTO,-35.3632623,149.1652365,20093,-0.0005567308980971575,-0.0025574665050953627,-0.20517058670520782,0.004896969068795443,0.004045445006340742,-0.0273856483399868,0,0,-1000,5,4,-27,-2,1,-152,20486.0
12:23:04.485,AUTO,-35.3632623,149.1652365,20491,0.0009292232571169734,-0.0014837125781923532,-0.21249477565288544,0.005540420301258564,0.0043756696395576,-0.029133059084415436,0,0,-1000,6,4,-29,-1,0,-152,20486.0
12:23:04.687,AUTO,-35.3632623,149.1652365,20491,0.0009292232571169734,-0.0014837125781923532,-0.21249477565288544,0.005540420301258564,0.0043756696395576,-0.029133059084415436,0,0,-1000,6,4,-29,-1,0,-152,20486.0
12:23:04.889,AUTO,-35.3632623,149.1652365,20491,0.0009292232571169734,-0.0014837125781923532,-0.21249477565288544,0.005540420301258564,0.0043756696395576,-0.029133059084415436,0,0,-1000,6,4,-29,-1,0,-152,20486.0
12:23:05.092,AUTO,-35.3632623,149.1652365,21661,0.003905343823134899,0.0023202472366392612,-0.23344209790229797,0.0026871287263929844,0.0031930110417306423,-0.02481115236878395,0,0,-1000,3,4,-24,0,0,-152,20486.0
12:23:05.294,AUTO,-35.3632623,149.1652365,21661,0.003905343823134899,0.0023202472366392612,-0.23344209790229797,0.0026871287263929844,0.0031930110417306423,-0.02481115236878395,0,0,-1000,3,4,-24,0,0,-152,105459.0
12:23:05.496,AUTO,-35.3632623,149.1652364,22052,0.0043987687677145,0.002929263049736619,-0.23952776193618774,0.0025268448516726494,0.0026002484373748302,-0.023166755214333534,0,0,-1000,3,3,-23,0,1,-152,105459.0
12:23:05.697,AUTO,-35.3632623,149.1652364,22440,0.004873291589319706,0.0034617558121681213,-0.24527624249458313,0.0025878632441163063,0.002463282085955143,-0.022066257894039154,0,0,-1000,3,3,-22,0,1,-152,105459.0
12:23:05.899,AUTO,-35.3632623,149.1652364,22829,0.0050308178178966045,0.0036902104038745165,-0.2504948675632477,-0.000659991754218936,-0.00021205964731052518,-0.01913563534617424,0,0,-1000,0,0,-19,0,2,-152,105459.0
12:23:06.101,AUTO,-35.3632622,149.1652364,23219,0.004961549304425716,0.003511161310598254,-0.25522035360336304,8.99932929314673e-05,-0.00029095244826748967,-0.015860995277762413,0,0,-1000,0,0,-16,0,2,-152,105459.0
12:23:06.303,AUTO,-35.3632622,149.1652364,23219,0.004961549304425716,0.003511161310598254,-0.25522035360336304,8.99932929314673e-05,-0.00029095244826748967,-0.015860995277762413,0,0,-1000,0,0,-16,0,2,-152,105459.0
12:23:06.505,AUTO,-35.3632622,149.1652364,23609,0.004750000312924385,0.0031958138570189476,-0.25961369276046753,-0.002148415893316269,-0.0023495687637478113,-0.0154271787032485,0,0,-1000,-1,-1,-15,0,3,-152,105459.0
12:23:06.707,AUTO,-35.3632622,149.1652364,23609,0.004750000312924385,0.0031958138570189476,-0.25961369276046753,-0.002148415893316269,-0.0023495687637478113,-0.0154271787032485,0,0,-1000,-1,-1,-15,0,3,-152,105459.0
12:23:06.909,AUTO,-35.3632622,149.1652364,23609,0.004750000312924385,0.0031958138570189476,-0.25961369276046753,-0.002148415893316269,-0.0023495687637478113,-0.0154271787032485,0,0,-1000,-1,-1,-15,0,3,-152,105459.0
12:23:07.111,AUTO,-35.3632622,149.1652365,24778,0.003169853473082185,0.0032955727074295282,-0.2733786702156067,-0.0015012514777481556,-0.0011040912941098213,-0.01615157723426819,0,0,-1000,0,0,-16,-1,4,-153,105459.0
12:23:07.313,AUTO,-35.3632622,149.1652366,25167,-0.0009506690548732877,0.0034924179781228304,-0.2776322066783905,-0.11183519661426544,0.005741656757891178,-0.006143532693386078,0,-3,-981,-110,6,-6,-1,4,-152,105459.0
12:23:07.515,AUTO,-35.3632622,149.1652366,25167,-0.0009506690548732877,0.0034924179781228304,-0.2776322066783905,-0.11183519661426544,0.005741656757891178,-0.006143532693386078,0,-3,-981,-110,6,-6,-1,4,-152,105459.0
12:23:07.716,AUTO,-35.3632622,149.1652366,25554,-0.011246786452829838,0.005513031035661697,-0.2775109112262726,0.003104227129369974,0.0057753934524953365,0.007180940825492144,0,0,-1003,4,6,6,-2,1,-152,105459.0
12:23:07.918,AUTO,-35.3632622,149.1652365,25943,-0.004081552382558584,0.006005650851875544,-0.27463269233703613,0.0393001027405262,-0.0003184857778251171,0.01490901317447424,0,0,-1003,40,0,14,-3,0,-152,105459.0
12:23:08.120,AUTO,-35.3632622,149.1652365,26331,0.004137367941439152,0.005264192819595337,-0.26976338028907776,0.02809268981218338,-0.003935811575502157,0.023702390491962433,0,1,-1000,29,-3,23,-4,0,-153,105459.0
12:23:08.322,AUTO,-35.3632623,149.1652365,26720,0.009053850546479225,0.004322413820773363,-0.2633354663848877,0.015181785449385643,-0.0028406779747456312,0.028357699513435364,0,0,-999,16,-1,28,-4,0,-153,105459.0
12:23:08.523,AUTO,-35.3632623,149.1652365,26720,0.009053850546479225,0.004322413820773363,-0.2633354663848877,0.015181785449385643,-0.0028406779747456312,0.028357699513435364,0,0,-999,16,-1,28,-4,0,-153,105459.0
12:23:08.725,AUTO,-35.3632623,149.1652365,26720,0.009053850546479225,0.004322413820773363,-0.2633354663848877,0.015181785449385643,-0.0028406779747456312,0.028357699513435364,0,0,-999,16,-1,28,-4,0,-153,105459.0
12:23:08.927,AUTO,-35.3632623,149.1652365,26720,0.009053850546479225,0.004322413820773363,-0.2633354663848877,0.015181785449385643,-0.0028406779747456312,0.028357699513435364,0,0,-999,16,-1,28,-4,0,-153,105459.0
12:23:09.133,AUTO,-35.3632624,149.1652365,27886,0.009723342955112457,0.0024863905273377895,-0.2439328134059906,-0.008502881042659283,-0.003059237729758024,0.024269472807645798,0,0,-999,-7,-2,24,-3,7,-152,105459.0
12:23:09.398,AUTO,-35.3632624,149.1652367,28273,0.007700030691921711,0.00199671508744359,-0.23824355006217957,-0.009030988439917564,-0.0009270514128729701,0.021350160241127014,1,0,-999,-8,0,21,-2,8,-152,105459.0
12:23:09.771,AUTO,-35.3632624,149.1652369,28661,0.005592484027147293,0.002050101524218917,-0.23282332718372345,-0.0062962244264781475,0.0020307679660618305,0.02068541757762432,1,-1,-1000,-5,2,20,-1,9,-152,105459.0
12:23:10.051,AUTO,-35.3632624,149.1652371,29049,0.0039667123928666115,0.002139308489859104,-0.22737719118595123,-0.007180236745625734,0.0005958504043519497,0.02203981764614582,1,-1,-1000,-6,1,21,-1,9,-152,105459.0
12:23:10.269,AUTO,-35.3632624,149.1652373,29440,0.0021972134709358215,0.0018861161079257727,-0.22215789556503296,-0.005037819966673851,-0.0017794265877455473,0.02170361578464508,1,-1,-1000,-4,0,21,-1,9,-152,105459.0
12:23:10.472,AUTO,-35.3632624,149.1652375,29828,0.00031848825165070593,0.0014044560957700014,-0.21723194420337677,-0.008947707712650299,-0.00249165715649724,0.019352823495864868,1,-1,-1000,-7,-1,19,0,8,-152,105459.0
12:23:10.676,AUTO,-35.3632624,149.1652375,29828,0.00031848825165070593,0.0014044560957700014,-0.21723194420337677,-0.008947707712650299,-0.00249165715649724,0.019352823495864868,1,-1,-1000,-7,-1,19,0,8,-152,105459.0
12:23:10.879,AUTO,-35.3632624,149.1652375,29828,0.00031848825165070593,0.0014044560957700014,-0.21723194420337677,-0.008947707712650299,-0.00249165715649724,0.019352823495864868,1,-1,-1000,-7,-1,19,0,8,-152,105459.0
12:23:11.081,AUTO,-35.3632624,149.1652379,30988,-0.001208544010296464,0.0013495117891579866,-0.20352697372436523,-0.0012311688624322414,-0.0018690717406570911,0.01928362064063549,0,-1,-1000,0,0,19,0,5,-152,18995.0
12:23:11.283,AUTO,-35.3632624,149.1652379,30988,-0.001208544010296464,0.0013495117891579866,-0.20352697372436523,-0.0012311688624322414,-0.0018690717406570911,0.01928362064063549,0,-1,-1000,0,0,19,0,5,-152,18995.0
12:23:11.484,AUTO,-35.3632624,149.165238,31376,-0.001277766888961196,0.000976571929641068,-0.19894260168075562,-5.044403951615095e-05,-0.00179142109118402,0.01981758140027523,0,0,-1000,1,0,19,0,4,-152,18995.0
12:23:11.686,AUTO,-35.3632624,149.1652381,31764,-0.0011918821837753057,0.0009408115292899311,-0.19454729557037354,0.000999213894829154,0.0004251134814694524,0.015102479606866837,0,0,-1001,1,1,14,0,3,-152,18995.0
12:23:11.888,AUTO,-35.3632624,149.1652381,32153,-0.0008338132174685597,0.0011126372264698148,-0.19080975651741028,0.0032049096189439297,0.0011761076748371124,0.013516305014491081,0,0,-1000,4,2,13,0,2,-152,18995.0
12:23:12.090,AUTO,-35.3632624,149.1652381,32542,-0.0003052963875234127,0.0011270985705778003,-0.18713414669036865,0.00014866015408188105,-0.001172235468402505,0.01453489437699318,0,0,-1000,1,0,14,0,2,-152,18995.0
12:23:12.291,AUTO,-35.3632624,149.1652381,32542,-0.0003052963875234127,0.0011270985705778003,-0.18713414669036865,0.00014866015408188105,-0.001172235468402505,0.01453489437699318,0,0,-1000,1,0,14,0,2,-152,18995.0
12:23:12.493,AUTO,-35.3632624,149.1652381,32930,-1.9096727555734105e-05,0.0008352719596587121,-0.18350788950920105,-0.0018991020042449236,-0.0015205085510388017,0.013909866102039814,0,0,-1000,0,0,13,0,1,-152,18995.0
12:23:12.695,AUTO,-35.3632624,149.1652381,32930,-1.9096727555734105e-05,0.0008352719596587121,-0.18350788950920105,-0.0018991020042449236,-0.0015205085510388017,0.013909866102039814,0,0,-1000,0,0,13,0,1,-152,18995.0
12:23:12.897,AUTO,-35.3632624,149.1652381,32930,-1.9096727555734105e-05,0.0008352719596587121,-0.18350788950920105,-0.0018991020042449236,-0.0015205085510388017,0.013909866102039814,0,0,-1000,0,0,13,0,1,-152,18995.0
12:23:13.098,AUTO,-35.3632623,149.1652381,34095,0.000884411099832505,0.0008431744063273072,-0.17322276532649994,-0.000520970206707716,-0.0004704430466517806,0.012306174263358116,0,0,-1000,0,0,12,0,0,-152,18995.0
12:23:13.300,AUTO,-35.3632623,149.1652381,34095,0.000884411099832505,0.0008431744063273072,-0.17322276532649994,-0.000520970206707716,-0.0004704430466517806,0.012306174263358116,0,0,-1000,0,0,12,0,0,-152,18995.0
12:23:13.502,AUTO,-35.3632623,149.1652381,34482,0.0009191553690470755,0.0006363605498336256,-0.17005515098571777,0.00013072916772216558,-0.00103220425080508,0.011790704913437366,0,0,-1000,1,0,11,0,0,-152,18995.0
12:23:13.703,AUTO,-35.3632623,149.1652381,34871,0.0011885658605024219,0.0006384833832271397,-0.16685378551483154,0.0020607183687388897,0.000558089988771826,0.014424326829612255,0,0,-999,2,1,14,0,0,-152,18995.0
12:23:13.905,AUTO,-35.3632623,149.165238,35260,0.001235505100339651,0.0009195450111292303,-0.1637614667415619,0.0026373816654086113,0.0033648652024567127,0.012059060856699944,0,0,-1000,3,4,12,0,0,-152,18995.0
12:23:14.107,AUTO,-35.3632623,149.165238,35648,0.001489126356318593,0.0013605181593447924,-0.16085782647132874,-0.0014118703547865152,-0.00022385665215551853,0.011364523321390152,0,0,-1000,0,0,11,0,0,-152,18995.0
12:23:14.309,AUTO,-35.3632623,149.1652379,36036,0.0015972753753885627,0.00134974904358387,-0.15816915035247803,-0.0013083807425573468,-0.0016065370291471481,0.009597580879926682,0,0,-1000,0,0,9,0,0,-152,18995.0
12:23:14.511,AUTO,-35.3632623,149.1652379,36036,0.0015972753753885627,0.00134974904358387,-0.15816915035247803,-0.0013083807425573468,-0.0016065370291471481,0.009597580879926682,0,0,-1000,0,0,9,0,0,-152,18995.0
12:23:14.713,AUTO,-35.3632623,149.1652379,36036,0.0015972753753885627,0.00134974904358387,-0.15816915035247803,-0.0013083807425573468,-0.0016065370291471481,0.009597580879926682,0,0,-1000,0,0,9,0,0,-152,18995.0
12:23:14.915,AUTO,-35.3632623,149.1652379,36036,0.0015972753753885627,0.00134974904358387,-0.15816915035247803,-0.0013083807425573468,-0.0016065370291471481,0.009597580879926682,0,0,-1000,0,0,9,0,0,-152,18995.0
12:23:15.192,AUTO,-35.3632622,149.1652378,37202,0.001790915965102613,0.0009397657704539597,-0.1506398618221283,0.002710547298192978,-0.0001843921490944922,0.010011157020926476,0,0,-1001,3,0,9,0,0,-152,18995.0
12:23:15.562,AUTO,-35.3632622,149.1652377,37978,0.0022416149731725454,0.000989763531833887,-0.1456671506166458,0.0014381761429831386,0.0016266206512227654,0.011236682534217834,0,0,-1000,2,2,11,0,0,-152,18995.0
12:23:15.868,AUTO,-35.3632622,149.1652377,38366,0.0022241133265197277,0.0011208521900698543,-0.14334778487682343,-0.0020361042115837336,0.002162159653380513,0.00986448209732771,0,0,-999,0,3,9,0,0,-152,18995.0
12:23:16.073,AUTO,-35.3632622,149.1652376,38759,0.0023388355039060116,0.0013311869697645307,-0.14139297604560852,0.003172521246597171,0.0012207030085846782,0.007155619561672211,0,0,-1001,4,2,7,0,0,-152,18995.0
12:23:16.276,AUTO,-35.3632622,149.1652376,38759,0.0023388355039060116,0.0013311869697645307,-0.14139297604560852,0.003172521246597171,0.0012207030085846782,0.007155619561672211,0,0,-1001,4,2,7,0,0,-152,18995.0
12:23:16.479,AUTO,-35.3632622,149.1652376,39147,0.00239952583797276,0.0015289941802620888,-0.1392582654953003,-0.003767318557947874,0.0014517046511173248,0.008922422304749489,0,0,-999,-2,2,8,0,0,-152,18995.0
12:23:16.687,AUTO,-35.3632622,149.1652376,39147,0.00239952583797276,0.0015289941802620888,-0.1392582654953003,-0.003767318557947874,0.0014517046511173248,0.008922422304749489,0,0,-999,-2,2,8,0,0,-152,18995.0
12:23:16.891,AUTO,-35.3632622,149.1652376,39147,0.00239952583797276,0.0015289941802620888,-0.1392582654953003,-0.003767318557947874,0.0014517046511173248,0.008922422304749489,0,0,-999,-2,2,8,0,0,-152,944.0
12:23:17.092,AUTO,-35.3632621,149.1652375,40309,0.0019821925088763237,0.0016580078518018126,-0.13350573182106018,0.00039177783764898777,0.0007623924175277352,0.008886917494237423,0,0,-1000,1,1,9,0,0,-152,944.0
12:23:17.294,AUTO,-35.3632621,149.1652375,40309,0.0019821925088763237,0.0016580078518018126,-0.13350573182106018,0.00039177783764898777,0.0007623924175277352,0.008886917494237423,0,0,-1000,1,1,9,0,0,-152,944.0
12:23:17.495,AUTO,-35.3632621,149.1652375,40697,0.0019337832927703857,0.0018038171110674739,-0.13165129721164703,-0.0031508831307291985,-0.00023040443193167448,0.007915280759334564,0,0,-999,-2,0,7,0,0,-152,944.0
12:23:17.697,AUTO,-35.3632621,149.1652375,41085,0.001834296970628202,0.0016121823573485017,-0.1297803670167923,0.0033197496086359024,-0.00076422153506428,0.00994552206248045,0,0,-1000,4,0,9,0,0,-152,944.0
12:23:17.899,AUTO,-35.3632621,149.1652375,41474,0.0016553382156416774,0.0014325276715680957,-0.12819218635559082,-0.0018133434932678938,1.8424936570227146e-05,0.007415418513119221,0,0,-1000,0,1,7,0,0,-152,944.0
12:23:18.100,AUTO,-35.3632621,149.1652375,41862,0.0015365765430033207,0.0013619828969240189,-0.1264515519142151,0.0013710955390706658,5.474407225847244e-05,0.011305286549031734,0,0,-999,2,1,11,-1,0,-152,944.0
12:23:18.302,AUTO,-35.3632621,149.1652375,41862,0.0015365765430033207,0.0013619828969240189,-0.1264515519142151,0.0013710955390706658,5.474407225847244e-05,0.011305286549031734,0,0,-999,2,1,11,-1,0,-152,944.0
12:23:18.504,AUTO,-35.3632621,149.1652375,42249,0.0017143907025456429,0.0013372735120356083,-0.12454205751419067,0.0010591548634693027,0.0002485094591975212,0.0065942006185650826,0,0,-1000,2,1,6,-1,0,-152,944.0
12:23:18.706,AUTO,-35.3632621,149.1652375,42249,0.0017143907025456429,0.0013372735120356083,-0.12454205751419067,0.0010591548634693027,0.0002485094591975212,0.0065942006185650826,0,0,-1000,2,1,6,-1,0,-152,944.0
12:23:18.908,AUTO,-35.3632621,149.1652375,42249,0.0017143907025456429,0.0013372735120356083,-0.12454205751419067,0.0010591548634693027,0.0002485094591975212,0.0065942006185650826,0,0,-1000,2,1,6,-1,0,-152,944.0
12:23:19.109,AUTO,-35.3632621,149.1652374,43418,0.0016841321485117078,0.001499308506026864,-0.12006787210702896,-0.0031518698669970036,-9.576510637998581e-05,0.006859107408672571,0,0,-999,-2,1,6,-1,1,-152,944.0
12:23:19.312,AUTO,-35.363262,149.1652374,43803,-0.007882985286414623,0.010373888537287712,-0.09984584152698517,-0.09333136677742004,0.09436164051294327,0.20119516551494598,0,0,-966,-92,95,201,-1,0,-148,944.0
12:23:19.513,AUTO,-35.363262,149.1652374,43803,-0.007882985286414623,0.010373888537287712,-0.09984584152698517,-0.09333136677742004,0.09436164051294327,0.20119516551494598,0,0,-966,-92,95,201,-1,0,-148,944.0
12:23:19.715,AUTO,-35.363262,149.1652373,44169,-0.03939152881503105,0.04624233394861221,-0.01093360222876072,-0.16270320117473602,0.14959487318992615,0.4992382824420929,0,1,-967,-161,150,499,-8,-5,-139,944.0
12:23:19.939,AUTO,-35.3632623,149.165237,44513,-0.06429304927587509,0.07474525272846222,0.12700605392456055,-0.0422852486371994,-0.04982508718967438,0.46377328038215637,2,3,-934,-41,-48,463,-22,-18,-127,944.0
12:23:20.185,AUTO,-35.3632629,149.1652362,44817,-0.04610711336135864,0.037281591445207596,0.21145974099636078,0.10461779683828354,-0.21609483659267426,0.23584988713264465,3,7,-934,105,-215,235,-32,-32,-110,944.0
12:23:20.438,AUTO,-35.3632636,149.1652353,45081,-0.016941849142313004,-0.010874140076339245,0.2520062029361725,0.11798127740621567,-0.16620320081710815,0.10564363747835159,4,10,-942,119,-165,105,-32,-37,-95,944.0
12:23:20.736,AUTO,-35.3632636,149.1652353,45081,-0.016941849142313004,-0.010874140076339245,0.2520062029361725,0.11798127740621567,-0.16620320081710815,0.10564363747835159,4,10,-942,119,-165,105,-32,-37,-95,944.0
12:23:20.969,AUTO,-35.3632636,149.1652353,45081,-0.016941849142313004,-0.010874140076339245,0.2520062029361725,0.11798127740621567,-0.16620320081710815,0.10564363747835159,4,10,-942,119,-165,105,-32,-37,-95,944.0
12:23:21.172,AUTO,-35.3632649,149.1652328,45676,0.03735828399658203,-0.05490050092339516,0.2622174322605133,0.04978834465146065,0.010422641411423683,-0.025121130049228668,0,5,-965,50,11,-25,-4,-13,-61,944.0
12:23:21.374,AUTO,-35.3632649,149.1652325,45822,0.039793334901332855,-0.04880078509449959,0.2540219724178314,-0.09772627800703049,0.03207196295261383,-0.03399061784148216,-1,-2,-971,-96,33,-33,4,-1,-53,944.0
12:23:21.577,AUTO,-35.3632648,149.1652326,45948,0.04110823571681976,-0.03844213858246803,0.24511991441249847,0.1764461100101471,0.043155238032341,-0.03441468998789787,-1,8,-976,178,44,-34,11,9,-46,944.0
12:23:21.779,AUTO,-35.3632648,149.1652326,45948,0.04110823571681976,-0.03844213858246803,0.24511991441249847,0.1764461100101471,0.043155238032341,-0.03441468998789787,-1,8,-976,178,44,-34,11,9,-46,71406.0
12:23:21.981,AUTO,-35.3632645,149.1652329,46058,0.03633958101272583,-0.027533719316124916,0.23628318309783936,-0.22457453608512878,0.04676998034119606,-0.034803472459316254,-2,-22,-970,-224,47,-34,17,18,-40,71406.0
12:23:22.183,AUTO,-35.363264,149.1652333,46151,0.02068602293729782,-0.017056524753570557,0.22750744223594666,-0.4732474684715271,0.04172631353139877,-0.030229758471250534,-3,-8,-973,-471,42,-29,20,25,-33,71406.0
12:23:22.385,AUTO,-35.3632635,149.165234,46226,0.018268689513206482,-0.007133643142879009,0.21900883316993713,0.16110514104366302,0.035029780119657516,-0.0277025755494833,-3,17,-988,163,35,-27,21,29,-28,71406.0
12:23:22.587,AUTO,-35.3632635,149.165234,46226,0.018268689513206482,-0.007133643142879009,0.21900883316993713,0.16110514104366302,0.035029780119657516,-0.0277025755494833,-3,17,-988,163,35,-27,21,29,-28,71406.0
12:23:22.789,AUTO,-35.3632635,149.165234,46226,0.018268689513206482,-0.007133643142879009,0.21900883316993713,0.16110514104366302,0.035029780119657516,-0.0277025755494833,-3,17,-988,163,35,-27,21,29,-28,71406.0
12:23:22.991,AUTO,-35.3632635,149.165234,46226,0.018268689513206482,-0.007133643142879009,0.21900883316993713,0.16110514104366302,0.035029780119657516,-0.0277025755494833,-3,17,-988,163,35,-27,21,29,-28,71406.0
12:23:23.193,AUTO,-35.3632621,149.1652362,46382,0.006902427412569523,0.012578694149851799,0.19704769551753998,-0.44018855690956116,0.016489828005433083,-0.02615572139620781,-1,-39,-983,-440,17,-25,17,28,-13,71406.0
12:23:23.395,AUTO,-35.3632617,149.1652369,46403,-0.006970763206481934,0.015151724219322205,0.19139091670513153,-0.6883838176727295,0.0074266972951591015,-0.018412591889500618,-1,-39,-992,-687,8,-18,14,26,-7,71406.0
12:23:23.596,AUTO,-35.3632614,149.1652375,46410,-0.011856716126203537,0.018934767693281174,0.19199985265731812,-0.004222880117595196,0.12264759838581085,0.18084096908569336,-4,12,-964,-1,123,180,10,23,0,71406.0
12:23:23.798,AUTO,-35.3632614,149.1652375,46410,-0.011856716126203537,0.018934767693281174,0.19199985265731812,-0.004222880117595196,0.12264759838581085,0.18084096908569336,-4,12,-964,-1,123,180,10,23,0,71406.0
12:23:24.000,AUTO,-35.3632612,149.165238,46386,-0.02239101193845272,0.04704253003001213,0.18590405583381653,0.7444146871566772,0.016451245173811913,-0.021134115755558014,1,42,-970,746,17,-20,3,15,14,71406.0
12:23:24.202,AUTO,-35.3632612,149.1652383,46341,-0.003886786988005042,0.03752162307500839,0.1795666366815567,0.9165781736373901,-0.056655872613191605,-0.020052939653396606,6,32,-1030,918,-55,-19,-5,7,16,71406.0
12:23:24.404,AUTO,-35.3632613,149.1652386,46300,0.02019868791103363,0.028869954869151115,0.17348189651966095,0.3465632498264313,-0.026628052815794945,-0.02126500941812992,5,-9,-1004,346,-25,-21,-11,5,14,71406.0
12:23:24.606,AUTO,-35.3632613,149.1652386,46300,0.02019868791103363,0.028869954869151115,0.17348189651966095,0.3465632498264313,-0.026628052815794945,-0.02126500941812992,5,-9,-1004,346,-25,-21,-11,5,14,71406.0
12:23:24.808,AUTO,-35.3632613,149.1652386,46300,0.02019868791103363,0.028869954869151115,0.17348189651966095,0.3465632498264313,-0.026628052815794945,-0.02126500941812992,5,-9,-1004,346,-25,-21,-11,5,14,71406.0
12:23:25.009,AUTO,-35.3632613,149.1652386,46300,0.02019868791103363,0.028869954869151115,0.17348189651966095,0.3465632498264313,-0.026628052815794945,-0.02126500941812992,5,-9,-1004,346,-25,-21,-11,5,14,71406.0
12:23:25.211,AUTO,-35.3632627,149.1652402,46206,0.04117250815033913,0.02873576059937477,0.15586133301258087,-0.5059922337532043,0.014155612327158451,-0.01744876056909561,10,-22,-994,-504,15,-17,-29,27,9,71406.0
12:23:25.441,AUTO,-35.3632635,149.1652413,46177,0.056953273713588715,0.032211679965257645,0.1527894139289856,0.20254437625408173,0.022725587710738182,0.0364471971988678,11,23,-988,205,23,36,-36,41,10,71406.0
12:23:25.704,AUTO,-35.3632645,149.1652428,46146,0.07886695116758347,0.03283771499991417,0.21876952052116394,0.7424580454826355,0.06135880947113037,0.5304859280586243,15,25,-1011,744,62,530,-43,55,9,71406.0
12:23:25.979,AUTO,-35.3632656,149.1652447,46116,0.0961821973323822,0.02393938973546028,0.4018637537956238,0.45888444781303406,0.04535924270749092,0.8281201124191284,16,-3,-1009,459,46,828,-51,70,10,71406.0
12:23:26.241,AUTO,-35.363267,149.165247,46081,0.1065017506480217,0.006846517790108919,0.6127751469612122,-0.2333773821592331,0.0014305405784398317,0.8376232385635376,15,-58,-974,-233,2,837,-59,86,13,71406.0
12:23:26.453,AUTO,-35.3632685,149.1652499,46034,0.10975754261016846,-0.01469352561980486,0.8171107172966003,-0.6757729649543762,-0.010216230526566505,0.7956390380859375,7,-68,-993,-675,-9,796,-69,105,17,71406.0
12:23:26.656,AUTO,-35.3632685,149.1652499,46034,0.10975754261016846,-0.01469352561980486,0.8171107172966003,-0.6757729649543762,-0.010216230526566505,0.7956390380859375,7,-68,-993,-675,-9,796,-69,105,17,71406.0
12:23:26.871,AUTO,-35.3632685,149.1652499,46034,0.10975754261016846,-0.01469352561980486,0.8171107172966003,-0.6757729649543762,-0.010216230526566505,0.7956390380859375,7,-68,-993,-675,-9,796,-69,105,17,71406.0
12:23:27.078,AUTO,-35.3632749,149.1652621,45842,0.12512558698654175,-0.08738565444946289,1.3747435808181763,0.5185040831565857,-0.0033657934982329607,0.6973966956138611,-11,-16,-998,520,-2,697,-109,172,27,71406.0
12:23:27.281,AUTO,-35.3632749,149.1652621,45842,0.12512558698654175,-0.08738565444946289,1.3747435808181763,0.5185040831565857,-0.0033657934982329607,0.6973966956138611,-11,-16,-998,520,-2,697,-109,172,27,39225.0
12:23:27.483,AUTO,-35.3632777,149.1652674,45759,0.12604379653930664,-0.11669445782899857,1.5495340824127197,0.5759767293930054,-0.025887420400977135,0.6982846856117249,-20,-34,-999,576,-25,698,-124,196,31,39225.0
12:23:27.684,AUTO,-35.3632809,149.1652734,45667,0.11003952473402023,-0.141954243183136,1.7223631143569946,-0.11058468371629715,-0.013648873195052147,0.7184580564498901,-39,-82,-964,-110,-12,718,-139,221,36,39225.0
12:23:27.886,AUTO,-35.3632844,149.1652802,45561,0.07937566936016083,-0.16026091575622559,1.897558331489563,-0.6289134621620178,0.0016031116247177124,0.7116956114768982,-49,-90,-986,-628,2,711,-156,247,40,39225.0
12:23:28.088,AUTO,-35.3632883,149.1652876,45449,0.05069815739989281,-0.16688252985477448,2.0736613273620605,-0.30047404766082764,0.018611980602145195,0.6692530512809753,-65,-51,-990,-298,19,669,-173,271,42,39225.0
12:23:28.291,AUTO,-35.3632883,149.1652876,45449,0.05069815739989281,-0.16688252985477448,2.0736613273620605,-0.30047404766082764,0.018611980602145195,0.6692530512809753,-65,-51,-990,-298,19,669,-173,271,42,39225.0
12:23:28.493,AUTO,-35.3632926,149.1652957,45327,0.03362713381648064,-0.17420470714569092,2.2469005584716797,0.45603078603744507,-0.0005627225618809462,0.5916593074798584,-75,-8,-991,457,0,592,-188,294,46,39225.0
12:23:28.695,AUTO,-35.3632926,149.1652957,45327,0.03362713381648064,-0.17420470714569092,2.2469005584716797,0.45603078603744507,-0.0005627225618809462,0.5916593074798584,-75,-8,-991,457,0,592,-188,294,46,39225.0
12:23:28.897,AUTO,-35.3632926,149.1652957,45327,0.03362713381648064,-0.17420470714569092,2.2469005584716797,0.45603078603744507,-0.0005627225618809462,0.5916593074798584,-75,-8,-991,457,0,592,-188,294,46,39225.0
12:23:29.099,AUTO,-35.3633073,149.1653235,44895,0.014030253514647484,-0.20025692880153656,2.3589184284210205,-0.5433611273765564,-0.02017458900809288,-0.08565780520439148,-101,-71,-987,-542,-19,-85,-233,363,59,39225.0
12:23:29.300,AUTO,-35.3633073,149.1653235,44895,0.014030253514647484,-0.20025692880153656,2.3589184284210205,-0.5433611273765564,-0.02017458900809288,-0.08565780520439148,-101,-71,-987,-542,-19,-85,-233,363,59,39225.0
12:23:29.502,AUTO,-35.3633129,149.1653341,44729,0.02128905989229679,-0.20806486904621124,2.3286612033843994,0.07815181463956833,-0.024394093081355095,-0.17047540843486786,-105,-28,-988,80,-23,-169,-250,386,63,39225.0
12:23:29.705,AUTO,-35.3633189,149.1653455,44552,0.043153807520866394,-0.21240077912807465,2.3007750511169434,0.49400991201400757,-0.03612694889307022,-0.10354775935411453,-109,-40,-986,494,-35,-103,-265,412,68,39225.0
12:23:29.908,AUTO,-35.3633251,149.1653574,44367,0.04355068504810333,-0.21819184720516205,2.2833251953125,-0.2489103078842163,0.006285367999225855,-0.0014142099535092711,-121,-73,-981,-249,7,-1,-282,435,72,39225.0
12:23:30.110,AUTO,-35.3633317,149.1653699,44174,0.044280923902988434,-0.21531563997268677,2.272246837615967,-0.4132736921310425,0.03557855635881424,-0.034775007516145706,-121,-64,-992,-412,36,-34,-297,457,74,39225.0
12:23:30.313,AUTO,-35.3633387,149.165383,43978,0.05439043045043945,-0.20247626304626465,2.2661290168762207,0.23660393059253693,0.047557853162288666,-0.06245885789394379,-124,-40,-995,238,48,-62,-311,477,74,39225.0
12:23:30.517,AUTO,-35.3633387,149.165383,43978,0.05439043045043945,-0.20247626304626465,2.2661290168762207,0.23660393059253693,0.047557853162288666,-0.06245885789394379,-124,-40,-995,238,48,-62,-311,477,74,39225.0
12:23:30.719,AUTO,-35.3633387,149.165383,43978,0.05439043045043945,-0.20247626304626465,2.2661290168762207,0.23660393059253693,0.047557853162288666,-0.06245885789394379,-124,-40,-995,238,48,-62,-311,477,74,39225.0
12:23:30.921,AUTO,-35.3633387,149.165383,43978,0.05439043045043945,-0.20247626304626465,2.2661290168762207,0.23660393059253693,0.047557853162288666,-0.06245885789394379,-124,-40,-995,238,48,-62,-311,477,74,39225.0
12:23:31.228,AUTO,-35.363361,149.1654249,43372,0.0666215717792511,-0.1814947873353958,2.2617595195770264,-0.45216885209083557,0.06028125807642937,-0.017319047823548317,-125,-83,-988,-451,61,-16,-343,522,81,39225.0
12:23:31.482,AUTO,-35.3633689,149.1654396,43157,0.06590483337640762,-0.1713707000017166,2.260380268096924,0.2519446015357971,0.015013635158538818,-0.07275834679603577,-137,-52,-984,254,15,-72,-353,531,82,39225.0
12:23:31.806,AUTO,-35.3633771,149.1654545,42937,0.07495646178722382,-0.16871953010559082,2.258251905441284,0.5621926188468933,-0.011054531671106815,-0.03267921134829521,-135,-46,-994,563,-10,-32,-360,539,84,39225.0
12:23:32.067,AUTO,-35.3633937,149.1654848,42484,0.06735052168369293,-0.1630120575428009,2.255156993865967,-0.5861772894859314,0.04568484053015709,0.057438451796770096,-136,-111,-983,-585,46,57,-370,554,88,39225.0
12:23:32.269,AUTO,-35.3633937,149.1654848,42484,0.06735052168369293,-0.1630120575428009,2.255156993865967,-0.5861772894859314,0.04568484053015709,0.057438451796770096,-136,-111,-983,-585,46,57,-370,554,88,39225.0
12:23:32.472,AUTO,-35.3634022,149.1655004,42253,0.06376088410615921,-0.15184728801250458,2.252854824066162,-0.3479713499546051,0.044510435312986374,-0.03014884702861309,-137,-59,-984,-346,45,-29,-375,560,89,39225.0
12:23:32.678,AUTO,-35.3634022,149.1655004,42253,0.06376088410615921,-0.15184728801250458,2.252854824066162,-0.3479713499546051,0.044510435312986374,-0.03014884702861309,-137,-59,-984,-346,45,-29,-375,560,89,39225.0
12:23:32.880,AUTO,-35.3634022,149.1655004,42253,0.06376088410615921,-0.15184728801250458,2.252854824066162,-0.3479713499546051,0.044510435312986374,-0.03014884702861309,-137,-59,-984,-346,45,-29,-375,560,89,39225.0
12:23:33.083,AUTO,-35.3634279,149.1655473,41560,0.08226531744003296,-0.1357637643814087,2.246535539627075,0.22797465324401855,0.03659137710928917,0.02784552052617073,-152,-73,-977,227,37,28,-378,566,89,105218.0
