time_stamp,MODE,roll,pitch,yaw,rollspeed,pitchspeed,yawspeed,lat,lon,relative_alt,vx,vy,vz,RTL_ALT,xacc,yacc,zacc,xgyro,ygyro,zgyro
11:11:02,STABILIZE,-0.0004585821880027652,0.0010514975292608142,0.024373115971684456,0.00013208342716097832,0.0003394016530364752,0.00190039596054703,-35.3632622,149.1652375,0.0,-1.0,1.0,0.0,16243.0,0.0,1.0,-1000.0,0.0,0.0,1.0
11:11:12,STABILIZE,-0.0008496748632751405,0.0009634062007535249,0.021019654348492622,0.0002766555699054152,0.0002822527603711933,0.001581593242008239,-35.3632622,149.1652375,0.0,-1.0,1.0,0.0,16243.0,0.0,1.5,-1000.0,0.0,0.0,0.5
11:11:15,AUTO,-0.0010325032053515315,0.0009853356750681996,0.020364481024444103,0.0002997970732394606,0.0002203524054493755,0.0013736149412579834,-35.3632622,149.1652375,1.0,-1.0,1.0,1.0,13397.0,0.0,1.6666666666666667,-1000.0,0.6666666666666666,0.0,0.3333333333333333
11:11:16,AUTO,-0.0010561668896116316,0.0009917234419845045,0.020294824615120888,0.00026007130509242415,0.00024730307632125914,0.0014037165674380958,-35.3632622,149.1652375,1.5,-1.0,1.0,1.0,13397.0,0.0,1.5,-1000.0,0.5,0.0,0.5
11:11:18,AUTO,-0.0007298850396182388,0.001357194792944938,0.019953085109591484,0.00025320114218629897,0.0002923830761574209,0.0012889867648482323,-35.3632621,149.1652375,7.0,0.0,0.0,0.0,116359.5,0.0,1.5,-1000.0,0.0,0.5,0.5
11:11:20,AUTO,0.0017872426542453468,0.0006645390021731146,0.019583712331950665,-0.0045700258342549205,0.003813339862972498,0.00031939813925419003,-35.3632621,149.1652375,312.5,0.0,0.0,-86.5,219322.0,0.0,0.0,-1119.5,-3.0,4.0,0.0
11:11:21,AUTO,0.03954385407269001,-0.0041960604139603674,0.019468167796730995,0.043326904065907,-0.008923046756535769,0.002883313223719597,-35.363261924999996,149.165238025,1988.75,2.25,17.5,-147.0,146913.0,0.0,-2.0,-1006.5,43.5,-8.0,2.0
11:11:22,AUTO,0.050745001062750816,0.0026438473723828793,-0.01978558348491788,-0.08287228643894196,0.06074191816151142,-0.07423124089837074,-35.3632615,149.16524045,3141.0,8.5,49.0,-146.0,146913.0,1.5,-9.0,-990.5,-82.0,60.5,-74.5
11:11:24,AUTO,-0.0757584311068058,0.029375825077295303,-0.12312629818916321,0.04401159845292568,0.008029419928789139,-0.06340378522872925,-35.3632594,149.1652458,6187.0,1.5,-30.5,-148.0,103138.0,-4.0,2.0,-1004.0,44.0,8.0,-63.0
11:11:26,AUTO,0.028580215759575367,-0.0025762314908206463,-0.1251460164785385,-0.022770527750253677,-0.11859043687582016,0.10633793845772743,-35.36326525,149.1652344,9268.5,-55.0,-29.0,-150.0,59363.0,5.0,14.0,-1001.0,-21.5,-117.5,106.0
11:11:27,AUTO,0.05933012813329697,-0.07612675428390503,-0.026299607241526246,0.03707112465053797,-0.016757024422986433,0.052227942273020744,-35.363267825,149.1652331,11221.25,18.75,18.75,-150.5,211497.0,-0.5,-2.5,-997.75,37.25,-16.0,51.5
11:11:28,AUTO,0.03435472818091512,-0.056987274438142776,-0.02821021107956767,-0.1572009101510048,0.12351386249065399,-0.0941130630671978,-35.36326485,149.16523575,12361.5,73.5,51.0,-142.5,211497.0,-7.5,-17.5,-995.0,-155.5,123.5,-94.0
11:11:30,AUTO,-0.04725324921309948,0.05676622316241264,-0.21131683140993118,0.04939553700387478,0.01463187811896205,-0.03180383611470461,-35.36325454999999,149.16523899999999,15440.5,2.0,-32.0,-152.5,116968.0,-7.5,2.0,-1000.0,50.0,14.5,-31.5
11:11:32,AUTO,0.07621324062347412,0.025580952875316143,-0.21286381781101227,0.02686520339921117,-0.07864638045430183,0.03802258847281337,-35.36326295,149.16523395000002,18538.0,-77.5,30.0,-150.0,22439.0,13.0,8.5,-999.0,27.5,-77.5,37.5
11:11:33,AUTO,-0.03331472142599523,-0.11328768357634544,-0.10779956169426441,-0.1716282181441784,0.0428960332646966,-0.029581028036773205,-35.3632667,149.16524165,20448.75,29.75,57.25,-146.75,114263.0,2.75,-12.75,-1003.75,-170.25,43.5,-30.0
11:11:34,AUTO,-0.13334132730960846,-0.02523728390224278,-0.234943725168705,-0.034715683199465275,0.20208000391721725,-0.16364330798387527,-35.3632628,149.16524375,21569.5,74.5,-24.5,-145.0,114263.0,-12.5,-11.5,-1000.0,-33.5,202.0,-163.0
11:11:36,AUTO,0.08748742565512657,-0.021187412552535534,-0.0588594414293766,-0.03861263208091259,-0.01402406138367951,-0.027262025512754917,-35.3632621,149.16522989999999,23673.0,-24.0,-7.0,-53.0,188768.0,2.0,5.5,-965.0,-37.0,-13.0,-26.5
11:11:38,AUTO,-0.017441749572753906,0.006980807287618518,-0.06925717741250992,-0.007968313992023468,0.028563630767166615,-0.0034275486832484603,-35.3632623,149.1652368,24206.0,7.5,32.5,-2.0,263273.0,3.0,-3.0,-963.0,-7.0,29.0,-3.0
11:11:39,AUTO,-0.020849840017035604,-0.03627644432708621,-0.07402550615370274,0.11888770759105682,-0.04624142963439226,-0.005494828639712068,-35.363261449999996,149.165238125,24001.25,14.75,-12.0,11.75,264576.0,-5.25,3.0,-1018.5,120.0,-44.75,-5.25
11:11:40,AUTO,-0.013394268229603767,-0.06557400897145271,-0.08136862516403198,-0.24009275436401367,-0.041154926642775536,-0.06302841290744254,-35.3632597,149.1652365,23927.0,45.5,-26.5,2.5,264576.0,-12.0,-3.0,-1010.5,-239.0,-40.0,-63.0
11:11:42,AUTO,0.02626197598874569,-0.14658758789300919,-0.3382445275783539,-0.2383026871830225,-0.05669190734624863,0.020789447706192732,-35.3632401,149.16522500000002,23835.5,193.0,-72.0,4.5,227725.0,-42.0,-23.5,-1002.0,-237.0,-55.5,20.5
11:11:44,AUTO,0.05804813839495182,-0.14353294670581818,-0.3402872234582901,0.12271609529852867,0.01977173867635429,0.0032932390458881855,-35.3631883,149.16519915,23629.5,377.0,-139.5,7.0,190874.0,-81.5,-50.0,-997.0,123.5,20.0,3.5
11:11:45,AUTO,0.0643091257661581,-0.12873728945851326,-0.3415680453181267,-0.0038571152836084366,0.012995086843147874,-0.0019234480569139123,-35.363142975,149.16517745,23491.75,433.0,-158.5,11.5,128628.0,-93.75,-56.75,-991.75,-2.75,13.5,-1.5
11:11:46,AUTO,0.062257781624794006,-0.11718892678618431,-0.342149943113327,0.016439102590084076,0.01827051304280758,-0.004240232985466719,-35.363113299999995,149.1651634,23389.5,453.0,-164.5,13.0,128628.0,-98.5,-53.5,-993.0,18.0,18.5,-3.5
11:11:48,AUTO,0.061798593029379845,-0.06549771502614021,-0.3433910310268402,-0.25207187235355377,0.06084812059998512,0.015158696100115776,-35.363031199999995,149.16512475000002,23100.5,449.5,-165.5,12.5,107865.0,-102.5,-74.0,-1002.0,-251.0,61.5,15.0
11:11:50,AUTO,0.05522865243256092,0.02922921534627676,-0.3451678156852722,-0.11324505507946014,0.05523701198399067,0.016601554583758116,-35.3629592,149.16509125,22855.0,330.0,-120.5,11.5,87102.0,-72.0,-75.5,-995.5,-112.5,55.5,16.0
11:11:51,AUTO,0.02520326036028564,0.08491152711212635,-0.3489527031779289,0.11311851674690843,0.017580217332579195,0.005192873970372602,-35.362929375,149.16507875000002,22724.75,197.0,-72.25,7.75,131479.0,-41.0,-28.25,-1007.75,114.5,18.25,5.25
11:11:52,AUTO,0.0034496776206651703,0.07218103483319283,-0.3505203276872635,0.0318429172039032,-0.04918991960585117,-0.0029337090672925115,-35.362918449999995,149.1650744,22664.5,117.0,-45.0,6.5,131479.0,-23.5,2.0,-1005.5,34.5,-48.0,-2.0
11:11:54,AUTO,-0.0028543624212034047,0.024972776882350445,-0.3516143560409546,-0.10030773282051086,-0.017831155098974705,-0.0012818847317248583,-35.3629087,149.16506950000002,22612.0,14.0,-13.0,-0.5,120800.0,-4.5,10.5,-1000.5,-98.0,-16.5,-0.5
11:11:56,RTL,-0.0035255255352240056,0.0017596600810065866,-0.35375240445137024,0.03210766613483429,0.009886475512757897,-0.0004002618370577693,-35.3629086,149.1650684,22641.5,3.5,-4.5,-2.5,110121.0,-1.0,7.5,-1008.0,34.0,10.0,0.0
11:11:57,RTL,-0.008285738294944167,0.004429046239238232,-0.3546218052506447,-0.031113723292946815,0.00039048837788868695,-0.006178584648296237,-35.36290835,149.16506865,22900.75,0.75,-5.5,-43.0,192488.0,0.0,-1.25,-1046.5,-30.0,0.75,-5.5
11:11:58,RTL,-0.00754398969002068,0.0030283144442364573,-0.35621580481529236,0.06063172593712807,-0.0025607880670577288,-0.005346671445295215,-35.3629083,149.1650689,23352.5,-0.5,-7.5,-77.5,192488.0,0.0,2.5,-1046.0,61.5,-1.5,-4.5
11:12:00,RTL,0.022320021875202656,0.00010860624024644494,-0.3582554906606674,0.04632057249546051,-0.005311951506882906,0.0003658344503492117,-35.362908149999996,149.16506915000002,25807.0,1.5,-2.5,-147.5,207726.5,0.0,-0.5,-1005.5,47.0,-4.0,0.5
11:12:02,RTL,-0.05699258856475353,0.01892380230128765,-0.4305928498506546,-0.005277327727526426,-0.014002891955897212,-0.037859671749174595,-35.3629051,149.165075,28858.0,1.0,14.0,-149.0,222965.0,3.0,-5.5,-1005.5,-4.0,-13.0,-36.5
11:12:03,RTL,-0.023727329535176978,-0.0013304319436429068,-0.4253281131386757,0.059351407922804356,0.009792056051082909,0.002261072237160988,-35.362906124999995,149.16507255,30940.5,-20.0,-40.75,-149.75,19554.0,-4.5,8.25,-1001.75,59.75,10.0,2.0
11:12:04,RTL,0.01872615795582533,0.007393562933430076,-0.4239935576915741,0.03941466845571995,0.010389977251179516,0.005082039162516594,-35.36290735,149.16506905,32104.0,-20.5,-36.0,-151.0,19554.0,-5.5,8.5,-1001.0,40.0,10.0,5.5
11:12:06,RTL,0.009733907878398895,0.003477460122667253,-0.4136435240507126,-0.008230180013924837,0.0026598202530294657,-0.006898299092426896,-35.362909,149.16506529999998,35221.5,-3.5,3.0,-151.0,126429.0,0.0,0.5,-1000.0,-7.0,3.0,-5.5
11:12:08,RTL,0.004316180013120174,0.008049597032368183,-0.4473770707845688,0.0010065859532915056,0.004973550792783499,-0.019650752656161785,-35.362908649999994,149.165065,38331.0,0.0,5.5,-151.5,233304.0,0.0,0.0,-1000.0,1.0,5.5,-18.5
11:12:09,RTL,0.004248065524734557,0.009150330442935228,-0.4720526561141014,0.00041640047857072204,0.00048313844308722764,-0.01905229641124606,-35.36290835,149.16506514999998,40283.25,-1.0,7.25,-152.0,63981.0,0.0,-0.25,-1000.0,1.25,1.25,-18.0
11:12:10,RTL,0.003650189028121531,0.008565703872591257,-0.48627127707004547,-2.542790025472641e-05,0.0005031349719502032,-0.01821824349462986,-35.3629083,149.16506535000002,41453.0,-2.0,8.0,-152.0,63981.0,0.0,0.0,-1000.0,1.0,0.5,-17.5
11:12:12,RTL,0.0014042246039025486,0.00696781650185585,-0.5282191634178162,0.0012009390047751367,0.00018815844669006765,-0.02085697278380394,-35.3629082,149.16506615,44571.5,-3.0,7.5,-152.0,34480.5,0.0,0.0,-1000.0,2.0,0.5,-20.0
11:12:14,RTL,0.0017848762217909098,0.005896524293348193,-0.5718249380588531,0.0015307997236959636,0.0008916564984247088,-0.01933301892131567,-35.3629083,149.16506675,47697.5,-2.0,6.0,-152.0,4980.0,0.0,0.0,-1000.0,2.5,1.5,-18.0
11:12:15,RTL,0.0016777294222265482,0.0056982096284627914,-0.5980955809354782,0.0011393444729037583,0.0007786155329085886,-0.020901852753013372,-35.362908375,149.16506702499998,49637.25,-1.75,5.0,-152.0,8722.0,0.0,0.0,-1000.0,2.25,1.25,-19.75
11:12:16,RTL,0.0011217693099752069,0.005780257983133197,-0.6136913895606995,0.0014388223644345999,0.001439992105588317,-0.020274866372346878,-35.3629084,149.1650671,50805.5,-1.0,4.5,-152.0,8722.0,0.0,0.0,-1000.0,2.0,2.5,-19.0
11:12:18,RTL,0.004844896728172898,0.008480421733111143,-0.6291766464710236,-0.001354959502350539,-0.0015232226578518748,0.021969106048345566,-35.3629084,149.16506735000002,53924.5,-1.0,6.5,-152.0,55125.5,0.0,0.0,-1000.0,0.0,0.0,22.0
11:12:20,RTL,-8.709235407877713e-05,0.004367454908788204,-0.5793869495391846,0.00025336543330922723,-0.001961144502274692,0.021979177370667458,-35.3629085,149.1650682,57030.0,-1.0,5.5,-152.0,101529.0,0.0,0.0,-1000.5,1.0,-0.5,22.5
11:12:21,RTL,0.0010922650108113885,0.0038327734800986946,-0.5538230240345001,0.0014456079516094178,0.0005948026082478464,0.020499635487794876,-35.362908575,149.1650683,58966.75,0.0,2.5,-152.0,53523.0,0.0,0.0,-1000.0,2.5,1.5,20.75
11:12:22,RTL,0.0018173427088186145,0.004286962328478694,-0.5407131612300873,0.001696478168014437,0.0014453416224569082,0.017866178415715694,-35.3629086,149.1650683,60135.5,0.0,2.0,-152.0,53523.0,0.0,0.0,-1000.0,2.5,2.5,18.5
11:12:24,RTL,0.002489335834980011,0.004678875673562288,-0.513263612985611,0.0002539136912673712,0.0010427040397189558,0.011988142970949411,-35.3629086,149.165068,63236.0,0.0,1.0,-152.0,152937.5,0.0,0.0,-999.5,1.5,2.0,12.5
11:12:26,RTL,0.0020640274742618203,0.005107408622279763,-0.49164970219135284,-0.00019807147327810526,0.00045892916386947036,0.011136270593851805,-35.3629085,149.1650677,66340.5,0.0,2.0,-152.0,252352.0,0.0,0.0,-1000.0,0.5,1.5,11.5
11:12:27,RTL,0.0020269896485842764,0.00498689862433821,-0.481351763010025,-0.00011444248957559466,-6.953603588044643e-06,0.008727836655452847,-35.362908450000006,149.16506765,68283.0,0.0,2.0,-152.0,206399.0,0.0,0.0,-1000.25,1.0,1.0,9.0
11:12:28,RTL,0.0017395567265339196,0.0047678095288574696,-0.47603006660938263,0.0021390721085481346,0.0007664750446565449,0.006565047195181251,-35.3629084,149.1650676,69449.0,-0.5,2.0,-152.0,206399.0,0.0,0.0,-1001.0,3.0,1.5,7.5
11:12:30,RTL,0.0020354781299829483,0.004147911909967661,-0.4630691707134247,0.001178603561129421,-0.0008869777084328234,0.008667591027915478,-35.3629084,149.1650676,72553.0,0.0,2.0,-152.0,240223.5,0.0,0.0,-1000.0,2.5,0.5,9.0
11:12:32,RTL,0.002043982152827084,0.004628634080290794,-0.45100079476833344,0.0013606786378659308,0.0013153405743651092,0.00679551437497139,-35.3629084,149.1650676,75667.5,0.0,2.0,-152.0,274048.0,0.0,0.0,-1000.0,3.0,2.5,7.5
11:12:33,RTL,0.002187312755268067,0.004323166562244296,-0.44480400532484055,0.00021631986601278186,1.727047492749989e-05,0.005634954897686839,-35.3629084,149.1650676,77600.75,0.0,2.0,-152.0,215698.0,0.0,0.0,-1000.5,1.25,1.0,6.5
11:12:34,RTL,0.0019224436837248504,0.00442510424181819,-0.4413907080888748,0.001253317459486425,0.0011725477525033057,0.004860711051151156,-35.3629084,149.1650676,78769.0,0.0,2.0,-152.0,215698.0,0.0,0.0,-1000.0,2.5,2.5,6.0
11:12:36,RTL,0.001688385906163603,0.004089408088475466,-0.43275538086891174,-0.00015252281446009874,-0.00044439610792323947,0.005259072408080101,-35.3629084,149.1650676,81870.5,0.0,2.0,-152.0,181104.0,0.0,0.0,-1000.0,1.5,1.0,6.5
11:12:38,RTL,0.0013888352550566196,0.0045303464867174625,-0.4254045635461807,0.0019534543389454484,0.0007248054025694728,0.0034053907729685307,-35.3629084,149.1650676,84984.0,-1.0,1.5,-152.0,146510.0,0.0,0.0,-1000.5,3.5,2.0,4.0
11:12:39,RTL,0.0016909397090785205,0.004044171189889312,-0.42115752398967743,0.0004710745415650308,0.0007638154493179172,0.004306838382035494,-35.3629084,149.1650676,86926.0,-1.0,1.75,-152.0,62940.0,0.0,0.0,-999.5,2.0,2.25,5.5
11:12:40,RTL,0.0015690323780290782,0.004262326285243034,-0.4189491719007492,0.0013041922939009964,0.0012387915048748255,0.005132010672241449,-35.3629084,149.1650676,88093.0,-1.0,2.0,-152.0,62940.0,0.0,0.0,-1000.0,2.5,2.5,6.0
11:12:42,RTL,0.0015822606510482728,0.004153082147240639,-0.41313742101192474,-0.0007590380846522748,0.0011107699247077107,0.0033663450740277767,-35.3629084,149.1650676,91194.5,-0.5,2.0,-152.0,109522.5,0.0,0.0,-999.5,0.5,2.5,4.5
11:12:44,RTL,0.0017645176849327981,0.0034891993273049593,-0.40827108919620514,0.0022957364562898874,0.0015994254499673843,0.004187240032479167,-35.3629084,149.1650676,94301.0,0.0,1.5,-152.0,156105.0,0.0,0.0,-1000.0,3.5,2.5,5.5
11:12:45,RTL,0.0016161607927642763,0.003952761879190803,-0.405576191842556,0.00029653572710230947,0.0005658194713760167,0.004914849763736129,-35.3629084,149.1650676,96241.5,0.0,2.0,-152.0,187811.0,0.0,0.0,-999.75,1.5,1.75,6.0
11:12:46,RTL,0.0015889860806055367,0.0041005657985806465,-0.40395383536815643,0.0011029766756109893,0.0010421336046420038,0.003806282998993993,-35.3629084,149.1650676,97406.5,0.0,2.0,-152.0,187811.0,0.0,0.0,-1000.0,2.5,2.5,5.0
11:12:48,RTL,0.0015576602891087532,0.004199180752038956,-0.39985495805740356,0.0007358155562542379,0.00042021513218060136,0.004648892791010439,-35.3629084,149.1650676,100517.0,0.0,1.0,-152.0,206741.0,0.0,0.0,-999.5,2.0,2.0,5.5
11:12:50,RTL,0.0013770645018666983,0.004368093563243747,-0.39621037244796753,0.00017843768000602722,-0.0006941327010281384,0.003050504659768194,-35.3629084,149.1650676,103620.0,0.0,1.0,-152.0,225671.0,0.0,0.0,-1000.0,1.5,0.5,4.0
11:12:51,RTL,0.0013154203770682216,0.004376350552774966,-0.3945411965250969,-0.0005534940282814205,0.00035739195300266147,0.0011081152770202607,-35.3629084,149.1650676,105565.25,-1.0,1.0,-152.0,84605.0,0.0,0.0,-1000.0,1.5,2.0,2.25
11:12:52,RTL,0.0013732993975281715,0.004268632037565112,-0.3936992883682251,0.0012478084536269307,0.00037326663732528687,0.0015641404897905886,-35.3629084,149.1650676,106738.5,-1.0,1.0,-152.0,84605.0,0.0,0.0,-1000.0,2.5,1.5,2.5
11:12:54,RTL,0.0014227890642359853,0.004416598239913583,-0.3911975771188736,-0.0005243277410045266,0.0023009375436231494,0.001120126573368907,-35.3629084,149.1650676,109838.0,0.0,1.0,-152.0,138666.0,0.0,0.0,-999.5,1.5,3.5,2.5
11:12:56,RTL,0.0016613196930848062,0.003694513812661171,-0.3890157490968704,0.0007809284143149853,0.0009443563176319003,0.0008802314987406135,-35.3629084,149.1650676,112943.5,0.0,1.0,-152.0,192727.0,0.0,0.0,-1000.5,2.5,2.5,2.5
11:12:57,RTL,0.0014951192133594304,0.003969908982980996,-0.3878861293196678,4.614016506820917e-05,-0.0003489656373858452,0.002848041243851185,-35.3629084,149.1650676,114891.0,0.0,1.0,-152.0,172786.0,0.0,0.0,-1000.0,2.25,1.0,4.0
11:12:58,RTL,0.0011442424729466438,0.00392294570337981,-0.3869932144880295,0.0008551094215363264,0.0014383395900949836,0.0027815218782052398,-35.3629084,149.16506765,116058.0,0.0,1.0,-152.0,172786.0,0.0,0.0,-1000.0,2.5,3.0,4.5
11:13:00,RTL,0.001483525731600821,0.0039200043538585305,-0.3854987323284149,0.0012822438729926944,2.2341962903738022e-05,0.002662133192643523,-35.3629084,149.1650677,119168.0,0.0,1.0,-152.0,182673.5,0.0,0.0,-1000.0,3.0,1.5,4.0
11:13:02,RTL,0.0009099320159293711,0.02795023564249277,-0.3838873952627182,-0.0017824234091676772,0.05497652292251587,0.0017643593018874526,-35.362908450000006,149.1650677,122267.5,-5.5,3.0,-151.0,192561.0,0.0,0.0,-999.0,0.5,56.5,3.0
11:13:03,RTL,-0.004209869337501004,0.07689745351672173,-0.38317397236824036,-0.006595056504011154,0.03447985276579857,0.002098078781273216,-35.36291165,149.165069325,124175.0,-57.75,25.25,-146.75,11093.0,9.5,5.5,-995.75,-3.75,36.25,3.75
11:13:04,RTL,-0.010740626603364944,0.10288757085800171,-0.38263940811157227,-0.010154358111321926,0.041145944967865944,0.00349304242990911,-35.36291675,149.165072,125283.0,-104.5,44.5,-140.5,11093.0,19.0,11.5,-991.0,-7.0,43.0,5.0
11:13:06,RTL,0.06844589114189148,0.12286419421434402,0.1317790411412716,0.06002611666917801,-0.03379240399226546,0.08892040327191353,-35.36295405,149.1650859,127170.5,-308.0,93.5,-27.5,39174.5,73.0,10.5,-941.0,62.0,-31.0,90.5
11:13:08,RTL,0.0191183271817863,0.1543501913547516,0.1262686662375927,-0.299044631421566,0.012755927164107561,-0.07117126509547234,-35.3630171,149.16511955,126944.0,-396.0,193.0,20.0,67256.0,103.0,-9.0,-1010.0,-296.5,14.5,-68.5
11:13:09,RTL,-0.015277536353096366,0.14266729727387428,0.06871872954070568,-0.08794235065579414,-0.024588284082710743,-0.0478804181329906,-35.363064924999996,149.165145925,126803.0,-448.75,190.5,0.75,168715.0,108.5,7.5,-1003.75,-85.25,-22.0,-45.25
11:13:10,RTL,-0.02186311036348343,0.11892338842153549,0.03722096420824528,0.145814947783947,-0.03238763194531202,-0.02317974832840264,-35.363095599999994,149.16516095,126803.0,-461.0,183.0,-4.0,168715.0,113.0,24.0,-996.5,148.5,-29.5,-20.5
11:13:12,RTL,-0.04322851076722145,0.04453025385737419,-0.03554608300328255,-0.14187604188919067,-0.05810851976275444,-0.06044807285070419,-35.36317675,149.16519815,126856.0,-414.5,159.0,-2.5,175264.0,100.5,10.0,-994.0,-140.0,-55.5,-58.0
11:13:14,RTL,-0.05247543565928936,-0.061514586210250854,-0.08311015367507935,0.6371235102415085,-0.04917502403259277,-0.0003251591697335243,-35.3632375,149.16522555,126851.5,-238.5,90.5,0.5,181813.0,65.0,53.5,-1011.0,640.0,-46.5,2.0
11:13:15,RTL,-0.03770556580275297,-0.06120902579277754,-0.10748919285833836,-0.01963532716035843,0.026979134883731604,-0.012826898018829525,-35.363256625,149.16523405,126816.75,-107.25,36.75,1.5,145802.0,26.0,16.75,-1010.75,-16.25,28.75,-10.25
11:13:16,RTL,-0.020448047667741776,-0.04185584746301174,-0.12195482105016708,-0.1982574760913849,0.015552361495792866,-0.030354219488799572,-35.36326244999999,149.16523675000002,126808.0,-56.5,16.0,0.0,145802.0,14.5,-21.5,-990.5,-196.5,17.5,-28.0
11:13:18,RTL,-0.015253292862325907,-0.008433266542851925,-0.15348464995622635,0.3876926004886627,0.028713957406580448,-0.009279481368139386,-35.3632662,149.16523995,126821.0,4.5,-9.5,0.0,145802.0,1.0,22.5,-998.0,390.5,30.5,-6.5
11:13:19,RTL,-0.0192759963683784,-0.008467350096907467,-0.1698131151497364,0.06743660103529692,-0.017104398692026734,-0.005461297987494618,-35.3632661,149.16524105,126831.5,2.75,-16.0,0.0,84744.0,1.0,5.75,-997.25,69.5,-14.75,-3.0
11:13:20,RTL,-0.024589029140770435,-0.013190375175327063,-0.177513487637043,-0.46340973675251007,0.002813081373460591,-0.00660588126629591,-35.3632659,149.1652415,126836.5,7.5,-22.5,0.0,84744.0,-1.5,-20.0,-997.5,-461.0,4.5,-3.5
11:13:22,RTL,0.002853870246326551,-0.006450919434428215,-0.19266172498464584,-0.16478250175714493,0.004031761083751917,9.691156446933746e-05,-35.36326445,149.16523985,126838.5,10.0,-22.5,1.0,215068.0,-3.0,-24.5,-982.0,-164.0,5.5,2.0
11:13:24,RTL,0.015523720066994429,-0.005358261289075017,-0.2046135738492012,0.6191235184669495,0.003285643528215587,-0.005099985748529434,-35.36326355,149.1652374,126806.5,8.0,-3.0,15.0,215068.0,-2.0,40.5,-938.0,621.0,4.5,-2.5
11:13:25,RTL,0.02070450782775879,-0.003061899507883936,-0.2121412716805935,-0.2912435922771692,0.0035276312846690416,-0.00860763929085806,-35.363263225,149.16523660000001,126089.0,7.25,2.25,92.5,266950.0,-0.25,-50.75,-927.0,-291.0,5.0,-5.75
11:13:26,RTL,0.019654485397040844,-0.0031841244781389832,-0.21602726727724075,-0.5511717796325684,-0.004515934968367219,-0.0054686194052919745,-35.3632631,149.16523625000002,125269.5,6.0,5.0,117.5,266950.0,1.0,-61.5,-970.0,-551.0,-2.5,-3.0
11:13:28,RTL,0.006183217519719619,-0.0026226789923384786,-0.2257802039384842,-0.6910810768604279,-0.003966190502978861,-0.007449935423210263,-35.3632629,149.16523619999998,123098.5,7.0,11.5,100.0,208687.0,1.5,-70.0,-990.5,-690.5,-2.0,-4.5
11:13:30,RTL,-0.017497980035841465,-0.0025484591023996472,-0.23560064285993576,-0.7916663885116577,-0.0074998787604272366,0.0099195740185678,-35.3632626,149.16523745,121051.0,4.0,3.5,97.5,208687.0,-0.5,-7.0,-1009.0,-788.0,-5.5,12.0
11:13:31,RTL,-0.016413911012932658,-0.0032853028387762606,-0.239995289593935,-0.621431365609169,-0.006250989797990769,0.0024245809763669968,-35.3632625,149.165237575,119769.0,2.25,2.25,97.5,255041.0,-1.75,11.25,-1014.25,-617.25,-4.0,4.5
11:13:32,RTL,-0.01225112471729517,-0.005061123985797167,-0.2430601492524147,-0.5588094592094421,-0.002361733641009778,0.0018856825772672892,-35.3632625,149.16523719999998,119017.0,2.0,2.0,98.0,255041.0,-4.0,18.0,-985.5,-554.5,-0.5,4.0
11:13:34,RTL,0.03402721043676138,-0.0033040251582860947,-0.2488679513335228,0.7768917977809906,0.004731466178782284,0.00011059548705816269,-35.3632631,149.16523365,116982.0,8.0,26.0,101.5,290764.0,-3.0,66.0,-1029.0,780.5,5.5,2.5
11:13:36,RTL,0.03928051143884659,-0.0003955280044465326,-0.2542068362236023,0.7143498957157135,0.0017846876289695501,-0.003178798360750079,-35.36326305,149.16523354999998,114964.0,9.0,31.0,102.5,290764.0,0.0,-5.5,-971.0,715.5,3.0,-0.5
11:13:37,RTL,0.02897350350394845,0.002699658798519522,-0.256502665579319,0.4579454194754362,0.006134797440608963,-0.0004592789337038994,-35.363262725,149.16523447499998,113687.5,7.5,28.5,103.25,110447.0,2.25,-22.25,-984.5,459.0,7.25,2.25
11:13:38,RTL,0.013368928339332342,0.004308828851208091,-0.2589092254638672,0.07856264337897301,-0.00013855029828846455,-0.0039678048342466354,-35.36326245,149.16523555,112919.0,5.5,23.0,97.5,110447.0,3.5,-41.0,-968.5,79.5,1.5,-1.5
11:13:40,RTL,-0.025273127481341362,-6.7187036620453e-05,-0.2640591710805893,-0.9360702931880951,-0.009051329456269741,-0.011848760768771172,-35.3632616,149.16523945,110881.5,-3.0,-5.5,103.0,287909.0,1.0,-68.5,-984.5,-934.0,-7.0,-9.0
11:13:42,RTL,-0.011854020413011312,-0.0041722910245880485,-0.2674669772386551,-1.3887969255447388,-0.004343907115980983,-0.004434895236045122,-35.36326205,149.16523915,108847.5,-3.0,-13.5,102.5,287909.0,-1.5,-58.5,-1038.0,-1386.0,-2.5,-1.5
11:13:43,RTL,-0.01718609780073166,-0.0042911304626613855,-0.2701692581176758,-1.468017339706421,-0.003220607526600361,-0.0009135319269262254,-35.363262275000004,149.1652383,107586.75,-0.5,-9.25,103.75,162546.0,-1.0,-46.5,-981.5,-1464.25,-1.25,1.25
11:13:44,RTL,-0.009852108545601368,-0.004578394116833806,-0.27093154191970825,-1.2287102341651917,5.073257489129901e-05,-0.0062101021176204085,-35.3632624,149.1652377,106819.5,0.0,-7.0,102.5,162546.0,-1.5,-39.0,-1008.5,-1224.5,1.0,-3.5
11:13:46,RTL,0.0037224515108391643,-0.00433945213444531,-0.273934081196785,-0.30364376306533813,-0.0007103538373485208,0.003148446441628039,-35.363262649999996,149.16523619999998,104785.5,3.0,5.5,104.0,629.0,-3.0,25.5,-995.5,-298.0,1.0,5.5
11:13:48,RTL,0.035148728638887405,-0.0012202610378153622,-0.2757319062948227,1.1784643530845642,0.006830322789028287,0.0028492382261902094,-35.363263,149.16523385,102723.0,8.0,27.0,102.0,629.0,-1.5,72.0,-1021.5,1183.0,8.0,5.0
11:13:49,RTL,0.03241701051592827,0.00023104992487787968,-0.27681971341371536,1.3128086030483246,0.0008555018284823745,0.0013110301224514842,-35.36326295,149.165233825,101440.25,8.5,30.75,99.75,240893.0,0.25,60.5,-1030.75,1317.5,2.0,4.0
11:13:50,RTL,0.03484980948269367,0.002006219292525202,-0.2782218009233475,1.5058313608169556,0.006106923567131162,-0.004239242523908615,-35.3632628,149.1652343,100670.0,8.0,29.5,104.0,240893.0,2.0,50.5,-980.5,1509.5,7.0,-1.5
11:13:52,RTL,0.004782889620400965,0.003976475796662271,-0.2793576568365097,0.4335543215274811,0.0004982573445886374,-0.005253107286989689,-35.36326205,149.1652373,98610.0,1.5,11.0,99.5,195393.0,2.5,-22.0,-997.5,435.5,2.0,-2.0
11:13:54,RTL,-0.012306065764278173,-0.00037284530117176473,-0.2824898213148117,-0.9266586601734161,-0.0010849622776731849,-0.010009253397583961,-35.3632617,149.16523915,96553.5,-4.0,-9.5,97.0,195393.0,0.5,-69.5,-988.0,-923.5,0.5,-6.5
11:13:55,RTL,-0.03451485373079777,0.0008521707277395763,-0.28303681313991547,-1.3656291365623474,-0.00231867641559802,-0.006872548954561353,-35.363261525,149.1652401,95293.0,-5.0,-16.0,98.25,28570.0,0.75,-62.5,-984.75,-1361.75,-1.0,-4.0
11:13:56,RTL,-0.04067348130047321,2.3622291337233037e-05,-0.28409232199192047,-1.2100514769554138,-0.0008942768326960504,0.0014284115750342607,-35.3632614,149.16524065,94529.5,-7.0,-22.0,100.5,28570.0,1.0,-34.5,-996.5,-1205.0,1.0,3.5
11:13:58,RTL,-0.021075007505714893,-0.0015300242812372744,-0.2843753695487976,0.22876685112714767,0.0025351281510666013,0.0015975378919392824,-35.3632616,149.16524015,92506.5,-7.0,-22.5,102.5,200165.0,-2.0,51.0,-1004.5,234.0,4.0,4.0
11:14:00,RTL,0.002625183085910976,-0.002357299905270338,-0.2863934636116028,1.061143159866333,0.0016237342497333884,0.00481123651843518,-35.3632619,149.16523895,90469.5,-4.0,-14.5,100.0,200165.0,-0.5,70.5,-1006.0,1065.5,2.5,7.0
11:14:01,RTL,-0.006935915916983504,-0.0009760900284163654,-0.28742652386426926,0.44965917617082596,0.0032171314232982695,0.011992559768259525,-35.3632619,149.1652384,89187.25,-2.75,-9.25,100.5,131288.0,-1.25,56.25,-1021.5,454.25,4.5,14.25
11:14:02,RTL,0.006597240921109915,-0.000666945765260607,-0.286835715174675,1.3405742645263672,0.0018588576349429786,0.002887849579565227,-35.3632619,149.165238,88428.0,-2.0,-5.5,101.5,131288.0,-1.0,80.0,-946.0,1345.0,3.0,5.0
11:14:04,RTL,0.014925274066627026,-0.0034176926128566265,-0.2883157730102539,0.6228156089782715,-0.0007730039651505649,0.004692842485383153,-35.36326235,149.1652365,86369.5,-0.5,2.5,96.5,36543.0,-3.0,67.5,-1057.5,627.0,0.5,7.0
11:14:06,RTL,0.04171435162425041,-0.0009581719350535423,-0.2883142828941345,1.381090223789215,0.004181412048637867,0.005512917530722916,-35.3632629,149.16523425,84334.0,5.5,22.0,99.5,36543.0,-0.5,61.0,-1009.0,1384.5,5.5,8.0
11:14:07,RTL,0.03505556099116802,0.0013756852131336927,-0.2887859418988228,1.355216920375824,0.0026567484601400793,0.0029666917980648577,-35.363262750000004,149.16523452500002,83063.75,6.25,25.0,101.25,1889.0,0.25,48.75,-1029.25,1358.5,4.0,5.25
11:14:08,RTL,0.03410851303488016,0.0008073860662989318,-0.2888571619987488,0.9043630957603455,-0.001396991079673171,-0.0043252237373963,-35.3632627,149.16523485,82297.0,5.5,24.0,100.5,1889.0,1.5,8.0,-1000.0,906.5,0.5,-1.0
11:14:10,RTL,0.0201943377032876,0.0005537328470381908,-0.2898402214050293,-0.6612950265407562,-0.00041196285746991634,0.0005105761811137199,-35.3632626,149.16523515,80254.0,4.0,19.0,98.0,189621.0,1.5,-55.5,-1028.5,-659.0,1.5,3.5
11:14:12,RTL,0.005729876458644867,-0.0017465067794546485,-0.28957507014274597,-1.4590123295783997,0.0006267961580306292,0.00041814660653471947,-35.3632628,149.1652345,78215.5,4.0,22.0,101.0,189621.0,-1.5,-51.5,-983.0,-1454.0,2.0,2.5
11:14:13,RTL,0.007444899121765047,-0.0008821256124065258,-0.2903282195329666,-0.7821903303265572,-0.001455733843613416,-0.00041958037763834,-35.363263,149.165234025,76935.5,6.5,27.5,100.0,162033.0,0.0,-1.25,-1000.75,-775.25,0.25,2.5
11:14:14,RTL,0.006921770400367677,-5.127981421537697e-05,-0.290507972240448,-0.33812254294753075,0.0005565453320741653,0.0019177685026079416,-35.363262950000006,149.1652341,76165.5,8.0,30.0,102.0,162033.0,0.0,25.5,-969.0,-330.5,2.0,4.0
11:14:16,RTL,0.024267536588013172,0.0005420952220447361,-0.29049821197986603,1.2767447233200073,0.003735008300282061,0.0007071002619341016,-35.3632628,149.165235,74126.0,7.0,25.5,100.0,38678.0,1.5,71.5,-966.5,1283.5,4.5,3.0
11:14:18,RTL,0.014273341279476881,0.0007225254666991532,-0.2913387566804886,1.404613971710205,0.00018038356211036444,-0.0010584122501313686,-35.3632622,149.16523734999998,72067.5,1.5,8.0,96.5,38678.0,0.0,49.0,-1044.0,1410.0,2.0,2.0
11:14:19,RTL,0.014152568532153964,6.424971888918662e-05,-0.2909824773669243,0.354334844276309,0.0017231434176210314,-0.004577247891575098,-35.3632621,149.1652375,70808.0,0.0,2.0,100.0,168192.0,0.0,-17.0,-988.25,358.5,3.0,-1.75
11:14:20,RTL,0.007690545520745218,0.0016895863809622824,-0.29046280682086945,-0.39723456650972366,0.0009690718725323677,-0.00674300966784358,-35.363262,149.16523755,70043.0,-1.0,0.0,101.5,168192.0,1.5,-59.0,-945.0,-392.5,2.0,-3.5
11:14:22,RTL,-0.024504602886736393,0.0017304753419011831,-0.29326845705509186,-1.2608283758163452,-0.011009474750608206,-0.0045605183113366365,-35.3632615,149.16523945,68020.5,-5.5,-10.5,101.5,75552.0,1.0,-70.5,-1023.0,-1256.0,-9.0,-1.5
11:14:24,RTL,-0.02163694053888321,-0.0032798354513943195,-0.29169826209545135,-1.2312752604484558,-0.0022729685879312456,0.0004741669399663806,-35.36326175,149.16523899999999,65988.0,-6.0,-13.5,103.5,75552.0,-2.0,-31.0,-1040.5,-1224.5,-0.5,3.0
11:14:25,RTL,-0.0039121611043810844,-0.003142842324450612,-0.29240063577890396,-0.4543026052415371,0.00014474659110419452,0.006387706438545138,-35.363262125000006,149.16523765,64714.25,-2.5,-6.0,103.25,122248.0,-2.0,14.0,-980.5,-447.0,1.25,8.75
11:14:26,RTL,0.002351138391532004,-0.0014996951213106513,-0.2914974242448807,0.3686542212963104,-0.0009772637858986855,0.005462545494083315,-35.363262250000005,149.165237,63938.5,0.0,1.0,103.5,122248.0,-1.0,60.5,-956.0,376.5,1.0,8.5
11:14:28,RTL,0.021261628717184067,0.00032691336309653707,-0.2934074401855469,1.3202030062675476,-0.0011237096041440964,0.0077366570476442575,-35.3632623,149.1652365,61889.5,0.0,8.0,99.5,40690.0,0.0,55.5,-1017.0,1325.5,1.0,10.5
11:14:30,RTL,0.015267729293555021,-0.0008787944680079818,-0.2922268509864807,-0.4359501451253891,0.0032862445223145187,-0.008340757340192795,-35.3632624,149.16523654999997,59853.0,1.5,5.5,101.5,40690.0,2.0,-57.5,-972.5,-431.5,4.5,-4.5
11:14:31,RTL,-0.01661271252669394,0.0015250174328684807,-0.29175302386283875,-1.2037152349948883,-0.00075432492303662,-0.004263454728061333,-35.363262049999996,149.165237875,58573.0,0.5,1.0,99.5,65429.0,1.5,-75.25,-997.75,-1198.75,1.25,-1.0
11:14:32,RTL,-0.03170235361903906,0.002036146353930235,-0.2929071635007858,-1.4322773218154907,-0.004644328961148858,-0.009233537362888455,-35.36326175,149.16523895,57806.5,-1.5,-4.5,101.5,65429.0,2.5,-76.5,-989.5,-1427.0,-2.0,-5.5
11:14:34,RTL,-0.03430674597620964,0.0006437773845391348,-0.2923508882522583,-1.3068280816078186,-0.0058002767618745565,0.008198304916732013,-35.363261550000004,149.16523999999998,55765.0,-6.0,-18.0,101.5,166577.0,1.0,-37.5,-1002.5,-1300.5,-3.5,10.5
11:14:36,RTL,-0.03740820847451687,-8.466080907965079e-05,-0.29283255338668823,0.009576068492606282,-0.0011565519962459803,0.0058741820976138115,-35.3632611,149.16524114999999,53732.5,-9.5,-27.5,100.5,166577.0,-1.0,33.0,-1000.5,16.0,1.0,9.0
11:14:37,RTL,-0.018672581994906068,2.2859479940962046e-05,-0.29243864119052887,0.8417848497629166,0.002319358056411147,0.007192390272393823,-35.3632612,149.16524092499998,52460.75,-10.0,-27.5,100.5,194801.0,0.0,66.5,-1004.0,847.75,4.0,9.75
11:14:38,RTL,-0.0009460162837058306,0.00010659407053026371,-0.29275840520858765,1.405398428440094,0.006278877146542072,0.0022793993121013045,-35.3632612,149.16524075,51701.0,-10.0,-28.0,100.0,194801.0,0.0,63.5,-1000.5,1410.0,7.5,5.0
11:14:40,RTL,0.00428792490856722,-0.0002604293404147029,-0.29207442700862885,0.3187701851129532,0.008299155859276652,0.007063754252158105,-35.3632614,149.16524005000002,49646.5,-8.5,-25.0,101.0,110292.0,0.0,-22.5,-959.5,320.0,10.0,10.0
11:14:42,RTL,-0.012336806394159794,0.0014077803934924304,-0.2926493287086487,-0.3837851881980896,0.004561885725706816,-0.001971422811038792,-35.3632613,149.1652402,47605.0,-8.0,-23.5,97.5,110292.0,0.0,-50.0,-1008.5,-382.5,6.5,1.0
11:14:43,RTL,-0.016449152724817395,-0.0008586474432377145,-0.2932717129588127,-0.8525584787130356,-0.006034317426383495,-0.005947467114310712,-35.36326135,149.165240225,46325.0,-9.5,-25.0,99.5,133705.0,-0.25,-64.25,-979.5,-851.0,-3.5,-2.75
11:14:44,RTL,-0.016523796133697033,-0.0020402505178935826,-0.2929258495569229,-1.0134462714195251,-0.0017988861072808504,-0.004690368892624974,-35.363261449999996,149.16523995,45559.0,-9.0,-24.0,99.5,133705.0,-0.5,-71.5,-1000.5,-1011.5,0.5,-1.5
11:14:46,RTL,-0.01598446862772107,-0.0017352259019389749,-0.2923676073551178,-0.6135816276073456,0.00254271412268281,0.0035602785646915436,-35.3632618,149.1652384,43505.0,-4.5,-11.5,102.0,15299.0,0.0,16.0,-966.0,-608.5,4.0,6.5
11:14:48,RTL,0.040780821815133095,-0.00594681897200644,-0.29341892898082733,1.242123544216156,-0.0007338642608374357,0.0016594916814938188,-35.3632628,149.16523510000002,41476.5,0.5,8.5,100.0,15299.0,-6.0,76.0,-1018.5,1246.0,1.0,5.0
11:14:49,RTL,0.06070565991103649,-0.0042065573506988585,-0.2931554690003395,1.39493790268898,0.004148667736444622,0.0018251165165565908,-35.3632634,149.165232425,40207.0,7.25,28.0,100.75,24067.0,-3.5,50.25,-1064.25,1398.0,5.75,5.0
11:14:50,RTL,0.06704875454306602,-0.0013195230858400464,-0.29214175045490265,1.1133836507797241,0.009104603435844183,0.0007097795605659485,-35.36326355,149.16523139999998,39444.5,11.5,39.0,99.5,24067.0,0.0,29.0,-999.5,1116.0,10.5,4.0
11:14:52,RTL,0.007741460343822837,0.0054121967405080795,-0.29238539934158325,-0.1996631994843483,-0.0039955590618774295,-0.011609112843871117,-35.363262500000005,149.1652348,37412.5,8.5,33.0,100.5,175620.0,5.0,-63.0,-963.5,-197.0,-1.5,-8.0
11:14:54,RTL,-0.010850967839360237,0.0005142833106219769,-0.2929767519235611,-0.9423510134220123,-0.004731199936941266,-0.013255039695650339,-35.363261949999995,149.16523784999998,35371.5,-1.0,4.0,102.5,175620.0,2.0,-70.0,-1002.5,-939.0,-2.0,-9.5
11:14:55,RTL,-0.02417219802737236,0.00014413223289011512,-0.2920524701476097,-1.447838455438614,-0.002064302214421332,-0.0005264770006760955,-35.363261825,149.1652387,34094.0,-2.5,-4.25,102.25,18438.0,1.0,-71.25,-988.5,-1444.0,0.5,2.5
11:14:56,RTL,-0.024234430864453316,0.00019816190251731314,-0.2924826592206955,-1.4864884614944458,0.0005806420813314617,-0.007654957007616758,-35.36326175,149.165239,33326.5,-3.5,-9.0,103.0,18438.0,0.0,-65.0,-979.5,-1482.0,2.5,-3.5
11:14:58,RTL,-0.00821303801300625,0.0008562831123223683,-0.29225197434425354,1.1663548549016316,-0.00188928524342676,0.005797367775812745,-35.363261599999994,149.16523966666668,31299.666666666668,-4.666666666666667,-13.0,101.0,57775.0,0.3333333333333333,66.66666666666667,-1031.6666666666667,1171.0,0.3333333333333333,9.0
11:15:00,RTL,0.0009864174062386155,-0.0028710387414321303,-0.2927159518003464,1.3529037237167358,0.002848957432433963,0.0011155628599226475,-35.3632616,149.1652398,29220.5,-6.0,-16.0,99.0,57775.0,-1.0,79.0,-988.5,1357.5,5.0,4.0
11:15:01,RTL,0.02523201269408067,-0.006631696286300818,-0.2924907108147939,1.090930700302124,0.00192474783398211,0.0065984721295535564,-35.363262133333336,149.1652383,27982.666666666668,-4.666666666666667,-13.333333333333334,97.33333333333333,106588.0,-3.3333333333333335,33.333333333333336,-1018.0,1093.0,4.0,10.0
11:15:02,RTL,0.0367249163488547,-0.006338054624696572,-0.29297656814257306,0.3505605325723688,0.001031405758112669,0.0007379351494212946,-35.363262533333334,149.16523683333335,27218.666666666668,-1.0,-4.666666666666667,101.33333333333333,106588.0,-3.3333333333333335,-18.0,-1001.0,352.0,3.0,4.0
11:15:04,RTL,0.039456453174352646,-0.003034403237203757,-0.29197200139363605,-0.3178388401865959,0.0004635691487540801,-0.007986954879015684,-35.36326306666667,149.16523393333333,25192.333333333332,6.333333333333333,19.333333333333332,100.33333333333333,4126.0,-2.0,-51.333333333333336,-973.0,-315.3333333333333,2.6666666666666665,-3.3333333333333335
11:15:06,RTL,0.01208166079595685,0.00316696974914521,-0.2926778942346573,-1.102646827697754,0.006096188793890178,-0.003808218869380653,-35.363262950000006,149.16523375,23107.5,9.5,31.5,102.0,4126.0,2.5,-83.0,-972.5,-1099.0,7.5,0.0
11:15:07,RTL,-0.016786324325948954,0.0023953989730216563,-0.2916944772005081,-1.3000397682189941,-0.0045794209581799805,-0.0025908738025464118,-35.363262475,149.16523544999998,21821.5,5.25,23.25,99.75,130674.0,2.0,-47.25,-1001.75,-1294.5,-1.5,1.0
11:15:08,RTL,-0.019974200055003166,0.0012211904977448285,-0.29266683757305145,-0.7426164448261261,0.0017228714423254132,0.0019176859641447663,-35.36326235,149.16523635,21057.5,3.5,17.0,100.5,130674.0,1.5,3.5,-969.5,-735.5,3.0,5.0
11:15:10,RTL,-0.03128119930624962,0.002102594473399222,-0.29219163954257965,-0.4723477214574814,0.004045652691274881,0.0009999576723203063,-35.36326185,149.16523865,19005.0,-1.0,-1.0,98.5,132927.0,1.5,12.0,-1010.5,-465.5,6.5,4.5
11:15:12,RTL,-0.012882561733325323,0.0018014498443032305,-0.29195889830589294,1.2259537776311238,-0.00031236365127066773,0.011418336691955725,-35.3632614,149.16524016666668,16987.0,-5.666666666666667,-14.666666666666666,97.0,132927.0,2.0,71.66666666666667,-1020.3333333333334,1231.3333333333333,2.0,14.333333333333334
11:15:13,RTL,-0.002782341791316867,-0.0029659579352786145,-0.2935446898142497,1.3730350732803345,-0.0038605896600832543,0.003064740914851427,-35.3632614,149.1652402666667,15716.333333333334,-9.0,-21.333333333333332,97.66666666666667,206917.0,-2.0,67.33333333333333,-1020.6666666666666,1377.0,-1.3333333333333333,7.0
11:15:14,RTL,0.01995968446135521,-0.003841206974660357,-0.2931228081385295,1.2894266446431477,-0.002728915230060617,0.0010784407689546545,-35.3632617,149.16523923333332,14952.333333333334,-8.0,-19.666666666666668,97.66666666666667,206917.0,-1.6666666666666667,47.666666666666664,-1009.6666666666666,1293.0,-0.3333333333333333,4.333333333333333
11:15:16,RTL,0.017646657302975655,-0.0016640316462144256,-0.2920254170894623,-0.08994948863983154,0.003096875579406818,-0.0009689042344689369,-35.3632622,149.1652372,12925.333333333334,-1.3333333333333333,-3.0,98.66666666666667,150159.0,-1.0,-36.0,-980.6666666666666,-87.66666666666667,5.0,2.6666666666666665
11:15:18,RTL,0.01020801110037913,-0.00025708845684372744,-0.2911779781182607,0.48409855862458545,0.0018996289776017268,0.000998876445616285,-35.3632623,149.16523636666668,11294.0,1.0,7.333333333333333,35.666666666666664,150159.0,0.0,28.0,-1046.6666666666667,488.6666666666667,4.0,4.666666666666667
11:15:19,RTL,-0.0012871056484679382,2.514783894487967e-05,-0.2914082209269206,0.04105330817401409,-0.00018084406231840452,0.003343745833262801,-35.3632623,149.1652367,10987.333333333334,1.0,7.0,26.333333333333332,91676.0,0.3333333333333333,15.333333333333334,-990.3333333333334,46.666666666666664,1.6666666666666667,7.0
11:15:20,RTL,0.006958160258363932,0.0001018819421005901,-0.29170440634091693,0.11566998592267434,-0.0002584779091800253,-0.003859319258481264,-35.3632622,149.16523706666666,10769.666666666666,0.0,4.333333333333333,32.0,91676.0,0.6666666666666666,-14.333333333333334,-999.0,119.0,2.0,0.0
11:15:22,RTL,-0.0033962784024576345,0.0008290571471055349,-0.29164477189381915,0.2000032365322113,0.00290758969883124,-0.0003326868172734976,-35.3632619,149.16523843333331,10092.0,-1.6666666666666667,-3.6666666666666665,34.666666666666664,273402.0,0.6666666666666666,-12.0,-994.6666666666666,203.0,5.0,3.0
11:15:24,RTL,-0.009630574689557156,-0.0008463515938880543,-0.29179200530052185,-0.36084702610969543,-0.00464493657151858,0.0006507426345100006,-35.3632617,149.16523916666668,9408.666666666666,-4.666666666666667,-12.0,33.666666666666664,273402.0,0.0,-27.0,-998.3333333333334,-357.6666666666667,-2.3333333333333335,4.333333333333333
11:15:25,RTL,0.0016571431721483048,-0.0013612361314396064,-0.2916698654492696,0.4332771400610606,-0.0016213747827957075,0.0011093301388124626,-35.36326176666666,149.1652388,8990.666666666666,-4.666666666666667,-11.333333333333334,33.666666666666664,52689.0,-0.3333333333333333,12.666666666666666,-996.6666666666666,436.6666666666667,1.3333333333333333,4.666666666666667
11:15:26,RTL,-0.00934096984565258,-0.0012220205971971154,-0.29158618052800495,-0.46835627282659215,-0.000175571379562219,-0.0016134772449731827,-35.3632618,149.16523859999998,8767.0,-3.6666666666666665,-10.0,18.333333333333332,52689.0,0.0,-13.666666666666666,-1044.0,-464.3333333333333,2.0,2.3333333333333335
11:15:28,RTL,-0.008246529255605614,-0.00046995634329505265,-0.2920243243376414,-0.22354825337727866,0.0004421780661990245,0.001319658864910404,-35.3632618,149.16523883333332,8822.666666666666,-3.6666666666666665,-10.666666666666666,-2.6666666666666665,31608.0,0.3333333333333333,-19.333333333333332,-996.3333333333334,-220.0,2.6666666666666665,4.666666666666667
11:15:30,RTL,-0.01782923936843872,-0.0007998017633023361,-0.29206124941507977,-0.24186769127845764,-0.0012680812117954094,0.0020911252746979394,-35.3632617,149.1652394,8698.666666666666,-4.333333333333333,-14.333333333333334,6.0,31608.0,0.0,0.3333333333333333,-1035.0,-238.0,1.3333333333333333,5.333333333333333
11:15:31,RTL,-0.020208908555408318,-0.0012530779155592124,-0.29233519236246747,-0.2933933238188426,-0.0026784915632257857,0.0016168481670320034,-35.363261666666666,149.16523976666667,8699.333333333334,-5.0,-17.333333333333332,-0.6666666666666666,123717.0,0.0,-3.0,-998.3333333333334,-289.6666666666667,0.3333333333333333,5.0
11:15:32,RTL,-0.008942875855912765,-0.0023466163159658513,-0.2921886642773946,0.0033369772136211395,-0.0010236826880524557,-0.0004385606540987889,-35.363261666666666,149.16523976666667,8712.333333333334,-5.666666666666667,-19.0,-0.3333333333333333,123717.0,-0.3333333333333333,-10.333333333333334,-991.0,5.333333333333333,1.6666666666666667,3.0
11:15:34,RTL,-0.0005207495438905122,-0.003174303565174341,-0.29223018884658813,0.2396606206893921,-0.0019922591745853424,0.0006640359448889891,-35.36326196666666,149.16523859999998,8720.0,-3.0,-11.666666666666666,0.3333333333333333,264273.0,-0.6666666666666666,18.333333333333332,-1002.0,242.66666666666666,0.6666666666666666,4.0
11:15:36,RTL,0.004458151112582224,-0.0031792682905991874,-0.29199814796447754,-0.18274229764938354,0.0012063496590902407,-0.0011453103894988697,-35.3632623,149.1652374,8714.333333333334,0.3333333333333333,-2.6666666666666665,0.3333333333333333,264273.0,-0.6666666666666666,-1.3333333333333333,-994.0,-180.0,3.6666666666666665,2.6666666666666665
11:15:37,RTL,0.007304760006566842,-0.0017795983779554565,-0.2915266553560893,-0.38897376507520676,0.0003276457233975331,-0.004373589685807626,-35.3632624,149.165237,8448.333333333334,1.0,0.3333333333333333,41.666666666666664,84835.0,-0.3333333333333333,-38.333333333333336,-981.0,-387.3333333333333,3.0,-0.3333333333333333
11:15:38,RTL,-0.003751684989159306,-0.0012335348486279447,-0.29203327496846515,-0.07531281312306722,0.0018468089401721954,0.0037981847611566386,-35.3632624,149.16523706666666,8142.0,2.0,2.6666666666666665,39.333333333333336,84835.0,-0.3333333333333333,14.0,-999.3333333333334,-71.33333333333333,4.333333333333333,7.0
11:15:40,RTL,0.008591507406284412,-0.0024557510235657296,-0.2912906010945638,0.6754534070690473,0.0017133924023558695,0.0006783674471080303,-35.3632624,149.1652371,7415.333333333333,1.0,2.3333333333333335,34.0,158378.0,-0.3333333333333333,34.333333333333336,-1011.0,678.3333333333334,3.6666666666666665,4.666666666666667
11:15:42,RTL,0.012428167276084423,-0.0023011138352255025,-0.29147568345069885,0.681135763724645,0.007568096121152242,0.003750174306333065,-35.3632624,149.16523696666664,6731.0,2.0,3.6666666666666665,32.333333333333336,158378.0,-0.3333333333333333,39.666666666666664,-1003.3333333333334,684.3333333333334,10.0,7.333333333333333
11:15:43,RTL,-0.0018102980927020933,-0.00266310409642756,-0.29154762625694275,-0.5003709085285664,-0.0005212164639184872,0.0002251972910016775,-35.3632625,149.1652368,6301.333333333333,2.6666666666666665,4.666666666666667,32.0,127943.0,-0.3333333333333333,-17.0,-1004.3333333333334,-497.0,1.6666666666666667,3.6666666666666665
11:15:44,RTL,0.013518469097713629,-0.0018050988437607884,-0.2914787232875824,0.5421073498825232,-9.277913098533949e-06,-0.000984521893163522,-35.3632625,149.16523686666665,6047.0,2.3333333333333335,4.333333333333333,32.666666666666664,127943.0,0.0,11.0,-1002.3333333333334,544.0,1.6666666666666667,2.6666666666666665
11:15:46,RTL,0.013334253337234259,-0.002017754401701192,-0.2917869985103607,0.38940340280532837,0.004268576856702566,-0.002092818341528376,-35.3632625,149.1652369,5364.666666666667,2.0,4.0,33.0,88334.0,0.0,-2.6666666666666665,-994.0,391.6666666666667,6.0,1.6666666666666667
11:15:48,RTL,-0.0031702470344801745,-0.0011510978220030665,-0.2914862136046092,-0.6626778642336527,0.001876168418675661,-0.0023873562458902597,-35.36326233333333,149.16523733333335,4690.333333333333,1.0,1.0,34.0,88334.0,0.3333333333333333,-36.333333333333336,-993.6666666666666,-660.0,4.0,1.0
11:15:49,RTL,0.0014971118071116507,-0.0007242390226262311,-0.2918485204378764,0.6724614004294077,0.0011674272827804089,0.0014130387765665848,-35.363262166666665,149.16523796666664,4261.666666666667,0.3333333333333333,-0.6666666666666666,33.333333333333336,83229.0,0.3333333333333333,21.333333333333332,-997.3333333333334,675.0,3.0,5.333333333333333
11:15:50,RTL,-0.015554167330265045,-0.0010923248870919149,-0.2915833294391632,-0.6072863737742106,-0.0008313915847490231,-0.0010937540015826623,-35.3632621,149.1652385,4005.6666666666665,0.0,-4.333333333333333,32.666666666666664,83229.0,1.0,-25.666666666666668,-996.3333333333334,-604.3333333333334,1.6666666666666667,2.6666666666666665
11:15:52,RTL,-0.020495603171487648,-0.0020393063702310124,-0.2915511727333069,-0.46348196268081665,-0.0023600793598840633,0.0016696392558515072,-35.3632618,149.1652396,3328.6666666666665,-3.0,-14.0,32.666666666666664,39343.0,0.0,-7.333333333333333,-992.6666666666666,-460.0,0.0,5.666666666666667
11:15:54,RTL,-0.0033149276860058308,-0.00520340617125233,-0.29182231426239014,-0.08851292729377747,-0.00274869822897017,0.002765089273452759,-35.363262133333336,149.1652385,2650.6666666666665,-2.0,-12.0,33.0,39343.0,-1.3333333333333333,17.666666666666668,-999.3333333333334,-85.0,-0.3333333333333333,6.333333333333333
11:15:55,RTL,-0.00017670169472694397,-0.00404213834553957,-0.29195032517115277,-0.6558962961037954,-0.0014321239432319999,0.0030862493440508842,-35.36326243333334,149.1652374,2220.6666666666665,0.3333333333333333,-2.6666666666666665,33.0,42596.0,-1.0,-26.666666666666668,-998.6666666666666,-653.3333333333334,1.0,6.666666666666667
11:15:56,RTL,0.017603753755489986,-0.003378999807561437,-0.2914821406205495,0.8048450152079264,-0.0015687523409724236,0.000410675381620725,-35.3632625,149.16523706666666,1965.3333333333333,2.3333333333333335,0.3333333333333333,32.0,42596.0,0.0,35.666666666666664,-999.6666666666666,807.3333333333334,0.6666666666666666,4.333333333333333
11:15:58,RTL,0.013736318641652664,-0.0033068532745043435,-0.2918078402678172,0.6037786155939102,-0.00028553162701427937,-0.0012376669328659773,-35.3632626,149.1652366333333,1290.3333333333333,3.3333333333333335,4.333333333333333,32.333333333333336,24028.0,-0.3333333333333333,30.666666666666668,-998.3333333333334,606.6666666666666,1.6666666666666667,2.6666666666666665
11:16:00,RTL,0.019274216145277023,-0.002794087864458561,-0.29138152798016864,0.525192603468895,0.003117068981130918,-0.002602411744495233,-35.3632626,149.16523643333332,615.3333333333334,4.0,7.0,34.0,24028.0,0.3333333333333333,8.0,-1003.6666666666666,527.0,5.0,1.6666666666666667
11:16:01,RTL,0.004687982921799024,-0.002476045240958532,-0.29190074404080707,0.09013853222131729,-0.0025823120959103107,0.003093360069518288,-35.3632626,149.1652365,189.33333333333334,4.0,7.666666666666667,33.666666666666664,256252.0,-0.3333333333333333,20.666666666666668,-1000.6666666666666,93.66666666666667,0.3333333333333333,7.0
11:16:02,RTL,0.0005968341429252177,-0.00101553382895266,-0.2916538119316101,0.0007236800932635864,0.001220530519882838,-0.00039079606843491394,-35.3632626,149.16523646666667,56.333333333333336,1.3333333333333333,5.333333333333333,5.0,256252.0,0.0,0.0,-1000.0,3.0,3.0,3.0
11:16:04,RTL,0.0006278986887385448,0.0012298649720226724,-0.2913382550080617,0.0006327476973334948,0.001173591474071145,-0.0004309890791773796,-35.3632628,149.16523613333334,10.0,-2.3333333333333335,0.0,3.3333333333333335,183440.0,0.0,0.0,-1000.0,3.0,3.0,3.0
11:16:06,RTL,0.0018218017260854442,0.0024008549905071654,-0.291824072599411,0.0006724131138374408,0.0010592682907978694,-0.0004517075140029192,-35.363263,149.165236,0.0,-5.0,0.3333333333333333,2.0,183440.0,0.0,0.0,-1000.0,3.0,3.0,3.0
11:16:08,RTL,0.0027904643987615905,0.0021925054024904966,-0.2927096386750539,0.0005020813550800085,0.000957718895127376,-0.0004955903471757969,-35.363263,149.1652361,1.6666666666666667,-4.0,2.0,1.0,183440.0,0.0,0.0,-1000.0,3.0,3.0,3.0
