time_stamp,MODE,lat,lon,relative_alt,roll,pitch,yaw,rollspeed,pitchspeed,yawspeed,xacc,yacc,zacc,xgyro,ygyro,zgyro,vx,vy,vz,RTL_ALT
02:16:37.445,STABILIZE,-35.3632621,149.1652374,22,-0.0001785971544450149,0.0015824493020772934,0.028173834085464478,0.00034634998883120716,0.00024005287559702992,0.0021735629998147488,0,0,-1001,0,0,0,-2,2,0,138241.0
02:16:37.646,STABILIZE,-35.3632621,149.1652374,22,-0.0001785971544450149,0.0015824493020772934,0.028173834085464478,0.00034634998883120716,0.00024005287559702992,0.0021735629998147488,0,0,-1001,0,0,0,-2,2,0,138241.0
02:16:37.846,STABILIZE,-35.3632621,149.1652374,22,-0.0001785971544450149,0.0015824493020772934,0.028173834085464478,0.00034634998883120716,0.00024005287559702992,0.0021735629998147488,0,0,-1001,0,0,0,-2,2,0,138241.0
02:16:38.047,STABILIZE,-35.3632621,149.1652374,22,-0.0001785971544450149,0.0015824493020772934,0.028173834085464478,0.00034634998883120716,0.00024005287559702992,0.0021735629998147488,0,0,-1001,0,0,0,-2,2,0,138241.0
02:16:38.248,STABILIZE,-35.3632621,149.1652374,22,-0.0001785971544450149,0.0015824493020772934,0.028173834085464478,0.00034634998883120716,0.00024005287559702992,0.0021735629998147488,0,0,-1001,0,0,0,-2,2,0,138241.0
02:16:38.448,STABILIZE,-35.3632622,149.1652375,15,-0.0004637362144421786,0.0013791932724416256,0.0275974553078413,9.827438043430448e-05,0.000277589337201789,0.0022339641582220793,0,1,-1000,0,0,0,-2,2,0,138241.0
02:16:38.650,STABILIZE,-35.3632622,149.1652375,15,-0.0004637362144421786,0.0013791932724416256,0.0275974553078413,9.827438043430448e-05,0.000277589337201789,0.0022339641582220793,0,1,-1000,0,0,0,-2,2,0,138241.0
02:16:38.851,STABILIZE,-35.3632622,149.1652375,15,-0.0004637362144421786,0.0013791932724416256,0.0275974553078413,9.827438043430448e-05,0.000277589337201789,0.0022339641582220793,0,1,-1000,0,0,0,-2,2,0,138241.0
02:16:39.052,STABILIZE,-35.3632622,149.1652375,15,-0.0004637362144421786,0.0013791932724416256,0.0275974553078413,9.827438043430448e-05,0.000277589337201789,0.0022339641582220793,0,1,-1000,0,0,0,-2,2,0,138241.0
02:16:39.253,STABILIZE,-35.3632622,149.1652375,15,-0.0004637362144421786,0.0013791932724416256,0.0275974553078413,9.827438043430448e-05,0.000277589337201789,0.0022339641582220793,0,1,-1000,0,0,0,-2,2,0,138241.0
02:16:39.455,STABILIZE,-35.3632622,149.1652375,14,-0.0007575323106721044,0.0011625566985458136,0.027076508849859238,0.00028442073380574584,0.00022713010548613966,0.002164524979889393,0,1,-1000,0,0,0,-1,1,0,138241.0
02:16:39.657,STABILIZE,-35.3632622,149.1652375,14,-0.0007575323106721044,0.0011625566985458136,0.027076508849859238,0.00028442073380574584,0.00022713010548613966,0.002164524979889393,0,1,-1000,0,0,0,-1,1,0,138241.0
02:16:39.858,STABILIZE,-35.3632622,149.1652375,14,-0.0007575323106721044,0.0011625566985458136,0.027076508849859238,0.00028442073380574584,0.00022713010548613966,0.002164524979889393,0,1,-1000,0,0,0,-1,1,0,138241.0
02:16:40.060,STABILIZE,-35.3632622,149.1652375,13,-0.0009047582861967385,0.0010372537653893232,0.026738278567790985,0.00018021924188360572,0.0002621526946313679,0.0021087664645165205,0,1,-1000,1,0,0,-1,1,0,138241.0
02:16:40.261,STABILIZE,-35.3632622,149.1652375,13,-0.0009047582861967385,0.0010372537653893232,0.026738278567790985,0.00018021924188360572,0.0002621526946313679,0.0021087664645165205,0,1,-1000,1,0,0,-1,1,0,138241.0
02:16:40.462,STABILIZE,-35.3632622,149.1652375,13,-0.0009047582861967385,0.0010372537653893232,0.026738278567790985,0.00018021924188360572,0.0002621526946313679,0.0021087664645165205,0,1,-1000,1,0,0,-1,1,0,138241.0
02:16:40.664,STABILIZE,-35.3632622,149.1652375,13,-0.0009047582861967385,0.0010372537653893232,0.026738278567790985,0.00018021924188360572,0.0002621526946313679,0.0021087664645165205,0,1,-1000,1,0,0,-1,1,0,138241.0
02:16:40.865,STABILIZE,-35.3632622,149.1652375,13,-0.0009047582861967385,0.0010372537653893232,0.026738278567790985,0.00018021924188360572,0.0002621526946313679,0.0021087664645165205,0,1,-1000,1,0,0,-1,1,0,138241.0
02:16:41.067,STABILIZE,-35.3632622,149.1652375,13,-0.0009047582861967385,0.0010372537653893232,0.026738278567790985,0.00018021924188360572,0.0002621526946313679,0.0021087664645165205,0,1,-1000,0,0,0,-1,1,0,138241.0
02:16:41.268,STABILIZE,-35.3632622,149.1652375,13,-0.0009047582861967385,0.0010372537653893232,0.026738278567790985,0.00018021924188360572,0.0002621526946313679,0.0021087664645165205,0,1,-1000,0,0,0,-1,1,0,138241.0
02:16:41.470,STABILIZE,-35.3632622,149.1652375,13,-0.0009047582861967385,0.0010372537653893232,0.026738278567790985,0.00018021924188360572,0.0002621526946313679,0.0021087664645165205,0,1,-1000,0,0,0,-1,1,0,138241.0
02:16:41.671,STABILIZE,-35.3632622,149.1652375,13,-0.0009047582861967385,0.0010372537653893232,0.026738278567790985,0.00018021924188360572,0.0002621526946313679,0.0021087664645165205,0,1,-1000,0,0,0,-1,1,0,138241.0
02:16:41.873,STABILIZE,-35.3632621,149.1652374,20,-0.000763673335313797,0.0009185037924908102,0.026061223819851875,0.00021102337632328272,0.00027819268871098757,0.0019774213433265686,0,1,-1000,1,0,0,-1,0,-1,138241.0
02:16:42.074,STABILIZE,-35.3632621,149.1652374,21,-0.0007451041601598263,0.0009138211025856435,0.025972891598939896,0.0002447894075885415,0.000103057362139225,0.0019911881536245346,0,1,-1000,0,0,0,-1,0,-1,138241.0
02:16:42.276,STABILIZE,-35.3632621,149.1652374,21,-0.0007451041601598263,0.0009138211025856435,0.025972891598939896,0.0002447894075885415,0.000103057362139225,0.0019911881536245346,0,1,-1000,0,0,0,-1,0,-1,138241.0
02:16:42.477,STABILIZE,-35.3632621,149.1652374,21,-0.0007451041601598263,0.0009138211025856435,0.025972891598939896,0.0002447894075885415,0.000103057362139225,0.0019911881536245346,0,1,-1000,0,0,0,-1,0,-1,138241.0
02:16:42.679,STABILIZE,-35.3632621,149.1652374,21,-0.0007451041601598263,0.0009138211025856435,0.025972891598939896,0.0002447894075885415,0.000103057362139225,0.0019911881536245346,0,1,-1000,0,0,0,-1,0,-1,138241.0
02:16:42.881,STABILIZE,-35.3632621,149.1652374,21,-0.0007451041601598263,0.0009138211025856435,0.025972891598939896,0.0002447894075885415,0.000103057362139225,0.0019911881536245346,0,1,-1000,0,0,0,-1,0,-1,138241.0
02:16:43.083,STABILIZE,-35.3632621,149.1652374,21,-0.0007266239845193923,0.0009068759973160923,0.025540390983223915,0.0003058366710320115,0.00021768995793536305,0.0017679929733276367,0,1,-1000,1,0,0,-1,1,0,138241.0
02:16:43.284,STABILIZE,-35.3632621,149.1652374,21,-0.0007311244844458997,0.0009008198394440114,0.025438029319047928,0.0001710121869109571,0.0001657098182477057,0.0019107968546450138,0,1,-1000,0,0,0,-1,1,0,138241.0
02:16:43.487,STABILIZE,-35.3632621,149.1652374,21,-0.0007311244844458997,0.0009008198394440114,0.025438029319047928,0.0001710121869109571,0.0001657098182477057,0.0019107968546450138,0,1,-1000,0,0,0,-1,1,0,138241.0
02:16:43.688,STABILIZE,-35.3632621,149.1652374,21,-0.0007311244844458997,0.0009008198394440114,0.025438029319047928,0.0001710121869109571,0.0001657098182477057,0.0019107968546450138,0,1,-1000,0,0,0,-1,1,0,138241.0
02:16:43.890,STABILIZE,-35.3632621,149.1652374,21,-0.0007428353419527411,0.0009185608942061663,0.025239571928977966,0.0002807009732350707,0.00045294989831745625,0.001798084587790072,0,1,-1000,0,0,0,-1,1,0,138241.0
02:16:44.091,STABILIZE,-35.3632621,149.1652374,21,-0.0007428353419527411,0.0009185608942061663,0.025239571928977966,0.0002807009732350707,0.00045294989831745625,0.001798084587790072,0,1,-1000,0,0,0,-1,1,0,138241.0
02:16:44.293,STABILIZE,-35.3632621,149.1652374,21,-0.0007428353419527411,0.0009185608942061663,0.025239571928977966,0.0002807009732350707,0.00045294989831745625,0.001798084587790072,0,1,-1000,0,0,0,-1,1,0,138241.0
02:16:44.494,STABILIZE,-35.3632621,149.1652374,21,-0.0007428353419527411,0.0009185608942061663,0.025239571928977966,0.0002807009732350707,0.00045294989831745625,0.001798084587790072,0,1,-1000,0,0,0,-1,1,0,138241.0
02:16:44.696,STABILIZE,-35.3632621,149.1652374,21,-0.0007428353419527411,0.0009185608942061663,0.025239571928977966,0.0002807009732350707,0.00045294989831745625,0.001798084587790072,0,1,-1000,0,0,0,-1,1,0,138241.0
02:16:44.900,STABILIZE,-35.3632621,149.1652374,21,-0.0007428353419527411,0.0009185608942061663,0.025239571928977966,0.0002807009732350707,0.00045294989831745625,0.001798084587790072,0,1,-1000,0,0,0,-1,1,0,138241.0
02:16:45.102,STABILIZE,-35.3632621,149.1652375,19,-0.0007428353419527411,0.0009185608942061663,0.025239571928977966,0.0002807009732350707,0.00045294989831745625,0.001798084587790072,0,1,-1000,0,0,0,-1,1,0,138241.0
02:16:45.304,STABILIZE,-35.3632621,149.1652375,19,-0.0007428353419527411,0.0009185608942061663,0.025239571928977966,0.0002807009732350707,0.00045294989831745625,0.001798084587790072,0,1,-1000,0,0,0,-1,1,0,138241.0
02:16:45.505,STABILIZE,-35.3632621,149.1652375,18,-0.0006833671359345317,0.0009722487302497029,0.024534054100513458,0.000146498903632164,0.0003525388310663402,0.0017762220231816173,0,1,-1000,0,0,0,-1,1,0,138241.0
02:16:45.707,STABILIZE,-35.3632621,149.1652375,18,-0.0006833671359345317,0.0009722487302497029,0.024534054100513458,0.000146498903632164,0.0003525388310663402,0.0017762220231816173,0,1,-1000,0,0,0,-1,1,0,138241.0
02:16:45.908,STABILIZE,-35.3632621,149.1652375,18,-0.0006833671359345317,0.0009722487302497029,0.024534054100513458,0.000146498903632164,0.0003525388310663402,0.0017762220231816173,0,1,-1000,0,0,0,-1,1,0,138241.0
02:16:46.109,STABILIZE,-35.3632621,149.1652375,18,-0.0006833671359345317,0.0009722487302497029,0.024534054100513458,0.000146498903632164,0.0003525388310663402,0.0017762220231816173,0,1,-1000,0,0,0,-1,1,0,138241.0
02:16:46.311,STABILIZE,-35.3632622,149.1652375,17,-0.0007585608982481062,0.00098581169731915,0.024269944056868553,0.00021319265943020582,0.00033109611831605434,0.001794173731468618,0,1,-1000,1,0,0,-1,1,0,138241.0
02:16:46.516,STABILIZE,-35.3632622,149.1652375,17,-0.0007585608982481062,0.00098581169731915,0.024269944056868553,0.00021319265943020582,0.00033109611831605434,0.001794173731468618,0,1,-1000,1,0,0,-1,1,0,138241.0
02:16:46.718,STABILIZE,-35.3632622,149.1652375,17,-0.0007585608982481062,0.00098581169731915,0.024269944056868553,0.00021319265943020582,0.00033109611831605434,0.001794173731468618,0,1,-1000,1,0,0,-1,1,0,138241.0
02:16:46.919,STABILIZE,-35.3632622,149.1652375,17,-0.0007585608982481062,0.00098581169731915,0.024269944056868553,0.00021319265943020582,0.00033109611831605434,0.001794173731468618,0,1,-1000,1,0,0,-1,1,0,138241.0
02:16:47.121,STABILIZE,-35.3632622,149.1652375,17,-0.0007585608982481062,0.00098581169731915,0.024269944056868553,0.00021319265943020582,0.00033109611831605434,0.001794173731468618,0,1,-1000,1,0,0,-1,1,0,138241.0
02:16:47.322,STABILIZE,-35.3632622,149.1652375,15,-0.0008453111513517797,0.0009878433775156736,0.023899490013718605,0.00022264471044763923,0.0002884361892938614,0.0017183629097416997,0,1,-1000,1,0,0,-1,1,0,138241.0
02:16:47.524,STABILIZE,-35.3632622,149.1652375,14,-0.0008661207393743098,0.00099477032199502,0.023814963176846504,0.00016509724082425237,0.0002783160889521241,0.001713247038424015,0,2,-1000,0,0,0,-1,1,0,138241.0
02:16:47.725,STABILIZE,-35.3632622,149.1652375,14,-0.0008661207393743098,0.00099477032199502,0.023814963176846504,0.00016509724082425237,0.0002783160889521241,0.001713247038424015,0,2,-1000,0,0,0,-1,1,0,138241.0
02:16:47.926,STABILIZE,-35.3632622,149.1652375,14,-0.0008661207393743098,0.00099477032199502,0.023814963176846504,0.00016509724082425237,0.0002783160889521241,0.001713247038424015,0,2,-1000,0,0,0,-1,1,0,138241.0
02:16:48.128,STABILIZE,-35.3632622,149.1652375,14,-0.0008661207393743098,0.00099477032199502,0.023814963176846504,0.00016509724082425237,0.0002783160889521241,0.001713247038424015,0,2,-1000,0,0,0,-1,1,0,138241.0
02:16:48.329,STABILIZE,-35.3632622,149.1652376,0,-0.0005349491257220507,0.0009840899147093296,0.023534417152404785,0.00026979215908795595,0.00021901336731389165,0.0016574671026319265,0,1,-1000,0,0,1,-1,3,3,138241.0
02:16:48.531,STABILIZE,-35.3632622,149.1652376,0,-0.0005349491257220507,0.0009840899147093296,0.023534417152404785,0.00026979215908795595,0.00021901336731389165,0.0016574671026319265,0,1,-1000,0,0,1,-1,3,3,138241.0
02:16:48.732,STABILIZE,-35.3632622,149.1652376,0,-0.0005349491257220507,0.0009840899147093296,0.023534417152404785,0.00026979215908795595,0.00021901336731389165,0.0016574671026319265,0,1,-1000,0,0,1,-1,3,3,138241.0
02:16:48.933,STABILIZE,-35.3632622,149.1652376,0,-0.0005349491257220507,0.0009840899147093296,0.023534417152404785,0.00026979215908795595,0.00021901336731389165,0.0016574671026319265,0,1,-1000,0,0,1,-1,3,3,138241.0
02:16:49.134,STABILIZE,-35.3632622,149.1652376,0,-0.0005349491257220507,0.0009840899147093296,0.023534417152404785,0.00026979215908795595,0.00021901336731389165,0.0016574671026319265,0,1,-1000,0,0,1,-1,3,3,138241.0
02:16:49.335,STABILIZE,-35.3632622,149.1652376,0,-0.0008880733512341976,0.0009760564425960183,0.02316323295235634,0.00028555584140121937,0.00018383795395493507,0.0015370231121778488,0,1,-1000,1,0,0,-1,2,2,138241.0
02:16:49.536,STABILIZE,-35.3632622,149.1652376,0,-0.0009563617059029639,0.0009795373771339655,0.023096919059753418,0.0002757806214503944,0.00019798055291175842,0.0016327667981386185,0,2,-1000,1,0,0,-1,2,2,138241.0
02:16:49.738,STABILIZE,-35.3632622,149.1652376,0,-0.00101980019826442,0.0009820453124120831,0.023015545681118965,0.00021096382988616824,0.0002626145724207163,0.0015669256681576371,0,2,-1000,1,0,1,-1,2,2,138241.0
02:16:49.939,STABILIZE,-35.3632622,149.1652376,0,-0.00101980019826442,0.0009820453124120831,0.023015545681118965,0.00021096382988616824,0.0002626145724207163,0.0015669256681576371,0,2,-1000,1,0,1,-1,2,2,138241.0
02:16:50.140,STABILIZE,-35.3632622,149.1652376,0,-0.0010791380191221833,0.000978402211330831,0.022949641570448875,0.0002942256396636367,0.0002791311708278954,0.0016168372239917517,0,1,-1000,0,1,0,-1,2,2,138241.0
02:16:50.342,STABILIZE,-35.3632622,149.1652375,0,-0.0011380178621038795,0.0009738663211464882,0.022892430424690247,0.0002673447597771883,0.00019307195907458663,0.001634801970794797,0,1,-1000,1,1,0,-1,1,2,138241.0
02:16:50.543,STABILIZE,-35.3632622,149.1652375,0,-0.0011380178621038795,0.0009738663211464882,0.022892430424690247,0.0002673447597771883,0.00019307195907458663,0.001634801970794797,0,1,-1000,1,1,0,-1,1,2,138241.0
02:16:50.744,STABILIZE,-35.3632622,149.1652375,0,-0.0011380178621038795,0.0009738663211464882,0.022892430424690247,0.0002673447597771883,0.00019307195907458663,0.001634801970794797,0,1,-1000,1,1,0,-1,1,2,138241.0
02:16:50.946,STABILIZE,-35.3632622,149.1652375,0,-0.0011380178621038795,0.0009738663211464882,0.022892430424690247,0.0002673447597771883,0.00019307195907458663,0.001634801970794797,0,1,-1000,1,1,0,-1,1,2,138241.0
02:16:51.147,STABILIZE,-35.3632622,149.1652375,0,-0.0011380178621038795,0.0009738663211464882,0.022892430424690247,0.0002673447597771883,0.00019307195907458663,0.001634801970794797,0,1,-1000,1,1,0,-1,1,2,138241.0
02:16:51.348,STABILIZE,-35.3632622,149.1652375,0,-0.0011091124033555388,0.0009751407196745276,0.022695206105709076,0.000267467403318733,0.00039683730574324727,0.001469643204472959,0,1,-1000,0,0,1,-1,1,1,138241.0
02:16:51.549,STABILIZE,-35.3632622,149.1652375,0,-0.0011166258482262492,0.0009661299409344792,0.022629253566265106,0.00020129955373704433,0.00035718048457056284,0.001530196750536561,0,1,-1000,1,1,0,-1,1,1,138241.0
02:16:51.751,STABILIZE,-35.3632622,149.1652375,0,-0.0011348262196406722,0.0009634440648369491,0.022580690681934357,0.00026444130344316363,0.0003661029622890055,0.0015956969000399113,0,1,-1000,1,1,0,-1,1,1,138241.0
02:16:51.952,STABILIZE,-35.3632622,149.1652375,0,-0.0011348262196406722,0.0009634440648369491,0.022580690681934357,0.00026444130344316363,0.0003661029622890055,0.0015956969000399113,0,1,-1000,1,1,0,-1,1,1,138241.0
02:16:52.153,STABILIZE,-35.3632622,149.1652375,0,-0.0011348262196406722,0.0009634440648369491,0.022580690681934357,0.00026444130344316363,0.0003661029622890055,0.0015956969000399113,0,1,-1000,1,1,0,-1,1,1,138241.0
02:16:52.354,STABILIZE,-35.3632622,149.1652375,0,-0.0011348262196406722,0.0009634440648369491,0.022580690681934357,0.00026444130344316363,0.0003661029622890055,0.0015956969000399113,0,1,-1000,1,1,0,-1,1,1,138241.0
02:16:52.555,STABILIZE,-35.3632622,149.1652375,0,-0.0011348262196406722,0.0009634440648369491,0.022580690681934357,0.00026444130344316363,0.0003661029622890055,0.0015956969000399113,0,1,-1000,1,1,0,-1,1,1,138241.0
02:16:52.757,STABILIZE,-35.3632622,149.1652375,0,-0.0011348262196406722,0.0009634440648369491,0.022580690681934357,0.00026444130344316363,0.0003661029622890055,0.0015956969000399113,0,1,-1000,1,1,0,-1,1,1,138241.0
02:16:52.958,STABILIZE,-35.3632622,149.1652375,0,-0.0011348262196406722,0.0009634440648369491,0.022580690681934357,0.00026444130344316363,0.0003661029622890055,0.0015956969000399113,0,1,-1000,1,1,0,-1,1,1,138241.0
02:16:53.159,STABILIZE,-35.3632622,149.1652375,0,-0.0011809652205556631,0.000972813693806529,0.022352144122123718,0.00020785361994057894,0.00033062539296224713,0.0014764087973162532,0,2,-1000,1,0,0,-1,0,0,138241.0
02:16:53.360,STABILIZE,-35.3632622,149.1652375,0,-0.0011862242827191949,0.0009765625,0.022309785708785057,0.0002716786111705005,0.00024843623396009207,0.0015682666562497616,0,1,-1000,0,0,1,-1,0,0,138241.0
02:16:53.562,STABILIZE,-35.3632622,149.1652375,0,-0.0011897756485268474,0.000979987671598792,0.02226579561829567,0.00027330993907526135,0.00028961984207853675,0.0014210010413080454,0,1,-1000,0,0,1,-1,0,0,138241.0
02:16:53.763,STABILIZE,-35.3632622,149.1652375,0,-0.001195100019685924,0.0009839405538514256,0.022238992154598236,0.0002668134984560311,0.0003553140559233725,0.0014921959955245256,0,1,-1000,1,0,0,-1,0,0,138241.0
02:16:53.965,STABILIZE,-35.3632622,149.1652375,0,-0.001195100019685924,0.0009839405538514256,0.022238992154598236,0.0002668134984560311,0.0003553140559233725,0.0014921959955245256,0,1,-1000,1,0,0,-1,0,0,138241.0
02:16:54.166,STABILIZE,-35.3632622,149.1652375,0,-0.001195100019685924,0.0009839405538514256,0.022238992154598236,0.0002668134984560311,0.0003553140559233725,0.0014921959955245256,0,1,-1000,1,0,0,-1,0,0,138241.0
02:16:54.367,STABILIZE,-35.3632622,149.1652375,0,-0.001198314712382853,0.0009864572202786803,0.022126246243715286,0.00022750935750082135,0.00039518752600997686,0.0013905444648116827,0,2,-1000,0,0,0,-1,0,0,138241.0
02:16:54.572,AUTO,-35.3632622,149.1652375,0,-0.001198314712382853,0.0009864572202786803,0.022126246243715286,0.00022750935750082135,0.00039518752600997686,0.0013905444648116827,0,2,-1000,0,0,0,-1,0,0,138241.0
02:16:54.774,AUTO,-35.3632622,149.1652375,0,-0.001198314712382853,0.0009864572202786803,0.022126246243715286,0.00022750935750082135,0.00039518752600997686,0.0013905444648116827,0,2,-1000,0,0,0,-1,0,0,138241.0
02:16:54.975,AUTO,-35.3632622,149.1652375,0,-0.001198314712382853,0.0009864572202786803,0.022126246243715286,0.00022750935750082135,0.00039518752600997686,0.0013905444648116827,0,2,-1000,0,0,0,-1,0,0,138241.0
02:16:55.219,AUTO,-35.3632622,149.1652375,6,-0.0010108589194715023,0.0009769544703885913,0.021985821425914764,0.00013544218381866813,0.0002988001797348261,0.001465849345549941,0,1,-1000,0,1,1,-1,0,0,138241.0
02:16:55.473,AUTO,-35.3632622,149.1652375,7,-0.0009905267506837845,0.0009790949989110231,0.02194160595536232,0.00036566093331202865,0.00022207869915291667,0.0015504088951274753,0,1,-1000,0,0,0,-1,0,0,138241.0
02:16:55.700,AUTO,-35.3632621,149.1652375,7,-0.0009638138581067324,0.0009995613945648074,0.021897491067647934,0.0002935389638878405,0.00029728387016803026,0.00153796945232898,0,1,-1000,0,1,0,0,0,0,138241.0
02:16:55.971,AUTO,-35.3632621,149.1652375,8,-0.0009411691571585834,0.0010312306694686413,0.0218352023512125,0.000244590628426522,0.0002145082107745111,0.0013325947802513838,0,1,-1000,1,0,0,0,0,0,138241.0
02:16:56.173,AUTO,-35.3632621,149.1652375,9,-0.0009004793828353286,0.0010755389230325818,0.02178976871073246,0.00030337838688865304,0.00027585175121203065,0.0013834768906235695,0,1,-1000,0,0,0,0,0,0,138241.0
02:16:56.375,AUTO,-35.3632621,149.1652375,9,-0.0008534505614079535,0.0011397124035283923,0.02174927480518818,0.000214684521779418,0.000254322134424001,0.0015033390372991562,0,1,-1000,1,0,0,0,0,0,138241.0
02:16:56.577,AUTO,-35.3632621,149.1652375,9,-0.0008534505614079535,0.0011397124035283923,0.02174927480518818,0.000214684521779418,0.000254322134424001,0.0015033390372991562,0,1,-1000,1,0,0,0,0,0,138241.0
02:16:56.780,AUTO,-35.3632621,149.1652375,9,-0.0008534505614079535,0.0011397124035283923,0.02174927480518818,0.000214684521779418,0.000254322134424001,0.0015033390372991562,0,1,-1000,1,0,0,0,0,0,138241.0
02:16:56.982,AUTO,-35.3632621,149.1652375,9,-0.0008534505614079535,0.0011397124035283923,0.02174927480518818,0.000214684521779418,0.000254322134424001,0.0015033390372991562,0,1,-1000,1,0,0,0,0,0,173796.0
02:16:57.183,AUTO,-35.3632621,149.1652375,11,-0.0007044885423965752,0.0013529914431273937,0.021580897271633148,0.00027999922167509794,0.0003148483228869736,0.001441481988877058,0,2,-1000,1,1,1,0,0,0,173796.0
02:16:57.385,AUTO,-35.3632621,149.1652375,11,-0.0006604712689295411,0.0014149189228191972,0.021517112851142883,0.00038491422310471535,0.0002608966315165162,0.0013198842061683536,0,1,-1000,1,0,1,0,0,0,173796.0
02:16:57.586,AUTO,-35.3632621,149.1652375,12,-0.0006030307267792523,0.0014843156095594168,0.02144927904009819,0.000368255830835551,0.0002472106134518981,0.0014098715037107468,0,1,-1000,1,1,0,0,0,0,173796.0
02:16:57.788,AUTO,-35.3632621,149.1652375,12,-0.0005405366537161171,0.0015564329223707318,0.02139224112033844,0.00034818198764696717,0.00034037354635074735,0.0014962564455345273,0,2,-1000,0,1,1,0,0,0,173796.0
02:16:57.989,AUTO,-35.3632621,149.1652375,13,-0.00048152022645808756,0.0016319896094501019,0.021333979442715645,0.00034629175206646323,0.00028769095661118627,0.0013955682516098022,0,1,-1000,1,0,0,0,0,0,173796.0
02:16:58.191,AUTO,-35.3632621,149.1652375,13,-0.00048152022645808756,0.0016319896094501019,0.021333979442715645,0.00034629175206646323,0.00028769095661118627,0.0013955682516098022,0,1,-1000,1,0,0,0,0,0,173796.0
02:16:58.393,AUTO,-35.3632621,149.1652375,13,-0.00041327992221340537,0.0017097790259867907,0.021265046671032906,0.00039030483458191156,0.0002585648326203227,0.0013677639653906226,0,1,-1000,0,0,1,0,0,0,173796.0
02:16:58.597,AUTO,-35.3632621,149.1652375,13,-0.00041327992221340537,0.0017097790259867907,0.021265046671032906,0.00039030483458191156,0.0002585648326203227,0.0013677639653906226,0,1,-1000,0,0,1,0,0,0,173796.0
02:16:58.799,AUTO,-35.3632621,149.1652375,13,-0.00041327992221340537,0.0017097790259867907,0.021265046671032906,0.00039030483458191156,0.0002585648326203227,0.0013677639653906226,0,1,-1000,0,0,1,0,0,0,173796.0
02:16:59.003,AUTO,-35.3632621,149.1652375,13,-0.00041327992221340537,0.0017097790259867907,0.021265046671032906,0.00039030483458191156,0.0002585648326203227,0.0013677639653906226,0,1,-1000,0,0,1,0,0,0,173796.0
02:16:59.205,AUTO,-35.3632621,149.1652375,283,0.002242554444819689,0.0006246454431675375,0.021390695124864578,-0.005614712834358215,0.0033939059358090162,0.0033915226813405752,0,0,-1122,-4,4,3,0,1,-84,173796.0
02:16:59.407,AUTO,-35.3632621,149.1652375,523,0.001503031817264855,0.001356214634142816,0.021196171641349792,-0.006495028268545866,0.00226932717487216,0.00040788890328258276,0,0,-1102,-5,2,0,0,1,-110,173796.0
02:16:59.608,AUTO,-35.3632621,149.1652375,834,0.004155980423092842,0.001495709060691297,0.020839529111981392,0.03716026619076729,-0.0030527568887919188,0.0003228526911698282,0,0,-1068,37,-2,0,0,1,-132,173796.0
02:16:59.810,AUTO,-35.3632621,149.1652375,834,0.004155980423092842,0.001495709060691297,0.020839529111981392,0.03716026619076729,-0.0030527568887919188,0.0003228526911698282,0,0,-1068,37,-2,0,0,1,-132,173796.0
02:17:00.041,AUTO,-35.3632621,149.1652375,1187,0.015703663229942322,7.273699156939983e-05,0.02068023383617401,0.047828253358602524,-0.006594977807253599,0.001549271633848548,0,0,-1029,48,-6,1,0,3,-142,173796.0
02:17:00.268,AUTO,-35.363262,149.1652376,1559,0.02740645594894886,-0.0017912860494107008,0.020709434524178505,0.046218372881412506,-0.007554147392511368,0.0023084108252078295,0,0,-1012,46,-7,1,1,8,-147,173796.0
02:17:00.526,AUTO,-35.363262,149.1652378,1940,0.03861996531486511,-0.003867190098389983,0.02087581902742386,0.04388308897614479,-0.008700772188603878,0.0028885395731776953,0,-2,-1005,44,-8,2,2,15,-148,173796.0
02:17:00.729,AUTO,-35.363262,149.1652378,1940,0.03861996531486511,-0.003867190098389983,0.02087581902742386,0.04388308897614479,-0.008700772188603878,0.0028885395731776953,0,-2,-1005,44,-8,2,2,15,-148,173796.0
02:17:00.931,AUTO,-35.363262,149.1652378,1940,0.03861996531486511,-0.003867190098389983,0.02087581902742386,0.04388308897614479,-0.008700772188603878,0.0028885395731776953,0,-2,-1005,44,-8,2,2,15,-148,173796.0
02:17:01.133,AUTO,-35.3632615,149.1652403,3090,0.056704822927713394,-0.0026076107751578093,-0.015681123360991478,-0.06695643812417984,0.07808243483304977,-0.09169509261846542,0,-9,-991,-65,78,-92,9,48,-147,173796.0
02:17:01.335,AUTO,-35.3632615,149.1652403,3090,0.056704822927713394,-0.0026076107751578093,-0.015681123360991478,-0.06695643812417984,0.07808243483304977,-0.09169509261846542,0,-9,-991,-65,78,-92,9,48,-147,173796.0
02:17:01.537,AUTO,-35.3632613,149.1652417,3469,0.023520836606621742,0.02062266506254673,-0.03975849226117134,-0.18348467350006104,0.05381977930665016,-0.08493294566869736,3,-14,-993,-182,54,-85,8,55,-145,173796.0
02:17:01.739,AUTO,-35.3632611,149.1652431,3844,-0.014913340099155903,0.020398536697030067,-0.053627967834472656,-0.08861516416072845,-0.0394660085439682,-0.03440147265791893,4,-10,-1012,-88,-39,-34,5,52,-146,160500.0
02:17:01.941,AUTO,-35.3632609,149.1652444,4225,-0.02767881006002426,0.006627308204770088,-0.056775134056806564,-0.02922886796295643,-0.04559338092803955,-0.019351711496710777,4,-10,-1009,-28,-45,-19,3,43,-149,160500.0
02:17:02.143,AUTO,-35.3632608,149.1652454,4610,-0.035499170422554016,0.000327326386468485,-0.06220441684126854,-0.045686304569244385,-0.0029210448265075684,-0.03628998249769211,4,-9,-1001,-44,-2,-36,4,32,-150,160500.0
02:17:02.345,AUTO,-35.3632607,149.1652461,4995,-0.051998868584632874,0.0027039004489779472,-0.07362068444490433,-0.08411023020744324,0.01845879666507244,-0.05080174282193184,2,-6,-998,-83,18,-51,4,20,-149,160500.0
02:17:02.547,AUTO,-35.3632607,149.1652461,4995,-0.051998868584632874,0.0027039004489779472,-0.07362068444490433,-0.08411023020744324,0.01845879666507244,-0.05080174282193184,2,-6,-998,-83,18,-51,4,20,-149,160500.0
02:17:02.749,AUTO,-35.3632607,149.1652461,4995,-0.051998868584632874,0.0027039004489779472,-0.07362068444490433,-0.08411023020744324,0.01845879666507244,-0.05080174282193184,2,-6,-998,-83,18,-51,4,20,-149,160500.0
02:17:02.950,AUTO,-35.3632607,149.1652461,4995,-0.051998868584632874,0.0027039004489779472,-0.07362068444490433,-0.08411023020744324,0.01845879666507244,-0.05080174282193184,2,-6,-998,-83,18,-51,4,20,-149,160500.0
02:17:03.152,AUTO,-35.3632606,149.1652457,6146,-0.06879514455795288,0.005960527807474136,-0.10638295859098434,0.05354354530572891,-0.0007876670570112765,-0.024584684520959854,-2,4,-1001,54,0,-24,-3,-35,-149,160500.0
02:17:03.354,AUTO,-35.3632606,149.1652445,6529,-0.05466042459011078,0.006118673365563154,-0.11185774952173233,0.059349846094846725,0.004154672846198082,-0.016919828951358795,-3,7,-1000,60,4,-17,-7,-48,-149,160500.0
02:17:03.556,AUTO,-35.3632606,149.1652445,6529,-0.05466042459011078,0.006118673365563154,-0.11185774952173233,0.059349846094846725,0.004154672846198082,-0.016919828951358795,-3,7,-1000,60,4,-17,-7,-48,-149,160500.0
02:17:03.757,AUTO,-35.3632608,149.1652431,6912,-0.03913549333810806,0.007454365957528353,-0.11563707143068314,0.06407833844423294,0.007289241533726454,-0.010316968895494938,-6,12,-1001,64,7,-10,-10,-57,-149,160500.0
02:17:03.959,AUTO,-35.3632611,149.1652414,7296,-0.02278212271630764,0.009559838101267815,-0.11784550547599792,0.06838325411081314,0.009960878640413284,-0.007263881154358387,-6,12,-1002,69,10,-7,-14,-62,-150,160500.0
02:17:04.162,AUTO,-35.3632615,149.1652397,7682,-0.00573428999632597,0.01187730673700571,-0.11884216964244843,0.06970823556184769,0.009506717324256897,-0.002787788165733218,-6,15,-1003,70,10,-2,-18,-62,-151,160500.0
02:17:04.364,AUTO,-35.3632619,149.165238,8069,0.011663848534226418,0.014025132171809673,-0.1188526600599289,0.06994693726301193,0.006952457129955292,0.0007952073938213289,-6,16,-1004,70,7,0,-21,-57,-152,160500.0
02:17:04.566,AUTO,-35.3632619,149.165238,8069,0.011663848534226418,0.014025132171809673,-0.1188526600599289,0.06994693726301193,0.006952457129955292,0.0007952073938213289,-6,16,-1004,70,7,0,-21,-57,-152,160500.0
02:17:04.768,AUTO,-35.3632619,149.165238,8069,0.011663848534226418,0.014025132171809673,-0.1188526600599289,0.06994693726301193,0.006952457129955292,0.0007952073938213289,-6,16,-1004,70,7,0,-21,-57,-152,160500.0
02:17:04.970,AUTO,-35.3632619,149.165238,8069,0.011663848534226418,0.014025132171809673,-0.1188526600599289,0.06994693726301193,0.006952457129955292,0.0007952073938213289,-6,16,-1004,70,7,0,-21,-57,-152,160500.0
02:17:05.232,AUTO,-35.3632637,149.1652343,9244,0.06229803338646889,0.014756751246750355,-0.11485318839550018,0.06347505748271942,-0.0070446934551000595,0.007993622682988644,0,10,-1002,64,-6,7,-29,-22,-153,160500.0
02:17:05.518,AUTO,-35.3632643,149.1652338,9636,0.06447216123342514,0.00041789794340729713,-0.10211862623691559,-0.02969449944794178,-0.09577618539333344,0.08125690370798111,3,6,-995,-28,-95,81,-28,-5,-152,160500.0
02:17:05.787,AUTO,-35.3632649,149.1652338,10028,0.05503212288022041,-0.029617587104439735,-0.07722491025924683,-0.032983727753162384,-0.11684677004814148,0.11378908157348633,4,3,-1000,-32,-116,113,-21,9,-151,160500.0
02:17:06.030,AUTO,-35.3632653,149.1652341,10415,0.04921931028366089,-0.056815773248672485,-0.04977325350046158,-0.005135716404765844,-0.0874728336930275,0.11385957151651382,4,-1,-1002,-4,-86,113,-8,20,-151,160500.0
02:17:06.312,AUTO,-35.3632654,149.1652347,10801,0.047800369560718536,-0.07578548043966293,-0.02459137514233589,-0.01956017315387726,-0.06422895938158035,0.09733409434556961,3,-4,-996,-18,-63,96,9,30,-150,160500.0
02:17:06.518,AUTO,-35.363265,149.1652356,11183,0.02340978942811489,-0.0719502717256546,-0.01939317397773266,-0.13506333529949188,0.0813685804605484,-0.030404314398765564,0,-7,-992,-134,82,-30,29,36,-147,160500.0
02:17:06.723,AUTO,-35.363265,149.1652356,11183,0.02340978942811489,-0.0719502717256546,-0.01939317397773266,-0.13506333529949188,0.0813685804605484,-0.030404314398765564,0,-7,-992,-134,82,-30,29,36,-147,160500.0
02:17:06.925,AUTO,-35.363265,149.1652356,11183,0.02340978942811489,-0.0719502717256546,-0.01939317397773266,-0.13506333529949188,0.0813685804605484,-0.030404314398765564,0,-7,-992,-134,82,-30,29,36,-147,29839.0
02:17:07.126,AUTO,-35.3632621,149.1652378,12316,-0.038029745221138,0.004816801752895117,-0.09784587472677231,-0.02051021158695221,0.07025257498025894,-0.11452639847993851,-5,-12,-1009,-19,70,-115,48,13,-150,29839.0
02:17:07.328,AUTO,-35.3632621,149.1652378,12316,-0.038029745221138,0.004816801752895117,-0.09784587472677231,-0.02051021158695221,0.07025257498025894,-0.11452639847993851,-5,-12,-1009,-19,70,-115,48,13,-150,29839.0
02:17:07.529,AUTO,-35.363261,149.165238,12703,-0.04032495990395546,0.018239406868815422,-0.12579984962940216,0.004879304673522711,0.047304220497608185,-0.09689200669527054,-8,-8,-1007,5,47,-97,42,1,-152,29839.0
02:17:07.731,AUTO,-35.3632601,149.1652379,13092,-0.03575406223535538,0.026126360520720482,-0.14762593805789948,0.029848603531718254,0.027722910046577454,-0.07204680144786835,-8,-5,-1004,30,28,-72,34,-8,-153,29839.0
02:17:07.933,AUTO,-35.3632594,149.1652376,13484,-0.027057474479079247,0.031011912971735,-0.1639028787612915,0.04036726802587509,0.018513109534978867,-0.055077388882637024,-8,-2,-1002,41,19,-55,24,-16,-153,29839.0
02:17:08.135,AUTO,-35.363259,149.1652371,13876,-0.016500405967235565,0.03460971638560295,-0.1755591630935669,0.046448733657598495,0.014076178893446922,-0.0399029515683651,-6,0,-1001,47,14,-40,14,-20,-153,29839.0
02:17:08.337,AUTO,-35.363259,149.1652371,13876,-0.016500405967235565,0.03460971638560295,-0.1755591630935669,0.046448733657598495,0.014076178893446922,-0.0399029515683651,-6,0,-1001,47,14,-40,14,-20,-153,29839.0
02:17:08.539,AUTO,-35.3632587,149.1652365,14268,-0.004818331450223923,0.03749961778521538,-0.18387939035892487,0.04967942833900452,0.010635623708367348,-0.02839558944106102,-6,1,-1001,50,11,-28,4,-21,-153,29839.0
02:17:08.740,AUTO,-35.3632587,149.1652365,14268,-0.004818331450223923,0.03749961778521538,-0.18387939035892487,0.04967942833900452,0.010635623708367348,-0.02839558944106102,-6,1,-1001,50,11,-28,4,-21,-153,29839.0
02:17:08.942,AUTO,-35.3632587,149.1652365,14268,-0.004818331450223923,0.03749961778521538,-0.18387939035892487,0.04967942833900452,0.010635623708367348,-0.02839558944106102,-6,1,-1001,50,11,-28,4,-21,-153,29839.0
02:17:09.144,AUTO,-35.3632591,149.1652351,15448,0.02442219667136669,0.0301203615963459,-0.18592464923858643,0.012137260288000107,-0.04713870584964752,0.034523557871580124,0,4,-998,13,-46,34,-20,-6,-153,29839.0
02:17:09.347,AUTO,-35.3632595,149.165235,15838,0.02590964362025261,0.015244602225720882,-0.1738792061805725,-0.0051443795673549175,-0.060848530381917953,0.05132690817117691,2,4,-998,-4,-59,51,-23,0,-152,29839.0
02:17:09.548,AUTO,-35.3632595,149.165235,15838,0.02590964362025261,0.015244602225720882,-0.1738792061805725,-0.0051443795673549175,-0.060848530381917953,0.05132690817117691,2,4,-998,-4,-59,51,-23,0,-152,29839.0
02:17:09.750,AUTO,-35.36326,149.165235,16226,0.02081887423992157,0.004419748205691576,-0.16367459297180176,-0.025023164227604866,-0.026633942499756813,0.027345793321728706,3,3,-999,-24,-25,27,-22,6,-152,29839.0
02:17:09.957,AUTO,-35.3632604,149.1652352,16614,0.014065952971577644,0.0004322058812249452,-0.15846426784992218,-0.02180301956832409,-0.007985930889844894,0.010018258355557919,4,1,-1000,-21,-7,10,-20,10,-152,29839.0
02:17:10.222,AUTO,-35.3632608,149.1652353,17010,0.008151493966579437,-0.0014086985029280186,-0.15699149668216705,-0.019880127161741257,-0.006887376774102449,0.0005908191669732332,4,0,-1000,-18,-6,0,-18,12,-152,29839.0
02:17:10.462,AUTO,-35.3632612,149.1652356,17396,0.003445055801421404,-0.0024596883449703455,-0.15882110595703125,-0.016975753009319305,-0.002302591921761632,-0.01280392985790968,4,0,-1000,-16,-1,-13,-15,12,-152,29839.0
02:17:10.719,AUTO,-35.3632612,149.1652356,17396,0.003445055801421404,-0.0024596883449703455,-0.15882110595703125,-0.016975753009319305,-0.002302591921761632,-0.01280392985790968,4,0,-1000,-16,-1,-13,-15,12,-152,29839.0
02:17:10.948,AUTO,-35.3632612,149.1652356,17396,0.003445055801421404,-0.0024596883449703455,-0.15882110595703125,-0.016975753009319305,-0.002302591921761632,-0.01280392985790968,4,0,-1000,-16,-1,-13,-15,12,-152,29839.0
02:17:11.149,AUTO,-35.3632619,149.1652363,18554,-0.004099094308912754,-0.0043948944658041,-0.17366069555282593,-0.0011487668380141258,-2.1103478502482176e-05,-0.023433398455381393,2,0,-1001,0,0,-23,-9,8,-152,29839.0
02:17:11.351,AUTO,-35.363262,149.1652364,18943,-0.0041586169973015785,-0.004286038223654032,-0.1805259734392166,0.002775652566924691,0.0021209795959293842,-0.027998214587569237,2,0,-1000,3,2,-27,-7,6,-153,29839.0
02:17:11.552,AUTO,-35.363262,149.1652364,18943,-0.0041586169973015785,-0.004286038223654032,-0.1805259734392166,0.002775652566924691,0.0021209795959293842,-0.027998214587569237,2,0,-1000,3,2,-27,-7,6,-153,106842.0
02:17:11.754,AUTO,-35.3632621,149.1652365,19332,-0.003436681115999818,-0.0036732458975166082,-0.18785728514194489,0.0030679069459438324,0.003215336473658681,-0.030067721381783485,1,0,-1000,3,3,-30,-5,4,-153,106842.0
02:17:11.955,AUTO,-35.3632622,149.1652365,19722,-0.0022328891791403294,-0.0027834956999868155,-0.19539986550807953,0.0054051815532147884,0.005048615857958794,-0.031138455495238304,0,0,-1000,6,5,-31,-3,2,-153,106842.0
02:17:12.157,AUTO,-35.3632622,149.1652365,20112,-0.0008003974799066782,-0.0017235290724784136,-0.2028885781764984,0.00726970424875617,0.0062482343055307865,-0.028585633262991905,0,0,-1000,8,7,-28,-2,1,-153,106842.0
02:17:12.358,AUTO,-35.3632622,149.1652365,20502,0.0007016497547738254,-0.0005160128348506987,-0.2102193981409073,0.005070678889751434,0.004795533139258623,-0.027222394943237305,0,0,-1000,6,5,-27,-1,0,-153,106842.0
02:17:12.560,AUTO,-35.3632622,149.1652365,20502,0.0007016497547738254,-0.0005160128348506987,-0.2102193981409073,0.005070678889751434,0.004795533139258623,-0.027222394943237305,0,0,-1000,6,5,-27,-1,0,-153,106842.0
02:17:12.762,AUTO,-35.3632622,149.1652365,20502,0.0007016497547738254,-0.0005160128348506987,-0.2102193981409073,0.005070678889751434,0.004795533139258623,-0.027222394943237305,0,0,-1000,6,5,-27,-1,0,-153,106842.0
02:17:12.963,AUTO,-35.3632622,149.1652365,20502,0.0007016497547738254,-0.0005160128348506987,-0.2102193981409073,0.005070678889751434,0.004795533139258623,-0.027222394943237305,0,0,-1000,6,5,-27,-1,0,-153,106842.0
02:17:13.165,AUTO,-35.3632622,149.1652364,21671,0.004007252864539623,0.002358294790610671,-0.23037268221378326,0.004074742551892996,0.003762488719075918,-0.0235934816300869,0,0,-1000,4,4,-23,0,0,-153,106842.0
02:17:13.366,AUTO,-35.3632622,149.1652364,22060,0.004703964106738567,0.002834650920704007,-0.2361031025648117,0.002734650392085314,0.0024991531390696764,-0.0223534032702446,0,0,-1000,3,3,-22,0,1,-153,106842.0
02:17:13.568,AUTO,-35.3632622,149.1652364,22060,0.004703964106738567,0.002834650920704007,-0.2361031025648117,0.002734650392085314,0.0024991531390696764,-0.0223534032702446,0,0,-1000,3,3,-22,0,1,-153,106842.0
02:17:13.769,AUTO,-35.3632622,149.1652364,22449,0.0052002668380737305,0.0033276285976171494,-0.24163450300693512,0.0026282165199518204,0.0023232093080878258,-0.021426817402243614,0,0,-1000,3,3,-21,0,1,-153,106842.0
02:17:13.971,AUTO,-35.3632622,149.1652364,22839,0.005470312666147947,0.0033937329426407814,-0.24664413928985596,0.002043006708845496,0.0006378649268299341,-0.019845154136419296,0,0,-1000,3,1,-20,-1,2,-153,106842.0
02:17:14.172,AUTO,-35.3632622,149.1652364,23229,0.0053003751672804356,0.0033044733572751284,-0.25137999653816223,-0.0031539257615804672,0.0012126242509111762,-0.019412001594901085,0,0,-999,-1,2,-19,-1,3,-153,106842.0
02:17:14.374,AUTO,-35.3632622,149.1652363,23618,0.004579201806336641,0.0036347501445561647,-0.2562921941280365,-0.0009521292522549629,0.0009918005671352148,-0.01728980801999569,0,0,-1000,0,1,-17,-1,3,-153,106842.0
02:17:14.576,AUTO,-35.3632622,149.1652363,23618,0.004579201806336641,0.0036347501445561647,-0.2562921941280365,-0.0009521292522549629,0.0009918005671352148,-0.01728980801999569,0,0,-1000,0,1,-17,-1,3,-153,106842.0
02:17:14.778,AUTO,-35.3632622,149.1652363,23618,0.004579201806336641,0.0036347501445561647,-0.2562921941280365,-0.0009521292522549629,0.0009918005671352148,-0.01728980801999569,0,0,-1000,0,1,-17,-1,3,-153,106842.0
02:17:14.979,AUTO,-35.3632622,149.1652363,23618,0.004579201806336641,0.0036347501445561647,-0.2562921941280365,-0.0009521292522549629,0.0009918005671352148,-0.01728980801999569,0,0,-1000,0,1,-17,-1,3,-153,106842.0
02:17:15.181,AUTO,-35.3632622,149.1652364,24786,0.0033650025725364685,0.0035131550393998623,-0.27064627408981323,0.00024094345280900598,0.0006706886342726648,-0.01870695874094963,0,0,-1000,1,1,-18,-1,4,-153,106842.0
02:17:15.404,AUTO,-35.3632622,149.1652365,25175,0.0008433997863903642,0.003623558906838298,-0.2755226194858551,-0.07400953769683838,0.0017044279957190156,-0.018234239891171455,0,-3,-988,-73,2,-18,-1,4,-152,106842.0
02:17:15.636,AUTO,-35.3632622,149.1652365,25562,-0.012856160290539265,0.0046645947732031345,-0.2780500650405884,-0.004880568478256464,0.005079477094113827,-0.006236507091671228,0,0,-1003,-3,6,-6,-2,2,-152,106842.0
02:17:15.885,AUTO,-35.3632622,149.1652365,25958,-0.00636328523978591,0.005649510771036148,-0.2779141962528229,0.037338245660066605,0.004115189891308546,0.005387239623814821,0,0,-1003,38,4,5,-3,0,-153,106842.0
02:17:16.139,AUTO,-35.3632622,149.1652364,26348,0.0023549676407128572,0.005700830835849047,-0.2748706340789795,0.030234480276703835,-0.0011559848207980394,0.015432297252118587,0,0,-1001,30,0,15,-4,-1,-153,106842.0
02:17:16.346,AUTO,-35.3632622,149.1652364,26348,0.0023549676407128572,0.005700830835849047,-0.2748706340789795,0.030234480276703835,-0.0011559848207980394,0.015432297252118587,0,0,-1001,30,0,15,-4,-1,-153,106842.0
02:17:16.548,AUTO,-35.3632622,149.1652364,26737,0.008084895089268684,0.0050252689979970455,-0.26983508467674255,0.015839189291000366,-0.0021267998963594437,0.023469438776373863,0,0,-999,16,-1,23,-4,0,-153,106842.0
02:17:16.749,AUTO,-35.3632622,149.1652364,26737,0.008084895089268684,0.0050252689979970455,-0.26983508467674255,0.015839189291000366,-0.0021267998963594437,0.023469438776373863,0,0,-999,16,-1,23,-4,0,-153,106842.0
02:17:16.955,AUTO,-35.3632622,149.1652364,26737,0.008084895089268684,0.0050252689979970455,-0.26983508467674255,0.015839189291000366,-0.0021267998963594437,0.023469438776373863,0,0,-999,16,-1,23,-4,0,-153,20175.0
02:17:17.156,AUTO,-35.3632624,149.1652365,27902,0.009889848530292511,0.0025006053037941456,-0.2512739896774292,-0.0027218095492571592,-0.0016634429339319468,0.026767848059535027,0,0,-999,-1,0,26,-3,6,-152,20175.0
02:17:17.358,AUTO,-35.3632624,149.1652367,28290,0.008122442290186882,0.0017800459172576666,-0.24509942531585693,-0.008270188234746456,-0.0005176808917894959,0.025734838098287582,1,0,-999,-7,0,25,-2,8,-152,20175.0
02:17:17.559,AUTO,-35.3632624,149.1652367,28290,0.008122442290186882,0.0017800459172576666,-0.24509942531585693,-0.008270188234746456,-0.0005176808917894959,0.025734838098287582,1,0,-999,-7,0,25,-2,8,-152,20175.0
02:17:17.761,AUTO,-35.3632624,149.1652368,28677,0.006052746437489986,0.0019207182340323925,-0.23934847116470337,-0.008789480663836002,0.001489067799411714,0.02214767597615719,1,0,-1000,-7,2,22,-2,9,-152,20175.0
02:17:17.962,AUTO,-35.3632624,149.165237,29064,0.004085113760083914,0.0020046632271260023,-0.23378120362758636,-0.004394491668790579,0.0002860110253095627,0.022886551916599274,0,-1,-1000,-3,1,22,-1,9,-152,20175.0
02:17:18.164,AUTO,-35.3632624,149.1652372,29452,0.0023792642168700695,0.001870868494734168,-0.22832109034061432,-0.007824862375855446,0.0005668527446687222,0.022202908992767334,1,-1,-1000,-6,1,22,-1,9,-152,20175.0
02:17:18.366,AUTO,-35.3632624,149.1652374,29840,0.0007321208249777555,0.0015992256812751293,-0.2230270802974701,-0.00474288547411561,-0.00014290306717157364,0.021116582676768303,1,-1,-1000,-3,0,20,0,9,-152,20175.0
02:17:18.567,AUTO,-35.3632624,149.1652374,29840,0.0007321208249777555,0.0015992256812751293,-0.2230270802974701,-0.00474288547411561,-0.00014290306717157364,0.021116582676768303,1,-1,-1000,-3,0,20,0,9,-152,20175.0
02:17:18.769,AUTO,-35.3632624,149.1652374,29840,0.0007321208249777555,0.0015992256812751293,-0.2230270802974701,-0.00474288547411561,-0.00014290306717157364,0.021116582676768303,1,-1,-1000,-3,0,20,0,9,-152,20175.0
02:17:18.971,AUTO,-35.3632624,149.1652374,29840,0.0007321208249777555,0.0015992256812751293,-0.2230270802974701,-0.00474288547411561,-0.00014290306717157364,0.021116582676768303,1,-1,-1000,-3,0,20,0,9,-152,20175.0
02:17:19.173,AUTO,-35.3632624,149.1652379,31004,-0.0015860585262998939,0.0013133740285411477,-0.20889520645141602,0.0030623208731412888,-0.001289985841140151,0.016815083101391792,0,0,-1001,4,0,16,0,6,-153,20175.0
02:17:19.374,AUTO,-35.3632624,149.165238,31392,-0.0016930160345509648,0.0010000860784202814,-0.20454448461532593,-0.0031318168621510267,-0.0006816216628067195,0.016776233911514282,0,-1,-999,-1,0,16,0,5,-153,20175.0
02:17:19.576,AUTO,-35.3632624,149.165238,31392,-0.0016930160345509648,0.0010000860784202814,-0.20454448461532593,-0.0031318168621510267,-0.0006816216628067195,0.016776233911514282,0,-1,-999,-1,0,16,0,5,-153,20175.0
02:17:19.777,AUTO,-35.3632624,149.165238,31779,-0.001410799566656351,0.0009679928189143538,-0.2003394514322281,0.006385271903127432,0.0012442406732589006,0.01826939731836319,0,0,-1001,7,2,17,0,3,-153,20175.0
02:17:20.004,AUTO,-35.3632624,149.1652381,32168,-0.0010397240985184908,0.0010273149237036705,-0.1962679922580719,0.004098661709576845,0.0006485722260549664,0.015732314437627792,0,0,-1000,5,1,15,0,3,-153,20175.0
02:17:20.218,AUTO,-35.3632624,149.1652381,32556,-0.0008381780935451388,0.0008491739281453192,-0.19216614961624146,0.0014205207116901875,-0.000289329094812274,0.0172096099704504,0,0,-1000,2,0,17,0,2,-153,20175.0
02:17:20.432,AUTO,-35.3632624,149.1652381,32944,-0.0003371659549884498,0.0009382072021253407,-0.18834717571735382,0.00062168063595891,0.00032505334820598364,0.014772429130971432,0,0,-1000,1,1,14,0,1,-153,20175.0
02:17:20.639,AUTO,-35.3632624,149.1652381,32944,-0.0003371659549884498,0.0009382072021253407,-0.18834717571735382,0.00062168063595891,0.00032505334820598364,0.014772429130971432,0,0,-1000,1,1,14,0,1,-153,20175.0
02:17:20.846,AUTO,-35.3632624,149.1652381,32944,-0.0003371659549884498,0.0009382072021253407,-0.18834717571735382,0.00062168063595891,0.00032505334820598364,0.014772429130971432,0,0,-1000,1,1,14,0,1,-153,20175.0
02:17:21.047,AUTO,-35.3632624,149.1652381,32944,-0.0003371659549884498,0.0009382072021253407,-0.18834717571735382,0.00062168063595891,0.00032505334820598364,0.014772429130971432,0,0,-1000,1,1,14,0,1,-153,20175.0
02:17:21.249,AUTO,-35.3632624,149.1652381,34110,0.000535406346898526,0.0007392194238491356,-0.17781130969524384,0.0022664079442620277,0.0003350883489474654,0.013006702996790409,0,0,-1000,3,1,12,0,0,-153,20175.0
02:17:21.450,AUTO,-35.3632623,149.1652381,34498,0.0007722974987700582,0.0007106125121936202,-0.17469649016857147,-0.0005992524093016982,-0.0009467904455959797,0.012258009053766727,0,0,-1000,0,0,12,0,0,-153,20175.0
02:17:21.652,AUTO,-35.3632623,149.1652381,34887,0.0009705087286420166,0.0007172118639573455,-0.17159023880958557,0.0018756550271064043,0.0008741063065826893,0.013640617951750755,0,0,-1000,3,2,13,0,0,-153,218400.0
02:17:21.855,AUTO,-35.3632623,149.165238,35278,0.0012843924341723323,0.0008241076720878482,-0.16848064959049225,0.0012310633901506662,0.0007830894319340587,0.011752398684620857,0,0,-1000,2,1,11,0,0,-153,218400.0
02:17:22.056,AUTO,-35.3632623,149.165238,35278,0.0012843924341723323,0.0008241076720878482,-0.16848064959049225,0.0012310633901506662,0.0007830894319340587,0.011752398684620857,0,0,-1000,2,1,11,0,0,-153,218400.0
02:17:22.258,AUTO,-35.3632623,149.165238,35667,0.001342738512903452,0.0007345669437199831,-0.16546499729156494,-0.0005601256852969527,-0.0006174333393573761,0.011290651746094227,0,0,-1000,0,0,11,0,0,-153,218400.0
02:17:22.460,AUTO,-35.3632623,149.1652379,36055,0.001439462648704648,0.0010168245062232018,-0.1625814139842987,0.0012015040265396237,0.0015038913115859032,0.014406951144337654,0,0,-1000,2,2,14,0,0,-153,218400.0
02:17:22.661,AUTO,-35.3632623,149.1652379,36055,0.001439462648704648,0.0010168245062232018,-0.1625814139842987,0.0012015040265396237,0.0015038913115859032,0.014406951144337654,0,0,-1000,2,2,14,0,0,-153,218400.0
02:17:22.863,AUTO,-35.3632623,149.1652379,36055,0.001439462648704648,0.0010168245062232018,-0.1625814139842987,0.0012015040265396237,0.0015038913115859032,0.014406951144337654,0,0,-1000,2,2,14,0,0,-153,218400.0
02:17:23.064,AUTO,-35.3632623,149.1652379,36055,0.001439462648704648,0.0010168245062232018,-0.1625814139842987,0.0012015040265396237,0.0015038913115859032,0.014406951144337654,0,0,-1000,2,2,14,0,0,-153,218400.0
02:17:23.266,AUTO,-35.3632622,149.1652378,37215,0.0017500175163149834,0.0013975616311654449,-0.15486527979373932,-0.0002894005738198757,0.00040353916119784117,0.009412545710802078,0,0,-1000,1,1,9,0,0,-153,218400.0
02:17:23.467,AUTO,-35.3632622,149.1652378,37604,0.0018113467376679182,0.0013343821046873927,-0.15220564603805542,0.0016762089217081666,0.000378243625164032,0.013267338275909424,0,0,-1000,2,1,13,0,0,-153,218400.0
02:17:23.669,AUTO,-35.3632622,149.1652377,37984,-0.015359601005911827,0.01813560351729393,-0.11384115368127823,-0.12580180168151855,0.12601056694984436,0.2902297079563141,-1,0,-962,-124,127,290,-1,-1,-146,218400.0
02:17:23.870,AUTO,-35.3632622,149.1652375,38343,-0.051162708550691605,0.06090087071061134,0.0021951787639409304,-0.1839384138584137,0.1594029814004898,0.6251794695854187,0,0,-967,-182,160,625,-11,-9,-137,218400.0
02:17:24.072,AUTO,-35.3632622,149.1652375,38343,-0.051162708550691605,0.06090087071061134,0.0021951787639409304,-0.1839384138584137,0.1594029814004898,0.6251794695854187,0,0,-967,-182,160,625,-11,-9,-137,218400.0
02:17:24.273,AUTO,-35.3632626,149.165237,38673,-0.061323132365942,0.06887418776750565,0.12957358360290527,0.024875963106751442,-0.14282916486263275,0.3725477457046509,2,5,-929,25,-141,372,-26,-23,-121,218400.0
02:17:24.475,AUTO,-35.3632633,149.1652362,38958,-0.03640535846352577,0.020983997732400894,0.19307935237884521,0.11677642911672592,-0.2098730206489563,0.15958371758460999,4,8,-933,118,-208,159,-33,-34,-103,218400.0
02:17:24.677,AUTO,-35.3632633,149.1652362,38958,-0.03640535846352577,0.020983997732400894,0.19307935237884521,0.11677642911672592,-0.2098730206489563,0.15958371758460999,4,8,-933,118,-208,159,-33,-34,-103,218400.0
02:17:24.878,AUTO,-35.3632633,149.1652362,38958,-0.03640535846352577,0.020983997732400894,0.19307935237884521,0.11677642911672592,-0.2098730206489563,0.15958371758460999,4,8,-933,118,-208,159,-33,-34,-103,218400.0
02:17:25.080,AUTO,-35.3632633,149.1652362,38958,-0.03640535846352577,0.020983997732400894,0.19307935237884521,0.11677642911672592,-0.2098730206489563,0.15958371758460999,4,8,-933,118,-208,159,-33,-34,-103,218400.0
02:17:25.306,AUTO,-35.3632649,149.1652334,39587,0.03199533000588417,-0.053430426865816116,0.21554984152317047,0.04341873154044151,-0.01252581924200058,-0.02710578963160515,0,6,-959,44,-11,-26,-12,-21,-64,218400.0
02:17:25.533,AUTO,-35.3632651,149.1652329,39737,0.04063820838928223,-0.051812075078487396,0.2070898711681366,0.038693495094776154,0.01833825744688511,-0.03440770506858826,0,4,-966,39,19,-34,-2,-9,-54,218400.0
02:17:25.834,AUTO,-35.363265,149.1652328,39864,0.04253149777650833,-0.04443733021616936,0.19805674254894257,0.015431452542543411,0.035759877413511276,-0.03405196592211723,-1,0,-972,16,36,-33,7,2,-46,218400.0
02:17:26.130,AUTO,-35.3632645,149.1652333,40064,0.03171427920460701,-0.023432843387126923,0.18241730332374573,0.027667934074997902,0.039643291383981705,-0.025481734424829483,-4,4,-980,29,40,-25,18,20,-34,218400.0
02:17:26.332,AUTO,-35.3632645,149.1652333,40064,0.03171427920460701,-0.023432843387126923,0.18241730332374573,0.027667934074997902,0.039643291383981705,-0.025481734424829483,-4,4,-980,29,40,-25,18,20,-34,218400.0
02:17:26.538,AUTO,-35.363264,149.1652337,40141,0.03334077075123787,-0.013298047706484795,0.17547298967838287,0.5495026111602783,0.03563825786113739,-0.026072833687067032,-3,10,-967,550,36,-25,21,25,-26,218400.0
02:17:26.740,AUTO,-35.363264,149.1652337,40141,0.03334077075123787,-0.013298047706484795,0.17547298967838287,0.5495026111602783,0.03563825786113739,-0.026072833687067032,-3,10,-967,550,36,-25,21,25,-26,218400.0
02:17:26.943,AUTO,-35.363264,149.1652337,40141,0.03334077075123787,-0.013298047706484795,0.17547298967838287,0.5495026111602783,0.03563825786113739,-0.026072833687067032,-3,10,-967,550,36,-25,21,25,-26,21359.0
02:17:27.145,AUTO,-35.3632624,149.1652358,40275,-0.0013920617057010531,0.010196246206760406,0.15704375505447388,-0.5968201160430908,0.02389405481517315,-0.014468989335000515,-3,-25,-978,-595,24,-14,20,29,-11,21359.0
02:17:27.346,AUTO,-35.3632624,149.1652358,40275,-0.0013920617057010531,0.010196246206760406,0.15704375505447388,-0.5968201160430908,0.02389405481517315,-0.014468989335000515,-3,-25,-978,-595,24,-14,20,29,-11,21359.0
02:17:27.548,AUTO,-35.3632619,149.1652365,40294,-0.002687306609004736,0.013609422370791435,0.15252333879470825,0.04821617528796196,0.011387801729142666,-0.011626084335148335,-1,10,-967,50,12,-11,17,28,-5,21359.0
02:17:27.749,AUTO,-35.3632615,149.1652371,40295,-0.0035412556026130915,0.022425198927521706,0.15482822060585022,0.4939919710159302,0.20815856754779816,0.12629704177379608,-5,33,-959,496,209,126,13,25,2,21359.0
02:17:27.951,AUTO,-35.3632613,149.1652375,40262,-0.014886199496686459,0.04670092463493347,0.1504468023777008,0.8670096397399902,-0.008162802085280418,-0.01887151598930359,0,38,-1002,868,-6,-18,5,17,16,21359.0
02:17:28.152,AUTO,-35.3632612,149.1652377,40220,-0.017605610191822052,0.028290171176195145,0.14474448561668396,0.611398458480835,-0.09466329216957092,-0.017250418663024902,1,12,-1001,612,-93,-16,-2,8,14,21359.0
02:17:28.354,AUTO,-35.3632612,149.1652376,40181,-0.026753654703497887,0.009910895489156246,0.14024439454078674,-0.14533114433288574,-0.05771838128566742,-0.015195406042039394,0,-21,-1026,-145,-56,-15,-6,-1,10,21359.0
02:17:28.556,AUTO,-35.3632612,149.1652376,40181,-0.026753654703497887,0.009910895489156246,0.14024439454078674,-0.14533114433288574,-0.05771838128566742,-0.015195406042039394,0,-21,-1026,-145,-56,-15,-6,-1,10,21359.0
02:17:28.757,AUTO,-35.3632612,149.1652376,40181,-0.026753654703497887,0.009910895489156246,0.14024439454078674,-0.14533114433288574,-0.05771838128566742,-0.015195406042039394,0,-21,-1026,-145,-56,-15,-6,-1,10,21359.0
02:17:28.959,AUTO,-35.3632612,149.1652376,40181,-0.026753654703497887,0.009910895489156246,0.14024439454078674,-0.14533114433288574,-0.05771838128566742,-0.015195406042039394,0,-21,-1026,-145,-56,-15,-6,-1,10,21359.0
02:17:29.161,AUTO,-35.3632614,149.165236,40109,-0.027658049017190933,-0.014824881218373775,0.1283557415008545,-0.7074123620986938,-0.018915599212050438,-0.017769034951925278,-4,-27,-1001,-706,-18,-17,-2,-21,2,21359.0
02:17:29.362,AUTO,-35.3632615,149.1652351,40101,-0.028379132971167564,-0.020295044407248497,0.12497907131910324,-0.5034244656562805,-0.020952189341187477,-0.017384234815835953,-5,-1,-1018,-501,-19,-17,1,-25,0,21359.0
02:17:29.565,AUTO,-35.3632615,149.1652351,40101,-0.028379132971167564,-0.020295044407248497,0.12497907131910324,-0.5034244656562805,-0.020952189341187477,-0.017384234815835953,-5,-1,-1018,-501,-19,-17,1,-25,0,21359.0
02:17:29.772,AUTO,-35.3632615,149.165234,40103,-0.0325358621776104,-0.02545630931854248,0.12135311216115952,0.15100322663784027,-0.016037538647651672,-0.019115634262561798,-7,35,-991,153,-15,-18,6,-30,-3,21359.0
02:17:30.029,AUTO,-35.3632613,149.1652327,40107,-0.03419773653149605,-0.030947990715503693,0.11790774017572403,0.5764132142066956,-0.021588340401649475,-0.021420350298285484,-6,45,-1018,578,-20,-21,11,-37,-5,21359.0
02:17:30.259,AUTO,-35.363261,149.1652312,40117,-0.04079429805278778,-0.03833490610122681,0.07557027041912079,0.6015594601631165,-0.050038743764162064,-0.3889990448951721,-10,43,-1040,603,-48,-388,18,-47,-7,21359.0
02:17:30.511,AUTO,-35.3632605,149.1652295,40131,-0.047071170061826706,-0.05169186368584633,-0.0856650248169899,0.4961908459663391,-0.05077756196260452,-0.7811503410339355,-12,25,-998,497,-49,-780,25,-59,-7,21359.0
02:17:30.729,AUTO,-35.3632605,149.1652295,40131,-0.047071170061826706,-0.05169186368584633,-0.0856650248169899,0.4961908459663391,-0.05077756196260452,-0.7811503410339355,-12,25,-998,497,-49,-780,25,-59,-7,21359.0
02:17:31.012,AUTO,-35.3632605,149.1652295,40131,-0.047071170061826706,-0.05169186368584633,-0.0856650248169899,0.4961908459663391,-0.05077756196260452,-0.7811503410339355,-12,25,-998,497,-49,-780,25,-59,-7,21359.0
02:17:31.225,AUTO,-35.3632583,149.1652216,40197,-0.031604863703250885,-0.10176002979278564,-0.7209613919258118,-0.38890179991722107,-0.029207605868577957,-0.8067300915718079,-33,-10,-1013,-386,-28,-806,47,-110,-12,21359.0
02:17:31.427,AUTO,-35.3632572,149.1652179,40227,-0.007821398787200451,-0.115696020424366,-0.9165947437286377,0.10395701229572296,-0.04400842636823654,-0.7598550319671631,-34,8,-1008,106,-43,-759,56,-129,-13,21359.0
02:17:31.628,AUTO,-35.3632559,149.1652137,40259,0.013703587464988232,-0.12404926121234894,-1.0819158554077148,0.3443683087825775,-0.03323426470160484,-0.4990213215351105,-32,10,-995,347,-32,-498,65,-150,-12,37285.0
02:17:31.830,AUTO,-35.3632559,149.1652137,40259,0.013703587464988232,-0.12404926121234894,-1.0819158554077148,0.3443683087825775,-0.03323426470160484,-0.4990213215351105,-32,10,-995,347,-32,-498,65,-150,-12,37285.0
02:17:32.032,AUTO,-35.3632545,149.1652089,40294,0.03348633274435997,-0.13165345788002014,-1.144960641860962,0.48060473799705505,-0.02092708647251129,-0.07085810601711273,-41,-7,-1022,482,-20,-70,73,-173,-16,37285.0
02:17:32.234,AUTO,-35.3632528,149.1652035,40337,0.03307671472430229,-0.14321263134479523,-1.1383421421051025,0.08724714070558548,-0.034438606351614,0.11249285936355591,-45,-37,-1005,87,-33,112,83,-196,-19,37285.0
02:17:32.436,AUTO,-35.3632508,149.1651974,40386,0.025619015097618103,-0.1570897102355957,-1.1130098104476929,-0.3326908051967621,-0.03851955384016037,0.11743918806314468,-55,-44,-1015,-331,-37,118,94,-221,-21,37285.0
02:17:32.638,AUTO,-35.3632508,149.1651974,40386,0.025619015097618103,-0.1570897102355957,-1.1130098104476929,-0.3326908051967621,-0.03851955384016037,0.11743918806314468,-55,-44,-1015,-331,-37,118,94,-221,-21,37285.0
02:17:32.840,AUTO,-35.3632508,149.1651974,40386,0.025619015097618103,-0.1570897102355957,-1.1130098104476929,-0.3326908051967621,-0.03851955384016037,0.11743918806314468,-55,-44,-1015,-331,-37,118,94,-221,-21,37285.0
02:17:33.041,AUTO,-35.3632508,149.1651974,40386,0.025619015097618103,-0.1570897102355957,-1.1130098104476929,-0.3326908051967621,-0.03851955384016037,0.11743918806314468,-55,-44,-1015,-331,-37,118,94,-221,-21,37285.0
02:17:33.243,AUTO,-35.3632433,149.1651752,40569,0.025821993127465248,-0.16073359549045563,-1.0820395946502686,0.12791649997234344,-0.03654845431447029,-0.006175797898322344,-71,-21,-1014,129,-35,-5,127,-295,-29,37285.0
02:17:33.445,AUTO,-35.3632403,149.1651666,40644,0.022918928414583206,-0.17019179463386536,-1.0841113328933716,-0.1741597205400467,-0.03523747995495796,0.005606767255812883,-67,-50,-1006,-172,-33,6,135,-318,-31,37285.0
02:17:33.648,AUTO,-35.3632371,149.1651573,40724,0.020910724997520447,-0.1709568053483963,-1.0871527194976807,-0.04816734790802002,0.057382144033908844,-0.008061283268034458,-79,-34,-1014,-46,58,-7,145,-342,-33,37285.0
02:17:33.851,AUTO,-35.3632336,149.1651475,40815,0.029093416407704353,-0.13018381595611572,-1.0887815952301025,0.21374763548374176,0.21317985653877258,-0.01784944348037243,-64,-51,-1028,215,214,-17,151,-363,-39,37285.0
02:17:34.053,AUTO,-35.3632336,149.1651475,40815,0.029093416407704353,-0.13018381595611572,-1.0887815952301025,0.21374763548374176,0.21317985653877258,-0.01784944348037243,-64,-51,-1028,215,214,-17,151,-363,-39,37285.0
02:17:34.255,AUTO,-35.3632301,149.1651373,40926,0.034949515014886856,-0.07460950314998627,-1.0908348560333252,-0.15360823273658752,0.20874746143817902,-0.012778347358107567,-98,-42,-1027,-152,209,-12,153,-368,-48,37285.0
02:17:34.457,AUTO,-35.3632265,149.1651273,41054,0.035080280154943466,-0.030947746708989143,-1.091924786567688,-0.05642196908593178,0.10509876906871796,-0.01375039853155613,-89,-29,-1010,-54,106,-13,150,-361,-53,37285.0
02:17:34.659,AUTO,-35.3632265,149.1651273,41054,0.035080280154943466,-0.030947746708989143,-1.091924786567688,-0.05642196908593178,0.10509876906871796,-0.01375039853155613,-89,-29,-1010,-54,106,-13,150,-361,-53,37285.0
02:17:34.861,AUTO,-35.3632265,149.1651273,41054,0.035080280154943466,-0.030947746708989143,-1.091924786567688,-0.05642196908593178,0.10509876906871796,-0.01375039853155613,-89,-29,-1010,-54,106,-13,150,-361,-53,37285.0
02:17:35.063,AUTO,-35.3632265,149.1651273,41054,0.035080280154943466,-0.030947746708989143,-1.091924786567688,-0.05642196908593178,0.10509876906871796,-0.01375039853155613,-89,-29,-1010,-54,106,-13,150,-361,-53,37285.0
02:17:35.265,AUTO,-35.3632164,149.1650986,41416,0.030866915360093117,-0.015237055718898773,-1.096671462059021,-0.4318769574165344,0.021042363718152046,0.0025515854358673096,-83,-62,-983,-430,22,2,132,-328,-40,37285.0
