time_stamp,MODE,lat,lon,relative_alt,roll,pitch,yaw,rollspeed,pitchspeed,yawspeed,xacc,yacc,zacc,xgyro,ygyro,zgyro,vx,vy,vz,alt,VFR_HUD_alt,EK2_ALT_SOURCE,RTL_ALT
10:13:56.292,STABILIZE,-35.3632621,149.1652374,67,-0.00019278244872111827,0.0013066331157460809,0.028257112950086594,0.0002469586906954646,0.00030393237830139697,0.0023113247007131577,0,1,-1000,0,0,0,-3,2,-3,583990,584.0399780273438,0.0,1500.0
10:13:56.496,STABILIZE,-35.3632621,149.1652374,67,-0.00019278244872111827,0.0013066331157460809,0.028257112950086594,0.0002469586906954646,0.00030393237830139697,0.0023113247007131577,0,1,-1000,0,0,0,-3,2,-3,583990,584.0399780273438,0.0,1500.0
10:13:56.698,STABILIZE,-35.3632621,149.1652374,67,-0.00019278244872111827,0.0013066331157460809,0.028257112950086594,0.0002469586906954646,0.00030393237830139697,0.0023113247007131577,0,1,-1000,0,0,0,-3,2,-3,583990,584.0399780273438,0.0,1500.0
10:13:56.900,STABILIZE,-35.3632621,149.1652375,29,-0.00023232221428770572,0.001505250227637589,0.026294933632016182,0.00016351378872059286,0.00028188616852276027,0.0022505330853164196,0,1,-1000,0,0,0,-1,1,0,584010,584.010009765625,0.0,1500.0
10:13:57.103,STABILIZE,-35.3632621,149.1652375,29,-0.00023232221428770572,0.001505250227637589,0.026294933632016182,0.00016351378872059286,0.00028188616852276027,0.0022505330853164196,0,1,-1000,0,0,0,-1,1,0,584010,584.010009765625,0.0,1500.0
10:13:57.352,STABILIZE,-35.3632621,149.1652375,29,-0.00023232221428770572,0.001505250227637589,0.026294933632016182,0.00016351378872059286,0.00028188616852276027,0.0022505330853164196,0,1,-1000,0,0,0,-1,1,0,584010,584.010009765625,0.0,1500.0
10:13:57.558,STABILIZE,-35.3632621,149.1652375,29,-0.00023232221428770572,0.001505250227637589,0.026294933632016182,0.00016351378872059286,0.00028188616852276027,0.0022505330853164196,0,1,-1000,0,0,0,-1,1,0,584010,584.010009765625,0.0,1500.0
10:13:57.765,STABILIZE,-35.3632621,149.1652375,29,-0.00023232221428770572,0.001505250227637589,0.026294933632016182,0.00016351378872059286,0.00028188616852276027,0.0022505330853164196,0,1,-1000,0,0,0,-1,1,0,584010,584.010009765625,0.0,1500.0
10:13:57.972,STABILIZE,-35.3632621,149.1652375,29,-0.00023232221428770572,0.001505250227637589,0.026294933632016182,0.00016351378872059286,0.00028188616852276027,0.0022505330853164196,0,1,-1000,0,0,0,-1,1,0,584010,584.010009765625,0.0,1500.0
10:13:58.177,STABILIZE,-35.3632621,149.1652375,29,-0.00023232221428770572,0.001505250227637589,0.026294933632016182,0.00016351378872059286,0.00028188616852276027,0.0022505330853164196,0,1,-1000,0,0,0,-1,1,0,584010,584.010009765625,0.0,1500.0
10:13:58.380,STABILIZE,-35.3632621,149.1652375,29,-0.00023232221428770572,0.001505250227637589,0.026294933632016182,0.00016351378872059286,0.00028188616852276027,0.0022505330853164196,0,1,-1000,0,0,0,-1,1,0,584010,584.010009765625,0.0,1500.0
10:13:58.582,STABILIZE,-35.3632621,149.1652375,29,-0.00023232221428770572,0.001505250227637589,0.026294933632016182,0.00016351378872059286,0.00028188616852276027,0.0022505330853164196,0,1,-1000,0,0,0,-1,1,0,584010,584.010009765625,0.0,1500.0
10:13:58.784,STABILIZE,-35.3632622,149.1652375,18,-0.00023232221428770572,0.001505250227637589,0.026294933632016182,0.00016351378872059286,0.00028188616852276027,0.0022505330853164196,0,1,-1000,0,0,0,-2,1,0,584000,584.0,0.0,1500.0
10:13:58.987,STABILIZE,-35.3632622,149.1652375,18,-0.00023232221428770572,0.001505250227637589,0.026294933632016182,0.00016351378872059286,0.00028188616852276027,0.0022505330853164196,0,1,-1000,0,0,0,-2,1,0,584000,584.0,0.0,1500.0
10:13:59.195,STABILIZE,-35.3632622,149.1652375,18,-0.00023232221428770572,0.001505250227637589,0.026294933632016182,0.00016351378872059286,0.00028188616852276027,0.0022505330853164196,0,1,-1000,0,0,0,-2,1,0,584000,584.0,0.0,1500.0
10:13:59.398,STABILIZE,-35.3632622,149.1652375,18,-0.00023232221428770572,0.001505250227637589,0.026294933632016182,0.00016351378872059286,0.00028188616852276027,0.0022505330853164196,0,1,-1000,0,0,0,-2,1,0,584000,584.0,0.0,1500.0
10:13:59.601,STABILIZE,-35.3632622,149.1652375,18,-0.00023232221428770572,0.001505250227637589,0.026294933632016182,0.00016351378872059286,0.00028188616852276027,0.0022505330853164196,0,1,-1000,0,0,0,-2,1,0,584000,584.0,0.0,1500.0
10:13:59.804,STABILIZE,-35.3632622,149.1652375,18,-0.00023232221428770572,0.001505250227637589,0.026294933632016182,0.00016351378872059286,0.00028188616852276027,0.0022505330853164196,0,1,-1000,0,0,0,-2,1,0,584000,584.0,0.0,1500.0
10:14:00.009,STABILIZE,-35.3632622,149.1652375,18,-0.00023232221428770572,0.001505250227637589,0.026294933632016182,0.00016351378872059286,0.00028188616852276027,0.0022505330853164196,0,1,-1000,0,0,0,-2,1,0,584000,584.0,0.0,1500.0
10:14:00.231,STABILIZE,-35.3632622,149.1652375,18,-0.00023232221428770572,0.001505250227637589,0.026294933632016182,0.00016351378872059286,0.00028188616852276027,0.0022505330853164196,0,1,-1000,0,0,0,-2,1,0,584000,584.0,0.0,1500.0
10:14:00.436,STABILIZE,-35.3632622,149.1652375,18,-0.00023232221428770572,0.001505250227637589,0.026294933632016182,0.00016351378872059286,0.00028188616852276027,0.0022505330853164196,0,1,-1000,0,0,0,-2,1,0,584000,584.0,0.0,1500.0
10:14:00.640,STABILIZE,-35.3632622,149.1652375,18,-0.00023232221428770572,0.001505250227637589,0.026294933632016182,0.00016351378872059286,0.00028188616852276027,0.0022505330853164196,0,1,-1000,0,0,0,-2,1,0,584000,584.0,0.0,1500.0
10:14:00.844,STABILIZE,-35.3632621,149.1652375,13,-0.0009601268102414906,0.001017763395793736,0.02482333965599537,0.0002837029751390219,0.00019831451936624944,0.002006795722991228,0,1,-1000,0,0,0,-1,0,-1,584000,584.0,0.0,1500.0
10:14:01.047,STABILIZE,-35.3632621,149.1652375,13,-0.0009601268102414906,0.001017763395793736,0.02482333965599537,0.0002837029751390219,0.00019831451936624944,0.002006795722991228,0,1,-1000,0,0,0,-1,0,-1,584000,584.0,0.0,1500.0
10:14:01.250,STABILIZE,-35.3632621,149.1652375,13,-0.0009601268102414906,0.001017763395793736,0.02482333965599537,0.0002837029751390219,0.00019831451936624944,0.002006795722991228,0,1,-1000,0,0,0,-1,0,-1,584000,584.0,0.0,1500.0
10:14:01.452,STABILIZE,-35.3632621,149.1652375,13,-0.0009601268102414906,0.001017763395793736,0.02482333965599537,0.0002837029751390219,0.00019831451936624944,0.002006795722991228,0,1,-1000,0,0,0,-1,0,-1,584000,584.0,0.0,1500.0
10:14:01.654,STABILIZE,-35.3632621,149.1652375,13,-0.0009601268102414906,0.001017763395793736,0.02482333965599537,0.0002837029751390219,0.00019831451936624944,0.002006795722991228,0,1,-1000,0,0,0,-1,0,-1,584000,584.0,0.0,1500.0
10:14:01.858,STABILIZE,-35.3632621,149.1652375,13,-0.0009601268102414906,0.001017763395793736,0.02482333965599537,0.0002837029751390219,0.00019831451936624944,0.002006795722991228,0,1,-1000,0,0,0,-1,0,-1,584000,584.0,0.0,1500.0
10:14:02.065,STABILIZE,-35.3632621,149.1652375,13,-0.0009601268102414906,0.001017763395793736,0.02482333965599537,0.0002837029751390219,0.00019831451936624944,0.002006795722991228,0,1,-1000,0,0,0,-1,0,-1,584000,584.0,0.0,1500.0
10:14:02.267,STABILIZE,-35.3632621,149.1652375,13,-0.0009601268102414906,0.001017763395793736,0.02482333965599537,0.0002837029751390219,0.00019831451936624944,0.002006795722991228,0,1,-1000,0,0,0,-1,0,-1,584000,584.0,0.0,1500.0
10:14:02.474,STABILIZE,-35.3632621,149.1652375,13,-0.0009601268102414906,0.001017763395793736,0.02482333965599537,0.0002837029751390219,0.00019831451936624944,0.002006795722991228,0,1,-1000,0,0,0,-1,0,-1,584000,584.0,0.0,1500.0
10:14:02.677,STABILIZE,-35.3632621,149.1652375,13,-0.0009601268102414906,0.001017763395793736,0.02482333965599537,0.0002837029751390219,0.00019831451936624944,0.002006795722991228,0,1,-1000,0,0,0,-1,0,-1,584000,584.0,0.0,1500.0
10:14:02.880,STABILIZE,-35.3632621,149.1652375,13,-0.0009601268102414906,0.001017763395793736,0.02482333965599537,0.0002837029751390219,0.00019831451936624944,0.002006795722991228,0,1,-1000,0,0,0,-1,0,-1,584000,584.0,0.0,1500.0
10:14:03.082,STABILIZE,-35.3632621,149.1652375,13,-0.0009601268102414906,0.001017763395793736,0.02482333965599537,0.0002837029751390219,0.00019831451936624944,0.002006795722991228,0,1,-1000,0,0,0,-1,0,-1,584000,584.0,0.0,1500.0
10:14:03.285,STABILIZE,-35.3632621,149.1652375,13,-0.0009601268102414906,0.001017763395793736,0.02482333965599537,0.0002837029751390219,0.00019831451936624944,0.002006795722991228,0,1,-1000,0,0,0,-1,0,-1,584000,584.0,0.0,1500.0
10:14:03.488,STABILIZE,-35.3632621,149.1652375,13,-0.0009601268102414906,0.001017763395793736,0.02482333965599537,0.0002837029751390219,0.00019831451936624944,0.002006795722991228,0,1,-1000,0,0,0,-1,0,-1,584000,584.0,0.0,1500.0
10:14:03.689,STABILIZE,-35.3632621,149.1652375,13,-0.0009601268102414906,0.001017763395793736,0.02482333965599537,0.0002837029751390219,0.00019831451936624944,0.002006795722991228,0,1,-1000,0,0,0,-1,0,-1,584000,584.0,0.0,1500.0
10:14:03.893,STABILIZE,-35.3632621,149.1652375,13,-0.0009601268102414906,0.001017763395793736,0.02482333965599537,0.0002837029751390219,0.00019831451936624944,0.002006795722991228,0,1,-1000,0,0,0,-1,0,-1,584000,584.0,0.0,1500.0
10:14:04.095,STABILIZE,-35.3632621,149.1652375,13,-0.0009601268102414906,0.001017763395793736,0.02482333965599537,0.0002837029751390219,0.00019831451936624944,0.002006795722991228,0,1,-1000,0,0,0,-1,0,-1,584000,584.0,0.0,1500.0
10:14:04.297,STABILIZE,-35.3632621,149.1652375,13,-0.0009601268102414906,0.001017763395793736,0.02482333965599537,0.0002837029751390219,0.00019831451936624944,0.002006795722991228,0,1,-1000,0,0,0,-1,0,-1,584000,584.0,0.0,1500.0
10:14:04.500,STABILIZE,-35.3632621,149.1652375,13,-0.0009601268102414906,0.001017763395793736,0.02482333965599537,0.0002837029751390219,0.00019831451936624944,0.002006795722991228,0,1,-1000,0,0,0,-1,0,-1,584000,584.0,0.0,1500.0
10:14:04.701,STABILIZE,-35.3632621,149.1652375,13,-0.0009601268102414906,0.001017763395793736,0.02482333965599537,0.0002837029751390219,0.00019831451936624944,0.002006795722991228,0,1,-1000,0,0,0,-1,0,-1,584000,584.0,0.0,1500.0
10:14:04.904,STABILIZE,-35.3632621,149.1652375,13,-0.0009601268102414906,0.001017763395793736,0.02482333965599537,0.0002837029751390219,0.00019831451936624944,0.002006795722991228,0,1,-1000,0,0,0,-1,0,-1,584000,584.0,0.0,1500.0
10:14:05.107,STABILIZE,-35.3632621,149.1652375,13,-0.0009601268102414906,0.001017763395793736,0.02482333965599537,0.0002837029751390219,0.00019831451936624944,0.002006795722991228,0,1,-1000,0,0,0,-1,0,-1,584000,584.0,0.0,1500.0
10:14:05.310,STABILIZE,-35.3632621,149.1652375,13,-0.0009601268102414906,0.001017763395793736,0.02482333965599537,0.0002837029751390219,0.00019831451936624944,0.002006795722991228,0,1,-1000,0,0,0,-1,0,-1,584000,584.0,0.0,1500.0
10:14:05.511,STABILIZE,-35.3632621,149.1652375,13,-0.0009601268102414906,0.001017763395793736,0.02482333965599537,0.0002837029751390219,0.00019831451936624944,0.002006795722991228,0,1,-1000,0,0,0,-1,0,-1,584000,584.0,0.0,1500.0
10:14:05.713,STABILIZE,-35.3632621,149.1652375,13,-0.0009601268102414906,0.001017763395793736,0.02482333965599537,0.0002837029751390219,0.00019831451936624944,0.002006795722991228,0,1,-1000,0,0,0,-1,0,-1,584000,584.0,0.0,1500.0
10:14:05.916,AUTO,-35.3632621,149.1652375,13,-0.0009601268102414906,0.001017763395793736,0.02482333965599537,0.0002837029751390219,0.00019831451936624944,0.002006795722991228,0,1,-1000,0,0,0,-1,0,-1,584000,584.0,0.0,1500.0
10:14:06.120,AUTO,-35.3632621,149.1652375,13,-0.0009601268102414906,0.001017763395793736,0.02482333965599537,0.0002837029751390219,0.00019831451936624944,0.002006795722991228,0,1,-1000,0,0,0,-1,0,-1,584000,584.0,0.0,1500.0
10:14:06.323,AUTO,-35.3632621,149.1652375,13,-0.0009601268102414906,0.001017763395793736,0.02482333965599537,0.0002837029751390219,0.00019831451936624944,0.002006795722991228,0,1,-1000,0,0,0,-1,0,-1,584000,584.0,0.0,1500.0
10:14:06.526,AUTO,-35.3632621,149.1652375,13,-0.0009601268102414906,0.001017763395793736,0.02482333965599537,0.0002837029751390219,0.00019831451936624944,0.002006795722991228,0,1,-1000,0,0,0,-1,0,-1,584000,584.0,0.0,1500.0
10:14:06.730,AUTO,-35.3632621,149.1652375,1318,0.0016284624580293894,0.002864403184503317,0.022650063037872314,0.0005168658681213856,0.0004877388710156083,0.002449778839945793,0,0,-1017,0,2,1,0,0,-134,585310,585.3099975585938,0.0,1500.0
10:14:06.932,AUTO,-35.363262,149.1652375,2033,0.007527263835072517,0.0022654731292277575,0.022447608411312103,0.043640635907649994,-0.005201437976211309,0.0017129878979176283,0,0,-1018,44,-4,0,0,0,-145,586030,586.0299682617188,0.0,1500.0
10:14:07.135,AUTO,-35.363262,149.1652375,2033,0.007527263835072517,0.0022654731292277575,0.022447608411312103,0.043640635907649994,-0.005201437976211309,0.0017129878979176283,0,0,-1018,44,-4,0,0,0,-145,586030,586.0299682617188,0.0,1500.0
10:14:07.338,AUTO,-35.363262,149.1652375,2033,0.007527263835072517,0.0022654731292277575,0.022447608411312103,0.043640635907649994,-0.005201437976211309,0.0017129878979176283,0,0,-1018,44,-4,0,0,0,-145,586030,586.0299682617188,0.0,1500.0
10:14:07.543,AUTO,-35.363262,149.1652375,2033,0.007527263835072517,0.0022654731292277575,0.022447608411312103,0.043640635907649994,-0.005201437976211309,0.0017129878979176283,0,0,-1018,44,-4,0,0,0,-145,586030,586.0299682617188,0.0,1500.0
10:14:07.748,AUTO,-35.363262,149.1652375,2033,0.007527263835072517,0.0022654731292277575,0.022447608411312103,0.043640635907649994,-0.005201437976211309,0.0017129878979176283,0,0,-1018,44,-4,0,0,0,-145,586030,586.0299682617188,0.0,1500.0
10:14:07.950,AUTO,-35.363262,149.1652375,2033,0.007527263835072517,0.0022654731292277575,0.022447608411312103,0.043640635907649994,-0.005201437976211309,0.0017129878979176283,0,0,-1018,44,-4,0,0,0,-145,586030,586.0299682617188,0.0,1500.0
10:14:08.152,AUTO,-35.363262,149.1652375,2033,0.007527263835072517,0.0022654731292277575,0.022447608411312103,0.043640635907649994,-0.005201437976211309,0.0017129878979176283,0,0,-1018,44,-4,0,0,0,-145,586030,586.0299682617188,0.0,1500.0
10:14:08.360,AUTO,-35.363262,149.1652375,2033,0.007527263835072517,0.0022654731292277575,0.022447608411312103,0.043640635907649994,-0.005201437976211309,0.0017129878979176283,0,0,-1018,44,-4,0,0,0,-145,586030,586.0299682617188,0.0,1500.0
10:14:08.562,AUTO,-35.363262,149.1652375,2033,0.007527263835072517,0.0022654731292277575,0.022447608411312103,0.043640635907649994,-0.005201437976211309,0.0017129878979176283,0,0,-1018,44,-4,0,0,0,-145,586030,586.0299682617188,0.0,1500.0
10:14:08.775,AUTO,-35.3632619,149.1652386,3500,0.05212688446044922,-0.006204492412507534,-0.005586415529251099,0.040209975093603134,-0.01048393826931715,0.003849770873785019,1,-4,-999,40,-10,3,3,26,-148,587500,587.5,0.0,1500.0
10:14:08.981,AUTO,-35.3632609,149.165244,4960,0.04659741371870041,0.017668938264250755,-0.04722760617733002,-0.05744555965065956,0.02606295794248581,-0.06951218843460083,5,-14,-998,-57,26,-70,11,71,-145,588960,588.9599609375,0.0,1500.0
10:14:09.184,AUTO,-35.3632609,149.165244,4960,0.04659741371870041,0.017668938264250755,-0.04722760617733002,-0.05744555965065956,0.02606295794248581,-0.06951218843460083,5,-14,-998,-57,26,-70,11,71,-145,588960,588.9599609375,0.0,1500.0
10:14:09.394,AUTO,-35.3632609,149.165244,4960,0.04659741371870041,0.017668938264250755,-0.04722760617733002,-0.05744555965065956,0.02606295794248581,-0.06951218843460083,5,-14,-998,-57,26,-70,11,71,-145,588960,588.9599609375,0.0,1500.0
10:14:09.601,AUTO,-35.3632609,149.165244,4960,0.04659741371870041,0.017668938264250755,-0.04722760617733002,-0.05744555965065956,0.02606295794248581,-0.06951218843460083,5,-14,-998,-57,26,-70,11,71,-145,588960,588.9599609375,0.0,1500.0
10:14:09.806,AUTO,-35.3632609,149.165244,4960,0.04659741371870041,0.017668938264250755,-0.04722760617733002,-0.05744555965065956,0.02606295794248581,-0.06951218843460083,5,-14,-998,-57,26,-70,11,71,-145,588960,588.9599609375,0.0,1500.0
10:14:10.008,AUTO,-35.3632609,149.165244,4960,0.04659741371870041,0.017668938264250755,-0.04722760617733002,-0.05744555965065956,0.02606295794248581,-0.06951218843460083,5,-14,-998,-57,26,-70,11,71,-145,588960,588.9599609375,0.0,1500.0
10:14:10.212,AUTO,-35.3632609,149.165244,4960,0.04659741371870041,0.017668938264250755,-0.04722760617733002,-0.05744555965065956,0.02606295794248581,-0.06951218843460083,5,-14,-998,-57,26,-70,11,71,-145,588960,588.9599609375,0.0,1500.0
10:14:10.418,AUTO,-35.3632598,149.1652525,6790,-0.08622407913208008,0.0015438771806657314,-0.10491972416639328,-0.0970478430390358,0.0002351683215238154,-0.04884951934218407,2,-8,-1004,-96,0,-49,7,27,-148,590790,590.7899780273438,0.0,1500.0
10:14:10.628,AUTO,-35.3632595,149.1652527,7523,-0.12784555554389954,0.003538374090567231,-0.12852412462234497,-0.06080014631152153,0.018717745319008827,-0.049535300582647324,0,-4,-1001,-81,10,-52,1,-29,-145,591520,591.1499633789062,0.0,1500.0
10:14:10.832,AUTO,-35.3632595,149.1652527,7523,-0.12784555554389954,0.003538374090567231,-0.12852412462234497,-0.06080014631152153,0.018717745319008827,-0.049535300582647324,-2,1,-998,-60,19,-50,1,-29,-145,591520,591.5199584960938,0.0,1500.0
10:14:11.036,AUTO,-35.3632595,149.1652515,7883,-0.12123648077249527,0.004800597671419382,-0.13699831068515778,0.054599467664957047,0.008264712058007717,-0.03198428079485893,-5,7,-1000,55,8,-32,-3,-58,-143,591880,591.8800048828125,0.0,1500.0
10:14:11.242,AUTO,-35.3632595,149.1652515,7883,-0.12123648077249527,0.004800597671419382,-0.13699831068515778,0.054599467664957047,0.008264712058007717,-0.03198428079485893,-5,7,-1000,55,8,-32,-3,-58,-143,591880,591.8800048828125,0.0,1500.0
10:14:11.447,AUTO,-35.3632595,149.1652515,7883,-0.12123648077249527,0.004800597671419382,-0.13699831068515778,0.054599467664957047,0.008264712058007717,-0.03198428079485893,-5,7,-1000,55,8,-32,-3,-58,-143,591880,591.8800048828125,0.0,1500.0
10:14:11.651,AUTO,-35.3632595,149.1652515,7883,-0.12123648077249527,0.004800597671419382,-0.13699831068515778,0.054599467664957047,0.008264712058007717,-0.03198428079485893,-5,7,-1000,55,8,-32,-3,-58,-143,591880,591.8800048828125,0.0,1500.0
10:14:11.855,AUTO,-35.3632595,149.1652515,7883,-0.12123648077249527,0.004800597671419382,-0.13699831068515778,0.054599467664957047,0.008264712058007717,-0.03198428079485893,-5,7,-1000,55,8,-32,-3,-58,-143,591880,591.8800048828125,0.0,1500.0
10:14:12.057,AUTO,-35.3632595,149.1652515,7883,-0.12123648077249527,0.004800597671419382,-0.13699831068515778,0.054599467664957047,0.008264712058007717,-0.03198428079485893,-5,7,-1000,55,8,-32,-3,-58,-143,591880,591.8800048828125,0.0,1500.0
10:14:12.262,AUTO,-35.3632595,149.1652515,7883,-0.12123648077249527,0.004800597671419382,-0.13699831068515778,0.054599467664957047,0.008264712058007717,-0.03198428079485893,-5,7,-1000,55,8,-32,-3,-58,-143,591880,591.8800048828125,0.0,1500.0
10:14:12.468,AUTO,-35.3632595,149.1652515,7883,-0.12123648077249527,0.004800597671419382,-0.13699831068515778,0.054599467664957047,0.008264712058007717,-0.03198428079485893,-5,7,-1000,55,8,-32,-3,-58,-143,591880,591.8800048828125,0.0,1500.0
10:14:12.670,AUTO,-35.3632595,149.1652515,7883,-0.12123648077249527,0.004800597671419382,-0.13699831068515778,0.054599467664957047,0.008264712058007717,-0.03198428079485893,-5,7,-1000,55,8,-32,-3,-58,-143,591880,591.8800048828125,0.0,1500.0
10:14:12.873,AUTO,-35.3632608,149.1652407,9289,-0.04729956015944481,0.02426232397556305,-0.14933060109615326,0.08713138103485107,0.029126537963747978,-0.0032229528296738863,-12,21,-1003,81,27,-8,-32,-124,-141,593280,592.9299926757812,0.0,1500.0
10:14:13.081,AUTO,-35.3632639,149.1652304,10378,0.022334925830364227,0.04286668822169304,-0.14475895464420319,0.09445205330848694,0.016230860725045204,0.007420502603054047,-8,31,-1011,94,16,7,-62,-110,-147,594370,594.3699951171875,0.0,1500.0
10:14:13.286,AUTO,-35.3632654,149.1652275,10750,0.03812067583203316,0.04014446958899498,-0.1337529420852661,-0.06327469646930695,-0.10334265232086182,0.1076110303401947,-3,27,-991,-62,-102,106,-71,-94,-148,594750,594.75,0.0,1500.0
10:14:13.493,AUTO,-35.3632654,149.1652275,10750,0.03812067583203316,0.04014446958899498,-0.1337529420852661,-0.06327469646930695,-0.10334265232086182,0.1076110303401947,-3,27,-991,-62,-102,106,-71,-94,-148,594750,594.75,0.0,1500.0
10:14:13.695,AUTO,-35.3632654,149.1652275,10750,0.03812067583203316,0.04014446958899498,-0.1337529420852661,-0.06327469646930695,-0.10334265232086182,0.1076110303401947,-3,27,-991,-62,-102,106,-71,-94,-148,594750,594.75,0.0,1500.0
10:14:13.898,AUTO,-35.3632654,149.1652275,10750,0.03812067583203316,0.04014446958899498,-0.1337529420852661,-0.06327469646930695,-0.10334265232086182,0.1076110303401947,-3,27,-991,-62,-102,106,-71,-94,-148,594750,594.75,0.0,1500.0
10:14:14.101,AUTO,-35.3632654,149.1652275,10750,0.03812067583203316,0.04014446958899498,-0.1337529420852661,-0.06327469646930695,-0.10334265232086182,0.1076110303401947,-3,27,-991,-62,-102,106,-71,-94,-148,594750,594.75,0.0,1500.0
10:14:14.305,AUTO,-35.3632654,149.1652275,10750,0.03812067583203316,0.04014446958899498,-0.1337529420852661,-0.06327469646930695,-0.10334265232086182,0.1076110303401947,-3,27,-991,-62,-102,106,-71,-94,-148,594750,594.75,0.0,1500.0
10:14:14.507,AUTO,-35.3632654,149.1652275,10750,0.03812067583203316,0.04014446958899498,-0.1337529420852661,-0.06327469646930695,-0.10334265232086182,0.1076110303401947,-3,27,-991,-62,-102,106,-71,-94,-148,594750,594.75,0.0,1500.0
10:14:14.709,AUTO,-35.3632654,149.1652275,10750,0.03812067583203316,0.04014446958899498,-0.1337529420852661,-0.06327469646930695,-0.10334265232086182,0.1076110303401947,-3,27,-991,-62,-102,106,-71,-94,-148,594750,594.75,0.0,1500.0
10:14:14.915,AUTO,-35.3632654,149.1652275,10750,0.03812067583203316,0.04014446958899498,-0.1337529420852661,-0.06327469646930695,-0.10334265232086182,0.1076110303401947,-3,27,-991,-62,-102,106,-71,-94,-148,594750,594.75,0.0,1500.0
10:14:15.117,AUTO,-35.3632654,149.1652275,10750,0.03812067583203316,0.04014446958899498,-0.1337529420852661,-0.06327469646930695,-0.10334265232086182,0.1076110303401947,-3,27,-991,-62,-102,106,-71,-94,-148,594750,594.75,0.0,1500.0
10:14:15.323,AUTO,-35.3632719,149.1652196,12490,0.03457929193973541,-0.08085997402667999,0.005897131748497486,-0.005099749192595482,-0.11056017130613327,0.16206662356853485,5,18,-1005,-9,-119,159,-41,-32,-151,596490,596.489990234375,0.0,1500.0
10:14:15.527,AUTO,-35.3632721,149.165218,13621,0.05872069299221039,-0.11168448626995087,0.07947641611099243,0.04818011447787285,0.003180727129802108,0.06469438970088959,-5,0,-996,48,3,64,35,4,-147,597620,597.6199951171875,0.0,1500.0
10:14:15.730,AUTO,-35.3632673,149.1652199,14707,0.07460004091262817,-0.0916232168674469,0.10028263926506042,0.012444800697267056,0.056435149163007736,0.00700713275000453,-15,-15,-997,13,57,6,103,51,-138,598700,598.7000122070312,0.0,1500.0
10:14:15.933,AUTO,-35.3632673,149.1652199,14707,0.07460004091262817,-0.0916232168674469,0.10028263926506042,0.012444800697267056,0.056435149163007736,0.00700713275000453,-15,-15,-997,13,57,6,103,51,-138,598700,598.7000122070312,0.0,1500.0
10:14:16.135,AUTO,-35.3632673,149.1652199,14707,0.07460004091262817,-0.0916232168674469,0.10028263926506042,0.012444800697267056,0.056435149163007736,0.00700713275000453,-15,-15,-997,13,57,6,103,51,-138,598700,598.7000122070312,0.0,1500.0
10:14:16.343,AUTO,-35.3632673,149.1652199,14707,0.07460004091262817,-0.0916232168674469,0.10028263926506042,0.012444800697267056,0.056435149163007736,0.00700713275000453,-15,-15,-997,13,57,6,103,51,-138,598700,598.7000122070312,0.0,1500.0
10:14:16.549,AUTO,-35.3632673,149.1652199,14707,0.07460004091262817,-0.0916232168674469,0.10028263926506042,0.012444800697267056,0.056435149163007736,0.00700713275000453,-15,-15,-997,13,57,6,103,51,-138,598700,598.7000122070312,0.0,1500.0
10:14:20.345,AUTO,-35.3632673,149.1652199,14707,0.07460004091262817,-0.0916232168674469,0.10028263926506042,0.012444800697267056,0.056435149163007736,0.00700713275000453,-15,-15,-997,13,57,6,103,51,-138,598700,598.7000122070312,0.0,1500.0
10:14:20.549,AUTO,-35.3632673,149.1652199,14707,0.07460004091262817,-0.0916232168674469,0.10028263926506042,0.012444800697267056,0.056435149163007736,0.00700713275000453,-15,-15,-997,13,57,6,103,51,-138,598700,598.7000122070312,0.0,1500.0
10:14:20.753,AUTO,-35.3632673,149.1652199,14707,0.07460004091262817,-0.0916232168674469,0.10028263926506042,0.012444800697267056,0.056435149163007736,0.00700713275000453,-15,-15,-997,13,57,6,103,51,-138,598700,598.7000122070312,0.0,1500.0
10:14:20.956,AUTO,-35.3632673,149.1652199,14707,0.07460004091262817,-0.0916232168674469,0.10028263926506042,0.012444800697267056,0.056435149163007736,0.00700713275000453,-15,-15,-997,13,57,6,103,51,-138,598700,598.7000122070312,0.0,1500.0
10:14:21.159,AUTO,-35.3632673,149.1652199,14707,0.07460004091262817,-0.0916232168674469,0.10028263926506042,0.012444800697267056,0.056435149163007736,0.00700713275000453,-15,-15,-997,13,57,6,103,51,-138,598700,598.7000122070312,0.0,1500.0
10:14:21.365,AUTO,-35.3632575,149.1652265,15886,0.07661104947328568,-0.045512329787015915,0.0970638170838356,-0.024850431829690933,0.0793721154332161,-0.025284329429268837,-21,-31,-1003,-24,80,-25,143,95,-136,599880,599.8800048828125,0.0,1500.0
10:14:21.567,AUTO,-35.363242,149.1652414,17717,0.03459087386727333,0.05293892323970795,0.04054680094122887,-0.029029840603470802,0.05673573538661003,-0.048492517322301865,-18,-38,-1013,-31,66,-53,112,114,-151,601710,601.7099609375,0.0,1500.0
10:14:21.769,AUTO,-35.3632396,149.1652445,18107,0.027374356985092163,0.06535395234823227,0.028239300474524498,-0.025898201391100883,0.04303649067878723,-0.05123285576701164,-10,-35,-1008,-25,43,-51,95,111,-153,602100,602.0999755859375,0.0,1500.0
10:14:21.974,AUTO,-35.3632396,149.1652445,18107,0.027374356985092163,0.06535395234823227,0.028239300474524498,-0.025898201391100883,0.04303649067878723,-0.05123285576701164,-10,-35,-1008,-25,43,-51,95,111,-153,602100,602.0999755859375,0.0,1500.0
10:14:22.180,AUTO,-35.3632396,149.1652445,18107,0.027374356985092163,0.06535395234823227,0.028239300474524498,-0.025898201391100883,0.04303649067878723,-0.05123285576701164,-10,-35,-1008,-25,43,-51,95,111,-153,602100,602.0999755859375,0.0,1500.0
10:14:22.382,AUTO,-35.3632396,149.1652445,18107,0.027374356985092163,0.06535395234823227,0.028239300474524498,-0.025898201391100883,0.04303649067878723,-0.05123285576701164,-10,-35,-1008,-25,43,-51,95,111,-153,602100,602.0999755859375,0.0,1500.0
10:14:22.587,AUTO,-35.3632396,149.1652445,18107,0.027374356985092163,0.06535395234823227,0.028239300474524498,-0.025898201391100883,0.04303649067878723,-0.05123285576701164,-10,-35,-1008,-25,43,-51,95,111,-153,602100,602.0999755859375,0.0,1500.0
10:14:22.791,AUTO,-35.3632396,149.1652445,18107,0.027374356985092163,0.06535395234823227,0.028239300474524498,-0.025898201391100883,0.04303649067878723,-0.05123285576701164,-10,-35,-1008,-25,43,-51,95,111,-153,602100,602.0999755859375,0.0,1500.0
10:14:23.001,AUTO,-35.3632396,149.1652445,18107,0.027374356985092163,0.06535395234823227,0.028239300474524498,-0.025898201391100883,0.04303649067878723,-0.05123285576701164,-10,-35,-1008,-25,43,-51,95,111,-153,602100,602.0999755859375,0.0,1500.0
10:14:23.204,AUTO,-35.3632396,149.1652445,18107,0.027374356985092163,0.06535395234823227,0.028239300474524498,-0.025898201391100883,0.04303649067878723,-0.05123285576701164,-10,-35,-1008,-25,43,-51,95,111,-153,602100,602.0999755859375,0.0,1500.0
10:14:23.406,AUTO,-35.3632396,149.1652445,18107,0.027374356985092163,0.06535395234823227,0.028239300474524498,-0.025898201391100883,0.04303649067878723,-0.05123285576701164,-10,-35,-1008,-25,43,-51,95,111,-153,602100,602.0999755859375,0.0,1500.0
10:14:23.610,AUTO,-35.3632352,149.1652567,20017,-0.06777452677488327,0.14478042721748352,-0.13937070965766907,-0.009779245592653751,0.007790368515998125,-0.13448596000671387,6,-18,-1005,-28,34,-152,-36,58,-152,604010,604.010009765625,0.0,1500.0
10:14:23.816,AUTO,-35.3632362,149.1652581,20404,-0.07239320129156113,0.14174869656562805,-0.17099419236183167,0.007983135990798473,-0.010938478633761406,-0.11844516545534134,15,-1,-992,8,-10,-118,-69,44,-148,604400,604.3999633789062,0.0,1500.0
10:14:24.018,AUTO,-35.3632362,149.1652581,20404,-0.07239320129156113,0.14174869656562805,-0.17099419236183167,0.007983135990798473,-0.010938478633761406,-0.11844516545534134,15,-1,-992,8,-10,-118,-69,44,-148,604400,604.3999633789062,0.0,1500.0
10:14:24.222,AUTO,-35.3632362,149.1652581,20404,-0.07239320129156113,0.14174869656562805,-0.17099419236183167,0.007983135990798473,-0.010938478633761406,-0.11844516545534134,15,-1,-992,8,-10,-118,-69,44,-148,604400,604.3999633789062,0.0,1500.0
10:14:24.425,AUTO,-35.3632362,149.1652581,20404,-0.07239320129156113,0.14174869656562805,-0.17099419236183167,0.007983135990798473,-0.010938478633761406,-0.11844516545534134,15,-1,-992,8,-10,-118,-69,44,-148,604400,604.3999633789062,0.0,1500.0
10:14:24.628,AUTO,-35.3632362,149.1652581,20404,-0.07239320129156113,0.14174869656562805,-0.17099419236183167,0.007983135990798473,-0.010938478633761406,-0.11844516545534134,15,-1,-992,8,-10,-118,-69,44,-148,604400,604.3999633789062,0.0,1500.0
10:14:24.834,AUTO,-35.3632362,149.1652581,20404,-0.07239320129156113,0.14174869656562805,-0.17099419236183167,0.007983135990798473,-0.010938478633761406,-0.11844516545534134,15,-1,-992,8,-10,-118,-69,44,-148,604400,604.3999633789062,0.0,1500.0
10:14:25.041,AUTO,-35.3632362,149.1652581,20404,-0.07239320129156113,0.14174869656562805,-0.17099419236183167,0.007983135990798473,-0.010938478633761406,-0.11844516545534134,15,-1,-992,8,-10,-118,-69,44,-148,604400,604.3999633789062,0.0,1500.0
10:14:25.243,AUTO,-35.3632362,149.1652581,20404,-0.07239320129156113,0.14174869656562805,-0.17099419236183167,0.007983135990798473,-0.010938478633761406,-0.11844516545534134,15,-1,-992,8,-10,-118,-69,44,-148,604400,604.3999633789062,0.0,1500.0
10:14:25.447,AUTO,-35.3632362,149.1652581,20404,-0.07239320129156113,0.14174869656562805,-0.17099419236183167,0.007983135990798473,-0.010938478633761406,-0.11844516545534134,15,-1,-992,8,-10,-118,-69,44,-148,604400,604.3999633789062,0.0,1500.0
10:14:25.652,AUTO,-35.3632362,149.1652581,20404,-0.07239320129156113,0.14174869656562805,-0.17099419236183167,0.007983135990798473,-0.010938478633761406,-0.11844516545534134,15,-1,-992,8,-10,-118,-69,44,-148,604400,604.3999633789062,0.0,1500.0
10:14:25.855,AUTO,-35.3632515,149.1652595,22395,-0.08129224181175232,-0.019232869148254395,-0.1284971684217453,0.02252880111336708,-0.13570784032344818,0.0940805971622467,27,23,-1015,6,-152,87,-146,-32,-146,606390,606.0199584960938,0.0,1500.0
10:14:26.066,AUTO,-35.3632628,149.1652507,24367,-0.026226939633488655,-0.09607825428247452,-0.04234820604324341,0.042838480323553085,0.023777224123477936,-0.022765137255191803,0,22,-998,43,24,-23,-41,-82,-155,608360,608.3599853515625,0.0,1500.0
10:14:26.281,AUTO,-35.3632628,149.1652507,24367,-0.026226939633488655,-0.09607825428247452,-0.04234820604324341,0.042838480323553085,0.023777224123477936,-0.022765137255191803,0,22,-998,43,24,-23,-41,-82,-155,608360,608.3599853515625,0.0,1500.0
10:14:26.484,AUTO,-35.3632628,149.1652507,24367,-0.026226939633488655,-0.09607825428247452,-0.04234820604324341,0.042838480323553085,0.023777224123477936,-0.022765137255191803,0,22,-998,43,24,-23,-41,-82,-155,608360,608.3599853515625,0.0,1500.0
10:14:26.694,AUTO,-35.3632628,149.1652507,24367,-0.026226939633488655,-0.09607825428247452,-0.04234820604324341,0.042838480323553085,0.023777224123477936,-0.022765137255191803,0,22,-998,43,24,-23,-41,-82,-155,608360,608.3599853515625,0.0,1500.0
10:14:26.905,AUTO,-35.3632628,149.1652507,24367,-0.026226939633488655,-0.09607825428247452,-0.04234820604324341,0.042838480323553085,0.023777224123477936,-0.022765137255191803,0,22,-998,43,24,-23,-41,-82,-155,608360,608.3599853515625,0.0,1500.0
10:14:27.109,AUTO,-35.3632628,149.1652507,24367,-0.026226939633488655,-0.09607825428247452,-0.04234820604324341,0.042838480323553085,0.023777224123477936,-0.022765137255191803,0,22,-998,43,24,-23,-41,-82,-155,608360,608.3599853515625,0.0,1500.0
10:14:27.316,AUTO,-35.3632628,149.1652507,24367,-0.026226939633488655,-0.09607825428247452,-0.04234820604324341,0.042838480323553085,0.023777224123477936,-0.022765137255191803,0,22,-998,43,24,-23,-41,-82,-155,608360,608.3599853515625,0.0,1500.0
10:14:27.520,AUTO,-35.3632628,149.1652507,24367,-0.026226939633488655,-0.09607825428247452,-0.04234820604324341,0.042838480323553085,0.023777224123477936,-0.022765137255191803,0,22,-998,43,24,-23,-41,-82,-155,608360,608.3599853515625,0.0,1500.0
10:14:27.724,AUTO,-35.3632637,149.1652434,25545,0.00781747791916132,-0.06161276251077652,-0.06686653196811676,0.05945265293121338,0.04321059584617615,-0.031173354014754295,-11,16,-1002,60,44,-31,10,-84,-153,609540,609.5399780273438,0.0,1500.0
10:14:27.926,AUTO,-35.363262,149.1652369,26729,0.041170597076416016,-0.014501610770821571,-0.09970434755086899,0.032879553735256195,0.07277607172727585,-0.0527878999710083,-17,8,-1004,33,73,-53,33,-60,-155,610720,610.719970703125,0.0,1500.0
10:14:28.130,AUTO,-35.363262,149.1652369,26729,0.041170597076416016,-0.014501610770821571,-0.09970434755086899,0.032879553735256195,0.07277607172727585,-0.0527878999710083,-17,8,-1004,33,73,-53,33,-60,-155,610720,610.719970703125,0.0,1500.0
10:14:28.333,AUTO,-35.363262,149.1652369,26729,0.041170597076416016,-0.014501610770821571,-0.09970434755086899,0.032879553735256195,0.07277607172727585,-0.0527878999710083,-17,8,-1004,33,73,-53,33,-60,-155,610720,610.719970703125,0.0,1500.0
10:14:28.536,AUTO,-35.363262,149.1652369,26729,0.041170597076416016,-0.014501610770821571,-0.09970434755086899,0.032879553735256195,0.07277607172727585,-0.0527878999710083,-17,8,-1004,33,73,-53,33,-60,-155,610720,610.719970703125,0.0,1500.0
10:14:28.739,AUTO,-35.363262,149.1652369,26729,0.041170597076416016,-0.014501610770821571,-0.09970434755086899,0.032879553735256195,0.07277607172727585,-0.0527878999710083,-17,8,-1004,33,73,-53,33,-60,-155,610720,610.719970703125,0.0,1500.0
10:14:28.949,AUTO,-35.363262,149.1652369,26729,0.041170597076416016,-0.014501610770821571,-0.09970434755086899,0.032879553735256195,0.07277607172727585,-0.0527878999710083,-17,8,-1004,33,73,-53,33,-60,-155,610720,610.719970703125,0.0,1500.0
10:14:29.150,AUTO,-35.363262,149.1652369,26729,0.041170597076416016,-0.014501610770821571,-0.09970434755086899,0.032879553735256195,0.07277607172727585,-0.0527878999710083,-17,8,-1004,33,73,-53,33,-60,-155,610720,610.719970703125,0.0,1500.0
10:14:29.355,AUTO,-35.363262,149.1652369,26729,0.041170597076416016,-0.014501610770821571,-0.09970434755086899,0.032879553735256195,0.07277607172727585,-0.0527878999710083,-17,8,-1004,33,73,-53,33,-60,-155,610720,610.719970703125,0.0,1500.0
10:14:29.559,AUTO,-35.363262,149.1652369,26729,0.041170597076416016,-0.014501610770821571,-0.09970434755086899,0.032879553735256195,0.07277607172727585,-0.0527878999710083,-17,8,-1004,33,73,-53,33,-60,-155,610720,610.719970703125,0.0,1500.0
10:14:29.762,AUTO,-35.3632593,149.1652331,29111,0.05711834877729416,0.06118909269571304,-0.18594422936439514,-0.07298626005649567,-0.053722452372312546,0.004220521543174982,3,-4,-992,-72,-52,3,-12,29,-152,613110,613.1099853515625,0.0,1500.0
10:14:29.966,AUTO,-35.3632604,149.1652363,30264,-0.009335584938526154,0.006276783067733049,-0.16498476266860962,-0.0641230121254921,-0.05015963315963745,0.02816595695912838,10,-4,-1006,-63,-49,27,-24,43,-151,614260,614.260009765625,0.0,1500.0
10:14:30.170,AUTO,-35.3632604,149.1652363,30264,-0.009335584938526154,0.006276783067733049,-0.16498476266860962,-0.0641230121254921,-0.05015963315963745,0.02816595695912838,10,-4,-1006,-63,-49,27,-24,43,-151,614260,614.260009765625,0.0,1500.0
10:14:30.377,AUTO,-35.3632604,149.1652363,30264,-0.009335584938526154,0.006276783067733049,-0.16498476266860962,-0.0641230121254921,-0.05015963315963745,0.02816595695912838,10,-4,-1006,-63,-49,27,-24,43,-151,614260,614.260009765625,0.0,1500.0
10:14:30.583,AUTO,-35.3632604,149.1652363,30264,-0.009335584938526154,0.006276783067733049,-0.16498476266860962,-0.0641230121254921,-0.05015963315963745,0.02816595695912838,10,-4,-1006,-63,-49,27,-24,43,-151,614260,614.260009765625,0.0,1500.0
10:14:30.785,AUTO,-35.3632604,149.1652363,30264,-0.009335584938526154,0.006276783067733049,-0.16498476266860962,-0.0641230121254921,-0.05015963315963745,0.02816595695912838,10,-4,-1006,-63,-49,27,-24,43,-151,614260,614.260009765625,0.0,1500.0
10:14:30.987,AUTO,-35.3632604,149.1652363,30264,-0.009335584938526154,0.006276783067733049,-0.16498476266860962,-0.0641230121254921,-0.05015963315963745,0.02816595695912838,10,-4,-1006,-63,-49,27,-24,43,-151,614260,614.260009765625,0.0,1500.0
10:14:31.193,AUTO,-35.3632604,149.1652363,30264,-0.009335584938526154,0.006276783067733049,-0.16498476266860962,-0.0641230121254921,-0.05015963315963745,0.02816595695912838,10,-4,-1006,-63,-49,27,-24,43,-151,614260,614.260009765625,0.0,1500.0
10:14:31.395,AUTO,-35.3632621,149.1652394,32934,-0.013676625676453114,-0.01106220856308937,-0.18740542232990265,0.026026973500847816,0.010194466449320316,-0.03363695740699768,0,1,-1000,26,10,-33,-1,-7,-154,616930,616.9299926757812,0.0,1500.0
10:14:31.600,AUTO,-35.3632621,149.1652394,32934,-0.013676625676453114,-0.01106220856308937,-0.18740542232990265,0.026026973500847816,0.010194466449320316,-0.03363695740699768,0,1,-1000,26,10,-33,-1,-7,-154,616930,616.9299926757812,0.0,1500.0
10:14:31.804,AUTO,-35.3632621,149.1652394,32934,-0.013676625676453114,-0.01106220856308937,-0.18740542232990265,0.026026973500847816,0.010194466449320316,-0.03363695740699768,0,1,-1000,26,10,-33,-1,-7,-154,616930,616.9299926757812,0.0,1500.0
10:14:32.012,AUTO,-35.3632621,149.1652394,32934,-0.013676625676453114,-0.01106220856308937,-0.18740542232990265,0.026026973500847816,0.010194466449320316,-0.03363695740699768,0,1,-1000,26,10,-33,-1,-7,-154,616930,616.9299926757812,0.0,1500.0
10:14:32.224,AUTO,-35.3632621,149.1652394,32934,-0.013676625676453114,-0.01106220856308937,-0.18740542232990265,0.026026973500847816,0.010194466449320316,-0.03363695740699768,0,1,-1000,26,10,-33,-1,-7,-154,616930,616.9299926757812,0.0,1500.0
10:14:32.436,AUTO,-35.363262,149.1652379,34969,0.010682428255677223,0.0044432347640395164,-0.19680282473564148,0.0035375587176531553,0.002384865889325738,0.021734682843089104,-2,1,-999,4,3,21,0,-7,-153,618960,618.9599609375,0.0,1500.0
10:14:32.647,AUTO,-35.363262,149.1652379,34969,0.010682428255677223,0.0044432347640395164,-0.19680282473564148,0.0035375587176531553,0.002384865889325738,0.021734682843089104,-2,1,-999,4,3,21,0,-7,-153,618960,618.9599609375,0.0,1500.0
10:14:32.850,AUTO,-35.363262,149.1652379,34969,0.010682428255677223,0.0044432347640395164,-0.19680282473564148,0.0035375587176531553,0.002384865889325738,0.021734682843089104,-2,1,-999,4,3,21,0,-7,-153,618960,618.9599609375,0.0,1500.0
10:14:33.056,AUTO,-35.363262,149.1652379,34969,0.010682428255677223,0.0044432347640395164,-0.19680282473564148,0.0035375587176531553,0.002384865889325738,0.021734682843089104,-2,1,-999,4,3,21,0,-7,-153,618960,618.9599609375,0.0,1500.0
10:14:33.258,AUTO,-35.363262,149.1652379,34969,0.010682428255677223,0.0044432347640395164,-0.19680282473564148,0.0035375587176531553,0.002384865889325738,0.021734682843089104,-2,1,-999,4,3,21,0,-7,-153,618960,618.9599609375,0.0,1500.0
10:14:33.470,AUTO,-35.363262,149.1652379,34969,0.010682428255677223,0.0044432347640395164,-0.19680282473564148,0.0035375587176531553,0.002384865889325738,0.021734682843089104,-2,1,-999,4,3,21,0,-7,-153,618960,618.9599609375,0.0,1500.0
10:14:33.680,AUTO,-35.363262,149.1652379,34969,0.010682428255677223,0.0044432347640395164,-0.19680282473564148,0.0035375587176531553,0.002384865889325738,0.021734682843089104,-2,1,-999,4,3,21,0,-7,-153,618960,618.9599609375,0.0,1500.0
10:14:33.889,AUTO,-35.363262,149.1652379,34969,0.010682428255677223,0.0044432347640395164,-0.19680282473564148,0.0035375587176531553,0.002384865889325738,0.021734682843089104,-2,1,-999,4,3,21,0,-7,-153,618960,618.9599609375,0.0,1500.0
10:14:34.095,AUTO,-35.363262,149.1652375,37551,0.003887299681082368,0.002828096505254507,-0.15478423237800598,-0.0034054506104439497,-0.0002489553880877793,0.022635748609900475,0,0,-1000,-2,0,22,-1,3,-153,621550,621.5499877929688,0.0,1500.0
10:14:34.297,AUTO,-35.363262,149.1652375,37941,0.0030221331398934126,0.0026355197187513113,-0.1490945816040039,-0.0013524978421628475,-0.00028437242144718766,0.02312096394598484,0,0,-1000,0,0,23,-1,3,-153,621940,621.9400024414062,0.0,1500.0
10:14:34.499,AUTO,-35.363262,149.1652375,37941,0.0030221331398934126,0.0026355197187513113,-0.1490945816040039,-0.0013524978421628475,-0.00028437242144718766,0.02312096394598484,0,0,-1000,0,0,23,-1,3,-153,621940,621.9400024414062,0.0,1500.0
10:14:34.704,AUTO,-35.363262,149.1652375,38330,0.002510003512725234,0.002456868998706341,-0.14380590617656708,-0.0026391989085823298,-0.0007529134745709598,0.02260955423116684,0,0,-1000,-1,0,22,-1,3,-153,622330,622.3299560546875,0.0,1500.0
10:14:34.911,AUTO,-35.363262,149.1652375,38330,0.002510003512725234,0.002456868998706341,-0.14380590617656708,-0.0026391989085823298,-0.0007529134745709598,0.02260955423116684,0,0,-1000,-1,0,22,-1,3,-153,622330,622.3299560546875,0.0,1500.0
10:14:35.117,AUTO,-35.363262,149.1652375,38330,0.002510003512725234,0.002456868998706341,-0.14380590617656708,-0.0026391989085823298,-0.0007529134745709598,0.02260955423116684,0,0,-1000,-1,0,22,-1,3,-153,622330,622.3299560546875,0.0,1500.0
10:14:35.321,AUTO,-35.363262,149.1652375,38330,0.002510003512725234,0.002456868998706341,-0.14380590617656708,-0.0026391989085823298,-0.0007529134745709598,0.02260955423116684,0,0,-1000,-1,0,22,-1,3,-153,622330,622.3299560546875,0.0,1500.0
10:14:35.530,AUTO,-35.363262,149.1652375,38330,0.002510003512725234,0.002456868998706341,-0.14380590617656708,-0.0026391989085823298,-0.0007529134745709598,0.02260955423116684,0,0,-1000,-1,0,22,-1,3,-153,622330,622.3299560546875,0.0,1500.0
10:14:35.747,AUTO,-35.363262,149.1652375,38330,0.002510003512725234,0.002456868998706341,-0.14380590617656708,-0.0026391989085823298,-0.0007529134745709598,0.02260955423116684,0,0,-1000,-1,0,22,-1,3,-153,622330,622.3299560546875,0.0,1500.0
10:14:35.949,AUTO,-35.363262,149.1652376,40272,0.0015579677419736981,0.0018903836607933044,-0.11965613812208176,0.002677412936463952,0.0001558618969283998,0.018678221851587296,0,0,-1000,3,1,18,-1,2,-153,624270,624.2699584960938,0.0,1500.0
10:14:36.152,AUTO,-35.363262,149.1652376,40662,0.0014820658834651113,0.0018547771032899618,-0.11538399010896683,0.0012774767819792032,0.0007025798549875617,0.016633443534374237,0,0,-1000,2,1,17,-1,2,-153,624660,624.6599731445312,0.0,1500.0
10:14:36.355,AUTO,-35.363262,149.1652376,41051,0.001521702972240746,0.0019299128325656056,-0.1111285388469696,-0.002994188107550144,4.240160342305899e-05,0.017664574086666107,0,0,-1000,-2,0,18,-1,1,-153,625050,625.0499877929688,0.0,1500.0
10:14:36.556,AUTO,-35.363262,149.1652376,41440,0.0016466749366372824,0.0018032544758170843,-0.10721306502819061,0.0035813571885228157,4.364456981420517e-05,0.015390828251838684,0,0,-1000,4,1,15,-1,1,-153,625440,625.4400024414062,0.0,1500.0
10:14:36.758,AUTO,-35.363262,149.1652376,41440,0.0016466749366372824,0.0018032544758170843,-0.10721306502819061,0.0035813571885228157,4.364456981420517e-05,0.015390828251838684,0,0,-1000,4,1,15,-1,1,-153,625440,625.4400024414062,0.0,1500.0
10:14:36.964,AUTO,-35.363262,149.1652376,41440,0.0016466749366372824,0.0018032544758170843,-0.10721306502819061,0.0035813571885228157,4.364456981420517e-05,0.015390828251838684,0,0,-1000,4,1,15,-1,1,-153,625440,625.4400024414062,0.0,1500.0
10:14:37.166,AUTO,-35.363262,149.1652376,41440,0.0016466749366372824,0.0018032544758170843,-0.10721306502819061,0.0035813571885228157,4.364456981420517e-05,0.015390828251838684,0,0,-1000,4,1,15,-1,1,-153,625440,625.4400024414062,0.0,1500.0
10:14:37.372,AUTO,-35.363262,149.1652376,41440,0.0016466749366372824,0.0018032544758170843,-0.10721306502819061,0.0035813571885228157,4.364456981420517e-05,0.015390828251838684,0,0,-1000,4,1,15,-1,1,-153,625440,625.4400024414062,0.0,1500.0
10:14:37.578,AUTO,-35.363262,149.1652376,41440,0.0016466749366372824,0.0018032544758170843,-0.10721306502819061,0.0035813571885228157,4.364456981420517e-05,0.015390828251838684,0,0,-1000,4,1,15,-1,1,-153,625440,625.4400024414062,0.0,1500.0
10:14:37.782,AUTO,-35.363262,149.1652376,41440,0.0016466749366372824,0.0018032544758170843,-0.10721306502819061,0.0035813571885228157,4.364456981420517e-05,0.015390828251838684,0,0,-1000,4,1,15,-1,1,-153,625440,625.4400024414062,0.0,1500.0
10:14:37.984,AUTO,-35.363262,149.1652376,41440,0.0016466749366372824,0.0018032544758170843,-0.10721306502819061,0.0035813571885228157,4.364456981420517e-05,0.015390828251838684,0,0,-1000,4,1,15,-1,1,-153,625440,625.4400024414062,0.0,1500.0
10:14:38.186,AUTO,-35.363262,149.1652376,41440,0.0016466749366372824,0.0018032544758170843,-0.10721306502819061,0.0035813571885228157,4.364456981420517e-05,0.015390828251838684,0,0,-1000,4,1,15,-1,1,-153,625440,625.4400024414062,0.0,1500.0
10:14:38.391,AUTO,-35.363262,149.1652376,41440,0.0016466749366372824,0.0018032544758170843,-0.10721306502819061,0.0035813571885228157,4.364456981420517e-05,0.015390828251838684,0,0,-1000,4,1,15,-1,1,-153,625440,625.4400024414062,0.0,1500.0
10:14:38.593,AUTO,-35.363262,149.1652376,44177,0.0020236012060195208,0.0014872117899358273,-0.08267664164304733,0.00033091427758336067,0.00036166992504149675,0.01399186160415411,0,0,-1000,0,1,13,-1,1,-153,628170,628.1699829101562,0.0,1500.0
10:14:38.797,AUTO,-35.363262,149.1652376,44566,0.002015289617702365,0.0014875896740704775,-0.07962110638618469,-0.000770231825299561,0.0006193664739839733,0.011278284713625908,0,0,-1000,0,1,11,-1,1,-153,628560,628.5599975585938,0.0,1500.0
10:14:39.006,AUTO,-35.363262,149.1652376,44566,0.002015289617702365,0.0014875896740704775,-0.07962110638618469,-0.000770231825299561,0.0006193664739839733,0.011278284713625908,0,0,-1000,0,1,11,-1,1,-153,628560,628.5599975585938,0.0,1500.0
10:14:39.209,AUTO,-35.363262,149.1652376,44566,0.002015289617702365,0.0014875896740704775,-0.07962110638618469,-0.000770231825299561,0.0006193664739839733,0.011278284713625908,0,0,-1000,0,1,11,-1,1,-153,628560,628.5599975585938,0.0,1500.0
10:14:39.416,AUTO,-35.363262,149.1652376,44566,0.002015289617702365,0.0014875896740704775,-0.07962110638618469,-0.000770231825299561,0.0006193664739839733,0.011278284713625908,0,0,-1000,0,1,11,-1,1,-153,628560,628.5599975585938,0.0,1500.0
10:14:39.623,AUTO,-35.363262,149.1652376,44566,0.002015289617702365,0.0014875896740704775,-0.07962110638618469,-0.000770231825299561,0.0006193664739839733,0.011278284713625908,0,0,-1000,0,1,11,-1,1,-153,628560,628.5599975585938,0.0,1500.0
10:14:39.827,AUTO,-35.363262,149.1652376,44566,0.002015289617702365,0.0014875896740704775,-0.07962110638618469,-0.000770231825299561,0.0006193664739839733,0.011278284713625908,0,0,-1000,0,1,11,-1,1,-153,628560,628.5599975585938,0.0,1500.0
10:14:40.030,AUTO,-35.363262,149.1652376,44566,0.002015289617702365,0.0014875896740704775,-0.07962110638618469,-0.000770231825299561,0.0006193664739839733,0.011278284713625908,0,0,-1000,0,1,11,-1,1,-153,628560,628.5599975585938,0.0,1500.0
10:14:40.236,AUTO,-35.363262,149.1652376,44566,0.002015289617702365,0.0014875896740704775,-0.07962110638618469,-0.000770231825299561,0.0006193664739839733,0.011278284713625908,0,0,-1000,0,1,11,-1,1,-153,628560,628.5599975585938,0.0,1500.0
10:14:40.440,AUTO,-35.363262,149.1652376,45735,0.0021731150336563587,0.001021814881823957,-0.07146906852722168,0.0015758658992126584,0.0012902490561828017,0.011525270529091358,0,0,-1000,2,1,11,-1,0,-153,629730,629.72998046875,0.0,1500.0
10:14:40.644,AUTO,-35.363262,149.1652376,47686,-0.0008723412174731493,0.0035366590600460768,-0.0532638356089592,-0.06369171291589737,0.05511350929737091,0.12945520877838135,-1,0,-968,-62,56,129,0,0,-151,631680,631.6799926757812,0.0,1500.0
10:14:40.851,AUTO,-35.363262,149.1652376,47686,-0.0008723412174731493,0.0035366590600460768,-0.0532638356089592,-0.06369171291589737,0.05511350929737091,0.12945520877838135,-1,0,-968,-62,56,129,0,0,-151,631680,631.6799926757812,0.0,1500.0
10:14:41.056,AUTO,-35.363262,149.1652376,47686,-0.0008723412174731493,0.0035366590600460768,-0.0532638356089592,-0.06369171291589737,0.05511350929737091,0.12945520877838135,-1,0,-968,-62,56,129,0,0,-151,631680,631.6799926757812,0.0,1500.0
10:14:41.258,AUTO,-35.363262,149.1652376,47686,-0.0008723412174731493,0.0035366590600460768,-0.0532638356089592,-0.06369171291589737,0.05511350929737091,0.12945520877838135,-1,0,-968,-62,56,129,0,0,-151,631680,631.6799926757812,0.0,1500.0
10:14:41.462,AUTO,-35.363262,149.1652376,47686,-0.0008723412174731493,0.0035366590600460768,-0.0532638356089592,-0.06369171291589737,0.05511350929737091,0.12945520877838135,-1,0,-968,-62,56,129,0,0,-151,631680,631.6799926757812,0.0,1500.0
10:14:41.667,AUTO,-35.363262,149.1652376,47686,-0.0008723412174731493,0.0035366590600460768,-0.0532638356089592,-0.06369171291589737,0.05511350929737091,0.12945520877838135,-1,0,-968,-62,56,129,0,0,-151,631680,631.6799926757812,0.0,1500.0
10:14:41.869,AUTO,-35.363262,149.1652376,47686,-0.0008723412174731493,0.0035366590600460768,-0.0532638356089592,-0.06369171291589737,0.05511350929737091,0.12945520877838135,-1,0,-968,-62,56,129,0,0,-151,631680,631.6799926757812,0.0,1500.0
10:14:42.071,AUTO,-35.363262,149.1652376,47686,-0.0008723412174731493,0.0035366590600460768,-0.0532638356089592,-0.06369171291589737,0.05511350929737091,0.12945520877838135,-1,0,-968,-62,56,129,0,0,-151,631680,631.6799926757812,0.0,1500.0
10:14:42.273,AUTO,-35.363262,149.1652376,47686,-0.0008723412174731493,0.0035366590600460768,-0.0532638356089592,-0.06369171291589737,0.05511350929737091,0.12945520877838135,-1,0,-968,-62,56,129,0,0,-151,631680,631.6799926757812,0.0,1500.0
10:14:42.475,AUTO,-35.363262,149.1652376,47686,-0.0008723412174731493,0.0035366590600460768,-0.0532638356089592,-0.06369171291589737,0.05511350929737091,0.12945520877838135,-1,0,-968,-62,56,129,0,0,-151,631680,631.6799926757812,0.0,1500.0
10:14:42.688,AUTO,-35.3632655,149.1652309,49518,0.044892292469739914,-0.0581073984503746,0.2944382429122925,-0.1854056566953659,-0.06822184473276138,-0.03675767779350281,1,-13,-977,-187,-67,-36,-9,-22,-42,633510,633.510009765625,0.0,1500.0
10:14:42.890,AUTO,-35.3632655,149.1652309,49518,0.044892292469739914,-0.0581073984503746,0.2944382429122925,-0.1854056566953659,-0.06822184473276138,-0.03675767779350281,1,-13,-977,-187,-67,-36,-9,-22,-42,633510,633.510009765625,0.0,1500.0
10:14:43.096,AUTO,-35.3632655,149.1652309,49518,0.044892292469739914,-0.0581073984503746,0.2944382429122925,-0.1854056566953659,-0.06822184473276138,-0.03675767779350281,1,-13,-977,-187,-67,-36,-9,-22,-42,633510,633.510009765625,0.0,1500.0
10:14:43.300,AUTO,-35.3632655,149.1652309,49518,0.044892292469739914,-0.0581073984503746,0.2944382429122925,-0.1854056566953659,-0.06822184473276138,-0.03675767779350281,1,-13,-977,-187,-67,-36,-9,-22,-42,633510,633.510009765625,0.0,1500.0
10:14:43.509,AUTO,-35.3632655,149.1652309,49518,0.044892292469739914,-0.0581073984503746,0.2944382429122925,-0.1854056566953659,-0.06822184473276138,-0.03675767779350281,1,-13,-977,-187,-67,-36,-9,-22,-42,633510,633.510009765625,0.0,1500.0
10:14:43.711,AUTO,-35.3632655,149.1652309,49518,0.044892292469739914,-0.0581073984503746,0.2944382429122925,-0.1854056566953659,-0.06822184473276138,-0.03675767779350281,1,-13,-977,-187,-67,-36,-9,-22,-42,633510,633.510009765625,0.0,1500.0
10:14:43.914,AUTO,-35.3632655,149.1652309,49518,0.044892292469739914,-0.0581073984503746,0.2944382429122925,-0.1854056566953659,-0.06822184473276138,-0.03675767779350281,1,-13,-977,-187,-67,-36,-9,-22,-42,633510,633.510009765625,0.0,1500.0
10:14:44.118,AUTO,-35.3632649,149.1652314,49852,0.042236700654029846,-0.021129800006747246,0.26356109976768494,0.4309900403022766,0.04262738302350044,-0.031060228124260902,-1,23,-1012,500,52,-22,20,29,-30,633850,633.8499755859375,0.0,1500.0
10:14:44.328,AUTO,-35.3632635,149.1652343,50019,-0.005898881703615189,0.007482743356376886,0.24794252216815948,-0.6871588230133057,0.02471928298473358,-0.016747916117310524,0,-39,-987,-479,37,-24,21,34,-13,634010,634.010009765625,0.0,1500.0
10:14:44.531,AUTO,-35.3632635,149.1652343,50019,-0.005898881703615189,0.007482743356376886,0.24794252216815948,-0.6871588230133057,0.02471928298473358,-0.016747916117310524,0,-36,-962,-685,25,-16,21,34,-13,634010,634.010009765625,0.0,1500.0
10:14:44.741,AUTO,-35.3632631,149.1652354,50032,-0.018866831436753273,0.026086388155817986,0.24249368906021118,-0.4288006126880646,0.061654072254896164,-0.008010467514395714,0,-3,-921,-422,62,-7,18,32,1,634030,634.0299682617188,0.0,1500.0
10:14:44.946,AUTO,-35.3632631,149.1652354,50032,-0.018866831436753273,0.026086388155817986,0.24249368906021118,-0.4288006126880646,0.061654072254896164,-0.008010467514395714,0,-3,-921,-422,62,-7,18,32,1,634030,634.0299682617188,0.0,1500.0
10:14:45.149,AUTO,-35.3632631,149.1652354,50032,-0.018866831436753273,0.026086388155817986,0.24249368906021118,-0.4288006126880646,0.061654072254896164,-0.008010467514395714,0,-3,-921,-422,62,-7,18,32,1,634030,634.0299682617188,0.0,1500.0
10:14:45.353,AUTO,-35.3632631,149.1652354,50032,-0.018866831436753273,0.026086388155817986,0.24249368906021118,-0.4288006126880646,0.061654072254896164,-0.008010467514395714,0,-3,-921,-422,62,-7,18,32,1,634030,634.0299682617188,0.0,1500.0
10:14:45.557,AUTO,-35.3632631,149.1652354,50032,-0.018866831436753273,0.026086388155817986,0.24249368906021118,-0.4288006126880646,0.061654072254896164,-0.008010467514395714,0,-3,-921,-422,62,-7,18,32,1,634030,634.0299682617188,0.0,1500.0
10:14:45.759,AUTO,-35.3632631,149.1652354,50032,-0.018866831436753273,0.026086388155817986,0.24249368906021118,-0.4288006126880646,0.061654072254896164,-0.008010467514395714,0,-3,-921,-422,62,-7,18,32,1,634030,634.0299682617188,0.0,1500.0
10:14:45.962,AUTO,-35.3632631,149.1652354,50032,-0.018866831436753273,0.026086388155817986,0.24249368906021118,-0.4288006126880646,0.061654072254896164,-0.008010467514395714,0,-3,-921,-422,62,-7,18,32,1,634030,634.0299682617188,0.0,1500.0
10:14:46.164,AUTO,-35.3632624,149.1652387,49981,0.0554606094956398,-0.0004523699462879449,0.22455953061580658,0.664429783821106,-0.024434834718704224,-0.015571029856801033,3,29,-1019,725,-20,-14,4,29,0,633980,633.97998046875,0.0,1500.0
10:14:46.366,AUTO,-35.3632625,149.165243,49975,0.06304701417684555,-0.006745296064764261,0.2296203076839447,-0.4770229160785675,-0.02713720127940178,0.16805148124694824,9,-51,-998,-481,-26,168,2,60,-3,633970,633.969970703125,0.0,1500.0
10:14:46.568,AUTO,-35.3632625,149.1652452,49978,0.06627105176448822,-0.01794247515499592,0.34706833958625793,-0.6433265209197998,-0.05297498404979706,0.7070215940475464,6,-44,-1014,-643,-52,707,2,76,-2,633970,633.969970703125,0.0,1500.0
10:14:46.770,AUTO,-35.3632625,149.1652452,49978,0.06627105176448822,-0.01794247515499592,0.34706833958625793,-0.6433265209197998,-0.05297498404979706,0.7070215940475464,6,-44,-1014,-643,-52,707,2,76,-2,633970,633.969970703125,0.0,1500.0
10:14:46.972,AUTO,-35.3632625,149.1652452,49978,0.06627105176448822,-0.01794247515499592,0.34706833958625793,-0.6433265209197998,-0.05297498404979706,0.7070215940475464,6,-44,-1014,-643,-52,707,2,76,-2,633970,633.969970703125,0.0,1500.0
10:14:47.176,AUTO,-35.3632625,149.1652452,49978,0.06627105176448822,-0.01794247515499592,0.34706833958625793,-0.6433265209197998,-0.05297498404979706,0.7070215940475464,6,-44,-1014,-643,-52,707,2,76,-2,633970,633.969970703125,0.0,1500.0
10:14:47.378,AUTO,-35.3632625,149.1652452,49978,0.06627105176448822,-0.01794247515499592,0.34706833958625793,-0.6433265209197998,-0.05297498404979706,0.7070215940475464,6,-44,-1014,-643,-52,707,2,76,-2,633970,633.969970703125,0.0,1500.0
10:14:47.582,AUTO,-35.3632625,149.1652452,49978,0.06627105176448822,-0.01794247515499592,0.34706833958625793,-0.6433265209197998,-0.05297498404979706,0.7070215940475464,6,-44,-1014,-643,-52,707,2,76,-2,633970,633.969970703125,0.0,1500.0
10:14:47.787,AUTO,-35.3632625,149.1652452,49978,0.06627105176448822,-0.01794247515499592,0.34706833958625793,-0.6433265209197998,-0.05297498404979706,0.7070215940475464,6,-44,-1014,-643,-52,707,2,76,-2,633970,633.969970703125,0.0,1500.0
10:14:47.989,AUTO,-35.3632625,149.1652452,49978,0.06627105176448822,-0.01794247515499592,0.34706833958625793,-0.6433265209197998,-0.05297498404979706,0.7070215940475464,6,-44,-1014,-643,-52,707,2,76,-2,633970,633.969970703125,0.0,1500.0
10:14:48.196,AUTO,-35.3632625,149.1652452,49978,0.06627105176448822,-0.01794247515499592,0.34706833958625793,-0.6433265209197998,-0.05297498404979706,0.7070215940475464,6,-44,-1014,-643,-52,707,2,76,-2,633970,633.969970703125,0.0,1500.0
10:14:48.400,AUTO,-35.3632625,149.1652452,49978,0.06627105176448822,-0.01794247515499592,0.34706833958625793,-0.6433265209197998,-0.05297498404979706,0.7070215940475464,6,-44,-1014,-643,-52,707,2,76,-2,633970,633.969970703125,0.0,1500.0
10:14:48.604,AUTO,-35.3632626,149.1652753,49968,0.010737920179963112,-0.1787514090538025,1.6768128871917725,-0.22379030287265778,-0.042442306876182556,0.64600670337677,-52,-21,-1007,-219,-41,645,0,245,0,633960,633.9599609375,0.0,1500.0
10:14:48.825,AUTO,-35.3632626,149.1652826,49963,0.006332820747047663,-0.1789475381374359,1.7877501249313354,0.41425493359565735,0.0030363574624061584,0.23532642424106598,-64,0,-1015,417,3,235,0,277,0,633960,633.9599609375,0.0,1500.0
10:14:49.033,AUTO,-35.3632626,149.1652826,49963,0.006332820747047663,-0.1789475381374359,1.7877501249313354,0.41425493359565735,0.0030363574624061584,0.23532642424106598,-64,0,-1015,417,3,235,0,277,0,633960,633.9599609375,0.0,1500.0
10:14:49.242,AUTO,-35.3632626,149.1652826,49963,0.006332820747047663,-0.1789475381374359,1.7877501249313354,0.41425493359565735,0.0030363574624061584,0.23532642424106598,-64,0,-1015,417,3,235,0,277,0,633960,633.9599609375,0.0,1500.0
10:14:49.447,AUTO,-35.3632626,149.1652826,49963,0.006332820747047663,-0.1789475381374359,1.7877501249313354,0.41425493359565735,0.0030363574624061584,0.23532642424106598,-64,0,-1015,417,3,235,0,277,0,633960,633.9599609375,0.0,1500.0
10:14:49.655,AUTO,-35.3632626,149.1652826,49963,0.006332820747047663,-0.1789475381374359,1.7877501249313354,0.41425493359565735,0.0030363574624061584,0.23532642424106598,-64,0,-1015,417,3,235,0,277,0,633960,633.9599609375,0.0,1500.0
10:14:49.859,AUTO,-35.3632626,149.1652826,49963,0.006332820747047663,-0.1789475381374359,1.7877501249313354,0.41425493359565735,0.0030363574624061584,0.23532642424106598,-64,0,-1015,417,3,235,0,277,0,633960,633.9599609375,0.0,1500.0
10:14:50.062,AUTO,-35.3632626,149.1652826,49963,0.006332820747047663,-0.1789475381374359,1.7877501249313354,0.41425493359565735,0.0030363574624061584,0.23532642424106598,-64,0,-1015,417,3,235,0,277,0,633960,633.9599609375,0.0,1500.0
10:14:50.266,AUTO,-35.3632626,149.1652826,49963,0.006332820747047663,-0.1789475381374359,1.7877501249313354,0.41425493359565735,0.0030363574624061584,0.23532642424106598,-64,0,-1015,417,3,235,0,277,0,633960,633.9599609375,0.0,1500.0
10:14:50.468,AUTO,-35.3632629,149.165344,49988,0.049323420971632004,-0.12549065053462982,1.7060824632644653,0.1621367186307907,0.006954617332667112,-0.04340257868170738,-92,-58,-1008,-378,45,-14,-8,403,-2,633980,633.97998046875,0.0,1500.0
10:14:50.673,AUTO,-35.363263,149.1653553,49993,0.049323420971632004,-0.12549065053462982,1.7060824632644653,0.1621367186307907,0.006954617332667112,-0.04340257868170738,-95,-24,-1001,167,7,-42,-11,412,-2,633990,633.989990234375,0.0,1500.0
10:14:50.875,AUTO,-35.363263,149.1653553,49993,0.049323420971632004,-0.12549065053462982,1.7060824632644653,0.1621367186307907,0.006954617332667112,-0.04340257868170738,-95,-24,-1001,167,7,-42,-11,412,-2,633990,633.989990234375,0.0,1500.0
10:14:51.081,AUTO,-35.363263,149.1653553,49993,0.049323420971632004,-0.12549065053462982,1.7060824632644653,0.1621367186307907,0.006954617332667112,-0.04340257868170738,-95,-24,-1001,167,7,-42,-11,412,-2,633990,633.989990234375,0.0,1500.0
