time_stamp,MODE,lat,lon,relative_alt,roll,pitch,yaw,rollspeed,pitchspeed,yawspeed,xacc,yacc,zacc,xgyro,ygyro,zgyro,vx,vy,vz,LAND_SPEED_HIGH,WPNAV_SPEED_DN,RTL_ALT
12:03:37.168,GUIDED,-35.3632621,149.1652374,0,-0.00077796820551157,0.0014907628064975142,0.02891080640256405,0.00019947948749177158,0.00021687831031158566,0.0023983092978596687,0,1,-1000,0,0,0,0,0,-1,120.0,90.0,1500.0
12:03:37.369,GUIDED,-35.3632621,149.1652374,0,-0.000710850756149739,0.001606927951797843,0.028477255254983902,0.0001651780039537698,0.0003819253761321306,0.002451689448207617,0,1,-1000,0,0,0,-1,0,-1,120.0,90.0,1500.0
12:03:37.572,GUIDED,-35.3632621,149.1652374,0,-0.000710850756149739,0.001606927951797843,0.028477255254983902,0.0001651780039537698,0.0003819253761321306,0.002451689448207617,0,1,-1000,0,0,0,-1,0,-1,120.0,90.0,1500.0
12:03:37.773,GUIDED,-35.3632621,149.1652374,0,-0.000710850756149739,0.001606927951797843,0.028477255254983902,0.0001651780039537698,0.0003819253761321306,0.002451689448207617,0,1,-1000,0,0,0,-1,0,-1,120.0,90.0,1500.0
12:03:37.974,GUIDED,-35.3632621,149.1652374,0,-0.000710850756149739,0.001606927951797843,0.028477255254983902,0.0001651780039537698,0.0003819253761321306,0.002451689448207617,0,1,-1000,0,0,0,-1,0,-1,120.0,90.0,1500.0
12:03:38.178,GUIDED,-35.3632621,149.1652374,0,-0.000710850756149739,0.001606927951797843,0.028477255254983902,0.0001651780039537698,0.0003819253761321306,0.002451689448207617,0,1,-1000,0,0,0,-1,0,-1,120.0,90.0,1500.0
12:03:38.382,GUIDED,-35.3632621,149.1652374,0,-0.000710850756149739,0.001606927951797843,0.028477255254983902,0.0001651780039537698,0.0003819253761321306,0.002451689448207617,0,1,-1000,0,0,0,-1,0,-1,120.0,90.0,1500.0
12:03:38.586,GUIDED,-35.3632621,149.1652374,0,-0.000710850756149739,0.001606927951797843,0.028477255254983902,0.0001651780039537698,0.0003819253761321306,0.002451689448207617,0,1,-1000,0,0,0,-1,0,-1,120.0,90.0,1500.0
12:03:38.790,GUIDED,-35.3632621,149.1652374,0,-0.000710850756149739,0.001606927951797843,0.028477255254983902,0.0001651780039537698,0.0003819253761321306,0.002451689448207617,0,1,-1000,0,0,0,-1,0,-1,120.0,90.0,1500.0
12:03:38.992,GUIDED,-35.3632622,149.1652374,0,-0.0007695021340623498,0.0014301651390269399,0.027508173137903214,0.00027401206898503006,0.0002512982173357159,0.0022830930538475513,0,1,-1000,0,0,0,-2,1,-1,120.0,90.0,1500.0
12:03:39.193,GUIDED,-35.3632622,149.1652374,0,-0.0007993116741999984,0.0013817459112033248,0.027403706684708595,0.0003904638870153576,0.00025989010464400053,0.0022342971060425043,0,1,-1000,0,0,0,-2,1,-1,120.0,90.0,1500.0
12:03:39.395,GUIDED,-35.3632622,149.1652374,0,-0.0007993116741999984,0.0013817459112033248,0.027403706684708595,0.0003904638870153576,0.00025989010464400053,0.0022342971060425043,0,1,-1000,0,0,0,-2,1,-1,120.0,90.0,1500.0
12:03:39.596,GUIDED,-35.3632622,149.1652374,0,-0.0007993116741999984,0.0013817459112033248,0.027403706684708595,0.0003904638870153576,0.00025989010464400053,0.0022342971060425043,0,1,-1000,0,0,0,-2,1,-1,120.0,90.0,1500.0
12:03:39.797,GUIDED,-35.3632622,149.1652374,0,-0.0007993116741999984,0.0013817459112033248,0.027403706684708595,0.0003904638870153576,0.00025989010464400053,0.0022342971060425043,0,1,-1000,0,0,0,-2,1,-1,120.0,90.0,1500.0
12:03:40.000,GUIDED,-35.3632622,149.1652374,0,-0.0007993116741999984,0.0013817459112033248,0.027403706684708595,0.0003904638870153576,0.00025989010464400053,0.0022342971060425043,0,1,-1000,0,0,0,-2,1,-1,120.0,90.0,1500.0
12:03:40.205,GUIDED,-35.3632622,149.1652374,0,-0.0007993116741999984,0.0013817459112033248,0.027403706684708595,0.0003904638870153576,0.00025989010464400053,0.0022342971060425043,0,1,-1000,0,0,0,-2,1,-1,120.0,90.0,1500.0
12:03:40.407,GUIDED,-35.3632622,149.1652374,0,-0.0007993116741999984,0.0013817459112033248,0.027403706684708595,0.0003904638870153576,0.00025989010464400053,0.0022342971060425043,0,1,-1000,0,0,0,-2,1,-1,120.0,90.0,1500.0
12:03:40.609,GUIDED,-35.3632622,149.1652374,0,-0.0007993116741999984,0.0013817459112033248,0.027403706684708595,0.0003904638870153576,0.00025989010464400053,0.0022342971060425043,0,1,-1000,0,0,0,-2,1,-1,120.0,90.0,1500.0
12:03:40.813,GUIDED,-35.3632622,149.1652374,0,-0.0007993116741999984,0.0013817459112033248,0.027403706684708595,0.0003904638870153576,0.00025989010464400053,0.0022342971060425043,0,1,-1000,0,0,0,-2,1,-1,120.0,90.0,1500.0
12:03:41.017,GUIDED,-35.3632622,149.1652374,0,-0.0007993116741999984,0.0013817459112033248,0.027403706684708595,0.0003904638870153576,0.00025989010464400053,0.0022342971060425043,0,1,-1000,0,0,0,-2,1,-1,120.0,90.0,1500.0
12:03:41.220,GUIDED,-35.3632621,149.1652374,0,-0.0006958883022889495,0.0014013673644512892,0.026511069387197495,0.00013641052646562457,0.00033934894599951804,0.002173236571252346,0,1,-1000,0,0,0,0,0,0,120.0,90.0,1500.0
12:03:41.422,GUIDED,-35.3632621,149.1652374,0,-0.0006491061649285257,0.0014564157463610172,0.026396969333291054,0.0003269734443165362,0.00022755475947633386,0.002094825729727745,0,1,-1000,0,0,1,0,0,0,120.0,90.0,1500.0
12:03:41.624,GUIDED,-35.3632621,149.1652374,0,-0.0006491061649285257,0.0014564157463610172,0.026396969333291054,0.0003269734443165362,0.00022755475947633386,0.002094825729727745,0,1,-1000,0,0,1,0,0,0,120.0,90.0,1500.0
12:03:41.827,GUIDED,-35.3632621,149.1652374,0,-0.0006491061649285257,0.0014564157463610172,0.026396969333291054,0.0003269734443165362,0.00022755475947633386,0.002094825729727745,0,1,-1000,0,0,1,0,0,0,120.0,90.0,1500.0
12:03:42.029,GUIDED,-35.3632621,149.1652374,0,-0.0006491061649285257,0.0014564157463610172,0.026396969333291054,0.0003269734443165362,0.00022755475947633386,0.002094825729727745,0,1,-1000,0,0,1,0,0,0,120.0,90.0,1500.0
12:03:42.232,GUIDED,-35.3632621,149.1652374,0,-0.0006491061649285257,0.0014564157463610172,0.026396969333291054,0.0003269734443165362,0.00022755475947633386,0.002094825729727745,0,1,-1000,0,0,1,0,0,0,120.0,90.0,1500.0
12:03:42.436,GUIDED,-35.3632621,149.1652374,0,-0.0006491061649285257,0.0014564157463610172,0.026396969333291054,0.0003269734443165362,0.00022755475947633386,0.002094825729727745,0,1,-1000,0,0,1,0,0,0,120.0,90.0,1500.0
12:03:42.638,GUIDED,-35.3632621,149.1652374,0,-0.0006491061649285257,0.0014564157463610172,0.026396969333291054,0.0003269734443165362,0.00022755475947633386,0.002094825729727745,0,1,-1000,0,0,1,0,0,0,120.0,90.0,1500.0
12:03:42.841,GUIDED,-35.3632621,149.1652374,0,-0.0006491061649285257,0.0014564157463610172,0.026396969333291054,0.0003269734443165362,0.00022755475947633386,0.002094825729727745,0,1,-1000,0,0,1,0,0,0,120.0,90.0,1500.0
12:03:43.046,GUIDED,-35.3632621,149.1652374,0,-0.00045077133108861744,0.0017318949103355408,0.025877011939883232,0.0002482946729287505,0.0002098481636494398,0.0020408984273672104,0,1,-1000,0,0,0,0,0,0,120.0,90.0,1500.0
12:03:43.248,GUIDED,-35.3632621,149.1652374,47,0.003724658163264394,-0.0006812617648392916,0.025410160422325134,-0.003090065671131015,-0.006263693794608116,0.003058919683098793,0,0,-1140,-2,-5,2,0,0,-36,120.0,90.0,1500.0
12:03:43.451,GUIDED,-35.3632621,149.1652374,47,0.003724658163264394,-0.0006812617648392916,0.025410160422325134,-0.003090065671131015,-0.006263693794608116,0.003058919683098793,0,0,-1140,-2,-5,2,0,0,-36,120.0,90.0,1500.0
12:03:43.654,GUIDED,-35.3632621,149.1652374,47,0.003724658163264394,-0.0006812617648392916,0.025410160422325134,-0.003090065671131015,-0.006263693794608116,0.003058919683098793,0,0,-1140,-2,-5,2,0,0,-36,120.0,90.0,1500.0
12:03:43.856,GUIDED,-35.3632621,149.1652374,47,0.003724658163264394,-0.0006812617648392916,0.025410160422325134,-0.003090065671131015,-0.006263693794608116,0.003058919683098793,0,0,-1140,-2,-5,2,0,0,-36,120.0,90.0,1500.0
12:03:44.058,GUIDED,-35.3632621,149.1652374,47,0.003724658163264394,-0.0006812617648392916,0.025410160422325134,-0.003090065671131015,-0.006263693794608116,0.003058919683098793,0,0,-1140,-2,-5,2,0,0,-36,120.0,90.0,1500.0
12:03:44.260,GUIDED,-35.3632621,149.1652374,47,0.003724658163264394,-0.0006812617648392916,0.025410160422325134,-0.003090065671131015,-0.006263693794608116,0.003058919683098793,0,0,-1140,-2,-5,2,0,0,-36,120.0,90.0,1500.0
12:03:44.462,GUIDED,-35.3632621,149.1652374,47,0.003724658163264394,-0.0006812617648392916,0.025410160422325134,-0.003090065671131015,-0.006263693794608116,0.003058919683098793,0,0,-1140,-2,-5,2,0,0,-36,120.0,90.0,1500.0
12:03:44.664,GUIDED,-35.3632621,149.1652374,47,0.003724658163264394,-0.0006812617648392916,0.025410160422325134,-0.003090065671131015,-0.006263693794608116,0.003058919683098793,0,0,-1140,-2,-5,2,0,0,-36,120.0,90.0,1500.0
12:03:44.869,GUIDED,-35.3632619,149.1652376,1362,0.02198587730526924,-0.00024746861890889704,0.020633870735764503,0.04581384360790253,-0.006255528423935175,-0.0019643399864435196,0,0,-1044,45,0,-5,3,7,-145,120.0,90.0,1500.0
12:03:45.070,GUIDED,-35.3632617,149.1652383,2123,0.043847598135471344,-0.004030853044241667,0.019097305834293365,0.041297782212495804,-0.00880897045135498,0.0009716118220239878,0,-3,-1003,41,-8,0,4,21,-148,120.0,90.0,1500.0
12:03:45.272,GUIDED,-35.3632615,149.165239,2511,0.053913962095975876,-0.006568275857716799,0.018704362213611603,0.03848238289356232,-0.01128319837152958,0.0019287316827103496,1,-5,-1000,38,-10,1,6,31,-149,120.0,90.0,1500.0
12:03:45.475,GUIDED,-35.3632615,149.165239,2511,0.053913962095975876,-0.006568275857716799,0.018704362213611603,0.03848238289356232,-0.01128319837152958,0.0019287316827103496,1,-5,-1000,38,-10,1,6,31,-149,120.0,90.0,1500.0
12:03:45.679,GUIDED,-35.3632615,149.165239,2511,0.053913962095975876,-0.006568275857716799,0.018704362213611603,0.03848238289356232,-0.01128319837152958,0.0019287316827103496,1,-5,-1000,38,-10,1,6,31,-149,120.0,90.0,1500.0
12:03:45.881,GUIDED,-35.3632615,149.165239,2511,0.053913962095975876,-0.006568275857716799,0.018704362213611603,0.03848238289356232,-0.01128319837152958,0.0019287316827103496,1,-5,-1000,38,-10,1,6,31,-149,120.0,90.0,1500.0
12:03:46.084,GUIDED,-35.3632615,149.165239,2511,0.053913962095975876,-0.006568275857716799,0.018704362213611603,0.03848238289356232,-0.01128319837152958,0.0019287316827103496,1,-5,-1000,38,-10,1,6,31,-149,120.0,90.0,1500.0
12:03:46.286,GUIDED,-35.3632615,149.165239,2511,0.053913962095975876,-0.006568275857716799,0.018704362213611603,0.03848238289356232,-0.01128319837152958,0.0019287316827103496,1,-5,-1000,38,-10,1,6,31,-149,120.0,90.0,1500.0
12:03:46.488,GUIDED,-35.3632615,149.165239,2511,0.053913962095975876,-0.006568275857716799,0.018704362213611603,0.03848238289356232,-0.01128319837152958,0.0019287316827103496,1,-5,-1000,38,-10,1,6,31,-149,120.0,90.0,1500.0
12:03:46.689,GUIDED,-35.3632615,149.165239,2511,0.053913962095975876,-0.006568275857716799,0.018704362213611603,0.03848238289356232,-0.01128319837152958,0.0019287316827103496,1,-5,-1000,38,-10,1,6,31,-149,120.0,90.0,1500.0
12:03:46.893,GUIDED,-35.3632607,149.1652436,3878,-0.02348819375038147,0.01918790116906166,-0.06243865564465523,-0.078745998442173,-0.05203868821263313,-0.025464659556746483,5,-11,-1012,-77,-51,-26,4,48,-146,120.0,90.0,1500.0
12:03:47.100,GUIDED,-35.3632604,149.165246,5029,-0.07663887739181519,0.007905093021690845,-0.08876383304595947,-0.01966608501970768,0.004929166287183762,-0.04139695316553116,1,-3,-1006,-19,5,-42,0,4,-149,120.0,90.0,1500.0
12:03:47.301,GUIDED,-35.3632605,149.1652459,5421,-0.07226407527923584,0.0057053277269005775,-0.09702128171920776,0.03949075937271118,-0.009569690562784672,-0.025682158768177032,0,0,-1003,40,-9,-26,-2,-15,-150,120.0,90.0,1500.0
12:03:47.502,GUIDED,-35.3632605,149.1652459,5421,-0.07226407527923584,0.0057053277269005775,-0.09702128171920776,0.03949075937271118,-0.009569690562784672,-0.025682158768177032,0,0,-1003,40,-9,-26,-2,-15,-150,120.0,90.0,1500.0
12:03:47.706,GUIDED,-35.3632605,149.1652459,5421,-0.07226407527923584,0.0057053277269005775,-0.09702128171920776,0.03949075937271118,-0.009569690562784672,-0.025682158768177032,0,0,-1003,40,-9,-26,-2,-15,-150,120.0,90.0,1500.0
12:03:47.907,GUIDED,-35.3632605,149.1652459,5421,-0.07226407527923584,0.0057053277269005775,-0.09702128171920776,0.03949075937271118,-0.009569690562784672,-0.025682158768177032,0,0,-1003,40,-9,-26,-2,-15,-150,120.0,90.0,1500.0
12:03:48.110,GUIDED,-35.3632605,149.1652459,5421,-0.07226407527923584,0.0057053277269005775,-0.09702128171920776,0.03949075937271118,-0.009569690562784672,-0.025682158768177032,0,0,-1003,40,-9,-26,-2,-15,-150,120.0,90.0,1500.0
12:03:48.313,GUIDED,-35.3632605,149.1652459,5421,-0.07226407527923584,0.0057053277269005775,-0.09702128171920776,0.03949075937271118,-0.009569690562784672,-0.025682158768177032,0,0,-1003,40,-9,-26,-2,-15,-150,120.0,90.0,1500.0
12:03:48.515,GUIDED,-35.3632605,149.1652459,5421,-0.07226407527923584,0.0057053277269005775,-0.09702128171920776,0.03949075937271118,-0.009569690562784672,-0.025682158768177032,0,0,-1003,40,-9,-26,-2,-15,-150,120.0,90.0,1500.0
12:03:48.718,GUIDED,-35.3632605,149.1652459,5421,-0.07226407527923584,0.0057053277269005775,-0.09702128171920776,0.03949075937271118,-0.009569690562784672,-0.025682158768177032,0,0,-1003,40,-9,-26,-2,-15,-150,120.0,90.0,1500.0
12:03:48.921,GUIDED,-35.3632608,149.1652431,6572,-0.03145275637507439,0.004192469175904989,-0.1097259372472763,0.061896588653326035,0.004725257866084576,-0.006973352283239365,0,0,-1003,40,-9,-26,-9,-49,-150,120.0,90.0,1500.0
12:03:49.124,GUIDED,-35.363262,149.1652375,8127,0.033545684069395065,0.010119319893419743,-0.11077005416154861,0.06513192504644394,0.0026387330144643784,0.0031009323429316282,-3,12,-1003,65,2,2,-18,-39,-153,120.0,90.0,1500.0
12:03:49.326,GUIDED,-35.3632625,149.1652365,8520,0.04401234909892082,0.005713560152798891,-0.10492723435163498,0.019046777859330177,-0.03956315293908119,0.04235193505883217,0,8,-999,19,-38,41,-19,-27,-153,120.0,90.0,1500.0
12:03:49.527,GUIDED,-35.3632625,149.1652365,8520,0.04401234909892082,0.005713560152798891,-0.10492723435163498,0.019046777859330177,-0.03956315293908119,0.04235193505883217,0,8,-999,19,-38,41,-19,-27,-153,120.0,90.0,1500.0
12:03:49.729,GUIDED,-35.3632625,149.1652365,8520,0.04401234909892082,0.005713560152798891,-0.10492723435163498,0.019046777859330177,-0.03956315293908119,0.04235193505883217,0,8,-999,19,-38,41,-19,-27,-153,120.0,90.0,1500.0
12:03:49.934,GUIDED,-35.3632625,149.1652365,8520,0.04401234909892082,0.005713560152798891,-0.10492723435163498,0.019046777859330177,-0.03956315293908119,0.04235193505883217,0,8,-999,19,-38,41,-19,-27,-153,120.0,90.0,1500.0
12:03:50.137,GUIDED,-35.3632625,149.1652365,8520,0.04401234909892082,0.005713560152798891,-0.10492723435163498,0.019046777859330177,-0.03956315293908119,0.04235193505883217,0,8,-999,19,-38,41,-19,-27,-153,120.0,90.0,1500.0
12:03:50.339,GUIDED,-35.3632625,149.1652365,8520,0.04401234909892082,0.005713560152798891,-0.10492723435163498,0.019046777859330177,-0.03956315293908119,0.04235193505883217,0,8,-999,19,-38,41,-19,-27,-153,120.0,90.0,1500.0
12:03:50.540,GUIDED,-35.3632625,149.1652365,8520,0.04401234909892082,0.005713560152798891,-0.10492723435163498,0.019046777859330177,-0.03956315293908119,0.04235193505883217,0,8,-999,19,-38,41,-19,-27,-153,120.0,90.0,1500.0
12:03:50.741,GUIDED,-35.3632625,149.1652365,8520,0.04401234909892082,0.005713560152798891,-0.10492723435163498,0.019046777859330177,-0.03956315293908119,0.04235193505883217,0,8,-999,19,-38,41,-19,-27,-153,120.0,90.0,1500.0
12:03:50.946,GUIDED,-35.3632626,149.1652356,10850,-0.0035617798566818237,-0.006164648104459047,-0.07922197133302689,-0.017385464161634445,0.03635724261403084,-0.052344560623168945,-3,-3,-1002,-16,36,-53,18,3,-151,120.0,90.0,1500.0
12:03:51.147,GUIDED,-35.3632622,149.1652356,11237,-0.005949096288532019,0.0014446761924773455,-0.0930056944489479,-0.004597474820911884,0.026385221630334854,-0.04917141795158386,-3,-2,-1002,-4,26,-50,18,1,-151,120.0,90.0,1500.0
12:03:51.349,GUIDED,-35.3632618,149.1652356,11625,-0.0057861232198774815,0.006815098691731691,-0.10574505478143692,0.005875742994248867,0.01930723711848259,-0.045418381690979004,-3,-2,-1002,6,19,-46,16,-1,-152,120.0,90.0,1500.0
12:03:51.554,GUIDED,-35.3632618,149.1652356,11625,-0.0057861232198774815,0.006815098691731691,-0.10574505478143692,0.005875742994248867,0.01930723711848259,-0.045418381690979004,-3,-2,-1002,6,19,-46,16,-1,-152,120.0,90.0,1500.0
12:03:51.761,GUIDED,-35.3632618,149.1652356,11625,-0.0057861232198774815,0.006815098691731691,-0.10574505478143692,0.005875742994248867,0.01930723711848259,-0.045418381690979004,-3,-2,-1002,6,19,-46,16,-1,-152,120.0,90.0,1500.0
12:03:51.969,GUIDED,-35.3632618,149.1652356,11625,-0.0057861232198774815,0.006815098691731691,-0.10574505478143692,0.005875742994248867,0.01930723711848259,-0.045418381690979004,-3,-2,-1002,6,19,-46,16,-1,-152,120.0,90.0,1500.0
12:03:52.175,GUIDED,-35.3632618,149.1652356,11625,-0.0057861232198774815,0.006815098691731691,-0.10574505478143692,0.005875742994248867,0.01930723711848259,-0.045418381690979004,-3,-2,-1002,6,19,-46,16,-1,-152,120.0,90.0,1500.0
12:03:52.377,GUIDED,-35.3632618,149.1652356,11625,-0.0057861232198774815,0.006815098691731691,-0.10574505478143692,0.005875742994248867,0.01930723711848259,-0.045418381690979004,-3,-2,-1002,6,19,-46,16,-1,-152,120.0,90.0,1500.0
12:03:52.578,GUIDED,-35.3632618,149.1652356,11625,-0.0057861232198774815,0.006815098691731691,-0.10574505478143692,0.005875742994248867,0.01930723711848259,-0.045418381690979004,-3,-2,-1002,6,19,-46,16,-1,-152,120.0,90.0,1500.0
12:03:52.781,GUIDED,-35.3632618,149.1652356,11625,-0.0057861232198774815,0.006815098691731691,-0.10574505478143692,0.005875742994248867,0.01930723711848259,-0.045418381690979004,-3,-2,-1002,6,19,-46,16,-1,-152,120.0,90.0,1500.0
12:03:52.984,GUIDED,-35.3632618,149.1652356,11625,-0.0057861232198774815,0.006815098691731691,-0.10574505478143692,0.005875742994248867,0.01930723711848259,-0.045418381690979004,-3,-2,-1002,6,19,-46,16,-1,-152,120.0,90.0,1500.0
12:03:53.187,GUIDED,-35.3632607,149.1652349,13966,0.010583904571831226,0.013804716989398003,-0.1440180093050003,0.004573434125632048,-0.005348748527467251,-0.007494148798286915,-1,0,-1000,10,-1,-12,-2,0,-153,120.0,90.0,1500.0
12:03:53.389,GUIDED,-35.3632607,149.1652349,14749,0.010436664335429668,0.01064164936542511,-0.14802286028862,-0.002598574385046959,-0.0052132559940218925,-0.008347231894731522,0,0,-999,-2,-4,-9,-5,4,-152,120.0,90.0,1500.0
12:03:53.590,GUIDED,-35.3632607,149.1652349,14749,0.010436664335429668,0.01064164936542511,-0.14802286028862,-0.002598574385046959,-0.0052132559940218925,-0.008347231894731522,0,0,-999,-2,-4,-9,-5,4,-152,120.0,90.0,1500.0
12:03:53.794,GUIDED,-35.3632607,149.1652349,14749,0.010436664335429668,0.01064164936542511,-0.14802286028862,-0.002598574385046959,-0.0052132559940218925,-0.008347231894731522,0,0,-999,-2,-4,-9,-5,4,-152,120.0,90.0,1500.0
12:03:53.998,GUIDED,-35.3632607,149.1652349,14749,0.010436664335429668,0.01064164936542511,-0.14802286028862,-0.002598574385046959,-0.0052132559940218925,-0.008347231894731522,0,0,-999,-2,-4,-9,-5,4,-152,120.0,90.0,1500.0
12:03:54.203,GUIDED,-35.3632607,149.1652349,14749,0.010436664335429668,0.01064164936542511,-0.14802286028862,-0.002598574385046959,-0.0052132559940218925,-0.008347231894731522,0,0,-999,-2,-4,-9,-5,4,-152,120.0,90.0,1500.0
12:03:54.405,GUIDED,-35.3632607,149.1652349,14749,0.010436664335429668,0.01064164936542511,-0.14802286028862,-0.002598574385046959,-0.0052132559940218925,-0.008347231894731522,0,0,-999,-2,-4,-9,-5,4,-152,120.0,90.0,1500.0
12:03:54.606,GUIDED,-35.3632607,149.1652349,14749,0.010436664335429668,0.01064164936542511,-0.14802286028862,-0.002598574385046959,-0.0052132559940218925,-0.008347231894731522,0,0,-999,-2,-4,-9,-5,4,-152,120.0,90.0,1500.0
12:03:54.808,GUIDED,-35.3632607,149.1652349,14749,0.010436664335429668,0.01064164936542511,-0.14802286028862,-0.002598574385046959,-0.0052132559940218925,-0.008347231894731522,0,0,-999,-2,-4,-9,-5,4,-152,120.0,90.0,1500.0
12:03:55.012,GUIDED,-35.3632615,149.1652359,17489,0.0014137165853753686,0.001364168361760676,-0.1703798621892929,-0.000935341406147927,-0.0014971995260566473,-0.020788084715604782,1,0,-1000,-3,-1,-18,-5,8,-153,120.0,90.0,1500.0
12:03:55.213,GUIDED,-35.3632616,149.1652361,17878,0.0011309830006211996,0.001080566318705678,-0.17557211220264435,-0.0010130192385986447,9.496184065937996e-05,-0.02152358740568161,1,0,-1000,0,0,-22,-4,7,-153,120.0,90.0,1500.0
12:03:55.414,GUIDED,-35.3632616,149.1652361,17878,0.0011309830006211996,0.001080566318705678,-0.17557211220264435,-0.0010130192385986447,9.496184065937996e-05,-0.02152358740568161,1,0,-1000,0,0,-22,-4,7,-153,120.0,90.0,1500.0
12:03:55.617,GUIDED,-35.3632616,149.1652361,17878,0.0011309830006211996,0.001080566318705678,-0.17557211220264435,-0.0010130192385986447,9.496184065937996e-05,-0.02152358740568161,1,0,-1000,0,0,-22,-4,7,-153,120.0,90.0,1500.0
12:03:55.821,GUIDED,-35.3632616,149.1652361,17878,0.0011309830006211996,0.001080566318705678,-0.17557211220264435,-0.0010130192385986447,9.496184065937996e-05,-0.02152358740568161,1,0,-1000,0,0,-22,-4,7,-153,120.0,90.0,1500.0
12:03:56.024,GUIDED,-35.3632616,149.1652361,17878,0.0011309830006211996,0.001080566318705678,-0.17557211220264435,-0.0010130192385986447,9.496184065937996e-05,-0.02152358740568161,1,0,-1000,0,0,-22,-4,7,-153,120.0,90.0,1500.0
12:03:56.229,GUIDED,-35.3632616,149.1652361,17878,0.0011309830006211996,0.001080566318705678,-0.17557211220264435,-0.0010130192385986447,9.496184065937996e-05,-0.02152358740568161,1,0,-1000,0,0,-22,-4,7,-153,120.0,90.0,1500.0
12:03:56.431,GUIDED,-35.3632616,149.1652361,17878,0.0011309830006211996,0.001080566318705678,-0.17557211220264435,-0.0010130192385986447,9.496184065937996e-05,-0.02152358740568161,1,0,-1000,0,0,-22,-4,7,-153,120.0,90.0,1500.0
12:03:56.633,GUIDED,-35.3632616,149.1652361,17878,0.0011309830006211996,0.001080566318705678,-0.17557211220264435,-0.0010130192385986447,9.496184065937996e-05,-0.02152358740568161,1,0,-1000,0,0,-22,-4,7,-153,120.0,90.0,1500.0
12:03:56.835,GUIDED,-35.3632618,149.1652364,19043,0.001205435604788363,0.0012768757296726108,-0.19223102927207947,0.0017663469770923257,0.0009929704247042537,-0.02234729751944542,0,0,-1000,2,1,-23,-2,5,-153,120.0,90.0,1500.0
12:03:57.036,GUIDED,-35.3632618,149.1652366,20606,0.0024936445988714695,0.002922226209193468,-0.21578453481197357,-2.8488400857895613e-05,0.004004863556474447,-0.023659061640501022,0,0,-999,0,4,-24,-1,3,-153,120.0,90.0,1500.0
12:03:57.238,GUIDED,-35.3632618,149.1652366,20997,0.002741297008469701,0.003396713873371482,-0.22143635153770447,0.001266231993213296,0.0007338443538174033,-0.022052913904190063,0,0,-1000,2,1,-22,-1,3,-153,120.0,90.0,1500.0
12:03:57.440,GUIDED,-35.3632618,149.1652366,20997,0.002741297008469701,0.003396713873371482,-0.22143635153770447,0.001266231993213296,0.0007338443538174033,-0.022052913904190063,0,0,-1000,2,1,-22,-1,3,-153,120.0,90.0,1500.0
12:03:57.641,GUIDED,-35.3632618,149.1652366,20997,0.002741297008469701,0.003396713873371482,-0.22143635153770447,0.001266231993213296,0.0007338443538174033,-0.022052913904190063,0,0,-1000,2,1,-22,-1,3,-153,120.0,90.0,1500.0
12:03:57.842,GUIDED,-35.3632618,149.1652366,20997,0.002741297008469701,0.003396713873371482,-0.22143635153770447,0.001266231993213296,0.0007338443538174033,-0.022052913904190063,0,0,-1000,2,1,-22,-1,3,-153,120.0,90.0,1500.0
12:03:58.046,GUIDED,-35.3632618,149.1652366,20997,0.002741297008469701,0.003396713873371482,-0.22143635153770447,0.001266231993213296,0.0007338443538174033,-0.022052913904190063,0,0,-1000,2,1,-22,-1,3,-153,120.0,90.0,1500.0
12:03:58.249,GUIDED,-35.3632618,149.1652366,20997,0.002741297008469701,0.003396713873371482,-0.22143635153770447,0.001266231993213296,0.0007338443538174033,-0.022052913904190063,0,0,-1000,2,1,-22,-1,3,-153,120.0,90.0,1500.0
12:03:58.453,GUIDED,-35.3632618,149.1652366,20997,0.002741297008469701,0.003396713873371482,-0.22143635153770447,0.001266231993213296,0.0007338443538174033,-0.022052913904190063,0,0,-1000,2,1,-22,-1,3,-153,120.0,90.0,1500.0
12:03:58.658,GUIDED,-35.3632618,149.1652366,20997,0.002741297008469701,0.003396713873371482,-0.22143635153770447,0.001266231993213296,0.0007338443538174033,-0.022052913904190063,0,0,-1000,2,1,-22,-1,3,-153,120.0,90.0,1500.0
12:03:58.861,GUIDED,-35.3632618,149.1652369,23342,0.0027444304432719946,0.0032824850641191006,-0.25123897194862366,-0.003866937244310975,0.0011111621279269457,-0.01965842954814434,0,0,-999,-2,1,-20,-1,3,-153,120.0,90.0,1500.0
12:03:59.063,GUIDED,-35.3632618,149.1652369,23732,0.002142856130376458,0.003235515672713518,-0.2559524178504944,-0.0007689343765377998,-0.0005524298758246005,-0.019182732328772545,0,0,-1000,0,0,-19,-1,3,-153,120.0,90.0,1500.0
12:03:59.264,GUIDED,-35.3632618,149.165237,24123,0.0019000795437023044,0.0032065140549093485,-0.26079311966896057,-6.564974319189787e-05,-0.0008381154621019959,-0.020976191386580467,0,0,-1000,0,0,-21,-1,3,-153,120.0,90.0,1500.0
12:03:59.466,GUIDED,-35.3632618,149.165237,24123,0.0019000795437023044,0.0032065140549093485,-0.26079311966896057,-6.564974319189787e-05,-0.0008381154621019959,-0.020976191386580467,0,0,-1000,0,0,-21,-1,3,-153,120.0,90.0,1500.0
12:03:59.667,GUIDED,-35.3632618,149.165237,24123,0.0019000795437023044,0.0032065140549093485,-0.26079311966896057,-6.564974319189787e-05,-0.0008381154621019959,-0.020976191386580467,0,0,-1000,0,0,-21,-1,3,-153,120.0,90.0,1500.0
12:03:59.869,GUIDED,-35.3632618,149.165237,24123,0.0019000795437023044,0.0032065140549093485,-0.26079311966896057,-6.564974319189787e-05,-0.0008381154621019959,-0.020976191386580467,0,0,-1000,0,0,-21,-1,3,-153,120.0,90.0,1500.0
12:04:00.070,GUIDED,-35.3632618,149.165237,24123,0.0019000795437023044,0.0032065140549093485,-0.26079311966896057,-6.564974319189787e-05,-0.0008381154621019959,-0.020976191386580467,0,0,-1000,0,0,-21,-1,3,-153,120.0,90.0,1500.0
12:04:00.272,GUIDED,-35.3632618,149.165237,24123,0.0019000795437023044,0.0032065140549093485,-0.26079311966896057,-6.564974319189787e-05,-0.0008381154621019959,-0.020976191386580467,0,0,-1000,0,0,-21,-1,3,-153,120.0,90.0,1500.0
12:04:00.473,GUIDED,-35.3632618,149.165237,24123,0.0019000795437023044,0.0032065140549093485,-0.26079311966896057,-6.564974319189787e-05,-0.0008381154621019959,-0.020976191386580467,0,0,-1000,0,0,-21,-1,3,-153,120.0,90.0,1500.0
12:04:00.676,GUIDED,-35.3632618,149.165237,24123,0.0019000795437023044,0.0032065140549093485,-0.26079311966896057,-6.564974319189787e-05,-0.0008381154621019959,-0.020976191386580467,0,0,-1000,0,0,-21,-1,3,-153,120.0,90.0,1500.0
12:04:00.880,GUIDED,-35.3632618,149.1652371,25293,-0.0047793155536055565,0.006508918479084969,-0.268352210521698,-0.05803132802248001,0.030335448682308197,0.0469667911529541,0,0,-990,-57,31,46,-2,2,-151,120.0,90.0,1500.0
12:04:01.081,GUIDED,-35.3632621,149.1652371,26855,0.007867792621254921,0.0014733942225575447,-0.22351595759391785,0.006730353459715843,-0.008033065125346184,0.03254734352231026,0,0,-1000,7,-7,31,-6,1,-153,120.0,90.0,1500.0
12:04:01.284,GUIDED,-35.3632622,149.1652371,27245,0.008527709171175957,4.6814682718832046e-05,-0.21583707630634308,0.0028461869806051254,-0.0033034207299351692,0.03087114915251732,0,0,-999,3,-2,30,-5,3,-153,120.0,90.0,1500.0
12:04:01.486,GUIDED,-35.3632622,149.1652371,27245,0.008527709171175957,4.6814682718832046e-05,-0.21583707630634308,0.0028461869806051254,-0.0033034207299351692,0.03087114915251732,0,0,-999,3,-2,30,-5,3,-153,120.0,90.0,1500.0
12:04:01.689,GUIDED,-35.3632622,149.1652371,27245,0.008527709171175957,4.6814682718832046e-05,-0.21583707630634308,0.0028461869806051254,-0.0033034207299351692,0.03087114915251732,0,0,-999,3,-2,30,-5,3,-153,120.0,90.0,1500.0
12:04:01.891,GUIDED,-35.3632622,149.1652371,27245,0.008527709171175957,4.6814682718832046e-05,-0.21583707630634308,0.0028461869806051254,-0.0033034207299351692,0.03087114915251732,0,0,-999,3,-2,30,-5,3,-153,120.0,90.0,1500.0
12:04:02.098,GUIDED,-35.3632622,149.1652371,27245,0.008527709171175957,4.6814682718832046e-05,-0.21583707630634308,0.0028461869806051254,-0.0033034207299351692,0.03087114915251732,0,0,-999,3,-2,30,-5,3,-153,120.0,90.0,1500.0
12:04:02.302,GUIDED,-35.3632622,149.1652371,27245,0.008527709171175957,4.6814682718832046e-05,-0.21583707630634308,0.0028461869806051254,-0.0033034207299351692,0.03087114915251732,0,0,-999,3,-2,30,-5,3,-153,120.0,90.0,1500.0
12:04:02.505,GUIDED,-35.3632622,149.1652371,27245,0.008527709171175957,4.6814682718832046e-05,-0.21583707630634308,0.0028461869806051254,-0.0033034207299351692,0.03087114915251732,0,0,-999,3,-2,30,-5,3,-153,120.0,90.0,1500.0
12:04:02.707,GUIDED,-35.3632622,149.1652371,27245,0.008527709171175957,4.6814682718832046e-05,-0.21583707630634308,0.0028461869806051254,-0.0033034207299351692,0.03087114915251732,0,0,-999,3,-2,30,-5,3,-153,120.0,90.0,1500.0
12:04:02.909,GUIDED,-35.3632622,149.1652371,27245,0.008527709171175957,4.6814682718832046e-05,-0.21583707630634308,0.0028461869806051254,-0.0033034207299351692,0.03087114915251732,0,0,-999,3,-2,30,-5,3,-153,120.0,90.0,1500.0
12:04:03.112,GUIDED,-35.3632624,149.1652379,29970,0.0007628937601111829,0.0015280566876754165,-0.1804608553647995,-0.0033501179423183203,0.0011327234096825123,0.016284408047795296,0,-1,-1000,-2,2,15,0,6,-153,120.0,90.0,1500.0
12:04:03.313,GUIDED,-35.3632623,149.165238,30360,3.862594530801289e-05,0.0014564720913767815,-0.17645704746246338,-0.0032054970506578684,-0.0006531038088724017,0.017123663797974586,0,-1,-1000,-2,0,16,0,5,-153,120.0,90.0,1500.0
12:04:03.515,GUIDED,-35.3632623,149.165238,30360,3.862594530801289e-05,0.0014564720913767815,-0.17645704746246338,-0.0032054970506578684,-0.0006531038088724017,0.017123663797974586,0,-1,-1000,-2,0,16,0,5,-153,120.0,90.0,1500.0
12:04:03.718,GUIDED,-35.3632623,149.165238,30360,3.862594530801289e-05,0.0014564720913767815,-0.17645704746246338,-0.0032054970506578684,-0.0006531038088724017,0.017123663797974586,0,-1,-1000,-2,0,16,0,5,-153,120.0,90.0,1500.0
12:04:03.921,GUIDED,-35.3632623,149.165238,30360,3.862594530801289e-05,0.0014564720913767815,-0.17645704746246338,-0.0032054970506578684,-0.0006531038088724017,0.017123663797974586,0,-1,-1000,-2,0,16,0,5,-153,120.0,90.0,1500.0
12:04:04.123,GUIDED,-35.3632623,149.165238,30360,3.862594530801289e-05,0.0014564720913767815,-0.17645704746246338,-0.0032054970506578684,-0.0006531038088724017,0.017123663797974586,0,-1,-1000,-2,0,16,0,5,-153,120.0,90.0,1500.0
12:04:04.327,GUIDED,-35.3632623,149.165238,30360,3.862594530801289e-05,0.0014564720913767815,-0.17645704746246338,-0.0032054970506578684,-0.0006531038088724017,0.017123663797974586,0,-1,-1000,-2,0,16,0,5,-153,120.0,90.0,1500.0
12:04:04.534,GUIDED,-35.3632623,149.165238,30360,3.862594530801289e-05,0.0014564720913767815,-0.17645704746246338,-0.0032054970506578684,-0.0006531038088724017,0.017123663797974586,0,-1,-1000,-2,0,16,0,5,-153,120.0,90.0,1500.0
12:04:04.736,GUIDED,-35.3632623,149.165238,30360,3.862594530801289e-05,0.0014564720913767815,-0.17645704746246338,-0.0032054970506578684,-0.0006531038088724017,0.017123663797974586,0,-1,-1000,-2,0,16,0,5,-153,120.0,90.0,1500.0
12:04:04.937,GUIDED,-35.3632621,149.1652382,32698,0.00011834671749966219,0.0013953695306554437,-0.1538975089788437,0.00635551568120718,0.001115189166739583,0.014510140754282475,0,0,-1000,7,1,13,0,1,-153,120.0,90.0,1500.0
12:04:05.139,GUIDED,-35.3632621,149.1652382,33088,0.0004630875482689589,0.001584182376973331,-0.15052737295627594,6.025424227118492e-05,0.0016228086315095425,0.014363366179168224,0,0,-999,0,2,13,0,0,-153,120.0,90.0,1500.0
12:04:05.341,GUIDED,-35.3632621,149.1652382,33477,0.0006294143968261778,0.0015250372234731913,-0.1474737673997879,0.002951274160295725,0.0008409271249547601,0.014631157740950584,0,0,-1000,3,1,14,0,0,-153,120.0,90.0,1500.0
12:04:05.546,GUIDED,-35.3632621,149.1652382,33477,0.0006294143968261778,0.0015250372234731913,-0.1474737673997879,0.002951274160295725,0.0008409271249547601,0.014631157740950584,0,0,-1000,3,1,14,0,0,-153,120.0,90.0,1500.0
12:04:05.749,GUIDED,-35.3632621,149.1652382,33477,0.0006294143968261778,0.0015250372234731913,-0.1474737673997879,0.002951274160295725,0.0008409271249547601,0.014631157740950584,0,0,-1000,3,1,14,0,0,-153,120.0,90.0,1500.0
12:04:05.951,GUIDED,-35.3632621,149.1652382,33477,0.0006294143968261778,0.0015250372234731913,-0.1474737673997879,0.002951274160295725,0.0008409271249547601,0.014631157740950584,0,0,-1000,3,1,14,0,0,-153,120.0,90.0,1500.0
12:04:06.153,GUIDED,-35.3632621,149.1652382,33477,0.0006294143968261778,0.0015250372234731913,-0.1474737673997879,0.002951274160295725,0.0008409271249547601,0.014631157740950584,0,0,-1000,3,1,14,0,0,-153,120.0,90.0,1500.0
12:04:06.357,GUIDED,-35.3632621,149.1652382,33477,0.0006294143968261778,0.0015250372234731913,-0.1474737673997879,0.002951274160295725,0.0008409271249547601,0.014631157740950584,0,0,-1000,3,1,14,0,0,-153,120.0,90.0,1500.0
12:04:06.559,GUIDED,-35.3632621,149.1652382,33477,0.0006294143968261778,0.0015250372234731913,-0.1474737673997879,0.002951274160295725,0.0008409271249547601,0.014631157740950584,0,0,-1000,3,1,14,0,0,-153,120.0,90.0,1500.0
12:04:06.761,GUIDED,-35.3632621,149.1652382,33477,0.0006294143968261778,0.0015250372234731913,-0.1474737673997879,0.002951274160295725,0.0008409271249547601,0.014631157740950584,0,0,-1000,3,1,14,0,0,-153,120.0,90.0,1500.0
12:04:06.962,GUIDED,-35.363262,149.1652382,34880,0.0011739996261894703,0.001949668861925602,-0.13679169118404388,-0.0003174692392349243,0.0006082388572394848,0.011181400157511234,0,0,-999,-1,3,12,0,0,-153,120.0,90.0,1500.0
12:04:07.164,GUIDED,-35.3632619,149.165238,36442,0.0022614640183746815,0.0019016324076801538,-0.1265784204006195,0.00203478941693902,0.002318726386874914,0.012141910381615162,0,0,-1000,2,1,13,0,0,-153,120.0,90.0,1500.0
12:04:07.366,GUIDED,-35.3632619,149.165238,36442,0.0022614640183746815,0.0019016324076801538,-0.1265784204006195,0.00203478941693902,0.002318726386874914,0.012141910381615162,0,0,-1000,2,3,11,0,0,-153,120.0,90.0,1500.0
12:04:07.568,GUIDED,-35.3632619,149.165238,36442,0.0022614640183746815,0.0019016324076801538,-0.1265784204006195,0.00203478941693902,0.002318726386874914,0.012141910381615162,0,0,-1000,2,3,11,0,0,-153,120.0,90.0,1500.0
12:04:07.769,GUIDED,-35.3632619,149.165238,36442,0.0022614640183746815,0.0019016324076801538,-0.1265784204006195,0.00203478941693902,0.002318726386874914,0.012141910381615162,0,0,-1000,2,3,11,0,0,-153,120.0,90.0,1500.0
12:04:07.971,GUIDED,-35.3632619,149.165238,36442,0.0022614640183746815,0.0019016324076801538,-0.1265784204006195,0.00203478941693902,0.002318726386874914,0.012141910381615162,0,0,-1000,2,3,11,0,0,-153,120.0,90.0,1500.0
12:04:08.173,GUIDED,-35.3632619,149.165238,36442,0.0022614640183746815,0.0019016324076801538,-0.1265784204006195,0.00203478941693902,0.002318726386874914,0.012141910381615162,0,0,-1000,2,3,11,0,0,-153,120.0,90.0,1500.0
12:04:08.374,GUIDED,-35.3632619,149.165238,36442,0.0022614640183746815,0.0019016324076801538,-0.1265784204006195,0.00203478941693902,0.002318726386874914,0.012141910381615162,0,0,-1000,2,3,11,0,0,-153,120.0,90.0,1500.0
12:04:08.576,GUIDED,-35.3632619,149.165238,36442,0.0022614640183746815,0.0019016324076801538,-0.1265784204006195,0.00203478941693902,0.002318726386874914,0.012141910381615162,0,0,-1000,2,3,11,0,0,-153,120.0,90.0,1500.0
12:04:08.778,GUIDED,-35.3632619,149.165238,36442,0.0022614640183746815,0.0019016324076801538,-0.1265784204006195,0.00203478941693902,0.002318726386874914,0.012141910381615162,0,0,-1000,2,3,11,0,0,-153,120.0,90.0,1500.0
12:04:08.982,GUIDED,-35.3632619,149.1652378,39163,0.0017655742121860385,0.001348840887658298,-0.11192253977060318,-0.00017928931629285216,0.0018277711933478713,0.010284963063895702,0,0,-1000,0,2,9,-1,0,-153,120.0,90.0,1500.0
12:04:09.184,GUIDED,-35.3632619,149.1652378,39554,0.00185796816367656,0.0013071539578959346,-0.11013302952051163,0.0013043296057730913,-0.0004538684734143317,0.005513218231499195,0,0,-1000,0,2,9,-1,0,-153,120.0,90.0,1500.0
12:04:09.387,GUIDED,-35.3632619,149.1652378,39554,0.00185796816367656,0.0013071539578959346,-0.11013302952051163,0.0013043296057730913,-0.0004538684734143317,0.005513218231499195,0,0,-1001,2,0,5,-1,0,-153,120.0,90.0,1500.0
12:04:09.589,GUIDED,-35.3632619,149.1652378,39554,0.00185796816367656,0.0013071539578959346,-0.11013302952051163,0.0013043296057730913,-0.0004538684734143317,0.005513218231499195,0,0,-1001,2,0,5,-1,0,-153,120.0,90.0,1500.0
12:04:09.795,GUIDED,-35.3632619,149.1652378,39554,0.00185796816367656,0.0013071539578959346,-0.11013302952051163,0.0013043296057730913,-0.0004538684734143317,0.005513218231499195,0,0,-1001,2,0,5,-1,0,-153,120.0,90.0,1500.0
12:04:09.996,GUIDED,-35.3632619,149.1652378,39554,0.00185796816367656,0.0013071539578959346,-0.11013302952051163,0.0013043296057730913,-0.0004538684734143317,0.005513218231499195,0,0,-1001,2,0,5,-1,0,-153,120.0,90.0,1500.0
12:04:10.198,GUIDED,-35.3632619,149.1652378,39554,0.00185796816367656,0.0013071539578959346,-0.11013302952051163,0.0013043296057730913,-0.0004538684734143317,0.005513218231499195,0,0,-1001,2,0,5,-1,0,-153,120.0,90.0,1500.0
12:04:10.401,GUIDED,-35.3632619,149.1652378,39554,0.00185796816367656,0.0013071539578959346,-0.11013302952051163,0.0013043296057730913,-0.0004538684734143317,0.005513218231499195,0,0,-1001,2,0,5,-1,0,-153,120.0,90.0,1500.0
12:04:10.603,GUIDED,-35.3632619,149.1652378,39554,0.00185796816367656,0.0013071539578959346,-0.11013302952051163,0.0013043296057730913,-0.0004538684734143317,0.005513218231499195,0,0,-1001,2,0,5,-1,0,-153,120.0,90.0,1500.0
12:04:10.805,GUIDED,-35.3632619,149.1652378,39554,0.00185796816367656,0.0013071539578959346,-0.11013302952051163,0.0013043296057730913,-0.0004538684734143317,0.005513218231499195,0,0,-1001,2,0,5,-1,0,-153,120.0,90.0,1500.0
12:04:11.007,GUIDED,-35.3632619,149.1652377,41889,0.002004310954362154,0.0011032515903934836,-0.1001422181725502,0.0011621827725321054,0.0009542353800497949,0.006812100764364004,0,0,-1000,2,1,6,-1,1,-153,120.0,90.0,1500.0
12:04:11.209,GUIDED,-35.3632619,149.1652376,42669,0.001660389476455748,0.0012605864321812987,-0.09713830053806305,0.00032337027369067073,0.0023114203941076994,0.010576772503554821,0,0,-1000,1,3,10,-1,1,-153,120.0,90.0,1500.0
12:04:11.411,GUIDED,-35.3632619,149.1652376,42669,0.001660389476455748,0.0012605864321812987,-0.09713830053806305,0.00032337027369067073,0.0023114203941076994,0.010576772503554821,0,0,-1000,1,3,10,-1,1,-153,120.0,90.0,1500.0
12:04:11.613,GUIDED,-35.3632619,149.1652376,42669,0.001660389476455748,0.0012605864321812987,-0.09713830053806305,0.00032337027369067073,0.0023114203941076994,0.010576772503554821,0,0,-1000,1,3,10,-1,1,-153,120.0,90.0,1500.0
12:04:11.814,GUIDED,-35.3632619,149.1652376,42669,0.001660389476455748,0.0012605864321812987,-0.09713830053806305,0.00032337027369067073,0.0023114203941076994,0.010576772503554821,0,0,-1000,1,3,10,-1,1,-153,120.0,90.0,1500.0
12:04:12.016,GUIDED,-35.3632619,149.1652376,42669,0.001660389476455748,0.0012605864321812987,-0.09713830053806305,0.00032337027369067073,0.0023114203941076994,0.010576772503554821,0,0,-1000,1,3,10,-1,1,-153,120.0,90.0,1500.0
12:04:12.219,GUIDED,-35.3632619,149.1652376,42669,0.001660389476455748,0.0012605864321812987,-0.09713830053806305,0.00032337027369067073,0.0023114203941076994,0.010576772503554821,0,0,-1000,1,3,10,-1,1,-153,120.0,90.0,1500.0
12:04:12.421,GUIDED,-35.3632619,149.1652376,42669,0.001660389476455748,0.0012605864321812987,-0.09713830053806305,0.00032337027369067073,0.0023114203941076994,0.010576772503554821,0,0,-1000,1,3,10,-1,1,-153,120.0,90.0,1500.0
12:04:12.623,GUIDED,-35.3632619,149.1652376,42669,0.001660389476455748,0.0012605864321812987,-0.09713830053806305,0.00032337027369067073,0.0023114203941076994,0.010576772503554821,0,0,-1000,1,3,10,-1,1,-153,120.0,90.0,1500.0
12:04:12.826,GUIDED,-35.3632619,149.1652376,42669,0.001660389476455748,0.0012605864321812987,-0.09713830053806305,0.00032337027369067073,0.0023114203941076994,0.010576772503554821,0,0,-1000,1,3,10,-1,1,-153,120.0,90.0,1500.0
12:04:13.028,GUIDED,-35.3632619,149.1652376,45398,0.0014715418219566345,0.001084693823941052,-0.08698606491088867,-0.0025774724781513214,0.0007239539991132915,0.0057562170550227165,0,0,-999,-1,1,5,-1,1,-153,120.0,90.0,1500.0
12:04:13.229,GUIDED,-35.3632619,149.1652376,45787,0.0015881203580647707,0.0009612185531295836,-0.08560814708471298,0.0007506607798859477,-0.0008236503344960511,0.005390442442148924,0,0,-1000,1,0,5,-1,1,-153,120.0,90.0,1500.0
12:04:13.431,GUIDED,-35.3632619,149.1652376,45787,0.0015881203580647707,0.0009612185531295836,-0.08560814708471298,0.0007506607798859477,-0.0008236503344960511,0.005390442442148924,0,0,-1000,1,0,5,-1,1,-153,120.0,90.0,1500.0
12:04:13.632,GUIDED,-35.3632619,149.1652376,45787,0.0015881203580647707,0.0009612185531295836,-0.08560814708471298,0.0007506607798859477,-0.0008236503344960511,0.005390442442148924,0,0,-1000,1,0,5,-1,1,-153,120.0,90.0,1500.0
12:04:13.835,GUIDED,-35.3632619,149.1652376,45787,0.0015881203580647707,0.0009612185531295836,-0.08560814708471298,0.0007506607798859477,-0.0008236503344960511,0.005390442442148924,0,0,-1000,1,0,5,-1,1,-153,120.0,90.0,1500.0
12:04:14.040,GUIDED,-35.3632619,149.1652376,45787,0.0015881203580647707,0.0009612185531295836,-0.08560814708471298,0.0007506607798859477,-0.0008236503344960511,0.005390442442148924,0,0,-1000,1,0,5,-1,1,-153,120.0,90.0,1500.0
12:04:14.243,GUIDED,-35.3632619,149.1652376,45787,0.0015881203580647707,0.0009612185531295836,-0.08560814708471298,0.0007506607798859477,-0.0008236503344960511,0.005390442442148924,0,0,-1000,1,0,5,-1,1,-153,120.0,90.0,1500.0
12:04:14.448,GUIDED,-35.3632619,149.1652376,45787,0.0015881203580647707,0.0009612185531295836,-0.08560814708471298,0.0007506607798859477,-0.0008236503344960511,0.005390442442148924,0,0,-1000,1,0,5,-1,1,-153,120.0,90.0,1500.0
12:04:14.649,GUIDED,-35.3632619,149.1652376,45787,0.0015881203580647707,0.0009612185531295836,-0.08560814708471298,0.0007506607798859477,-0.0008236503344960511,0.005390442442148924,0,0,-1000,1,0,5,-1,1,-153,120.0,90.0,1500.0
12:04:14.852,GUIDED,-35.3632619,149.1652376,45787,0.0015881203580647707,0.0009612185531295836,-0.08560814708471298,0.0007506607798859477,-0.0008236503344960511,0.005390442442148924,0,0,-1000,1,0,5,-1,1,-153,120.0,90.0,1500.0
12:04:15.057,GUIDED,-35.3632619,149.1652376,45787,0.0015881203580647707,0.0009612185531295836,-0.08560814708471298,0.0007506607798859477,-0.0008236503344960511,0.005390442442148924,0,0,-1000,1,0,5,-1,1,-153,120.0,90.0,1500.0
12:04:15.259,GUIDED,-35.3632619,149.1652376,48121,0.0020407438278198242,0.0005052039050497115,-0.07668182998895645,-0.003273972310125828,-0.00037008512299507856,0.0043161301873624325,0,0,-999,1,2,7,0,1,-153,120.0,90.0,1500.0
12:04:15.461,GUIDED,-35.3632619,149.1652375,48899,0.002151975641027093,0.0007115563494153321,-0.07539691776037216,0.003558773547410965,0.002792773302644491,0.007386272773146629,0,0,-1000,4,3,7,0,1,-153,90.0,90.0,1500.0
12:04:15.664,GUIDED,-35.3632619,149.1652375,48899,0.002151975641027093,0.0007115563494153321,-0.07539691776037216,0.003558773547410965,0.002792773302644491,0.007386272773146629,0,0,-1000,4,3,7,0,1,-153,90.0,90.0,1500.0
12:04:15.869,GUIDED,-35.3632619,149.1652375,48899,0.002151975641027093,0.0007115563494153321,-0.07539691776037216,0.003558773547410965,0.002792773302644491,0.007386272773146629,0,0,-1000,4,3,7,0,1,-153,90.0,90.0,1500.0
12:04:16.071,GUIDED,-35.3632619,149.1652375,48899,0.002151975641027093,0.0007115563494153321,-0.07539691776037216,0.003558773547410965,0.002792773302644491,0.007386272773146629,0,0,-1000,4,3,7,0,1,-153,90.0,90.0,1500.0
12:04:16.276,GUIDED,-35.3632619,149.1652375,48899,0.002151975641027093,0.0007115563494153321,-0.07539691776037216,0.003558773547410965,0.002792773302644491,0.007386272773146629,0,0,-1000,4,3,7,0,1,-153,90.0,90.0,1500.0
12:04:16.479,GUIDED,-35.3632619,149.1652375,48899,0.002151975641027093,0.0007115563494153321,-0.07539691776037216,0.003558773547410965,0.002792773302644491,0.007386272773146629,0,0,-1000,4,3,7,0,1,-153,90.0,90.0,1500.0
12:04:16.681,GUIDED,-35.3632619,149.1652375,48899,0.002151975641027093,0.0007115563494153321,-0.07539691776037216,0.003558773547410965,0.002792773302644491,0.007386272773146629,0,0,-1000,4,3,7,0,1,-153,90.0,90.0,1500.0
12:04:16.883,GUIDED,-35.3632619,149.1652375,50070,0.0018635292071849108,0.0017559092957526445,-0.07234358042478561,0.0008417571661993861,0.0032873377203941345,0.004420249257236719,0,0,-1000,1,4,4,0,1,-153,90.0,90.0,1500.0
12:04:17.086,GUIDED,-35.3632618,149.1652375,51629,0.0015967567451298237,0.0015347504522651434,-0.06712725013494492,0.0009961739415302873,0.0011623456375673413,0.005692915990948677,0,0,-999,1,2,5,-1,1,-153,90.0,90.0,1500.0
12:04:17.287,GUIDED,-35.3632618,149.1652375,52026,0.0016791214002296329,0.001275019720196724,-0.06616038829088211,-0.0004030154668726027,-0.0009402146679349244,0.004456740338355303,0,0,-1000,0,0,4,-1,1,-153,90.0,90.0,1500.0
12:04:17.496,LAND,-35.3632618,149.1652375,52026,0.0016791214002296329,0.001275019720196724,-0.06616038829088211,-0.0004030154668726027,-0.0009402146679349244,0.004456740338355303,0,0,-1000,0,0,4,-1,1,-153,90.0,90.0,1500.0
12:04:17.700,LAND,-35.3632618,149.1652375,52026,0.0016791214002296329,0.001275019720196724,-0.06616038829088211,-0.0004030154668726027,-0.0009402146679349244,0.004456740338355303,0,0,-1000,0,0,4,-1,1,-153,90.0,90.0,1500.0
12:04:17.902,LAND,-35.3632618,149.1652375,52026,0.0016791214002296329,0.001275019720196724,-0.06616038829088211,-0.0004030154668726027,-0.0009402146679349244,0.004456740338355303,0,0,-1000,0,0,4,-1,1,-153,90.0,90.0,1500.0
12:04:18.106,LAND,-35.3632618,149.1652375,52026,0.0016791214002296329,0.001275019720196724,-0.06616038829088211,-0.0004030154668726027,-0.0009402146679349244,0.004456740338355303,0,0,-1000,0,0,4,-1,1,-153,90.0,90.0,1500.0
12:04:18.309,LAND,-35.3632618,149.1652375,52026,0.0016791214002296329,0.001275019720196724,-0.06616038829088211,-0.0004030154668726027,-0.0009402146679349244,0.004456740338355303,0,0,-1000,0,0,4,-1,1,-153,90.0,90.0,1500.0
12:04:18.513,LAND,-35.3632618,149.1652375,52026,0.0016791214002296329,0.001275019720196724,-0.06616038829088211,-0.0004030154668726027,-0.0009402146679349244,0.004456740338355303,0,0,-1000,0,0,4,-1,1,-153,90.0,90.0,1500.0
12:04:18.714,LAND,-35.3632618,149.1652375,52026,0.0016791214002296329,0.001275019720196724,-0.06616038829088211,-0.0004030154668726027,-0.0009402146679349244,0.004456740338355303,0,0,-1000,0,0,4,-1,1,-153,90.0,90.0,1500.0
12:04:18.917,LAND,-35.3632618,149.1652375,52026,0.0016791214002296329,0.001275019720196724,-0.06616038829088211,-0.0004030154668726027,-0.0009402146679349244,0.004456740338355303,0,0,-1000,0,0,4,-1,1,-153,90.0,90.0,1500.0
12:04:19.118,LAND,-35.3632618,149.1652375,52026,0.0016791214002296329,0.001275019720196724,-0.06616038829088211,-0.0004030154668726027,-0.0009402146679349244,0.004456740338355303,0,0,-1000,0,0,4,-1,1,-153,90.0,90.0,1500.0
12:04:19.320,LAND,-35.3632628,149.1652361,54901,-0.03875073045492172,0.023033328354358673,0.29467833042144775,0.1410699039697647,-0.2214587926864624,0.21841119229793549,3,10,-908,142,-220,218,-30,-36,-91,230.0,90.0,1500.0
12:04:19.524,LAND,-35.3632634,149.165235,55107,-0.010561701841652393,-0.023227576166391373,0.3331563472747803,0.09694041311740875,-0.14497624337673187,0.10789184272289276,3,7,-914,97,-143,108,-28,-39,-69,230.0,90.0,1500.0
12:04:19.727,LAND,-35.3632634,149.165235,55107,-0.010561701841652393,-0.023227576166391373,0.3331563472747803,0.09694041311740875,-0.14497624337673187,0.10789184272289276,3,7,-914,97,-143,108,-28,-39,-69,230.0,90.0,1500.0
12:04:19.929,LAND,-35.3632634,149.165235,55107,-0.010561701841652393,-0.023227576166391373,0.3331563472747803,0.09694041311740875,-0.14497624337673187,0.10789184272289276,3,7,-914,97,-143,108,-28,-39,-69,230.0,90.0,1500.0
12:04:20.132,LAND,-35.3632634,149.165235,55107,-0.010561701841652393,-0.023227576166391373,0.3331563472747803,0.09694041311740875,-0.14497624337673187,0.10789184272289276,3,7,-914,97,-143,108,-28,-39,-69,230.0,90.0,1500.0
12:04:20.334,LAND,-35.3632634,149.165235,55107,-0.010561701841652393,-0.023227576166391373,0.3331563472747803,0.09694041311740875,-0.14497624337673187,0.10789184272289276,3,7,-914,97,-143,108,-28,-39,-69,230.0,90.0,1500.0
12:04:20.535,LAND,-35.3632634,149.165235,55107,-0.010561701841652393,-0.023227576166391373,0.3331563472747803,0.09694041311740875,-0.14497624337673187,0.10789184272289276,3,7,-914,97,-143,108,-28,-39,-69,230.0,90.0,1500.0
12:04:20.738,LAND,-35.3632634,149.165235,55107,-0.010561701841652393,-0.023227576166391373,0.3331563472747803,0.09694041311740875,-0.14497624337673187,0.10789184272289276,3,7,-914,97,-143,108,-28,-39,-69,230.0,90.0,1500.0
12:04:20.943,LAND,-35.3632634,149.165235,55107,-0.010561701841652393,-0.023227576166391373,0.3331563472747803,0.09694041311740875,-0.14497624337673187,0.10789184272289276,3,7,-914,97,-143,108,-28,-39,-69,230.0,90.0,1500.0
12:04:21.148,LAND,-35.3632641,149.1652328,55382,0.033593129366636276,-0.03373413532972336,0.3254166841506958,0.2858124375343323,0.04730915278196335,-0.037670888006687164,-3,10,-948,-221,42,-36,14,17,20,230.0,90.0,1500.0
12:04:21.351,LAND,-35.3632637,149.1652332,55314,0.032935965806245804,-0.02076457440853119,0.3151472508907318,0.7551470398902893,0.05149467661976814,-0.03262696787714958,-2,44,-963,762,52,-32,18,24,29,230.0,90.0,1500.0
12:04:21.555,LAND,-35.3632633,149.1652338,55219,0.028271906077861786,-0.009427961893379688,0.3044930398464203,0.8632449507713318,0.0408751405775547,-0.030728023499250412,-2,55,-973,868,41,-30,19,30,39,230.0,90.0,1500.0
12:04:21.758,LAND,-35.3632633,149.1652338,55219,0.028271906077861786,-0.009427961893379688,0.3044930398464203,0.8632449507713318,0.0408751405775547,-0.030728023499250412,-2,55,-973,868,41,-30,19,30,39,230.0,90.0,1500.0
12:04:21.962,LAND,-35.3632633,149.1652338,55219,0.028271906077861786,-0.009427961893379688,0.3044930398464203,0.8632449507713318,0.0408751405775547,-0.030728023499250412,-2,55,-973,868,41,-30,19,30,39,230.0,90.0,1500.0
12:04:22.168,LAND,-35.3632633,149.1652338,55219,0.028271906077861786,-0.009427961893379688,0.3044930398464203,0.8632449507713318,0.0408751405775547,-0.030728023499250412,-2,55,-973,868,41,-30,19,30,39,230.0,90.0,1500.0
12:04:22.372,LAND,-35.3632633,149.1652338,55219,0.028271906077861786,-0.009427961893379688,0.3044930398464203,0.8632449507713318,0.0408751405775547,-0.030728023499250412,-2,55,-973,868,41,-30,19,30,39,230.0,90.0,1500.0
12:04:22.575,LAND,-35.3632633,149.1652338,55219,0.028271906077861786,-0.009427961893379688,0.3044930398464203,0.8632449507713318,0.0408751405775547,-0.030728023499250412,-2,55,-973,868,41,-30,19,30,39,230.0,90.0,1500.0
12:04:22.781,LAND,-35.3632633,149.1652338,55219,0.028271906077861786,-0.009427961893379688,0.3044930398464203,0.8632449507713318,0.0408751405775547,-0.030728023499250412,-2,55,-973,868,41,-30,19,30,39,230.0,90.0,1500.0
12:04:22.984,LAND,-35.3632617,149.1652366,54701,-0.0034076061565428972,0.012078887782990932,0.27100807428359985,0.4370691180229187,0.009857958182692528,-0.019318103790283203,-1,42,-921,352,22,-10,14,31,73,230.0,90.0,1500.0
12:04:23.187,LAND,-35.363261,149.1652383,53950,-0.009954052977263927,0.01304640993475914,0.2474154233932495,0.46138033270835876,0.008636418730020523,-0.06615165621042252,-3,78,-837,471,9,-65,5,21,137,410.0,90.0,1500.0
12:04:23.389,LAND,-35.3632609,149.1652387,53535,-0.026167279109358788,0.012269513681530952,0.24099428951740265,-0.6110196709632874,0.0038012482691556215,-0.03571683540940285,0,27,-793,-601,4,-35,3,18,182,410.0,90.0,1500.0
12:04:23.591,LAND,-35.3632609,149.1652387,53535,-0.026167279109358788,0.012269513681530952,0.24099428951740265,-0.6110196709632874,0.0038012482691556215,-0.03571683540940285,0,27,-793,-601,4,-35,3,18,182,410.0,90.0,1500.0
12:04:23.795,LAND,-35.3632609,149.1652387,53535,-0.026167279109358788,0.012269513681530952,0.24099428951740265,-0.6110196709632874,0.0038012482691556215,-0.03571683540940285,0,27,-793,-601,4,-35,3,18,182,410.0,90.0,1500.0
12:04:23.998,LAND,-35.3632609,149.1652387,53535,-0.026167279109358788,0.012269513681530952,0.24099428951740265,-0.6110196709632874,0.0038012482691556215,-0.03571683540940285,0,27,-793,-601,4,-35,3,18,182,410.0,90.0,1500.0
12:04:24.201,LAND,-35.3632609,149.1652387,53535,-0.026167279109358788,0.012269513681530952,0.24099428951740265,-0.6110196709632874,0.0038012482691556215,-0.03571683540940285,0,27,-793,-601,4,-35,3,18,182,410.0,90.0,1500.0
12:04:24.408,LAND,-35.3632609,149.1652387,53535,-0.026167279109358788,0.012269513681530952,0.24099428951740265,-0.6110196709632874,0.0038012482691556215,-0.03571683540940285,0,27,-793,-601,4,-35,3,18,182,410.0,90.0,1500.0
12:04:24.610,LAND,-35.3632609,149.1652387,53535,-0.026167279109358788,0.012269513681530952,0.24099428951740265,-0.6110196709632874,0.0038012482691556215,-0.03571683540940285,0,27,-793,-601,4,-35,3,18,182,410.0,90.0,1500.0
12:04:24.813,LAND,-35.3632609,149.1652387,53535,-0.026167279109358788,0.012269513681530952,0.24099428951740265,-0.6110196709632874,0.0038012482691556215,-0.03571683540940285,0,27,-793,-601,4,-35,3,18,182,410.0,90.0,1500.0
12:04:25.017,LAND,-35.3632608,149.1652395,50954,-0.019830530509352684,0.006405860651284456,0.21777747571468353,-2.121307134628296,0.0037241566460579634,-0.031539253890514374,1,-104,-973,-2125,4,-31,-2,8,324,410.0,90.0,1500.0
12:04:25.219,LAND,-35.3632611,149.1652397,47724,-0.0004884484806098044,-0.0008834355976432562,0.1947963386774063,-1.4485288858413696,-0.09589076042175293,-0.04045883193612099,4,-103,-1022,-1457,-94,-39,-3,3,298,410.0,90.0,1500.0
12:04:25.421,LAND,-35.3632611,149.1652397,47724,-0.0004884484806098044,-0.0008834355976432562,0.1947963386774063,-1.4485288858413696,-0.09589076042175293,-0.04045883193612099,4,-103,-1022,-1457,-94,-39,-3,3,298,410.0,90.0,1500.0
12:04:25.623,LAND,-35.3632611,149.1652397,47724,-0.0004884484806098044,-0.0008834355976432562,0.1947963386774063,-1.4485288858413696,-0.09589076042175293,-0.04045883193612099,4,-103,-1022,-1457,-94,-39,-3,3,298,410.0,90.0,1500.0
12:04:25.825,LAND,-35.3632611,149.1652397,47724,-0.0004884484806098044,-0.0008834355976432562,0.1947963386774063,-1.4485288858413696,-0.09589076042175293,-0.04045883193612099,4,-103,-1022,-1457,-94,-39,-3,3,298,410.0,90.0,1500.0
12:04:26.028,LAND,-35.3632611,149.1652397,47724,-0.0004884484806098044,-0.0008834355976432562,0.1947963386774063,-1.4485288858413696,-0.09589076042175293,-0.04045883193612099,4,-103,-1022,-1457,-94,-39,-3,3,298,410.0,90.0,1500.0
12:04:26.232,LAND,-35.3632611,149.1652397,47724,-0.0004884484806098044,-0.0008834355976432562,0.1947963386774063,-1.4485288858413696,-0.09589076042175293,-0.04045883193612099,4,-103,-1022,-1457,-94,-39,-3,3,298,410.0,90.0,1500.0
12:04:26.433,LAND,-35.3632611,149.1652397,47724,-0.0004884484806098044,-0.0008834355976432562,0.1947963386774063,-1.4485288858413696,-0.09589076042175293,-0.04045883193612099,4,-103,-1022,-1457,-94,-39,-3,3,298,410.0,90.0,1500.0
12:04:26.634,LAND,-35.3632611,149.1652397,47724,-0.0004884484806098044,-0.0008834355976432562,0.1947963386774063,-1.4485288858413696,-0.09589076042175293,-0.04045883193612099,4,-103,-1022,-1457,-94,-39,-3,3,298,410.0,90.0,1500.0
12:04:26.838,LAND,-35.3632611,149.1652397,47724,-0.0004884484806098044,-0.0008834355976432562,0.1947963386774063,-1.4485288858413696,-0.09589076042175293,-0.04045883193612099,4,-103,-1022,-1457,-94,-39,-3,3,298,410.0,90.0,1500.0
12:04:27.042,LAND,-35.3632618,149.1652397,43284,0.024676993489265442,-0.00448524160310626,0.16734379529953003,1.7925554513931274,0.010051440447568893,-0.011644813232123852,2,129,-1029,1799,11,-11,0,5,276,500.0,90.0,1500.0
12:04:27.244,LAND,-35.363262,149.1652398,41814,-0.03753509372472763,-0.006453084759414196,0.1590757817029953,0.9780183434486389,0.008964478969573975,-0.008540226146578789,0,90,-909,988,9,-8,0,1,312,500.0,90.0,1500.0
12:04:27.447,LAND,-35.363262,149.1652398,41814,-0.03753509372472763,-0.006453084759414196,0.1590757817029953,0.9780183434486389,0.008964478969573975,-0.008540226146578789,0,90,-909,988,9,-8,0,1,312,500.0,90.0,1500.0
12:04:27.649,LAND,-35.363262,149.1652398,41814,-0.03753509372472763,-0.006453084759414196,0.1590757817029953,0.9780183434486389,0.008964478969573975,-0.008540226146578789,0,90,-909,988,9,-8,0,1,312,500.0,90.0,1500.0
12:04:27.850,LAND,-35.363262,149.1652398,41814,-0.03753509372472763,-0.006453084759414196,0.1590757817029953,0.9780183434486389,0.008964478969573975,-0.008540226146578789,0,90,-909,988,9,-8,0,1,312,500.0,90.0,1500.0
12:04:28.052,LAND,-35.363262,149.1652398,41814,-0.03753509372472763,-0.006453084759414196,0.1590757817029953,0.9780183434486389,0.008964478969573975,-0.008540226146578789,0,90,-909,988,9,-8,0,1,312,500.0,90.0,1500.0
12:04:28.255,LAND,-35.363262,149.1652398,41814,-0.03753509372472763,-0.006453084759414196,0.1590757817029953,0.9780183434486389,0.008964478969573975,-0.008540226146578789,0,90,-909,988,9,-8,0,1,312,500.0,90.0,1500.0
12:04:28.456,LAND,-35.363262,149.1652398,41814,-0.03753509372472763,-0.006453084759414196,0.1590757817029953,0.9780183434486389,0.008964478969573975,-0.008540226146578789,0,90,-909,988,9,-8,0,1,312,500.0,90.0,1500.0
12:04:28.661,LAND,-35.363262,149.1652398,41814,-0.03753509372472763,-0.006453084759414196,0.1590757817029953,0.9780183434486389,0.008964478969573975,-0.008540226146578789,0,90,-909,988,9,-8,0,1,312,500.0,90.0,1500.0
12:04:28.865,LAND,-35.363262,149.1652398,41814,-0.03753509372472763,-0.006453084759414196,0.1590757817029953,0.9780183434486389,0.008964478969573975,-0.008540226146578789,0,90,-909,988,9,-8,0,1,312,500.0,90.0,1500.0
12:04:29.069,LAND,-35.3632622,149.1652382,35637,0.020740989595651627,-0.004696971271187067,0.13856907188892365,1.7678260803222656,-0.004814397543668747,0.036733388900756836,0,90,-1019,1720,17,0,5,-7,339,500.0,90.0,1500.0
12:04:29.270,LAND,-35.3632622,149.165238,34760,0.036270637065172195,-0.004245785064995289,0.13444122672080994,1.6370199918746948,-0.04730326682329178,0.03786837309598923,5,51,-998,1636,-47,38,5,-6,339,500.0,90.0,1500.0
12:04:29.471,LAND,-35.3632622,149.165238,34760,0.036270637065172195,-0.004245785064995289,0.13444122672080994,1.6370199918746948,-0.04730326682329178,0.03786837309598923,5,51,-998,1636,-47,38,5,-6,339,500.0,90.0,1500.0
12:04:29.677,LAND,-35.3632622,149.165238,34760,0.036270637065172195,-0.004245785064995289,0.13444122672080994,1.6370199918746948,-0.04730326682329178,0.03786837309598923,5,51,-998,1636,-47,38,5,-6,339,500.0,90.0,1500.0
12:04:29.880,LAND,-35.3632622,149.165238,34760,0.036270637065172195,-0.004245785064995289,0.13444122672080994,1.6370199918746948,-0.04730326682329178,0.03786837309598923,5,51,-998,1636,-47,38,5,-6,339,500.0,90.0,1500.0
12:04:30.083,LAND,-35.3632622,149.165238,34760,0.036270637065172195,-0.004245785064995289,0.13444122672080994,1.6370199918746948,-0.04730326682329178,0.03786837309598923,5,51,-998,1636,-47,38,5,-6,339,500.0,90.0,1500.0
12:04:30.288,LAND,-35.3632622,149.165238,34760,0.036270637065172195,-0.004245785064995289,0.13444122672080994,1.6370199918746948,-0.04730326682329178,0.03786837309598923,5,51,-998,1636,-47,38,5,-6,339,500.0,90.0,1500.0
12:04:30.490,LAND,-35.3632622,149.165238,34760,0.036270637065172195,-0.004245785064995289,0.13444122672080994,1.6370199918746948,-0.04730326682329178,0.03786837309598923,5,51,-998,1636,-47,38,5,-6,339,500.0,90.0,1500.0
12:04:30.692,LAND,-35.3632622,149.165238,34760,0.036270637065172195,-0.004245785064995289,0.13444122672080994,1.6370199918746948,-0.04730326682329178,0.03786837309598923,5,51,-998,1636,-47,38,5,-6,339,500.0,90.0,1500.0
12:04:30.896,LAND,-35.3632622,149.1652383,30412,0.021232930943369865,-0.002454952336847782,0.12191653251647949,0.5027390122413635,-0.07691345363855362,-0.003059656359255314,7,-42,-1011,494,-76,-2,5,0,333,500.0,90.0,1500.0
12:04:31.098,LAND,-35.3632622,149.1652386,28678,0.014265237376093864,-0.0031974297016859055,0.11425594240427017,-0.3339710831642151,-0.1006823182106018,-0.0415857695043087,6,-78,-990,-343,-100,-41,4,-2,332,500.0,90.0,1500.0
12:04:31.301,LAND,-35.3632622,149.1652388,27820,-0.008176663890480995,-0.002392764901742339,0.11415168642997742,-1.2362979650497437,-0.07750558108091354,-0.029969515278935432,3,-89,-996,-1244,-76,-29,4,0,331,500.0,90.0,1500.0
