time_stamp,MODE,lat,lon,relative_alt,roll,pitch,yaw,rollspeed,pitchspeed,yawspeed,xacc,yacc,zacc,xgyro,ygyro,zgyro,vx,vy,vz,RTL_ALT
15:10:46.280,STABILIZE,-35.3632621,149.1652375,3,0.0003628961567301303,0.0015997802838683128,0.028919992968440056,0.0003667804994620383,0.0003130599216092378,0.002469297032803297,0,1,-1000,0,0,0,-2,2,0,1500.0
15:10:50.064,STABILIZE,-35.3632621,149.1652375,3,0.0003628961567301303,0.0015997802838683128,0.028919992968440056,0.0003667804994620383,0.0003130599216092378,0.002469297032803297,0,1,-1000,0,0,0,-2,2,0,1500.0
15:10:50.268,STABILIZE,-35.3632621,149.1652375,3,-0.00015519117005169392,0.001360398018732667,0.027513278648257256,0.00016722301370464265,0.00035895773908123374,0.0021927431225776672,0,1,-1000,0,0,0,-2,2,0,1500.0
15:10:50.470,STABILIZE,-35.3632621,149.1652375,3,-0.00015519117005169392,0.001360398018732667,0.027513278648257256,0.00016722301370464265,0.00035895773908123374,0.0021927431225776672,0,1,-1000,0,0,0,-2,2,0,1500.0
15:10:50.673,STABILIZE,-35.3632621,149.1652375,3,-0.00015519117005169392,0.001360398018732667,0.027513278648257256,0.00016722301370464265,0.00035895773908123374,0.0021927431225776672,0,1,-1000,0,0,0,-2,2,0,1500.0
15:10:50.874,STABILIZE,-35.3632621,149.1652375,3,-0.00015519117005169392,0.001360398018732667,0.027513278648257256,0.00016722301370464265,0.00035895773908123374,0.0021927431225776672,0,1,-1000,0,0,0,-2,2,0,1500.0
15:10:51.076,STABILIZE,-35.3632621,149.1652375,3,-0.00015519117005169392,0.001360398018732667,0.027513278648257256,0.00016722301370464265,0.00035895773908123374,0.0021927431225776672,0,1,-1000,0,0,0,-2,2,0,1500.0
15:10:51.277,STABILIZE,-35.3632621,149.1652375,3,-0.00015519117005169392,0.001360398018732667,0.027513278648257256,0.00016722301370464265,0.00035895773908123374,0.0021927431225776672,0,1,-1000,0,0,0,-2,2,0,1500.0
15:10:51.490,STABILIZE,-35.3632621,149.1652375,3,-0.00015519117005169392,0.001360398018732667,0.027513278648257256,0.00016722301370464265,0.00035895773908123374,0.0021927431225776672,0,1,-1000,0,0,0,-2,2,0,1500.0
15:10:51.696,STABILIZE,-35.3632621,149.1652375,3,-0.00015519117005169392,0.001360398018732667,0.027513278648257256,0.00016722301370464265,0.00035895773908123374,0.0021927431225776672,0,1,-1000,0,0,0,-2,2,0,1500.0
15:10:51.902,STABILIZE,-35.3632621,149.1652375,3,-0.00015519117005169392,0.001360398018732667,0.027513278648257256,0.00016722301370464265,0.00035895773908123374,0.0021927431225776672,0,1,-1000,0,0,0,-2,2,0,1500.0
15:10:52.103,STABILIZE,-35.3632622,149.1652375,0,-0.00015519117005169392,0.001360398018732667,0.027513278648257256,0.00016722301370464265,0.00035895773908123374,0.0021927431225776672,0,1,-1000,0,0,0,-1,1,0,1500.0
15:10:52.306,STABILIZE,-35.3632622,149.1652375,0,-0.0007432232378050685,0.0010312064550817013,0.02648555487394333,0.0003083421615883708,0.0002499042311683297,0.0021554077975451946,0,1,-1000,0,0,0,-1,1,0,1500.0
15:10:52.511,STABILIZE,-35.3632622,149.1652375,0,-0.0007432232378050685,0.0010312064550817013,0.02648555487394333,0.0003083421615883708,0.0002499042311683297,0.0021554077975451946,0,1,-1000,0,0,0,-1,1,0,1500.0
15:10:52.713,STABILIZE,-35.3632622,149.1652375,0,-0.0007432232378050685,0.0010312064550817013,0.02648555487394333,0.0003083421615883708,0.0002499042311683297,0.0021554077975451946,0,1,-1000,0,0,0,-1,1,0,1500.0
15:10:52.916,STABILIZE,-35.3632622,149.1652375,0,-0.0007432232378050685,0.0010312064550817013,0.02648555487394333,0.0003083421615883708,0.0002499042311683297,0.0021554077975451946,0,1,-1000,0,0,0,-1,1,0,1500.0
15:10:53.120,STABILIZE,-35.3632622,149.1652375,0,-0.0007432232378050685,0.0010312064550817013,0.02648555487394333,0.0003083421615883708,0.0002499042311683297,0.0021554077975451946,0,1,-1000,0,0,0,-1,1,0,1500.0
15:10:53.321,STABILIZE,-35.3632622,149.1652375,0,-0.0007432232378050685,0.0010312064550817013,0.02648555487394333,0.0003083421615883708,0.0002499042311683297,0.0021554077975451946,0,1,-1000,0,0,0,-1,1,0,1500.0
15:10:53.528,STABILIZE,-35.3632622,149.1652375,0,-0.0007432232378050685,0.0010312064550817013,0.02648555487394333,0.0003083421615883708,0.0002499042311683297,0.0021554077975451946,0,1,-1000,0,0,0,-1,1,0,1500.0
15:10:53.731,STABILIZE,-35.3632622,149.1652375,0,-0.0007432232378050685,0.0010312064550817013,0.02648555487394333,0.0003083421615883708,0.0002499042311683297,0.0021554077975451946,0,1,-1000,0,0,0,-1,1,0,1500.0
15:10:53.935,STABILIZE,-35.3632622,149.1652375,0,-0.0007025203085504472,0.0009715758496895432,0.02613922208547592,-0.0001050522259902209,0.0002109342021867633,0.0020299742463976145,0,-39,-1061,0,0,0,-1,1,0,1500.0
15:10:54.136,STABILIZE,-35.3632622,149.1652375,0,-0.0006344727007672191,0.0009530826937407255,0.02577996253967285,0.00023075827630236745,0.00023605464957654476,0.0020331903360784054,0,-39,-1061,0,0,0,-1,0,-1,1500.0
15:10:54.341,STABILIZE,-35.3632622,149.1652375,0,-0.0006344727007672191,0.0009530826937407255,0.02577996253967285,0.00023075827630236745,0.00023605464957654476,0.0020331903360784054,0,-39,-1061,0,0,0,-1,0,-1,1500.0
15:10:54.541,STABILIZE,-35.3632622,149.1652375,0,-0.0006344727007672191,0.0009530826937407255,0.02577996253967285,0.00023075827630236745,0.00023605464957654476,0.0020331903360784054,0,-39,-1061,0,0,0,-1,0,-1,1500.0
15:10:54.748,STABILIZE,-35.3632622,149.1652375,0,-0.0006344727007672191,0.0009530826937407255,0.02577996253967285,0.00023075827630236745,0.00023605464957654476,0.0020331903360784054,0,-39,-1061,0,0,0,-1,0,-1,1500.0
15:10:54.951,STABILIZE,-35.3632622,149.1652375,0,-0.0006344727007672191,0.0009530826937407255,0.02577996253967285,0.00023075827630236745,0.00023605464957654476,0.0020331903360784054,0,-39,-1061,0,0,0,-1,0,-1,1500.0
15:10:55.152,STABILIZE,-35.3632622,149.1652375,0,-0.0006344727007672191,0.0009530826937407255,0.02577996253967285,0.00023075827630236745,0.00023605464957654476,0.0020331903360784054,0,-39,-1061,0,0,0,-1,0,-1,1500.0
15:10:55.353,STABILIZE,-35.3632622,149.1652375,0,-0.0006344727007672191,0.0009530826937407255,0.02577996253967285,0.00023075827630236745,0.00023605464957654476,0.0020331903360784054,0,-39,-1061,0,0,0,-1,0,-1,1500.0
15:10:55.555,STABILIZE,-35.3632622,149.1652375,0,-0.0006344727007672191,0.0009530826937407255,0.02577996253967285,0.00023075827630236745,0.00023605464957654476,0.0020331903360784054,0,-39,-1061,0,0,0,-1,0,-1,1500.0
15:10:55.757,STABILIZE,-35.3632622,149.1652375,0,-0.0006344727007672191,0.0009530826937407255,0.02577996253967285,0.00023075827630236745,0.00023605464957654476,0.0020331903360784054,0,-39,-1061,0,0,0,-1,0,-1,1500.0
15:10:55.958,STABILIZE,-35.3632622,149.1652375,0,-0.0005362923257052898,0.0009647090919315815,0.024998396635055542,0.000286214635707438,0.0003525123465806246,0.0019529527053236961,0,1,-1000,1,0,1,-1,0,-1,1500.0
15:10:56.160,STABILIZE,-35.3632622,149.1652375,0,-0.0005362923257052898,0.0009647090919315815,0.024998396635055542,0.000286214635707438,0.0003525123465806246,0.0019529527053236961,0,1,-1000,0,0,0,-1,1,0,1500.0
15:10:56.361,STABILIZE,-35.3632622,149.1652375,0,-0.0005362923257052898,0.0009647090919315815,0.024998396635055542,0.000286214635707438,0.0003525123465806246,0.0019529527053236961,0,1,-1000,0,0,0,-1,1,0,1500.0
15:10:56.563,STABILIZE,-35.3632622,149.1652375,0,-0.0005362923257052898,0.0009647090919315815,0.024998396635055542,0.000286214635707438,0.0003525123465806246,0.0019529527053236961,0,1,-1000,0,0,0,-1,1,0,1500.0
15:10:56.765,STABILIZE,-35.3632622,149.1652375,0,-0.0005362923257052898,0.0009647090919315815,0.024998396635055542,0.000286214635707438,0.0003525123465806246,0.0019529527053236961,0,1,-1000,0,0,0,-1,1,0,1500.0
15:10:56.966,STABILIZE,-35.3632622,149.1652375,0,-0.0005362923257052898,0.0009647090919315815,0.024998396635055542,0.000286214635707438,0.0003525123465806246,0.0019529527053236961,0,1,-1000,0,0,0,-1,1,0,1500.0
15:10:57.168,STABILIZE,-35.3632622,149.1652375,0,-0.0005362923257052898,0.0009647090919315815,0.024998396635055542,0.000286214635707438,0.0003525123465806246,0.0019529527053236961,0,1,-1000,0,0,0,-1,1,0,1500.0
15:10:57.370,STABILIZE,-35.3632622,149.1652375,0,-0.0005362923257052898,0.0009647090919315815,0.024998396635055542,0.000286214635707438,0.0003525123465806246,0.0019529527053236961,0,1,-1000,0,0,0,-1,1,0,1500.0
15:10:57.575,STABILIZE,-35.3632622,149.1652375,0,-0.0005362923257052898,0.0009647090919315815,0.024998396635055542,0.000286214635707438,0.0003525123465806246,0.0019529527053236961,0,1,-1000,0,0,0,-1,1,0,1500.0
15:10:57.776,STABILIZE,-35.3632622,149.1652375,4,-0.00020959487301297486,0.0009865777101367712,0.02448045276105404,0.00024944054894149303,0.0002507785684429109,0.0019046474481001496,0,2,-1000,0,1,0,-1,1,-1,1500.0
15:10:57.977,STABILIZE,-35.3632622,149.1652375,4,-0.00019785687618423253,0.0009951138636097312,0.024193309247493744,0.00032067461870610714,0.00028654286870732903,0.0018111601239070296,0,1,-1000,0,1,0,-1,1,-1,1500.0
15:10:58.178,STABILIZE,-35.3632622,149.1652375,4,-0.00019785687618423253,0.0009951138636097312,0.024193309247493744,0.00032067461870610714,0.00028654286870732903,0.0018111601239070296,0,1,-1000,0,1,0,-1,1,-1,1500.0
15:10:58.381,STABILIZE,-35.3632622,149.1652375,4,-0.00019785687618423253,0.0009951138636097312,0.024193309247493744,0.00032067461870610714,0.00028654286870732903,0.0018111601239070296,0,1,-1000,0,1,0,-1,1,-1,1500.0
15:10:58.582,STABILIZE,-35.3632622,149.1652375,4,-0.00019785687618423253,0.0009951138636097312,0.024193309247493744,0.00032067461870610714,0.00028654286870732903,0.0018111601239070296,0,1,-1000,0,1,0,-1,1,-1,1500.0
15:10:58.789,STABILIZE,-35.3632622,149.1652375,4,-0.00019785687618423253,0.0009951138636097312,0.024193309247493744,0.00032067461870610714,0.00028654286870732903,0.0018111601239070296,0,1,-1000,0,1,0,-1,1,-1,1500.0
15:10:58.994,STABILIZE,-35.3632622,149.1652375,4,-0.00019785687618423253,0.0009951138636097312,0.024193309247493744,0.00032067461870610714,0.00028654286870732903,0.0018111601239070296,0,1,-1000,0,1,0,-1,1,-1,1500.0
15:10:59.196,STABILIZE,-35.3632622,149.1652375,4,-0.00019785687618423253,0.0009951138636097312,0.024193309247493744,0.00032067461870610714,0.00028654286870732903,0.0018111601239070296,0,1,-1000,0,1,0,-1,1,-1,1500.0
15:10:59.397,STABILIZE,-35.3632622,149.1652375,4,-0.00019785687618423253,0.0009951138636097312,0.024193309247493744,0.00032067461870610714,0.00028654286870732903,0.0018111601239070296,0,1,-1000,0,1,0,-1,1,-1,1500.0
15:10:59.600,STABILIZE,-35.3632622,149.1652375,4,-0.00019785687618423253,0.0009951138636097312,0.024193309247493744,0.00032067461870610714,0.00028654286870732903,0.0018111601239070296,0,1,-1000,0,1,0,-1,1,-1,1500.0
15:10:59.801,STABILIZE,-35.3632622,149.1652375,4,-0.00019785687618423253,0.0009951138636097312,0.024193309247493744,0.00032067461870610714,0.00028654286870732903,0.0018111601239070296,0,1,-1000,0,1,0,-1,1,-1,1500.0
15:11:00.002,STABILIZE,-35.3632622,149.1652375,0,-4.921990694128908e-05,0.0009984513744711876,0.023396721109747887,7.051747525110841e-05,0.00024409580510109663,0.0016990695148706436,0,-2,-1007,0,0,1,-1,2,0,1500.0
15:11:00.204,STABILIZE,-35.3632622,149.1652375,0,-4.921990694128908e-05,0.0009984513744711876,0.023396721109747887,7.051747525110841e-05,0.00024409580510109663,0.0016990695148706436,0,-2,-1007,0,0,1,-1,2,0,1500.0
15:11:00.407,STABILIZE,-35.3632622,149.1652375,0,-4.921990694128908e-05,0.0009984513744711876,0.023396721109747887,7.051747525110841e-05,0.00024409580510109663,0.0016990695148706436,0,-2,-1007,0,0,1,-1,2,0,1500.0
15:11:00.608,STABILIZE,-35.3632622,149.1652375,0,-4.921990694128908e-05,0.0009984513744711876,0.023396721109747887,7.051747525110841e-05,0.00024409580510109663,0.0016990695148706436,0,-2,-1007,0,0,1,-1,2,0,1500.0
15:11:00.812,STABILIZE,-35.3632622,149.1652375,0,-4.921990694128908e-05,0.0009984513744711876,0.023396721109747887,7.051747525110841e-05,0.00024409580510109663,0.0016990695148706436,0,-2,-1007,0,0,1,-1,2,0,1500.0
15:11:01.015,STABILIZE,-35.3632622,149.1652375,0,-4.921990694128908e-05,0.0009984513744711876,0.023396721109747887,7.051747525110841e-05,0.00024409580510109663,0.0016990695148706436,0,-2,-1007,0,0,1,-1,2,0,1500.0
15:11:01.217,STABILIZE,-35.3632622,149.1652375,0,-4.921990694128908e-05,0.0009984513744711876,0.023396721109747887,7.051747525110841e-05,0.00024409580510109663,0.0016990695148706436,0,-2,-1007,0,0,1,-1,2,0,1500.0
15:11:01.418,STABILIZE,-35.3632622,149.1652375,0,-4.921990694128908e-05,0.0009984513744711876,0.023396721109747887,7.051747525110841e-05,0.00024409580510109663,0.0016990695148706436,0,-2,-1007,0,0,1,-1,2,0,1500.0
15:11:01.620,STABILIZE,-35.3632622,149.1652375,0,-4.921990694128908e-05,0.0009984513744711876,0.023396721109747887,7.051747525110841e-05,0.00024409580510109663,0.0016990695148706436,0,-2,-1007,0,0,1,-1,2,0,1500.0
15:11:01.823,STABILIZE,-35.3632622,149.1652376,0,-0.00014767373795621097,0.0010151959722861648,0.023106291890144348,0.0003556683659553528,0.00025437568547204137,0.0016874761786311865,0,-2,-1007,0,0,1,-1,2,0,1500.0
15:11:02.029,STABILIZE,-35.3632622,149.1652375,0,-0.00037036321009509265,0.0009968419326469302,0.022695891559123993,0.00023881584638729692,0.00014261814067140222,0.0016079852357506752,0,-2,-1007,0,0,1,-1,2,0,1500.0
15:11:02.231,STABILIZE,-35.3632622,149.1652375,0,-0.00037036321009509265,0.0009968419326469302,0.022695891559123993,0.00023881584638729692,0.00014261814067140222,0.0016079852357506752,0,-2,-1007,0,0,1,-1,2,0,1500.0
15:11:02.434,STABILIZE,-35.3632622,149.1652375,0,-0.00037036321009509265,0.0009968419326469302,0.022695891559123993,0.00023881584638729692,0.00014261814067140222,0.0016079852357506752,0,-2,-1007,0,0,1,-1,2,0,1500.0
15:11:02.637,STABILIZE,-35.3632622,149.1652375,0,-0.00037036321009509265,0.0009968419326469302,0.022695891559123993,0.00023881584638729692,0.00014261814067140222,0.0016079852357506752,0,-2,-1007,0,0,1,-1,2,0,1500.0
15:11:02.842,STABILIZE,-35.3632622,149.1652375,0,-0.00037036321009509265,0.0009968419326469302,0.022695891559123993,0.00023881584638729692,0.00014261814067140222,0.0016079852357506752,0,-2,-1007,0,0,1,-1,2,0,1500.0
15:11:03.044,STABILIZE,-35.3632622,149.1652375,0,-0.00037036321009509265,0.0009968419326469302,0.022695891559123993,0.00023881584638729692,0.00014261814067140222,0.0016079852357506752,0,-2,-1007,0,0,1,-1,2,0,1500.0
15:11:03.246,STABILIZE,-35.3632622,149.1652375,0,-0.00037036321009509265,0.0009968419326469302,0.022695891559123993,0.00023881584638729692,0.00014261814067140222,0.0016079852357506752,0,-2,-1007,0,0,1,-1,2,0,1500.0
15:11:03.447,STABILIZE,-35.3632622,149.1652375,0,-0.00037036321009509265,0.0009968419326469302,0.022695891559123993,0.00023881584638729692,0.00014261814067140222,0.0016079852357506752,0,-2,-1007,0,0,1,-1,2,0,1500.0
15:11:03.648,STABILIZE,-35.3632622,149.1652375,0,-0.0005047831800766289,0.0010046205716207623,0.022487839683890343,0.00020809448324143887,4.500499926507473e-05,0.0016536356415599585,0,-2,-1007,0,0,1,-1,2,0,1500.0
15:11:03.850,STABILIZE,-35.3632622,149.1652375,0,-0.00036239621113054454,0.0010029111290350556,0.022238416597247124,0.00024332234170287848,0.0003201705985702574,0.001483291620388627,0,1,-1000,1,0,0,-1,2,0,1500.0
15:11:04.051,STABILIZE,-35.3632622,149.1652375,0,-0.0003905730845872313,0.0009978264570236206,0.022164540365338326,0.0002035775687545538,0.0002613574033603072,0.00160119473002851,0,1,-1000,0,0,0,-1,2,0,1500.0
15:11:04.254,STABILIZE,-35.3632622,149.1652375,0,-0.0003905730845872313,0.0009978264570236206,0.022164540365338326,0.0002035775687545538,0.0002613574033603072,0.00160119473002851,0,1,-1000,0,0,0,-1,2,0,1500.0
15:11:04.455,STABILIZE,-35.3632622,149.1652375,0,-0.0003905730845872313,0.0009978264570236206,0.022164540365338326,0.0002035775687545538,0.0002613574033603072,0.00160119473002851,0,1,-1000,0,0,0,-1,2,0,1500.0
15:11:04.656,STABILIZE,-35.3632622,149.1652375,0,-0.0003905730845872313,0.0009978264570236206,0.022164540365338326,0.0002035775687545538,0.0002613574033603072,0.00160119473002851,0,1,-1000,0,0,0,-1,2,0,1500.0
15:11:04.858,STABILIZE,-35.3632622,149.1652375,0,-0.0003905730845872313,0.0009978264570236206,0.022164540365338326,0.0002035775687545538,0.0002613574033603072,0.00160119473002851,0,1,-1000,0,0,0,-1,2,0,1500.0
15:11:05.061,STABILIZE,-35.3632622,149.1652375,0,-0.0003905730845872313,0.0009978264570236206,0.022164540365338326,0.0002035775687545538,0.0002613574033603072,0.00160119473002851,0,1,-1000,0,0,0,-1,2,0,1500.0
15:11:05.262,STABILIZE,-35.3632622,149.1652375,0,-0.0003905730845872313,0.0009978264570236206,0.022164540365338326,0.0002035775687545538,0.0002613574033603072,0.00160119473002851,0,1,-1000,0,0,0,-1,2,0,1500.0
15:11:05.465,STABILIZE,-35.3632622,149.1652375,0,-0.0003905730845872313,0.0009978264570236206,0.022164540365338326,0.0002035775687545538,0.0002613574033603072,0.00160119473002851,0,1,-1000,0,0,0,-1,2,0,1500.0
15:11:05.667,STABILIZE,-35.3632622,149.1652375,0,-0.0003905730845872313,0.0009978264570236206,0.022164540365338326,0.0002035775687545538,0.0002613574033603072,0.00160119473002851,0,1,-1000,0,0,0,-1,2,0,1500.0
15:11:05.870,STABILIZE,-35.3632622,149.1652375,0,-0.0005436746869236231,0.0009933772962540388,0.021935749799013138,0.00020751479314640164,0.00013588531874120235,0.0015789929311722517,0,1,-1000,0,1,1,-1,1,0,1500.0
15:11:06.071,STABILIZE,-35.3632622,149.1652375,0,-0.0006863296730443835,0.0010084626264870167,0.021714353933930397,0.00022998166969045997,0.0002652021939866245,0.0015154026914387941,0,1,-1000,1,0,0,-1,1,0,1500.0
15:11:06.272,STABILIZE,-35.3632622,149.1652375,0,-0.0006863296730443835,0.0010084626264870167,0.021714353933930397,0.00022998166969045997,0.0002652021939866245,0.0015154026914387941,0,1,-1000,1,0,0,-1,1,0,1500.0
15:11:06.473,STABILIZE,-35.3632622,149.1652375,0,-0.0006863296730443835,0.0010084626264870167,0.021714353933930397,0.00022998166969045997,0.0002652021939866245,0.0015154026914387941,0,1,-1000,1,0,0,-1,1,0,1500.0
15:11:06.675,STABILIZE,-35.3632622,149.1652375,0,-0.0006863296730443835,0.0010084626264870167,0.021714353933930397,0.00022998166969045997,0.0002652021939866245,0.0015154026914387941,0,1,-1000,1,0,0,-1,1,0,1500.0
15:11:06.877,STABILIZE,-35.3632622,149.1652375,0,-0.0006863296730443835,0.0010084626264870167,0.021714353933930397,0.00022998166969045997,0.0002652021939866245,0.0015154026914387941,0,1,-1000,1,0,0,-1,1,0,1500.0
15:11:07.080,STABILIZE,-35.3632622,149.1652375,0,-0.0006863296730443835,0.0010084626264870167,0.021714353933930397,0.00022998166969045997,0.0002652021939866245,0.0015154026914387941,0,1,-1000,1,0,0,-1,1,0,1500.0
15:11:07.288,STABILIZE,-35.3632622,149.1652375,0,-0.0006863296730443835,0.0010084626264870167,0.021714353933930397,0.00022998166969045997,0.0002652021939866245,0.0015154026914387941,0,1,-1000,1,0,0,-1,1,0,1500.0
15:11:07.493,STABILIZE,-35.3632622,149.1652375,0,-0.0006863296730443835,0.0010084626264870167,0.021714353933930397,0.00022998166969045997,0.0002652021939866245,0.0015154026914387941,0,1,-1000,1,0,0,-1,1,0,1500.0
15:11:07.695,STABILIZE,-35.3632622,149.1652375,0,-0.0006863296730443835,0.0010084626264870167,0.021714353933930397,0.00022998166969045997,0.0002652021939866245,0.0015154026914387941,0,1,-1000,1,0,0,-1,1,0,1500.0
15:11:07.896,STABILIZE,-35.3632622,149.1652375,0,-0.000887750182300806,0.0009846860775724053,0.02138647623360157,0.0002835931954905391,0.00021074444521218538,0.0014420528896152973,0,1,-1000,0,0,1,-1,1,0,1500.0
15:11:08.098,STABILIZE,-35.3632622,149.1652375,0,-0.0009025841718539596,0.000984520767815411,0.02135591022670269,0.00023626134498044848,0.0003665669937618077,0.0013569419970735908,0,1,-1000,0,0,1,-1,1,0,1500.0
15:11:08.301,STABILIZE,-35.3632622,149.1652375,0,-0.0009025841718539596,0.000984520767815411,0.02135591022670269,0.00023626134498044848,0.0003665669937618077,0.0013569419970735908,0,1,-1000,0,0,1,-1,1,0,1500.0
15:11:08.504,STABILIZE,-35.3632622,149.1652375,0,-0.0009025841718539596,0.000984520767815411,0.02135591022670269,0.00023626134498044848,0.0003665669937618077,0.0013569419970735908,0,1,-1000,0,0,1,-1,1,0,1500.0
15:11:08.705,STABILIZE,-35.3632622,149.1652375,0,-0.0009025841718539596,0.000984520767815411,0.02135591022670269,0.00023626134498044848,0.0003665669937618077,0.0013569419970735908,0,1,-1000,0,0,1,-1,1,0,1500.0
15:11:08.920,STABILIZE,-35.3632622,149.1652375,0,-0.0009025841718539596,0.000984520767815411,0.02135591022670269,0.00023626134498044848,0.0003665669937618077,0.0013569419970735908,0,1,-1000,0,0,1,-1,1,0,1500.0
15:11:09.122,STABILIZE,-35.3632622,149.1652375,0,-0.0009025841718539596,0.000984520767815411,0.02135591022670269,0.00023626134498044848,0.0003665669937618077,0.0013569419970735908,0,1,-1000,0,0,1,-1,1,0,1500.0
15:11:09.323,STABILIZE,-35.3632622,149.1652375,0,-0.0009025841718539596,0.000984520767815411,0.02135591022670269,0.00023626134498044848,0.0003665669937618077,0.0013569419970735908,0,1,-1000,0,0,1,-1,1,0,1500.0
15:11:09.524,STABILIZE,-35.3632622,149.1652375,0,-0.0009025841718539596,0.000984520767815411,0.02135591022670269,0.00023626134498044848,0.0003665669937618077,0.0013569419970735908,0,1,-1000,0,0,1,-1,1,0,1500.0
15:11:09.728,STABILIZE,-35.3632622,149.1652375,0,-0.0009025841718539596,0.000984520767815411,0.02135591022670269,0.00023626134498044848,0.0003665669937618077,0.0013569419970735908,0,1,-1000,0,0,1,-1,1,0,1500.0
15:11:09.930,STABILIZE,-35.3632622,149.1652375,0,-0.0009025841718539596,0.000984520767815411,0.02135591022670269,0.00023626134498044848,0.0003665669937618077,0.0013569419970735908,0,1,-1000,0,0,1,-1,1,0,1500.0
15:11:10.132,STABILIZE,-35.3632622,149.1652375,0,-0.0009025841718539596,0.000984520767815411,0.02135591022670269,0.00023626134498044848,0.0003665669937618077,0.0013569419970735908,0,1,-1000,0,0,1,-1,1,0,1500.0
15:11:10.333,STABILIZE,-35.3632622,149.1652375,0,-0.0009845438180491328,0.0010079382918775082,0.021169569343328476,0.00028758589178323746,0.0002417730283923447,0.001446341397240758,0,2,-1000,1,1,1,-1,1,0,1500.0
15:11:10.534,STABILIZE,-35.3632622,149.1652375,0,-0.0010009128600358963,0.0010132400784641504,0.021098021417856216,0.00027063977904617786,0.00033579295268282294,0.0012687459820881486,0,2,-1000,1,1,1,-1,1,0,1500.0
15:11:10.735,STABILIZE,-35.3632622,149.1652375,0,-0.0010009128600358963,0.0010132400784641504,0.021098021417856216,0.00027063977904617786,0.00033579295268282294,0.0012687459820881486,0,2,-1000,1,1,1,-1,1,0,1500.0
15:11:10.936,STABILIZE,-35.3632622,149.1652375,0,-0.0010009128600358963,0.0010132400784641504,0.021098021417856216,0.00027063977904617786,0.00033579295268282294,0.0012687459820881486,0,2,-1000,1,1,1,-1,1,0,1500.0
15:11:11.137,STABILIZE,-35.3632622,149.1652375,0,-0.0010009128600358963,0.0010132400784641504,0.021098021417856216,0.00027063977904617786,0.00033579295268282294,0.0012687459820881486,0,2,-1000,1,1,1,-1,1,0,1500.0
15:11:11.340,STABILIZE,-35.3632622,149.1652375,0,-0.0010009128600358963,0.0010132400784641504,0.021098021417856216,0.00027063977904617786,0.00033579295268282294,0.0012687459820881486,0,2,-1000,1,1,1,-1,1,0,1500.0
15:11:11.543,STABILIZE,-35.3632622,149.1652375,0,-0.0010009128600358963,0.0010132400784641504,0.021098021417856216,0.00027063977904617786,0.00033579295268282294,0.0012687459820881486,0,2,-1000,1,1,1,-1,1,0,1500.0
15:11:11.746,STABILIZE,-35.3632622,149.1652375,0,-0.0010009128600358963,0.0010132400784641504,0.021098021417856216,0.00027063977904617786,0.00033579295268282294,0.0012687459820881486,0,2,-1000,1,1,1,-1,1,0,1500.0
15:11:11.949,STABILIZE,-35.3632622,149.1652375,0,-0.0010009128600358963,0.0010132400784641504,0.021098021417856216,0.00027063977904617786,0.00033579295268282294,0.0012687459820881486,0,2,-1000,1,1,1,-1,1,0,1500.0
15:11:12.152,STABILIZE,-35.3632622,149.1652375,0,-0.0010009128600358963,0.0010132400784641504,0.021098021417856216,0.00027063977904617786,0.00033579295268282294,0.0012687459820881486,0,2,-1000,1,1,1,-1,1,0,1500.0
15:11:12.354,STABILIZE,-35.3632622,149.1652375,0,-0.0010009128600358963,0.0010132400784641504,0.021098021417856216,0.00027063977904617786,0.00033579295268282294,0.0012687459820881486,0,2,-1000,1,1,1,-1,1,0,1500.0
15:11:12.555,STABILIZE,-35.3632622,149.1652375,9,-0.0010372065007686615,0.0010213532950729132,0.02092813327908516,0.0003483527689240873,0.000296250160317868,0.0014321196358650923,0,2,-1000,1,1,0,-1,1,0,1500.0
15:11:12.757,AUTO,-35.3632622,149.1652375,8,-0.0010105551918968558,0.0010453859576955438,0.020891735330224037,0.0003282044199295342,0.00026547390734776855,0.0013547707349061966,0,2,-999,1,1,1,-1,0,0,1500.0
15:11:12.958,AUTO,-35.3632622,149.1652375,8,-0.0010105551918968558,0.0010453859576955438,0.020891735330224037,0.0003282044199295342,0.00026547390734776855,0.0013547707349061966,0,2,-999,1,1,1,-1,0,0,1500.0
15:11:13.165,AUTO,-35.3632622,149.1652375,8,-0.0010105551918968558,0.0010453859576955438,0.020891735330224037,0.0003282044199295342,0.00026547390734776855,0.0013547707349061966,0,2,-999,1,1,1,-1,0,0,1500.0
15:11:13.368,AUTO,-35.3632622,149.1652375,8,-0.0010105551918968558,0.0010453859576955438,0.020891735330224037,0.0003282044199295342,0.00026547390734776855,0.0013547707349061966,0,2,-999,1,1,1,-1,0,0,1500.0
15:11:13.569,AUTO,-35.3632622,149.1652375,8,-0.0010105551918968558,0.0010453859576955438,0.020891735330224037,0.0003282044199295342,0.00026547390734776855,0.0013547707349061966,0,2,-999,1,1,1,-1,0,0,1500.0
15:11:13.771,AUTO,-35.3632622,149.1652375,8,-0.0010105551918968558,0.0010453859576955438,0.020891735330224037,0.0003282044199295342,0.00026547390734776855,0.0013547707349061966,0,2,-999,1,1,1,-1,0,0,1500.0
15:11:13.973,AUTO,-35.3632622,149.1652375,8,-0.0010105551918968558,0.0010453859576955438,0.020891735330224037,0.0003282044199295342,0.00026547390734776855,0.0013547707349061966,0,2,-999,1,1,1,-1,0,0,1500.0
15:11:14.175,AUTO,-35.3632622,149.1652375,8,-0.0010105551918968558,0.0010453859576955438,0.020891735330224037,0.0003282044199295342,0.00026547390734776855,0.0013547707349061966,0,2,-999,1,1,1,-1,0,0,1500.0
15:11:14.378,AUTO,-35.3632622,149.1652375,8,-0.0010105551918968558,0.0010453859576955438,0.020891735330224037,0.0003282044199295342,0.00026547390734776855,0.0013547707349061966,0,2,-999,1,1,1,-1,0,0,1500.0
15:11:14.581,AUTO,-35.3632622,149.1652375,8,-0.0008005721028894186,0.001343421172350645,0.020753279328346252,0.00030431710183620453,0.0001471104333177209,0.0012991293333470821,0,1,-1000,0,1,1,0,0,0,1500.0
15:11:14.783,AUTO,-35.3632622,149.1652375,8,-0.0006172261782921851,0.00157877616584301,0.020661257207393646,0.0003462129388935864,0.0003461571759544313,0.0014269828097894788,0,1,-1000,1,1,1,0,0,0,1500.0
15:11:14.997,AUTO,-35.3632622,149.1652375,8,-0.0006172261782921851,0.00157877616584301,0.020661257207393646,0.0003462129388935864,0.0003461571759544313,0.0014269828097894788,0,1,-1000,1,1,1,0,0,0,1500.0
15:11:15.204,AUTO,-35.3632622,149.1652375,8,-0.0006172261782921851,0.00157877616584301,0.020661257207393646,0.0003462129388935864,0.0003461571759544313,0.0014269828097894788,0,1,-1000,1,1,1,0,0,0,1500.0
15:11:15.408,AUTO,-35.3632622,149.1652375,8,-0.0006172261782921851,0.00157877616584301,0.020661257207393646,0.0003462129388935864,0.0003461571759544313,0.0014269828097894788,0,1,-1000,1,1,1,0,0,0,1500.0
15:11:15.611,AUTO,-35.3632622,149.1652375,8,-0.0006172261782921851,0.00157877616584301,0.020661257207393646,0.0003462129388935864,0.0003461571759544313,0.0014269828097894788,0,1,-1000,1,1,1,0,0,0,1500.0
15:11:15.815,AUTO,-35.3632622,149.1652375,8,-0.0006172261782921851,0.00157877616584301,0.020661257207393646,0.0003462129388935864,0.0003461571759544313,0.0014269828097894788,0,1,-1000,1,1,1,0,0,0,1500.0
15:11:16.021,AUTO,-35.3632622,149.1652375,8,-0.0006172261782921851,0.00157877616584301,0.020661257207393646,0.0003462129388935864,0.0003461571759544313,0.0014269828097894788,0,1,-1000,1,1,1,0,0,0,1500.0
15:11:16.227,AUTO,-35.3632622,149.1652375,8,-0.0006172261782921851,0.00157877616584301,0.020661257207393646,0.0003462129388935864,0.0003461571759544313,0.0014269828097894788,0,1,-1000,1,1,1,0,0,0,1500.0
15:11:16.432,AUTO,-35.3632622,149.1652375,8,-0.00037355974200181663,0.0018509651999920607,0.020518777891993523,0.00032034190371632576,0.00032044376712292433,0.0013607409782707691,0,1,-1000,0,1,1,0,0,0,1500.0
15:11:16.637,AUTO,-35.3632621,149.1652375,601,0.0013361407909542322,0.0015777392545714974,0.020329110324382782,-0.006095597054809332,0.0033835344947874546,0.0009311876492574811,0,0,-1095,-5,4,0,0,0,-114,1500.0
15:11:16.840,AUTO,-35.3632621,149.1652375,601,0.0013361407909542322,0.0015777392545714974,0.020329110324382782,-0.006095597054809332,0.0033835344947874546,0.0009311876492574811,0,0,-1095,-5,4,0,0,0,-114,1500.0
15:11:17.044,AUTO,-35.3632621,149.1652375,601,0.0013361407909542322,0.0015777392545714974,0.020329110324382782,-0.006095597054809332,0.0033835344947874546,0.0009311876492574811,0,0,-1095,-5,4,0,0,0,-114,1500.0
15:11:17.246,AUTO,-35.3632621,149.1652375,601,0.0013361407909542322,0.0015777392545714974,0.020329110324382782,-0.006095597054809332,0.0033835344947874546,0.0009311876492574811,0,0,-1095,-5,4,0,0,0,-114,1500.0
15:11:17.447,AUTO,-35.3632621,149.1652375,601,0.0013361407909542322,0.0015777392545714974,0.020329110324382782,-0.006095597054809332,0.0033835344947874546,0.0009311876492574811,0,0,-1095,-5,4,0,0,0,-114,1500.0
15:11:17.649,AUTO,-35.3632621,149.1652375,601,0.0013361407909542322,0.0015777392545714974,0.020329110324382782,-0.006095597054809332,0.0033835344947874546,0.0009311876492574811,0,0,-1095,-5,4,0,0,0,-114,1500.0
15:11:17.853,AUTO,-35.3632621,149.1652375,601,0.0013361407909542322,0.0015777392545714974,0.020329110324382782,-0.006095597054809332,0.0033835344947874546,0.0009311876492574811,0,0,-1095,-5,4,0,0,0,-114,1500.0
15:11:18.055,AUTO,-35.3632621,149.1652375,601,0.0013361407909542322,0.0015777392545714974,0.020329110324382782,-0.006095597054809332,0.0033835344947874546,0.0009311876492574811,0,0,-1095,-5,4,0,0,0,-114,1500.0
15:11:18.258,AUTO,-35.3632621,149.1652375,601,0.0013361407909542322,0.0015777392545714974,0.020329110324382782,-0.006095597054809332,0.0033835344947874546,0.0009311876492574811,0,0,-1095,-5,4,0,0,0,-114,1500.0
15:11:18.465,AUTO,-35.363262,149.1652376,1656,0.027603570371866226,-0.0014786857645958662,0.020284630358219147,0.04598899185657501,-0.007105210795998573,0.002521069487556815,0,0,-1011,46,-6,2,1,8,-147,1500.0
15:11:18.669,AUTO,-35.3632612,149.1652418,3564,0.020197784528136253,0.02214394323527813,-0.040744926780462265,-0.17795227468013763,0.0448763333261013,-0.08374656736850739,3,-11,-994,-177,45,-83,8,55,-145,1500.0
15:11:18.871,AUTO,-35.3632612,149.1652418,3564,0.020197784528136253,0.02214394323527813,-0.040744926780462265,-0.17795227468013763,0.0448763333261013,-0.08374656736850739,3,-11,-994,-177,45,-83,8,55,-145,1500.0
15:11:19.073,AUTO,-35.3632612,149.1652418,3564,0.020197784528136253,0.02214394323527813,-0.040744926780462265,-0.17795227468013763,0.0448763333261013,-0.08374656736850739,3,-11,-994,-177,45,-83,8,55,-145,1500.0
15:11:19.277,AUTO,-35.3632612,149.1652418,3564,0.020197784528136253,0.02214394323527813,-0.040744926780462265,-0.17795227468013763,0.0448763333261013,-0.08374656736850739,3,-11,-994,-177,45,-83,8,55,-145,1500.0
15:11:19.480,AUTO,-35.3632612,149.1652418,3564,0.020197784528136253,0.02214394323527813,-0.040744926780462265,-0.17795227468013763,0.0448763333261013,-0.08374656736850739,3,-11,-994,-177,45,-83,8,55,-145,1500.0
15:11:19.682,AUTO,-35.3632612,149.1652418,3564,0.020197784528136253,0.02214394323527813,-0.040744926780462265,-0.17795227468013763,0.0448763333261013,-0.08374656736850739,3,-11,-994,-177,45,-83,8,55,-145,1500.0
15:11:19.884,AUTO,-35.3632612,149.1652418,3564,0.020197784528136253,0.02214394323527813,-0.040744926780462265,-0.17795227468013763,0.0448763333261013,-0.08374656736850739,3,-11,-994,-177,45,-83,8,55,-145,1500.0
15:11:20.085,AUTO,-35.3632612,149.1652418,3564,0.020197784528136253,0.02214394323527813,-0.040744926780462265,-0.17795227468013763,0.0448763333261013,-0.08374656736850739,3,-11,-994,-177,45,-83,8,55,-145,1500.0
15:11:20.288,AUTO,-35.3632621,149.1652455,6254,-0.056022025644779205,-0.031160637736320496,-0.0637727677822113,0.030795514583587646,0.015312017872929573,0.012887188233435154,0,5,-1001,31,16,12,-3,-28,-149,1500.0
15:11:20.492,AUTO,-35.3632621,149.1652455,6254,-0.056022025644779205,-0.031160637736320496,-0.0637727677822113,0.030795514583587646,0.015312017872929573,0.012887188233435154,0,5,-1001,31,16,12,-3,-28,-149,1500.0
15:11:20.696,AUTO,-35.3632621,149.1652455,6254,-0.056022025644779205,-0.031160637736320496,-0.0637727677822113,0.030795514583587646,0.015312017872929573,0.012887188233435154,0,5,-1001,31,16,12,-3,-28,-149,1500.0
15:11:20.899,AUTO,-35.3632621,149.1652455,6254,-0.056022025644779205,-0.031160637736320496,-0.0637727677822113,0.030795514583587646,0.015312017872929573,0.012887188233435154,0,5,-1001,31,16,12,-3,-28,-149,1500.0
15:11:21.102,AUTO,-35.3632621,149.1652455,6254,-0.056022025644779205,-0.031160637736320496,-0.0637727677822113,0.030795514583587646,0.015312017872929573,0.012887188233435154,0,5,-1001,31,16,12,-3,-28,-149,1500.0
15:11:21.304,AUTO,-35.3632621,149.1652455,6254,-0.056022025644779205,-0.031160637736320496,-0.0637727677822113,0.030795514583587646,0.015312017872929573,0.012887188233435154,0,5,-1001,31,16,12,-3,-28,-149,1500.0
15:11:21.510,AUTO,-35.3632616,149.1652397,7940,0.00015022224397398531,-0.010759284719824791,-0.0647185817360878,0.059867747128009796,0.023392995819449425,-0.001924495561979711,-9,10,-1003,60,24,-2,12,-56,-151,1500.0
15:11:21.714,AUTO,-35.3632613,149.1652381,8330,0.013618622906506062,-0.003871450899168849,-0.06669846177101135,0.050762422382831573,0.030962225049734116,-0.00957994069904089,-9,7,-1002,51,31,-9,12,-52,-151,1500.0
15:11:21.915,AUTO,-35.363261,149.1652368,8721,0.025602595880627632,0.004657368175685406,-0.07032066583633423,0.045083120465278625,0.03594529628753662,-0.019120221957564354,-9,7,-1002,46,36,-19,11,-46,-152,1500.0
15:11:22.118,AUTO,-35.3632608,149.1652356,9113,0.03592730313539505,0.014152798801660538,-0.07592595368623734,0.03543891757726669,0.040393147617578506,-0.02928207255899906,-7,5,-1001,36,40,-29,7,-36,-152,1500.0
15:11:25.898,AUTO,-35.3632608,149.1652356,9113,0.03592730313539505,0.014152798801660538,-0.07592595368623734,0.03543891757726669,0.040393147617578506,-0.02928207255899906,-7,5,-1001,36,40,-29,7,-36,-152,1500.0
15:11:26.103,AUTO,-35.3632608,149.1652356,9113,0.03592730313539505,0.014152798801660538,-0.07592595368623734,0.03543891757726669,0.040393147617578506,-0.02928207255899906,-7,5,-1001,36,40,-29,7,-36,-152,1500.0
15:11:26.304,AUTO,-35.3632608,149.1652356,9113,0.03592730313539505,0.014152798801660538,-0.07592595368623734,0.03543891757726669,0.040393147617578506,-0.02928207255899906,-7,5,-1001,36,40,-29,7,-36,-152,1500.0
15:11:26.511,AUTO,-35.3632608,149.1652356,9113,0.03592730313539505,0.014152798801660538,-0.07592595368623734,0.03543891757726669,0.040393147617578506,-0.02928207255899906,-7,5,-1001,36,40,-29,7,-36,-152,1500.0
15:11:26.713,AUTO,-35.3632608,149.1652356,9113,0.03592730313539505,0.014152798801660538,-0.07592595368623734,0.03543891757726669,0.040393147617578506,-0.02928207255899906,-7,5,-1001,36,40,-29,7,-36,-152,1500.0
15:11:26.918,AUTO,-35.3632608,149.1652356,9113,0.03592730313539505,0.014152798801660538,-0.07592595368623734,0.03543891757726669,0.040393147617578506,-0.02928207255899906,-7,5,-1001,36,40,-29,7,-36,-152,1500.0
15:11:27.122,AUTO,-35.3632608,149.1652356,9113,0.03592730313539505,0.014152798801660538,-0.07592595368623734,0.03543891757726669,0.040393147617578506,-0.02928207255899906,-7,5,-1001,36,40,-29,7,-36,-152,1500.0
15:11:27.327,AUTO,-35.3632608,149.1652356,9113,0.03592730313539505,0.014152798801660538,-0.07592595368623734,0.03543891757726669,0.040393147617578506,-0.02928207255899906,-7,5,-1001,36,40,-29,7,-36,-152,1500.0
15:11:27.537,AUTO,-35.3632617,149.1652351,11298,0.011661846190690994,0.005882774014025927,-0.09330667555332184,-0.06455091387033463,-0.047564052045345306,0.028219567611813545,6,0,-1001,-63,-46,27,-20,23,-149,1500.0
15:11:27.740,AUTO,-35.3632621,149.1652357,11683,-0.001960453810170293,-0.0034106746315956116,-0.08928155153989792,-0.0455414317548275,-0.029432106763124466,0.015855565667152405,6,-1,-1002,-44,-28,15,-18,23,-150,1500.0
15:11:27.943,AUTO,-35.3632621,149.1652357,11683,-0.001960453810170293,-0.0034106746315956116,-0.08928155153989792,-0.0455414317548275,-0.029432106763124466,0.015855565667152405,6,-1,-1002,-44,-28,15,-18,23,-150,1500.0
15:11:28.150,AUTO,-35.3632621,149.1652357,11683,-0.001960453810170293,-0.0034106746315956116,-0.08928155153989792,-0.0455414317548275,-0.029432106763124466,0.015855565667152405,6,-1,-1002,-44,-28,15,-18,23,-150,1500.0
15:11:28.352,AUTO,-35.3632621,149.1652357,11683,-0.001960453810170293,-0.0034106746315956116,-0.08928155153989792,-0.0455414317548275,-0.029432106763124466,0.015855565667152405,6,-1,-1002,-44,-28,15,-18,23,-150,1500.0
15:11:28.555,AUTO,-35.3632621,149.1652357,11683,-0.001960453810170293,-0.0034106746315956116,-0.08928155153989792,-0.0455414317548275,-0.029432106763124466,0.015855565667152405,6,-1,-1002,-44,-28,15,-18,23,-150,1500.0
15:11:28.758,AUTO,-35.3632621,149.1652357,11683,-0.001960453810170293,-0.0034106746315956116,-0.08928155153989792,-0.0455414317548275,-0.029432106763124466,0.015855565667152405,6,-1,-1002,-44,-28,15,-18,23,-150,1500.0
15:11:28.969,AUTO,-35.3632621,149.1652357,11683,-0.001960453810170293,-0.0034106746315956116,-0.08928155153989792,-0.0455414317548275,-0.029432106763124466,0.015855565667152405,6,-1,-1002,-44,-28,15,-18,23,-150,1500.0
15:11:29.171,AUTO,-35.3632621,149.1652357,11683,-0.001960453810170293,-0.0034106746315956116,-0.08928155153989792,-0.0455414317548275,-0.029432106763124466,0.015855565667152405,6,-1,-1002,-44,-28,15,-18,23,-150,1500.0
15:11:29.375,AUTO,-35.3632621,149.1652357,11683,-0.001960453810170293,-0.0034106746315956116,-0.08928155153989792,-0.0455414317548275,-0.029432106763124466,0.015855565667152405,6,-1,-1002,-44,-28,15,-18,23,-150,1500.0
15:11:29.580,AUTO,-35.3632621,149.1652357,11683,-0.001960453810170293,-0.0034106746315956116,-0.08928155153989792,-0.0455414317548275,-0.029432106763124466,0.015855565667152405,6,-1,-1002,-44,-28,15,-18,23,-150,1500.0
15:11:29.788,AUTO,-35.3632629,149.1652371,13774,-0.010475119575858116,-0.010322275571525097,-0.10797122120857239,0.01395615004003048,0.008506009355187416,-0.02671867236495018,0,0,-1000,14,9,-26,1,-1,-152,1500.0
15:11:29.992,AUTO,-35.3632626,149.1652366,14947,0.0009629965061321855,-0.00239831511862576,-0.12995938956737518,0.014774502255022526,0.010493691079318523,-0.024114632979035378,-2,0,-1000,15,11,-24,6,-7,-152,1500.0
15:11:30.196,AUTO,-35.3632626,149.1652366,14947,0.0009629965061321855,-0.00239831511862576,-0.12995938956737518,0.014774502255022526,0.010493691079318523,-0.024114632979035378,-2,0,-1000,15,11,-24,6,-7,-152,1500.0
15:11:30.399,AUTO,-35.3632626,149.1652366,14947,0.0009629965061321855,-0.00239831511862576,-0.12995938956737518,0.014774502255022526,0.010493691079318523,-0.024114632979035378,-2,0,-1000,15,11,-24,6,-7,-152,1500.0
15:11:30.605,AUTO,-35.3632626,149.1652366,14947,0.0009629965061321855,-0.00239831511862576,-0.12995938956737518,0.014774502255022526,0.010493691079318523,-0.024114632979035378,-2,0,-1000,15,11,-24,6,-7,-152,1500.0
15:11:30.809,AUTO,-35.3632626,149.1652366,14947,0.0009629965061321855,-0.00239831511862576,-0.12995938956737518,0.014774502255022526,0.010493691079318523,-0.024114632979035378,-2,0,-1000,15,11,-24,6,-7,-152,1500.0
15:11:31.011,AUTO,-35.3632626,149.1652366,14947,0.0009629965061321855,-0.00239831511862576,-0.12995938956737518,0.014774502255022526,0.010493691079318523,-0.024114632979035378,-2,0,-1000,15,11,-24,6,-7,-152,1500.0
15:11:31.214,AUTO,-35.3632626,149.1652366,14947,0.0009629965061321855,-0.00239831511862576,-0.12995938956737518,0.014774502255022526,0.010493691079318523,-0.024114632979035378,-2,0,-1000,15,11,-24,6,-7,-152,1500.0
15:11:31.424,AUTO,-35.3632626,149.1652366,14947,0.0009629965061321855,-0.00239831511862576,-0.12995938956737518,0.014774502255022526,0.010493691079318523,-0.024114632979035378,-2,0,-1000,15,11,-24,6,-7,-152,1500.0
15:11:31.625,AUTO,-35.3632626,149.1652366,14947,0.0009629965061321855,-0.00239831511862576,-0.12995938956737518,0.014774502255022526,0.010493691079318523,-0.024114632979035378,-2,0,-1000,15,11,-24,6,-7,-152,1500.0
15:11:31.830,AUTO,-35.3632621,149.1652359,16046,0.00858602486550808,0.0041066319681704044,-0.146913543343544,0.007589600048959255,0.009226642549037933,-0.021185852587223053,-2,0,-1000,15,11,-24,6,-5,-152,1500.0
15:11:32.032,AUTO,-35.3632616,149.1652355,17614,0.00917045772075653,0.008166441693902016,-0.16435784101486206,-0.0011367525439709425,0.002570055890828371,-0.014458178542554379,-1,0,-1000,0,3,-14,1,1,-152,1500.0
15:11:32.235,AUTO,-35.3632615,149.1652356,18396,0.007365487050265074,0.007795447949320078,-0.17106950283050537,-0.005294645670801401,-0.0011655890848487616,-0.012534295208752155,0,0,-999,-4,0,-12,0,4,-152,1500.0
15:11:32.438,AUTO,-35.3632615,149.1652356,18396,0.007365487050265074,0.007795447949320078,-0.17106950283050537,-0.005294645670801401,-0.0011655890848487616,-0.012534295208752155,0,0,-999,-4,0,-12,0,4,-152,1500.0
15:11:32.642,AUTO,-35.3632615,149.1652356,18396,0.007365487050265074,0.007795447949320078,-0.17106950283050537,-0.005294645670801401,-0.0011655890848487616,-0.012534295208752155,0,0,-999,-4,0,-12,0,4,-152,1500.0
15:11:32.846,AUTO,-35.3632615,149.1652356,18396,0.007365487050265074,0.007795447949320078,-0.17106950283050537,-0.005294645670801401,-0.0011655890848487616,-0.012534295208752155,0,0,-999,-4,0,-12,0,4,-152,1500.0
15:11:33.048,AUTO,-35.3632615,149.1652356,18396,0.007365487050265074,0.007795447949320078,-0.17106950283050537,-0.005294645670801401,-0.0011655890848487616,-0.012534295208752155,0,0,-999,-4,0,-12,0,4,-152,1500.0
15:11:33.252,AUTO,-35.3632615,149.1652356,18396,0.007365487050265074,0.007795447949320078,-0.17106950283050537,-0.005294645670801401,-0.0011655890848487616,-0.012534295208752155,0,0,-999,-4,0,-12,0,4,-152,1500.0
15:11:33.456,AUTO,-35.3632615,149.1652356,18396,0.007365487050265074,0.007795447949320078,-0.17106950283050537,-0.005294645670801401,-0.0011655890848487616,-0.012534295208752155,0,0,-999,-4,0,-12,0,4,-152,1500.0
15:11:33.661,AUTO,-35.3632615,149.1652356,18396,0.007365487050265074,0.007795447949320078,-0.17106950283050537,-0.005294645670801401,-0.0011655890848487616,-0.012534295208752155,0,0,-999,-4,0,-12,0,4,-152,1500.0
15:11:33.863,AUTO,-35.3632615,149.1652357,19490,0.004938418976962566,0.006198307499289513,-0.18023990094661713,-0.0011485774302855134,-0.0001586971920914948,-0.01680433750152588,0,0,-1000,0,0,-16,-2,6,-153,1500.0
15:11:34.065,AUTO,-35.3632615,149.1652362,21448,0.0016931701684370637,0.003900078823789954,-0.200385183095932,-0.001035642926581204,0.0005618182476609945,-0.0218243096023798,0,0,-1000,0,1,-21,-3,6,-153,1500.0
15:11:34.270,AUTO,-35.3632615,149.1652362,21448,0.0016931701684370637,0.003900078823789954,-0.200385183095932,-0.001035642926581204,0.0005618182476609945,-0.0218243096023798,0,0,-1000,0,1,-21,-3,6,-153,1500.0
15:11:34.471,AUTO,-35.3632615,149.1652362,21448,0.0016931701684370637,0.003900078823789954,-0.200385183095932,-0.001035642926581204,0.0005618182476609945,-0.0218243096023798,0,0,-1000,0,1,-21,-3,6,-153,1500.0
15:11:34.676,AUTO,-35.3632615,149.1652362,21448,0.0016931701684370637,0.003900078823789954,-0.200385183095932,-0.001035642926581204,0.0005618182476609945,-0.0218243096023798,0,0,-1000,0,1,-21,-3,6,-153,1500.0
15:11:34.880,AUTO,-35.3632615,149.1652362,21448,0.0016931701684370637,0.003900078823789954,-0.200385183095932,-0.001035642926581204,0.0005618182476609945,-0.0218243096023798,0,0,-1000,0,1,-21,-3,6,-153,1500.0
15:11:35.086,AUTO,-35.3632615,149.1652362,21448,0.0016931701684370637,0.003900078823789954,-0.200385183095932,-0.001035642926581204,0.0005618182476609945,-0.0218243096023798,0,0,-1000,0,1,-21,-3,6,-153,1500.0
15:11:35.287,AUTO,-35.3632615,149.1652362,21448,0.0016931701684370637,0.003900078823789954,-0.200385183095932,-0.001035642926581204,0.0005618182476609945,-0.0218243096023798,0,0,-1000,0,1,-21,-3,6,-153,1500.0
15:11:35.489,AUTO,-35.3632615,149.1652362,21448,0.0016931701684370637,0.003900078823789954,-0.200385183095932,-0.001035642926581204,0.0005618182476609945,-0.0218243096023798,0,0,-1000,0,1,-21,-3,6,-153,1500.0
15:11:35.692,AUTO,-35.3632615,149.1652362,21448,0.0016931701684370637,0.003900078823789954,-0.200385183095932,-0.001035642926581204,0.0005618182476609945,-0.0218243096023798,0,0,-1000,0,1,-21,-3,6,-153,1500.0
15:11:35.895,AUTO,-35.3632617,149.1652366,23791,0.0014352913713082671,0.0023605800233781338,-0.22874535620212555,0.0026643401943147182,-0.0007031804998405278,-0.01955414190888405,0,0,-1000,2,1,-18,-3,3,-153,1500.0
15:11:36.098,AUTO,-35.3632618,149.1652367,24577,0.0016251259949058294,0.0025817793793976307,-0.23892207443714142,0.0018112518591806293,0.0013983872486278415,-0.02060352824628353,0,0,-1000,2,2,-20,-2,3,-153,1500.0
15:11:36.300,AUTO,-35.3632618,149.1652367,24577,0.0016251259949058294,0.0025817793793976307,-0.23892207443714142,0.0018112518591806293,0.0013983872486278415,-0.02060352824628353,0,0,-1000,2,2,-20,-2,3,-153,1500.0
15:11:36.504,AUTO,-35.3632618,149.1652367,24577,0.0016251259949058294,0.0025817793793976307,-0.23892207443714142,0.0018112518591806293,0.0013983872486278415,-0.02060352824628353,0,0,-1000,2,2,-20,-2,3,-153,1500.0
15:11:36.707,AUTO,-35.3632618,149.1652367,24577,0.0016251259949058294,0.0025817793793976307,-0.23892207443714142,0.0018112518591806293,0.0013983872486278415,-0.02060352824628353,0,0,-1000,2,2,-20,-2,3,-153,1500.0
15:11:36.910,AUTO,-35.3632618,149.1652367,24577,0.0016251259949058294,0.0025817793793976307,-0.23892207443714142,0.0018112518591806293,0.0013983872486278415,-0.02060352824628353,0,0,-1000,2,2,-20,-2,3,-153,1500.0
15:11:37.118,AUTO,-35.3632618,149.1652367,24577,0.0016251259949058294,0.0025817793793976307,-0.23892207443714142,0.0018112518591806293,0.0013983872486278415,-0.02060352824628353,0,0,-1000,2,2,-20,-2,3,-153,1500.0
15:11:37.322,AUTO,-35.3632618,149.1652367,24577,0.0016251259949058294,0.0025817793793976307,-0.23892207443714142,0.0018112518591806293,0.0013983872486278415,-0.02060352824628353,0,0,-1000,2,2,-20,-2,3,-153,1500.0
15:11:37.524,AUTO,-35.3632618,149.1652367,24577,0.0016251259949058294,0.0025817793793976307,-0.23892207443714142,0.0018112518591806293,0.0013983872486278415,-0.02060352824628353,0,0,-1000,2,2,-20,-2,3,-153,1500.0
15:11:37.726,AUTO,-35.3632618,149.1652367,24577,0.0016251259949058294,0.0025817793793976307,-0.23892207443714142,0.0018112518591806293,0.0013983872486278415,-0.02060352824628353,0,0,-1000,2,2,-20,-2,3,-153,1500.0
15:11:37.929,AUTO,-35.3632619,149.1652365,26364,0.004740533884614706,0.004831118509173393,-0.2516382038593292,0.03467949852347374,0.001349570811726153,0.011579186655580997,0,1,-1000,35,2,11,-5,-3,-153,1500.0
15:11:38.138,AUTO,-35.3632623,149.1652365,27929,0.011852898634970188,0.0021671978756785393,-0.22920843958854675,-0.00741030415520072,-0.0012832495849579573,0.025712527334690094,1,0,-999,-6,0,25,-3,6,-153,1500.0
15:11:38.346,AUTO,-35.3632623,149.1652365,27929,0.011852898634970188,0.0021671978756785393,-0.22920843958854675,-0.00741030415520072,-0.0012832495849579573,0.025712527334690094,1,0,-999,-6,0,25,-3,6,-153,1500.0
15:11:38.550,AUTO,-35.3632623,149.1652365,27929,0.011852898634970188,0.0021671978756785393,-0.22920843958854675,-0.00741030415520072,-0.0012832495849579573,0.025712527334690094,1,0,-999,-6,0,25,-3,6,-153,1500.0
15:11:38.757,AUTO,-35.3632623,149.1652365,27929,0.011852898634970188,0.0021671978756785393,-0.22920843958854675,-0.00741030415520072,-0.0012832495849579573,0.025712527334690094,1,0,-999,-6,0,25,-3,6,-153,1500.0
15:11:38.960,AUTO,-35.3632623,149.1652365,27929,0.011852898634970188,0.0021671978756785393,-0.22920843958854675,-0.00741030415520072,-0.0012832495849579573,0.025712527334690094,1,0,-999,-6,0,25,-3,6,-153,1500.0
15:11:39.167,AUTO,-35.3632623,149.1652365,27929,0.011852898634970188,0.0021671978756785393,-0.22920843958854675,-0.00741030415520072,-0.0012832495849579573,0.025712527334690094,1,0,-999,-6,0,25,-3,6,-153,1500.0
15:11:39.370,AUTO,-35.3632623,149.1652365,27929,0.011852898634970188,0.0021671978756785393,-0.22920843958854675,-0.00741030415520072,-0.0012832495849579573,0.025712527334690094,1,0,-999,-6,0,25,-3,6,-153,1500.0
15:11:39.572,AUTO,-35.3632623,149.1652368,28864,0.0061706178821623325,0.0016506455140188336,-0.2152452915906906,-0.010816045105457306,0.001985144102945924,0.0205960925668478,1,-1,-1000,-9,2,20,-1,9,-152,1500.0
15:11:39.775,AUTO,-35.3632623,149.1652376,30423,-0.0005447105504572392,0.0021385790314525366,-0.1945817619562149,-0.0021932770032435656,0.0016868002712726593,0.020982058718800545,1,-1,-1000,0,2,21,0,8,-153,1500.0
15:11:39.979,AUTO,-35.3632623,149.1652376,30423,-0.0005447105504572392,0.0021385790314525366,-0.1945817619562149,-0.0021932770032435656,0.0016868002712726593,0.020982058718800545,1,-1,-1000,0,2,21,0,8,-153,1500.0
15:11:40.183,AUTO,-35.3632623,149.1652376,30423,-0.0005447105504572392,0.0021385790314525366,-0.1945817619562149,-0.0021932770032435656,0.0016868002712726593,0.020982058718800545,1,-1,-1000,0,2,21,0,8,-153,1500.0
15:11:40.386,AUTO,-35.3632623,149.1652376,30423,-0.0005447105504572392,0.0021385790314525366,-0.1945817619562149,-0.0021932770032435656,0.0016868002712726593,0.020982058718800545,1,-1,-1000,0,2,21,0,8,-153,1500.0
15:11:40.592,AUTO,-35.3632623,149.1652376,30423,-0.0005447105504572392,0.0021385790314525366,-0.1945817619562149,-0.0021932770032435656,0.0016868002712726593,0.020982058718800545,1,-1,-1000,0,2,21,0,8,-153,1500.0
15:11:40.797,AUTO,-35.3632623,149.1652376,30423,-0.0005447105504572392,0.0021385790314525366,-0.1945817619562149,-0.0021932770032435656,0.0016868002712726593,0.020982058718800545,1,-1,-1000,0,2,21,0,8,-153,1500.0
15:11:41.008,AUTO,-35.3632623,149.165238,32523,-0.0006594385486096144,0.0014459757367148995,-0.17067193984985352,0.002406025305390358,-0.0006499826558865607,0.01805569790303707,0,0,-1000,3,0,17,0,2,-153,1500.0
15:11:41.210,AUTO,-35.3632623,149.165238,32523,-0.0006594385486096144,0.0014459757367148995,-0.17067193984985352,0.002406025305390358,-0.0006499826558865607,0.01805569790303707,0,0,-1000,3,0,17,0,2,-153,1500.0
15:11:41.412,AUTO,-35.3632623,149.165238,32523,-0.0006594385486096144,0.0014459757367148995,-0.17067193984985352,0.002406025305390358,-0.0006499826558865607,0.01805569790303707,0,0,-1000,3,0,17,0,2,-153,1500.0
15:11:41.616,AUTO,-35.3632623,149.165238,32523,-0.0006594385486096144,0.0014459757367148995,-0.17067193984985352,0.002406025305390358,-0.0006499826558865607,0.01805569790303707,0,0,-1000,3,0,17,0,2,-153,1500.0
15:11:41.819,AUTO,-35.3632623,149.165238,32523,-0.0006594385486096144,0.0014459757367148995,-0.17067193984985352,0.002406025305390358,-0.0006499826558865607,0.01805569790303707,0,0,-1000,3,0,17,0,2,-153,1500.0
15:11:42.022,AUTO,-35.3632623,149.165238,32523,-0.0006594385486096144,0.0014459757367148995,-0.17067193984985352,0.002406025305390358,-0.0006499826558865607,0.01805569790303707,0,0,-1000,3,0,17,0,2,-153,1500.0
15:11:42.224,AUTO,-35.3632623,149.165238,32523,-0.0006594385486096144,0.0014459757367148995,-0.17067193984985352,0.002406025305390358,-0.0006499826558865607,0.01805569790303707,0,0,-1000,3,0,17,0,2,-153,1500.0
15:11:42.427,AUTO,-35.3632623,149.165238,34866,0.0013960612704977393,0.0009754807106219232,-0.1493249386548996,0.0022638693917542696,-0.0005561775760725141,0.012663332745432854,0,0,-1001,3,0,12,0,0,-153,1500.0
15:11:42.628,AUTO,-35.3632623,149.165238,35256,0.0014371739234775305,0.0009419962298125029,-0.14612571895122528,0.0018007317557930946,0.0009953934932127595,0.013297386467456818,0,0,-1000,2,1,13,0,0,-153,1500.0
15:11:42.830,AUTO,-35.3632623,149.165238,35646,0.0012784013524651527,0.0009448953787796199,-0.14321674406528473,-0.0027143466286361217,-7.671175990253687e-05,0.011932330206036568,0,0,-1000,2,1,13,0,0,-153,1500.0
15:11:43.033,AUTO,-35.3632623,149.165238,35646,0.0012784013524651527,0.0009448953787796199,-0.14321674406528473,-0.0027143466286361217,-7.671175990253687e-05,0.011932330206036568,0,0,-999,-1,1,11,0,0,-153,1500.0
15:11:43.238,AUTO,-35.3632623,149.165238,35646,0.0012784013524651527,0.0009448953787796199,-0.14321674406528473,-0.0027143466286361217,-7.671175990253687e-05,0.011932330206036568,0,0,-999,-1,1,11,0,0,-153,1500.0
15:11:43.446,AUTO,-35.3632623,149.165238,35646,0.0012784013524651527,0.0009448953787796199,-0.14321674406528473,-0.0027143466286361217,-7.671175990253687e-05,0.011932330206036568,0,0,-999,-1,1,11,0,0,-153,1500.0
15:11:43.651,AUTO,-35.3632623,149.165238,35646,0.0012784013524651527,0.0009448953787796199,-0.14321674406528473,-0.0027143466286361217,-7.671175990253687e-05,0.011932330206036568,0,0,-999,-1,1,11,0,0,-153,1500.0
15:11:43.856,AUTO,-35.3632623,149.165238,35646,0.0012784013524651527,0.0009448953787796199,-0.14321674406528473,-0.0027143466286361217,-7.671175990253687e-05,0.011932330206036568,0,0,-999,-1,1,11,0,0,-153,1500.0
15:11:44.059,AUTO,-35.3632623,149.165238,35646,0.0012784013524651527,0.0009448953787796199,-0.14321674406528473,-0.0027143466286361217,-7.671175990253687e-05,0.011932330206036568,0,0,-999,-1,1,11,0,0,-153,1500.0
15:11:44.267,AUTO,-35.3632623,149.165238,35646,0.0012784013524651527,0.0009448953787796199,-0.14321674406528473,-0.0027143466286361217,-7.671175990253687e-05,0.011932330206036568,0,0,-999,-1,1,11,0,0,-153,1500.0
15:11:44.472,AUTO,-35.3632622,149.1652377,38213,0.0021754861809313297,0.0011683321790769696,-0.12584634125232697,0.0035940054804086685,0.0020738516468554735,0.009901081211864948,0,0,-999,2,1,12,0,0,-153,1500.0
15:11:44.676,AUTO,-35.3632622,149.1652377,38213,0.0021754861809313297,0.0011683321790769696,-0.12584634125232697,0.0035940054804086685,0.0020738516468554735,0.009901081211864948,0,0,-1000,4,3,10,0,0,-153,1500.0
15:11:44.879,AUTO,-35.3632622,149.1652377,38607,0.002289711032062769,0.001316439243964851,-0.12337686866521835,0.0008677768055349588,0.003526868298649788,0.010384327732026577,0,0,-999,1,4,10,0,0,-153,1500.0
15:11:45.081,AUTO,-35.3632622,149.1652377,38607,0.002289711032062769,0.001316439243964851,-0.12337686866521835,0.0008677768055349588,0.003526868298649788,0.010384327732026577,0,0,-999,1,4,10,0,0,-153,1500.0
15:11:45.297,AUTO,-35.3632622,149.1652377,38607,0.002289711032062769,0.001316439243964851,-0.12337686866521835,0.0008677768055349588,0.003526868298649788,0.010384327732026577,0,0,-999,1,4,10,0,0,-153,1500.0
15:11:45.516,AUTO,-35.3632622,149.1652377,38607,0.002289711032062769,0.001316439243964851,-0.12337686866521835,0.0008677768055349588,0.003526868298649788,0.010384327732026577,0,0,-999,1,4,10,0,0,-153,1500.0
15:11:45.729,AUTO,-35.3632622,149.1652377,38607,0.002289711032062769,0.001316439243964851,-0.12337686866521835,0.0008677768055349588,0.003526868298649788,0.010384327732026577,0,0,-999,1,4,10,0,0,-153,1500.0
15:11:45.933,AUTO,-35.3632622,149.1652377,38607,0.002289711032062769,0.001316439243964851,-0.12337686866521835,0.0008677768055349588,0.003526868298649788,0.010384327732026577,0,0,-999,1,4,10,0,0,-153,1500.0
15:11:46.143,AUTO,-35.3632622,149.1652377,38607,0.002289711032062769,0.001316439243964851,-0.12337686866521835,0.0008677768055349588,0.003526868298649788,0.010384327732026577,0,0,-999,1,4,10,0,0,-153,1500.0
15:11:46.347,AUTO,-35.3632621,149.1652375,40794,0.0021200445480644703,0.0018299320945516229,-0.11220229417085648,0.004022296518087387,-0.0003823328879661858,0.008689368143677711,0,0,-1001,5,0,9,0,0,-153,1500.0
15:11:46.552,AUTO,-35.3632621,149.1652375,41183,0.0018632018472999334,0.0017693951958790421,-0.1102522537112236,-0.0012790982145816088,-0.00047446839744225144,0.007762412074953318,0,0,-1000,0,0,8,0,0,-153,1500.0
15:11:46.755,AUTO,-35.3632621,149.1652375,41573,0.0017732364358380437,0.001911601168103516,-0.10858909785747528,0.000406847451813519,0.0012988558737561107,0.007749370764940977,0,0,-999,1,2,8,-1,0,-153,1500.0
15:11:46.957,AUTO,-35.3632621,149.1652375,41573,0.0017732364358380437,0.001911601168103516,-0.10858909785747528,0.000406847451813519,0.0012988558737561107,0.007749370764940977,0,0,-999,1,2,8,-1,0,-153,1500.0
15:11:47.159,AUTO,-35.3632621,149.1652375,41573,0.0017732364358380437,0.001911601168103516,-0.10858909785747528,0.000406847451813519,0.0012988558737561107,0.007749370764940977,0,0,-999,1,2,8,-1,0,-153,1500.0
15:11:47.363,AUTO,-35.3632621,149.1652375,41573,0.0017732364358380437,0.001911601168103516,-0.10858909785747528,0.000406847451813519,0.0012988558737561107,0.007749370764940977,0,0,-999,1,2,8,-1,0,-153,1500.0
15:11:47.565,AUTO,-35.3632621,149.1652375,41573,0.0017732364358380437,0.001911601168103516,-0.10858909785747528,0.000406847451813519,0.0012988558737561107,0.007749370764940977,0,0,-999,1,2,8,-1,0,-153,1500.0
15:11:47.768,AUTO,-35.3632621,149.1652375,41573,0.0017732364358380437,0.001911601168103516,-0.10858909785747528,0.000406847451813519,0.0012988558737561107,0.007749370764940977,0,0,-999,1,2,8,-1,0,-153,1500.0
15:11:47.969,AUTO,-35.3632621,149.1652375,41573,0.0017732364358380437,0.001911601168103516,-0.10858909785747528,0.000406847451813519,0.0012988558737561107,0.007749370764940977,0,0,-999,1,2,8,-1,0,-153,1500.0
15:11:48.171,AUTO,-35.363262,149.1652374,43526,0.0016113236779347062,0.0013926841784268618,-0.10025690495967865,0.00024414726067334414,-0.00039022264536470175,0.008772068656980991,0,0,-1000,1,1,9,-1,1,-153,1500.0
15:11:48.373,AUTO,-35.363262,149.1652374,43915,0.001754440600052476,0.0013915313174948096,-0.09862314164638519,0.002709383610635996,0.0005435391794890165,0.0057696932926774025,0,0,-1000,3,1,6,-1,1,-153,1500.0
15:11:48.575,AUTO,-35.363262,149.1652374,44305,0.0019221138209104538,0.0014887822326272726,-0.09718935936689377,-0.004122678190469742,-0.0004883325309492648,0.005081414710730314,0,0,-1000,-2,0,5,-1,1,-153,1500.0
15:11:48.776,AUTO,-35.363262,149.1652374,44695,0.0018731296295300126,0.0014274268178269267,-0.09587335586547852,0.00038431386929005384,0.0005633236141875386,0.008862794376909733,0,0,-1000,1,1,9,-1,1,-153,1500.0
15:11:48.978,AUTO,-35.363262,149.1652374,44695,0.0018731296295300126,0.0014274268178269267,-0.09587335586547852,0.00038431386929005384,0.0005633236141875386,0.008862794376909733,0,0,-1000,1,1,9,-1,1,-153,1500.0
15:11:49.182,AUTO,-35.363262,149.1652374,44695,0.0018731296295300126,0.0014274268178269267,-0.09587335586547852,0.00038431386929005384,0.0005633236141875386,0.008862794376909733,0,0,-1000,1,1,9,-1,1,-153,1500.0
15:11:49.387,AUTO,-35.363262,149.1652374,44695,0.0018731296295300126,0.0014274268178269267,-0.09587335586547852,0.00038431386929005384,0.0005633236141875386,0.008862794376909733,0,0,-1000,1,1,9,-1,1,-153,1500.0
15:11:49.589,AUTO,-35.363262,149.1652374,44695,0.0018731296295300126,0.0014274268178269267,-0.09587335586547852,0.00038431386929005384,0.0005633236141875386,0.008862794376909733,0,0,-1000,1,1,9,-1,1,-153,1500.0
15:11:49.795,AUTO,-35.363262,149.1652374,44695,0.0018731296295300126,0.0014274268178269267,-0.09587335586547852,0.00038431386929005384,0.0005633236141875386,0.008862794376909733,0,0,-1000,1,1,9,-1,1,-153,1500.0
15:11:49.997,AUTO,-35.363262,149.1652374,44695,0.0018731296295300126,0.0014274268178269267,-0.09587335586547852,0.00038431386929005384,0.0005633236141875386,0.008862794376909733,0,0,-1000,1,1,9,-1,1,-153,1500.0
15:11:50.201,AUTO,-35.363262,149.1652374,44695,0.0018731296295300126,0.0014274268178269267,-0.09587335586547852,0.00038431386929005384,0.0005633236141875386,0.008862794376909733,0,0,-1000,1,1,9,-1,1,-153,1500.0
15:11:50.404,AUTO,-35.363262,149.1652374,44695,0.0018731296295300126,0.0014274268178269267,-0.09587335586547852,0.00038431386929005384,0.0005633236141875386,0.008862794376909733,0,0,-1000,1,1,9,-1,1,-153,1500.0
15:11:50.606,AUTO,-35.363262,149.1652374,44695,0.0018731296295300126,0.0014274268178269267,-0.09587335586547852,0.00038431386929005384,0.0005633236141875386,0.008862794376909733,0,0,-1000,1,1,9,-1,1,-153,1500.0
15:11:50.812,AUTO,-35.363262,149.1652373,46639,0.0017492922488600016,0.0011883254628628492,-0.088569276034832,0.0017815579194575548,0.0007543649990111589,0.00747403921559453,0,0,-1001,2,0,6,-1,1,-153,1500.0
