time_stamp,MODE,roll,pitch,yaw,rollspeed,pitchspeed,yawspeed,lat,lon,relative_alt,vx,vy,vz,xacc,yacc,zacc,xgyro,ygyro,zgyro,RTL_ALT
05:43:01,AUTO,-0.0007603041594848037,0.0009913722169585526,0.022691761143505573,0.00017694864072836936,0.00035252762609161437,0.0015247949631884694,-35.3632622,149.1652375,0.0,-1.0,2.0,0.0,0.0,1.0,-1000.0,1.0,0.0,0.0,48431.0
05:43:02,AUTO,-0.0005944027022148172,0.0009830592898651958,0.02236800268292427,0.00024735782062634826,0.00021537447658677897,0.0013885912485420704,-35.363262166666665,149.1652375,0.0,-0.6666666666666666,1.6666666666666667,1.3333333333333333,0.0,1.0,-1000.0,0.6666666666666666,0.6666666666666666,0.6666666666666666,165029.0
05:43:03,AUTO,-0.0006070315333393713,0.001073399364637832,0.022167770192027092,0.00032327060277263325,0.0002333303758253654,0.0013749963448693354,-35.3632621,149.1652375,0.0,0.0,0.0,1.0,0.0,1.3333333333333333,-1000.0,0.3333333333333333,0.0,1.0,165029.0
05:43:05,AUTO,-0.00020405252871569246,0.001629600184969604,0.02162459244330724,0.00030370041107137996,0.0003113691151763002,0.001440065059189995,-35.3632621,149.1652374,0.0,0.0,0.0,0.0,0.0,1.3333333333333333,-1000.0,0.6666666666666666,0.3333333333333333,0.6666666666666666,165029.0
05:43:06,AUTO,0.0023971862780551114,0.0009016251678986009,0.021403181677063305,-0.0010087372890363138,0.0029587597430994115,0.0019951877184212208,-35.3632621,149.1652375,409.0,0.0,0.0,-95.33333333333333,0.0,0.0,-1109.3333333333333,0.0,3.3333333333333335,1.0,200.0
05:43:07,AUTO,0.020631457989414532,-0.0006577768945135176,0.021352467437585194,0.046267771472533546,-0.0070038178625206155,0.002308520139195025,-35.363262066666664,149.16523756666666,1363.6666666666667,0.3333333333333333,5.0,-142.66666666666666,0.0,-0.3333333333333333,-1024.6666666666667,46.333333333333336,-6.0,1.3333333333333333,200.0
05:43:09,AUTO,-0.030803548792997997,0.01728289294987917,-0.07412876685460408,-0.03702321027716001,-0.014336148587365946,-0.04964489986499151,-35.36326093333333,149.16524470000002,4400.666666666667,0.3333333333333333,37.666666666666664,-148.33333333333334,4.0,-7.666666666666667,-1006.6666666666666,-36.0,-13.333333333333334,-49.333333333333336,200.0
05:43:10,AUTO,-0.062299525986115135,-0.010372829313079516,-0.09199610849221547,0.04526052623987198,-0.0015393831223870318,-0.003128448995994404,-35.3632611,149.1652455,6320.333333333333,-2.3333333333333335,-33.0,-149.0,-2.0,4.333333333333333,-1002.0,45.333333333333336,-0.6666666666666666,-2.6666666666666665,200.0
05:43:11,AUTO,-0.017728049385671813,-0.005358451123659809,-0.09408810238043468,0.0643920289973418,0.012323241991301378,0.002195672675346335,-35.36326126666666,149.16524146666666,7472.333333333333,-1.3333333333333333,-58.666666666666664,-150.0,-6.666666666666667,9.666666666666666,-1002.3333333333334,65.0,12.333333333333334,1.3333333333333333,200.0
05:43:13,AUTO,0.0344016853099068,-0.0007837076360980669,-0.08343550811211269,-0.0901543324192365,-0.012349856862177452,0.002023464495626589,-35.36326226666667,149.16523453333335,10593.0,-5.0,18.666666666666668,-149.33333333333334,2.0,-2.0,-997.0,-88.66666666666667,-11.0,1.6666666666666667,200.0
05:43:14,AUTO,-0.017350659395257633,-0.003620722253496448,-0.10779727747042973,0.005267819079260032,0.0032752473295355835,-0.026389113316933315,-35.36326236666667,149.16523676666665,12513.666666666666,3.0,6.333333333333333,-151.66666666666666,0.3333333333333333,-2.0,-1002.0,6.0,3.6666666666666665,-26.0,300000.0
05:43:15,AUTO,-0.006492883161020775,0.00026743670847887796,-0.1281688536206881,0.018446745350956917,0.007636599553128083,-0.023503563056389492,-35.36326209999999,149.16523676666665,13681.0,3.6666666666666665,-4.666666666666667,-152.0,-1.3333333333333333,0.0,-1000.0,18.666666666666668,7.666666666666667,-23.0,300000.0
05:43:17,AUTO,0.008871020128329596,0.005984672500441472,-0.16220901906490326,-0.002813872299157083,-0.0011727706102343898,-0.011779292797048887,-35.3632616,149.1652356,16807.333333333332,-1.6666666666666667,1.3333333333333333,-152.0,0.0,0.0,-999.6666666666666,-1.6666666666666667,-0.3333333333333333,-11.333333333333334,300000.0
05:43:18,AUTO,0.004473572752128045,0.00405359361320734,-0.17957564194997153,-0.002579431553992132,-0.0002323015360161662,-0.015869901825984318,-35.3632616,149.16523576666668,18752.0,-3.0,5.0,-152.33333333333334,0.0,0.0,-1000.0,-1.3333333333333333,0.0,-15.666666666666666,32917.0
05:43:19,AUTO,0.0027166612756748996,0.0035815813268224397,-0.19304582476615906,-0.0007401673744122187,0.00022831225457290807,-0.018984501560529072,-35.3632617,149.16523600000002,19919.666666666668,-3.0,5.0,-153.0,0.0,0.0,-1000.0,0.0,0.3333333333333333,-18.666666666666668,32917.0
05:43:21,AUTO,0.002071541345988711,0.00303328704709808,-0.23261046906312308,-0.00027307299509023625,0.0006272373721003532,-0.02012197549144427,-35.3632618,149.1652365333333,23043.333333333332,-2.0,3.0,-153.0,0.0,0.0,-1000.0,0.3333333333333333,1.3333333333333333,-19.666666666666668,32917.0
05:43:22,AUTO,-0.001679509102056424,0.0031554550708582005,-0.25579384962717694,-0.012779147655237466,0.0021175926473612585,-0.011686700706680616,-35.36326186666667,149.1652367,24982.0,-2.3333333333333335,2.0,-152.66666666666666,0.0,0.0,-999.6666666666666,-12.333333333333334,2.6666666666666665,-11.333333333333334,189755.0
05:43:23,AUTO,0.0003564766763399045,0.004436612439652284,-0.2516109695037206,0.028242772445082664,-0.0016856335181122024,0.01900860232611497,-35.363262,149.1652366,26149.0,-4.666666666666667,-1.3333333333333333,-152.66666666666666,0.0,0.6666666666666666,-1001.3333333333334,29.0,-0.6666666666666666,18.0,189755.0
05:43:25,AUTO,0.003561753003547589,0.0017054239676023524,-0.20454609394073486,-0.01379194762557745,0.005746287642978132,0.031534536431233086,-35.3632624,149.16523709999998,29260.666666666668,-0.3333333333333333,8.0,-152.0,0.3333333333333333,-1.0,-996.6666666666666,-12.333333333333334,6.333333333333333,31.0,189755.0
05:43:26,AUTO,-0.03834297756354014,0.02410452626645565,0.1430777981877327,0.07204287328446905,-0.1519006366531054,0.20065025985240936,-35.3632635,149.16523653333334,31032.333333333332,-29.666666666666668,-25.0,-114.33333333333333,3.6666666666666665,6.666666666666667,-946.3333333333334,72.66666666666667,-150.66666666666666,200.33333333333334,200.0
05:43:27,AUTO,0.027118236447374027,-0.04739403103788694,0.16737851997216543,0.051347283025582634,-0.0196123073498408,-0.034603690107663475,-35.363265133333336,149.16523426666666,31771.666666666668,-12.333333333333334,-19.0,-80.33333333333333,1.0,6.333333333333333,-963.3333333333334,52.0,-18.333333333333332,-34.0,200.0
05:43:29,AUTO,0.009920422919094563,0.007947172581528624,0.12629803270101547,0.14178221424420676,0.02134529873728752,-0.008643392783900103,-35.3632627,149.1652363,32835.0,21.0,26.0,-28.666666666666668,-2.0,-1.3333333333333333,-971.6666666666666,142.33333333333334,21.666666666666668,-8.0,200.0
05:43:30,AUTO,-0.01772632294644912,0.03305018382767836,0.11229216555754344,0.5227440595626831,0.013281369038547078,-0.005742101153979699,-35.363260966666665,149.165239,32969.666666666664,3.0,8.0,8.0,1.6666666666666667,17.0,-967.6666666666666,523.3333333333334,14.333333333333334,-5.333333333333333,43895.0
05:43:31,AUTO,-0.0041105636628344655,0.02960008941590786,0.10682205607493718,-0.40182482699553174,-0.016324472924073536,-0.002111509471433237,-35.36326143333333,149.165239,32855.0,-18.666666666666668,-6.666666666666667,9.666666666666666,2.6666666666666665,-17.0,-1020.3333333333334,-400.3333333333333,-14.666666666666666,-2.0,43895.0
05:43:33,AUTO,0.08167941992481549,0.053559826066096626,0.5796110928058624,0.3042091156045596,0.03928169918557008,0.8264931042989095,-35.3632704,149.16524103333333,32812.333333333336,-94.33333333333333,41.333333333333336,-6.333333333333333,21.0,2.6666666666666665,-1007.6666666666666,305.3333333333333,39.666666666666664,826.0,43895.0
05:43:34,AUTO,0.1539048949877421,-0.030800681406011183,1.500801642735799,0.042627270023028054,0.0011389441788196564,0.6989162961641947,-35.3632866,149.16524946666667,32894.333333333336,-197.33333333333334,93.0,-9.333333333333334,11.666666666666666,-54.0,-1007.3333333333334,43.666666666666664,2.3333333333333335,698.6666666666666,200.0
05:43:35,AUTO,0.13966389000415802,-0.10782377918561299,2.022579034169515,0.050779725114504494,0.008502083209653696,0.712599496046702,-35.3633027,149.1652581,32967.666666666664,-275.6666666666667,126.0,-12.666666666666666,-23.333333333333332,-64.66666666666667,-1010.6666666666666,51.666666666666664,9.666666666666666,712.0,200.0
05:43:37,AUTO,0.035314043362935386,-0.2172078142563502,2.8615827560424805,-0.02047322814663251,0.00998974684625864,-0.09498706459999084,-35.363370266666664,149.16529396666667,33305.0,-479.0,203.0,-21.666666666666668,-110.0,-44.0,-1006.3333333333334,-19.0,10.666666666666666,-94.33333333333333,200.0
05:43:38,AUTO,0.0533502995967865,-0.18178372085094452,2.818584362665812,-0.0027300898606578508,0.012419073221584162,0.003034938437243303,-35.36343016666667,149.16532500000002,33667.333333333336,-573.6666666666666,239.0,-34.0,-126.66666666666667,-60.0,-992.0,-1.6666666666666667,13.333333333333334,3.3333333333333335,300000.0
05:43:39,AUTO,0.07366950064897537,-0.06455488751331966,2.8185723622639975,0.05549195781350136,0.32790862520535785,-0.024492692823211353,-35.3634696,149.16534533333333,33975.666666666664,-583.0,241.33333333333334,-52.0,-140.66666666666666,-69.33333333333333,-1041.3333333333333,56.0,328.0,-24.0,300000.0
05:43:41,AUTO,0.049038888265689216,0.032811909914016724,2.8146716753641763,-0.3134224017461141,0.0035159094647193947,-0.012491300081213316,-35.36355336666667,149.16538703333333,34591.0,-345.3333333333333,132.33333333333334,-1.3333333333333333,-78.0,-51.333333333333336,-1001.0,-311.3333333333333,4.333333333333333,-12.333333333333334,300000.0
05:43:42,AUTO,0.033972143506010376,0.05989763140678406,2.80922269821167,-0.21913941701253256,0.03408705939849218,-0.008228213215867678,-35.363586266666665,149.1654025,34651.333333333336,-227.66666666666666,86.33333333333333,-6.333333333333333,-50.333333333333336,-36.666666666666664,-999.3333333333334,-217.66666666666666,34.333333333333336,-8.0,294593.0
05:43:43,AUTO,0.02830973422775666,0.032098193963368736,2.8061955769856772,0.08678347617387772,-0.1708631068468094,0.032651141906778015,-35.363599666666666,149.16540866666665,34698.333333333336,-158.66666666666666,60.666666666666664,-3.0,-35.0,-29.666666666666668,-999.6666666666666,87.66666666666667,-169.66666666666666,32.666666666666664,294593.0
05:43:45,AUTO,0.03360755989948908,-0.18741466601689658,2.7918923695882163,0.06455215811729431,0.10617028673489888,-0.012839584572551152,-35.36364163333334,149.1654304333333,34768.0,-358.3333333333333,161.33333333333334,-15.666666666666666,-79.66666666666667,-36.333333333333336,-1028.0,65.33333333333333,106.66666666666667,-12.333333333333334,294593.0
05:43:46,AUTO,0.057017055650552116,-0.18550299604733786,2.7863481044769287,-0.02042159135453403,-0.04167679511010647,0.0003907441083962719,-35.3636888,149.16545613333335,35053.333333333336,-459.0,198.0,-23.333333333333332,-98.66666666666667,-53.0,-993.6666666666666,-19.333333333333332,-40.0,1.0,57073.0
05:43:47,AUTO,0.05744986111919085,-0.21331457793712616,2.7814162572224936,-0.018568651207412284,-0.008992220585544905,-0.02045271611617257,-35.3637225,149.1654736,35222.0,-526.3333333333334,223.0,-22.0,-119.33333333333333,-64.66666666666667,-997.6666666666666,-17.0,-7.0,-19.666666666666668,57073.0
05:43:49,AUTO,0.08171688765287399,0.11571969464421272,2.790846268335978,-0.08926987803230683,0.18630853978296122,-0.011868170617769161,-35.363825133333336,149.16552586666668,36128.333333333336,-493.3333333333333,204.66666666666666,-58.333333333333336,-107.66666666666667,-75.33333333333333,-980.3333333333334,-88.33333333333333,187.66666666666666,-11.333333333333334,57073.0
05:43:50,AUTO,0.0435976671675841,0.06137304504712423,2.7851266860961914,0.20763114094734192,-0.06021724082529545,0.021857939039667446,-35.3638692,149.16554643333333,36364.666666666664,-288.6666666666667,115.33333333333333,6.666666666666667,-62.333333333333336,-49.0,-1009.3333333333334,208.0,-58.0,22.333333333333332,45437.0
05:43:51,AUTO,0.01808676527192195,0.03879423812031746,2.781611124674479,-0.2111841936906179,-0.0032670184349020324,-0.00580253079533577,-35.36388676666667,149.16555443333334,36332.0,-219.33333333333334,92.0,0.3333333333333333,-49.666666666666664,-34.666666666666664,-1012.0,-210.0,-1.0,-4.666666666666667,45437.0
05:43:53,AUTO,0.021517307808001835,-0.1367348829905192,2.77630082766215,-0.0208255797624588,-0.007588225106398265,0.010847611973683039,-35.36391986666666,149.1655719,36390.666666666664,-208.0,95.66666666666667,-5.666666666666667,-47.0,-28.0,-1010.6666666666666,-20.0,-5.333333333333333,11.0,45437.0
05:43:54,AUTO,0.0447772853076458,-0.011970515207697948,2.773374080657959,0.04983238379160563,0.07180125017960866,-0.002716082070643703,-35.36394666666666,149.16558726666665,36555.666666666664,-238.66666666666666,105.0,-18.333333333333332,-54.333333333333336,-26.333333333333332,-998.0,51.0,73.0,-2.0,300000.0
05:43:55,AUTO,0.0366345023115476,0.06689535516003768,2.7746501763661704,-0.13781814773877463,0.1385522037744522,-0.00897325911015893,-35.36396186666666,149.1655954,36680.333333333336,-193.66666666666666,78.33333333333333,-14.333333333333334,-44.333333333333336,-28.333333333333332,-999.3333333333334,-136.33333333333334,140.0,-8.0,300000.0
05:43:57,AUTO,0.0015814607807745535,-0.017513011310560007,2.770909070968628,-0.09652085105578105,-0.06468109662334125,0.0028173666214570403,-35.363979433333334,149.1656032,36772.333333333336,-34.666666666666664,7.333333333333333,0.0,-7.333333333333333,-15.0,-1003.3333333333334,-95.66666666666667,-62.0,3.0,300000.0
05:43:58,AUTO,0.009939585501948992,0.015542040190969905,2.7694602807362876,-0.062225937843322754,0.06572141870856285,-0.0034689325257204473,-35.36398436666667,149.1656059,36789.0,-40.0,16.666666666666668,-1.6666666666666667,-11.0,-15.333333333333334,-998.6666666666666,-61.666666666666664,67.0,-3.0,105117.0
05:43:59,AUTO,0.012944291966656843,0.04174461215734482,2.7683921655019126,0.24816831946372986,0.007311435416340828,1.259931984047095e-05,-35.36398643333333,149.16560766666666,36802.666666666664,-15.666666666666666,3.3333333333333335,-0.6666666666666666,-5.333333333333333,21.666666666666668,-998.0,250.0,9.333333333333334,1.3333333333333333,105117.0
05:44:01,RTL,0.0015345637608940403,-0.0012920025231627126,2.765068451563517,-0.27053619424502057,0.016387913841754198,0.0007179968912775317,-35.3639863,149.1656081,36806.0,3.3333333333333335,-11.333333333333334,-2.3333333333333335,1.6666666666666667,-18.0,-1015.6666666666666,-269.6666666666667,18.333333333333332,1.3333333333333333,105117.0
05:44:02,RTL,-0.0027799330030878386,0.0039317011057088775,2.763462781906128,-0.17108630140622458,0.0026107178224871555,-0.00012153196924676497,-35.3639863,149.1656075,37007.0,3.0,-7.333333333333333,-38.666666666666664,0.0,-9.0,-1051.0,-169.33333333333334,4.333333333333333,1.0,68163.0
05:44:03,RTL,-0.0029764227801933885,0.004199243228261669,2.7624851067860923,-0.004269318034251531,0.0029156225888679423,-0.002227795669265712,-35.3639863,149.16560723333333,37439.0,3.6666666666666665,-5.333333333333333,-73.33333333333333,0.3333333333333333,-0.6666666666666666,-1038.3333333333333,-2.6666666666666665,5.0,-1.0,68163.0
05:44:05,RTL,-0.004927352846910556,0.002112942165695131,2.760053873062134,0.008236267293492952,-0.0030195372722422085,-0.000787011308905979,-35.36398633333334,149.1656066,39261.0,6.0,0.0,-88.66666666666667,0.0,1.0,-986.0,9.666666666666666,-0.6666666666666666,0.0,68163.0
05:44:06,RTL,-0.0019278900484399248,-0.0014324627506236236,2.7590160369873047,-0.015846281001965206,-0.0010270883794873953,0.0001351820925871531,-35.363986,149.16560653333332,40233.333333333336,4.333333333333333,0.3333333333333333,-59.0,0.0,0.0,-968.0,-14.333333333333334,0.6666666666666666,0.3333333333333333,40380.0
05:44:07,RTL,0.0029871101335932813,-0.002231392621373137,2.758776585261027,0.1568231222530206,0.0017739319397757451,0.0008150595240294933,-35.36398573333333,149.1656066,40598.0,2.3333333333333335,0.0,-33.333333333333336,0.6666666666666666,5.0,-964.0,157.66666666666666,4.0,1.3333333333333333,40380.0
05:44:09,RTL,-0.0005718154522279898,-0.0029714838601648808,2.75834321975708,-0.21101123094558716,0.002380180095011989,-0.0008332507568411529,-35.3639853,149.165607,40748.0,-2.0,-0.6666666666666666,4.333333333333333,-0.3333333333333333,4.333333333333333,-1006.6666666666666,-209.0,4.333333333333333,0.3333333333333333,40380.0
05:44:10,RTL,0.005961402629812558,-0.00039105724620943266,2.7569621404012046,-0.12184665600458781,-0.0010653495943794649,-0.001060850180995961,-35.3639852,149.1656075,40803.666666666664,-3.0,-3.6666666666666665,-24.0,-0.6666666666666666,-4.0,-1044.3333333333333,-120.0,1.0,0.0,300000.0
05:44:11,RTL,0.010249684564769268,0.00010095872714070235,2.7561084429423013,-0.0018877921005090077,-0.0002327682450413704,-0.00048578003770671785,-35.3639852,149.165608,41087.0,-3.3333333333333335,-6.666666666666667,-50.0,-1.3333333333333333,-0.3333333333333333,-1028.6666666666667,-0.6666666666666666,2.0,0.3333333333333333,300000.0
05:44:13,RTL,0.006220506659398477,0.002666858723387122,2.7547399202982583,0.0709330787261327,0.0002859587160249551,0.002590660510274271,-35.36398533333334,149.16560836666667,41988.666666666664,-3.0,-12.666666666666666,-13.666666666666666,0.3333333333333333,9.333333333333334,-968.6666666666666,73.0,2.3333333333333335,3.3333333333333335,300000.0
05:44:14,RTL,0.0012185942808476586,0.0032396840397268534,2.754264990488688,0.046426778038342796,0.0017390400171279907,0.0014085091728096206,-35.363985533333334,149.165608,42006.666666666664,-2.0,-12.0,3.3333333333333335,1.0,10.0,-1008.6666666666666,49.0,4.0,2.3333333333333335,186883.0
05:44:15,RTL,-0.0003192065826927622,0.0035326386957118907,2.754302183787028,-0.21288110812505087,0.0003011752075205247,-0.0016989170496041577,-35.36398566666667,149.16560769999998,42000.666666666664,-0.6666666666666666,-9.666666666666666,-6.666666666666667,0.6666666666666666,-17.0,-1024.6666666666667,-211.0,2.0,-0.6666666666666666,186883.0
05:44:17,RTL,0.003407191291141013,0.0017941209177176158,2.752819061279297,-0.04940695812304815,0.0009667011521135768,0.0007825723150745034,-35.3639858,149.1656075,42791.333333333336,0.6666666666666666,-5.666666666666667,-55.333333333333336,0.0,-1.6666666666666667,-988.3333333333334,-47.333333333333336,3.0,1.3333333333333333,186883.0
05:44:18,RTL,0.007427469128742814,0.0018003301229327917,2.7528363863627114,0.15017656485239664,0.0017930377119531233,-0.0003288714215159416,-35.3639857,149.1656077,43264.333333333336,0.3333333333333333,-7.333333333333333,-13.0,0.0,8.666666666666666,-968.0,152.33333333333334,3.6666666666666665,0.3333333333333333,59251.0
05:44:19,RTL,0.0031111222924664617,0.0012488438903043668,2.7518927256266275,-0.36746950447559357,-0.00010720640420913696,0.0021655248710885644,-35.3639856,149.16560793333335,43294.666666666664,0.0,-8.333333333333334,2.0,-0.6666666666666666,-18.0,-990.3333333333334,-365.3333333333333,2.3333333333333335,3.0,59251.0
05:44:21,RTL,0.007397361720601718,0.0022665480695044002,2.7512524922688804,0.04913139343261719,0.0005811819185813268,-0.0005288654550289115,-35.3639855,149.16560816666666,43435.666666666664,-1.3333333333333333,-11.666666666666666,-35.333333333333336,0.3333333333333333,0.3333333333333333,-1037.0,51.333333333333336,3.0,0.6666666666666666,59251.0
05:44:22,RTL,-0.0032172619054714837,0.004431439718852441,2.750239610671997,0.01958158239722252,0.0014685924009730418,0.0013346321842012305,-35.363985766666666,149.1656075,44065.333333333336,-0.6666666666666666,-9.333333333333334,-51.666666666666664,0.6666666666666666,-0.6666666666666666,-985.0,21.666666666666668,3.6666666666666665,2.3333333333333335,200.0
05:44:23,RTL,-0.01104389705384771,0.004504510046293338,2.7507430712381997,-0.19417903820673624,-0.00048673020986219245,-0.00034994573798030615,-35.36398596666667,149.1656069,44387.0,0.6666666666666666,-5.333333333333333,-27.333333333333332,1.0,-9.0,-957.0,-191.66666666666666,2.6666666666666665,1.0,200.0
05:44:25,RTL,-0.003957019536755979,0.0007823184035563221,2.750478665033976,0.20042821764945984,-0.0006708206298450629,-0.0008143665424237648,-35.36398616666667,149.16560596666667,44471.333333333336,5.0,3.0,1.0,0.6666666666666666,8.0,-1009.6666666666666,203.0,2.0,0.3333333333333333,200.0
05:44:26,RTL,-0.002885364325872312,0.0008933043379026154,2.750012159347534,0.08110806345939636,0.0003465882036834955,-0.0004399250998782615,-35.3639861,149.16560603333332,44685.0,4.0,5.0,-39.0,0.0,1.3333333333333333,-1034.3333333333333,83.0,2.6666666666666665,0.6666666666666666,283895.0
05:44:27,RTL,-0.003129428679433962,0.0017193110349277656,2.7496934731801352,-0.013956551750500997,0.001868146238848567,7.85911688581109e-05,-35.3639861,149.16560616666666,45059.333333333336,4.0,4.333333333333333,-54.666666666666664,0.0,-2.0,-1003.3333333333334,-11.666666666666666,4.333333333333333,1.3333333333333333,283895.0
05:44:29,RTL,-0.0034327613345036903,0.0016250412445515394,2.749307076136271,-0.12938506404558817,-0.001222120054687063,-0.0007782666943967342,-35.363986033333326,149.1656064,45693.666666666664,4.0,2.3333333333333335,-0.3333333333333333,0.0,-12.0,-984.6666666666666,-127.33333333333333,1.0,0.6666666666666666,283895.0
05:44:30,RTL,-0.004740994268407424,0.001770703704096377,2.748849868774414,-0.2172326942284902,0.0003418679504344861,0.0011631328767786424,-35.363986,149.1656064,45663.666666666664,3.0,2.0,-1.0,0.0,-16.0,-1019.3333333333334,-215.0,2.6666666666666665,2.3333333333333335,200.0
05:44:31,RTL,-0.0025113059285407266,0.0009138028447826704,2.7492114702860513,0.11758855978647868,-0.0006492109969258308,-0.000506119686178863,-35.363986,149.1656064,45754.333333333336,3.0,2.6666666666666665,-25.0,0.0,4.666666666666667,-1037.6666666666667,119.33333333333333,2.0,0.6666666666666666,200.0
05:44:33,RTL,-0.002159117953851819,0.0014757549312586586,2.7487717469533286,0.019017851601044338,-0.00032891309820115566,0.0007876124776278933,-35.363986,149.16560643333332,46703.0,3.0,2.6666666666666665,-39.0,0.0,0.3333333333333333,-962.0,20.666666666666668,2.3333333333333335,2.0,200.0
05:44:34,RTL,-0.0005524959415197372,0.00011755370845397313,2.748708168665568,0.10309428473313649,-0.0022703971869001784,0.0002189819933846593,-35.36398583333334,149.16560676666666,46914.666666666664,2.3333333333333335,0.3333333333333333,0.6666666666666666,-0.3333333333333333,15.333333333333334,-993.0,105.66666666666667,0.6666666666666666,1.3333333333333333,77970.0
05:44:35,RTL,0.002209243675072988,-0.00026700137823354453,2.748983065287272,-0.2887380123138428,-0.0007996260731791457,0.00014421339922895035,-35.3639857,149.165607,46890.666666666664,1.3333333333333333,-0.3333333333333333,4.0,-0.3333333333333333,-18.666666666666668,-996.6666666666666,-287.3333333333333,2.0,1.3333333333333333,77970.0
05:44:37,RTL,0.011918026488274336,0.000457162056894352,2.747832457224528,-0.003713548183441162,0.002670060067127148,0.0007183206034824252,-35.36398533333334,149.16560816666666,47316.666666666664,-1.6666666666666667,-8.666666666666666,-52.0,-1.0,-0.3333333333333333,-1020.0,-1.3333333333333333,5.0,2.3333333333333335,77970.0
05:44:38,RTL,0.005496755009517074,0.0030285825487226248,2.74773375193278,0.04082301383217176,-0.0006012200222661098,0.0016423459552849333,-35.36398536666667,149.16560833333332,47952.0,-3.0,-12.333333333333334,-34.333333333333336,0.3333333333333333,5.333333333333333,-960.0,43.0,2.3333333333333335,3.0,227265.0
05:44:39,RTL,-0.0015341669010619323,0.00329479924403131,2.747554381688436,-0.29895303398370743,-0.0010237283228586118,0.002498126976812879,-35.3639855,149.16560796666667,48108.666666666664,-2.0,-11.0,-6.0,0.6666666666666666,-14.333333333333334,-973.3333333333334,-296.3333333333333,1.6666666666666667,4.0,227265.0
05:44:41,RTL,-0.007571442673603694,0.002494083329414328,2.747880220413208,0.21719264487425485,-0.0008793926487366358,0.001309029486340781,-35.3639859,149.16560656666664,48120.666666666664,1.0,-2.0,-14.0,1.0,12.333333333333334,-1039.0,220.0,2.3333333333333335,2.3333333333333335,227265.0
05:44:42,RTL,-0.008340981944153706,0.0018885537283495069,2.7478747367858887,0.010160031418005625,0.0017504672675083082,-0.00014995217012862364,-35.3639861,149.16560603333335,48583.0,3.0,2.6666666666666665,-52.666666666666664,-0.3333333333333333,1.3333333333333333,-1011.6666666666666,12.666666666666666,4.333333333333333,1.0,292085.0
05:44:43,RTL,-0.009842426981776953,0.0014694616353760164,2.7473345597585044,-0.03561443090438843,-0.000466973171569407,0.0010602161831532915,-35.36398616666667,149.1656058,48982.333333333336,4.0,4.666666666666667,-45.333333333333336,0.0,-1.6666666666666667,-971.3333333333334,-33.333333333333336,2.3333333333333335,2.3333333333333335,292085.0
05:44:45,RTL,-0.004787129427616795,-0.0002768094806621472,2.7479702631632485,6.051858266194662e-05,-0.00036228587850928307,0.0017590698165198166,-35.3639861,149.16560573333334,49271.0,5.0,7.666666666666667,3.3333333333333335,-0.3333333333333333,-6.0,-998.6666666666666,2.0,2.3333333333333335,3.3333333333333335,292085.0
05:44:46,RTL,0.0017572679401685793,0.000790051465931659,2.7478984196980796,0.15216209987799326,0.0012267554799715679,-0.00037106565044571954,-35.363986,149.16560623333334,49301.333333333336,4.0,5.666666666666667,-18.0,-1.6666666666666667,3.0,-1040.0,154.0,3.6666666666666665,1.0,192015.0
05:44:47,RTL,0.004666566150262952,-0.0002886259414178009,2.747542142868042,0.04058194408814112,-0.002310519960398475,-0.0017101909033954144,-35.36398586666667,149.16560686666665,49546.333333333336,3.0,2.0,-45.666666666666664,-1.6666666666666667,6.0,-1030.3333333333333,43.0,0.6666666666666666,0.0,192015.0
05:44:49,RTL,0.012884239045282206,0.0009387382306158543,2.7472042242685952,-0.14052524169286093,0.0003263165708631277,0.0009161774069070816,-35.36398533333334,149.16560846666667,50449.666666666664,-1.3333333333333333,-9.666666666666666,-15.666666666666666,-0.6666666666666666,-10.0,-964.0,-138.66666666666666,3.0,3.0,192015.0
05:44:50,RTL,0.00799720804207027,0.002201020640010635,2.747468630472819,-0.06821086506048839,0.0019764238192389407,0.002467143970231215,-35.3639853,149.1656084,50477.333333333336,-3.0,-12.333333333333334,4.333333333333333,1.0,-15.666666666666666,-993.3333333333334,-66.33333333333333,4.666666666666667,3.6666666666666665,220912.0
05:44:51,RTL,0.0001629101655756434,0.002491797087714076,2.747321605682373,0.09042192995548248,-0.0008960867223019401,0.000777518143877387,-35.36398543333333,149.16560796666667,50464.333333333336,-2.6666666666666665,-12.0,-4.333333333333333,1.3333333333333333,10.333333333333334,-1029.0,93.33333333333333,2.0,2.3333333333333335,220912.0
05:44:53,RTL,-0.005208167635525267,0.002837800265600284,2.746793588002523,0.038772113621234894,0.0009007119418432316,0.0018277015381803114,-35.363985866666674,149.16560676666668,51207.666666666664,0.3333333333333333,-2.6666666666666665,-53.333333333333336,0.3333333333333333,-2.0,-988.6666666666666,41.333333333333336,4.0,3.3333333333333335,220912.0
05:44:54,RTL,-0.010330382268875837,0.002356028805176417,2.7472616831461587,-0.23537352681159973,-0.0027885801003624997,0.0002300001603240768,-35.3639861,149.16560623333334,51664.666666666664,3.0,1.0,-11.666666666666666,0.0,-10.666666666666666,-964.6666666666666,-233.33333333333334,0.3333333333333333,1.6666666666666667,200.0
05:44:55,RTL,-0.002001612214371562,0.000799878539207081,2.7472031116485596,0.2905137042204539,-0.0014529994999368985,0.0018058724235743284,-35.3639861,149.16560613333334,51693.333333333336,3.6666666666666665,2.6666666666666665,2.3333333333333335,0.6666666666666666,4.666666666666667,-995.6666666666666,292.6666666666667,1.6666666666666667,3.0,200.0
05:44:57,RTL,-0.002763377192119757,-0.0008418035965102414,2.7471234798431396,-0.08214720090230306,-0.00048165523912757635,-0.0006399221407870451,-35.36398586666667,149.1656063,51845.0,3.0,4.0,-36.0,-1.0,0.6666666666666666,-1037.6666666666667,-79.33333333333333,2.3333333333333335,1.3333333333333333,200.0
05:44:58,RTL,0.004054806733620353,0.0002299202848613883,2.74693497021993,0.05191737413406372,0.0019193101519097884,0.0002866460708901286,-35.3639857,149.16560693333335,52480.666666666664,0.6666666666666666,0.0,-51.666666666666664,-0.3333333333333333,0.3333333333333333,-983.0,54.0,4.666666666666667,1.6666666666666667,142948.0
05:44:59,RTL,0.0050973740095893545,0.0008818989056938639,2.7469423611958823,0.18170484403769174,0.00021219238017996153,0.0010546835449834664,-35.363985633333336,149.16560719999998,52796.333333333336,0.0,-1.6666666666666667,-26.0,-0.3333333333333333,7.333333333333333,-955.0,184.33333333333334,3.3333333333333335,3.0,142948.0
05:45:01,RTL,0.006031839409843087,-0.0007279322599060833,2.747072398662567,-0.15695565566420555,0.001977401552721858,0.0017959190881811082,-35.363985375,149.1656078,52877.5,-1.25,-6.25,1.75,-1.5,-6.75,-1008.25,-154.25,4.75,3.75,142948.0
05:45:02,RTL,0.006130675305030309,0.0012561238836497068,2.7466038862864175,0.05028457442919413,0.00046298311402400333,0.0007469575696935257,-35.3639853,149.16560806666666,53094.333333333336,-3.0,-9.666666666666666,-39.666666666666664,0.0,4.666666666666667,-1035.6666666666667,52.666666666666664,3.6666666666666665,2.0,278894.0
05:45:03,RTL,0.006429359316825867,0.0017031588358804584,2.7468600273132324,-0.016757624844710033,0.001087160858636101,7.515540346503258e-05,-35.3639854,149.1656081,53472.333333333336,-2.3333333333333335,-9.666666666666666,-55.0,-0.3333333333333333,-1.6666666666666667,-1003.6666666666666,-13.666666666666666,4.0,1.6666666666666667,278894.0
05:45:05,RTL,0.009531053559233746,0.0014468577768032749,2.747204383214315,0.35940175503492355,0.0020110394495228925,0.003116401843726635,-35.3639854,149.16560796666667,54118.666666666664,-2.0,-10.333333333333334,-0.6666666666666666,0.3333333333333333,12.666666666666666,-983.6666666666666,362.0,4.666666666666667,4.666666666666667,278894.0
05:45:06,RTL,0.003990735237797101,0.0014850151104231675,2.747158924738566,0.3122067352135976,-0.0017793298078080018,0.0005119419268642863,-35.3639855,149.1656075,54089.333333333336,-1.3333333333333333,-8.0,-1.6666666666666667,1.0,12.0,-1018.3333333333334,315.0,1.6666666666666667,2.3333333333333335,137162.0
05:45:07,RTL,-0.0035831640319277844,0.0016980636088798444,2.7469979921976724,-0.09510260323683421,-1.9185089816649754e-05,0.0003642550048728784,-35.363985633333336,149.16560719999998,54185.0,-0.6666666666666666,-5.666666666666667,-26.666666666666668,0.6666666666666666,-3.0,-1042.3333333333333,-92.33333333333333,3.3333333333333335,2.3333333333333335,137162.0
05:45:10,RTL,-0.003947294142562896,0.0007154790024893979,2.7471465269724527,0.013562345256408056,-0.003922676978011926,0.0017489476595073938,-35.3639861,149.16560593333332,55381.666666666664,4.0,4.666666666666667,0.0,0.0,4.0,-985.5,357.5,0.0,4.5,137162.0
05:45:11,RTL,-0.007663605036213994,-0.00021297144970352141,2.7472244103749595,0.1936924159526825,0.00016696487242976824,-0.0012797084636986256,-35.363986033333326,149.16560593333335,55360.666666666664,3.6666666666666665,4.666666666666667,3.0,-0.5,8.0,-1000.5,-19.0,2.5,1.25,54686.0
05:45:12,RTL,-4.8239948228001595e-05,-0.0016509961569681764,2.7468334436416626,0.02252669632434845,0.0036449774634093046,-0.0017854583566077054,-35.36398575,149.1656065,55419.5,2.5,3.0,-23.0,-1.5,14.0,-1038.5,26.0,6.5,0.5,54686.0
05:45:13,RTL,0.00864135765004903,-0.0011198158244951628,2.7469058632850647,0.0433766464702785,0.0023130826302804053,0.00042280612979084253,-35.36398560000001,149.1656071,55710.0,0.75,0.5,-48.0,-1.25,0.5,-1024.0,45.75,5.25,2.25,54686.0
05:45:14,RTL,0.008622189401648939,0.0023182768491096795,2.7467042207717896,-0.1273195520043373,0.002819154877215624,0.0017021202947944403,-35.3639855,149.16560775,56373.5,-1.0,-5.0,-42.5,-0.5,-11.5,-959.5,-125.0,6.5,3.5,300000.0
05:45:16,RTL,0.011416788678616285,0.0013242755667306483,2.746888279914856,0.5120981484651566,0.00162895314861089,0.0017937051597982645,-35.3639855,149.1656075,56597.0,-0.5,-5.5,3.5,0.5,10.0,-1005.0,514.5,4.5,3.5,300000.0
05:45:17,RTL,0.001863851910457015,0.00028376482805470005,2.7469066381454468,-0.03953327238559723,-0.0003413778613321483,7.190328324213624e-05,-35.3639855,149.1656075,56603.25,-0.25,-6.25,-8.5,-0.75,-2.5,-1027.75,-36.5,3.25,2.0,300000.0
05:45:18,RTL,0.005230443784967065,0.0013037067255936563,2.7468091249465942,0.12787074595689774,9.643263183534145e-06,-0.000160456751473248,-35.363985549999995,149.1656075,56979.0,-1.0,-6.0,-51.5,0.0,5.0,-1026.5,131.0,3.5,2.0,300000.0
05:45:20,RTL,-0.00271160458214581,0.0024739678483456373,2.7467247247695923,-0.38389062881469727,-0.0015899835852906108,0.0006164460210129619,-35.36398575,149.16560715,57837.5,0.0,-4.0,-9.0,0.0,-25.0,-962.5,-380.5,1.5,3.0,300000.0
05:45:21,RTL,-0.0006039392901584506,0.0004433761023392435,2.74741131067276,0.08342509344220161,-0.0006502456380985677,0.0003511941176839173,-35.3639858,149.16560705,57851.0,0.75,-3.25,2.5,0.0,3.0,-991.0,86.75,2.5,2.5,200.0
05:45:22,RTL,0.008090465795248747,0.0003301738906884566,2.747379779815674,0.27302535995841026,0.002277067396789789,-0.0008786898106336594,-35.3639857,149.1656072,57832.5,0.0,-3.0,-8.0,0.0,4.0,-1038.0,276.0,5.5,1.0,200.0
05:45:24,RTL,0.0025828644720604643,0.0016832987312227488,2.7466273307800293,-0.1445273831486702,-0.002398208947852254,0.0014107762835919857,-35.3639856,149.1656075,58652.0,0.0,-5.5,-52.5,0.0,-7.5,-981.5,-140.5,1.5,3.5,200.0
05:45:25,RTL,-4.9991998821496964e-05,0.002194683940615505,2.7466543316841125,-0.02347246464341879,-0.00010514992754906416,1.8756225472316146e-05,-35.3639856,149.1656075,58959.0,0.0,-6.25,-26.5,0.0,3.25,-958.75,-20.0,3.5,1.75,162639.0
05:45:26,RTL,0.001236520241945982,-0.0009543525811750442,2.747796893119812,-0.45727938413619995,-0.0060384555254131556,0.0001717227278277278,-35.363985549999995,149.16560755,59066.5,0.0,-6.0,3.5,0.0,-27.0,-981.0,-454.0,-1.5,2.5,162639.0
05:45:28,RTL,0.015006572008132935,0.0002669903769856319,2.746527314186096,0.1640637218952179,0.0026213190285488963,0.0014831654261797667,-35.363985150000005,149.16560855,59289.0,-4.0,-13.0,-42.5,-0.5,4.0,-1034.5,168.0,6.0,3.5,162639.0
05:45:29,RTL,0.009254731587134302,0.0013288966001709923,2.746555507183075,-0.08894078992307186,0.002414126298390329,0.0009134157444350421,-35.363985125,149.16560865000002,59689.0,-5.0,-14.5,-56.0,-0.25,-2.5,-1002.75,-84.75,5.75,3.0,179952.0
05:45:30,RTL,0.0025571772130206227,0.0023198651615530252,2.74665629863739,-0.09880021214485168,-0.0020498898811638355,0.0023964049760252237,-35.3639853,149.1656083,60273.5,-4.0,-14.0,-23.5,0.5,0.0,-959.0,-94.5,1.5,4.5,179952.0
05:45:32,RTL,0.005686533753760159,6.538419256685302e-05,2.747420907020569,-0.07203172147274017,-0.004119310178793967,0.0008692850824445486,-35.3639854,149.1656076,60319.0,-1.5,-7.5,0.5,0.5,-20.0,-1020.5,-68.5,0.0,2.5,179952.0
05:45:33,RTL,0.002131273693521507,0.0008105721208266914,2.746768534183502,-0.11878190981224179,-0.0008412586175836623,0.0018105650669895113,-35.3639854,149.165607575,60415.0,-2.0,-7.75,-25.0,0.25,-3.75,-1040.75,-114.25,3.0,3.75,200.0
05:45:34,RTL,-0.0012809386244043708,0.0014884062693454325,2.74653959274292,-0.153718895977363,-0.0005450652679428458,-2.4015898816287518e-05,-35.363985549999995,149.16560725,60975.5,-1.0,-6.0,-56.5,0.0,-8.5,-997.0,-149.5,2.5,2.0,200.0
05:45:36,RTL,-0.0013265321613289416,0.001084659539628774,2.7469719648361206,0.5467585176229477,0.002460180316120386,0.0012070422526448965,-35.36398575,149.1656066,61592.5,0.0,-1.5,1.5,1.0,30.0,-997.0,551.5,6.0,3.5,200.0
05:45:37,RTL,-0.008705389045644552,0.0015841211716178805,2.7471601366996765,-0.15831049531698227,0.0010359202278777957,-3.1178497010841966e-05,-35.363985875,149.16560625,61566.75,1.25,0.5,2.5,0.25,-10.0,-1004.0,-154.0,5.0,2.0,79564.0
05:45:38,RTL,-0.0008316206512972713,-3.765709152503405e-05,2.7470723390579224,-0.014221087098121643,-0.0010912484722211957,0.000638576690107584,-35.36398595,149.1656062,61665.0,3.0,4.0,-28.0,-1.0,-9.5,-1037.0,-10.5,2.5,2.5,79564.0
05:45:40,RTL,0.007542632520198822,0.000819408567622304,2.746607184410095,-0.3286713659763336,-0.00025334139354526997,0.00027640117332339287,-35.3639855,149.16560775,62642.0,0.0,-4.0,-37.5,-1.0,-9.5,-959.5,-324.0,3.0,2.5,79564.0
05:45:41,RTL,0.009228905604686588,0.0017437720380257815,2.7468706369400024,0.024283774197101593,0.00045968510676175356,0.0012284770491532981,-35.3639854,149.165608,62805.75,-1.25,-7.75,-8.75,0.0,0.25,-967.75,28.75,3.75,3.5,24984.0
05:45:42,RTL,-0.0028719461552100256,0.0016028626705519855,2.747560143470764,-0.6115370392799377,6.647314876317978e-08,-0.0022067466634325683,-35.3639855,149.16560785000001,62800.5,-1.0,-8.5,3.0,0.0,-25.0,-1001.5,-607.0,3.5,0.5,24984.0
05:45:44,RTL,-0.0008042421541176736,0.0024473723024129868,2.7462576627731323,-0.14142272248864174,0.002573953475803137,-1.4643999747931957e-05,-35.363985650000004,149.16560744999998,63299.0,0.0,-7.0,-53.5,0.0,-7.5,-1011.5,-137.0,6.0,2.0,24984.0
05:45:45,RTL,-0.0044366251095198095,0.0036534200771711767,2.746562898159027,0.02036479115486145,-0.0002735392772592604,0.00229989446233958,-35.363985825,149.1656071,63697.25,0.0,-5.0,-45.0,0.5,0.25,-974.25,25.5,3.5,4.5,152933.0
05:45:46,RTL,-0.02036876603960991,0.003196965088136494,2.7470239400863647,-0.5530021488666534,-0.0029811376007273793,0.001396149629727006,-35.36398615,149.1656062,64012.0,2.5,0.0,-2.0,0.5,-13.5,-976.5,-547.5,0.5,3.5,152933.0
05:45:48,RTL,-0.0048254260327667,0.0012522863689810038,2.7470881938934326,0.23926766216754913,0.0016288829501718283,-0.001095668994821608,-35.363986249999996,149.1656055,64031.5,5.0,8.5,-18.0,0.5,3.5,-1043.5,243.5,5.0,1.5,152933.0
05:45:49,RTL,-0.010919916443526745,0.001681855006609112,2.7467042803764343,-0.0930432677268982,0.0003573669237084687,5.975901149213314e-05,-35.3639863,149.16560545,64289.5,5.5,9.0,-44.25,0.0,-3.0,-1027.75,-88.5,3.75,2.5,25867.0
05:45:50,RTL,-0.015043170191347599,0.0018981398898176849,2.746816635131836,-0.19190142420120537,-0.0022836584830656648,0.00021776248468086123,-35.3639864,149.1656053,64942.5,6.5,10.0,-44.0,0.0,-5.0,-967.5,-187.0,1.5,2.5,25867.0
05:45:52,RTL,-0.011669666040688753,-0.00035332639163243584,2.747734546661377,-0.5394357144832611,-0.0026792073622345924,-0.0028497936436906457,-35.36398615,149.16560564999997,65197.0,6.5,10.5,4.0,0.5,-23.0,-996.0,-535.0,1.5,0.0,25867.0
05:45:53,RTL,-0.004353392112534493,-0.0006611691569560207,2.7476683259010315,0.1278553195297718,0.0007188661256805062,0.0005108807818032801,-35.363986049999994,149.16560587499998,65191.5,4.75,8.0,-5.5,-1.0,10.0,-1025.25,131.75,4.5,3.5,21092.0
05:45:54,RTL,0.003129575063212542,0.00025871038451441564,2.7464669942855835,-0.18895428255200386,-0.0004943243693560362,0.0007863088976591825,-35.363985850000006,149.1656067,65523.5,2.5,4.0,-48.5,-1.0,-9.0,-1029.0,-185.0,3.0,3.0,21092.0
05:45:56,RTL,-0.0028888245578855276,0.0020169311319477856,2.746596932411194,-0.18634095788002014,-0.00027111126109957695,0.000709952786564827,-35.3639857,149.1656075,66398.5,0.5,-3.5,-11.0,0.0,3.5,-965.5,-182.0,3.5,3.0,21092.0
05:45:57,RTL,0.0014993695949669927,0.0017173693340737373,2.7471566200256348,0.03719748556613922,-0.0012149190297350287,0.002322107437066734,-35.3639857,149.16560735000002,66419.75,0.0,-4.0,2.5,1.0,-3.25,-988.75,40.75,2.5,5.0,180987.0
05:45:58,RTL,-0.004262461297912523,0.001543354825116694,2.747030735015869,-0.11752530932426453,-2.7391710318624973e-05,0.0003148274845443666,-35.3639858,149.1656067,66403.5,1.0,-0.5,-6.5,1.5,-17.0,-1026.0,-114.0,3.5,3.0,180987.0
05:46:00,RTL,-0.00799391302280128,0.0011124768643639982,2.7469533681869507,-0.1358669325709343,-0.0029182289727032185,0.0010480048367753625,-35.363986,149.165606,67207.0,3.0,5.0,-53.0,0.0,-5.5,-983.5,-132.0,1.0,3.5,180987.0
05:46:01,RTL,-0.007449425524100661,0.0012999016762478277,2.746715724468231,-0.030520526692271233,-0.0012728589354082942,0.0010959857609122992,-35.3639861,149.16560595,67525.75,3.75,5.5,-27.75,0.0,0.25,-960.5,-26.5,2.75,3.5,97003.0
05:46:02,RTL,-0.010201011318713427,0.00020618706548702903,2.74732768535614,-0.6097590774297714,-0.0028358977288007736,0.003756036050617695,-35.363986,149.16560605,67649.0,4.0,6.0,4.0,-0.5,-35.0,-976.5,-606.0,1.0,6.0,97003.0
05:46:04,RTL,-0.003553033762727864,0.0017922616098076105,2.746949553489685,0.16123969852924347,-0.002385589061304927,-0.0007862360216677189,-35.363986,149.1656062,67830.5,2.5,3.5,-39.5,0.5,1.5,-1037.0,164.5,1.5,2.0,97003.0
05:46:05,RTL,-0.010657436912879348,0.0023317429004237056,2.746629774570465,-0.08587643597275019,0.00025634909979999065,0.0012122205807827413,-35.3639861,149.16560595,68207.75,3.5,5.25,-53.0,0.0,-4.0,-1002.5,-82.5,4.0,3.75,121206.0
05:46:06,RTL,-0.01924694888293743,0.0030607912922278047,2.7472065687179565,-0.39186500012874603,-0.004271971294656396,-0.00039508932968601584,-35.3639863,149.16560555,68765.0,6.0,8.5,-21.0,0.0,-14.5,-955.0,-388.0,0.0,2.0,121206.0
05:46:08,RTL,-0.005901614902541041,0.0008622811001259834,2.747230648994446,0.09644080698490143,0.00128297065384686,0.0004102160455659032,-35.3639863,149.16560535000002,68801.5,6.0,10.5,0.5,0.0,-10.5,-1008.5,99.0,5.0,3.5,121206.0
05:46:09,RTL,-0.01429793145507574,0.0013762134476564825,2.746920168399811,-0.06906811520457268,-6.264960393309593e-05,0.00045843550469726324,-35.363986375,149.16560525,68907.0,6.25,10.75,-25.75,0.25,-2.5,-1036.25,-66.25,4.0,3.25,39838.0
05:46:10,RTL,-0.011403523851186037,0.00035759662569034845,2.746647357940674,-0.10348708182573318,-0.001917148707434535,-0.0006920814048498869,-35.363986350000005,149.16560514999998,69467.5,7.0,13.0,-54.5,-1.0,-6.5,-994.5,-101.0,2.5,2.0,39838.0
05:46:12,RTL,0.004008846386568621,-0.0015176052693277597,2.747023820877075,-0.37818441167473793,-0.0019948623375967145,0.003464842098765075,-35.36398575,149.16560665,70009.0,3.5,5.5,2.0,0.0,-30.0,-984.0,-375.5,2.0,6.0,39838.0
05:46:13,RTL,0.006669800408417359,-0.00019161387899657711,2.747492015361786,0.20601634681224823,0.0030005298322066665,-5.146051989868283e-05,-35.3639856,149.165607075,69985.0,0.75,0.5,2.5,-0.75,11.0,-1007.5,208.75,6.75,2.75,84749.0
05:46:14,RTL,0.005160675849765539,0.0013389084488153458,2.7469526529312134,0.30299780517816544,0.0003430582582950592,-6.836955435574055e-06,-35.3639856,149.1656073,70115.0,0.0,-2.5,-32.0,0.0,13.5,-1039.0,305.5,5.0,2.5,84749.0
05:46:16,RTL,0.004281367175281048,0.0015094938571564853,2.746769070625305,-0.21428240090608597,0.0008155875839293003,0.0016221285331994295,-35.363985549999995,149.16560785000001,71097.0,0.0,-6.5,-32.5,0.0,-8.0,-953.0,-211.0,5.0,4.0,84749.0
05:46:17,RTL,0.0042536884429864585,0.001490153925260529,2.7469847798347473,-0.04315071552991867,-0.0006029283395037055,0.0025894540012814105,-35.3639855,149.16560785,71231.75,-1.0,-8.25,-6.0,0.75,-0.5,-972.0,-40.25,3.5,5.5,236541.0
05:46:18,RTL,-0.0009464911418035626,0.001336199406068772,2.7472153902053833,-0.45857949554920197,-0.0006080132443457842,-0.0006325087742879987,-35.3639855,149.16560744999998,71214.5,-1.0,-7.0,3.0,1.0,-30.0,-1001.0,-455.5,3.5,2.0,236541.0
05:46:20,RTL,-0.00036412477493286133,0.0007322978053707629,2.7467265129089355,-0.20205499976873398,6.823008880019188e-05,0.00025774468667805195,-35.3639856,149.16560705,71716.5,0.0,-2.5,-54.0,-0.5,-8.0,-1010.0,-199.0,4.5,3.0,236541.0
05:46:21,RTL,0.004061188185005449,0.001265341998077929,2.7465240955352783,0.08987900987267494,4.4176471419632435e-05,0.0011307301465421915,-35.3639856,149.165607225,72116.5,0.0,-3.25,-46.0,0.25,5.0,-972.75,93.0,3.75,3.75,275470.0
05:46:22,RTL,-0.0007295575924217701,0.00034775752283167094,2.747258424758911,-0.09536664187908173,-0.0034939514007419348,-0.0006297577056102455,-35.3639856,149.1656074,72436.0,0.0,-5.0,-2.5,0.0,7.5,-978.5,-91.5,0.5,2.0,275470.0
05:46:24,RTL,0.005981483613140881,5.261947990220506e-05,2.746706008911133,-0.23895910137798637,0.0008387221023440361,0.002572429715655744,-35.3639854,149.1656077,72456.0,-1.5,-7.0,-17.5,0.0,-19.5,-1039.5,-236.0,4.5,5.5,275470.0
05:46:25,RTL,0.004454456458915956,0.0011613799870247021,2.7470498085021973,0.0298784002661705,0.0018061068840324879,0.001236713898833841,-35.363985424999996,149.1656077,72715.75,-2.0,-8.0,-44.25,0.0,2.25,-1026.75,33.0,5.75,4.0,200.0
05:46:26,RTL,0.003878913024891517,0.002987523446790874,2.7468587160110474,0.1602521687746048,0.002878762548789382,0.0012891817605122924,-35.3639856,149.1656077,73360.5,-1.0,-8.0,-42.0,-0.5,12.5,-967.5,164.5,7.0,4.0,200.0
05:46:28,RTL,0.00018639257177710533,0.000639955178485252,2.747218608856201,0.1659911572933197,-0.00022876751609146595,-0.001459483988583088,-35.3639856,149.1656076,73591.5,0.0,-7.5,4.0,0.0,17.0,-1000.5,170.5,4.0,2.0,200.0
05:46:29,RTL,0.008577452972531319,0.0009570042602717876,2.747369945049286,0.030358118005096912,0.0025373160606250167,2.4559209123253822e-05,-35.363985575,149.16560775,73586.25,-0.25,-7.25,-5.0,0.0,-3.5,-1029.75,33.75,6.75,3.0,171112.0
05:46:30,RTL,0.0017996185852098279,0.0016298365080729127,2.747132420539856,-0.06398274749517441,0.001839448930695653,0.0015768983867019415,-35.3639855,149.16560775,73922.0,-1.5,-8.5,-48.0,0.5,2.0,-1029.0,-60.0,6.0,4.5,171112.0
05:46:32,RTL,-0.002104994680848904,0.003134720725938678,2.747390627861023,0.5746473968029022,-0.0021051790099591017,0.0023921735119074583,-35.363985850000006,149.16560665,74765.0,0.5,-3.0,-8.5,1.0,25.5,-974.5,578.0,3.0,5.5,171112.0
05:46:33,RTL,-0.009354935784358531,0.0009711655002320185,2.7473788261413574,-0.2126534953713417,-0.002795721869915724,-0.0001015264424495399,-35.363986,149.1656064,74778.25,2.25,0.25,2.5,0.5,-8.5,-985.5,-208.5,2.0,3.0,200.0
05:46:34,RTL,-0.006122418446466327,0.00032402384385932237,2.747058391571045,-0.427034467458725,-0.0012757895747199655,-0.0007822513580322266,-35.3639859,149.16560655,74768.0,2.5,0.5,-8.5,-0.5,-16.5,-1030.0,-423.0,3.0,2.5,200.0
05:46:36,RTL,0.0038119206874398515,0.0013295862008817494,2.746870279312134,0.07542143762111664,0.0012809208128601313,0.0018464219756424427,-35.3639857,149.16560725,75600.0,0.0,-2.5,-52.0,-0.5,8.5,-979.5,79.5,5.5,4.5,200.0
05:46:37,RTL,0.004920693347230554,0.0018952449900098145,2.7471426725387573,0.10206658765673637,-4.438258474692702e-05,0.0008466208237223327,-35.3639857,149.1656074,75902.75,0.0,-4.25,-25.5,0.25,2.5,-958.75,105.75,4.5,3.75,3002.0
05:46:38,RTL,-0.004599896841682494,0.0008730319968890399,2.7470208406448364,-0.4781709313392639,-0.002131324145011604,-0.0018465672037564218,-35.3639856,149.16560744999998,76002.0,-0.5,-6.0,4.0,1.5,-5.0,-990.5,-473.5,2.0,1.0,3002.0
05:46:40,RTL,-0.003904442133716657,0.0011429594596847892,2.7469379901885986,0.0340067595243454,-0.001064681215211749,0.0013947209808975458,-35.3639857,149.1656067,76225.0,0.0,-1.5,-42.5,-0.5,-2.0,-1036.0,38.0,3.5,4.5,3002.0
05:46:41,RTL,-0.0048062319692689925,0.0015202352806227282,2.7469905614852905,-0.04909542389214039,0.0013636929797939956,0.0004384145140647888,-35.3639858,149.165606525,76620.5,0.5,0.25,-55.5,0.0,-2.0,-1002.0,-45.0,5.75,3.25,167679.0
05:46:42,RTL,-0.007838397519662976,0.0016789637156762183,2.746993899345398,-0.1653674691915512,-0.0035146718146279454,0.0011495106155052781,-35.3639859,149.1656064,77191.5,2.0,1.5,-22.0,0.0,-1.0,-954.0,-161.0,1.0,4.0,167679.0
05:46:44,RTL,-0.005921567091718316,0.0011041320394724607,2.747267961502075,-0.3268816638737917,-0.00018316973000764847,0.0016362689202651381,-35.3639859,149.16560625,77228.5,2.0,3.0,-1.5,1.0,-26.0,-1016.0,-323.5,4.0,5.0,167679.0
05:46:45,RTL,-0.012151510920375586,0.0013287895708344877,2.7468267679214478,-0.03704054281115532,-0.00011690473183989525,-5.452436744235456e-05,-35.363986024999996,149.165605875,77341.75,2.5,4.25,-27.5,0.0,-1.0,-1039.5,-33.25,4.25,3.0,44310.0
05:46:46,RTL,-0.013356669340282679,0.0021139350719749928,2.7468552589416504,-0.16698650550097227,0.00010414049029350281,-0.0013687036698684096,-35.3639862,149.1656054,77926.0,5.0,9.0,-58.5,0.0,-6.0,-998.5,-163.0,4.5,2.0,44310.0
05:46:48,RTL,-0.010012063197791576,-0.0011090044572483748,2.747647523880005,-0.33713734173215926,-0.003356927540153265,-0.0024273551534861326,-35.363986049999994,149.16560585000002,78569.0,6.0,8.5,1.0,-1.5,-0.5,-976.0,-333.0,1.5,0.5,44310.0
05:46:49,RTL,0.006186776619870216,-0.0026732546975836158,2.747662842273712,0.10866653919219971,-0.0020534934010356665,-0.0007725825998932123,-35.363985750000005,149.1656064,78544.75,4.25,5.5,2.25,-1.25,0.75,-1004.75,112.0,2.75,2.75,190818.0
05:46:50,RTL,0.009841535007581115,-0.001681259658653289,2.7469542026519775,-0.27378494665026665,0.0004257527180016041,-0.0005369079299271107,-35.3639854,149.1656075,78641.0,0.0,-1.0,-28.5,-0.5,-13.0,-1038.5,-270.0,5.0,2.5,190818.0
05:46:52,RTL,0.010939002968370914,0.0019978592172265053,2.746742606163025,-0.13208718597888947,0.0009205853566527367,0.001184195396490395,-35.3639852,149.1656087,79654.5,-3.5,-13.0,-42.5,0.0,2.0,-960.5,-128.0,5.5,4.5,190818.0
05:46:53,RTL,0.010850680700968951,0.0018602587224449962,2.7471144795417786,-0.00856395810842514,0.00029851269209757447,0.00028247234877198935,-35.3639852,149.165608775,79855.5,-3.75,-15.0,-12.25,0.0,2.0,-966.75,-4.75,4.75,3.5,300000.0
05:46:54,RTL,0.002981857440317981,0.001588833169080317,2.7472991943359375,-0.5824587345123291,-0.000937393051572144,-0.00013287051115185022,-35.3639852,149.1656086,79872.5,-4.0,-15.5,4.0,0.0,-20.0,-1002.5,-578.5,4.0,3.0,300000.0
05:46:56,RTL,0.00300930708181113,0.0013060502242296934,2.747287392616272,-0.21932951360940933,-0.001232597278431058,0.0004529808647930622,-35.3639853,149.1656082,80243.0,-3.5,-14.0,-51.0,0.0,-9.0,-1023.5,-215.0,3.0,3.5,300000.0
05:46:57,RTL,0.006520913739223033,0.001933716790517792,2.746889352798462,0.08739281259477139,0.0010999358491972089,0.0004829525132663548,-35.3639854,149.165608125,80659.25,-2.75,-12.25,-52.25,0.0,2.25,-985.75,91.75,5.5,3.75,200.0
05:46:58,RTL,0.0027836052468046546,0.0015005468158051372,2.7474976778030396,0.06914333999156952,-0.00036608625669032335,-0.000666334293782711,-35.3639854,149.16560794999998,81101.0,-2.0,-11.0,-10.0,0.0,12.0,-965.0,74.0,4.0,3.0,200.0
05:47:00,RTL,-0.004996976756956428,0.0025795764522626996,2.7466992139816284,-0.29347351589240134,-9.526940993964672e-05,0.0015186875825747848,-35.363985650000004,149.1656071,81106.0,-0.5,-6.5,-8.5,0.5,-23.5,-1036.0,-289.5,4.5,4.5,200.0
05:47:01,RTL,-0.008934195269830525,0.002625034307129681,2.7469831109046936,0.004530441015958786,0.0013391069951467216,0.0019425813225097954,-35.3639859,149.16560644999998,81301.75,0.25,-2.0,-37.75,0.75,-1.75,-1035.75,9.25,6.0,5.25,200.0
05:47:02,RTL,-0.012055885279551148,0.00220265646930784,2.746552348136902,-0.0035034865140914917,0.0009903592290356755,0.0005682557821273804,-35.3639862,149.1656057,81951.0,4.0,4.5,-51.5,0.0,3.5,-979.5,1.0,6.0,4.5,200.0
05:47:04,RTL,-0.013623424340039492,-0.000519574066856876,2.74704372882843,-0.518216535449028,-0.003577000927180052,0.00017432868480682373,-35.363986049999994,149.1656058,82344.5,4.5,7.0,3.0,-0.5,-15.0,-987.5,-513.0,1.5,3.5,200.0
05:47:05,RTL,-0.0022187336144270375,-0.00012969479757884983,2.7474016547203064,0.15102637186646461,0.0014065041905269027,0.0004034118610434234,-35.363986,149.1656058,82322.5,3.5,6.25,0.5,0.0,1.75,-1016.0,154.75,6.25,3.75,300000.0
05:47:06,RTL,-0.007465793751180172,-8.600367800681852e-05,2.7471444606781006,-0.03396770358085632,-0.0028901544865220785,0.0007213077042251825,-35.3639861,149.1656058,82536.0,3.0,7.0,-39.5,0.0,-7.0,-1034.0,-30.5,2.5,4.5,300000.0
05:47:08,RTL,-0.013159099966287613,0.0010738957789726555,2.746930956840515,-0.27801807364448905,0.0011820823419839144,-0.0008440708043053746,-35.363986,149.1656059,83432.0,3.0,5.5,-16.5,0.5,-3.5,-953.0,-274.0,5.5,2.5,300000.0
05:47:09,RTL,-0.005292499146889895,0.00025922296845237724,2.746932864189148,-0.05598202347755432,-0.0012360523105598986,3.190053394064307e-05,-35.363986,149.1656059,83482.0,3.0,6.5,0.75,-0.25,-9.0,-986.0,-52.75,3.5,3.5,208158.0
05:47:10,RTL,-0.002783589734463021,-2.7749087166739628e-05,2.7478100061416626,0.23362093418836594,0.002726104576140642,0.0004386280197650194,-35.363986,149.16560575,83454.5,3.0,7.5,-3.0,0.0,-2.5,-1026.0,236.5,7.5,4.0,208158.0
05:47:12,RTL,-0.009218474151566625,0.0013810070813633502,2.746988296508789,-0.10950589179992676,-0.0009502826724201441,-0.000520551111549139,-35.3639861,149.1656057,84181.0,3.0,8.0,-52.5,0.0,-7.0,-988.5,-106.5,4.0,3.0,208158.0
05:47:13,RTL,-0.007985176343936473,0.0011707407684298232,2.747203528881073,-0.04016055166721344,-0.0010118503705598414,0.0008953222422860563,-35.3639861,149.16560575,84503.0,4.25,7.75,-29.0,-0.25,-1.75,-958.0,-36.5,3.75,4.25,79161.0
05:47:14,RTL,-0.003372063423739746,-0.0018647362594492733,2.7480950355529785,-0.25741515308618546,-0.00029259384609758854,0.00011138070840388536,-35.36398595,149.16560594999999,84638.0,4.0,8.0,3.0,0.0,-24.0,-980.0,-255.0,4.5,3.5,79161.0
05:47:16,RTL,0.0058069725055247545,-0.0011947707389481366,2.746978998184204,0.25461509078741074,0.002524691866710782,0.002584281377494335,-35.3639856,149.16560685000002,84798.0,0.0,1.0,-37.0,-0.5,9.0,-1034.0,257.0,7.5,6.5,79161.0
05:47:17,RTL,0.0018134444253519177,-0.00045833679905626923,2.7471015453338623,-0.01587018556892872,0.0005570534849539399,-0.00011971645290032029,-35.363985549999995,149.16560702499999,85167.5,-0.75,0.0,-54.0,0.0,-0.5,-1009.5,-12.5,5.25,3.5,200.0
05:47:18,RTL,-0.002887825947254896,0.00042960469727404416,2.746927499771118,-0.21030762791633606,-0.0022560945944860578,0.0017115294467657804,-35.3639855,149.16560694999998,85767.5,0.0,-1.0,-26.5,0.0,-12.5,-955.0,-207.5,2.5,5.5,200.0
05:47:20,RTL,0.009598860517144203,-0.0016694074729457498,2.7476731538772583,0.5415573269128799,6.213225424289703e-05,-0.0005092083010822535,-35.3639855,149.16560694999998,85837.5,-1.0,-1.0,1.5,0.0,20.5,-1015.5,545.0,5.0,3.0,200.0
05:47:21,RTL,0.001523292186902836,-0.001213006500620395,2.747180759906769,-0.07205444574356079,0.0009025370236486197,-0.001313102024141699,-35.363985449999994,149.16560705,85911.5,-1.75,-1.75,-20.75,-0.25,-5.5,-1037.75,-68.75,5.5,2.5,199489.0
05:47:22,RTL,0.0009894139948301017,0.0007981872768141329,2.7467896938323975,0.09671939164400101,-0.0010258108377456665,-0.0017677806317806244,-35.3639855,149.16560694999998,86436.0,-2.0,-1.5,-55.0,0.5,-1.0,-1003.0,100.0,4.0,1.5,199489.0
05:47:24,RTL,-0.007945388555526733,-0.0011053975322283804,2.7476006746292114,-0.3259790539741516,-0.0051917091477662325,-0.0002034190110862255,-35.3639857,149.1656061,87082.0,1.0,3.5,0.5,0.5,-27.5,-980.5,-323.0,0.0,3.5,199489.0
05:47:25,RTL,-0.002232835497125052,-0.001608200662303716,2.7473620176315308,0.14688744023442268,-0.0018121174653060734,5.173159297555685e-05,-35.3639857,149.16560615,87062.0,0.75,3.0,3.5,0.0,8.0,-1002.0,150.25,3.0,4.0,21360.0
05:47:26,RTL,0.003606102429330349,-0.0018811904010362923,2.7471213340759277,0.2578109260648489,0.0005162775050848722,-3.6901445128023624e-05,-35.3639856,149.16560655,87124.5,0.0,2.0,-25.0,-1.0,19.5,-1037.5,261.5,5.5,3.5,21360.0
05:47:28,RTL,0.009667650330811739,-0.0009535399731248617,2.7474541664123535,-0.02401745319366455,-0.0004286945331841707,-0.001011991873383522,-35.3639853,149.16560755,88076.5,-2.0,-2.5,-39.0,-0.5,-6.0,-960.5,-21.0,4.0,2.5,21360.0
05:47:29,RTL,0.01182755664922297,-0.0009978996240533888,2.7473300099372864,0.01619209349155426,-0.0001901876530610025,0.001250895846169442,-35.363985175,149.165607975,88255.25,-3.0,-6.5,-10.5,-0.5,1.5,-969.5,19.75,4.5,4.75,44059.0
05:47:30,RTL,0.011894416064023972,-0.00011128425649076235,2.747432589530945,0.5039594024419785,0.0022493344731628895,0.002552788471803069,-35.363985150000005,149.1656079,88261.0,-5.0,-9.5,3.5,0.5,12.0,-1006.0,506.5,6.5,6.0,44059.0
05:47:32,RTL,0.0004130362067371607,6.537555918839644e-05,2.7471017837524414,0.23875480517745018,0.0018704342655837536,0.0008436372736468911,-35.3639854,149.16560715,88669.0,-3.5,-5.5,-52.5,0.0,10.0,-1022.5,242.5,6.5,4.5,44059.0
05:47:33,RTL,-0.00098890793742612,-6.812305127823493e-05,2.7472214698791504,-0.011590207926928997,0.0008083475986495614,3.527099033817649e-05,-35.363985475,149.165607,89084.25,-1.75,-3.0,-50.75,-0.25,-1.75,-979.75,-7.75,5.5,3.5,200.0
05:47:34,RTL,0.013640361372381449,-0.0011664548073895276,2.7473514080047607,0.4063359946012497,-0.0001357912551611662,0.0008705441141501069,-35.36398545,149.16560725,89499.0,-1.0,-2.5,-7.0,-0.5,7.0,-967.5,409.0,4.5,4.5,200.0
05:47:36,RTL,-0.0017777967732399702,-0.0010787890350911766,2.7477856874465942,-0.13138623535633087,0.00079137715511024,-0.0017494880594313145,-35.3639852,149.1656075,89501.0,-4.0,-6.0,-13.0,0.0,1.5,-1042.0,-126.5,5.5,1.5,200.0
05:47:37,RTL,0.0030824177665635943,-0.0011763061629608274,2.7471065521240234,0.03982887417078018,-8.819036884233356e-05,-0.0011422798852436244,-35.36398525,149.165607375,89717.0,-4.0,-5.25,-40.75,0.0,0.75,-1037.0,43.75,4.25,2.5,260006.0
05:47:38,RTL,0.001339997812465299,-0.0007161684334278107,2.7471489906311035,0.0705985501408577,-0.0016565476544201374,-0.0013590672751888633,-35.3639853,149.1656071,90377.5,-3.0,-3.5,-51.0,1.0,-2.5,-976.5,74.5,2.5,2.0,260006.0
05:47:40,RTL,0.0028141295188106596,-0.001397953659761697,2.747580409049988,0.5502109974622726,0.002034790813922882,-0.00014416093472391367,-35.3639855,149.1656065,90750.0,-1.5,-0.5,3.0,0.0,20.0,-988.0,553.5,6.5,3.5,260006.0
05:47:41,RTL,-0.003744532456039451,-0.0023104071151465178,2.7478418946266174,-0.15658327750861645,-0.002159492578357458,-0.0016660127439536154,-35.3639855,149.165606575,90728.5,-1.0,0.0,-1.25,-0.75,-0.25,-1017.0,-152.0,2.5,2.25,161442.0
05:47:42,RTL,0.011381869902834296,-0.0036231373669579625,2.7472959756851196,0.0670635998249054,1.2814300134778023e-05,-0.0009393598884344101,-35.3639851,149.1656076,90984.5,-2.5,-2.5,-44.0,-2.0,12.5,-1032.0,72.0,4.5,2.5,161442.0
05:47:44,RTL,0.02116223331540823,0.00011755064224416856,2.747012734413147,0.3008133051916957,0.001863925252109766,0.0020156626123934984,-35.3639848,149.16560885,91924.5,-8.0,-15.0,-19.0,0.5,2.5,-957.5,304.5,6.5,5.5,161442.0
05:47:45,RTL,0.004092016170034185,4.475240712054074e-05,2.7473252415657043,-0.2102220393717289,-0.0012133093550801277,-0.0005845017149113119,-35.36398489999999,149.16560859999998,91979.75,-8.0,-15.75,0.0,1.0,-5.5,-986.5,-204.75,3.25,3.0,200.0
05:47:46,RTL,-0.005832028575241566,-0.0006780662661185488,2.748040199279785,-0.5259315669536591,-0.0015761122340336442,0.000717072980478406,-35.36398505,149.16560794999998,91953.5,-6.0,-11.5,-2.5,0.0,-21.5,-1028.0,-520.5,3.0,4.0,200.0
05:47:48,RTL,-0.005443821079097688,0.0006157792668091133,2.7468844652175903,-0.07475870847702026,0.0011829128488898277,-0.0005957345711067319,-35.3639855,149.1656069,92669.5,-3.0,-4.0,-56.0,0.5,0.5,-995.5,-69.5,5.5,3.0,200.0
05:47:49,RTL,0.0011316720629110932,5.7386891057831235e-05,2.747275650501251,0.13645588792860508,-0.0019470631377771497,-9.245297405868769e-06,-35.3639855,149.16560685,93028.25,-1.25,-2.0,-35.25,0.25,5.5,-963.75,141.0,2.75,3.5,96866.0
05:47:50,RTL,-0.005665545468218625,-0.0013995316694490612,2.747582197189331,-0.23492475599050522,-2.1277228370308876e-05,-0.0022593389730900526,-35.3639855,149.1656068,93215.0,-1.0,-2.0,1.0,-1.0,2.5,-990.0,-229.0,4.0,1.5,96866.0
05:47:52,RTL,-0.0028442234033718705,-0.0013622441911138594,2.7475720643997192,-0.1421230025589466,-0.0024423517752438784,-0.001022076583467424,-35.3639855,149.1656066,93320.0,-2.0,0.0,-31.5,0.0,-12.0,-1043.0,-137.5,2.0,2.5,96866.0
05:47:53,RTL,-0.0023689461522735655,-0.001252181944437325,2.747120976448059,-0.020673340186476707,0.0004751579836010933,0.00036336370976641774,-35.3639855,149.1656066,93664.5,-1.5,0.25,-52.75,0.0,1.0,-1014.75,-15.25,4.75,4.0,300000.0
05:47:54,RTL,-0.0023254448315128684,-0.0006696407217532396,2.747724771499634,0.10496437549591064,0.00047939596697688103,0.0005140274297446012,-35.3639855,149.1656066,94300.5,-1.0,0.0,-32.5,0.0,11.5,-959.0,110.5,4.5,4.5,300000.0
05:47:56,RTL,-0.012658549705520272,-0.00043962667405139655,2.747681975364685,-0.39644136279821396,-0.0014122319407761097,0.0005835645133629441,-35.3639857,149.1656059,94419.0,0.0,4.0,2.5,0.5,-29.5,-1003.5,-392.0,3.0,4.0,300000.0
05:47:57,RTL,-0.007759409327263711,-0.0015001591382315382,2.7477946877479553,0.09619881585240364,-0.0024546573404222727,0.0007119733490981162,-35.3639857,149.1656058,94462.25,0.5,5.75,-16.0,-0.5,7.75,-1036.25,101.0,2.0,4.25,200.0
