time_stamp,RTL_ALT,MODE,xacc,yacc,zacc,xgyro,ygyro,zgyro,roll,pitch,yaw,rollspeed,pitchspeed,yawspeed,lat,lon,relative_alt,vx,vy,vz
06:20:38,1500.0,STABILIZE,0.0,1.0,-1000.0,1.0,0.0,0.0,-0.0003901831805706024,0.0014605376636609435,0.027128254994750023,0.00017707276856526732,0.00028848412330262363,0.002170533174648881,-35.3632622,149.1652375,0.0,-2.0,1.0,0.0
06:20:44,1500.0,STABILIZE,0.0,0.5,-1001.0,0.5,0.0,0.0,-0.0007095781620591879,0.0009241183870472014,0.024395974352955818,0.00012397917453199625,0.00030910392524674535,0.001825086772441864,-35.3632621,149.1652375,0.0,-1.0,3.0,3.0
06:20:50,131157.0,AUTO,0.0,2.0,-1000.0,0.0,0.0,1.0,-0.001319458824582398,0.0009762533009052277,0.022881435230374336,0.00032967282459139824,0.0002651645918376744,0.001555166905745864,-35.3632622,149.1652375,0.0,-1.0,0.0,0.0
06:20:52,260814.0,AUTO,0.0,1.5,-1000.0,0.5,0.0,0.0,-0.0009117439622059464,0.0011394230532459915,0.022401949390769005,0.00027686412795446813,0.00021476548863574862,0.0016397918807342649,-35.3632621,149.1652375,15.5,0.0,0.0,-2.0
06:20:53,221224.0,AUTO,0.0,1.0,-1000.0,0.5,0.25,0.25,-0.0006306976865744218,0.0014778202748857439,0.022067789919674397,0.00031866395147517323,0.00024694541934877634,0.0015103880723472685,-35.3632621,149.1652375,19.25,0.0,0.0,-1.0
06:20:54,221224.0,AUTO,0.0,1.5,-1000.0,1.0,0.5,0.0,-0.00043265544809401035,0.0016942828078754246,0.021824946627020836,0.00033308754791505635,0.0002766360412351787,0.001382732531055808,-35.3632621,149.1652375,21.0,0.0,0.0,-1.0
06:20:56,181592.0,AUTO,0.0,-0.5,-1011.0,46.0,-6.5,1.5,0.0294205192476511,-0.002094130322802812,0.02140290103852749,0.045863620936870575,-0.007417923770844936,0.002668282948434353,-35.363262,149.1652376,1615.5,1.0,9.0,-147.0
06:20:58,141960.0,AUTO,3.5,-8.0,-1001.0,-70.5,-11.5,-34.5,-0.04325771518051624,0.005748341092839837,-0.06998088210821152,-0.07153053767979145,-0.012933429796248674,-0.03431486152112484,-35.36326085,149.1652455,4664.0,1.5,30.5,-149.0
06:20:59,100377.0,AUTO,-4.75,8.0,-1001.0,59.25,5.0,-10.5,-0.045660930685698986,0.0015500499939662404,-0.10080285556614399,0.05937114357948303,0.004392867733258754,-0.010569934151135385,-35.363260925000006,149.16524384999997,6573.75,-5.0,-46.75,-149.25
06:21:00,100377.0,AUTO,-5.0,13.0,-1003.5,68.0,10.5,-0.5,0.002264720620587468,0.007687467848882079,-0.10511943697929382,0.06747299060225487,0.01044607674703002,-0.00043864408507943153,-35.363261449999996,149.16523925,7730.0,-12.5,-57.5,-151.0
06:21:02,52520.0,AUTO,1.0,-5.0,-1001.5,-87.5,64.5,-34.5,0.002590522635728121,-0.04201788641512394,-0.04812343418598175,-0.08861947432160378,0.06457269378006458,-0.03448637994006276,-35.3632638,149.16523560000002,10845.0,13.5,25.5,-148.0
06:21:04,4663.0,AUTO,-3.5,0.5,-999.5,26.5,1.5,-15.5,0.004752527456730604,0.020295106805860996,-0.15860582888126373,0.02632469031959772,0.000779047841206193,-0.015795232262462378,-35.363260350000004,149.16523585,13948.5,3.5,-11.0,-153.0
06:21:05,99887.0,AUTO,1.0,0.5,-997.75,-29.0,-9.25,-1.25,0.008367495727725327,0.010071946191601455,-0.16231204941868782,-0.029855012806365266,-0.010652775410562754,-0.001115063758334145,-35.3632607,149.16523504999998,15893.5,-10.0,3.25,-151.75
06:21:06,99887.0,AUTO,1.5,0.5,-988.5,-91.0,29.0,61.0,-0.047173937782645226,0.005767282331362367,-0.1599961444735527,-0.09241066314280033,0.028131783939898014,0.06171876424923539,-35.36326135,149.16523515,17049.0,-13.0,-5.5,-148.5
06:21:08,116573.0,AUTO,1.0,-2.0,-969.5,-28.5,29.0,-14.0,0.0592698585242033,-0.030891338363289833,0.03063011635094881,-0.029831198044121265,0.028686785139143467,-0.013707178412005305,-35.3632647,149.1652307,19366.5,1.0,18.5,-73.5
06:21:10,133259.0,AUTO,1.0,-7.5,-975.5,-4.0,4.5,-1.5,-0.011190175544470549,0.014487497508525848,0.025999470613896847,-0.005021483637392521,0.003837479744106531,-0.0014216852141544223,-35.36326215,149.1652381,20357.5,11.0,29.5,-26.0
06:21:11,233805.0,AUTO,-1.0,-9.5,-974.25,-75.25,-20.75,-1.75,-0.023510426515713334,0.0053878434700891376,0.022797031793743372,-0.07587388902902603,-0.02185542043298483,-0.0016681683773640543,-35.3632614,149.16523997500002,20416.0,-1.0,-2.25,13.25
06:21:12,233805.0,AUTO,-3.0,0.5,-1014.5,-74.5,-47.0,-13.0,0.023000791668891907,-0.041666265577077866,0.019944844767451286,-0.07626456022262573,-0.048207838088274,-0.013234918937087059,-35.36326125,149.16523945,20279.0,10.0,-3.5,12.0
06:21:14,249179.5,AUTO,-37.0,-28.0,-1003.5,-323.5,-45.5,-95.0,0.006216751178726554,-0.14102452993392944,0.7245960533618927,-0.3248492255806923,-0.04671427048742771,-0.09492728859186172,-35.3632487,149.16524865,20221.0,141.0,95.0,-3.0
06:21:16,264554.0,AUTO,-79.0,-36.0,-997.0,69.0,-46.0,-1.0,0.049572138115763664,-0.19023893773555756,0.6490223705768585,0.06838838756084442,-0.046959349885582924,-0.0009228947310475633,-35.363206,149.1652848,20278.0,330.0,231.5,-6.0
06:21:17,241954.0,AUTO,-109.0,-59.0,-1006.75,20.25,20.0,0.75,0.06589778233319521,-0.20886551961302757,0.6436562836170197,0.019841058179736137,0.01894418732263148,0.0010121725354110822,-35.363162275,149.16532245,20348.0,437.5,314.25,-8.25
06:21:18,241954.0,AUTO,-115.5,-64.5,-1000.0,-2.5,11.5,1.0,0.06949739530682564,-0.18035269528627396,0.6434523463249207,-0.00328244233969599,0.01049644872546196,0.000986404251307249,-35.3631307,149.16535005,20429.0,489.0,356.0,-16.5
06:21:20,242400.5,AUTO,-134.5,-82.0,-989.5,43.5,36.5,-9.0,0.081939447671175,-0.14643536508083344,0.6418933868408203,0.04322309512645006,0.036180807277560234,-0.00946418079547584,-35.36303585,149.16543385,20755.0,553.0,402.0,-16.0
06:21:22,242847.0,AUTO,-132.5,-80.5,-987.0,0.5,-1.5,-5.5,0.07563754171133041,-0.14041676372289658,0.6391941606998444,-0.0006010234355926514,-0.002380453050136566,-0.005647618439979851,-35.362936250000004,149.16552255,21005.5,556.0,403.0,-6.5
06:21:23,162291.0,AUTO,-132.75,-77.75,-989.0,0.5,9.5,-13.5,0.08627178147435188,-0.12924160063266754,0.6369195133447647,-0.0003293207846581936,0.009062727098353207,-0.013627702603116632,-35.362867875,149.16558255,21126.75,560.0,403.0,-10.0
06:21:24,162291.0,AUTO,-130.5,-81.5,-982.5,-8.5,3.0,-1.5,0.08712474256753922,-0.13243474811315536,0.6362571716308594,-0.009355353191494942,0.0018165966030210257,-0.0010455851443111897,-35.36282995,149.1656157,21209.5,557.0,403.0,-9.0
06:21:26,226259.0,AUTO,-132.5,-75.0,-989.0,-28.5,57.0,-6.0,0.0879947878420353,-0.06993597373366356,0.6354155242443085,-0.030127329053357244,0.0562701728194952,-0.0062308229971677065,-35.3627352,149.1656989,21464.5,526.0,382.5,-17.0
06:21:28,290227.0,AUTO,-101.0,-66.5,-995.0,32.5,41.5,-7.0,0.07170555740594864,0.02591530978679657,0.6361761391162872,0.03131714463233948,0.04112971667200327,-0.006771900225430727,-35.362651,149.16577354999998,21711.0,380.5,282.5,-5.0
06:21:29,244785.0,AUTO,-66.75,-48.25,-1000.25,102.75,2.5,-0.75,0.0452884784899652,0.055435203947126865,0.6344501376152039,0.10192479752004147,0.001190682640299201,-0.00034040980972349644,-35.362614925,149.1658069,21712.25,260.5,193.0,2.25
06:21:30,244785.0,AUTO,-47.0,-13.5,-1014.0,-107.0,26.5,-7.0,0.02346645761281252,0.06308973766863346,0.6339771449565887,-0.10931424796581268,0.02569655980914831,-0.007139576133340597,-35.3625993,149.1658215,21698.0,195.5,144.0,-0.5
06:21:32,260290.5,AUTO,-11.0,-25.0,-1002.5,-82.0,-17.5,8.5,0.005701511981897056,0.047705236822366714,0.6325914263725281,-0.08251456916332245,-0.01892073266208172,0.009016916621476412,-35.3625791,149.16584015,21714.5,50.5,30.0,-0.5
06:21:34,275796.0,AUTO,-0.5,-19.0,-998.5,-481.5,-26.5,2.5,-0.0020871275919489563,-0.001169262221083045,0.630451112985611,-0.4832604080438614,-0.028116732835769653,0.0030114244436845183,-35.3625763,149.16584125,21731.5,0.5,-7.5,0.0
06:21:35,149147.0,RTL,-1.5,-3.75,-1002.5,-78.0,7.25,5.0,0.008415725198574364,-0.018740898463875055,0.6309878677129745,-0.07916201651096344,0.005897904047742486,0.005471494383527897,-35.36257594999999,149.16584037500002,21738.0,7.5,5.5,0.0
06:21:36,149147.0,RTL,-1.0,-23.0,-1013.0,-262.0,19.0,-3.0,0.0030851508490741253,0.00873969728127122,0.631174236536026,-0.26246462389826775,0.01841000374406576,-0.0034884519409388304,-35.3625753,149.165841,21749.5,10.5,10.5,-3.5
06:21:38,184124.5,RTL,0.0,-1.5,-1047.5,-46.5,-5.5,-2.0,-0.007507366128265858,0.005012332461774349,0.6303602457046509,-0.04822767339646816,-0.007152701960876584,-0.0021978288423269987,-35.362575,149.16584265,22564.0,1.0,-6.5,-86.0
06:21:40,219102.0,RTL,0.0,0.0,-1002.5,48.0,-5.5,3.0,0.04512322321534157,-0.005973492981866002,0.6287851929664612,0.047419192269444466,-0.007134301587939262,0.0031222308753058314,-35.362575050000004,149.1658417,25166.5,-8.0,10.0,-149.0
06:21:41,238426.0,RTL,4.25,-9.5,-1002.5,-119.5,9.25,-59.5,-0.012534221968962811,0.011633882764726877,0.581437274813652,-0.12127418955788016,0.008014418999664485,-0.06012284569442272,-35.362576600000004,149.165845725,27064.25,-24.25,41.0,-145.75
06:21:42,238426.0,RTL,0.5,-1.5,-1002.5,4.5,1.5,-33.5,-0.060158563777804375,0.0034245408605784178,0.5470006763935089,0.003525900305248797,0.00022157945204526186,-0.03431851044297218,-35.36257725,149.1658477,28209.5,-4.0,5.5,-149.0
06:21:44,126094.0,RTL,-2.5,8.0,-1000.0,20.5,-26.5,37.5,0.025102965533733368,-0.0038454682508017868,0.5359776020050049,0.01947478810325265,-0.02814310509711504,0.037730660289525986,-35.362574699999996,149.16584115,31315.5,4.5,-28.5,-151.5
06:21:46,13762.0,RTL,-0.5,0.0,-1000.5,-2.0,6.0,-18.0,0.005806795787066221,0.0036023667780682445,0.5267994999885559,-0.0035603736178018153,0.005135499406605959,-0.019041231833398342,-35.36257365,149.165839,34432.5,-1.0,2.0,-151.0
06:21:47,171153.0,RTL,0.0,-0.5,-1000.0,0.5,2.0,-18.25,0.0034344505984336138,0.0057548872428014874,0.5011013448238373,-0.0006405536114471033,0.001172679549199529,-0.01933751394972205,-35.3625734,149.16583925,36380.75,-3.5,2.0,-152.0
06:21:48,171153.0,RTL,0.0,-0.5,-1000.0,1.0,2.0,-17.5,0.002442053286358714,0.005818927427753806,0.4858057349920273,-0.0005861781537532806,0.0011710994294844568,-0.018559289164841175,-35.3625734,149.16583955,37551.0,-5.0,2.0,-152.0
06:21:50,142772.0,RTL,1.0,0.0,-1000.0,1.0,0.0,-18.0,0.0005616645212285221,0.0041143090929836035,0.4408804327249527,-2.076447708532214e-05,-0.0009886569750960916,-0.019566258415579796,-35.362573850000004,149.1658402,40677.5,-6.0,1.0,-152.0
06:21:52,114391.0,RTL,0.0,0.0,-1000.0,2.0,2.0,-20.0,-3.567428939277306e-05,0.002129999687895179,0.3950228989124298,0.0009198177722282708,0.0006856868276372552,-0.02138184104114771,-35.36257445,149.1658406,43788.0,-4.0,0.0,-153.0
06:21:53,89931.0,RTL,0.0,0.0,-999.75,3.0,2.25,-19.5,0.0009033546521095559,0.002189155959058553,0.3669304922223091,0.0012878660927526653,0.0013589650625362992,-0.021132458932697773,-35.362574675000005,149.165840675,45745.0,-3.0,0.0,-153.0
06:21:54,89931.0,RTL,0.0,0.0,-999.5,1.0,2.5,-19.0,0.0012957514845766127,0.002842955640517175,0.35009318590164185,-0.0006456218543462455,0.0016047980752773583,-0.02043776400387287,-35.3625747,149.1658407,46915.0,-3.0,0.0,-153.0
06:21:56,173186.0,RTL,0.5,0.0,-1000.0,-1.5,-0.5,29.5,0.0005354704153432976,0.002912739641033113,0.37695008516311646,-0.0032753312261775136,-0.0018919681897386909,0.02909439615905285,-35.36257515,149.1658411,50023.0,-6.0,2.0,-152.0
06:21:58,256441.0,RTL,0.0,0.0,-1000.0,2.0,2.5,22.0,-0.0008240934112109244,0.0007372917607426643,0.4263017475605011,0.0012403555447235703,0.0011552787036634982,0.021142251789569855,-35.3625756,149.1658414,53123.5,-1.5,0.0,-152.0
06:21:59,126823.0,RTL,0.0,0.0,-1000.0,2.0,0.75,18.25,0.00021538345390581526,0.0011265101638855413,0.44896434992551804,0.0008203453035093844,-6.27404369879514e-06,0.01767245214432478,-35.3625756,149.1658414,55064.0,0.0,0.0,-152.0
06:22:00,126823.0,RTL,0.0,0.0,-1000.0,2.5,2.0,16.5,0.0010672509961295873,0.001160666928626597,0.4606754332780838,0.001222787017468363,0.0008728933753445745,0.015641978476196527,-35.3625755,149.16584135,56229.0,0.0,0.0,-152.0
06:22:02,126823.0,RTL,0.0,0.0,-1000.5,3.0,2.5,13.5,0.0013735194224864244,0.0021849031327292323,0.486882820725441,0.0017259921878576279,0.001233056595083326,0.012751139234751463,-35.3625752,149.1658412,59337.5,-1.0,0.0,-152.0
06:22:03,136679.0,RTL,0.0,0.0,-1000.0,2.5,1.25,10.25,0.0013205135765019804,0.002128430875018239,0.49984104186296463,0.0013248367176856846,0.00011621348676271737,0.009505148278549314,-35.3625751,149.1658412,61274.25,-1.0,0.0,-152.0
06:22:04,136679.0,RTL,0.0,0.0,-999.5,2.0,1.5,11.0,0.0015095457783900201,0.0017196046537719667,0.5064915418624878,0.001073279359843582,0.0002958308323286474,0.010146642569452524,-35.3625751,149.1658412,62441.0,-1.0,0.0,-152.0
06:22:06,242089.0,RTL,0.0,0.0,-999.5,1.0,1.5,8.0,0.0013721332652494311,0.0017465809360146523,0.5212376117706299,1.7002166714519262e-05,0.00012602953938767314,0.007126984186470509,-35.362575,149.1658412,65543.5,-2.0,0.0,-152.0
06:22:08,242089.0,RTL,0.0,0.0,-1000.0,3.0,2.0,6.5,0.0014184002648107708,0.0017829035641625524,0.5336959362030029,0.0015204219380393624,0.000993240624666214,0.005579141201451421,-35.362575,149.16584115,68657.5,-2.0,0.0,-152.0
06:22:09,104494.0,RTL,0.0,0.0,-1000.25,3.0,2.25,7.25,0.0015699257492087781,0.0022455606376752257,0.5404117405414581,0.0014884147967677563,0.0011786876420956105,0.006470958818681538,-35.362574949999996,149.1658411,70593.25,-2.0,0.0,-152.0
06:22:10,104494.0,RTL,0.0,0.0,-1000.5,1.0,0.5,7.5,0.00177298131166026,0.0025729400804266334,0.5442475974559784,-0.00027016294188797474,-0.0005608026403933764,0.006718269549310207,-35.3625749,149.1658411,71758.0,-2.0,0.0,-152.0
06:22:12,175993.0,RTL,0.0,0.0,-1000.0,1.0,0.0,5.0,0.0009443413291592151,0.0014859868097119033,0.5537442564964294,-0.0004126633866690099,-0.0011817944468930364,0.0044457606272771955,-35.3625749,149.1658411,74863.5,-2.0,0.0,-152.0
06:22:14,175993.0,RTL,0.0,0.0,-999.5,1.5,1.5,6.0,0.001511694979853928,0.0013582476531155407,0.562714695930481,0.00041289092041552067,0.00011252128751948476,0.004921009996905923,-35.3625749,149.1658411,77977.0,-2.0,0.0,-152.0
06:22:15,246950.0,RTL,0.0,0.0,-1000.25,2.25,1.75,5.25,0.0015296638885047287,0.0015160765615291893,0.5671179443597794,0.0005927689489908516,0.00021975234267301857,0.00402681395644322,-35.3625749,149.1658411,79918.5,-2.0,0.0,-152.0
06:22:16,246950.0,RTL,0.0,0.0,-1000.0,2.5,3.0,4.5,0.0017818182241171598,0.0012834550580009818,0.5699386298656464,0.0012766392901539803,0.0014083832502365112,0.003488041926175356,-35.3625749,149.1658411,81082.0,-2.0,0.0,-152.0
06:22:18,81693.0,RTL,0.0,0.0,-1000.5,5.0,2.0,4.5,0.0015702638193033636,0.0015936646377667785,0.5760025382041931,0.003255550400353968,0.0005794626194983721,0.003456729231402278,-35.3625749,149.1658411,84190.5,-2.0,0.0,-152.0
06:22:20,81693.0,RTL,0.0,0.0,-1000.0,3.0,2.0,5.0,0.0014956415398046374,0.0023813488660380244,0.5812110304832458,0.001934628700837493,0.0008996303658932447,0.004210938815958798,-35.3625749,149.1658411,87300.0,-2.0,0.0,-152.0
06:22:21,181029.0,RTL,0.0,0.0,-1000.25,2.25,1.25,3.0,0.0013094533060211688,0.0019060216727666557,0.5844157934188843,0.0007429970137309283,-0.00029512925539165735,0.002164994803024456,-35.3625749,149.1658411,89238.5,-2.0,0.0,-152.0
06:22:22,181029.0,RTL,0.0,0.0,-1000.0,2.5,1.5,4.0,0.0012093582772649825,0.0012275430490262806,0.5862840414047241,0.0010647941380739212,5.655147833749652e-05,0.0025869833771139383,-35.3625749,149.1658411,90406.5,-2.0,0.0,-152.0
06:22:24,106866.0,RTL,0.0,0.0,-999.5,1.0,3.0,2.5,0.0013107481063343585,0.0015713536995463073,0.5901506543159485,-8.633953984826803e-05,0.0013239443651400506,0.0012082548928447068,-35.3625749,149.1658411,93509.0,-1.0,0.0,-152.0
06:22:26,106866.0,RTL,0.0,0.0,-1000.0,3.0,2.5,3.5,0.001523951068520546,0.0014574635424651206,0.5937760174274445,0.0010116000194102526,0.000729611492715776,0.0022174756741151214,-35.3625749,149.1658411,96616.0,-2.0,0.0,-152.0
06:22:27,209850.0,RTL,0.0,0.0,-1000.0,2.5,1.5,3.0,0.0014417502679862082,0.0014136037498246878,0.5956419557332993,0.0009959060116671026,-5.1161739975214005e-05,0.002120071614626795,-35.3625749,149.1658411,98561.25,-2.0,0.0,-152.0
06:22:28,209850.0,RTL,0.0,0.0,-1000.0,2.0,1.0,2.0,0.0014691974502056837,0.0014855878544040024,0.5967991948127747,6.431440124288201e-05,-0.00035616185050457716,0.0007874287257436663,-35.3625749,149.1658411,99727.0,-2.0,0.0,-152.0
06:22:30,59161.0,RTL,0.0,0.0,-1000.0,0.5,1.0,3.5,0.0019115815521217883,0.002009528747294098,0.6002712249755859,-0.0011747716926038265,-0.0006241289083845913,0.0023894122568890452,-35.3625749,149.1658411,102832.0,-2.0,0.0,-152.0
06:22:32,59161.0,RTL,0.0,0.0,-999.5,0.5,0.5,4.0,0.001043391734128818,0.0013446909724734724,0.602636992931366,-0.0008783326484262943,-0.001648280187509954,0.0029177298420108855,-35.3625749,149.1658411,105945.5,-2.0,0.0,-152.0
06:22:33,52938.0,RTL,0.0,0.0,-999.5,3.25,2.75,3.0,0.0015474814572371542,0.0010033871221821755,0.6037933826446533,0.0014685892092529684,0.0010547572746872902,0.001911914034280926,-35.3625749,149.1658411,107879.25,-1.5,0.0,-152.0
06:22:34,52938.0,RTL,0.0,0.0,-1000.0,2.5,3.0,2.5,0.0015636589378118515,0.0014340883935801685,0.6047013103961945,0.0008763220394030213,0.0016990347066894174,0.0012691568699665368,-35.3625749,149.1658411,109051.0,-1.0,0.0,-152.0
06:22:36,181118.0,RTL,0.0,0.0,-999.5,1.5,2.5,3.0,0.0015439751441590488,0.0013630663743242621,0.6064204275608063,6.353424396365881e-06,0.0009760679677128792,0.002121681347489357,-35.3625749,149.1658411,112159.0,-1.0,0.0,-152.0
06:22:38,181118.0,RTL,0.0,0.0,-999.0,1.5,2.5,1.5,0.0011832729214802384,0.0015101636527106166,0.6077512502670288,-0.00012177869211882353,0.0004573232727125287,0.0006345802103169262,-35.3625749,149.1658411,115266.5,-2.0,0.0,-152.0
06:22:39,13179.0,RTL,0.0,0.0,-999.75,3.0,2.5,3.0,0.0014051048492547125,0.0014176172262523323,0.6088438928127289,0.0011563460866454989,0.000785785261541605,0.0016997218190226704,-35.3625749,149.1658411,117210.0,-2.0,0.0,-152.0
06:22:40,13179.0,RTL,0.0,0.0,-999.0,1.5,3.5,1.5,0.0012540255556814373,0.001509202877059579,0.6088792383670807,-0.0008125934982672334,0.001029549166560173,0.0005883702542632818,-35.3625749,149.1658411,118377.0,-2.0,0.0,-152.0
06:22:42,292941.0,RTL,0.0,0.0,-999.5,2.0,1.5,3.5,0.0017902591498568654,0.002070236951112747,0.6104154288768768,-0.00024155504070222378,-0.00041733821853995323,0.0023994994699023664,-35.3625749,149.1658411,121480.5,-2.0,0.0,-152.0
06:22:44,292941.0,RTL,0.0,0.0,-1000.0,1.5,1.0,3.0,0.0007770565280225128,0.0010077144834212959,0.6113181710243225,-0.0006157925818115473,-0.000895292847417295,0.0012808040482923388,-35.3625749,149.1658411,124585.5,-2.0,0.0,-152.0
06:22:45,108920.0,RTL,0.0,0.0,-1000.0,3.0,2.25,3.75,0.0011761113710235804,0.0013008094392716885,0.6125433892011642,0.001217634358908981,0.0003463266184553504,0.0025555870379321277,-35.3625749,149.1658411,126527.75,-1.25,0.0,-152.0
06:22:46,108920.0,RTL,0.0,0.0,-999.5,3.5,2.5,3.5,0.0014337535249069333,0.0013024627114646137,0.6128759384155273,0.0017979429103434086,0.0004769483348354697,0.0016125900438055396,-35.3625749,149.1658411,127692.0,-1.0,0.0,-152.0
06:22:48,223500.0,RTL,0.0,0.0,-999.5,4.0,3.5,4.0,0.0017102505662478507,0.0012720829108729959,0.6134867072105408,0.0021138256415724754,0.0015845681773498654,0.002569131553173065,-35.3625749,149.1658411,130803.5,-1.0,0.0,-152.0
06:22:50,223500.0,RTL,0.0,0.0,-999.5,1.0,2.5,2.0,0.0014076601946726441,0.0014511134359054267,0.6140848994255066,-0.0005262483027763665,0.0007741251029074192,9.347486775368452e-05,-35.3625749,149.1658411,133911.0,-2.0,0.0,-152.0
06:22:51,171225.0,RTL,0.0,0.0,-1000.0,2.0,2.5,2.5,0.0013686293677892536,0.0016234738286584616,0.6142414212226868,-5.538295954465866e-05,0.0006766346050426364,0.0008975047385320067,-35.3625749,149.1658411,135854.5,-2.0,0.0,-152.0
06:22:52,171225.0,RTL,0.0,0.0,-1000.5,3.0,4.0,2.5,0.0013594323536381125,0.001907787227537483,0.6147384941577911,0.0012245005927979946,0.002110569621436298,0.0009102026233449578,-35.3625749,149.1658411,137026.0,-2.0,0.0,-152.0
06:22:54,224737.0,RTL,0.0,0.0,-1000.0,3.0,2.5,1.0,0.0014668836374767125,0.0018012469517998397,0.6152924299240112,0.0008206613129004836,0.0006734695052728057,-0.0004203354474157095,-35.3625748,149.1658411,140124.5,-2.0,0.0,-152.0
06:22:56,224737.0,RTL,0.0,0.0,-1000.5,3.5,2.5,1.5,0.0007285755418706685,0.0009980844624806195,0.615520715713501,0.001287138438783586,6.737682269886136e-05,-0.000719903502613306,-35.3625749,149.1658411,143239.0,-2.0,0.0,-152.0
06:22:57,128970.0,RTL,0.0,0.0,-1000.25,2.5,2.0,1.5,0.0010770003136713058,0.0008792634616838768,0.6157157719135284,0.00031230063177645206,0.00018932009697891772,0.0001635773223824799,-35.3625749,149.1658411,145184.5,-1.0,0.0,-152.0
06:22:58,128970.0,RTL,0.0,0.0,-999.5,2.0,2.5,2.5,0.0012465590261854231,0.001165759691502899,0.6158528327941895,1.3127573765814304e-05,0.0006025545299053192,0.001066855271346867,-35.3625749,149.1658411,146351.5,-1.0,0.0,-152.0
06:23:00,198811.0,RTL,0.0,0.0,-999.5,2.0,1.0,4.5,0.001687390438746661,0.0013475699233822525,0.6161518394947052,-0.00016601220704615116,-0.001016064896248281,0.0026346289087086916,-35.3625749,149.1658411,149459.0,-1.5,0.0,-152.0
06:23:02,198811.0,RTL,0.0,0.0,-1000.5,1.5,0.5,2.0,0.002103687613271177,0.0022599296644330025,0.6171168684959412,-0.0009849052876234055,-0.0014890684396959841,0.0006022306624799967,-35.3625749,149.1658411,152561.0,-2.0,0.0,-152.0
06:23:03,110339.0,RTL,0.0,0.0,-1000.25,3.0,2.5,1.75,0.0015622369246557355,0.001777228229911998,0.6171418279409409,0.0004281136207282543,0.00017020446830429137,-3.41576524078846e-05,-35.3625749,149.1658411,154503.0,-2.0,0.0,-152.0
06:23:04,110339.0,RTL,0.0,0.0,-1000.0,0.0,0.5,1.0,0.0011541760759428144,0.0014050480676814914,0.6172218918800354,-0.001969000033568591,-0.0016209116438403726,-0.00022220856044441462,-35.3625749,149.1658411,155667.0,-2.0,0.0,-152.0
06:23:06,236180.0,RTL,0.0,0.0,-1000.0,3.0,2.5,1.5,0.0011549220071174204,0.0015250442083925009,0.6174256205558777,0.0007610665634274483,0.00014420715160667896,-2.29785218834877e-05,-35.3625749,149.1658411,158777.0,-1.0,0.0,-152.0
06:23:08,236180.0,RTL,0.0,0.0,-1000.0,5.5,3.5,3.5,0.0013271624920889735,0.0015199342160485685,0.6173412799835205,0.0032378461910411716,0.001548745553009212,0.0018251485889777541,-35.3625749,149.1658411,161885.0,-1.0,0.0,-152.0
06:23:09,276040.0,RTL,0.0,0.0,-1000.25,3.0,3.25,2.0,0.0014240388118196279,0.0013331820082385093,0.6176119297742844,0.0004661260172724724,0.0010109081049449742,0.0004707806510850787,-35.3625749,149.1658411,163829.25,-2.0,0.0,-152.0
06:23:10,276040.0,RTL,0.0,0.0,-1000.0,3.0,2.0,3.0,0.0012513201218098402,0.0014506722800433636,0.6176242232322693,0.001092216232791543,8.079013787209988e-05,0.0011966853635385633,-35.3625749,149.1658411,164999.0,-2.0,0.0,-152.0
06:23:12,179576.0,RTL,0.0,0.0,-999.5,2.0,0.5,3.0,0.0013376182760111988,0.0015234555467031896,0.6176398396492004,-0.000497317872941494,-0.0017474567866884172,0.001186126726679504,-35.3625749,149.1658411,168105.5,-2.0,0.0,-152.0
06:23:14,179576.0,RTL,0.0,0.0,-1000.0,1.0,1.5,2.5,0.0015306890127249062,0.0011954963556490839,0.6176478862762451,-0.0012890358921140432,-0.0005531998467631638,0.0003474628902040422,-35.3625749,149.1658411,171204.5,-1.5,0.0,-152.0
06:23:15,173242.0,RTL,0.0,0.0,-1000.0,2.5,2.0,3.75,0.0020931449835188687,0.002021864551352337,0.6177354454994202,8.77123384270817e-05,-6.514700362458825e-05,0.0018408718751743436,-35.3625749,149.1658411,173154.75,-2.0,0.0,-152.0
06:23:16,173242.0,RTL,0.0,0.0,-1000.0,2.0,2.0,3.0,0.00156577822053805,0.001897778594866395,0.6176477074623108,-7.202918641269207e-05,-0.0005862078396603465,0.0007555674528703094,-35.3625749,149.1658411,174319.0,-2.0,0.0,-152.0
06:23:18,51994.0,RTL,0.0,0.0,-1000.0,2.5,2.5,1.0,0.0010343147441744804,0.001042509073158726,0.6184399724006653,4.828569944947958e-05,0.00038522668182849884,-0.0009728873847052455,-35.3625749,149.1658411,177429.5,-2.0,0.0,-152.0
06:23:20,51994.0,RTL,0.0,0.0,-1000.0,2.0,3.0,3.5,0.001178545644506812,0.0016528681735508144,0.6184905767440796,-0.000161744246724993,0.0006807770114392042,0.0014637402491644025,-35.3625749,149.1658411,180535.0,-1.0,0.0,-152.0
06:23:21,208747.0,RTL,0.0,0.0,-1000.0,4.0,2.25,3.0,0.0012429624039214104,0.001439326850231737,0.6184355020523071,0.0014598583220504224,5.1462731789797544e-05,0.00101891063968651,-35.3625749,149.1658411,182475.0,-1.25,0.0,-152.0
06:23:22,208747.0,RTL,0.0,0.0,-1000.0,2.5,2.5,2.0,0.001306198420934379,0.0013602307881228626,0.6183463931083679,0.0002034016652032733,0.0002825931878760457,0.00010960502550005913,-35.3625749,149.1658411,183641.0,-1.5,0.0,-152.0
06:23:24,187716.0,RTL,0.0,0.0,-1000.0,2.0,1.5,2.5,0.0013110183062963188,0.0013205211143940687,0.6186655759811401,-0.00022888422245159745,-0.0005179394502192736,0.0006477913120761514,-35.3625749,149.1658411,186748.0,-2.0,0.0,-152.0
06:23:26,187716.0,RTL,0.0,0.0,-999.5,1.5,2.0,3.0,0.0013679706025868654,0.0014930159086361527,0.6183275878429413,-0.001112757483497262,-0.00058622972574085,0.0011886130087077618,-35.3625749,149.1658411,189859.0,-2.0,0.0,-152.0
06:23:27,193238.0,RTL,0.0,0.0,-999.75,2.25,2.75,2.5,0.002228103927336633,0.0019272177305538207,0.6184068024158478,-0.00019506242824718356,0.0004963235696777701,0.0005014717462472618,-35.3625749,149.1658411,191798.0,-2.0,0.0,-152.0
06:23:28,193238.0,RTL,0.0,0.0,-1000.5,1.5,1.5,2.0,0.001806613989174366,0.001884242461528629,0.6184440851211548,-0.0005407524295151234,-0.0005920478724874556,-8.796853944659233e-05,-35.36257485,149.1658411,192963.5,-2.0,0.0,-152.0
06:23:30,61135.0,RTL,0.0,0.0,-1000.0,1.0,1.0,3.5,0.0007169215532485396,0.0007441141351591796,0.6182975172996521,-0.0010664378642104566,-0.001388935896102339,0.0016528445994481444,-35.3625749,149.1658411,196082.0,-2.0,0.0,-152.0
06:23:32,61135.0,RTL,0.0,0.0,-1000.0,3.5,2.0,1.5,0.000969934742897749,0.0014142474392428994,0.6182799935340881,0.0006921408930793405,-0.0004490403225645423,-0.0006739945383742452,-35.3625749,149.1658411,199180.0,-1.0,0.0,-152.0
06:23:33,25487.0,RTL,0.0,0.0,-999.75,2.25,2.5,3.75,0.001403256261255592,0.0016600499802734703,0.6186170279979706,-0.0004701342259068042,3.5943230614066124e-05,0.0015733764448668808,-35.3625749,149.1658411,201122.25,-1.0,0.0,-152.0
06:23:34,25487.0,RTL,0.0,0.0,-1000.0,2.0,0.5,5.0,0.001631186285521835,0.0017538847168907523,0.6189312040805817,-0.0003969239769503474,-0.0019509880803525448,0.0026520590763539076,-35.3625749,149.1658411,202287.5,-1.5,0.0,-152.0
06:23:36,38318.0,RTL,0.0,0.0,-1000.5,5.0,2.0,1.5,0.0020643864409066737,0.002108751446940005,0.6188152432441711,0.002449307939969003,-0.0008161391015164554,-0.000391427893191576,-35.3625749,149.1658411,205402.5,-2.0,0.0,-152.0
06:23:38,38318.0,RTL,0.0,0.0,-1000.0,0.5,1.5,2.0,0.0011417199857532978,0.00129205227131024,0.6187474131584167,-0.0020659875590354204,-0.0011988015612587333,-0.0002994394162669778,-35.3625749,149.1658411,208513.5,-2.0,0.0,-152.0
06:23:39,71959.0,RTL,0.0,0.0,-1000.25,4.0,3.25,3.0,0.0011221936147194356,0.0010819004237418994,0.6187617480754852,0.001703108660876751,0.0006458136485889554,0.0011066917795687914,-35.3625749,149.1658411,210450.75,-1.25,0.0,-152.0
06:23:40,71959.0,RTL,0.0,0.0,-1000.0,3.0,2.5,2.0,0.0014468080480583012,0.0012508065556176007,0.6188095211982727,0.0002924682339653373,5.9033045545220375e-06,0.00010256958194077015,-35.3625749,149.1658411,211617.0,-1.0,0.0,-152.0
06:23:42,202610.0,RTL,0.0,0.0,-1000.5,2.5,3.0,2.0,0.0012602825299836695,0.0013942199293524027,0.6185216903686523,-0.0001817608717828989,5.186267662793398e-05,-0.00011212052777409554,-35.3625749,149.1658411,214723.0,-1.0,0.0,-152.0
06:23:44,202610.0,RTL,0.0,0.0,-1000.0,3.5,3.0,2.5,0.0012197861797176301,0.0014603143790736794,0.6186383366584778,0.000573214958421886,0.0004826310323551297,0.00031834980472922325,-35.3625749,149.1658411,217833.5,-2.0,0.0,-152.0
06:23:45,26143.0,RTL,0.0,0.0,-1000.0,2.0,2.75,2.25,0.0013442574709188193,0.0014486013678833842,0.6184928119182587,-0.0003986507363151759,-4.8798101488500834e-05,5.038164090365171e-07,-35.3625749,149.1658411,219771.75,-2.0,0.0,-152.0
06:23:46,26143.0,RTL,0.0,0.0,-1000.0,3.5,2.5,3.5,0.001391500176396221,0.0014714010176248848,0.6184628009796143,0.0006010743090882897,-7.737160194665194e-05,0.0013274337397888303,-35.3625749,149.1658411,220940.0,-2.0,0.0,-152.0
06:23:48,185693.0,RTL,0.0,0.0,-1000.0,2.5,3.0,3.5,0.001656453008763492,0.001416865095961839,0.6187252998352051,-0.00029006926342844963,-8.273869752883911e-05,0.0014504489954560995,-35.3625749,149.1658411,224043.5,-2.0,0.0,-152.0
06:23:50,185693.0,RTL,0.0,0.0,-1000.0,1.5,2.5,2.5,0.001507287728600204,0.0018482080777175725,0.6194126307964325,-0.0008375509642064571,-0.0003912134561687708,0.00027020927518606186,-35.3625749,149.1658411,227158.0,-2.0,0.0,-152.0
06:23:51,102636.0,RTL,0.0,0.0,-999.75,2.5,2.25,3.5,0.001032995991408825,0.0009123888448812068,0.6189815849065781,-0.0006395713426172733,-0.00047857165918685496,0.0009143463103100657,-35.3625749,149.1658411,229095.25,-2.0,0.0,-152.0
06:23:52,102636.0,RTL,0.0,0.0,-1000.0,4.0,3.5,4.5,0.0011410866281948984,0.0010562715178821236,0.619059830904007,0.0011347065446898341,0.0005976506508886814,0.0018619378097355366,-35.3625749,149.1658411,230261.0,-1.5,0.0,-152.0
06:23:54,250342.0,RTL,0.0,0.0,-1000.0,1.5,3.0,3.0,0.0014398302300833166,0.0014128888142295182,0.6189468502998352,-0.001567395287565887,7.952714804559946e-05,0.0007235246011987329,-35.3625749,149.1658411,233367.0,-1.0,0.0,-152.0
06:23:56,250342.0,RTL,0.0,0.0,-999.5,3.0,3.0,2.5,0.0009743267728481442,0.0014934916980564594,0.6187756657600403,-0.0002277542371302843,0.0002983727026730776,0.0004049616400152445,-35.3625749,149.1658411,236482.0,-1.0,0.0,-152.0
06:23:57,185044.0,RTL,0.0,0.0,-1000.0,4.25,3.25,3.0,0.0012911509547848254,0.001474040444009006,0.618898794054985,0.001120085536967963,0.00045243423664942384,0.0005730140837840736,-35.3625749,149.1658411,238424.5,-2.0,0.0,-152.0
06:23:58,185044.0,RTL,0.0,0.0,-1000.0,1.5,2.5,2.0,0.0012205448583699763,0.0014379597268998623,0.6186839044094086,-0.0014065653085708618,-0.00035437988117337227,-0.00027325714472681284,-35.3625749,149.1658411,239591.5,-2.0,0.0,-152.0
06:24:00,265830.0,RTL,0.0,0.0,-999.5,2.0,3.5,3.0,0.0012032555532641709,0.0015364090213552117,0.6184710264205933,-0.0008047308074310422,0.0007309081265702844,0.0008108684560284019,-35.3625749,149.1658411,242697.5,-2.0,0.0,-152.0
06:24:02,265830.0,RTL,0.0,0.0,-1000.0,2.5,3.0,3.5,0.0015885777538642287,0.001348535472061485,0.6189014613628387,-7.678917609155178e-05,-4.017085302621126e-05,0.0007806700887158513,-35.3625749,149.1658411,245803.5,-2.0,0.0,-152.0
06:24:03,31184.0,RTL,0.0,0.0,-999.75,2.75,2.75,3.0,0.0017881052335724235,0.0021021264255978167,0.6185734868049622,-0.00026285293279215693,-0.0003084618365392089,0.0001506879343651235,-35.3625749,149.1658411,247746.0,-2.0,0.0,-152.0
06:24:04,31184.0,RTL,0.0,0.0,-1000.0,3.0,3.0,2.5,0.001494792988523841,0.0020051655592396855,0.6184647679328918,5.894654896110296e-05,0.0001210230402648449,-0.0004397460725158453,-35.3625749,149.1658411,248913.5,-2.0,0.0,-152.0
06:24:06,137895.0,RTL,0.0,0.0,-1000.5,5.0,2.0,4.0,0.0007104654505383223,0.0011596127296797931,0.6192758977413177,0.0020839947974309325,-0.0005380931543186307,0.0013431321131065488,-35.3625749,149.1658411,252017.5,-1.5,0.0,-152.0
06:24:08,137895.0,RTL,0.0,0.0,-1000.0,2.0,2.0,2.5,0.0011271631810814142,0.0013627911685034633,0.6188871264457703,-0.0007535492768511176,-0.0007633860222995281,0.0005073129432275891,-35.3625749,149.1658411,255122.5,-1.0,0.0,-152.0
06:24:09,137269.0,RTL,0.0,0.0,-1000.0,5.5,3.25,4.25,0.0015733753389213234,0.0016804584884084761,0.6190306395292282,0.0023455469054169953,0.000269378419034183,0.0018314144108444452,-35.3625749,149.1658411,257069.5,-1.25,0.0,-152.0
06:24:10,137269.0,RTL,0.0,0.0,-999.5,3.5,4.5,4.0,0.0015831542550586164,0.0015624802326783538,0.6190747320652008,0.00039606192149221897,0.0009240625659003854,0.0014392808079719543,-35.3625749,149.1658411,258238.0,-2.0,0.0,-152.0
06:24:12,278053.0,RTL,0.0,0.0,-1000.0,4.0,5.0,3.0,0.0018027307814918458,0.0014337997999973595,0.6190236210823059,0.0008574353996664286,0.0013121877564117312,0.0007777208229526877,-35.3625748,149.1658411,261341.0,-2.0,0.0,-152.0
06:24:14,278053.0,RTL,0.0,0.0,-1000.0,3.5,4.0,3.0,0.0009088411170523614,0.0010580021189525723,0.6187580525875092,0.0005660832393914461,0.000992996501736343,-0.00010272499639540911,-35.3625749,149.1658411,264446.5,-2.0,0.0,-152.0
06:24:15,11838.0,RTL,0.0,0.0,-1000.0,2.5,3.0,2.25,0.0013410050596576184,0.0013065196108072996,0.6186016649007797,-0.0007227531168609858,-0.00017794495215639472,-0.0008565146126784384,-35.3625749,149.1658411,266392.5,-1.0,0.0,-152.0
06:24:16,11838.0,RTL,0.0,0.0,-1000.0,4.0,3.5,5.0,0.001522681675851345,0.0014079416287131608,0.6186024248600006,0.0009543331107124686,2.9232120141386986e-05,0.0024100388400256634,-35.3625749,149.1658411,267562.0,-1.0,0.0,-152.0
06:24:18,258231.0,RTL,0.0,0.0,-1000.0,2.0,3.0,3.5,0.0013732488732784986,0.0015232969308272004,0.6185888648033142,-0.000786562857683748,-0.00011774490121752024,0.0004628418246284127,-35.3625749,149.1658411,270672.5,-1.5,0.0,-152.0
06:24:20,258231.0,RTL,0.0,0.0,-1000.0,4.0,5.0,3.0,0.0011793245794251561,0.0017982125864364207,0.6188174486160278,0.0008619173895567656,0.00132368050981313,-0.00022734887897968292,-35.3625749,149.1658411,273775.5,-2.0,0.0,-152.0
06:24:21,128840.0,RTL,0.0,0.0,-999.75,3.25,3.75,2.75,0.001251619920367375,0.0013529597781598568,0.6185447424650192,-5.3820316679775715e-05,0.00046841707080602646,0.00016230496112257242,-35.3625749,149.1658411,275717.25,-2.0,0.0,-152.0
06:24:22,128840.0,RTL,0.0,0.0,-1000.0,5.5,4.5,5.0,0.0012173597351647913,0.0016188120353035629,0.6191671788692474,0.0021585773210972548,0.0012470936635509133,0.002607077592983842,-35.3625749,149.1658411,276883.0,-1.5,0.0,-152.0
06:24:24,8372.0,RTL,0.0,0.0,-999.5,5.0,5.0,4.0,0.00221933180000633,0.001872986031230539,0.6190460920333862,0.001609699334949255,0.0017714552814140916,0.0010499457130208611,-35.3625749,149.1658411,279994.0,-2.0,0.0,-152.0
06:24:26,8372.0,RTL,0.0,0.0,-999.5,1.5,3.5,3.0,0.0011713142739608884,0.0018137493752874434,0.6187335848808289,-0.0014306616503745317,-4.214863292872906e-05,-3.5317265428602695e-05,-35.3625749,149.165841,283099.5,-2.0,0.0,-152.0
06:24:27,275386.0,RTL,0.0,0.0,-1000.0,3.5,3.5,4.0,0.00098409281054046,0.0009825650486163795,0.6189975589513779,-0.00011171313235536218,0.00033355155028402805,0.001134210207965225,-35.3625749,149.165841,285038.25,-1.75,0.0,-152.0
06:24:28,275386.0,RTL,0.0,0.0,-999.5,5.5,6.0,4.5,0.0012525688507594168,0.0012391394702717662,0.6190257370471954,0.0021728507708758116,0.0026503248373046517,0.0018558698939159513,-35.3625749,149.165841,286202.5,-1.0,0.0,-152.0
06:24:30,56393.0,RTL,0.0,0.0,-1000.0,3.5,4.0,3.0,0.0014696955913677812,0.0014104853034950793,0.6187527775764465,0.0003322100965306163,0.0006163688376545906,0.00012744602281600237,-35.3625749,149.165841,289323.0,-1.0,0.0,-152.0
06:24:32,56393.0,RTL,0.0,0.0,-999.5,3.5,4.0,3.5,0.0010737078846432269,0.0017246780334971845,0.618651807308197,-8.618237916380167e-05,0.0007149903103709221,0.00043479842133820057,-35.3625749,149.165841,292421.0,-2.0,0.0,-152.0
06:24:33,193504.0,RTL,0.0,0.0,-1000.0,4.0,3.25,4.0,0.0011962477874476463,0.0013870939728803933,0.6186562776565552,0.0005958355031907558,-9.756832150742412e-05,0.0010076204780489206,-35.3625749,149.165841,294363.25,-2.0,0.0,-152.0
06:24:34,193504.0,RTL,0.0,0.0,-1000.0,6.0,3.5,4.5,0.0015406127204187214,0.0013248614268377423,0.6188132762908936,0.0025594650069251657,0.00032037566415965557,0.0013994434848427773,-35.3625749,149.165841,295528.5,-2.0,0.0,-152.0
06:24:36,164997.0,RTL,0.0,0.0,-1000.0,5.5,5.5,4.0,0.002119264448992908,0.0021159176249057055,0.618706226348877,0.002084294566884637,0.0021207270910963416,0.0014385499525815248,-35.3625749,149.165841,298643.0,-2.0,0.0,-152.0
06:24:38,164997.0,RTL,0.0,0.0,-1000.0,4.0,5.0,5.5,0.0011967833852395415,0.0020117854583077133,0.6187943518161774,0.0003782198764383793,0.0018739302176982164,0.0023730751127004623,-35.3625749,149.165841,301752.0,-2.0,0.0,-152.0
06:24:39,24525.0,RTL,0.0,0.0,-1000.25,3.25,2.75,3.5,0.001000564283458516,0.0008040480533964001,0.6192344129085541,-0.00031527935061603785,-0.000576788152102381,0.00034362851874902844,-35.3625749,149.165841,303691.0,-1.75,0.0,-152.0
06:24:40,24525.0,RTL,0.0,0.0,-1000.0,5.0,4.5,4.5,0.0009870042849797755,0.0007131532474886626,0.6193281412124634,0.0013903831131756306,0.0012461699079722166,0.0015948055079206824,-35.3625749,149.165841,304858.5,-1.0,0.0,-152.0
06:24:42,106974.0,RTL,0.0,0.0,-999.6666666666666,3.6666666666666665,4.0,4.333333333333333,0.0013874721868584554,0.00118926540017128,0.6189033190409342,0.00011562897513310115,0.000575654674321413,0.0012275571934878826,-35.3625749,149.165841,307928.6666666667,-1.0,0.0,-152.0
06:24:44,106974.0,RTL,0.0,0.0,-999.6666666666666,2.6666666666666665,3.0,4.0,0.001093839993700385,0.001731947297230363,0.6188780665397644,-0.0009737381090720495,-0.000470608938485384,0.0010561829743285973,-35.3625749,149.165841,311038.0,-1.6666666666666667,0.0,-152.0
06:24:45,5978.0,RTL,0.0,0.0,-1000.0,4.0,4.0,4.0,0.0017143938457593322,0.0024041455859939256,0.6188678741455078,0.0006475284074743589,0.0004022875800728798,0.0007000590364138285,-35.3625749,149.165841,312977.0,-2.0,0.0,-152.0
06:24:46,5978.0,RTL,0.0,0.0,-1000.0,3.0,3.0,3.6666666666666665,0.0015985940893491108,0.0019664810582374534,0.6189486583073934,-0.0005746277359624704,-0.0005057498347014189,0.0004646151792258024,-35.3625749,149.165841,314141.6666666667,-2.0,0.0,-152.0
06:24:48,66936.0,RTL,0.0,0.0,-1000.3333333333334,4.666666666666667,3.3333333333333335,4.333333333333333,0.0006563345862862965,0.0009247990674339235,0.6188502510388693,0.0008667262736707926,-0.00044196782012780506,0.0011442785616964102,-35.3625749,149.165841,317248.0,-2.0,0.0,-152.0
06:24:50,66936.0,RTL,0.0,0.0,-1000.3333333333334,4.666666666666667,4.0,3.6666666666666665,0.001650857157073915,0.0012580161370957892,0.6188427209854126,0.0009793760254979134,0.0002443247164289157,0.00040392593170205754,-35.3625749,149.165841,320358.3333333333,-1.0,0.0,-152.0
06:24:51,275996.0,RTL,0.0,0.0,-1000.0,3.0,3.0,4.0,0.0013688810868188739,0.001453816386250158,0.6187571883201599,-0.0005553298785040776,-0.00018685854350527128,0.0006238650530576706,-35.3625749,149.165841,322296.0,-1.0,0.0,-152.0
06:24:52,275996.0,RTL,0.0,0.0,-1000.0,3.3333333333333335,4.0,3.0,0.001276060938835144,0.0013049371385325987,0.6185628374417623,-0.0005193855613470078,0.00012823240831494331,-0.00018242824201782545,-35.3625749,149.165841,323466.0,-1.0,0.0,-152.0
06:24:54,4749.0,RTL,0.0,0.0,-999.6666666666666,4.333333333333333,5.0,5.0,0.0012305662967264652,0.0014693902727837365,0.6188405354817709,0.0005125050277759632,0.0012696261207262676,0.001622395512337486,-35.3625749,149.165841,326568.6666666667,-1.0,0.0,-152.0
06:24:56,4749.0,RTL,0.0,0.0,-999.6666666666666,3.3333333333333335,3.6666666666666665,4.333333333333333,0.0007841472785609463,0.0006581121512378255,0.6192665100097656,-0.0004052110016345978,0.0001689347748955091,0.0011250169482082129,-35.36257493333333,149.165841,329686.0,-1.0,0.0,-152.0
06:24:57,8709.0,RTL,0.0,0.0,-999.6666666666666,3.6666666666666665,4.0,4.666666666666667,0.0008016509818844497,0.0009964156585435073,0.6191178560256958,-0.00021949938187996546,0.000481668704499801,0.0013800679395596187,-35.362575,149.165841,331621.0,-1.0,0.0,-152.0
06:24:58,8709.0,RTL,0.0,0.0,-999.6666666666666,5.0,5.0,3.6666666666666665,0.00030512130858066183,0.0008669443195685744,0.6191287636756897,0.0014477324051161606,0.000910200954725345,0.00033327673251430195,-35.362575,149.165841,332788.3333333333,-0.6666666666666666,0.0,-152.0
06:25:00,205947.0,RTL,0.0,0.0,-1000.3333333333334,3.3333333333333335,3.3333333333333335,3.6666666666666665,0.0003044995537493378,0.0006013928602139155,0.6189083456993103,-0.00011142948642373085,-0.00026880096023281413,0.00037971736552814644,-35.362575,149.165841,335893.3333333333,0.0,0.0,-152.0
06:25:02,205947.0,RTL,0.0,0.0,-999.6666666666666,5.0,4.666666666666667,4.333333333333333,9.4845208877814e-05,0.0003823808510787785,0.6188134948412577,0.0011914786882698536,0.0007202305520574251,0.0009179757907986641,-35.3625751,149.165841,339007.6666666667,0.0,0.0,-152.0
06:25:03,248637.0,RTL,0.0,0.0,-999.6666666666666,3.6666666666666665,4.0,4.666666666666667,0.0002560403081588447,0.00048744698869995773,0.618709405263265,-0.0003422288379321496,0.0004611954403420289,0.0010060400236397982,-35.3625751,149.165841,340950.0,0.0,0.0,-152.0
06:25:04,248637.0,RTL,0.0,0.0,-1000.0,3.3333333333333335,3.0,3.6666666666666665,0.00021321946405805647,0.0001906953693833202,0.6187355717023214,-0.00016243336722254753,-0.0010048923237870138,1.557823270559311e-05,-35.3625751,149.165841,342117.3333333333,0.0,0.0,-152.0
06:25:06,229120.0,RTL,0.0,0.0,-1000.0,4.333333333333333,3.3333333333333335,3.0,9.166421114059631e-05,0.0003280639454411964,0.6187468767166138,0.00048735349749525386,-0.00031111490291853744,-0.00017818769750495753,-35.3625751,149.165841,345221.3333333333,0.0,0.0,-152.0
06:25:08,229120.0,RTL,0.0,0.0,-999.6666666666666,3.6666666666666665,4.0,3.6666666666666665,-0.00016011445647260794,-0.00018787081353366375,0.6187741160392761,0.0002793745758632819,0.0002984521755327781,7.849993805090587e-05,-35.3625751,149.165841,348327.0,0.0,0.0,-152.0
06:25:09,243826.0,RTL,0.0,0.0,-1000.3333333333334,3.6666666666666665,3.3333333333333335,3.0,-7.132389631199961e-06,8.932183845899999e-05,0.6186012824376425,-0.00013338572656114897,-0.0005565471947193146,-7.323408499360085e-05,-35.3625751,149.165841,350269.6666666667,0.0,0.0,-152.0
06:25:10,243826.0,RTL,0.0,0.0,-1000.0,2.6666666666666665,3.0,4.333333333333333,-0.0006484560920701673,-0.00041982705442933366,0.6185441017150879,-0.001529677848642071,-0.00046226584042112034,0.0006823501704881588,-35.362575166666666,149.165841,351435.3333333333,0.0,0.0,-152.0
06:25:12,99775.0,RTL,0.0,0.0,-1000.3333333333334,4.666666666666667,3.3333333333333335,3.6666666666666665,-3.096553003463972e-05,-0.0004748247641449173,0.6193343003590902,0.000829069409519434,-0.0004843093144396941,0.0004950977551440398,-35.3625752,149.165841,354545.3333333333,1.0,0.0,-152.0
06:25:14,99775.0,RTL,0.0,0.0,-1000.0,3.3333333333333335,2.0,3.6666666666666665,6.152913798966135e-05,0.0002538818322742979,0.6191314657529196,-0.0005448029842227697,-0.0013738468599816163,9.884661994874477e-05,-35.3625752,149.165841,357650.0,0.0,0.0,-152.0
06:25:15,118269.0,RTL,0.0,0.0,-1000.3333333333334,3.6666666666666665,2.6666666666666665,3.6666666666666665,-0.00022971736325416714,-8.068485112744384e-05,0.6190927227338155,3.770288700858752e-05,-0.0014484666753560305,0.0005412034224718809,-35.3625752,149.165841,359599.0,0.0,0.0,-152.0
06:25:16,118269.0,RTL,0.0,0.0,-1000.0,1.6666666666666667,2.3333333333333335,3.6666666666666665,-0.0004020334454253316,-0.0001995544516830705,0.6190817753473917,-0.0022174127710362277,-0.0011690047103911638,0.00023354962468147278,-35.3625752,149.165841,360766.6666666667,0.0,0.0,-152.0
06:25:18,270105.0,RTL,0.0,0.0,-1000.0,2.3333333333333335,3.3333333333333335,1.3333333333333333,-0.0009135583338017265,-0.0009539193318535885,0.6189171274503072,-0.0012986321623126666,-0.00018328436029454073,-0.001902703894302249,-35.3625752,149.165841,363872.3333333333,1.0,0.0,-152.0
06:25:20,270105.0,RTL,0.0,0.0,-1000.3333333333334,3.3333333333333335,3.0,3.3333333333333335,-0.0004341789851120363,-0.0006304474275869628,0.6189112663269043,-0.000150457335015138,-0.000483097896600763,-0.0002788775600492954,-35.3625752,149.165841,366971.6666666667,1.0,0.0,-152.0
06:25:21,47251.0,RTL,0.0,0.0,-1000.0,3.3333333333333335,2.0,4.0,-0.0005743767639311651,-0.0005585700467539331,0.6189680695533752,-0.0005679114256054163,-0.001416084822267294,0.0007543276684979597,-35.3625752,149.165841,368921.3333333333,1.0,0.0,-152.0
06:25:22,47251.0,RTL,0.0,0.0,-1000.3333333333334,4.333333333333333,4.333333333333333,3.3333333333333335,-0.0005331372376531363,-0.0004112364355629931,0.618698259194692,0.0005940894285837809,0.0006208896326522032,-0.00023299362510442734,-35.3625752,149.165841,370087.0,1.0,0.0,-152.0
06:25:24,107925.0,RTL,0.0,0.0,-1000.0,3.0,3.6666666666666665,3.0,-7.886084252580379e-05,-0.0008052506018429995,0.6188754240671793,-0.00038166010441879433,-0.00013681198470294476,-0.00047230604104697704,-35.3625752,149.165841,373193.6666666667,1.0,0.0,-152.0
06:25:26,107925.0,RTL,0.0,0.0,-999.3333333333334,3.6666666666666665,4.666666666666667,3.0,-0.0004393687122501433,-0.00048793073316725594,0.6186029116312662,-2.210005186498165e-05,0.0011461128791173298,-0.00033769523724913597,-35.3625752,149.165841,376304.0,1.0,0.0,-152.0
06:25:27,231704.0,RTL,0.0,0.0,-1000.0,3.6666666666666665,3.0,3.6666666666666665,-0.0007465539189676443,-0.00040926324436441064,0.6194021105766296,-8.751436447103818e-05,-0.000663750572130084,-7.575967659552892e-05,-35.3625752,149.165841,378242.6666666667,1.0,0.0,-152.0
06:25:28,231704.0,RTL,0.0,0.0,-1000.0,4.333333333333333,3.6666666666666665,3.3333333333333335,-0.00026076664714006864,-0.00015515871928073466,0.6193626324335734,0.00066207783917586,0.00045946729369461536,-2.862272473673026e-05,-35.3625752,149.165841,379408.6666666667,1.0,0.0,-152.0
06:25:30,102672.0,RTL,0.0,0.0,-1000.3333333333334,2.3333333333333335,2.0,3.3333333333333335,-0.0005798633792437613,-0.0003730769094545394,0.6193679571151733,-0.0010911991509298484,-0.0014225008587042491,-2.814681890110175e-05,-35.3625752,149.165841,382513.3333333333,1.0,0.0,-152.0
06:25:32,102672.0,RTL,0.0,0.0,-1000.0,5.0,3.6666666666666665,3.3333333333333335,-0.0009539526072330773,-0.0013155279060204823,0.6192638476689657,0.0015758209240933259,0.00026117816256980103,-0.00018971840230127177,-35.3625753,149.165841,385620.0,1.6666666666666667,0.0,-152.0
06:25:33,105470.0,RTL,0.0,0.0,-1000.3333333333334,2.6666666666666665,2.6666666666666665,3.0,-0.0005112565995659679,-0.0008561853513432046,0.6190199057261149,-0.0007202202298988899,-0.0008651120588183403,-0.0009509630035609007,-35.3625753,149.165841,387562.3333333333,2.0,0.0,-152.0
06:25:34,105470.0,RTL,0.0,0.0,-999.6666666666666,4.666666666666667,4.0,4.666666666666667,-0.0003986884354768942,-0.0008581071548784772,0.6189775069554647,0.0007730200886726379,0.00030083659415443736,0.000862077654649814,-35.3625753,149.165841,388730.3333333333,2.0,0.0,-152.0
06:25:36,26765.0,RTL,0.0,0.0,-1000.0,2.6666666666666665,2.3333333333333335,2.6666666666666665,-0.0002896457845054101,-0.00045624277845490724,0.6189222534497579,-0.0009539645786086718,-0.001115293785308798,-0.0009699144866317511,-35.3625753,149.165841,391837.6666666667,1.0,0.0,-152.0
06:25:38,26765.0,RTL,0.0,0.0,-1000.3333333333334,3.3333333333333335,2.3333333333333335,4.0,-0.0004827454880190392,-0.0005380564058820406,0.6187055110931396,-0.00015252044734855494,-0.0012450852276136477,0.00033731875009834766,-35.3625753,149.165841,394952.3333333333,1.0,0.0,-152.0
06:25:39,283590.0,RTL,0.0,0.0,-1000.0,2.6666666666666665,3.3333333333333335,4.0,-0.0006741924250187973,-0.0005585249552192787,0.6187503139177958,-0.00045757802824179333,-0.0001759298611432314,0.0005618768433729807,-35.3625753,149.165841,396886.6666666667,1.0,0.0,-152.0
06:25:40,283590.0,RTL,0.0,0.0,-1000.0,3.0,3.0,3.3333333333333335,-0.0008528404093037049,-0.00034082454900878173,0.6187655329704285,-0.0005349088460206985,-0.0003081965260207653,4.732732971509298e-05,-35.3625753,149.165841,398056.6666666667,1.0,0.0,-152.0
06:25:42,25301.0,RTL,0.0,0.0,-1000.0,3.3333333333333335,3.6666666666666665,3.6666666666666665,-0.00045880181520866853,-0.0005516811312797169,0.6187900900840759,1.1760508641600609e-05,0.00023891714711984,0.00027640808063248795,-35.3625753,149.165841,401166.0,1.6666666666666667,0.0,-152.0
06:25:44,25301.0,RTL,0.0,0.0,-1000.3333333333334,3.6666666666666665,3.0,2.0,-0.0005096695482886086,-0.0008062755417389175,0.619294265906016,0.0004177431110292673,-0.000417736591771245,-0.0012585798588891823,-35.3625753,149.165841,404272.0,1.0,0.0,-152.0
06:25:45,25209.0,RTL,0.0,0.0,-999.6666666666666,2.6666666666666665,2.3333333333333335,3.0,-0.000514381448738277,-0.0006085492010849217,0.6193778117497762,-0.0004527155930797259,-0.0008046059714009365,-0.000315988902002573,-35.3625753,149.165841,406216.6666666667,1.0,0.0,-152.0
06:25:46,25209.0,RTL,0.0,0.0,-1000.0,3.3333333333333335,3.0,4.666666666666667,-0.00043253607388275367,-0.0008743475579346219,0.6193857987721761,8.70577059686184e-06,-0.0003357629757374525,0.0011452638233701389,-35.3625753,149.165841,407382.6666666667,1.0,0.0,-152.0
06:25:48,84918.0,RTL,0.0,0.0,-1000.0,4.0,3.6666666666666665,3.6666666666666665,-0.0004450151463970542,-0.0006022151404370865,0.6191431482632955,0.000519809623559316,0.00034604407846927643,0.0003613485023379326,-35.3625753,149.165841,410488.3333333333,1.6666666666666667,0.0,-152.0
06:25:50,84918.0,RTL,0.0,0.0,-1000.0,2.6666666666666665,2.6666666666666665,2.0,-0.0005547727923840284,-0.0006665898836217821,0.619087278842926,-0.0004992617759853601,-0.000468576792627573,-0.0010390719398856163,-35.3625753,149.165841,413591.6666666667,1.0,0.0,-152.0
06:25:51,194148.0,RTL,0.0,0.0,-999.6666666666666,2.6666666666666665,2.0,3.0,-0.0005046252141861866,-0.0006996919983066618,0.6191386977831522,-0.0004711428191512823,-0.0010238793523361285,-0.00044871106122930843,-35.3625753,149.165841,415534.0,1.0,0.0,-152.0
06:25:52,194148.0,RTL,0.0,0.0,-1000.0,2.6666666666666665,2.0,3.3333333333333335,-0.00047818854606399935,-0.0008058775953638057,0.6189245382944742,-0.0006812740272531906,-0.001024240783105294,-0.00028432820302744705,-35.3625753,149.165841,416699.0,1.0,0.0,-152.0
06:25:54,97739.0,RTL,0.0,0.0,-1000.0,4.0,2.3333333333333335,4.0,-0.0009295462514273822,-0.0006277495607112845,0.6188812454541525,0.0005621036980301142,-0.0008119977234552304,0.0007315510107825199,-35.3625753,149.165841,419812.0,2.0,0.0,-152.0
06:25:56,97739.0,RTL,0.0,0.0,-1000.0,3.3333333333333335,3.3333333333333335,2.6666666666666665,-0.00036054261727258563,-0.0006994563348901769,0.6189063588778178,-9.389912399152915e-05,0.00029021167817215127,-0.0007855478518952926,-35.3625753,149.165841,422915.6666666667,2.0,0.0,-152.0
06:25:57,122546.0,RTL,0.0,0.0,-999.6666666666666,2.6666666666666665,2.6666666666666665,2.6666666666666665,-0.0004713768624545385,-0.0004629474036240329,0.6188051104545593,-0.00016295723617076874,-0.0003559062412629525,-0.00023540831170976162,-35.3625753,149.165841,424857.6666666667,1.0,0.0,-152.0
06:25:58,122546.0,RTL,0.0,0.0,-999.6666666666666,4.0,3.0,4.333333333333333,-0.00024084345204755664,-0.0009775099849017959,0.6189620097478231,0.0008089511344830195,0.00011672560746471088,0.0006363642557213703,-35.3625753,149.165841,426022.3333333333,1.0,0.0,-152.0
06:26:00,291976.0,RTL,0.0,0.0,-1000.0,3.3333333333333335,3.6666666666666665,3.0,-0.00041199692835410434,-0.0007334507730168601,0.6195000807444254,0.00045151022883752984,0.0004392459522932768,-0.00028584346485634643,-35.3625753,149.165841,429137.6666666667,1.0,0.0,-152.0
06:26:02,291976.0,RTL,0.0,0.0,-999.6666666666666,3.3333333333333335,3.6666666666666665,2.6666666666666665,-0.0005090841344402482,-0.0007760355171437064,0.6193976203600565,3.826610433558623e-05,0.00021447978603343168,-0.0005296263843774796,-35.3625753,149.165841,432245.6666666667,1.0,0.0,-152.0
06:26:03,83268.0,RTL,0.0,0.0,-1000.0,3.0,2.6666666666666665,3.0,-0.0004974083276465535,-0.0007324392790906131,0.6190641323725382,-0.00036878402655323345,-0.0006547756493091583,-0.00017426589814325175,-35.3625753,149.165841,434185.0,1.0,0.0,-152.0
06:26:04,83268.0,RTL,0.0,0.0,-1000.0,3.0,3.0,2.6666666666666665,-0.0005154823011253029,-0.0007662069983780384,0.6193942626317342,-0.0003804087173193693,6.02169893682003e-05,-0.0005104633358617624,-35.3625753,149.165841,435350.6666666667,1.3333333333333333,0.0,-152.0
06:26:06,63185.0,RTL,2.3333333333333335,1.0,-998.6666666666666,2.0,41.333333333333336,4.0,-0.0015877591989313562,0.04704952985048294,0.618986984093984,-0.0015077666612342,0.03851455822587013,0.0005307909256468216,-35.362575899999996,149.16584049999997,438444.3333333333,-17.666666666666668,-13.666666666666666,-149.66666666666666
06:26:08,63185.0,RTL,28.333333333333332,12.333333333333334,-959.3333333333334,-92.0,130.33333333333334,237.0,-0.029021277092397213,0.1415028398235639,0.6646362543106079,-0.09609916123251121,0.1274901181459427,0.2336519369855523,-35.36258813333333,149.1658302666667,441381.0,-125.66666666666667,-92.0,-125.66666666666667
06:26:09,258665.0,RTL,65.33333333333333,16.0,-939.6666666666666,65.0,-95.66666666666667,149.66666666666666,0.046998622516791023,0.1386188641190529,1.0874273777008057,0.061701167995731034,-0.0996871789296468,0.14648030698299408,-35.36260793333333,149.16580923333333,442454.6666666667,-224.0,-204.33333333333334,-40.0
06:26:10,258665.0,RTL,83.0,5.0,-952.0,-18.0,11.333333333333334,20.666666666666668,0.06752104063828786,0.10819432884454727,1.1348573366800945,-0.021200022272144754,0.008180406565467516,0.016959270695224404,-35.3626253,149.1657921,442605.6666666667,-283.0,-203.66666666666666,0.0
06:26:12,113291.0,RTL,104.66666666666667,2.0,-1008.6666666666666,-131.66666666666666,1.0,-44.333333333333336,-0.009026608352238933,0.13960453867912292,1.0747963984807332,-0.13498532275358835,-0.0021399444279571376,-0.04822092860316237,-35.36268643333333,149.16574493333331,442218.0,-374.3333333333333,-236.0,10.333333333333334
06:26:14,113291.0,RTL,101.66666666666667,7.333333333333333,-987.6666666666666,-274.3333333333333,0.0,-46.666666666666664,-0.030378631005684536,0.11958357443412145,0.9895319938659668,-0.27809618910153705,-0.003194611674795548,-0.050765806498626866,-35.362755099999994,149.16568726666668,442161.0,-376.3333333333333,-276.0,-0.3333333333333333
06:26:15,55818.0,RTL,105.33333333333333,29.666666666666668,-993.0,-93.33333333333333,12.666666666666666,-16.333333333333332,-0.03545279304186503,0.11296067883570989,0.9461489319801331,-0.09662373860677083,0.009248514426872134,-0.020536924712359905,-35.36279803333333,149.16564886666666,442170.3333333333,-381.3333333333333,-284.6666666666667,-1.6666666666666667
06:26:16,55818.0,RTL,108.66666666666667,22.333333333333332,-989.0,-101.33333333333333,-11.333333333333334,-35.666666666666664,-0.03626004420220852,0.10966979215542476,0.9239955147107443,-0.10469040771325429,-0.01511488730708758,-0.03919614331486324,-35.36282406666667,149.16562553333333,442177.3333333333,-382.6666666666667,-286.6666666666667,-1.0
06:26:18,124292.0,RTL,108.33333333333333,25.333333333333332,-994.3333333333334,-108.33333333333333,9.666666666666666,-38.0,-0.046902736028035484,0.1026553064584732,0.8731594085693359,-0.11139666537443797,0.006452739238739014,-0.041969197491804756,-35.3628943,149.1655635,442192.0,-374.0,-284.6666666666667,0.0
06:26:20,192766.0,RTL,101.66666666666667,38.666666666666664,-992.0,-13.666666666666666,11.666666666666666,-19.333333333333332,-0.04522577424844106,0.10006167987982433,0.8355812430381775,-0.01653958112001419,0.008568881700436274,-0.022875824943184853,-35.362963533333335,149.16550180000002,442192.0,-373.3333333333333,-284.0,0.0
06:26:21,225073.0,RTL,100.66666666666667,38.333333333333336,-992.6666666666666,-36.666666666666664,2.0,-11.0,-0.043843875328699745,0.10378218938906987,0.8176208138465881,-0.039540112018585205,-0.0009552881432076296,-0.01422616777320703,-35.3630062,149.16546336666667,442188.3333333333,-377.6666666666667,-280.3333333333333,0.3333333333333333
06:26:22,225073.0,RTL,98.0,33.333333333333336,-989.0,-108.66666666666667,6.333333333333333,-22.0,-0.04564538598060608,0.1053936630487442,0.8067676226298014,-0.11103155588110288,0.003184935310855508,-0.02539432669679324,-35.36303203333333,149.16544050000002,442189.0,-380.3333333333333,-280.0,0.0
06:26:24,139927.5,RTL,106.0,34.333333333333336,-995.3333333333334,-153.33333333333334,12.0,-21.333333333333332,-0.05003674949208895,0.10085544735193253,0.7848046024640402,-0.15531806151072183,0.0091620907963564,-0.02504908541838328,-35.3631014,149.16537946666668,442196.3333333333,-382.3333333333333,-280.3333333333333,0.0
06:26:26,54782.0,RTL,101.66666666666667,34.0,-990.6666666666666,-172.33333333333334,-61.666666666666664,-20.333333333333332,-0.05882672592997551,0.061726778745651245,0.7717015345891317,-0.1748301386833191,-0.0652798352142175,-0.024319765468438465,-35.36317076666666,149.16531853333333,442214.3333333333,-370.0,-271.3333333333333,-1.3333333333333333
06:26:27,184215.0,RTL,85.66666666666667,10.666666666666666,-985.3333333333334,-284.0,-50.333333333333336,-39.666666666666664,-0.059321556240320206,-0.0011958649847656488,0.7675919334093729,-0.28527545432249707,-0.05407557263970375,-0.04355551302433014,-35.36321,149.1652840666667,442242.3333333333,-305.0,-228.33333333333334,1.6666666666666667
06:26:28,184215.0,RTL,70.0,41.0,-995.0,-196.0,-41.666666666666664,12.333333333333334,-0.05988140652577082,-0.03624915642042955,0.7660164634386698,-0.19932575027147928,-0.04534058024485906,0.009185699125130972,-35.363229233333335,149.1652667,442233.6666666667,-249.0,-189.33333333333334,1.3333333333333333
06:26:30,220413.0,RTL,21.666666666666668,37.666666666666664,-1009.6666666666666,202.66666666666666,45.666666666666664,13.666666666666666,-0.015950807952322066,-0.062139660120010376,0.7557965318361918,0.1993743578592936,0.04288065309325854,0.011027509657045206,-35.36325816666666,149.1652389,442195.0,-74.0,-58.333333333333336,2.6666666666666665
06:26:32,256611.0,RTL,2.0,7.0,-1000.0,320.6666666666667,20.666666666666668,-3.0,0.005333090550266206,-0.022058344756563503,0.7455059885978699,0.3185409555832545,0.018406545743346214,-0.00672115928803881,-35.36326423333333,149.16523306666667,442182.3333333333,-7.666666666666667,2.6666666666666665,0.0
06:26:33,270967.0,RTL,1.6666666666666667,11.0,-999.0,306.6666666666667,-0.6666666666666666,1.6666666666666667,0.0038194347095365324,0.0040868606107930345,0.7401600480079651,0.3046799103418986,-0.0038389156882961593,-0.001716654437283675,-35.3632646,149.1652336,442188.6666666667,-1.6666666666666667,6.333333333333333,-0.3333333333333333
06:26:34,270967.0,RTL,1.0,-23.666666666666668,-990.3333333333334,-513.3333333333334,-6.666666666666667,2.6666666666666665,-0.01321237301453948,-0.0077884372634192305,0.7363711396853129,-0.5164369295040766,-0.009873376305525502,-0.00042989966459572315,-35.36326496666667,149.16523423333334,442186.3333333333,0.0,4.666666666666667,0.3333333333333333
06:26:36,216074.0,RTL,-1.6666666666666667,17.666666666666668,-1007.0,459.6666666666667,5.333333333333333,2.0,-0.00025392742827534676,-0.005016563615451257,0.7297562758127848,0.4579026997089386,0.0026619123915831247,-0.0008113591078047951,-35.36326476666667,149.16523606666667,442184.6666666667,13.666666666666666,1.3333333333333333,0.0
06:26:38,161181.0,RTL,-0.3333333333333333,-21.0,-998.3333333333334,-292.6666666666667,2.3333333333333335,0.3333333333333333,-0.004383209316680829,-0.0015099614004914959,0.7236662109692892,-0.29449164867401123,-3.406614996492863e-05,-0.0026447232036540904,-35.3632636,149.16523696666667,442185.0,10.666666666666666,0.0,-0.3333333333333333
06:26:39,15346.0,RTL,0.0,33.666666666666664,-961.0,1088.3333333333333,3.0,4.333333333333333,0.004134183167479932,-0.0014327831643943985,0.7204009095827738,1.086447497208913,0.0003998442552983761,0.0013040693787237008,-35.36326346666667,149.16523763333333,441955.6666666667,8.666666666666666,-1.0,54.0
06:26:40,15346.0,RTL,0.3333333333333333,-4.666666666666667,-925.6666666666666,815.3333333333334,1.0,-0.6666666666666666,0.010089740001906952,-0.0015071519495298464,0.7182961702346802,0.8157042562961578,-0.002009074242475132,-0.004234051176657279,-35.3632634,149.1652379,441373.6666666667,10.333333333333334,-4.666666666666667,99.66666666666667
06:26:42,15626.5,RTL,-0.3333333333333333,77.0,-996.0,1219.6666666666667,-1.0,1.3333333333333333,-0.004164386463041107,-0.0022435768817861876,0.7140416304270426,1.216737190882365,-0.003907862429817517,-0.0014657581923529506,-35.3632634,149.16523833333335,439169.6666666667,9.0,-6.333333333333333,101.0
06:26:44,15907.0,RTL,-3.0,68.66666666666667,-1014.3333333333334,1354.6666666666667,6.0,11.0,0.0046163443475961685,-0.003566526109352708,0.7099049687385559,1.352986256281535,0.0033982619643211365,0.008184014974782864,-35.36326333333333,149.16523859999998,437122.6666666667,9.333333333333334,-8.666666666666666,99.0
