time_stamp,MODE,lat,lon,relative_alt,roll,pitch,yaw,rollspeed,pitchspeed,yawspeed,xacc,yacc,zacc,xgyro,ygyro,zgyro,vx,vy,vz,RTL_ALT
13:49:29.627,STABILIZE,-35.3632621,149.1652374,0,0.0004401963378768414,0.0014403576496988535,0.029570085927844048,0.00033123447792604566,0.00014148539048619568,0.0025194943882524967,0,1,-1000,0,0,0,0,1,3,1500.0
13:49:29.828,STABILIZE,-35.3632621,149.1652374,0,0.0004401963378768414,0.0014403576496988535,0.029570085927844048,0.00033123447792604566,0.00014148539048619568,0.0025194943882524967,0,1,-1000,0,0,0,0,1,3,1500.0
13:49:30.029,STABILIZE,-35.3632621,149.1652374,0,0.0004401963378768414,0.0014403576496988535,0.029570085927844048,0.00033123447792604566,0.00014148539048619568,0.0025194943882524967,0,1,-1000,0,0,0,0,1,3,1500.0
13:49:30.230,STABILIZE,-35.3632621,149.1652374,0,0.0004401963378768414,0.0014403576496988535,0.029570085927844048,0.00033123447792604566,0.00014148539048619568,0.0025194943882524967,0,1,-1000,0,0,0,0,1,3,1500.0
13:49:30.430,STABILIZE,-35.3632621,149.1652375,0,0.0003161278727930039,0.001588410814292729,0.027981529012322426,0.00019007455557584763,0.00025722692953422666,0.0023116786032915115,0,1,-1000,0,0,0,-2,2,1,1500.0
13:49:30.632,STABILIZE,-35.3632621,149.1652375,0,0.0003161278727930039,0.001588410814292729,0.027981529012322426,0.00019007455557584763,0.00025722692953422666,0.0023116786032915115,0,1,-1000,0,0,0,-2,2,1,1500.0
13:49:30.833,STABILIZE,-35.3632622,149.1652376,0,0.0007872692076489329,0.001498752972111106,0.0276652742177248,0.0002512790961191058,0.00030513780075125396,0.0023204763419926167,0,1,-1000,0,0,0,-2,6,7,1500.0
13:49:31.034,STABILIZE,-35.3632622,149.1652376,0,0.0007872692076489329,0.001498752972111106,0.0276652742177248,0.0002512790961191058,0.00030513780075125396,0.0023204763419926167,0,1,-1000,0,0,0,-2,6,7,1500.0
13:49:31.235,STABILIZE,-35.3632622,149.1652376,0,0.0006151004345156252,0.0014492508489638567,0.02747553586959839,0.00017515686340630054,0.00039140641456469893,0.0023466648999601603,0,1,-1000,0,0,1,-2,6,7,1500.0
13:49:31.437,STABILIZE,-35.3632622,149.1652377,0,0.00035166990710422397,0.001406419207341969,0.027302740141749382,0.0002308786497451365,0.00036243011709302664,0.0020258764270693064,0,1,-1000,0,0,0,-2,5,6,1500.0
13:49:31.638,STABILIZE,-35.3632622,149.1652377,0,0.00035166990710422397,0.001406419207341969,0.027302740141749382,0.0002308786497451365,0.00036243011709302664,0.0020258764270693064,0,1,-1000,0,0,0,-2,5,6,1500.0
13:49:31.840,STABILIZE,-35.3632622,149.1652377,0,0.00035166990710422397,0.001406419207341969,0.027302740141749382,0.0002308786497451365,0.00036243011709302664,0.0020258764270693064,0,1,-1000,0,0,0,-2,5,6,1500.0
13:49:32.041,STABILIZE,-35.3632622,149.1652377,0,0.00035166990710422397,0.001406419207341969,0.027302740141749382,0.0002308786497451365,0.00036243011709302664,0.0020258764270693064,0,1,-1000,0,0,0,-2,5,6,1500.0
13:49:32.243,STABILIZE,-35.3632622,149.1652377,0,-0.00045871504698880017,0.001247658976353705,0.026825791224837303,0.00021906814072281122,0.00019398017320781946,0.0021491844672709703,0,1,-1000,0,0,0,-1,3,5,1500.0
13:49:32.444,STABILIZE,-35.3632622,149.1652377,0,-0.00045871504698880017,0.001247658976353705,0.026825791224837303,0.00021906814072281122,0.00019398017320781946,0.0021491844672709703,0,1,-1000,0,0,0,-1,3,5,1500.0
13:49:32.645,STABILIZE,-35.3632622,149.1652376,0,-0.0008379070204682648,0.0011614566901698709,0.026583023369312286,0.00013074412709102035,0.00025447350344620645,0.002168990671634674,0,1,-1000,0,0,0,-1,2,4,1500.0
13:49:32.846,STABILIZE,-35.3632622,149.1652376,0,-0.0009927921928465366,0.0011200507869943976,0.026475923135876656,0.00012300448725000024,0.00026509855524636805,0.002097213175147772,0,1,-1000,0,0,0,-1,2,3,1500.0
13:49:33.047,STABILIZE,-35.3632622,149.1652376,0,-0.0009927921928465366,0.0011200507869943976,0.026475923135876656,0.00012300448725000024,0.00026509855524636805,0.002097213175147772,0,1,-1000,0,0,0,-1,2,3,1500.0
13:49:33.249,STABILIZE,-35.3632622,149.1652376,0,-0.0009927921928465366,0.0011200507869943976,0.026475923135876656,0.00012300448725000024,0.00026509855524636805,0.002097213175147772,0,1,-1000,0,0,0,-1,2,3,1500.0
13:49:33.451,STABILIZE,-35.3632622,149.1652376,0,-0.0009927921928465366,0.0011200507869943976,0.026475923135876656,0.00012300448725000024,0.00026509855524636805,0.002097213175147772,0,1,-1000,0,0,0,-1,2,3,1500.0
13:49:33.658,STABILIZE,-35.3632622,149.1652376,0,-0.0009927921928465366,0.0011200507869943976,0.026475923135876656,0.00012300448725000024,0.00026509855524636805,0.002097213175147772,0,1,-1000,0,0,0,-1,2,3,1500.0
13:49:33.864,STABILIZE,-35.3632622,149.1652376,0,-0.0009927921928465366,0.0011200507869943976,0.026475923135876656,0.00012300448725000024,0.00026509855524636805,0.002097213175147772,0,1,-1000,0,0,0,-1,2,3,1500.0
13:49:34.066,STABILIZE,-35.3632622,149.1652376,0,-0.0009927921928465366,0.0011200507869943976,0.026475923135876656,0.00012300448725000024,0.00026509855524636805,0.002097213175147772,0,1,-1000,0,0,0,-1,2,3,1500.0
13:49:34.267,STABILIZE,-35.3632622,149.1652376,0,-0.0009927921928465366,0.0011200507869943976,0.026475923135876656,0.00012300448725000024,0.00026509855524636805,0.002097213175147772,0,1,-1000,0,0,0,-1,2,3,1500.0
13:49:34.469,STABILIZE,-35.3632621,149.1652376,0,-0.0013162915129214525,0.0010017018066719174,0.026015734300017357,-9.644369129091501e-06,0.00032962497789412737,0.0020723864436149597,0,1,-1000,0,0,1,-1,0,1,1500.0
13:49:34.670,STABILIZE,-35.3632621,149.1652375,0,-0.001352938823401928,0.0009861213620752096,0.025969771668314934,0.00013092480367049575,0.0003456131089478731,0.001985755283385515,0,1,-1000,0,0,0,-1,0,1,1500.0
13:49:34.872,STABILIZE,-35.3632621,149.1652375,0,-0.001352938823401928,0.0009861213620752096,0.025969771668314934,0.00013092480367049575,0.0003456131089478731,0.001985755283385515,0,1,-1000,0,0,0,-1,0,1,1500.0
13:49:35.073,STABILIZE,-35.3632621,149.1652375,0,-0.001352938823401928,0.0009861213620752096,0.025969771668314934,0.00013092480367049575,0.0003456131089478731,0.001985755283385515,0,1,-1000,0,0,0,-1,0,1,1500.0
13:49:35.275,STABILIZE,-35.3632621,149.1652375,0,-0.001352938823401928,0.0009861213620752096,0.025969771668314934,0.00013092480367049575,0.0003456131089478731,0.001985755283385515,0,1,-1000,0,0,0,-1,0,1,1500.0
13:49:35.477,STABILIZE,-35.3632621,149.1652375,0,-0.001352938823401928,0.0009861213620752096,0.025969771668314934,0.00013092480367049575,0.0003456131089478731,0.001985755283385515,0,1,-1000,0,0,0,-1,0,1,1500.0
13:49:35.678,STABILIZE,-35.3632621,149.1652375,0,-0.001352938823401928,0.0009861213620752096,0.025969771668314934,0.00013092480367049575,0.0003456131089478731,0.001985755283385515,0,1,-1000,0,0,0,-1,0,1,1500.0
13:49:35.879,STABILIZE,-35.3632621,149.1652375,0,-0.001352938823401928,0.0009861213620752096,0.025969771668314934,0.00013092480367049575,0.0003456131089478731,0.001985755283385515,0,1,-1000,0,0,0,-1,0,1,1500.0
13:49:36.081,STABILIZE,-35.3632621,149.1652375,0,-0.0013789437944069505,0.0009591028792783618,0.025602925568819046,6.935757119208574e-05,0.00024670519633218646,0.0020342660136520863,0,2,-1000,0,0,0,-1,0,0,1500.0
13:49:36.282,STABILIZE,-35.3632621,149.1652375,0,-0.0013789437944069505,0.0009591028792783618,0.025602925568819046,6.935757119208574e-05,0.00024670519633218646,0.0020342660136520863,0,2,-1000,0,0,0,-1,0,0,1500.0
13:49:36.484,STABILIZE,-35.3632621,149.1652375,0,-0.0013789437944069505,0.0009591028792783618,0.025602925568819046,6.935757119208574e-05,0.00024670519633218646,0.0020342660136520863,0,2,-1000,0,0,0,-1,0,0,1500.0
13:49:36.685,STABILIZE,-35.3632621,149.1652375,0,-0.0013789437944069505,0.0009591028792783618,0.025602925568819046,6.935757119208574e-05,0.00024670519633218646,0.0020342660136520863,0,2,-1000,0,0,0,-1,0,0,1500.0
13:49:36.886,STABILIZE,-35.3632621,149.1652375,0,-0.001359346555545926,0.0009356191148981452,0.025404786691069603,0.00012829352635890245,0.00018410495249554515,0.0019364445470273495,0,1,-1000,0,0,0,-1,0,0,1500.0
13:49:37.088,STABILIZE,-35.3632621,149.1652375,0,-0.0013477322645485401,0.000940843834541738,0.025353748351335526,0.00024372403277084231,0.0003125558723695576,0.001995194237679243,0,1,-1000,0,0,0,-1,0,0,1500.0
13:49:37.289,STABILIZE,-35.3632621,149.1652375,0,-0.0013477322645485401,0.000940843834541738,0.025353748351335526,0.00024372403277084231,0.0003125558723695576,0.001995194237679243,0,1,-1000,0,0,0,-1,0,0,1500.0
13:49:37.490,STABILIZE,-35.3632621,149.1652375,0,-0.0013264268636703491,0.0009432938531972468,0.02530479244887829,0.0001995061174966395,0.00035373528953641653,0.0018902537412941456,0,1,-1000,1,0,0,-1,0,0,1500.0
13:49:37.691,STABILIZE,-35.3632621,149.1652375,0,-0.0013264268636703491,0.0009432938531972468,0.02530479244887829,0.0001995061174966395,0.00035373528953641653,0.0018902537412941456,0,1,-1000,1,0,0,-1,0,0,1500.0
13:49:37.893,STABILIZE,-35.3632621,149.1652375,0,-0.0013264268636703491,0.0009432938531972468,0.02530479244887829,0.0001995061174966395,0.00035373528953641653,0.0018902537412941456,0,1,-1000,1,0,0,-1,0,0,1500.0
13:49:38.094,STABILIZE,-35.3632621,149.1652375,0,-0.0009885166073217988,0.0009494292316958308,0.025084447115659714,0.00017535226652398705,0.00034783314913511276,0.0017692098626866937,0,1,-1000,0,0,0,-1,1,0,1500.0
13:49:38.295,STABILIZE,-35.3632621,149.1652375,0,-0.0009885166073217988,0.0009494292316958308,0.025084447115659714,0.00017535226652398705,0.00034783314913511276,0.0017692098626866937,0,1,-1000,0,0,0,-1,1,0,1500.0
13:49:38.497,STABILIZE,-35.3632621,149.1652375,0,-0.0009885166073217988,0.0009494292316958308,0.025084447115659714,0.00017535226652398705,0.00034783314913511276,0.0017692098626866937,0,1,-1000,0,0,0,-1,1,0,1500.0
13:49:38.698,STABILIZE,-35.3632621,149.1652375,0,-0.001036173664033413,0.0009539084858261049,0.0248945914208889,0.00026302074547857046,0.00029930268647149205,0.0017612711526453495,0,1,-1000,0,0,0,-1,1,0,1500.0
13:49:38.899,STABILIZE,-35.3632621,149.1652375,0,-0.001036173664033413,0.0009539084858261049,0.0248945914208889,0.00026302074547857046,0.00029930268647149205,0.0017612711526453495,0,1,-1000,0,0,0,-1,1,0,1500.0
13:49:39.101,STABILIZE,-35.3632621,149.1652375,0,-0.001036173664033413,0.0009539084858261049,0.0248945914208889,0.00026302074547857046,0.00029930268647149205,0.0017612711526453495,0,1,-1000,0,0,0,-1,1,0,1500.0
13:49:39.302,STABILIZE,-35.3632621,149.1652375,0,-0.001036173664033413,0.0009539084858261049,0.0248945914208889,0.00026302074547857046,0.00029930268647149205,0.0017612711526453495,0,1,-1000,0,0,0,-1,1,0,1500.0
13:49:39.504,STABILIZE,-35.3632622,149.1652375,0,-0.001036173664033413,0.0009539084858261049,0.0248945914208889,0.00026302074547857046,0.00029930268647149205,0.0017612711526453495,0,2,-1000,0,1,0,-1,1,0,1500.0
13:49:39.705,STABILIZE,-35.3632622,149.1652375,0,-0.001036173664033413,0.0009539084858261049,0.0248945914208889,0.00026302074547857046,0.00029930268647149205,0.0017612711526453495,0,2,-1000,0,1,0,-1,1,0,1500.0
13:49:39.907,STABILIZE,-35.3632622,149.1652375,0,-0.001036173664033413,0.0009539084858261049,0.0248945914208889,0.00026302074547857046,0.00029930268647149205,0.0017612711526453495,0,2,-1000,0,1,0,-1,1,0,1500.0
13:49:40.109,STABILIZE,-35.3632622,149.1652375,0,-0.0011512481141835451,0.0009616216411814094,0.024446237832307816,0.0003231821465305984,0.00026588805485516787,0.0018025001045316458,0,2,-1000,0,0,1,-1,1,0,1500.0
13:49:40.311,STABILIZE,-35.3632622,149.1652375,0,-0.0011512481141835451,0.0009616216411814094,0.024446237832307816,0.0003231821465305984,0.00026588805485516787,0.0018025001045316458,0,2,-1000,0,0,1,-1,1,0,1500.0
13:49:40.512,STABILIZE,-35.3632622,149.1652375,0,-0.0011512481141835451,0.0009616216411814094,0.024446237832307816,0.0003231821465305984,0.00026588805485516787,0.0018025001045316458,0,2,-1000,0,0,1,-1,1,0,1500.0
13:49:40.715,STABILIZE,-35.3632622,149.1652375,0,-0.0011850885348394513,0.0009772258345037699,0.024323638528585434,0.00016463286010548472,0.00030553439864888787,0.0017593286465853453,0,1,-1000,0,1,0,-1,1,0,1500.0
13:49:40.916,STABILIZE,-35.3632622,149.1652375,0,-0.0011850885348394513,0.0009772258345037699,0.024323638528585434,0.00016463286010548472,0.00030553439864888787,0.0017593286465853453,0,1,-1000,0,1,0,-1,1,0,1500.0
13:49:41.118,STABILIZE,-35.3632622,149.1652375,0,-0.0012135927099734545,0.0009660536306910217,0.02416643500328064,0.0001860505435615778,0.00022984982933849096,0.0017304560169577599,0,1,-1000,0,1,0,-1,1,-1,1500.0
13:49:41.319,STABILIZE,-35.3632622,149.1652375,0,-0.0009069358929991722,0.0009719981462694705,0.02411251701414585,0.00017315911827608943,0.00025026744697242975,0.0017154028173536062,0,1,-1000,0,0,0,-1,2,0,1500.0
13:49:41.521,STABILIZE,-35.3632622,149.1652375,0,-0.0009069358929991722,0.0009719981462694705,0.02411251701414585,0.00017315911827608943,0.00025026744697242975,0.0017154028173536062,0,1,-1000,0,0,0,-1,2,0,1500.0
13:49:41.722,STABILIZE,-35.3632622,149.1652375,0,-0.0009069358929991722,0.0009719981462694705,0.02411251701414585,0.00017315911827608943,0.00025026744697242975,0.0017154028173536062,0,1,-1000,0,0,0,-1,2,0,1500.0
13:49:41.923,STABILIZE,-35.3632622,149.1652375,0,-0.0009069358929991722,0.0009719981462694705,0.02411251701414585,0.00017315911827608943,0.00025026744697242975,0.0017154028173536062,0,1,-1000,0,0,0,-1,2,0,1500.0
13:49:42.125,STABILIZE,-35.3632622,149.1652375,0,-0.001054462161846459,0.0009546761866658926,0.023892847821116447,0.0001442068605683744,0.00011297204764559865,0.0016412691911682487,0,1,-1000,0,0,0,-1,2,0,1500.0
13:49:42.326,STABILIZE,-35.3632622,149.1652375,0,-0.001054462161846459,0.0009546761866658926,0.023892847821116447,0.0001442068605683744,0.00011297204764559865,0.0016412691911682487,0,1,-1000,0,0,1,-1,2,0,1500.0
13:49:42.527,STABILIZE,-35.3632622,149.1652375,0,-0.001054462161846459,0.0009546761866658926,0.023892847821116447,0.0001442068605683744,0.00011297204764559865,0.0016412691911682487,0,1,-1000,0,0,1,-1,2,0,1500.0
13:49:42.729,AUTO,-35.3632622,149.1652375,0,-0.0011517178500071168,0.0009677642374299467,0.02376468852162361,0.00029523606644943357,0.000306806992739439,0.0017252836842089891,0,1,-1000,0,1,1,-1,1,0,1500.0
13:49:42.932,AUTO,-35.3632622,149.1652375,2,-0.0011979499831795692,0.0009579469915479422,0.02369624935090542,0.00024028512416407466,0.000323507993016392,0.0016076284227892756,0,1,-1000,0,0,1,-1,1,0,1500.0
13:49:43.133,AUTO,-35.3632622,149.1652375,2,-0.0012235947651788592,0.0009570057154633105,0.023658759891986847,0.0002539495471864939,0.00026710936799645424,0.0016930195270106196,0,2,-1000,0,1,1,-1,1,0,1500.0
13:49:43.335,AUTO,-35.3632622,149.1652375,3,-0.0012445870088413358,0.0009626487153582275,0.023587951436638832,0.00023332546697929502,0.00026758969761431217,0.0016116724582388997,0,2,-1000,0,0,1,-1,1,0,1500.0
13:49:43.537,AUTO,-35.3632622,149.1652375,3,-0.0012445870088413358,0.0009626487153582275,0.023587951436638832,0.00023332546697929502,0.00026758969761431217,0.0016116724582388997,0,2,-1000,0,0,1,-1,1,0,1500.0
13:49:43.739,AUTO,-35.3632622,149.1652375,3,-0.0012445870088413358,0.0009626487153582275,0.023587951436638832,0.00023332546697929502,0.00026758969761431217,0.0016116724582388997,0,2,-1000,0,0,1,-1,1,0,1500.0
13:49:43.941,AUTO,-35.3632622,149.1652375,3,-0.0012445870088413358,0.0009626487153582275,0.023587951436638832,0.00023332546697929502,0.00026758969761431217,0.0016116724582388997,0,2,-1000,0,0,1,-1,1,0,1500.0
13:49:44.143,AUTO,-35.3632621,149.1652375,5,-0.0012098891893401742,0.0010797202121466398,0.02340853586792946,0.000219921232201159,0.00027407787274569273,0.0014732970157638192,0,2,-1000,0,1,0,0,0,0,1500.0
13:49:44.355,AUTO,-35.3632621,149.1652375,6,-0.0011783045483753085,0.0011428723810240626,0.023350756615400314,0.0001849051914177835,0.00021356478100642562,0.0016208660090342164,0,2,-1000,0,0,0,0,0,0,1500.0
13:49:44.589,AUTO,-35.3632621,149.1652375,6,-0.0008279791800305247,0.0012100875610485673,0.02329028770327568,0.004346038214862347,0.000355467782355845,0.0015946225030347705,0,25,-964,4,0,0,0,0,0,1500.0
13:49:44.807,AUTO,-35.3632621,149.1652375,4,-0.0007856793235987425,0.0012769525637850165,0.02323557250201702,0.00023902131943032146,0.000244392198510468,0.0016002089250832796,0,25,-964,4,0,0,0,0,0,1500.0
13:49:45.118,AUTO,-35.3632621,149.1652375,3,-0.0007430589175783098,0.0013407677179202437,0.023156873881816864,0.0002771426225081086,0.00032489642035216093,0.001502386061474681,0,1,-1000,0,1,0,0,0,0,1500.0
13:49:45.375,AUTO,-35.3632621,149.1652375,3,-0.0006942218169569969,0.0014089893084019423,0.02307989075779915,0.00029148918110877275,0.00031731813214719296,0.0015074026305228472,0,1,-1000,1,1,0,0,0,0,1500.0
13:49:45.578,AUTO,-35.3632621,149.1652375,3,-0.0006942218169569969,0.0014089893084019423,0.02307989075779915,0.00029148918110877275,0.00031731813214719296,0.0015074026305228472,0,1,-1000,1,1,0,0,0,0,1500.0
13:49:45.787,AUTO,-35.3632621,149.1652375,3,-0.0006942218169569969,0.0014089893084019423,0.02307989075779915,0.00029148918110877275,0.00031731813214719296,0.0015074026305228472,0,1,-1000,1,1,0,0,0,0,1500.0
13:49:45.997,AUTO,-35.3632621,149.1652375,3,-0.0006942218169569969,0.0014089893084019423,0.02307989075779915,0.00029148918110877275,0.00031731813214719296,0.0015074026305228472,0,1,-1000,1,1,0,0,0,0,1500.0
13:49:46.198,AUTO,-35.3632621,149.1652375,4,-0.0005378169007599354,0.0016368735814467072,0.022877469658851624,0.00026073300978168845,0.0003877379931509495,0.0015124863712117076,0,1,-1000,0,1,0,0,0,0,9622.0
13:49:46.400,AUTO,-35.3632621,149.1652375,5,-0.00047285042819567025,0.001708385068923235,0.022793862968683243,0.00037076184526085854,0.00028428802033886313,0.0014884863048791885,0,1,-1000,0,0,0,0,0,0,9622.0
13:49:46.602,AUTO,-35.3632621,149.1652375,7,0.0009132861159741879,0.0012134539429098368,0.02278655767440796,0.012156650424003601,-0.012456105090677738,0.0024489767383784056,0,-1,-1077,12,-11,1,0,0,-4,9622.0
13:49:46.803,AUTO,-35.3632621,149.1652375,61,0.004484628327190876,-0.000640559708699584,0.022840971127152443,0.002602980937808752,-0.0018987392541021109,0.0019840640015900135,0,0,-1140,3,-1,1,0,0,-38,9622.0
13:49:47.005,AUTO,-35.3632621,149.1652375,61,0.004484628327190876,-0.000640559708699584,0.022840971127152443,0.002602980937808752,-0.0018987392541021109,0.0019840640015900135,0,0,-1140,3,-1,1,0,0,-38,9622.0
13:49:47.207,AUTO,-35.3632621,149.1652375,203,0.003754640929400921,0.00017485651187598705,0.022745613008737564,0.0013781634625047445,0.004575034137815237,0.00015652290312573314,0,0,-1129,1,5,0,0,1,-72,9622.0
13:49:47.410,AUTO,-35.3632621,149.1652375,419,0.002158339833840728,0.001233071438036859,0.022680701687932014,-0.013278966769576073,0.0033166753128170967,0.0027804479468613863,0,0,-1108,-12,3,2,0,1,-100,9622.0
13:49:47.612,AUTO,-35.3632621,149.1652375,419,0.002158339833840728,0.001233071438036859,0.022680701687932014,-0.013278966769576073,0.0033166753128170967,0.0027804479468613863,0,0,-1108,-12,3,2,0,1,-100,9622.0
13:49:47.814,AUTO,-35.3632621,149.1652375,419,0.002158339833840728,0.001233071438036859,0.022680701687932014,-0.013278966769576073,0.0033166753128170967,0.0027804479468613863,0,0,-1108,-12,3,2,0,1,-100,9622.0
13:49:48.015,AUTO,-35.3632621,149.1652375,419,0.002158339833840728,0.001233071438036859,0.022680701687932014,-0.013278966769576073,0.0033166753128170967,0.0027804479468613863,0,0,-1108,-12,3,2,0,1,-100,9622.0
13:49:48.217,AUTO,-35.363262,149.1652375,1401,0.02159770019352436,-0.0007915509631857276,0.02234470844268799,0.04620938003063202,-0.0075500961393117905,0.002208478283137083,0,0,-1017,47,-6,1,0,5,-145,9622.0
13:49:48.419,AUTO,-35.363262,149.1652378,1779,0.032937951385974884,-0.002772785257548094,0.022455522790551186,0.04452695697546005,-0.008239923045039177,0.0028430905658751726,0,-1,-1007,45,-7,2,1,11,-148,9622.0
13:49:48.620,AUTO,-35.3632619,149.1652382,2163,0.04379470646381378,-0.0050413538701832294,0.02267128974199295,0.042763493955135345,-0.009377804584801197,0.0037438899744302034,0,-2,-1002,43,-8,3,3,19,-149,9622.0
13:49:48.822,AUTO,-35.3632618,149.1652388,2548,0.05383053049445152,-0.007700743619352579,0.022935258224606514,0.03902912512421608,-0.011271265335381031,0.003607887774705887,1,-5,-1000,39,-10,3,5,30,-149,9622.0
13:49:49.024,AUTO,-35.3632618,149.1652388,2548,0.05383053049445152,-0.007700743619352579,0.022935258224606514,0.03902912512421608,-0.011271265335381031,0.003607887774705887,1,-5,-1000,39,-10,3,5,30,-149,9622.0
13:49:49.225,AUTO,-35.3632616,149.1652398,2933,0.06151551008224487,-0.009524905122816563,-0.006658302620053291,-0.00774605106562376,0.01674886792898178,-0.039737652987241745,1,-7,-992,-6,17,-40,8,42,-149,9622.0
13:49:49.427,AUTO,-35.3632614,149.1652411,3314,0.042405471205711365,0.01197031605988741,-0.02875816822052002,-0.13076037168502808,0.10550324618816376,-0.1073363721370697,4,-11,-991,-130,106,-107,10,52,-147,9622.0
13:49:49.630,AUTO,-35.3632614,149.1652411,3314,0.042405471205711365,0.01197031605988741,-0.02875816822052002,-0.13076037168502808,0.10550324618816376,-0.1073363721370697,4,-11,-991,-130,106,-107,10,52,-147,9622.0
13:49:49.832,AUTO,-35.3632614,149.1652411,3314,0.042405471205711365,0.01197031605988741,-0.02875816822052002,-0.13076037168502808,0.10550324618816376,-0.1073363721370697,4,-11,-991,-130,106,-107,10,52,-147,9622.0
13:49:50.034,AUTO,-35.3632614,149.1652411,3314,0.042405471205711365,0.01197031605988741,-0.02875816822052002,-0.13076037168502808,0.10550324618816376,-0.1073363721370697,4,-11,-991,-130,106,-107,10,52,-147,9622.0
13:49:50.251,AUTO,-35.3632609,149.1652451,4452,-0.028631938621401787,0.00034809039789251983,-0.05630103498697281,-0.017438456416130066,-0.024349676445126534,-0.021250326186418533,4,-7,-1006,-16,-23,-21,4,38,-150,9622.0
13:49:50.501,AUTO,-35.3632607,149.165246,4839,-0.038621895015239716,-0.0006353186327032745,-0.06420550495386124,-0.06122381612658501,0.013243703171610832,-0.043262042105197906,3,-7,-999,-60,13,-43,5,27,-151,9622.0
13:49:50.720,AUTO,-35.3632606,149.1652466,5225,-0.05818509683012962,0.004133808426558971,-0.07766007632017136,-0.09312111139297485,0.024064499884843826,-0.05602891743183136,1,-5,-998,-92,24,-56,5,14,-150,9622.0
13:49:51.018,AUTO,-35.3632605,149.1652468,5608,-0.08244600892066956,0.008533136919140816,-0.0926823765039444,-0.05602789297699928,0.016932902857661247,-0.04972320422530174,0,-1,-1005,-55,17,-50,2,-4,-149,9622.0
13:49:51.253,AUTO,-35.3632604,149.1652464,5992,-0.07983028888702393,0.00842257495969534,-0.10314706712961197,0.045621104538440704,-0.002412624889984727,-0.03387095034122467,-2,2,-1004,46,-1,-34,-1,-24,-150,9622.0
13:49:51.456,AUTO,-35.3632605,149.1652456,6375,-0.06688408553600311,0.007782771717756987,-0.11046438664197922,0.055375177413225174,0.0013959138887003064,-0.02334604412317276,-3,6,-1001,55,1,-23,-5,-41,-150,9622.0
13:49:51.668,AUTO,-35.3632605,149.1652456,6375,-0.06688408553600311,0.007782771717756987,-0.11046438664197922,0.055375177413225174,0.0013959138887003064,-0.02334604412317276,-3,6,-1001,55,1,-23,-5,-41,-150,9622.0
13:49:51.870,AUTO,-35.3632605,149.1652456,6375,-0.06688408553600311,0.007782771717756987,-0.11046438664197922,0.055375177413225174,0.0013959138887003064,-0.02334604412317276,-3,6,-1001,55,1,-23,-5,-41,-150,9622.0
13:49:52.072,AUTO,-35.3632605,149.1652456,6375,-0.06688408553600311,0.007782771717756987,-0.11046438664197922,0.055375177413225174,0.0013959138887003064,-0.02334604412317276,-3,6,-1001,55,1,-23,-5,-41,-150,28037.0
13:49:52.274,AUTO,-35.3632614,149.1652402,7677,-0.012790103442966938,0.013373750261962414,-0.12098241597414017,0.06981033831834793,0.009624691680073738,-0.003547709435224533,-4,13,-1003,70,10,-4,-19,-66,-151,28037.0
13:49:52.476,AUTO,-35.3632618,149.1652384,8064,0.004923068452626467,0.015775809064507484,-0.12140325456857681,0.07100079953670502,0.008523836731910706,-0.0012205869425088167,-8,17,-1004,71,9,-1,-23,-63,-152,28037.0
13:49:52.678,AUTO,-35.3632624,149.1652367,8454,0.022631585597991943,0.017418740317225456,-0.12095269560813904,0.0714980810880661,0.005618446506559849,0.0014298387104645371,-3,15,-1004,72,6,0,-27,-56,-153,28037.0
13:49:52.880,AUTO,-35.3632624,149.1652367,8454,0.022631585597991943,0.017418740317225456,-0.12095269560813904,0.0714980810880661,0.005618446506559849,0.0014298387104645371,-3,15,-1004,72,6,0,-27,-56,-153,28037.0
13:49:53.081,AUTO,-35.363263,149.1652352,8845,0.04021623358130455,0.01810135506093502,-0.11981984227895737,0.06936507672071457,0.0004122124519199133,0.0030520728323608637,-4,15,-1004,69,0,2,-30,-45,-154,28037.0
13:49:53.283,AUTO,-35.3632638,149.1652341,9239,0.05716092512011528,0.017250392585992813,-0.11824946850538254,0.06695787608623505,-0.005895582959055901,0.0050485702231526375,2,11,-1003,67,-5,4,-33,-30,-154,28037.0
13:49:53.486,AUTO,-35.3632645,149.1652335,9632,0.06742433458566666,0.010172707028687,-0.11148714274168015,-0.005658993497490883,-0.0671277791261673,0.06423924118280411,2,8,-995,-5,-66,63,-33,-12,-154,28037.0
13:49:53.688,AUTO,-35.3632645,149.1652335,9632,0.06742433458566666,0.010172707028687,-0.11148714274168015,-0.005658993497490883,-0.0671277791261673,0.06423924118280411,2,8,-995,-5,-66,63,-33,-12,-154,28037.0
13:49:53.890,AUTO,-35.3632645,149.1652335,9632,0.06742433458566666,0.010172707028687,-0.11148714274168015,-0.005658993497490883,-0.0671277791261673,0.06423924118280411,2,8,-995,-5,-66,63,-33,-12,-154,28037.0
13:49:54.092,AUTO,-35.3632645,149.1652335,9632,0.06742433458566666,0.010172707028687,-0.11148714274168015,-0.005658993497490883,-0.0671277791261673,0.06423924118280411,2,8,-995,-5,-66,63,-33,-12,-154,28037.0
13:49:54.294,AUTO,-35.363266,149.165234,10797,0.0475124716758728,-0.07255114614963531,-0.034018710255622864,0.008034792728722095,-0.07064235210418701,0.10917622596025467,4,-1,-1002,8,-70,108,0,26,-152,28037.0
13:49:54.496,AUTO,-35.3632658,149.1652348,11191,0.050509072840213776,-0.08641375601291656,-0.010972720570862293,0.02198038436472416,-0.03582951799035072,0.08575968444347382,2,-6,-999,22,-35,85,20,36,-151,28037.0
13:49:54.698,AUTO,-35.3632652,149.1652359,11571,0.03144027292728424,-0.07744947820901871,-0.009598116390407085,-0.13414184749126434,0.10192278772592545,-0.05095384269952774,-3,-11,-990,-133,102,-51,41,43,-147,28037.0
13:49:54.900,AUTO,-35.3632652,149.1652359,11571,0.03144027292728424,-0.07744947820901871,-0.009598116390407085,-0.13414184749126434,0.10192278772592545,-0.05095384269952774,-3,-11,-990,-133,102,-51,41,43,-147,28037.0
13:49:55.167,AUTO,-35.3632629,149.165238,12321,-0.0322466604411602,-0.011316142976284027,-0.06802475452423096,-0.08252142369747162,0.11477845162153244,-0.13559220731258392,-6,-14,-1013,-82,115,-135,60,32,-149,28037.0
13:49:55.405,AUTO,-35.3632629,149.165238,12321,-0.0322466604411602,-0.011316142976284027,-0.06802475452423096,-0.08252142369747162,0.11477845162153244,-0.13559220731258392,-6,-14,-1013,-82,115,-135,60,32,-149,28037.0
13:49:55.663,AUTO,-35.3632616,149.1652387,12701,-0.04716835170984268,0.010201003402471542,-0.10198908299207687,-0.03760039061307907,0.07333358377218246,-0.12713754177093506,-8,-14,-1012,-37,74,-127,57,18,-151,28037.0
13:49:55.950,AUTO,-35.3632616,149.1652387,12701,-0.04716835170984268,0.010201003402471542,-0.10198908299207687,-0.03760039061307907,0.07333358377218246,-0.12713754177093506,-8,-14,-1012,-37,74,-127,57,18,-151,28037.0
13:49:56.220,AUTO,-35.3632585,149.1652386,13872,-0.03887521103024483,0.038297150284051895,-0.174978107213974,0.04097866266965866,0.019424906000494957,-0.05839056521654129,-10,-3,-1002,41,20,-58,26,-20,-155,28037.0
13:49:56.422,AUTO,-35.363258,149.1652379,14264,-0.028284674510359764,0.04211805388331413,-0.18736496567726135,0.04695609211921692,0.016372481361031532,-0.0432046577334404,-6,1,-1001,47,16,-43,14,-26,-154,28037.0
13:49:56.628,AUTO,-35.363258,149.1652379,14264,-0.028284674510359764,0.04211805388331413,-0.18736496567726135,0.04695609211921692,0.016372481361031532,-0.0432046577334404,-6,1,-1001,47,16,-43,14,-26,-154,28037.0
13:49:56.831,AUTO,-35.3632578,149.1652371,14656,-0.016428399831056595,0.04550556465983391,-0.196175679564476,0.05124305561184883,0.01309354230761528,-0.031071003526449203,-6,3,-1001,51,13,-31,1,-29,-154,20809.0
13:49:57.033,AUTO,-35.3632579,149.1652363,15049,-0.0034696070943027735,0.04794611409306526,-0.20220066606998444,0.05464661866426468,0.008257266134023666,-0.02174823358654976,-4,5,-1000,55,9,-22,-10,-29,-154,20809.0
13:49:57.235,AUTO,-35.3632581,149.1652355,15441,0.010393279604613781,0.04902452975511551,-0.20601893961429596,0.05739206075668335,0.0018482274608686566,-0.01463708933442831,-3,7,-1001,57,2,-14,-21,-24,-154,20809.0
13:49:57.437,AUTO,-35.3632586,149.1652349,15835,0.024909427389502525,0.04833012446761131,-0.20793567597866058,0.05931149050593376,-0.005501304287463427,-0.00918280053883791,0,7,-1001,60,-4,-9,-31,-17,-154,20809.0
13:49:57.639,AUTO,-35.3632586,149.1652349,15835,0.024909427389502525,0.04833012446761131,-0.20793567597866058,0.05931149050593376,-0.005501304287463427,-0.00918280053883791,0,7,-1001,60,-4,-9,-31,-17,-154,20809.0
13:49:57.841,AUTO,-35.3632586,149.1652349,15835,0.024909427389502525,0.04833012446761131,-0.20793567597866058,0.05931149050593376,-0.005501304287463427,-0.00918280053883791,0,7,-1001,60,-4,-9,-31,-17,-154,20809.0
13:49:58.043,AUTO,-35.3632586,149.1652349,15835,0.024909427389502525,0.04833012446761131,-0.20793567597866058,0.05931149050593376,-0.005501304287463427,-0.00918280053883791,0,7,-1001,60,-4,-9,-31,-17,-154,20809.0
13:49:58.246,AUTO,-35.3632612,149.1652348,16999,0.040333133190870285,0.006514495238661766,-0.18225990235805511,-0.03829347342252731,-0.1257857233285904,0.10640819370746613,9,5,-999,-37,-125,105,-45,18,-152,20809.0
13:49:58.448,AUTO,-35.3632621,149.1652352,17384,0.029169214889407158,-0.028925767168402672,-0.15163278579711914,-0.04348552227020264,-0.14103704690933228,0.13746146857738495,9,1,-1003,-42,-140,137,-37,26,-152,20809.0
13:49:58.650,AUTO,-35.3632621,149.1652352,17384,0.029169214889407158,-0.028925767168402672,-0.15163278579711914,-0.04348552227020264,-0.14103704690933228,0.13746146857738495,9,1,-1003,-42,-140,137,-37,26,-152,20809.0
13:49:58.851,AUTO,-35.3632627,149.1652359,17770,0.014465118758380413,-0.057718802243471146,-0.1230928897857666,-0.07528720051050186,-0.051470912992954254,0.06770738214254379,8,0,-1001,-74,-50,67,-22,29,-152,20809.0
13:49:59.054,AUTO,-35.363263,149.1652367,18156,-0.005529206711798906,-0.053876761347055435,-0.11882177740335464,-0.06917493045330048,0.05678854510188103,-0.02183258906006813,6,-3,-1001,-68,57,-22,-6,27,-152,20809.0
13:49:59.256,AUTO,-35.363263,149.1652373,18543,-0.019423460587859154,-0.036712754517793655,-0.13128811120986938,-0.042193930596113205,0.07004104554653168,-0.06419790536165237,3,-4,-1003,-41,70,-64,5,20,-152,20809.0
13:49:59.458,AUTO,-35.3632627,149.1652377,18930,-0.025283943861722946,-0.02139362506568432,-0.15081876516342163,-0.014879756607115269,0.055884525179862976,-0.08009860664606094,0,-4,-1003,-14,56,-80,12,12,-153,20809.0
13:49:59.662,AUTO,-35.3632627,149.1652377,18930,-0.025283943861722946,-0.02139362506568432,-0.15081876516342163,-0.014879756607115269,0.055884525179862976,-0.08009860664606094,0,-4,-1003,-14,56,-80,12,12,-153,20809.0
13:49:59.876,AUTO,-35.3632627,149.1652377,18930,-0.025283943861722946,-0.02139362506568432,-0.15081876516342163,-0.014879756607115269,0.055884525179862976,-0.08009860664606094,0,-4,-1003,-14,56,-80,12,12,-153,20809.0
13:50:00.078,AUTO,-35.3632627,149.1652377,18930,-0.025283943861722946,-0.02139362506568432,-0.15081876516342163,-0.014879756607115269,0.055884525179862976,-0.08009860664606094,0,-4,-1003,-14,56,-80,12,12,-153,20809.0
13:50:00.280,AUTO,-35.3632618,149.1652376,20098,-0.017137963324785233,0.004438732750713825,-0.20918597280979156,0.029772210866212845,0.023697275668382645,-0.06213643401861191,-4,-1,-1002,30,24,-62,13,-9,-154,20809.0
13:50:00.577,AUTO,-35.3632615,149.1652373,20492,-0.009469689801335335,0.009939765557646751,-0.22436444461345673,0.03361718729138374,0.021922774612903595,-0.05549832060933113,-4,0,-1001,34,22,-56,10,-13,-154,20809.0
13:50:00.813,AUTO,-35.3632612,149.1652368,20882,-0.0009998454479500651,0.014963274821639061,-0.2372782677412033,0.0368957594037056,0.019210949540138245,-0.04809098690748215,-4,0,-1001,37,20,-48,6,-14,-154,20809.0
13:50:01.074,AUTO,-35.3632611,149.1652364,21274,0.0070196460001170635,0.018505794927477837,-0.24737843871116638,0.03046957217156887,0.008569033816456795,-0.0334441140294075,-4,1,-1000,31,9,-33,2,-12,-155,20809.0
13:50:01.371,AUTO,-35.363261,149.1652361,21666,0.011922032572329044,0.01880667358636856,-0.2536746859550476,0.014757969416677952,-0.0020534228533506393,-0.018645908683538437,-3,1,-999,15,-1,-19,-1,-9,-154,20809.0
13:50:01.575,AUTO,-35.3632611,149.1652358,22056,0.014151593670248985,0.01706301048398018,-0.25691789388656616,0.004609817173331976,-0.008922960609197617,-0.008664224296808243,-1,1,-999,5,-8,-9,-4,-5,-154,20809.0
13:50:01.777,AUTO,-35.3632611,149.1652358,22056,0.014151593670248985,0.01706301048398018,-0.25691789388656616,0.004609817173331976,-0.008922960609197617,-0.008664224296808243,-1,1,-999,5,-8,-9,-4,-5,-154,20809.0
13:50:01.983,AUTO,-35.3632611,149.1652358,22056,0.014151593670248985,0.01706301048398018,-0.25691789388656616,0.004609817173331976,-0.008922960609197617,-0.008664224296808243,-1,1,-999,5,-8,-9,-4,-5,-154,20809.0
13:50:02.187,AUTO,-35.3632613,149.1652356,23220,0.010942522436380386,0.008869096636772156,-0.2597702741622925,-0.01106246281415224,-0.009929576888680458,-0.002358023077249527,1,0,-999,-10,-8,-2,-9,5,-153,52010.0
13:50:02.389,AUTO,-35.3632613,149.1652356,23220,0.010942522436380386,0.008869096636772156,-0.2597702741622925,-0.01106246281415224,-0.009929576888680458,-0.002358023077249527,1,0,-999,-10,-8,-2,-9,5,-153,52010.0
13:50:02.590,AUTO,-35.3632615,149.1652357,23608,0.008233245462179184,0.00630059652030468,-0.2607150673866272,-0.012043658643960953,-0.00953560508787632,-0.003204510547220707,1,0,-999,-11,-8,-3,-9,7,-153,52010.0
13:50:02.792,AUTO,-35.3632616,149.1652358,23997,0.005703619681298733,0.004214563872665167,-0.2625373303890228,-0.00887119397521019,-0.007728402502834797,-0.009009144268929958,2,0,-1000,-7,-7,-9,-9,8,-153,52010.0
13:50:02.994,AUTO,-35.3632618,149.165236,24386,0.0036688908003270626,0.0025977506302297115,-0.26526498794555664,-0.008475829847157001,-0.004870654083788395,-0.011873794719576836,2,0,-1000,-7,-3,-12,-8,8,-153,52010.0
13:50:03.196,AUTO,-35.3632619,149.1652362,24774,0.002006391528993845,0.0012241717195138335,-0.2685963809490204,-0.004608022980391979,-0.0047504836693406105,-0.012615176849067211,1,0,-1001,-3,-4,-13,-7,8,-153,52010.0
13:50:03.398,AUTO,-35.3632619,149.1652362,24774,0.002006391528993845,0.0012241717195138335,-0.2685963809490204,-0.004608022980391979,-0.0047504836693406105,-0.012615176849067211,1,0,-1001,-3,-4,-13,-7,8,-153,52010.0
13:50:03.600,AUTO,-35.363262,149.1652364,25166,-0.009631206281483173,7.231238123495132e-05,-0.2726820707321167,-0.09123174101114273,-0.0033901818096637726,-0.017821429297327995,1,0,-996,-90,-2,-18,-6,7,-152,52010.0
13:50:03.802,AUTO,-35.363262,149.1652364,25166,-0.009631206281483173,7.231238123495132e-05,-0.2726820707321167,-0.09123174101114273,-0.0033901818096637726,-0.017821429297327995,1,0,-996,-90,-2,-18,-6,7,-152,52010.0
13:50:04.004,AUTO,-35.363262,149.1652364,25166,-0.009631206281483173,7.231238123495132e-05,-0.2726820707321167,-0.09123174101114273,-0.0033901818096637726,-0.017821429297327995,1,0,-996,-90,-2,-18,-6,7,-152,52010.0
13:50:04.206,AUTO,-35.3632623,149.1652364,26328,-0.0004632996569853276,-0.0007237346726469696,-0.2883068919181824,0.03116879053413868,0.0012274107430130243,-0.019654836505651474,0,1,-1001,31,2,-19,-6,-1,-154,52010.0
13:50:04.408,AUTO,-35.3632624,149.1652364,26719,0.0056311157532036304,-0.0002437672665109858,-0.291912704706192,0.02308679185807705,0.005251482594758272,-0.007171779405325651,0,1,-998,23,6,-7,-5,-1,-154,52010.0
13:50:04.610,AUTO,-35.3632624,149.1652364,26719,0.0056311157532036304,-0.0002437672665109858,-0.291912704706192,0.02308679185807705,0.005251482594758272,-0.007171779405325651,0,1,-998,23,6,-7,-5,-1,-154,52010.0
13:50:04.812,AUTO,-35.3632625,149.1652363,27108,0.010180042125284672,0.0010164808481931686,-0.2920631766319275,0.01748093031346798,0.0068207853473722935,0.006249020807445049,0,0,-998,17,7,5,-4,0,-154,52010.0
13:50:05.014,AUTO,-35.3632625,149.1652363,27497,0.01246386393904686,0.0020127275492995977,-0.289505273103714,0.004703907296061516,0.004438112489879131,0.014774126932024956,0,0,-998,5,5,14,-3,2,-153,52010.0
13:50:05.215,AUTO,-35.3632626,149.1652364,27886,0.012617942877113819,0.002347926376387477,-0.2852965295314789,-0.0009673985186964273,0.001807771623134613,0.018308283761143684,0,0,-1000,0,2,18,-2,5,-153,52010.0
13:50:05.417,AUTO,-35.3632626,149.1652364,28274,0.011433850042521954,0.0024425832089036703,-0.28015241026878357,-0.006563105620443821,-0.0011714976280927658,0.02200598083436489,0,0,-999,-5,0,21,-1,7,-153,52010.0
13:50:05.619,AUTO,-35.3632626,149.1652364,28274,0.011433850042521954,0.0024425832089036703,-0.28015241026878357,-0.006563105620443821,-0.0011714976280927658,0.02200598083436489,0,0,-999,-5,0,21,-1,7,-153,52010.0
13:50:05.821,AUTO,-35.3632626,149.1652364,28274,0.011433850042521954,0.0024425832089036703,-0.28015241026878357,-0.006563105620443821,-0.0011714976280927658,0.02200598083436489,0,0,-999,-5,0,21,-1,7,-153,52010.0
13:50:06.023,AUTO,-35.3632626,149.1652364,28274,0.011433850042521954,0.0024425832089036703,-0.28015241026878357,-0.006563105620443821,-0.0011714976280927658,0.02200598083436489,0,0,-999,-5,0,21,-1,7,-153,52010.0
13:50:06.267,AUTO,-35.3632626,149.1652369,29435,0.004491761326789856,0.00247217551805079,-0.26257821917533875,-0.010032504796981812,1.4305871445685625e-05,0.024359017610549927,1,-2,-1000,-9,0,24,0,10,-153,52010.0
13:50:06.483,AUTO,-35.3632626,149.1652372,29825,0.0023076662328094244,0.0023584295995533466,-0.25672221183776855,-0.0075027174316346645,-0.0006158164469525218,0.024718578904867172,1,-1,-1000,-6,0,24,0,10,-153,52010.0
13:50:06.700,AUTO,-35.3632626,149.1652374,30213,0.0006967285298742354,0.0020835394971072674,-0.2508919835090637,-0.004051860421895981,-0.001155576086603105,0.023435333743691444,0,-1,-1001,-3,0,23,0,9,-153,52010.0
13:50:07.003,AUTO,-35.3632626,149.1652376,30600,-0.0005488163442350924,0.001860468415543437,-0.24523985385894775,-0.0047873505391180515,0.0001259839627891779,0.023513568565249443,0,-1,-1000,-3,0,23,0,8,-153,52010.0
13:50:07.254,AUTO,-35.3632626,149.1652378,30988,-0.001361879869364202,0.0018421808490529656,-0.2400771826505661,-0.0005665391217917204,0.0016754977405071259,0.020672382786870003,0,-1,-1000,0,2,20,0,7,-153,52010.0
13:50:07.455,AUTO,-35.3632626,149.1652379,31376,-0.0020099130924791098,0.001638789544813335,-0.23525382578372955,-0.005282211117446423,-0.001838582451455295,0.018233556300401688,0,-1,-1000,-4,0,17,0,6,-153,52010.0
13:50:07.659,AUTO,-35.3632626,149.1652379,31376,-0.0020099130924791098,0.001638789544813335,-0.23525382578372955,-0.005282211117446423,-0.001838582451455295,0.018233556300401688,0,-1,-1000,-4,0,17,0,6,-153,52010.0
13:50:07.863,AUTO,-35.3632626,149.1652379,31376,-0.0020099130924791098,0.001638789544813335,-0.23525382578372955,-0.005282211117446423,-0.001838582451455295,0.018233556300401688,0,-1,-1000,-4,0,17,0,6,-153,52010.0
13:50:08.066,AUTO,-35.3632626,149.1652379,31376,-0.0020099130924791098,0.001638789544813335,-0.23525382578372955,-0.005282211117446423,-0.001838582451455295,0.018233556300401688,0,-1,-1000,-4,0,17,0,6,-153,142316.0
13:50:08.269,AUTO,-35.3632625,149.1652382,32537,-0.0013912280555814505,0.0015683608362451196,-0.221871480345726,0.001330830855295062,0.001325944671407342,0.017153089866042137,0,0,-1000,2,2,16,0,3,-153,142316.0
13:50:08.471,AUTO,-35.3632624,149.1652382,32925,-0.0009773571509867907,0.0017906102584674954,-0.21768993139266968,-0.00010773271787911654,-0.0009177194442600012,0.015934104099869728,0,0,-1000,0,0,15,0,2,-153,142316.0
13:50:08.672,AUTO,-35.3632624,149.1652382,33312,-0.0006395754171535373,0.0016140202060341835,-0.21372714638710022,0.005287019070237875,7.80750997364521e-06,0.016548117622733116,0,0,-1000,6,0,16,0,1,-153,142316.0
13:50:08.874,AUTO,-35.3632624,149.1652382,33312,-0.0006395754171535373,0.0016140202060341835,-0.21372714638710022,0.005287019070237875,7.80750997364521e-06,0.016548117622733116,0,0,-1000,6,0,16,0,1,-153,142316.0
13:50:09.076,AUTO,-35.3632624,149.1652382,33700,-0.000524122326169163,0.0012716081691905856,-0.2099502831697464,-0.0012407077010720968,-0.0003671303275041282,0.014880988746881485,0,0,-999,0,0,14,0,0,-153,142316.0
13:50:09.278,AUTO,-35.3632624,149.1652382,34088,-6.37858101981692e-05,0.001321827177889645,-0.20629584789276123,0.0026809063274413347,0.001581232761964202,0.01421244814991951,0,0,-1000,3,2,14,0,0,-153,142316.0
13:50:09.479,AUTO,-35.3632624,149.1652382,34481,0.00022509804693982005,0.0013557811034843326,-0.20270420610904694,0.0010820361785590649,-0.0006865430623292923,0.013754009269177914,0,0,-1000,1,0,13,0,0,-153,142316.0
13:50:09.682,AUTO,-35.3632624,149.1652382,34481,0.00022509804693982005,0.0013557811034843326,-0.20270420610904694,0.0010820361785590649,-0.0006865430623292923,0.013754009269177914,0,0,-1000,1,0,13,0,0,-153,142316.0
13:50:09.884,AUTO,-35.3632624,149.1652382,34481,0.00022509804693982005,0.0013557811034843326,-0.20270420610904694,0.0010820361785590649,-0.0006865430623292923,0.013754009269177914,0,0,-1000,1,0,13,0,0,-153,142316.0
13:50:10.085,AUTO,-35.3632624,149.1652382,34481,0.00022509804693982005,0.0013557811034843326,-0.20270420610904694,0.0010820361785590649,-0.0006865430623292923,0.013754009269177914,0,0,-1000,1,0,13,0,0,-153,142316.0
13:50:10.287,AUTO,-35.3632623,149.1652381,35646,0.0011405422119423747,0.0010511493310332298,-0.19314652681350708,0.0008421478560194373,-0.0008705036016181111,0.012582640163600445,0,0,-1000,2,0,12,0,0,-153,142316.0
13:50:10.489,AUTO,-35.3632623,149.1652381,36034,0.0017419483046978712,0.001000305637717247,-0.18987150490283966,0.004853324964642525,0.0005488017341122031,0.013344363309442997,0,0,-1001,5,1,13,0,0,-153,142316.0
13:50:10.691,AUTO,-35.3632623,149.165238,36421,0.0019359514117240906,0.0008252148982137442,-0.18690533936023712,0.0013459365582093596,0.0009566689259372652,0.013517850078642368,0,0,-999,2,1,13,0,0,-153,142316.0
13:50:10.892,AUTO,-35.3632623,149.165238,36421,0.0019359514117240906,0.0008252148982137442,-0.18690533936023712,0.0013459365582093596,0.0009566689259372652,0.013517850078642368,0,0,-999,2,1,13,0,0,-153,142316.0
13:50:11.196,AUTO,-35.3632623,149.1652379,37206,0.0021082772873342037,0.0006969697424210608,-0.1812538355588913,0.0024720928631722927,0.00043646933045238256,0.012467773631215096,0,0,-1000,3,1,12,0,0,-153,142316.0
13:50:11.417,AUTO,-35.3632623,149.1652378,37593,0.0021076917182654142,0.0008087041787803173,-0.17850378155708313,-0.0031027982477098703,-8.10037599876523e-05,0.008969249203801155,0,0,-1000,-2,1,8,0,0,-153,142316.0
13:50:11.800,AUTO,-35.3632623,149.1652378,37593,0.0021076917182654142,0.0008087041787803173,-0.17850378155708313,-0.0031027982477098703,-8.10037599876523e-05,0.008969249203801155,0,0,-1000,-2,1,8,0,0,-153,142316.0
13:50:12.034,AUTO,-35.3632623,149.1652378,37593,0.0021076917182654142,0.0008087041787803173,-0.17850378155708313,-0.0031027982477098703,-8.10037599876523e-05,0.008969249203801155,0,0,-1000,-2,1,8,0,0,-153,142316.0
13:50:12.290,AUTO,-35.3632622,149.1652377,38750,0.0021448717452585697,0.0009078065631911159,-0.17112909257411957,-0.0016432206612080336,0.0013337640557438135,0.0109672537073493,0,0,-999,0,2,10,0,0,-153,142316.0
13:50:12.493,AUTO,-35.3632622,149.1652377,39138,0.002134525217115879,0.0010180238168686628,-0.16878806054592133,-0.0004294131067581475,-0.0002285166410729289,0.012104980647563934,0,0,-1000,0,0,12,0,0,-153,142316.0
13:50:12.696,AUTO,-35.3632622,149.1652376,39527,0.0022734326776117086,0.0009737281361594796,-0.16645193099975586,-0.0008525114390067756,-0.001445435336790979,0.010516327805817127,0,0,-1000,0,0,10,0,0,-153,142316.0
13:50:12.902,AUTO,-35.3632622,149.1652376,39527,0.0022734326776117086,0.0009737281361594796,-0.16645193099975586,-0.0008525114390067756,-0.001445435336790979,0.010516327805817127,0,0,-1000,0,0,10,0,0,-153,27587.0
13:50:13.104,AUTO,-35.3632622,149.1652376,39915,0.0024172468110919,0.0009700676309876144,-0.1641436219215393,-0.001576302689500153,0.0018594436114653945,0.008038083091378212,0,0,-999,0,2,7,0,0,-153,27587.0
13:50:13.306,AUTO,-35.3632622,149.1652376,40303,0.0021390754263848066,0.0013236048398539424,-0.16218975186347961,0.003017898416146636,0.002111146692186594,0.009631644003093243,0,0,-1000,4,3,9,0,0,-153,27587.0
13:50:13.508,AUTO,-35.3632622,149.1652376,40692,0.0018319720402359962,0.0013261184794828296,-0.16033349931240082,-0.0022375858388841152,0.001229470712132752,0.009079903364181519,0,0,-999,-1,2,9,0,0,-153,27587.0
13:50:13.710,AUTO,-35.3632622,149.1652376,40692,0.0018319720402359962,0.0013261184794828296,-0.16033349931240082,-0.0022375858388841152,0.001229470712132752,0.009079903364181519,0,0,-999,-1,2,9,0,0,-153,27587.0
13:50:13.912,AUTO,-35.3632622,149.1652376,40692,0.0018319720402359962,0.0013261184794828296,-0.16033349931240082,-0.0022375858388841152,0.001229470712132752,0.009079903364181519,0,0,-999,-1,2,9,0,0,-153,27587.0
13:50:14.114,AUTO,-35.3632622,149.1652376,40692,0.0018319720402359962,0.0013261184794828296,-0.16033349931240082,-0.0022375858388841152,0.001229470712132752,0.009079903364181519,0,0,-999,-1,2,9,0,0,-153,27587.0
13:50:14.316,AUTO,-35.3632621,149.1652375,41855,0.0019071745919063687,0.0016512626316398382,-0.15487772226333618,-0.0005057296366430819,0.0020157480612397194,0.007590138353407383,0,0,-999,0,3,7,0,0,-153,27587.0
13:50:14.517,AUTO,-35.3632621,149.1652375,42243,0.0017597766127437353,0.001678969943895936,-0.15295270085334778,-0.0012233321322128177,-0.0002261027111671865,0.006965189706534147,0,0,-1000,0,0,7,0,0,-153,27587.0
13:50:14.719,AUTO,-35.3632621,149.1652375,42630,0.0017846539849415421,0.0014816804323345423,-0.15112265944480896,0.0007293106755241752,0.000822953530587256,0.007721708621829748,0,0,-1000,1,1,7,0,0,-153,27587.0
13:50:14.921,AUTO,-35.3632621,149.1652375,43019,0.0018408962059766054,0.0015049228677526116,-0.1497439593076706,-0.0007937898626551032,-0.00010451237903907895,0.0053844330832362175,0,0,-1000,0,0,5,0,1,-153,27587.0
13:50:15.122,AUTO,-35.3632621,149.1652375,43019,0.0018408962059766054,0.0015049228677526116,-0.1497439593076706,-0.0007937898626551032,-0.00010451237903907895,0.0053844330832362175,0,0,-1000,0,0,5,0,1,-153,27587.0
13:50:15.324,AUTO,-35.3632621,149.1652375,43408,0.0018584795761853456,0.0013194008497521281,-0.14805181324481964,0.0043779900297522545,0.0001516443444415927,0.00920066051185131,0,0,-1000,5,1,9,0,1,-153,27587.0
13:50:15.526,AUTO,-35.3632621,149.1652374,43795,0.001854146714322269,0.0011286790249869227,-0.14645317196846008,-0.003065600525587797,-0.0004153952468186617,0.00704776169732213,0,0,-999,-1,0,7,0,1,-153,27587.0
13:50:15.728,AUTO,-35.3632621,149.1652374,43795,0.001854146714322269,0.0011286790249869227,-0.14645317196846008,-0.003065600525587797,-0.0004153952468186617,0.00704776169732213,0,0,-999,-1,0,7,0,1,-153,27587.0
13:50:15.930,AUTO,-35.3632621,149.1652374,43795,0.001854146714322269,0.0011286790249869227,-0.14645317196846008,-0.003065600525587797,-0.0004153952468186617,0.00704776169732213,0,0,-999,-1,0,7,0,1,-153,27587.0
13:50:16.131,AUTO,-35.3632621,149.1652374,43795,0.001854146714322269,0.0011286790249869227,-0.14645317196846008,-0.003065600525587797,-0.0004153952468186617,0.00704776169732213,0,0,-999,-1,0,7,0,1,-153,27587.0
13:50:16.333,AUTO,-35.3632621,149.1652374,44959,0.001629041158594191,0.0009303437545895576,-0.1416933238506317,-0.001975869759917259,-0.0003747454029507935,0.00953422300517559,0,0,-1000,-1,0,9,0,1,-153,27587.0
13:50:16.559,AUTO,-35.3632621,149.1652374,45346,0.0016365061746910214,0.0009731312748044729,-0.140166237950325,-0.0007699019042775035,0.0007786925416439772,0.007641889620572329,0,0,-999,0,1,7,0,1,-153,27587.0
13:50:16.764,AUTO,-35.3632621,149.1652374,45734,0.0014145944733172655,0.001270381617359817,-0.1383526474237442,-0.0017645768821239471,-0.00027387862792238593,0.011979184113442898,0,0,-999,0,0,12,0,1,-153,27587.0
13:50:17.018,AUTO,-35.3632621,149.1652374,46119,-0.021489843726158142,0.02469303458929062,-0.08810103684663773,-0.15452991425991058,0.15932707488536835,0.36752569675445557,0,0,-955,-153,160,367,-3,0,-144,27587.0
13:50:17.274,AUTO,-35.3632621,149.1652372,46470,-0.06105352193117142,0.07208418846130371,0.048590220510959625,-0.16457176208496094,0.13107626140117645,0.616713285446167,1,0,-943,-163,132,616,-14,-11,-132,27587.0
13:50:17.573,AUTO,-35.3632626,149.1652367,46780,-0.05951196700334549,0.06327416002750397,0.16251137852668762,0.044593147933483124,-0.19103847444057465,0.33054426312446594,3,4,-916,45,-189,330,-28,-26,-111,27587.0
13:50:17.779,AUTO,-35.3632626,149.1652367,46780,-0.05951196700334549,0.06327416002750397,0.16251137852668762,0.044593147933483124,-0.19103847444057465,0.33054426312446594,3,4,-916,45,-189,330,-28,-26,-111,27587.0
13:50:17.988,AUTO,-35.3632626,149.1652367,46780,-0.05951196700334549,0.06327416002750397,0.16251137852668762,0.044593147933483124,-0.19103847444057465,0.33054426312446594,3,4,-916,45,-189,330,-28,-26,-111,27587.0
13:50:18.192,AUTO,-35.3632645,149.1652338,47414,0.01758098229765892,-0.050421297550201416,0.2531280815601349,0.019682057201862335,-0.0518818199634552,0.00908675603568554,2,8,-946,20,-51,9,-21,-30,-59,27587.0
13:50:18.394,AUTO,-35.3632645,149.1652338,47414,0.01758098229765892,-0.050421297550201416,0.2531280815601349,0.019682057201862335,-0.0518818199634552,0.00908675603568554,2,8,-946,20,-51,9,-21,-30,-59,64698.0
13:50:18.596,AUTO,-35.3632649,149.1652331,47550,0.03364886716008186,-0.0560600720345974,0.24999427795410156,0.16318897902965546,-0.005475958809256554,-0.01792682148516178,1,13,-956,164,-4,-17,-10,-19,-47,64698.0
13:50:18.798,AUTO,-35.363265,149.1652327,47654,0.040847793221473694,-0.052617643028497696,0.24283567070960999,-0.08652098476886749,0.024896180257201195,-0.03259865939617157,0,-12,-962,-86,26,-32,0,-8,-36,64698.0
13:50:19.000,AUTO,-35.363265,149.1652326,47732,0.03405795618891716,-0.04405631497502327,0.23381097614765167,-0.4501497745513916,0.03919042646884918,-0.034764088690280914,-1,-14,-966,-448,40,-34,8,3,-26,64698.0
13:50:19.202,AUTO,-35.3632647,149.1652328,47787,0.03802412003278732,-0.03334438055753708,0.22460156679153442,0.29399198293685913,0.04252496734261513,-0.031860824674367905,-3,22,-985,295,43,-31,15,14,-19,64698.0
13:50:19.404,AUTO,-35.3632647,149.1652328,47787,0.03802412003278732,-0.03334438055753708,0.22460156679153442,0.29399198293685913,0.04252496734261513,-0.031860824674367905,-3,22,-985,295,43,-31,15,14,-19,64698.0
13:50:19.606,AUTO,-35.3632643,149.1652332,47826,0.041000984609127045,-0.021445075049996376,0.21500170230865479,0.6656854152679443,0.04348457604646683,-0.03534628078341484,-2,21,-990,666,44,-35,19,21,-12,64698.0
13:50:19.809,AUTO,-35.3632643,149.1652332,47826,0.041000984609127045,-0.021445075049996376,0.21500170230865479,0.6656854152679443,0.04348457604646683,-0.03534628078341484,-2,21,-990,666,44,-35,19,21,-12,64698.0
13:50:20.013,AUTO,-35.3632643,149.1652332,47826,0.041000984609127045,-0.021445075049996376,0.21500170230865479,0.6656854152679443,0.04348457604646683,-0.03534628078341484,-2,21,-990,666,44,-35,19,21,-12,64698.0
13:50:20.215,AUTO,-35.3632628,149.1652354,47854,0.0011560713173821568,0.006584484130144119,0.19146159291267395,-0.7790586352348328,0.020527662709355354,-0.02812477946281433,-2,-45,-969,-778,21,-27,21,28,2,64698.0
13:50:20.416,AUTO,-35.3632628,149.1652354,47854,0.0011560713173821568,0.006584484130144119,0.19146159291267395,-0.7790586352348328,0.020527662709355354,-0.02812477946281433,-2,-45,-969,-778,21,-27,21,28,2,64698.0
13:50:20.618,AUTO,-35.3632623,149.1652362,47829,-0.01408426370471716,0.03625074401497841,0.18924322724342346,-0.5332809686660767,0.10810992866754532,-0.03361744061112404,0,-3,-935,-531,109,-33,16,27,14,64698.0
13:50:20.820,AUTO,-35.363262,149.1652369,47781,-0.01540293823927641,0.042724333703517914,0.1810513138771057,0.38703590631484985,-0.018496312201023102,-0.032475460320711136,0,27,-996,389,-17,-32,7,22,17,64698.0
13:50:21.021,AUTO,-35.363262,149.1652376,47725,-0.010161901824176311,0.03776906803250313,0.17529822885990143,0.701603353023529,-0.011699422262609005,-0.02121909335255623,2,40,-1012,703,-10,-21,0,17,19,64698.0
13:50:21.223,AUTO,-35.3632621,149.1652381,47673,-0.0045999460853636265,0.03672367334365845,0.16794204711914062,0.9072235226631165,-0.0028935284353792667,-0.024221593514084816,3,20,-994,908,-2,-23,-7,10,19,64698.0
13:50:21.425,AUTO,-35.3632622,149.1652385,47614,-0.006954083684831858,0.03721389174461365,0.16097328066825867,0.3237544000148773,-0.0005098179099150002,-0.031214257702231407,5,-10,-1002,323,0,-30,-14,4,20,64698.0
13:50:21.627,AUTO,-35.3632622,149.1652385,47614,-0.006954083684831858,0.03721389174461365,0.16097328066825867,0.3237544000148773,-0.0005098179099150002,-0.031214257702231407,5,-10,-1002,323,0,-30,-14,4,20,64698.0
13:50:21.829,AUTO,-35.3632622,149.1652385,47614,-0.006954083684831858,0.03721389174461365,0.16097328066825867,0.3237544000148773,-0.0005098179099150002,-0.031214257702231407,5,-10,-1002,323,0,-30,-14,4,20,64698.0
13:50:22.030,AUTO,-35.3632622,149.1652385,47614,-0.006954083684831858,0.03721389174461365,0.16097328066825867,0.3237544000148773,-0.0005098179099150002,-0.031214257702231407,5,-10,-1002,323,0,-30,-14,4,20,64698.0
13:50:22.232,AUTO,-35.363264,149.1652392,47368,-0.027815742418169975,0.04492727294564247,0.1420779675245285,-0.7852779626846313,0.009486308321356773,-0.02355569414794445,8,-43,-984,-785,10,-23,-35,-7,38,64698.0
13:50:22.559,AUTO,-35.363265,149.1652392,47252,-0.04163127765059471,0.04747489467263222,0.13610003888607025,-1.0726548433303833,0.01204829104244709,-0.01329737901687622,11,-45,-947,-1072,13,-12,-43,-12,48,64698.0
13:50:22.907,AUTO,-35.3632662,149.1652392,47108,-0.04890010505914688,0.04929940775036812,0.12200930714607239,-0.8082477450370789,0.00034132099244743586,-0.16187047958374023,12,-3,-947,-806,1,-161,-52,-15,60,64698.0
13:50:23.156,AUTO,-35.3632675,149.1652392,46933,-0.055714912712574005,0.04227708280086517,-0.0022486443631350994,-0.48006969690322876,0.004554931074380875,-0.795073926448822,12,35,-936,-477,5,-794,-59,-17,74,64698.0
13:50:23.358,AUTO,-35.363269,149.1652389,46726,-0.06650667637586594,0.0249201487749815,-0.21423469483852386,-0.7342357039451599,-0.0035872729495167732,-0.9012877941131592,7,23,-930,-731,-2,-900,-66,-22,87,64698.0
13:50:23.561,AUTO,-35.3632707,149.1652386,46484,-0.05688292533159256,0.008412482216954231,-0.4302562177181244,-0.762614905834198,-0.005790983326733112,-0.8373386263847351,6,23,-1015,-760,-4,-837,-70,-26,92,64698.0
13:50:23.764,AUTO,-35.3632707,149.1652386,46484,-0.05688292533159256,0.008412482216954231,-0.4302562177181244,-0.762614905834198,-0.005790983326733112,-0.8373386263847351,6,23,-1015,-760,-4,-837,-70,-26,92,64698.0
13:50:23.967,AUTO,-35.3632707,149.1652386,46484,-0.05688292533159256,0.008412482216954231,-0.4302562177181244,-0.762614905834198,-0.005790983326733112,-0.8373386263847351,6,23,-1015,-760,-4,-837,-70,-26,92,64698.0
13:50:24.180,AUTO,-35.3632759,149.1652374,45700,-0.040589239448308945,-0.02316254936158657,-1.0153841972351074,-1.5263853073120117,0.028180792927742004,-0.7118246555328369,-5,-57,-1012,-1526,29,-711,-73,-30,100,217099.0
13:50:24.385,AUTO,-35.3632759,149.1652374,45700,-0.040589239448308945,-0.02316254936158657,-1.0153841972351074,-1.5263853073120117,0.028180792927742004,-0.7118246555328369,-5,-57,-1012,-1526,29,-711,-73,-30,100,217099.0
13:50:24.587,AUTO,-35.3632776,149.1652369,45431,-0.019923590123653412,-0.022478416562080383,-1.1966242790222168,-1.125985860824585,0.031299106776714325,-0.7085633277893066,-8,-66,-991,-1127,32,-707,-73,-32,97,217099.0
13:50:24.788,AUTO,-35.3632794,149.1652364,45171,-0.005511991214007139,-0.021993182599544525,-1.3759679794311523,-1.2155425548553467,0.030203670263290405,-0.705514669418335,-12,-62,-995,-1216,31,-704,-72,-32,93,217099.0
13:50:24.991,AUTO,-35.363281,149.1652359,44913,0.002375055570155382,-0.021510537713766098,-1.5552679300308228,-1.2893143892288208,0.005697401240468025,-0.6818357706069946,-14,-63,-1011,-1290,6,-681,-67,-31,96,217099.0
13:50:25.193,AUTO,-35.3632826,149.1652354,44663,-0.002470522653311491,-0.023104514926671982,-1.734912395477295,-1.3472464084625244,0.004457741044461727,-0.6955620646476746,-15,-58,-1002,-1348,5,-695,-64,-31,91,217099.0
13:50:25.395,AUTO,-35.3632826,149.1652354,44663,-0.002470522653311491,-0.023104514926671982,-1.734912395477295,-1.3472464084625244,0.004457741044461727,-0.6955620646476746,-15,-58,-1002,-1348,5,-695,-64,-31,91,217099.0
13:50:25.597,AUTO,-35.363284,149.1652349,44420,-0.014260117895901203,-0.026777928695082664,-1.9132856130599976,-1.3025435209274292,-0.0016957867192104459,-0.693578839302063,-18,-54,-1031,-1302,0,-692,-62,-30,87,217099.0
13:50:25.799,AUTO,-35.363284,149.1652349,44420,-0.014260117895901203,-0.026777928695082664,-1.9132856130599976,-1.3025435209274292,-0.0016957867192104459,-0.693578839302063,-18,-54,-1031,-1302,0,-692,-62,-30,87,217099.0
13:50:26.001,AUTO,-35.363284,149.1652349,44420,-0.014260117895901203,-0.026777928695082664,-1.9132856130599976,-1.3025435209274292,-0.0016957867192104459,-0.693578839302063,-18,-54,-1031,-1302,0,-692,-62,-30,87,217099.0
13:50:26.203,AUTO,-35.3632882,149.1652336,43685,-0.01090520154684782,-0.036755915731191635,-2.455951690673828,-1.1770379543304443,0.010120867751538754,-0.7152931690216064,-18,-40,-1046,-1176,11,-714,-66,-31,89,217099.0
13:50:26.405,AUTO,-35.3632882,149.1652336,43685,-0.01090520154684782,-0.036755915731191635,-2.455951690673828,-1.1770379543304443,0.010120867751538754,-0.7152931690216064,-18,-40,-1046,-1176,11,-714,-66,-31,89,217099.0
13:50:26.607,AUTO,-35.3632897,149.1652331,43442,-0.0028088761027902365,-0.03533070534467697,-2.6384668350219727,-0.9962889552116394,0.011295233853161335,-0.7122389078140259,-18,-27,-1053,-995,12,-711,-68,-31,91,217099.0
13:50:26.809,AUTO,-35.3632912,149.1652325,43194,-0.003389771794900298,-0.03238970786333084,-2.811955213546753,-1.2481039762496948,-0.002794933971017599,-0.5122195482254028,-16,-40,-972,-1246,-1,-511,-71,-31,99,217099.0
13:50:27.011,AUTO,-35.3632929,149.1652319,42945,-0.009972847066819668,-0.030564872547984123,-2.871225595474243,-1.3734253644943237,-0.021736042574048042,-0.004909719340503216,-12,-36,-873,-1371,-20,-4,-74,-30,96,217099.0
13:50:27.213,AUTO,-35.3632946,149.1652313,42685,0.006490831729024649,-0.027736369520425797,-2.870936155319214,-1.0554574728012085,0.004344859626144171,0.05069967359304428,-16,-49,-1102,-1054,5,51,-76,-29,90,217099.0
13:50:27.416,AUTO,-35.3632946,149.1652313,42685,0.006490831729024649,-0.027736369520425797,-2.870936155319214,-1.0554574728012085,0.004344859626144171,0.05069967359304428,-16,-49,-1102,-1054,5,51,-76,-29,90,217099.0
13:50:27.621,AUTO,-35.3632964,149.1652306,42450,-0.0028655645437538624,-0.022681457921862602,-2.8535802364349365,-0.9197260737419128,0.018018657341599464,0.06661947816610336,-20,-16,-970,-918,19,67,-77,-30,92,217099.0
13:50:27.824,AUTO,-35.3632964,149.1652306,42450,-0.0028655645437538624,-0.022681457921862602,-2.8535802364349365,-0.9197260737419128,0.018018657341599464,0.06661947816610336,-20,-16,-970,-918,19,67,-77,-30,92,217099.0
13:50:28.026,AUTO,-35.3632964,149.1652306,42450,-0.0028655645437538624,-0.022681457921862602,-2.8535802364349365,-0.9197260737419128,0.018018657341599464,0.06661947816610336,-20,-16,-970,-918,19,67,-77,-30,92,217099.0
13:50:28.254,AUTO,-35.3633019,149.1652285,41714,0.007155290804803371,-0.014016583561897278,-2.8358240127563477,-0.2323322743177414,0.014558977447450161,-0.013790622353553772,-19,11,-976,-229,15,-13,-78,-27,93,217099.0
13:50:28.496,AUTO,-35.3633038,149.1652279,41469,0.003387022064998746,-0.012560809031128883,-2.8372108936309814,0.06699831038713455,0.005220997147262096,-0.025905445218086243,-22,33,-958,69,6,-25,-77,-27,92,217099.0
13:50:28.714,AUTO,-35.3633057,149.1652273,41211,0.005770855583250523,-0.013066229410469532,-2.8401358127593994,0.08908914029598236,0.0017925152787938714,-0.023542458191514015,-19,29,-994,91,2,-22,-76,-24,99,217099.0
