time_stamp,MODE,RTL_ALT,xacc,yacc,zacc,xgyro,ygyro,zgyro,roll,pitch,yaw,rollspeed,pitchspeed,yawspeed,lat,lon,relative_alt,vx,vy,vz
00:16:39,STABILIZE,1500.0,0.0,1.0,-1000.0,0.0,0.5,0.0,-0.0006243447423912585,0.0009779931278899312,0.025153256952762604,0.0003132714191451669,0.0003074902924709022,0.0019817757420241833,-35.3632621,149.1652375,0.0,-1.0,1.0,0.0
00:16:55,AUTO,1500.0,0.0,1.0,-1000.0,0.5,0.5,0.0,-0.00065727109904401,0.0010225908481515944,0.020783779211342335,0.0003283328260295093,0.00035612162901088595,0.001378988439682871,-35.36326215,149.1652375,0.0,-0.5,0.5,0.0
00:16:57,AUTO,943.5,0.0,1.0,-1000.0,0.0,0.0,0.5,-9.156788019026862e-05,0.001481392013374716,0.020321433432400227,0.0003125705989077687,0.0002681310288608074,0.0013442490599118173,-35.3632621,149.1652375,0.0,0.0,0.0,0.0
00:16:59,AUTO,387.0,0.0,0.0,-1074.5,20.5,-0.5,0.5,0.009181382949464023,0.00040168021951103583,0.019792232662439346,0.019888655748218298,-0.0016019747126847506,0.0012207809486426413,-35.3632621,149.1652375,721.5,0.0,1.0,-112.5
00:17:01,AUTO,387.0,3.5,-8.5,-1000.5,-47.0,56.0,-96.5,0.01333746686577797,0.016188165871426463,-0.052619969472289085,-0.04815235920250416,0.055374620482325554,-0.09668433293700218,-35.36326125,149.16524225,3638.0,4.0,45.5,-146.5
00:17:02,AUTO,191570.0,4.25,-2.25,-1002.0,-30.0,-69.0,18.25,-0.053392126224935055,0.004640935221686959,-0.09975730441510677,-0.031136901583522558,-0.07014273595996201,0.01855116756632924,-35.363261425000005,149.16524605,5165.0,-12.5,12.25,-148.0
00:17:03,AUTO,191570.0,-4.0,8.0,-1001.5,47.0,15.5,9.5,-0.04502232372760773,-0.02674007136374712,-0.07102726399898529,0.04698283597826958,0.015303063672035933,0.009997848188504577,-35.363261949999995,149.16524405,6700.0,3.5,-42.5,-148.0
00:17:05,AUTO,191570.0,-4.0,4.0,-1000.0,25.5,40.0,-43.0,0.05286984145641327,0.030102616176009178,-0.0927681140601635,0.02574080601334572,0.03953266516327858,-0.04348277021199465,-35.3632604,149.1652337,9797.0,-0.5,-15.0,-151.0
00:17:07,AUTO,191570.0,5.0,-2.0,-1003.0,-14.5,-12.0,-9.5,-0.02143221814185381,-0.01609039306640625,-0.1003728061914444,-0.015448748599737883,-0.012499487493187189,-0.008881979156285524,-35.3632631,149.16523734999998,12879.0,-11.5,19.5,-150.0
00:17:08,AUTO,19195.0,-1.5,0.0,-1000.25,22.75,14.25,-32.25,-0.01253314275527373,-0.012867066194303334,-0.1251223385334015,0.02273678034543991,0.014031073777005076,-0.03249299572780728,-35.363263325000005,149.16523795,14437.5,5.5,-6.5,-151.0
00:17:09,AUTO,19195.0,-3.0,0.0,-1000.0,13.0,12.5,-24.0,0.0068590614246204495,0.0018371667247265577,-0.15578602999448776,0.013403001241385937,0.012086250353604555,-0.02403633762151003,-35.363262500000005,149.16523665,16003.5,9.0,-10.5,-152.0
00:17:11,AUTO,19195.0,0.0,0.0,-1000.0,-2.0,-2.5,-8.0,0.008037470048293471,0.007994874380528927,-0.18505021184682846,-0.0037079823669046164,-0.0035305193159729242,-0.008460579672828317,-35.3632615,149.16523554999998,19121.5,-1.0,5.0,-152.0
00:17:13,AUTO,15594.0,0.0,0.0,-1000.0,1.0,0.5,-20.0,0.001290956512093544,0.003056722809560597,-0.21384292095899582,0.0009854923409875482,3.057069261558354e-05,-0.019929151982069016,-35.363261550000004,149.16523635,22238.0,-3.0,5.0,-152.0
00:17:15,AUTO,11993.0,0.0,0.0,-1000.0,20.0,4.0,-7.0,-0.0002814801409840584,0.0037572153378278017,-0.24933022260665894,0.019525001029251143,0.00303850625641644,-0.006675629410892725,-35.36326175,149.16523665,25355.0,-3.0,-0.5,-152.0
00:17:17,AUTO,11993.0,0.5,-0.5,-999.5,-6.5,-0.5,23.0,0.007974399253726006,0.0017026129644364119,-0.2184092327952385,-0.008024211041629314,-0.0010839764727279544,0.023873881436884403,-35.363262250000005,149.16523669999998,28461.5,-2.0,7.5,-152.0
00:17:18,AUTO,251407.0,0.5,-0.75,-1000.25,-1.75,1.5,21.0,0.0011419728907640092,0.0019459358300082386,-0.19726712256669998,-0.002977815514896065,0.0009553182899253443,0.021258320659399033,-35.3632623,149.16523745,30012.0,-0.25,7.75,-152.0
00:17:19,AUTO,251407.0,0.5,0.0,-989.5,-76.5,49.0,312.5,-0.028394383989507332,0.03244106739293784,-0.08345756307244301,-0.07841965276747942,0.04836577293463051,0.3129996648058295,-35.363262399999996,149.1652378,31540.5,-8.0,-2.0,-144.5
00:17:21,AUTO,251407.0,-1.0,4.0,-971.5,68.0,20.0,-29.0,0.03701849840581417,-0.041704725474119186,0.16733115166425705,0.06779357977211475,0.018668903969228268,-0.029705739580094814,-35.363265049999995,149.16523375,33714.5,3.5,-2.5,-67.0
00:17:23,AUTO,229530.5,-2.5,0.5,-970.5,116.0,10.5,-7.0,0.0026098452508449554,0.012958038598299026,0.13189728558063507,0.11509779095649719,0.009753003716468811,-0.00783870229497552,-35.3632619,149.1652373,34567.5,15.0,22.5,-19.0
00:17:25,AUTO,207654.0,-4.5,20.0,-1009.0,222.0,-32.5,-15.5,-0.03233396261930466,-0.019063530955463648,0.114142507314682,0.22104375064373016,-0.03428957238793373,-0.01609303103759885,-35.36326115,149.1652359,34504.5,-1.0,-24.5,4.0
00:17:27,AUTO,207654.0,-33.5,-7.0,-1023.5,93.5,-52.5,-580.5,-0.0017228228971362114,-0.11116417124867439,-0.8432809412479401,0.09188959002494812,-0.05374905653297901,-0.5813325196504593,-35.3632571,149.1652182,34555.0,57.0,-126.5,-12.0
00:17:28,AUTO,56061.0,-51.0,-25.25,-1014.5,50.25,-25.0,58.25,0.033035569824278355,-0.15561579912900925,-1.1234335005283356,0.04888920113444328,-0.026137137785553932,0.05846796790137887,-35.36325065,149.165198525,34693.25,97.0,-218.0,-19.0
00:17:29,AUTO,56061.0,-80.0,-48.5,-1012.5,-156.5,-26.0,-3.5,0.027269866317510605,-0.17344123870134354,-1.0882900953292847,-0.1586911678314209,-0.02803849522024393,-0.004202495445497334,-35.3632397,149.1651679,34925.0,140.5,-317.0,-28.5
00:17:31,AUTO,56061.0,-105.0,-37.5,-1000.5,39.5,11.5,-11.0,0.039850691333413124,-0.1524929627776146,-1.1009076237678528,0.03833981603384018,0.010709917172789574,-0.01184593653306365,-35.363207349999996,149.1650784,35682.0,196.0,-473.0,-47.0
00:17:33,AUTO,56061.0,-122.5,-55.0,-991.5,35.5,-14.0,-15.5,0.05860612727701664,-0.12014345824718475,-1.1115395426750183,0.034161749528720975,-0.015366437146440148,-0.01623978093266487,-35.3631686,149.16496655,36698.5,217.5,-528.5,-50.0
00:17:34,AUTO,248848.0,-115.75,-59.25,-989.5,11.0,20.25,0.75,0.05838936846703291,-0.10972232930362225,-1.1152202785015106,0.009530107956379652,0.019318081671372056,0.0003843188751488924,-35.363148699999996,149.16490885000002,37206.0,221.0,-527.0,-45.25
00:17:35,AUTO,248848.0,-111.5,-71.0,-986.5,-131.0,46.0,6.0,0.05897546000778675,-0.058163756504654884,-1.1175750494003296,-0.13304267823696136,0.04547332413494587,0.006277139997109771,-35.363129,149.1648524,37696.0,208.0,-499.0,-45.0
00:17:37,AUTO,248848.0,-80.0,-52.5,-987.5,-68.5,49.5,2.5,0.04611855745315552,0.04450905043631792,-1.1232228875160217,-0.06971175968647003,0.048676541075110435,0.0018852325156331062,-35.3630956,149.16475835,38452.0,143.0,-339.0,-23.0
00:17:39,AUTO,145285.5,-28.0,-6.5,-985.0,240.5,-2.0,-3.5,0.023770498111844063,0.06715735979378223,-1.1284419298171997,0.24005181342363358,-0.00331682525575161,-0.003880258183926344,-35.36307745,149.16470759999999,38754.0,55.0,-127.5,-7.0
00:17:41,AUTO,41723.0,-1.5,-1.0,-1007.5,-17.5,-19.5,-0.5,-0.028828642331063747,0.030968332663178444,-1.1329381465911865,-0.018958628177642822,-0.02123947348445654,-0.0013530855067074299,-35.3630707,149.16469515,38810.0,-5.0,-22.0,0.0
00:17:43,RTL,41723.0,0.0,-41.0,-986.0,-506.0,8.0,-22.0,-0.03986462205648422,-0.007806362118571997,-1.132959246635437,-0.5067676305770874,0.0073540727607905865,-0.02281171828508377,-35.3630697,149.1646955,38803.0,-30.0,-13.0,0.0
00:17:44,RTL,35801.0,-0.25,-13.25,-1018.75,-80.5,13.5,-16.5,-0.021693014074116945,-0.00027443688304629177,-1.1343517005443573,-0.07991495355963707,0.012976271653315052,-0.01701734960079193,-35.363069625,149.16469519999998,38813.75,-26.25,-21.75,-4.75
00:17:45,RTL,35801.0,-0.5,13.0,-1037.0,25.5,-3.5,-14.5,-0.024584823288023472,0.0025237437803298235,-1.136388897895813,0.024881646037101746,-0.00439415528671816,-0.015073907561600208,-35.3630696,149.1646949,38918.0,-26.5,-18.5,-26.0
00:17:47,RTL,35801.0,-3.0,7.0,-1044.5,44.5,0.0,-4.0,-0.0008310780976898968,-0.003124187351204455,-1.1424232125282288,0.045681364834308624,-0.0006502674659714103,-0.004724338185042143,-35.363071250000004,149.16469425000003,40389.5,-19.0,-11.5,-116.5
00:17:49,RTL,35801.0,1.5,-5.0,-992.0,-34.0,31.0,-30.0,0.07093200832605362,0.001045353477820754,-1.1497518420219421,-0.03348445147275925,0.030334432842209935,-0.029898397508077323,-35.3630712,149.1646936,43312.0,44.5,12.0,-148.0
00:17:50,RTL,85376.0,0.0,-2.25,-1006.5,-7.75,-1.5,-37.75,-0.06923332531005144,0.006805052631534636,-1.219936728477478,-0.007189995609223843,-0.0027441747224656865,-0.03844316676259041,-35.3630676,149.16469435,45200.75,9.25,1.5,-149.0
00:17:51,RTL,85376.0,-5.5,8.0,-1000.5,61.0,8.5,-12.0,-0.04096114635467529,0.006281268550083041,-1.240039050579071,0.06205332651734352,0.008056788006797433,-0.012521435506641865,-35.363068999999996,149.1646935,46357.0,-36.0,-10.5,-150.0
00:17:53,RTL,85376.0,2.0,5.0,-998.5,-22.5,-96.0,99.0,0.0574810728430748,-0.013679124196642078,-1.2147384285926819,-0.022860515397042036,-0.0972319096326828,0.09940509125590324,-35.36307765,149.16469285,49467.0,0.5,26.0,-151.0
00:17:55,RTL,57820.5,-4.5,-5.0,-1002.5,13.0,25.5,-63.0,-0.018038597889244556,0.02313231211155653,-1.2642044425010681,0.013603528030216694,0.024684637784957886,-0.06425670720636845,-35.363074,149.16469045,52562.5,21.5,-15.5,-152.0
00:17:57,RTL,30265.0,2.5,1.0,-998.5,-11.5,-14.0,1.5,0.014343907590955496,0.015580416191369295,-1.3035399317741394,-0.012487638741731644,-0.015422369819134474,0.0011823682289104909,-35.3630745,149.16468930000002,55685.5,6.0,21.0,-152.0
00:17:59,RTL,30265.0,1.5,0.0,-999.5,-1.5,2.0,-25.5,0.0016085595125332475,-0.0011497503728605807,-1.3322024941444397,-0.0025498525938019156,0.0012353397905826569,-0.026268381625413895,-35.36307415,149.1646922,58799.0,9.5,12.0,-152.0
00:18:00,RTL,84309.0,0.0,0.0,-1000.0,5.25,5.0,-26.25,0.0053219274850562215,0.0029383428627625108,-1.370262622833252,0.005135411687660962,0.0043601253419183195,-0.02724992949515581,-35.363074075,149.1646926,60752.5,8.0,5.0,-153.0
00:18:01,RTL,84309.0,0.0,0.0,-999.5,0.0,2.5,-23.0,0.006668074754998088,0.005402898648753762,-1.3916939496994019,-0.00018009771883953363,0.001806170679628849,-0.02400834485888481,-35.363074,149.1646926,61926.0,8.5,4.0,-153.0
00:18:03,RTL,84309.0,0.0,0.0,-999.5,-0.5,0.5,-19.0,0.004466063575819135,0.006182786775752902,-1.4384793639183044,-0.001473408774472773,-9.519449668005109e-05,-0.02040607389062643,-35.3630736,149.1646927,65046.0,9.0,5.5,-153.0
00:18:05,RTL,84309.0,1.0,0.0,-1000.5,-1.5,0.0,28.0,0.004736455390229821,0.006587841082364321,-1.4340618252754211,-0.002245639043394476,-0.0022941362112760544,0.027942687273025513,-35.3630731,149.16469315,68149.5,10.0,8.0,-152.0
00:18:06,RTL,1343.0,0.0,0.0,-1000.25,1.5,1.25,25.5,0.0015940543380565941,0.003415016399230808,-1.4018312990665436,0.0004942751838825643,-0.00019351404625922441,0.025224399752914906,-35.363072725,149.16469359999996,70088.0,8.25,5.75,-152.0
00:18:07,RTL,1343.0,0.0,0.0,-999.0,-1.0,0.5,22.5,0.001624375523533672,0.0027041250141337514,-1.3850268125534058,-0.0020791837596334517,-0.000525746843777597,0.022344693541526794,-35.3630726,149.16469375,71253.0,6.5,4.0,-152.0
00:18:09,RTL,1343.0,0.0,0.0,-999.5,-2.5,1.5,16.5,0.0033038414549082518,0.0030226632952690125,-1.3490247130393982,-0.003928951220586896,0.0008995530079118907,0.0164885176345706,-35.3630727,149.1646937,74360.0,5.0,1.0,-152.0
00:18:11,RTL,7212.5,0.0,0.0,-999.5,-2.5,0.0,14.5,0.0035938738146796823,0.004291306482627988,-1.3214974999427795,-0.004372254014015198,-0.0014406137634068727,0.014071555808186531,-35.3630727,149.16469335,77463.0,4.0,2.0,-152.0
00:18:13,RTL,13082.0,0.0,0.0,-1000.0,0.5,1.0,9.5,0.003259607474319637,0.003923100768588483,-1.3014231324195862,-0.0013468200922943652,-0.0002518150140531361,0.00850988645106554,-35.3630728,149.1646932,80565.0,4.0,2.0,-152.0
00:18:15,RTL,13082.0,0.0,0.0,-1000.0,0.5,0.5,8.0,0.0032678215065971017,0.00427649705670774,-1.2864891290664673,-0.0014791362918913364,-0.0011072990600951016,0.0077275356743484735,-35.3630728,149.1646931,83677.0,4.0,3.0,-152.0
00:18:16,RTL,19318.0,0.0,0.0,-1000.0,1.75,1.25,7.5,0.002737273753155023,0.0037430519587360322,-1.2784726023674011,0.0007198007660917938,-9.163955110125244e-05,0.006723265862092376,-35.3630728,149.164693,85613.5,4.0,3.0,-152.0
00:18:17,RTL,19318.0,0.0,0.0,-999.5,-0.5,2.0,8.0,0.0026567461900413036,0.003443152876570821,-1.273780107498169,-0.001772285031620413,0.000657975091598928,0.007400114322081208,-35.3630728,149.164693,86777.5,3.5,3.0,-152.0
00:18:19,RTL,19318.0,0.0,0.0,-1000.5,1.0,1.0,6.0,0.0023128543980419636,0.003159032785333693,-1.2631240487098694,5.146831972524524e-05,0.00010836089495569468,0.0052950826939195395,-35.3630728,149.1646931,89882.0,3.0,2.0,-152.0
00:18:21,RTL,19318.0,0.0,0.0,-1000.0,0.0,2.0,5.0,0.0015253195306286216,0.003522052546031773,-1.2535827159881592,-0.001233759569004178,0.0004607239970937371,0.00448910309933126,-35.3630727,149.164693,92994.5,2.0,2.0,-152.0
00:18:22,RTL,39485.0,0.0,0.0,-999.75,1.75,2.0,6.5,0.0018508335633669049,0.003117099986411631,-1.2480566203594208,0.0005324271623976529,0.0007865652441978455,0.005436437437310815,-35.3630727,149.16469304999998,94934.75,2.0,2.0,-152.0
00:18:23,RTL,39485.0,0.0,0.0,-999.5,0.0,1.0,6.0,0.0014863317483104765,0.0033470470225438476,-1.2452014684677124,-0.0016609099111519754,-0.00010926986578851938,0.004965964239090681,-35.3630727,149.164693,96099.0,2.0,2.0,-152.0
00:18:25,RTL,39485.0,0.0,0.0,-1000.0,2.0,2.5,7.0,0.0015346973086707294,0.003095190739259124,-1.2378700971603394,0.001057008106727153,0.00119216984603554,0.005858814576640725,-35.3630727,149.16469304999998,99204.5,2.0,2.0,-152.0
00:18:27,RTL,26403.0,0.0,0.0,-1000.0,2.0,1.0,5.0,0.0015766238793730736,0.003045165678486228,-1.2307454943656921,0.0005126611213199794,-0.0005382123636081815,0.004254221334122121,-35.3630727,149.1646931,102314.0,2.0,2.0,-152.0
00:18:29,RTL,13321.0,0.0,0.0,-1000.0,1.5,1.0,5.0,0.0014287736848928034,0.002798106870613992,-1.2255887985229492,0.0005084499716758728,-0.00046757463132962584,0.0035822660429403186,-35.3630727,149.1646931,105419.0,2.0,2.0,-152.0
00:18:31,RTL,13321.0,0.0,0.0,-999.5,1.5,2.0,4.5,0.001518256962299347,0.003030367544852197,-1.2205791473388672,-0.0007527695270255208,0.0006053918041288853,0.0031075592851266265,-35.3630727,149.1646931,108521.5,2.0,1.0,-152.0
00:18:32,RTL,55032.0,0.0,0.0,-999.75,0.5,2.0,3.75,0.0013643928396049887,0.002996056864503771,-1.2177249491214752,-0.0009557417943142354,0.0004564406699500978,0.002677116950508207,-35.3630727,149.1646931,110623.5,1.0,2.0,-152.0
00:18:33,RTL,55032.0,0.0,0.0,-1000.0,1.5,3.0,4.0,0.0007761217711959034,0.003426288370974362,-1.216485321521759,-0.0001209811307489872,0.0011293787974864244,0.0028320338460616767,-35.36307265,149.1646931,111790.0,1.0,2.0,-152.0
00:18:35,RTL,55032.0,0.0,0.0,-1000.0,3.5,2.5,3.0,0.0010750042274594307,0.0033435473451390862,-1.2127264738082886,0.0019387333886697888,0.0006260526133701205,0.0016303776064887643,-35.3630726,149.1646931,114894.0,1.0,2.0,-152.0
00:18:37,RTL,42249.5,0.0,0.0,-999.5,1.5,2.5,4.5,0.0016684425645507872,0.002731891698203981,-1.2094791531562805,-8.130964124575257e-05,0.0008006674470379949,0.0035132287302985787,-35.3630726,149.1646931,118001.5,1.0,2.0,-152.0
00:18:39,RTL,29467.0,0.0,0.0,-999.5,1.0,2.0,2.5,0.0008996114775072783,0.0029633943922817707,-1.2069267630577087,-0.0010833007982000709,0.00021587277296930552,0.0011961701675318182,-35.3630726,149.1646931,121111.0,1.0,2.0,-152.0
00:18:41,RTL,29467.0,0.0,0.0,-1000.0,2.5,2.0,3.0,-1.5218776752590202e-05,0.003444625181145966,-1.2047798037528992,0.0010877872118726373,0.0004121459205634892,0.0017996465903706849,-35.3630726,149.1646931,124217.0,1.0,1.0,-152.0
00:18:42,RTL,53836.0,0.0,0.0,-1000.0,3.0,1.25,3.5,0.0005559545461437665,0.0031545256497338414,-1.2028403580188751,0.0012342201662249863,-0.00017655864940024912,0.0023459732765331864,-35.3630726,149.1646931,126162.5,0.0,1.5,-152.0
00:18:43,RTL,53836.0,0.0,0.0,-1000.0,0.0,1.0,2.5,0.0007726099574938416,0.0026497136568650603,-1.201769232749939,-0.002293527591973543,-0.0011899652890861034,0.0011696477886289358,-35.3630726,149.16469315,127331.0,0.0,1.0,-152.0
00:18:45,RTL,53836.0,0.0,0.0,-999.5,3.0,3.5,3.0,0.0007228832109831274,0.003105548210442066,-1.2000531554222107,0.0008973473450168967,0.0014035730855539441,0.0017191413789987564,-35.3630726,149.1646932,130437.5,0.5,1.0,-152.0
00:18:47,RTL,53836.0,0.0,0.0,-1000.0,1.5,3.0,3.0,0.0014464656123891473,0.003406965872272849,-1.1985865831375122,-0.0007305825129151344,0.0009580346522852778,0.0017249371157959104,-35.3630726,149.1646932,133536.0,1.0,1.0,-152.0
00:18:48,RTL,165470.0,0.0,0.0,-999.75,2.0,2.5,4.0,0.0008491139742545784,0.0032500765519216657,-1.1976771354675293,-0.00012867720215581357,0.0006800447590649128,0.0023976756492629647,-35.3630726,149.1646932,135485.75,1.0,1.25,-152.0
00:18:49,RTL,165470.0,0.0,0.0,-1000.5,2.0,1.5,2.0,0.00011141877985210158,0.003496912308037281,-1.1970294117927551,0.0002643552143126726,-7.637252565473318e-05,0.0004584218841046095,-35.3630726,149.1646932,136650.0,1.0,1.5,-152.0
00:18:51,RTL,165470.0,0.0,0.0,-1000.0,1.5,1.5,3.0,0.0005289344117045403,0.0031770493369549513,-1.1962818503379822,-0.0003660544170998037,0.00011181877925992012,0.0010713048977777362,-35.3630726,149.1646932,139760.0,0.0,2.0,-152.0
00:18:53,RTL,165470.0,0.0,0.0,-1000.0,1.5,1.0,4.0,0.0005848119908478111,0.0030686762183904648,-1.1948233842849731,-0.0003050051745958626,-0.0007541161612607539,0.0022013371344655752,-35.3630726,149.1646932,142864.0,0.0,1.0,-152.0
00:18:54,RTL,159464.0,0.0,0.0,-1000.25,2.5,1.5,2.25,0.00047094430919969454,0.0031338511034846306,-1.194495677947998,0.0003608991682995111,-0.00019391212845221162,0.00048645236529409885,-35.3630726,149.1646932,144804.75,0.0,1.0,-152.0
00:18:55,RTL,159464.0,0.0,0.0,-1000.0,3.5,2.5,2.5,0.000617476092884317,0.003100332571193576,-1.1943740248680115,0.0015868014888837934,0.0003873819950968027,0.000967320753261447,-35.3630726,149.1646932,145970.0,0.0,1.0,-152.0
00:18:57,RTL,159464.0,0.0,0.0,-1000.5,2.0,2.5,2.0,0.0014923979179002345,0.002508430858142674,-1.1936328411102295,7.128121796995401e-05,0.0005392186576500535,0.0003592129796743393,-35.3630726,149.1646932,149077.0,1.0,1.0,-152.0
00:18:59,RTL,105954.0,0.0,0.0,-1000.0,3.0,2.0,3.0,0.000926948559936136,0.003016160218976438,-1.1920058727264404,0.0013495259918272495,6.505066994577646e-05,0.0011115084635093808,-35.3630726,149.1646932,152186.5,1.0,1.0,-152.0
00:19:01,RTL,52444.0,0.0,0.0,-1000.0,3.0,2.0,3.0,0.00031011035025585443,0.003233620314858854,-1.1916992664337158,0.0012136136647313833,0.00029069086303934455,0.0014026279095560312,-35.3630726,149.1646932,155289.5,0.0,1.0,-152.0
00:19:03,RTL,52444.0,9.0,5.0,-996.0,-6.0,33.0,3.5,-0.005566333886235952,0.07346337288618088,-1.1909765005111694,-0.008976531215012074,0.031090959906578064,0.0017325885128229856,-35.3630736,149.1646965,158373.5,-20.0,54.5,-147.5
00:19:04,RTL,267980.0,26.25,12.25,-963.75,-85.75,114.0,259.25,-0.032006844878196716,0.14538513123989105,-1.1247759461402893,-0.0886977098416537,0.11197979003190994,0.2576202476047911,-35.3630778,149.16470935,160161.75,-60.5,138.5,-126.0
00:19:05,RTL,267980.0,48.5,17.5,-936.5,71.0,-125.0,371.0,-0.01933590574481059,0.1974397823214531,-0.8301730751991272,0.06913112848997116,-0.12808409333229065,0.3694692403078079,-35.3630835,149.16472325,160992.5,-126.0,211.0,-80.5
00:19:07,RTL,267980.0,99.0,9.5,-995.0,311.0,37.5,-1.5,0.07867055386304855,0.17541449517011642,-0.6336918771266937,0.30866916477680206,0.03538934700191021,-0.0036156177520751953,-35.363108249999996,149.1647891,161434.5,-135.0,391.0,23.5
00:19:09,RTL,267980.0,134.5,25.5,-1006.5,198.5,-11.0,-27.0,-0.010294420644640923,0.1806434690952301,-0.7187551856040955,0.1962180882692337,-0.013649111613631248,-0.02938416600227356,-35.363138449999994,149.1648919,161101.5,-208.0,516.0,0.0
00:19:10,RTL,64220.0,132.0,23.25,-991.5,-37.25,-17.75,-34.75,-0.02678142860531807,0.13753419741988182,-0.7698512971401215,-0.039687163196504116,-0.020727291237562895,-0.037687704898416996,-35.363163924999995,149.1649647,161118.75,-232.75,534.75,-6.0
00:19:11,RTL,64220.0,130.0,32.0,-988.0,157.0,10.5,-33.0,-0.023673652671277523,0.1303294599056244,-0.7985082268714905,0.15464892983436584,0.008176105562597513,-0.035493755247443914,-35.36318,149.1650087,161141.5,-232.0,532.0,-3.5
00:19:13,RTL,64220.0,114.5,44.0,-998.5,461.5,-38.0,-28.0,-0.0465860553085804,0.04165918566286564,-0.8599572777748108,0.4597446769475937,-0.041201286017894745,-0.03024738619569689,-35.36322035,149.1651196,161183.5,-196.5,460.0,-3.0
00:19:15,RTL,91520.0,66.5,51.0,-1013.0,797.5,-3.5,-11.5,-0.053698593750596046,-0.05691247433423996,-0.8997083008289337,0.7951561212539673,-0.00602834764868021,-0.013509797980077565,-35.363249249999996,149.1652011,161160.5,-118.5,258.5,0.0
00:19:17,RTL,118820.0,17.0,1.0,-997.5,204.5,18.0,-21.5,-0.00926195876672864,-0.054242536425590515,-0.9366902112960815,0.20281048119068146,0.016331033781170845,-0.024604732170701027,-35.36326325,149.16523575000002,161117.0,-33.5,70.0,0.0
00:19:19,RTL,118820.0,0.0,-37.5,-1010.0,-688.0,32.0,-11.5,-0.0031401491723954678,-0.015207611955702305,-0.9608999490737915,-0.6905148029327393,0.029969340190291405,-0.014295366127043962,-35.3632659,149.16524164999998,161127.0,9.0,0.0,0.0
00:19:20,RTL,108647.0,1.5,24.25,-997.0,579.75,-12.5,-5.0,0.005778231570729986,0.00023622199660167098,-0.9725176990032196,0.5772508531808853,-0.015235759783536196,-0.008071760297752917,-35.363265025000004,149.1652418,161136.5,11.0,-0.5,-0.25
00:19:21,RTL,108647.0,1.5,-19.5,-994.0,-7.5,3.5,-8.0,-0.009933660039678216,-0.006747889565303922,-0.9798424541950226,-0.009398102760314941,0.0019513176521286368,-0.011025031097233295,-35.363264099999995,149.16524225,161140.5,9.0,-6.5,-1.0
00:19:23,RTL,108647.0,-4.0,-1.0,-1001.0,-267.5,3.5,-3.5,-0.01624794816598296,-0.005211302312090993,-0.9933840334415436,-0.27044785022735596,0.002126832725480199,-0.00610188627615571,-35.3632623,149.1652415,161154.0,-5.5,-20.5,-0.5
00:19:25,RTL,138918.5,-2.5,-5.0,-969.0,-459.0,2.0,1.5,0.0025408290093764663,-0.002926463959738612,-1.0045927166938782,-0.4625016450881958,0.0004377159057185054,-0.0010549770668148994,-35.363262950000006,149.1652391,161141.0,0.5,-11.5,4.5
00:19:27,RTL,169190.0,-3.6666666666666665,89.0,-979.3333333333334,1205.3333333333333,1.6666666666666667,-6.333333333333333,0.02589510940015316,-0.004464835859835148,-1.0134940544764202,1.2012808720270793,-4.464574158191681e-05,-0.009499979050209125,-35.36326403333334,149.16523743333335,159878.33333333334,12.0,0.0,111.66666666666667
00:19:29,RTL,169190.0,-0.3333333333333333,57.666666666666664,-1004.3333333333334,451.0,6.333333333333333,8.0,0.026899853100379307,-0.0018464946964134772,-1.0236862103144329,0.44624688227971393,0.004550151371707519,0.005245193839073181,-35.363265633333334,149.16523573333336,157678.33333333334,31.333333333333332,12.0,100.66666666666667
00:19:30,RTL,28587.0,0.0,-67.66666666666667,-1037.0,-1275.3333333333333,1.3333333333333333,-4.666666666666667,0.01333112083375454,-1.87933940954584e-05,-1.0287943283716838,-1.2784598271052043,-0.00039668000924090546,-0.00778843043372035,-35.363265399999996,149.1652356666667,156376.66666666666,31.666666666666668,13.0,97.33333333333333
00:19:31,RTL,28587.0,1.6666666666666667,-69.66666666666667,-994.3333333333334,-1116.3333333333333,2.3333333333333335,-2.6666666666666665,0.012964551647504171,0.001818035205360502,-1.031772534052531,-1.1189138293266296,0.0004628625077505906,-0.005518009963755806,-35.36326506666666,149.1652358,155623.33333333334,31.333333333333332,13.0,96.66666666666667
00:19:33,RTL,28587.0,4.0,-53.333333333333336,-998.6666666666666,-454.3333333333333,-1.6666666666666667,-6.0,-0.01540621059636275,0.005733329492310683,-1.038760503133138,-0.4564589460690816,-0.004164656236146887,-0.009088447317481041,-35.363262033333335,149.16523766666666,153579.33333333334,12.333333333333334,4.0,98.33333333333333
00:19:35,RTL,16991.0,-3.3333333333333335,73.0,-1020.0,1332.6666666666667,-4.666666666666667,-10.333333333333334,-0.0007780900535484155,-0.004388406251867612,-1.0437904198964436,1.3281262318293254,-0.0067084066880246,-0.013355023227632046,-35.36326113333334,149.1652389,151536.66666666666,-7.333333333333333,-5.666666666666667,96.66666666666667
00:19:37,RTL,16991.0,-6.0,37.333333333333336,-981.6666666666666,-225.33333333333334,5.333333333333333,1.0,0.011984968247512976,-0.005481856409460306,-1.0488430261611938,-0.2318079819281896,0.003749646091212829,-0.0015892057369152706,-35.3632638,149.1652371,149518.66666666666,7.333333333333333,0.0,100.33333333333333
00:19:39,RTL,16991.0,0.0,-64.0,-979.3333333333334,-1573.3333333333333,5.333333333333333,-4.666666666666667,0.009392193363358578,0.002744150774863859,-1.0544888575871785,-1.5784027973810832,0.0039816671051084995,-0.007733865253006418,-35.36326543333333,149.16523533333333,147470.33333333334,29.333333333333332,13.0,102.0
00:19:40,RTL,119326.0,1.0,-59.0,-973.0,-434.6666666666667,3.0,-4.333333333333333,0.02203293765584628,0.004338044673204422,-1.0565260648727417,-0.4382055501143138,0.0017674252934133012,-0.007597794213021795,-35.3632648,149.16523543333332,146198.66666666666,28.333333333333332,15.0,99.66666666666667
00:19:41,RTL,119326.0,3.3333333333333335,-58.333333333333336,-940.3333333333334,-143.33333333333334,6.333333333333333,-0.3333333333333333,0.026598309477170307,0.005182467866688967,-1.0575130780537922,-0.1463536744316419,0.0047991119014720125,-0.0032332527140776315,-35.36326433333334,149.16523573333333,145425.33333333334,25.333333333333332,14.0,101.0
00:19:43,RTL,119326.0,2.3333333333333335,65.33333333333333,-1016.0,1418.0,-2.6666666666666665,3.3333333333333335,0.007812009678067018,0.002564180176705122,-1.060630162556966,1.4124423662821453,-0.004080532196288307,0.0010560376103967428,-35.3632624,149.1652373,143393.0,10.333333333333334,6.333333333333333,99.33333333333333
00:19:45,RTL,119326.0,-1.3333333333333333,57.666666666666664,-1005.3333333333334,442.0,0.0,-2.6666666666666665,-0.014056259455780188,-5.084526492282748e-05,-1.065506935119629,0.4351365268230438,-0.0023709521628916264,-0.005682038608938456,-35.363261566666665,149.16523836666667,141360.66666666666,-0.3333333333333333,-1.6666666666666667,102.0
00:19:46,RTL,36784.0,-4.333333333333333,-9.333333333333334,-1011.6666666666666,-984.6666666666666,-0.3333333333333333,2.3333333333333335,-0.012848153244704008,-0.005075242680807908,-1.0664691527684529,-0.9916980663935343,-0.0019706262974068522,-0.00046363589353859425,-35.3632622,149.16523816666668,140082.66666666666,-3.6666666666666665,-4.0,104.66666666666667
00:19:47,RTL,36784.0,-2.6666666666666665,-56.333333333333336,-1008.0,-1368.3333333333333,1.6666666666666667,1.3333333333333333,0.004766122651441644,-0.0038297343999147415,-1.067672848701477,-1.373592694600423,0.0002527657973890503,-0.001045992908378442,-35.3632632,149.16523746666667,139316.33333333334,1.6666666666666667,-2.0,100.33333333333333
00:19:49,RTL,36784.0,1.3333333333333333,-70.33333333333333,-1008.0,-1044.0,6.0,-1.0,0.01164968932668368,0.0043993485160171986,-1.0687744617462158,-1.0483315189679463,0.004493306623771787,-0.004267015804847081,-35.36326416666667,149.1652362,137272.66666666666,18.0,6.666666666666667,101.0
00:19:51,RTL,51954.5,1.0,30.0,-1042.0,1141.3333333333333,-6.666666666666667,3.6666666666666665,0.004216806303399305,0.004429741141696771,-1.070886452992757,1.1366759936014812,-0.008815030877788862,0.0011182317199806373,-35.36326193333333,149.16523733333335,135220.0,5.333333333333333,4.666666666666667,99.66666666666667
00:19:53,RTL,67125.0,-3.3333333333333335,86.33333333333333,-961.6666666666666,1139.0,0.0,9.666666666666666,0.02237556998928388,-0.005959879606962204,-1.0728526910146077,1.1321179866790771,-0.0013645843137055635,0.007530676666647196,-35.36326333333333,149.16523706666666,133215.66666666666,4.333333333333333,3.3333333333333335,103.66666666666667
00:19:55,RTL,67125.0,0.6666666666666666,8.0,-972.6666666666666,-593.3333333333334,7.0,10.333333333333334,-0.004833030824859937,0.004046293053155144,-1.0742408831914265,-0.6012494179109732,0.0057692186286052065,0.00812675291672349,-35.3632644,149.16523606666667,131171.66666666666,23.333333333333332,9.666666666666666,105.66666666666667
00:19:56,RTL,129813.0,4.666666666666667,-34.333333333333336,-996.6666666666666,144.33333333333334,1.0,-2.6666666666666665,0.006054995232261717,0.008392681367695332,-1.0743623574574788,0.13963201145331064,-0.0007935508231942853,-0.00537601369433105,-35.3632628,149.1652367,129880.0,15.0,7.333333333333333,105.33333333333333
00:19:57,RTL,129813.0,3.0,-11.0,-979.6666666666666,693.3333333333334,-5.666666666666667,-6.333333333333333,0.006401334656402469,0.006514828652143478,-1.0755634307861328,0.6890684366226196,-0.008024348101268211,-0.009750654610494772,-35.36326176666666,149.16523733333335,129126.0,4.666666666666667,3.6666666666666665,98.0
00:19:59,RTL,129813.0,-1.0,-2.6666666666666665,-1008.6666666666666,754.6666666666666,-2.3333333333333335,3.0,0.00583617117566367,-9.049359262765695e-05,-1.0768764019012451,0.7501523594061533,-0.004171767000419398,0.0001443140208721161,-35.363260733333334,149.16523836666667,127086.33333333333,-13.666666666666666,-4.0,102.0
00:20:01,RTL,99170.5,-2.3333333333333335,74.33333333333333,-1007.3333333333334,1282.3333333333333,6.0,1.3333333333333333,0.024020106221238773,-0.00026447165873833,-1.077492078145345,1.275219718615214,0.005038886486242215,-0.0018722407209376495,-35.3632628,149.1652372,125034.66666666667,1.6666666666666667,1.0,100.33333333333333
00:20:03,RTL,68528.0,4.333333333333333,-76.66666666666667,-1020.0,-1330.6666666666667,3.3333333333333335,-1.0,-0.015490679225573937,0.008313930438210567,-1.0781665245691936,-1.3362292051315308,0.0022326804076631865,-0.004156813956797123,-35.363262666666664,149.16523683333335,123002.66666666667,8.333333333333334,4.0,99.0
00:20:05,RTL,68528.0,3.3333333333333335,-74.0,-980.3333333333334,-1067.6666666666667,-3.3333333333333335,-4.666666666666667,-0.04437572012344996,0.006045059921840827,-1.0794343153635662,-1.0721958875656128,-0.005300339000920455,-0.008182666885356108,-35.363259166666666,149.16523903333334,120972.0,-20.666666666666668,-7.666666666666667,101.33333333333333
00:20:06,RTL,143017.0,6.333333333333333,-17.0,-1002.6666666666666,589.3333333333334,0.0,-2.6666666666666665,-0.01714243336270253,0.004370315155635278,-1.0787644783655803,0.5860518117745718,-0.001273555215448141,-0.005602749918277065,-35.363258,149.1652402,119683.0,-35.666666666666664,-17.333333333333332,101.33333333333333
00:20:07,RTL,143017.0,4.666666666666667,12.666666666666666,-1000.6666666666666,1035.6666666666667,2.6666666666666665,3.3333333333333335,-0.040381267045935,0.005349631886929274,-1.079637924830119,1.0322781999905903,0.0013720754456395905,0.000767155938471357,-35.36325693333334,149.16524096666666,118914.33333333333,-41.333333333333336,-22.0,102.0
00:20:09,RTL,143017.0,-4.333333333333333,23.333333333333332,-991.6666666666666,1075.6666666666667,-9.666666666666666,1.3333333333333333,-0.030400338272253673,-0.0041038535224894685,-1.0799155632654827,1.0735034147898357,-0.011805730561415354,-0.0018243509499977033,-35.363255833333334,149.16524196666668,116875.33333333333,-68.0,-34.333333333333336,102.66666666666667
00:20:11,RTL,150326.0,-6.666666666666667,61.0,-1041.0,1400.0,9.333333333333334,-1.0,0.0379392479856809,-0.008246473657588163,-1.079286773999532,1.397066593170166,0.008300850633531809,-0.004071908304467797,-35.36326156666667,149.16523863333336,114803.0,-29.666666666666668,-18.333333333333332,97.66666666666667
00:20:13,RTL,150326.0,-2.6666666666666665,75.33333333333333,-973.0,761.0,1.3333333333333333,8.333333333333334,0.016218457370996475,0.000876470449535797,-1.0792177120844524,0.7558653950691223,-0.0003228267887607217,0.005517917529990275,-35.363263966666665,149.16523623333333,112747.33333333333,9.666666666666666,3.6666666666666665,97.0
00:20:15,RTL,150326.0,-2.6666666666666665,56.0,-995.0,426.6666666666667,6.666666666666667,-16.0,0.03424092630545298,-0.0006385032514420649,-1.0806003014246623,0.4204130868117015,0.005611185256081323,-0.019234896482278902,-35.36326616666667,149.1652348,110723.33333333333,33.0,17.666666666666668,101.0
00:20:16,RTL,26332.0,-2.6666666666666665,-44.0,-1053.6666666666667,-1325.6666666666667,-1.3333333333333333,4.333333333333333,0.01343048457056284,0.0005990144272800535,-1.0802404085795085,-1.3306008577346802,-0.003460715990513563,0.0016441807771722476,-35.36326643333334,149.1652345,109417.66666666667,40.0,22.0,93.0
00:20:17,RTL,26332.0,-1.3333333333333333,-46.0,-992.0,-1365.3333333333333,2.0,6.666666666666667,0.032665763050317764,-0.00028851408084544045,-1.0802687803904216,-1.3711193005243938,0.00036340691925336915,0.0036900657384345927,-35.36326713333333,149.16523406666667,108672.66666666667,43.333333333333336,24.0,96.66666666666667
00:20:19,RTL,26332.0,1.3333333333333333,-80.0,-986.6666666666666,-1382.0,3.0,6.0,0.033316404869159065,0.0042470831734438734,-1.0803367296854656,-1.387627085049947,0.0016073307876164715,0.002976999074841539,-35.36326743333333,149.16523376666666,106639.0,54.0,29.333333333333332,96.66666666666667
00:20:21,RTL,82339.0,5.0,56.5,-981.75,1167.75,-0.5,8.5,0.011425433796830475,0.009750747121870518,-1.0796443819999695,1.1605837643146515,-0.002139687043381855,0.005524148931726813,-35.36326465,149.1652354,104471.5,43.0,23.75,99.75
00:20:23,RTL,82339.0,2.0,65.66666666666667,-1008.3333333333334,859.0,3.0,6.333333333333333,-0.00036121167552967864,0.0032314485094199577,-1.0815787712732952,0.8505914111932119,0.0012071547098457813,0.0035623698495328426,-35.36326243333334,149.16523716666669,102452.66666666667,11.666666666666666,8.666666666666666,99.0
00:20:25,RTL,82339.0,-1.0,18.666666666666668,-1007.6666666666666,-591.6666666666666,4.666666666666667,-4.0,-0.020554724459846813,0.0018532018487652142,-1.08082115650177,-0.601098507642746,0.0029566090864439807,-0.006646141565094392,-35.36326193333333,149.16523776666668,100404.0,2.3333333333333335,1.3333333333333333,99.66666666666667
00:20:26,RTL,158041.0,0.3333333333333333,-75.66666666666667,-981.3333333333334,-1295.6666666666667,0.3333333333333333,-3.6666666666666665,-0.0031204766128212214,0.0014473311603069305,-1.0814841190973918,-1.3017529646555583,-0.0015605275596802433,-0.00732317225386699,-35.36326210000001,149.16523766666668,99143.66666666667,-1.0,0.0,96.0
00:20:27,RTL,158041.0,-1.0,-70.0,-1003.6666666666666,-1020.6666666666666,2.6666666666666665,0.6666666666666666,0.005595830036327243,0.0021751507107789316,-1.081065575281779,-1.0265724062919617,0.0007335229699189464,-0.0020563649013638496,-35.3632623,149.1652374,98376.66666666667,0.0,0.3333333333333333,99.66666666666667
00:20:29,RTL,158041.0,-3.6666666666666665,-0.6666666666666666,-982.6666666666666,670.0,2.3333333333333335,8.0,0.04530009006460508,-0.0019477813038975,-1.0813779830932617,0.6641611854235331,0.0005721651638547579,0.004892049279684822,-35.363264199999996,149.1652362,96335.0,11.333333333333334,7.666666666666667,97.33333333333333
00:20:31,RTL,100943.0,5.0,49.333333333333336,-1031.3333333333333,729.3333333333334,14.666666666666666,16.333333333333332,0.019553723745048046,0.011358475312590599,-1.080501953760783,0.7200077970822653,0.01352138351649046,0.013585239493598541,-35.36326483333333,149.16523523333333,94295.66666666667,33.0,16.333333333333332,97.0
00:20:33,RTL,100943.0,6.0,-16.0,-980.0,-881.6666666666666,2.3333333333333335,-0.6666666666666666,-0.0649314063290755,0.013685005716979504,-1.0805148283640544,-0.8913640777269999,0.0008127335458993912,-0.0039556681488951044,-35.363259066666664,149.16523843333331,92256.0,-11.0,0.3333333333333333,99.66666666666667
00:20:35,RTL,100943.0,1.3333333333333333,-72.66666666666667,-977.6666666666666,-1366.3333333333333,-0.6666666666666666,-3.6666666666666665,-0.075336458782355,0.004074235679581761,-1.0793590148289998,-1.372536063194275,-0.0029693435256679854,-0.007014833390712738,-35.363255933333335,149.16524130000002,90240.33333333333,-55.666666666666664,-23.0,100.0
00:20:36,RTL,104829.0,-2.0,-54.666666666666664,-986.6666666666666,-296.3333333333333,2.3333333333333335,6.333333333333333,-0.037932162483533226,-0.0004834893043152988,-1.0800984303156536,-0.30082320670286816,0.0005272377748042345,0.0031466673438747725,-35.363256,149.16524166666667,88970.66666666667,-64.33333333333333,-30.333333333333332,106.0
00:20:37,RTL,104829.0,-2.0,-44.0,-954.3333333333334,-70.33333333333333,-0.3333333333333333,-5.666666666666667,-0.03149127898116907,-0.0016750129483019311,-1.080633521080017,-0.07391546169916789,-0.0024237314549585185,-0.009549752809107304,-35.36325643333333,149.16524146666669,88218.33333333333,-64.66666666666667,-32.0,101.33333333333333
00:20:39,RTL,104829.0,-5.666666666666667,70.0,-1028.6666666666667,1425.0,5.333333333333333,5.666666666666667,-0.01038376932653288,-0.0005178923214164873,-1.0807500680287678,1.4198948939641316,0.003680686466395855,0.0025309001406033835,-35.363258466666665,149.16524006666666,86178.66666666667,-46.666666666666664,-23.333333333333332,101.33333333333333
00:20:41,RTL,104829.0,-1.6666666666666667,-55.666666666666664,-1016.6666666666666,-1057.3333333333333,4.0,-1.3333333333333333,0.013377067167311907,-0.0018936539806115131,-1.0810790061950684,-1.0609451134999592,0.00213304926486065,-0.004849412478506565,-35.363262133333336,149.16523756666666,84127.0,-17.333333333333332,-8.333333333333334,102.0
00:20:42,RTL,1126.0,0.6666666666666666,-58.333333333333336,-979.3333333333334,-539.0,4.333333333333333,-7.666666666666667,0.010290828145419558,0.004740753599132101,-1.0788660446802776,-0.5417543749014536,0.002709867743154367,-0.011969431303441525,-35.36326259999999,149.1652369,82853.33333333333,-1.6666666666666667,-0.3333333333333333,100.33333333333333
00:20:43,RTL,1126.0,2.0,-23.333333333333332,-999.3333333333334,345.0,2.6666666666666665,3.0,0.009670073942591747,0.006431538922091325,-1.0801783005396526,0.3428887327512105,0.0005351268531133732,-0.00033759791404008865,-35.36326223333334,149.16523700000002,82076.66666666667,-0.6666666666666666,0.0,102.66666666666667
00:20:45,RTL,1126.0,1.0,63.333333333333336,-1032.3333333333333,1402.0,7.0,12.0,-0.013625614655514559,0.004243021210034688,-1.0809366305669148,1.3979772726694744,0.0044995988719165325,0.008989124093204737,-35.363260266666664,149.16523846666666,80022.66666666667,-12.333333333333334,-4.0,98.66666666666667
00:20:47,RTL,57085.0,-3.0,50.666666666666664,-935.0,69.33333333333333,0.6666666666666666,15.0,-0.01631536055356264,-0.0031131701543927193,-1.0807078282038372,0.06333531936009724,-0.0019900815871854625,0.011822414894898733,-35.363260733333334,149.1652388,77994.33333333333,-18.666666666666668,-9.333333333333334,101.33333333333333
00:20:49,RTL,57085.0,-3.0,-62.333333333333336,-972.6666666666666,-614.0,4.333333333333333,-1.6666666666666667,0.04370622709393501,-0.0034123570270215473,-1.0804671049118042,-0.6163097023963928,0.0023175025125965476,-0.005073047863940398,-35.3632643,149.1652365,75949.0,3.0,-0.3333333333333333,103.0
00:20:51,RTL,57085.0,-1.3333333333333333,69.0,-976.3333333333334,983.0,7.666666666666667,12.0,0.021051650866866112,0.005987041008969148,-1.0796206792195637,0.977450301249822,0.005557258613407612,0.008604700832317272,-35.363264533333336,149.16523556666664,73892.66666666667,25.333333333333332,13.333333333333334,103.0
00:20:52,RTL,15188.0,-2.0,34.666666666666664,-970.6666666666666,-130.33333333333334,0.0,2.6666666666666665,0.004755727481096983,0.002246616679864625,-1.0794929265975952,-0.13742098460594812,-0.002846783958375454,-0.0005454945688446363,-35.363264533333336,149.16523553333332,72622.66666666667,24.0,15.666666666666666,99.33333333333333
00:20:53,RTL,15188.0,-1.6666666666666667,-2.6666666666666665,-950.3333333333334,-885.0,3.6666666666666665,2.6666666666666665,0.010772523780663809,8.428619670060774e-06,-1.079835017522176,-0.8916981418927511,0.0015537903333703678,-0.0009568739527215561,-35.363265166666665,149.16523529999998,71844.33333333333,25.333333333333332,16.333333333333332,101.66666666666667
00:20:55,RTL,15188.0,2.6666666666666665,-59.333333333333336,-973.6666666666666,-1477.6666666666667,4.333333333333333,6.333333333333333,0.002505196879307429,0.005918859659383695,-1.078975518544515,-1.4838931163152058,0.00245280540548265,0.002772511293490728,-35.36326536666667,149.1652352,69806.0,35.333333333333336,18.333333333333332,97.33333333333333
00:20:57,RTL,45447.0,6.666666666666667,24.333333333333332,-1051.3333333333333,1197.0,-10.0,-5.666666666666667,0.0025161703039581576,0.006951066354910533,-1.0794428586959839,1.1922932267189026,-0.01304632176955541,-0.010047977324575186,-35.36326196666666,149.1652373,67755.66666666667,10.666666666666666,7.0,97.66666666666667
00:20:59,RTL,45447.0,-0.3333333333333333,70.66666666666667,-1030.0,1100.6666666666667,3.0,3.6666666666666665,-0.01427898028244575,0.00011176405920802306,-1.0798434416453044,1.0938944617907207,0.0003959064682324727,-0.0001562212904294332,-35.3632602,149.165239,65717.0,-14.333333333333334,-6.0,95.66666666666667
00:21:02,RTL,30365.0,-3.5,-66.5,-1017.0,-1302.5,-5.5,6.5,0.012638963060453534,-0.0013474042061716318,-1.0807522535324097,-1.3073248267173767,-0.008687574649229646,0.0027994292322546244,-35.36326355,149.16523684999999,62398.0,3.5,0.5,97.0
00:21:04,RTL,15283.0,3.5,-4.5,-984.5,876.5,8.5,9.5,0.03370767831802368,0.007503632456064224,-1.0771060585975647,0.8726467788219452,0.006970223737880588,0.00557408481836319,-35.363263599999996,149.16523625000002,60369.5,16.5,7.5,95.5
00:21:06,RTL,15283.0,0.5,13.0,-1026.0,-507.5,-9.5,13.5,-0.040970562025904655,0.003270583925768733,-1.0793260335922241,-0.5149882733821869,-0.012251646257936954,0.009765954688191414,-35.3632605,149.1652383,58343.0,-6.5,-1.0,94.0
00:21:07,RTL,13729.0,-1.25,-35.75,-982.75,-1267.75,-0.25,-0.75,-0.03336579678580165,-0.0011777442414313555,-1.0791627168655396,-1.274311125278473,-0.0023398039338644594,-0.00458914740011096,-35.363260624999995,149.165238525,57588.75,-13.75,-4.75,97.5
00:21:08,RTL,13729.0,-2.0,-53.0,-1000.5,-1319.0,6.5,3.0,-0.013096587732434273,-0.0044615601655095816,-1.0785850882530212,-1.3248765468597412,0.004539031069725752,-0.00022776657715439796,-35.363261800000004,149.1652383,56316.5,-10.5,-6.5,98.0
00:21:10,RTL,13729.0,3.0,-72.0,-1028.0,-1442.0,0.0,-5.0,-0.030332602560520172,0.0056348564103245735,-1.0793797373771667,-1.4466273188591003,-0.002564094611443579,-0.008969321963377297,-35.36326135,149.16523825000002,54292.5,-3.0,-6.0,99.5
00:21:12,RTL,19024.5,9.0,-12.5,-1071.5,-660.5,-0.5,8.0,-0.06030666641891003,0.00861087953671813,-1.0771222114562988,-0.6670242175459862,-0.0032982988050207496,0.0044733763206750154,-35.36325825,149.16524005,52253.0,-28.5,-17.0,96.5
00:21:14,RTL,24320.0,3.5,-7.5,-1001.0,-826.5,-8.0,4.0,-0.10260599851608276,0.0035101440735161304,-1.0775293111801147,-0.830674797296524,-0.010934885125607252,0.0006691874004900455,-35.36325415,149.16524295,50231.0,-69.5,-37.5,100.0
00:21:16,RTL,24320.0,-0.5,-60.0,-994.0,-562.0,0.0,5.5,-0.05302180536091328,-0.004071422386914492,-1.0775007009506226,-0.5608672462403774,-0.0025601215893402696,0.001529780449345708,-35.36325445,149.16524345,48154.5,-86.5,-50.0,107.0
00:21:17,RTL,55052.0,-2.25,-0.25,-966.25,539.5,2.0,3.75,-0.037676420994102955,-0.004021787142846733,-1.0775964260101318,0.5404688250273466,0.0004193805216345936,0.00013755913823843002,-35.363254999999995,149.165243075,47391.75,-82.0,-48.5,98.75
00:21:18,RTL,55052.0,-5.5,54.5,-988.0,1400.0,0.0,0.5,-0.024809090420603752,-0.0022184308618307114,-1.0770918130874634,1.4006262421607971,-0.001828268519602716,-0.003166537033393979,-35.363256199999995,149.16524205000002,46101.5,-71.0,-42.5,94.5
00:21:20,RTL,55052.0,-8.0,74.5,-1013.5,1406.5,1.5,3.5,0.004961150174494833,-0.005260738078504801,-1.0785822868347168,1.407638430595398,-0.0006956910947337747,-0.00044507719576358795,-35.363259,149.16523990000002,44058.5,-49.5,-27.5,97.5
00:21:22,RTL,80412.5,-7.0,40.5,-1038.0,-281.5,3.0,5.5,0.020514302887022495,-0.004476300906389952,-1.077056348323822,-0.28171661496162415,0.0011672340333461761,0.0016626862343400717,-35.36326390000001,149.16523645,42007.0,-2.5,-1.5,97.5
00:21:24,RTL,105773.0,-2.5,-11.5,-1000.5,-881.5,8.5,3.0,0.04190800338983536,-0.0022658510133624077,-1.0776046514511108,-0.882603794336319,0.00734237115830183,-0.0005290599074214697,-35.36326755,149.16523395000002,40030.5,37.5,19.0,99.5
00:21:26,RTL,105773.0,2.5,-78.5,-1038.5,-1327.5,3.5,-10.0,0.008842552080750465,0.007323491619899869,-1.0774836540222168,-1.3273406624794006,0.0016080955974757671,-0.014130130992271006,-35.36326625,149.1652344,37986.5,49.5,26.0,105.5
00:21:27,RTL,150625.0,1.25,-70.0,-1009.0,-1100.25,-2.0,-2.5,0.008715088828466833,0.0050051643047481775,-1.0767763257026672,-1.0997279733419418,-0.00439042819198221,-0.0065870488760992885,-35.36326525,149.16523510000002,37218.5,39.25,22.0,101.0
00:21:28,RTL,150625.0,1.0,-0.5,-981.0,837.0,-0.5,6.5,0.03504716046154499,0.001310397987253964,-1.076965093612671,0.8378259837627411,-0.002571084536612034,0.002753810491412878,-35.36326485,149.16523575000002,35923.5,31.0,17.5,106.5
00:21:30,RTL,150625.0,2.0,22.5,-966.5,1151.0,-1.5,6.0,0.037240879610180855,0.0010022651695180684,-1.077296495437622,1.1511227190494537,-0.0035768438829109073,0.0025240490213036537,-35.3632646,149.16523625000002,33878.5,29.0,12.5,100.5
00:21:32,RTL,85715.5,-1.0,51.0,-971.0,1459.5,-0.5,2.5,0.04024357721209526,-0.0010537627094890922,-1.078538417816162,1.4579495191574097,-0.0025573770981281996,-0.0014604153111577034,-35.363264650000005,149.16523635,31848.5,25.5,10.5,104.0
00:21:34,RTL,20806.0,-0.5,-17.5,-962.5,552.5,2.5,-9.0,0.048615844920277596,0.0010766549094114453,-1.0764301419258118,0.5520245730876923,0.0008798176422715187,-0.0134901637211442,-35.3632653,149.16523575000002,29708.5,31.0,13.0,102.5
00:21:36,RTL,20806.0,3.5,39.5,-1072.0,74.0,6.0,13.5,-0.00645410711877048,0.007566859247162938,-1.0757402777671814,0.06899194605648518,0.004099392099305987,0.00965604861266911,-35.3632638,149.16523619999998,27646.5,29.0,14.5,99.5
00:21:37,RTL,126049.0,-1.0,46.75,-971.5,252.75,1.25,-1.0,-0.0079896226816345,0.004976885218638927,-1.077001303434372,0.24756211787462234,-0.0009557097218930721,-0.004980271274689585,-35.3632632,149.16523652499998,26900.25,18.75,11.25,99.25
00:21:38,RTL,126049.0,-1.0,45.5,-1020.0,166.5,-2.0,15.5,0.007373075699433684,-0.001892956905066967,-1.0771504044532776,0.16136272624135017,-0.004540998488664627,0.011775304563343525,-35.363263599999996,149.1652366,25602.5,14.0,9.0,100.5
00:21:40,RTL,126049.0,0.0,60.5,-1017.5,583.0,4.5,7.0,0.006690483773127198,0.001923063537105918,-1.0766733884811401,0.5778291821479797,0.0032577275997027755,0.0032039829529821873,-35.363263849999996,149.16523665,23547.5,19.0,8.0,98.5
00:21:42,RTL,126049.0,1.0,-67.0,-967.5,-894.0,-8.5,-4.5,0.00998565717600286,0.0024620008189231157,-1.0774804949760437,-0.8966510146856308,-0.011041255318559706,-0.009078046074137092,-35.363262649999996,149.16523725000002,21504.0,6.0,2.0,98.0
00:21:43,RTL,141511.0,1.5,-46.25,-951.0,-31.0,-0.75,-9.5,0.012644786853343248,0.0021749208099208772,-1.0763109028339386,-0.03310141712427139,-0.0026347863022238016,-0.013787055155262351,-35.3632624,149.16523745,20753.25,4.75,1.25,99.75
00:21:44,RTL,141511.0,0.5,35.5,-970.5,1384.0,9.0,20.5,0.02340859640389681,0.002433797111734748,-1.0748242735862732,1.3806890845298767,0.007670118473470211,0.016684927511960268,-35.3632621,149.1652377,19479.5,3.0,0.0,97.5
00:21:46,RTL,141511.0,0.5,62.5,-1007.0,879.0,8.5,10.5,0.0036506623728200793,0.0014452232280746102,-1.0762324929237366,0.8731371536850929,0.007117740693502128,0.0069063284900039434,-35.363261949999995,149.1652379,17431.5,0.5,-0.5,102.0
00:21:48,RTL,141511.0,0.0,-64.0,-960.5,-594.0,4.0,2.0,0.016743204556405544,-0.0021481101284734905,-1.07723867893219,-0.596893697977066,0.002464975754264742,-0.0015736123314127326,-35.36326245,149.1652377,15408.0,-1.5,-2.0,99.5
00:21:49,RTL,76364.0,0.25,-66.25,-952.25,-596.5,-0.5,-14.75,0.011675222311168909,-0.0002730487904045731,-1.077745109796524,-0.5993766561150551,-0.0022596477647311985,-0.019067237619310617,-35.3632626,149.1652376,14639.25,1.25,-1.5,99.75
00:21:50,RTL,76364.0,3.5,16.0,-1029.5,987.5,3.5,-0.5,0.025438309647142887,0.0032446737168356776,-1.0769879817962646,0.9842323958873749,0.002079962636344135,-0.004873799160122871,-35.36326235,149.16523765,13337.5,0.0,-3.0,94.5
00:21:52,RTL,76364.0,8.0,-2.0,-1054.5,465.5,-1.0,-1.5,-0.043227141723036766,0.009533118922263384,-1.0768043398857117,0.4633033387362957,-0.0031684832647442818,-0.005293232621625066,-35.363258200000004,149.16523990000002,11475.0,-25.5,-15.0,57.5
00:21:54,RTL,64618.5,-1.0,44.5,-1014.5,640.5,-4.5,6.0,-0.057749295607209206,-0.0009200835120282136,-1.076804518699646,0.6377242505550385,-0.00683936825953424,0.0029642926529049873,-35.3632555,149.1652422,10889.5,-65.5,-33.5,31.5
00:21:56,RTL,52873.0,-7.5,-3.0,-1013.0,-509.5,4.0,5.5,-0.013351005967706442,-0.007143546128645539,-1.0760113596916199,-0.5120836496353149,0.002337514655664563,0.00213040504604578,-35.3632592,149.1652402,10231.5,-49.0,-27.5,35.0
00:21:58,RTL,52873.0,-1.5,-45.0,-985.5,-624.0,8.5,3.0,0.017140639014542103,0.0015298565704142675,-1.074682354927063,-0.6239219605922699,0.0072813008446246386,-0.0005354882450774312,-35.363262399999996,149.16523745,9530.0,-9.0,-7.5,34.5
00:21:59,RTL,40404.0,-1.25,-24.0,-1008.0,-683.0,3.0,2.0,-0.0038891450385563076,0.003351719758938998,-1.0755975544452667,-0.6847468391060829,0.0013046289386693388,-0.0017986145103350282,-35.3632626,149.16523705,9267.75,-1.75,-1.75,32.75
00:22:00,RTL,40404.0,-0.5,33.5,-997.5,820.0,-2.5,3.0,0.018395917490124702,0.0021835860097780824,-1.0758345127105713,0.8195783495903015,-0.0043127587414346635,-0.00047450466081500053,-35.363262750000004,149.1652368,8847.5,1.0,2.0,33.5
00:22:02,RTL,40404.0,-2.0,-18.0,-989.0,-252.0,1.5,1.5,0.02340475469827652,-0.00023270667588803917,-1.0761727690696716,-0.25295791029930115,-0.00027049926575273275,-0.002215522574260831,-35.363263849999996,149.16523625,8814.5,10.0,7.5,-4.5
00:22:04,RTL,40404.0,0.0,-35.0,-995.0,-318.0,1.5,1.5,0.02937556430697441,0.001692676160018891,-1.0755300521850586,-0.31966038048267365,0.0003023932222276926,-0.001625751261599362,-35.363265,149.1652355,8607.5,25.5,14.0,1.0
00:22:05,RTL,8241.0,-0.25,-8.25,-997.5,-238.25,4.5,3.25,0.018491675844416022,0.0027679346967488527,-1.0754028856754303,-0.24065391346812248,0.0031870284001342952,7.62174604460597e-05,-35.363264975,149.1652355,8627.0,28.25,15.25,-0.75
00:22:06,RTL,8241.0,-0.5,-29.5,-994.0,-474.5,3.5,3.0,0.02574657555669546,0.0019512402941472828,-1.0756894946098328,-0.4768679291009903,0.002516562177333981,-0.00033153570257127285,-35.3632651,149.1652354,8657.5,27.5,15.5,1.5
00:22:08,RTL,8241.0,1.0,1.0,-1009.5,-183.5,4.5,4.5,0.018750500865280628,0.0032972594490274787,-1.0754070281982422,-0.18718133121728897,0.0031375930993817747,0.001509375753812492,-35.36326495,149.16523554999998,8666.0,30.5,16.0,4.0
00:22:10,RTL,8241.0,3.0,-39.5,-974.0,-772.0,4.5,0.5,-0.009955952875316143,0.006561085814610124,-1.0753204226493835,-0.7756153345108032,0.0034209962468594313,-0.003221346065402031,-35.36326315,149.16523669999998,8643.0,18.5,9.5,7.0
00:22:11,RTL,80175.0,3.0,20.0,-976.75,193.75,0.75,7.75,-0.01537698449101299,0.0066095475340262055,-1.074864238500595,0.1893957518041134,-0.0009051518281921744,0.004482268064748496,-35.363262175,149.16523732500002,8461.25,10.25,5.75,37.5
00:22:12,RTL,80175.0,2.5,-21.0,-1012.0,-24.5,1.0,-3.5,-0.01711907098069787,0.0046940993051975965,-1.0739590525627136,-0.026711419224739075,-0.00080713233910501,-0.007206317153759301,-35.3632607,149.16523834999998,7954.5,-6.0,-2.0,38.0
00:22:14,RTL,80175.0,0.5,2.0,-1010.0,507.0,0.0,1.5,-0.029087701812386513,0.004044903442263603,-1.0742706656455994,0.5059042274951935,-0.00159008230548352,-0.0010683765867725015,-35.3632587,149.16523975,7240.5,-27.0,-14.0,35.5
00:22:16,RTL,53475.0,-3.5,-33.5,-1030.0,-937.5,-1.0,1.5,-0.020893488079309464,-0.0035924166440963745,-1.0756288170814514,-0.9396775364875793,-0.0024717466440051794,-0.0019252827623859048,-35.363259549999995,149.1652396,6547.0,-33.0,-16.5,36.5
00:22:18,RTL,26775.0,-4.5,-5.0,-985.0,265.0,5.0,1.0,0.03064120002090931,-0.003634866909123957,-1.0750110149383545,0.2646794803440571,0.0036833881749771535,-0.0019458567257970572,-35.36326285,149.16523755,5876.5,-6.0,-6.0,33.0
00:22:20,RTL,26775.0,0.0,37.0,-1051.0,873.0,1.0,5.0,0.0301920548081398,0.002648774301633239,-1.0743893384933472,0.8701597452163696,-2.693221904337406e-05,0.0018368300516158342,-35.363264,149.1652364,5201.0,16.0,6.0,33.0
00:22:21,RTL,35584.0,-0.75,28.25,-1010.0,859.25,0.5,2.75,0.022702308371663094,0.0024516012344975024,-1.0743868947029114,0.8574867993593216,-0.0010142948594875634,-0.0003490106901153922,-35.363263775,149.165236425,4992.75,15.75,6.75,34.5
00:22:22,RTL,35584.0,-1.0,-25.0,-983.5,-451.5,-4.0,1.5,0.012534359004348516,-0.00032888394343899563,-1.074796438217163,-0.45382664538919926,-0.0062710081692785025,-0.0022488837130367756,-35.3632639,149.1652364,4666.0,14.5,7.5,35.0
00:22:24,RTL,35584.0,0.5,-41.0,-995.5,-809.0,3.5,2.0,0.007702434784732759,0.00335502065718174,-1.0743938088417053,-0.8126755952835083,0.0024926998594310135,-0.0008786497637629509,-35.363264349999994,149.16523604999998,3821.0,23.0,10.5,36.0
00:22:26,RTL,88415.0,-0.5,46.5,-1018.0,818.5,-1.5,6.0,0.022714759223163128,0.0026966562727466226,-1.0743468403816223,0.8151558935642242,-0.0031542760552838445,0.003126306226477027,-35.3632637,149.16523645,3304.0,19.5,10.5,35.5
00:22:28,RTL,141246.0,-2.5,-37.5,-999.0,-806.0,5.0,2.5,0.031076000072062016,-0.004045959911309183,-1.074861466884613,-0.8098559081554413,0.004046137444674969,-0.0006243502721190453,-35.36326505,149.165236,2627.0,21.5,10.0,36.5
00:22:30,RTL,141246.0,1.5,42.0,-1012.5,860.5,4.0,6.0,0.019392145331948996,0.0059182303957641125,-1.073682725429535,0.8554450869560242,0.002904494176618755,0.003362348536029458,-35.36326475,149.1652359,1949.0,33.5,14.0,35.5
00:22:31,RTL,7540.0,2.5,-6.25,-1006.75,391.0,-2.5,-0.75,0.0034523545764386654,0.006556688225828111,-1.0745011270046234,0.3870736435055733,-0.004305628535803407,-0.004283551650587469,-35.363263125,149.16523669999998,1613.75,20.75,9.75,34.75
00:22:32,RTL,7540.0,2.0,-30.5,-1015.0,-399.0,-0.5,3.0,-0.01343911065487191,0.004504717304371297,-1.0739721655845642,-0.4039353281259537,-0.0017420005169697106,-0.00021925382316112518,-35.36326205,149.1652375,1265.0,7.0,3.5,35.5
00:22:34,RTL,7540.0,-1.5,-33.0,-993.5,-442.5,-2.0,0.5,-0.0094448973541148,6.628158735111356e-05,-1.074045717716217,-0.4469313472509384,-0.004048795206472278,-0.0023384687956422567,-35.3632611,149.16523845,570.5,-8.0,-4.0,33.5
00:22:36,RTL,7540.0,259.5,450.5,-1985.5,17.0,16.0,3.5,0.003903565928339958,0.002435961621813476,-1.0730913877487183,0.01272802019957453,0.015035254240501672,0.0007065898971632123,-35.36326185,149.16523765,97.5,27.5,-3.5,-35.5
00:22:37,RTL,114501.0,0.0,0.0,-1000.0,2.25,2.0,2.0,-0.0008284276264021173,0.005702823284082115,-1.0736375153064728,-0.0021296159829944372,0.001431166281690821,-0.0006030199583619833,-35.3632616,149.165237575,217.25,14.5,-0.75,-29.5
00:22:38,RTL,114501.0,0.0,0.0,-1000.0,2.0,2.5,2.0,-0.0046981797786429524,0.00806638807989657,-1.0741022229194641,-0.002282608998939395,0.0014787987456656992,-0.0006060829618945718,-35.363261949999995,149.16523765,277.0,2.0,1.5,-24.0
00:22:40,RTL,114501.0,0.0,0.0,-1000.0,2.0,2.0,2.0,-0.008871732279658318,0.009631180670112371,-1.0756232142448425,-0.0021842006826773286,0.0012947955401614308,-0.0005726858507841825,-35.363263,149.1652379,255.5,-13.5,3.0,-14.5
00:22:42,RTL,114501.0,0.0,0.0,-1000.0,2.0,2.0,2.0,-0.009308511856943369,0.0086898491717875,-1.0773752331733704,-0.002071350929327309,0.001262717240024358,-0.0006579012842848897,-35.36326355,149.16523784999998,234.0,-17.0,1.5,-8.0
