time_stamp,MODE,lat,lon,relative_alt,roll,pitch,yaw,rollspeed,pitchspeed,yawspeed,xacc,yacc,zacc,xgyro,ygyro,zgyro,vx,vy,vz,RTL_ALT
00:16:39.868,STABILIZE,-35.3632621,149.1652375,0,-0.0006243447423912585,0.0009779931278899312,0.025153256952762604,0.0003132714191451669,0.0003074902924709022,0.0019817757420241833,0,1,-1000,0,0,0,-1,1,0,1500.0
00:16:40.069,STABILIZE,-35.3632621,149.1652375,0,-0.0006243447423912585,0.0009779931278899312,0.025153256952762604,0.0003132714191451669,0.0003074902924709022,0.0019817757420241833,0,1,-1000,0,0,0,-1,1,0,1500.0
00:16:40.270,STABILIZE,-35.3632621,149.1652375,0,-0.0006243447423912585,0.0009779931278899312,0.025153256952762604,0.0003132714191451669,0.0003074902924709022,0.0019817757420241833,0,1,-1000,0,0,0,-1,1,0,1500.0
00:16:40.470,STABILIZE,-35.3632621,149.1652375,0,-0.0006243447423912585,0.0009779931278899312,0.025153256952762604,0.0003132714191451669,0.0003074902924709022,0.0019817757420241833,0,1,-1000,0,0,0,-1,1,0,1500.0
00:16:40.671,STABILIZE,-35.3632621,149.1652375,0,-0.0006243447423912585,0.0009779931278899312,0.025153256952762604,0.0003132714191451669,0.0003074902924709022,0.0019817757420241833,0,1,-1000,0,0,0,-1,1,0,1500.0
00:16:40.872,STABILIZE,-35.3632621,149.1652375,0,-0.0006243447423912585,0.0009779931278899312,0.025153256952762604,0.0003132714191451669,0.0003074902924709022,0.0019817757420241833,0,1,-1000,0,0,0,-1,1,0,1500.0
00:16:41.073,STABILIZE,-35.3632621,149.1652375,0,-0.0006243447423912585,0.0009779931278899312,0.025153256952762604,0.0003132714191451669,0.0003074902924709022,0.0019817757420241833,0,1,-1000,0,0,0,-1,1,0,1500.0
00:16:41.274,STABILIZE,-35.3632621,149.1652375,0,-0.0006243447423912585,0.0009779931278899312,0.025153256952762604,0.0003132714191451669,0.0003074902924709022,0.0019817757420241833,0,1,-1000,0,0,0,-1,1,0,1500.0
00:16:41.475,STABILIZE,-35.3632621,149.1652375,0,-0.0006243447423912585,0.0009779931278899312,0.025153256952762604,0.0003132714191451669,0.0003074902924709022,0.0019817757420241833,0,1,-1000,0,0,0,-1,1,0,1500.0
00:16:41.676,STABILIZE,-35.3632621,149.1652375,0,-0.0006243447423912585,0.0009779931278899312,0.025153256952762604,0.0003132714191451669,0.0003074902924709022,0.0019817757420241833,0,1,-1000,0,0,0,-1,1,0,1500.0
00:16:41.877,STABILIZE,-35.3632621,149.1652375,0,-0.0006243447423912585,0.0009779931278899312,0.025153256952762604,0.0003132714191451669,0.0003074902924709022,0.0019817757420241833,0,1,-1000,0,0,0,-1,1,0,1500.0
00:16:42.079,STABILIZE,-35.3632621,149.1652375,0,-0.0006243447423912585,0.0009779931278899312,0.025153256952762604,0.0003132714191451669,0.0003074902924709022,0.0019817757420241833,0,1,-1000,0,0,0,-1,1,0,1500.0
00:16:42.280,STABILIZE,-35.3632621,149.1652375,0,-0.0006243447423912585,0.0009779931278899312,0.025153256952762604,0.0003132714191451669,0.0003074902924709022,0.0019817757420241833,0,1,-1000,0,0,0,-1,1,0,1500.0
00:16:42.481,STABILIZE,-35.3632621,149.1652375,0,-0.0008679452585056424,0.000940270780120045,0.0242497269064188,0.00023257068824023008,0.0002387586864642799,0.0019054312724620104,0,1,-1000,1,0,0,-1,1,0,1500.0
00:16:42.683,STABILIZE,-35.3632621,149.1652375,0,-0.0008679452585056424,0.000940270780120045,0.0242497269064188,0.00023257068824023008,0.0002387586864642799,0.0019054312724620104,0,1,-1000,1,0,0,-1,1,0,1500.0
00:16:42.884,STABILIZE,-35.3632621,149.1652375,0,-0.0008679452585056424,0.000940270780120045,0.0242497269064188,0.00023257068824023008,0.0002387586864642799,0.0019054312724620104,0,1,-1000,1,0,0,-1,1,0,1500.0
00:16:43.085,STABILIZE,-35.3632621,149.1652374,0,-0.0007419692119583488,0.0009396474342793226,0.0240177009254694,0.0003970716497860849,0.000307561072986573,0.001920913578942418,0,2,-999,0,0,0,-1,0,-1,1500.0
00:16:43.287,STABILIZE,-35.3632621,149.1652374,0,-0.0007419692119583488,0.0009396474342793226,0.0240177009254694,0.0003970716497860849,0.000307561072986573,0.001920913578942418,0,2,-999,0,0,0,-1,0,-1,1500.0
00:16:43.489,STABILIZE,-35.3632621,149.1652374,0,-0.0007419692119583488,0.0009396474342793226,0.0240177009254694,0.0003970716497860849,0.000307561072986573,0.001920913578942418,0,2,-999,0,0,0,-1,0,-1,1500.0
00:16:43.690,STABILIZE,-35.3632621,149.1652374,0,-0.0007419692119583488,0.0009396474342793226,0.0240177009254694,0.0003970716497860849,0.000307561072986573,0.001920913578942418,0,2,-999,0,0,0,-1,0,-1,1500.0
00:16:43.892,STABILIZE,-35.3632621,149.1652374,0,-0.000698160263709724,0.0009379747789353132,0.0237877294421196,0.00037489854730665684,0.0003948518424294889,0.0018161111511290073,0,1,-1000,1,0,0,-1,0,-1,1500.0
00:16:44.093,STABILIZE,-35.3632621,149.1652374,0,-0.000698160263709724,0.0009379747789353132,0.0237877294421196,0.00037489854730665684,0.0003948518424294889,0.0018161111511290073,0,1,-1000,0,0,0,-1,0,-1,1500.0
00:16:44.295,STABILIZE,-35.3632621,149.1652374,0,-0.000698160263709724,0.0009379747789353132,0.0237877294421196,0.00037489854730665684,0.0003948518424294889,0.0018161111511290073,0,1,-1000,0,0,0,-1,0,-1,1500.0
00:16:44.496,STABILIZE,-35.3632621,149.1652374,0,-0.000698160263709724,0.0009379747789353132,0.0237877294421196,0.00037489854730665684,0.0003948518424294889,0.0018161111511290073,0,1,-1000,0,0,0,-1,0,-1,1500.0
00:16:44.697,STABILIZE,-35.3632621,149.1652374,0,-0.0006583511712960899,0.0009459154098294675,0.023550042882561684,0.0002474993816576898,0.00022384041221812367,0.0018615082371979952,0,1,-1000,0,0,0,-1,1,0,1500.0
00:16:44.898,STABILIZE,-35.3632621,149.1652374,0,-0.0006640053470619023,0.000952644448261708,0.023472048342227936,0.00027125078486278653,0.0003595527377910912,0.0018274371977895498,0,2,-1000,0,0,0,-1,1,0,1500.0
00:16:45.100,STABILIZE,-35.3632621,149.1652374,0,-0.0006591069395653903,0.0009492753306403756,0.02338751219213009,0.0003326181904412806,0.0002546791802160442,0.0016668150201439857,0,1,-1000,0,0,0,-1,1,0,1500.0
00:16:45.302,STABILIZE,-35.3632621,149.1652374,0,-0.0006591069395653903,0.0009492753306403756,0.02338751219213009,0.0003326181904412806,0.0002546791802160442,0.0016668150201439857,0,1,-1000,0,0,0,-1,1,0,1500.0
00:16:45.503,STABILIZE,-35.3632621,149.1652374,0,-0.0006591069395653903,0.0009492753306403756,0.02338751219213009,0.0003326181904412806,0.0002546791802160442,0.0016668150201439857,0,1,-1000,0,0,0,-1,1,0,1500.0
00:16:45.704,STABILIZE,-35.3632621,149.1652374,0,-0.0006591069395653903,0.0009492753306403756,0.02338751219213009,0.0003326181904412806,0.0002546791802160442,0.0016668150201439857,0,1,-1000,0,0,0,-1,1,0,1500.0
00:16:45.905,STABILIZE,-35.3632622,149.1652375,0,-0.0006799493567086756,0.000956161820795387,0.023140257224440575,0.0002815455081872642,0.00020355277229100466,0.0016829657834023237,0,2,-1000,1,0,0,-1,1,0,1500.0
00:16:46.107,STABILIZE,-35.3632622,149.1652375,0,-0.0006799493567086756,0.000956161820795387,0.023140257224440575,0.0002815455081872642,0.00020355277229100466,0.0016829657834023237,0,2,-1000,1,0,0,-1,1,0,1500.0
00:16:46.309,STABILIZE,-35.3632622,149.1652375,0,-0.0006799493567086756,0.000956161820795387,0.023140257224440575,0.0002815455081872642,0.00020355277229100466,0.0016829657834023237,0,2,-1000,1,0,0,-1,1,0,1500.0
00:16:46.511,STABILIZE,-35.3632622,149.1652375,0,-0.0006799493567086756,0.000956161820795387,0.023140257224440575,0.0002815455081872642,0.00020355277229100466,0.0016829657834023237,0,2,-1000,1,0,0,-1,1,0,1500.0
00:16:46.713,STABILIZE,-35.3632622,149.1652375,0,-0.0007336834096349776,0.0009701147209852934,0.022892121225595474,0.000234368781093508,0.00021600653417408466,0.0017314213328063488,0,1,-1000,0,1,0,-1,1,0,1500.0
00:16:46.914,STABILIZE,-35.3632622,149.1652375,0,-0.0007473289151675999,0.0009665224351920187,0.022825628519058228,0.0004045948153361678,0.0003323042765259743,0.0017016492784023285,0,1,-1000,0,0,0,-1,1,0,1500.0
00:16:47.116,STABILIZE,-35.3632622,149.1652375,0,-0.0007473289151675999,0.0009665224351920187,0.022825628519058228,0.0004045948153361678,0.0003323042765259743,0.0017016492784023285,0,1,-1000,0,0,0,-1,1,0,1500.0
00:16:47.324,STABILIZE,-35.3632622,149.1652375,0,-0.0007473289151675999,0.0009665224351920187,0.022825628519058228,0.0004045948153361678,0.0003323042765259743,0.0017016492784023285,0,1,-1000,0,0,0,-1,1,0,1500.0
00:16:47.525,STABILIZE,-35.3632622,149.1652375,0,-0.0007473289151675999,0.0009665224351920187,0.022825628519058228,0.0004045948153361678,0.0003323042765259743,0.0017016492784023285,0,1,-1000,0,0,0,-1,1,0,1500.0
00:16:47.729,STABILIZE,-35.3632622,149.1652375,0,-0.0007473289151675999,0.0009665224351920187,0.022825628519058228,0.0004045948153361678,0.0003323042765259743,0.0017016492784023285,0,1,-1000,0,0,0,-1,1,0,1500.0
00:16:47.930,STABILIZE,-35.3632622,149.1652375,0,-0.0007473289151675999,0.0009665224351920187,0.022825628519058228,0.0004045948153361678,0.0003323042765259743,0.0017016492784023285,0,1,-1000,0,0,0,-1,1,0,1500.0
00:16:48.131,STABILIZE,-35.3632622,149.1652375,0,-0.0008173317764885724,0.0009590950212441385,0.02248627133667469,0.00019905745284631848,0.0002304563531652093,0.0016482004430145025,0,1,-1000,0,0,1,-1,1,0,1500.0
00:16:48.333,STABILIZE,-35.3632622,149.1652375,0,-0.0008173317764885724,0.0009590950212441385,0.02248627133667469,0.00019905745284631848,0.0002304563531652093,0.0016482004430145025,0,1,-1000,0,0,1,-1,1,0,1500.0
00:16:48.534,STABILIZE,-35.3632622,149.1652375,0,-0.0008173317764885724,0.0009590950212441385,0.02248627133667469,0.00019905745284631848,0.0002304563531652093,0.0016482004430145025,0,1,-1000,0,0,1,-1,1,0,1500.0
00:16:48.735,STABILIZE,-35.3632622,149.1652375,0,-0.0008360297069884837,0.0009617042960599065,0.02235087938606739,0.0003444136818870902,0.0002553581725805998,0.00152983283624053,0,1,-1000,0,0,0,-1,1,0,1500.0
00:16:48.937,STABILIZE,-35.3632622,149.1652375,0,-0.0008492545457556844,0.0009615967283025384,0.02228490635752678,0.0003581857308745384,0.0002707657986320555,0.001548931933939457,0,1,-1000,0,0,0,-1,1,0,1500.0
00:16:49.138,STABILIZE,-35.3632622,149.1652375,0,-0.0008492545457556844,0.0009615967283025384,0.02228490635752678,0.0003581857308745384,0.0002707657986320555,0.001548931933939457,0,1,-1000,0,0,0,-1,1,0,1500.0
00:16:49.339,STABILIZE,-35.3632622,149.1652375,0,-0.0008492545457556844,0.0009615967283025384,0.02228490635752678,0.0003581857308745384,0.0002707657986320555,0.001548931933939457,0,1,-1000,0,0,0,-1,1,0,1500.0
00:16:49.541,STABILIZE,-35.3632622,149.1652375,0,-0.0008492545457556844,0.0009615967283025384,0.02228490635752678,0.0003581857308745384,0.0002707657986320555,0.001548931933939457,0,1,-1000,0,0,0,-1,1,0,1500.0
00:16:49.742,STABILIZE,-35.3632622,149.1652375,0,-0.0008492545457556844,0.0009615967283025384,0.02228490635752678,0.0003581857308745384,0.0002707657986320555,0.001548931933939457,0,1,-1000,0,0,0,-1,1,0,1500.0
00:16:49.943,STABILIZE,-35.3632622,149.1652375,0,-0.0008492545457556844,0.0009615967283025384,0.02228490635752678,0.0003581857308745384,0.0002707657986320555,0.001548931933939457,0,1,-1000,0,0,0,-1,1,0,1500.0
00:16:50.144,STABILIZE,-35.3632622,149.1652375,0,-0.0008990137721411884,0.0009953775443136692,0.021972421556711197,0.000423861900344491,0.0001664298470132053,0.0015855302335694432,0,1,-1000,0,0,0,-1,0,-2,1500.0
00:16:50.346,STABILIZE,-35.3632622,149.1652375,0,-0.0008990137721411884,0.0009953775443136692,0.021972421556711197,0.000423861900344491,0.0001664298470132053,0.0015855302335694432,0,1,-1000,0,0,0,-1,0,-2,1500.0
00:16:50.547,STABILIZE,-35.3632622,149.1652375,0,-0.0008990137721411884,0.0009953775443136692,0.021972421556711197,0.000423861900344491,0.0001664298470132053,0.0015855302335694432,0,1,-1000,0,0,0,-1,0,-2,1500.0
00:16:50.748,STABILIZE,-35.3632622,149.1652375,1,-0.0008025415008887649,0.0009850329952314496,0.021851589903235435,0.0003634928143583238,0.0002535252715460956,0.0016102020163089037,0,2,-1000,0,0,0,-1,0,-2,1500.0
00:16:50.950,STABILIZE,-35.3632622,149.1652375,3,-0.0007479715277440846,0.0009870821377262473,0.02181146666407585,0.0002263024216517806,0.0002769749262370169,0.0016967856790870428,0,1,-1000,0,1,1,-1,0,-2,1500.0
00:16:51.151,STABILIZE,-35.3632622,149.1652375,4,-0.000702983932569623,0.0009856800315901637,0.021745027974247932,0.0003575356095097959,0.0002523535513319075,0.0016081775538623333,0,2,-1000,0,0,0,-1,0,-2,1500.0
00:16:51.353,STABILIZE,-35.3632622,149.1652375,4,-0.000702983932569623,0.0009856800315901637,0.021745027974247932,0.0003575356095097959,0.0002523535513319075,0.0016081775538623333,0,2,-1000,0,0,0,-1,0,-2,1500.0
00:16:51.555,STABILIZE,-35.3632622,149.1652375,4,-0.000702983932569623,0.0009856800315901637,0.021745027974247932,0.0003575356095097959,0.0002523535513319075,0.0016081775538623333,0,2,-1000,0,0,0,-1,0,-2,1500.0
00:16:51.756,STABILIZE,-35.3632622,149.1652375,4,-0.000702983932569623,0.0009856800315901637,0.021745027974247932,0.0003575356095097959,0.0002523535513319075,0.0016081775538623333,0,2,-1000,0,0,0,-1,0,-2,1500.0
00:16:51.958,STABILIZE,-35.3632622,149.1652375,4,-0.000702983932569623,0.0009856800315901637,0.021745027974247932,0.0003575356095097959,0.0002523535513319075,0.0016081775538623333,0,2,-1000,0,0,0,-1,0,-2,1500.0
00:16:52.159,STABILIZE,-35.3632622,149.1652375,6,-0.0005808874848298728,0.0010076409671455622,0.021516380831599236,0.00023294152924790978,0.0003537161974236369,0.00148842204362154,0,1,-1000,1,1,0,-1,1,-1,1500.0
00:16:52.361,STABILIZE,-35.3632622,149.1652375,6,-0.0005808874848298728,0.0010076409671455622,0.021516380831599236,0.00023294152924790978,0.0003537161974236369,0.00148842204362154,0,1,-1000,1,1,0,-1,1,-1,1500.0
00:16:52.562,STABILIZE,-35.3632622,149.1652375,6,-0.0005808874848298728,0.0010076409671455622,0.021516380831599236,0.00023294152924790978,0.0003537161974236369,0.00148842204362154,0,1,-1000,1,1,0,-1,1,-1,1500.0
00:16:52.764,STABILIZE,-35.3632622,149.1652375,5,-0.0005533595685847104,0.0010127065470442176,0.021397367119789124,0.0002984949969686568,0.00034606014378368855,0.0015472270315513015,0,1,-1000,0,1,0,-1,1,-1,1500.0
00:16:52.965,STABILIZE,-35.3632622,149.1652375,5,-0.0005533595685847104,0.0010127065470442176,0.021397367119789124,0.0002984949969686568,0.00034606014378368855,0.0015472270315513015,0,1,-1000,0,1,0,-1,1,-1,1500.0
00:16:53.166,STABILIZE,-35.3632622,149.1652375,5,-0.0005565510946325958,0.0010027523385360837,0.021253788843750954,0.00037408393109217286,0.00016747618792578578,0.001498569268733263,0,2,-1000,1,1,0,-1,1,0,1500.0
00:16:53.368,STABILIZE,-35.3632622,149.1652375,5,-0.0005565510946325958,0.0010027523385360837,0.021253788843750954,0.00037408393109217286,0.00016747618792578578,0.001498569268733263,0,2,-1000,1,1,0,-1,1,0,1500.0
00:16:53.569,STABILIZE,-35.3632622,149.1652375,5,-0.0005565510946325958,0.0010027523385360837,0.021253788843750954,0.00037408393109217286,0.00016747618792578578,0.001498569268733263,0,2,-1000,1,1,0,-1,1,0,1500.0
00:16:53.771,STABILIZE,-35.3632622,149.1652375,5,-0.0005565510946325958,0.0010027523385360837,0.021253788843750954,0.00037408393109217286,0.00016747618792578578,0.001498569268733263,0,2,-1000,1,1,0,-1,1,0,1500.0
00:16:53.972,STABILIZE,-35.3632622,149.1652375,5,-0.0005565510946325958,0.0010027523385360837,0.021253788843750954,0.00037408393109217286,0.00016747618792578578,0.001498569268733263,0,2,-1000,1,1,0,-1,1,0,1500.0
00:16:54.174,STABILIZE,-35.3632622,149.1652375,5,-0.0005565510946325958,0.0010027523385360837,0.021253788843750954,0.00037408393109217286,0.00016747618792578578,0.001498569268733263,0,2,-1000,1,1,0,-1,1,0,1500.0
00:16:54.375,STABILIZE,-35.3632622,149.1652375,5,-0.0005565510946325958,0.0010027523385360837,0.021253788843750954,0.00037408393109217286,0.00016747618792578578,0.001498569268733263,0,2,-1000,1,1,0,-1,1,0,1500.0
00:16:54.578,STABILIZE,-35.3632622,149.1652375,0,-0.000657045457046479,0.0009855147218331695,0.020923884585499763,0.00015433202497661114,0.0002496427041478455,0.0014513288624584675,0,2,-1000,0,1,0,-1,1,0,1500.0
00:16:54.780,AUTO,-35.3632622,149.1652375,0,-0.000657045457046479,0.0009855147218331695,0.020923884585499763,0.00015433202497661114,0.0002496427041478455,0.0014513288624584675,0,2,-1000,0,1,0,-1,1,0,1500.0
00:16:54.981,AUTO,-35.3632622,149.1652375,0,-0.0006747804582118988,0.00098602834623307,0.020887700840830803,0.00031549204140901566,0.00024805404245853424,0.0013667354360222816,0,1,-1000,0,0,0,-1,1,0,1500.0
00:16:55.183,AUTO,-35.3632622,149.1652375,0,-0.0006788527243770659,0.0009940960444509983,0.0208479892462492,0.0002932315110228956,0.00035898579517379403,0.0013705275487154722,0,1,-1000,0,0,0,-1,1,0,1500.0
00:16:55.384,AUTO,-35.3632622,149.1652375,0,-0.0006788527243770659,0.0009940960444509983,0.0208479892462492,0.0002932315110228956,0.00035898579517379403,0.0013705275487154722,0,1,-1000,0,0,0,-1,1,0,1500.0
00:16:55.585,AUTO,-35.3632622,149.1652375,0,-0.0006788527243770659,0.0009940960444509983,0.0208479892462492,0.0002932315110228956,0.00035898579517379403,0.0013705275487154722,0,1,-1000,0,0,0,-1,1,0,1500.0
00:16:55.787,AUTO,-35.3632622,149.1652375,0,-0.0006788527243770659,0.0009940960444509983,0.0208479892462492,0.0002932315110228956,0.00035898579517379403,0.0013705275487154722,0,1,-1000,0,0,0,-1,1,0,1500.0
00:16:55.988,AUTO,-35.3632621,149.1652375,0,-0.0006356894737109542,0.0010510856518521905,0.02071956917643547,0.00036343414103612304,0.0003532574628479779,0.00138744933065027,0,1,-1000,1,1,0,0,0,0,1500.0
00:16:56.243,AUTO,-35.3632621,149.1652375,0,-0.0006015310646034777,0.0010985558619722724,0.02064989134669304,0.00020827673142775893,0.00033909897319972515,0.0014259133022278547,0,1,-1000,1,0,1,0,0,0,1500.0
00:16:56.449,AUTO,-35.3632621,149.1652375,0,-0.0005481795524246991,0.0011515640653669834,0.020587462931871414,0.00018923525931313634,0.00032096635550260544,0.0012970343232154846,0,2,-1000,0,1,1,0,0,0,1500.0
00:16:56.658,AUTO,-35.3632621,149.1652375,0,-0.0004976681666448712,0.0012145255459472537,0.020553871989250183,0.0005107311881147325,0.00020985904848203063,0.0014411696465685964,0,2,-1000,0,0,0,0,0,0,1500.0
00:16:56.908,AUTO,-35.3632621,149.1652375,0,-0.0004330338560976088,0.0012824012665078044,0.020492777228355408,0.00022338487906381488,0.00033288594568148255,0.0013568410649895668,0,1,-1000,1,1,1,0,0,0,1500.0
00:16:57.133,AUTO,-35.3632621,149.1652375,0,-0.0002110066416207701,0.001354298321530223,0.020421305671334267,0.0002881759428419173,0.00024079350987449288,0.0013482788344845176,0,1,-1000,0,0,1,0,0,0,1500.0
00:16:57.335,AUTO,-35.3632621,149.1652375,0,-0.0002110066416207701,0.001354298321530223,0.020421305671334267,0.0002881759428419173,0.00024079350987449288,0.0013482788344845176,0,1,-1000,0,0,1,0,0,0,1500.0
00:16:57.536,AUTO,-35.3632621,149.1652375,0,-0.0002110066416207701,0.001354298321530223,0.020421305671334267,0.0002881759428419173,0.00024079350987449288,0.0013482788344845176,0,1,-1000,0,0,1,0,0,0,1500.0
00:16:57.743,AUTO,-35.3632621,149.1652375,0,-0.0002110066416207701,0.001354298321530223,0.020421305671334267,0.0002881759428419173,0.00024079350987449288,0.0013482788344845176,0,1,-1000,0,0,1,0,0,0,1500.0
00:16:57.945,AUTO,-35.3632621,149.1652375,0,2.7870881240232848e-05,0.0016084857052192092,0.020221561193466187,0.0003369652549736202,0.00029546854784712195,0.001340219285339117,0,1,-1000,0,0,0,0,0,0,387.0
00:16:58.146,AUTO,-35.3632621,149.1652375,0,2.7870881240232848e-05,0.0016084857052192092,0.020221561193466187,0.0003369652549736202,0.00029546854784712195,0.001340219285339117,0,1,-1000,0,0,0,0,0,0,387.0
00:16:58.347,AUTO,-35.3632621,149.1652375,0,0.00010797317372635007,0.0016809341032058,0.020166192203760147,0.00041472946759313345,0.0003162360517308116,0.0013383018085733056,0,1,-1000,1,0,0,0,0,0,387.0
00:16:58.548,AUTO,-35.3632621,149.1652375,0,0.0001891039137262851,0.001762780942954123,0.020086592063307762,0.0003003048477694392,0.00035283213946968317,0.0014053559862077236,0,1,-1000,1,0,0,0,0,0,387.0
00:16:58.749,AUTO,-35.3632621,149.1652375,7,0.0027539001312106848,1.6279820556519553e-05,0.020023483783006668,0.019551023840904236,-0.0081079276278615,0.001542237470857799,0,0,-1140,20,-7,1,0,0,-18,387.0
00:16:58.951,AUTO,-35.3632621,149.1652375,97,0.0034993772860616446,-0.0003873973910231143,0.02002716436982155,-0.0045178174041211605,0.0024539646692574024,0.0004041983629576862,0,0,-1140,-4,3,0,0,0,-52,387.0
00:16:59.153,AUTO,-35.3632621,149.1652375,97,0.0034993772860616446,-0.0003873973910231143,0.02002716436982155,-0.0045178174041211605,0.0024539646692574024,0.0004041983629576862,0,0,-1140,-4,3,0,0,0,-52,387.0
00:16:59.354,AUTO,-35.3632621,149.1652375,270,0.0024393757339566946,0.0006517937872558832,0.020059039816260338,-0.007955432869493961,0.0031772241927683353,0.001004557590931654,0,0,-1121,-7,4,0,0,0,-84,387.0
00:16:59.556,AUTO,-35.3632621,149.1652375,270,0.0024393757339566946,0.0006517937872558832,0.020059039816260338,-0.007955432869493961,0.0031772241927683353,0.001004557590931654,0,0,-1121,-7,4,0,0,0,-84,387.0
00:16:59.758,AUTO,-35.3632621,149.1652375,270,0.0024393757339566946,0.0006517937872558832,0.020059039816260338,-0.007955432869493961,0.0031772241927683353,0.001004557590931654,0,0,-1121,-7,4,0,0,0,-84,387.0
00:16:59.959,AUTO,-35.3632621,149.1652375,1173,0.01592339016497135,0.00015156665176618844,0.019525425508618355,0.04773274436593056,-0.0063811736181378365,0.0014370043063536286,0,0,-1028,48,-5,1,0,2,-141,387.0
00:17:00.161,AUTO,-35.3632621,149.1652375,1173,0.01592339016497135,0.00015156665176618844,0.019525425508618355,0.04773274436593056,-0.0063811736181378365,0.0014370043063536286,0,0,-1028,48,-5,1,0,2,-141,387.0
00:17:00.362,AUTO,-35.363262,149.1652375,1544,0.027644628658890724,-0.001599690644070506,0.019528983160853386,0.04603109881281853,-0.007214745972305536,0.002103068633005023,0,0,-1012,46,-6,1,1,7,-145,387.0
00:17:00.564,AUTO,-35.363262,149.1652378,1924,0.0388854555785656,-0.003591928631067276,0.019665854051709175,0.04415963217616081,-0.008404153399169445,0.0027987523935735226,0,-1,-1005,44,-7,2,2,14,-147,387.0
00:17:00.765,AUTO,-35.3632619,149.1652383,2306,0.04951675608754158,-0.005913424771279097,0.019902372732758522,0.04144259914755821,-0.009381631389260292,0.00337214395403862,1,-4,-1001,42,-8,2,4,24,-147,387.0
00:17:01.007,AUTO,-35.3632617,149.1652391,2690,0.05932849645614624,-0.00863579846918583,0.020138325169682503,0.03764641657471657,-0.012206709012389183,0.003607568796724081,1,-5,-999,38,-11,3,6,35,-147,387.0
00:17:01.234,AUTO,-35.3632615,149.1652402,3073,0.05838746204972267,-0.0033517428673803806,-0.015673015266656876,-0.06443265825510025,0.0761847198009491,-0.08500170707702637,2,-9,-991,-63,77,-85,9,48,-146,387.0
00:17:01.516,AUTO,-35.3632615,149.1652402,3073,0.05838746204972267,-0.0033517428673803806,-0.015673015266656876,-0.06443265825510025,0.0761847198009491,-0.08500170707702637,2,-9,-991,-63,77,-85,9,48,-146,387.0
00:17:01.761,AUTO,-35.3632615,149.1652402,3073,0.05838746204972267,-0.0033517428673803806,-0.015673015266656876,-0.06443265825510025,0.0761847198009491,-0.08500170707702637,2,-9,-991,-63,77,-85,9,48,-146,387.0
00:17:01.974,AUTO,-35.363261,149.1652443,4203,-0.03171252831816673,0.03572807461023331,-0.0895669236779213,-0.031872060149908066,0.03456452116370201,-0.108366958796978,5,-8,-1010,-31,35,-108,-1,43,-147,387.0
00:17:02.177,AUTO,-35.363261,149.1652453,4587,-0.037407416850328445,0.03828456252813339,-0.11186486482620239,-0.016653362661600113,-0.009465192444622517,-0.06683065742254257,5,-7,-1004,-16,-8,-66,-9,32,-148,387.0
00:17:02.386,AUTO,-35.363261,149.1652453,4587,-0.037407416850328445,0.03828456252813339,-0.11186486482620239,-0.016653362661600113,-0.009465192444622517,-0.06683065742254257,5,-7,-1004,-16,-8,-66,-9,32,-148,387.0
00:17:02.590,AUTO,-35.3632612,149.165246,4971,-0.046871036291122437,0.021270161494612694,-0.113665871322155,-0.050091177225112915,-0.10537810623645782,0.025012323632836342,6,-3,-1000,-49,-105,24,-15,21,-148,387.0
00:17:02.793,AUTO,-35.3632616,149.1652464,5355,-0.06024106591939926,-0.008549758233129978,-0.09675278514623642,-0.053248029202222824,-0.12653551995754242,0.08063144236803055,4,-1,-1001,-52,-125,80,-16,6,-148,387.0
00:17:02.995,AUTO,-35.3632619,149.1652465,5747,-0.06904898583889008,-0.03244122490286827,-0.07674569636583328,-0.004555037245154381,-0.03919212520122528,0.035391561686992645,2,2,-1003,-3,-38,35,-10,-10,-148,191570.0
00:17:03.198,AUTO,-35.363262,149.1652459,6130,-0.06453853845596313,-0.03193943202495575,-0.07170791923999786,0.03173564374446869,0.01417162362486124,0.013508920557796955,0,5,-1001,32,14,13,-3,-27,-148,191570.0
00:17:03.401,AUTO,-35.363262,149.1652459,6130,-0.06453853845596313,-0.03193943202495575,-0.07170791923999786,0.03173564374446869,0.01417162362486124,0.013508920557796955,0,5,-1001,32,14,13,-3,-27,-148,191570.0
00:17:03.603,AUTO,-35.363262,149.1652459,6130,-0.06453853845596313,-0.03193943202495575,-0.07170791923999786,0.03173564374446869,0.01417162362486124,0.013508920557796955,0,5,-1001,32,14,13,-3,-27,-148,191570.0
00:17:03.805,AUTO,-35.363262,149.1652459,6130,-0.06453853845596313,-0.03193943202495575,-0.07170791923999786,0.03173564374446869,0.01417162362486124,0.013508920557796955,0,5,-1001,32,14,13,-3,-27,-148,191570.0
00:17:04.007,AUTO,-35.3632619,149.1652422,7270,-0.02550610899925232,-0.02154071070253849,-0.07034660875797272,0.062230028212070465,0.016434503719210625,0.006486775819212198,-8,11,-1002,62,17,6,10,-58,-148,191570.0
00:17:04.208,AUTO,-35.3632617,149.1652405,7654,-0.009904833510518074,-0.016829272732138634,-0.06969596445560455,0.06300916522741318,0.020311200991272926,0.006009696051478386,-10,9,-1003,63,21,5,12,-61,-149,191570.0
00:17:04.411,AUTO,-35.3632617,149.1652405,7654,-0.009904833510518074,-0.016829272732138634,-0.06969596445560455,0.06300916522741318,0.020311200991272926,0.006009696051478386,-10,9,-1003,63,21,5,12,-61,-149,191570.0
00:17:04.613,AUTO,-35.3632614,149.1652388,8040,0.005909634754061699,-0.011337995529174805,-0.06893330067396164,0.06361529231071472,0.022964732721447945,0.0056396652944386005,-11,9,-1004,64,23,5,13,-60,-150,191570.0
00:17:04.815,AUTO,-35.3632611,149.1652371,8429,0.02124050259590149,-0.0050873891450464725,-0.06870978325605392,0.05438186228275299,0.03048194944858551,-0.002089432440698147,-10,10,-1003,54,31,-2,14,-55,-151,191570.0
00:17:05.017,AUTO,-35.3632608,149.1652357,8819,0.033617231994867325,0.003765030764043331,-0.07100260257720947,0.04898899048566818,0.03707133233547211,-0.0104490602388978,-10,7,-1003,49,37,-10,12,-47,-151,191570.0
00:17:05.219,AUTO,-35.3632605,149.1652345,9210,0.043191686272621155,0.014566708356142044,-0.07668764889240265,0.03353998064994812,0.046402715146541595,-0.028413427993655205,-8,7,-1002,33,47,-28,9,-35,-152,191570.0
00:17:05.422,AUTO,-35.3632605,149.1652345,9210,0.043191686272621155,0.014566708356142044,-0.07668764889240265,0.03353998064994812,0.046402715146541595,-0.028413427993655205,-8,7,-1002,33,47,-28,9,-35,-152,191570.0
00:17:05.627,AUTO,-35.3632605,149.1652345,9210,0.043191686272621155,0.014566708356142044,-0.07668764889240265,0.03353998064994812,0.046402715146541595,-0.028413427993655205,-8,7,-1002,33,47,-28,9,-35,-152,191570.0
00:17:05.829,AUTO,-35.3632605,149.1652345,9210,0.043191686272621155,0.014566708356142044,-0.07668764889240265,0.03353998064994812,0.046402715146541595,-0.028413427993655205,-8,7,-1002,33,47,-28,9,-35,-152,191570.0
00:17:06.032,AUTO,-35.3632603,149.1652329,10384,0.06254799664020538,0.04563852399587631,-0.10884857922792435,0.017941631376743317,0.032662615180015564,-0.05855211243033409,0,1,-998,18,33,-58,-10,5,-150,191570.0
00:17:06.234,AUTO,-35.3632606,149.1652331,10771,0.0591733418405056,0.04752623289823532,-0.11749319732189178,-0.05442283675074577,-0.03680022805929184,-0.004213921260088682,3,0,-992,-53,-36,-4,-19,21,-149,191570.0
00:17:06.448,AUTO,-35.3632611,149.1652338,11152,0.038960546255111694,0.0302134919911623,-0.1140386089682579,-0.09326794743537903,-0.08289924263954163,0.030947282910346985,6,-2,-996,-92,-82,30,-25,32,-147,191570.0
00:17:06.662,AUTO,-35.3632611,149.1652338,11152,0.038960546255111694,0.0302134919911623,-0.1140386089682579,-0.09326794743537903,-0.08289924263954163,0.030947282910346985,6,-2,-996,-92,-82,30,-25,32,-147,191570.0
00:17:06.894,AUTO,-35.3632617,149.1652347,11531,0.015308069065213203,0.010472450405359268,-0.10624044388532639,-0.0879301130771637,-0.06943925470113754,0.031944096088409424,9,-3,-1002,-87,-68,31,-27,37,-147,191570.0
00:17:07.215,AUTO,-35.3632627,149.1652366,12297,-0.017088331282138824,-0.012380814179778099,-0.09618557244539261,-0.04255291074514389,-0.029084831476211548,0.00875778403133154,8,-3,-1004,-41,-28,8,-20,32,-149,191570.0
00:17:07.435,AUTO,-35.3632627,149.1652366,12297,-0.017088331282138824,-0.012380814179778099,-0.09618557244539261,-0.04255291074514389,-0.029084831476211548,0.00875778403133154,8,-3,-1004,-41,-28,8,-20,32,-149,191570.0
00:17:07.643,AUTO,-35.3632627,149.1652366,12297,-0.017088331282138824,-0.012380814179778099,-0.09618557244539261,-0.04255291074514389,-0.029084831476211548,0.00875778403133154,8,-3,-1004,-41,-28,8,-20,32,-149,191570.0
00:17:07.848,AUTO,-35.3632627,149.1652366,12297,-0.017088331282138824,-0.012380814179778099,-0.09618557244539261,-0.04255291074514389,-0.029084831476211548,0.00875778403133154,8,-3,-1004,-41,-28,8,-20,32,-149,191570.0
00:17:08.053,AUTO,-35.3632635,149.1652381,13461,-0.025776105001568794,-0.0197999719530344,-0.10456003993749619,0.011655413545668125,0.00408585648983717,-0.026521742343902588,2,-1,-1002,12,4,-27,-3,7,-151,191570.0
00:17:08.255,AUTO,-35.3632635,149.1652382,13850,-0.021349379792809486,-0.017973758280277252,-0.11217083036899567,0.020800277590751648,0.01003049872815609,-0.032267723232507706,0,0,-1001,21,10,-32,1,0,-151,19195.0
00:17:08.457,AUTO,-35.3632634,149.1652381,14240,-0.015768075361847878,-0.01494270097464323,-0.12072993814945221,0.02387392520904541,0.013557272963225842,-0.032715193927288055,-1,0,-1000,24,14,-32,5,-5,-151,19195.0
00:17:08.658,AUTO,-35.3632634,149.1652381,14240,-0.015768075361847878,-0.01494270097464323,-0.12072993814945221,0.02387392520904541,0.013557272963225842,-0.032715193927288055,-1,0,-1000,24,14,-32,5,-5,-151,19195.0
00:17:08.859,AUTO,-35.3632633,149.1652379,14631,-0.009582468308508396,-0.01140302699059248,-0.12940169870853424,0.02506866119801998,0.016347823664546013,-0.033967651426792145,-2,0,-1000,25,16,-34,7,-9,-151,19195.0
00:17:09.061,AUTO,-35.3632631,149.1652376,15029,-0.003432647557929158,-0.007148778531700373,-0.13818688690662384,0.021204257383942604,0.01618869975209236,-0.031021414324641228,-3,0,-1000,21,17,-31,9,-12,-151,19195.0
00:17:09.263,AUTO,-35.3632629,149.1652372,15418,0.0017677473369985819,-0.002971392124891281,-0.14624953269958496,0.019420310854911804,0.015638355165719986,-0.02902037836611271,-3,0,-1000,19,16,-29,10,-13,-152,19195.0
00:17:09.464,AUTO,-35.3632629,149.1652372,15418,0.0017677473369985819,-0.002971392124891281,-0.14624953269958496,0.019420310854911804,0.015638355165719986,-0.02902037836611271,-3,0,-1000,19,16,-29,10,-13,-152,19195.0
00:17:09.666,AUTO,-35.3632629,149.1652372,15418,0.0017677473369985819,-0.002971392124891281,-0.14624953269958496,0.019420310854911804,0.015638355165719986,-0.02902037836611271,-3,0,-1000,19,16,-29,10,-13,-152,19195.0
00:17:09.867,AUTO,-35.3632629,149.1652372,15418,0.0017677473369985819,-0.002971392124891281,-0.14624953269958496,0.019420310854911804,0.015638355165719986,-0.02902037836611271,-3,0,-1000,19,16,-29,10,-13,-152,19195.0
00:17:10.069,AUTO,-35.3632621,149.1652361,16589,0.011950375512242317,0.006645725574344397,-0.16532252728939056,0.007385691627860069,0.008534145541489124,-0.01905229687690735,-3,0,-1000,7,9,-19,8,-8,-152,19195.0
00:17:10.270,AUTO,-35.3632619,149.1652358,16979,0.01303943246603012,0.008547188714146614,-0.16976456344127655,0.002883657580241561,0.005964431446045637,-0.014459899626672268,-3,0,-1000,3,6,-14,6,-6,-152,19195.0
00:17:10.472,AUTO,-35.3632618,149.1652356,17369,0.013144457712769508,0.009586610831320286,-0.17345958948135376,6.338971434161067e-05,0.004813541658222675,-0.014649328775703907,-2,0,-1000,0,5,-14,4,-3,-152,19195.0
00:17:10.673,AUTO,-35.3632616,149.1652355,17759,0.012412761338055134,0.0101728281006217,-0.17665842175483704,-0.0019673362839967012,0.00154327810741961,-0.013521512039005756,-2,0,-1000,-1,2,-13,3,0,-152,19195.0
00:17:10.875,AUTO,-35.3632616,149.1652355,17759,0.012412761338055134,0.0101728281006217,-0.17665842175483704,-0.0019673362839967012,0.00154327810741961,-0.013521512039005756,-2,0,-1000,-1,2,-13,3,0,-152,19195.0
00:17:11.076,AUTO,-35.3632615,149.1652355,18148,0.011507127434015274,0.010075295343995094,-0.17927585542201996,-0.003442971035838127,-0.0008166995248757303,-0.008764616213738918,-1,0,-999,-2,0,-8,1,1,-152,19195.0
00:17:11.278,AUTO,-35.3632615,149.1652355,18538,0.010310596786439419,0.009267221204936504,-0.1813906580209732,-0.00469214515760541,-0.0038631490897387266,-0.007426444906741381,0,0,-1000,-3,-3,-7,0,3,-152,19195.0
00:17:11.480,AUTO,-35.3632615,149.1652355,18538,0.010310596786439419,0.009267221204936504,-0.1813906580209732,-0.00469214515760541,-0.0038631490897387266,-0.007426444906741381,0,0,-1000,-3,-3,-7,0,3,-152,19195.0
00:17:11.681,AUTO,-35.3632615,149.1652355,18538,0.010310596786439419,0.009267221204936504,-0.1813906580209732,-0.00469214515760541,-0.0038631490897387266,-0.007426444906741381,0,0,-1000,-3,-3,-7,0,3,-152,19195.0
00:17:11.883,AUTO,-35.3632615,149.1652355,18538,0.010310596786439419,0.009267221204936504,-0.1813906580209732,-0.00469214515760541,-0.0038631490897387266,-0.007426444906741381,0,0,-1000,-3,-3,-7,0,3,-152,19195.0
00:17:12.103,AUTO,-35.3632615,149.1652356,19705,0.005764343310147524,0.006722527556121349,-0.18870976567268372,-0.002723819576203823,-0.003197889542207122,-0.009494714438915253,0,0,-1000,-1,-2,-9,-2,7,-152,19195.0
00:17:12.380,AUTO,-35.3632614,149.1652357,20095,0.00475285341963172,0.00555602228268981,-0.19136875867843628,-0.0017975254449993372,-0.0037015785928815603,-0.012347946874797344,0,-1,-1000,-1,-2,-12,-3,7,-152,19195.0
00:17:12.641,AUTO,-35.3632614,149.1652359,20484,0.0035449881106615067,0.004866789095103741,-0.19465486705303192,-0.006217707879841328,-0.0019673877395689487,-0.015478838235139847,0,0,-999,-5,-1,-15,-3,7,-152,19195.0
00:17:12.908,AUTO,-35.3632615,149.165236,20874,0.0025523428339511156,0.004205281380563974,-0.19830940663814545,-0.002395298797637224,-0.0012467633932828903,-0.015753930434584618,0,0,-1000,-1,0,-15,-3,7,-152,19195.0
00:17:13.162,AUTO,-35.3632615,149.1652361,21264,0.0018060945440083742,0.0036712477449327707,-0.20229269564151764,-0.000507629883941263,-0.0011138657573610544,-0.017443066462874413,1,0,-1000,0,0,-17,-3,6,-152,19195.0
00:17:13.365,AUTO,-35.3632615,149.1652362,21653,0.0013563970569521189,0.0034143764059990644,-0.20671093463897705,0.0002117619733326137,-0.0003275859053246677,-0.018846066668629646,0,0,-1000,0,0,-19,-3,6,-152,19195.0
00:17:13.568,AUTO,-35.3632615,149.1652362,21653,0.0013563970569521189,0.0034143764059990644,-0.20671093463897705,0.0002117619733326137,-0.0003275859053246677,-0.018846066668629646,0,0,-1000,0,0,-19,-3,6,-152,19195.0
00:17:13.769,AUTO,-35.3632615,149.1652362,21653,0.0013563970569521189,0.0034143764059990644,-0.20671093463897705,0.0002117619733326137,-0.0003275859053246677,-0.018846066668629646,0,0,-1000,0,0,-19,-3,6,-152,11993.0
00:17:13.971,AUTO,-35.3632616,149.1652365,22823,0.0012255159672349691,0.0026990692131221294,-0.2209749072790146,0.0017592227086424828,0.00038872729055583477,-0.021012237295508385,0,0,-1000,2,1,-21,-3,4,-152,11993.0
00:17:14.172,AUTO,-35.3632616,149.1652365,22823,0.0012255159672349691,0.0026990692131221294,-0.2209749072790146,0.0017592227086424828,0.00038872729055583477,-0.021012237295508385,0,0,-1000,2,1,-21,-3,4,-152,11993.0
00:17:14.374,AUTO,-35.3632616,149.1652365,23212,0.001375423395074904,0.0025160927325487137,-0.22576488554477692,0.002427471801638603,-0.00039521302096545696,-0.01958332769572735,0,0,-1000,3,0,-19,-3,3,-152,11993.0
00:17:14.575,AUTO,-35.3632617,149.1652366,23602,0.0017768268007785082,0.0023116315715014935,-0.23058441281318665,0.00024629291146993637,0.0010604516137391329,-0.020580703392624855,0,0,-1000,1,2,-20,-3,3,-152,11993.0
00:17:14.777,AUTO,-35.3632617,149.1652366,23996,0.0018004259327426553,0.0024640404153615236,-0.23563142120838165,0.002078826306387782,0.00022794597316533327,-0.02009243704378605,0,0,-1000,3,1,-20,-3,3,-152,11993.0
00:17:14.978,AUTO,-35.3632617,149.1652367,24385,0.002271832898259163,0.0023787475656718016,-0.24056878685951233,0.0007255895179696381,0.001228459645062685,-0.02116924338042736,0,0,-1000,1,2,-21,-2,2,-152,11993.0
00:17:15.180,AUTO,-35.3632617,149.1652367,24775,0.002352754585444927,0.0024332660250365734,-0.24553683400154114,-0.0008608471252955496,0.0013480023480951786,-0.020559577271342278,0,0,-999,0,2,-20,-2,2,-152,11993.0
00:17:15.382,AUTO,-35.3632617,149.1652367,24775,0.002352754585444927,0.0024332660250365734,-0.24553683400154114,-0.0008608471252955496,0.0013480023480951786,-0.020559577271342278,0,0,-999,0,2,-20,-2,2,-152,11993.0
00:17:15.583,AUTO,-35.3632617,149.1652367,24775,0.002352754585444927,0.0024332660250365734,-0.24553683400154114,-0.0008608471252955496,0.0013480023480951786,-0.020559577271342278,0,0,-999,0,2,-20,-2,2,-152,11993.0
00:17:15.785,AUTO,-35.3632617,149.1652367,24775,0.002352754585444927,0.0024332660250365734,-0.24553683400154114,-0.0008608471252955496,0.0013480023480951786,-0.020559577271342278,0,0,-999,0,2,-20,-2,2,-152,11993.0
00:17:15.987,AUTO,-35.3632618,149.1652366,25935,-0.002915714867413044,0.00508116465061903,-0.25312361121177673,0.039910849183797836,0.004729010164737701,0.0072083184495568275,0,0,-1001,40,6,6,-4,-3,-152,11993.0
00:17:16.188,AUTO,-35.3632619,149.1652365,26326,0.005683789029717445,0.005196846555918455,-0.250180721282959,0.029655151069164276,-0.00139432807918638,0.016956288367509842,0,1,-1000,30,0,16,-5,-2,-152,11993.0
00:17:16.390,AUTO,-35.3632619,149.1652365,26326,0.005683789029717445,0.005196846555918455,-0.250180721282959,0.029655151069164276,-0.00139432807918638,0.016956288367509842,0,1,-1000,30,0,16,-5,-2,-152,11993.0
00:17:16.591,AUTO,-35.363262,149.1652364,26714,0.011012675240635872,0.0045044575817883015,-0.24511423707008362,0.017155004665255547,-0.0022895217407494783,0.0225464329123497,0,1,-999,17,-1,22,-5,-1,-152,11993.0
00:17:16.809,AUTO,-35.3632621,149.1652364,27103,0.013152259401977062,0.003412147518247366,-0.23917561769485474,0.0025579389184713364,-0.0030491810757666826,0.0255794208496809,0,1,-998,3,-2,25,-5,1,-152,11993.0
00:17:17.092,AUTO,-35.3632621,149.1652364,27492,0.01283428817987442,0.0026442226953804493,-0.23292730748653412,-0.004189501516520977,-0.001430214149877429,0.022889645770192146,0,0,-1000,-3,0,22,-4,4,-152,11993.0
00:17:17.320,AUTO,-35.3632622,149.1652364,27880,0.01111548114567995,0.0018708588322624564,-0.2267734557390213,-0.00849766843020916,-0.003139588050544262,0.025871865451335907,0,0,-999,-7,-2,25,-3,6,-152,11993.0
00:17:17.529,AUTO,-35.3632622,149.1652364,27880,0.01111548114567995,0.0018708588322624564,-0.2267734557390213,-0.00849766843020916,-0.003139588050544262,0.025871865451335907,0,0,-999,-7,-2,25,-3,6,-152,11993.0
00:17:17.745,AUTO,-35.3632622,149.1652364,27880,0.01111548114567995,0.0018708588322624564,-0.2267734557390213,-0.00849766843020916,-0.003139588050544262,0.025871865451335907,0,0,-999,-7,-2,25,-3,6,-152,11993.0
00:17:17.954,AUTO,-35.3632623,149.165237,29043,0.00483331736177206,0.0015343670966103673,-0.2100450098514557,-0.007550753653049469,0.0009716351050883532,0.0218758974224329,1,-1,-1000,-6,1,21,-1,9,-152,11993.0
00:17:18.156,AUTO,-35.3632623,149.165237,29043,0.00483331736177206,0.0015343670966103673,-0.2100450098514557,-0.007550753653049469,0.0009716351050883532,0.0218758974224329,1,-1,-1000,-6,1,21,-1,9,-152,11993.0
00:17:18.358,AUTO,-35.3632623,149.1652372,29431,0.0029075592756271362,0.0017268531955778599,-0.2048778235912323,-0.004798386245965958,0.0018861837452277541,0.022780386731028557,1,-1,-1000,-3,2,22,-1,9,-152,11993.0
00:17:18.560,AUTO,-35.3632623,149.1652374,29818,0.0013844749191775918,0.001826883526518941,-0.1996261477470398,-0.004223269410431385,0.00011987326433882117,0.021862037479877472,0,-1,-1000,-3,1,22,0,8,-152,251407.0
00:17:18.761,AUTO,-35.3632623,149.1652375,30206,0.00046432859380729496,0.0020934732165187597,-0.19457735121250153,-0.00428638095036149,0.0026542767882347107,0.020375054329633713,1,-1,-1000,-3,3,20,0,7,-152,251407.0
00:17:18.963,AUTO,-35.3632623,149.1652377,30593,-0.00018847122555598617,0.0021365333814173937,-0.1899871677160263,0.001396774547174573,-0.0008390606380999088,0.02001580409705639,0,0,-1001,2,0,20,0,7,-152,251407.0
00:17:19.165,AUTO,-35.3632623,149.1652377,30593,-0.00018847122555598617,0.0021365333814173937,-0.1899871677160263,0.001396774547174573,-0.0008390606380999088,0.02001580409705639,0,0,-1001,2,0,20,0,7,-152,251407.0
00:17:19.366,AUTO,-35.3632623,149.1652378,30981,-0.0006842010770924389,0.001711545279249549,-0.18550865352153778,-0.0038092229515314102,-0.0011195815168321133,0.01668214611709118,0,-1,-1000,-2,0,16,0,5,-152,251407.0
00:17:19.568,AUTO,-35.3632623,149.1652378,30981,-0.0006842010770924389,0.001711545279249549,-0.18550865352153778,-0.0038092229515314102,-0.0011195815168321133,0.01668214611709118,0,-1,-1000,-2,0,16,0,5,-152,251407.0
00:17:19.770,AUTO,-35.3632623,149.1652378,30981,-0.0006842010770924389,0.001711545279249549,-0.18550865352153778,-0.0038092229515314102,-0.0011195815168321133,0.01668214611709118,0,-1,-1000,-2,0,16,0,5,-152,251407.0
00:17:19.971,AUTO,-35.3632625,149.1652378,32100,-0.056104566901922226,0.06317058950662613,0.018593527376651764,-0.15303008258342743,0.09785112738609314,0.6093171834945679,1,1,-979,-151,98,609,-16,-9,-137,251407.0
00:17:20.173,AUTO,-35.3632625,149.1652378,32100,-0.056104566901922226,0.06317058950662613,0.018593527376651764,-0.15303008258342743,0.09785112738609314,0.6093171834945679,1,1,-979,-151,98,609,-16,-9,-137,251407.0
00:17:20.374,AUTO,-35.363263,149.1652373,32435,-0.05722956731915474,0.055955931544303894,0.13189971446990967,0.04916149750351906,-0.17147429287433624,0.3084559440612793,3,6,-946,50,-170,308,-29,-24,-124,251407.0
00:17:20.576,AUTO,-35.3632636,149.1652365,32736,-0.03075842559337616,0.008021344430744648,0.18098920583724976,0.1276145726442337,-0.19310857355594635,0.10579931735992432,3,9,-947,128,-192,105,-33,-34,-111,251407.0
00:17:20.777,AUTO,-35.3632643,149.1652355,33007,-0.0017172984080389142,-0.029100999236106873,0.19320032000541687,0.10402929037809372,-0.10789584368467331,0.010150579735636711,3,10,-954,105,-106,9,-29,-34,-99,251407.0
00:17:20.979,AUTO,-35.3632649,149.1652346,33246,0.020730698481202126,-0.04694950580596924,0.1888248175382614,0.061137497425079346,-0.045401059091091156,-0.028821682557463646,2,8,-960,62,-44,-28,-19,-28,-88,251407.0
00:17:21.181,AUTO,-35.3632652,149.1652339,33459,0.035355620086193085,-0.05211710184812546,0.17921312153339386,0.05971866473555565,-0.004895275458693504,-0.03865524381399155,0,7,-966,60,-3,-38,-9,-18,-78,251407.0
00:17:21.383,AUTO,-35.3632652,149.1652339,33459,0.035355620086193085,-0.05211710184812546,0.17921312153339386,0.05971866473555565,-0.004895275458693504,-0.03865524381399155,0,7,-966,60,-3,-38,-9,-18,-78,251407.0
00:17:21.585,AUTO,-35.3632652,149.1652339,33459,0.035355620086193085,-0.05211710184812546,0.17921312153339386,0.05971866473555565,-0.004895275458693504,-0.03865524381399155,0,7,-966,60,-3,-38,-9,-18,-78,251407.0
00:17:21.787,AUTO,-35.3632652,149.1652339,33459,0.035355620086193085,-0.05211710184812546,0.17921312153339386,0.05971866473555565,-0.004895275458693504,-0.03865524381399155,0,7,-966,60,-3,-38,-9,-18,-78,251407.0
00:17:21.990,AUTO,-35.3632649,149.1652336,33970,0.03868137672543526,-0.031292349100112915,0.15544918179512024,0.07586849480867386,0.04223308339715004,-0.020756235346198082,-2,1,-977,76,43,-20,16,13,-56,251407.0
00:17:22.220,AUTO,-35.3632646,149.1652338,34107,0.034288134425878525,-0.020313872024416924,0.15069462358951569,0.10150086134672165,0.043373413383960724,-0.015108923427760601,-2,-5,-977,102,44,-15,21,20,-51,251407.0
00:17:22.434,AUTO,-35.3632641,149.1652344,34228,0.022111374884843826,-0.010547718964517117,0.1463674157857895,-0.47795596718788147,0.039990585297346115,-0.018052518367767334,-2,-33,-961,-477,41,-17,23,24,-44,251407.0
00:17:22.703,AUTO,-35.3632635,149.1652351,34331,0.013152984902262688,-0.00183562480378896,0.14252527058124542,-0.5364422798156738,0.031587012112140656,-0.007962093688547611,-1,-22,-985,-535,32,-7,24,27,-37,251407.0
00:17:22.912,AUTO,-35.3632635,149.1652351,34331,0.013152984902262688,-0.00183562480378896,0.14252527058124542,-0.5364422798156738,0.031587012112140656,-0.007962093688547611,-1,-22,-985,-535,32,-7,24,27,-37,251407.0
00:17:23.115,AUTO,-35.363263,149.1652358,34420,0.0014711798867210746,0.004776468966156244,0.1394113004207611,-0.2235441654920578,0.019617926329374313,-0.00487365759909153,-1,6,-977,-221,20,-4,22,29,-32,251407.0
00:17:23.317,AUTO,-35.3632625,149.1652365,34496,0.0025844539050012827,0.010464594699442387,0.13618607819080353,0.30830058455467224,0.02341446280479431,-0.01092777494341135,-3,27,-977,310,24,-10,20,28,-28,251407.0
00:17:23.521,AUTO,-35.3632625,149.1652365,34496,0.0025844539050012827,0.010464594699442387,0.13618607819080353,0.30830058455467224,0.02341446280479431,-0.01092777494341135,-3,27,-977,310,24,-10,20,28,-28,251407.0
00:17:23.723,AUTO,-35.3632625,149.1652365,34496,0.0025844539050012827,0.010464594699442387,0.13618607819080353,0.30830058455467224,0.02341446280479431,-0.01092777494341135,-3,27,-977,310,24,-10,20,28,-28,251407.0
00:17:23.925,AUTO,-35.3632625,149.1652365,34496,0.0025844539050012827,0.010464594699442387,0.13618607819080353,0.30830058455467224,0.02341446280479431,-0.01092777494341135,-3,27,-977,310,24,-10,20,28,-28,207654.0
00:17:24.127,AUTO,-35.3632613,149.1652381,34639,0.002635236596688628,0.015451482497155666,0.1276084929704666,-0.07810500264167786,-0.0039084553718566895,-0.004749629646539688,-2,-26,-964,-78,-3,-4,10,17,-10,207654.0
00:17:24.329,AUTO,-35.363261,149.1652383,34651,-0.0005724280490539968,0.013529343530535698,0.12530387938022614,-0.5113137364387512,-0.00742553872987628,-0.0102486377581954,-1,-37,-956,-511,-6,-10,7,14,0,207654.0
00:17:24.530,AUTO,-35.3632609,149.1652384,34635,-0.0235140360891819,0.03875820338726044,0.12689949572086334,-0.8093578815460205,0.018287232145667076,-0.024322418496012688,-1,-45,-939,-809,19,-24,1,7,11,207654.0
00:17:24.732,AUTO,-35.3632609,149.1652382,34595,-0.027627576142549515,0.024818046018481255,0.12370757758617401,-0.8456816673278809,-0.08412962406873703,-0.01801421493291855,0,-40,-1014,-845,-83,-17,-5,0,13,207654.0
00:17:24.934,AUTO,-35.3632611,149.1652379,34558,-0.031648434698581696,0.005221882369369268,0.12017368525266647,-0.6344028115272522,-0.05859403312206268,-0.02375454269349575,-1,-13,-1027,-632,-57,-23,-8,-6,11,207654.0
00:17:25.136,AUTO,-35.3632611,149.1652379,34558,-0.031648434698581696,0.005221882369369268,0.12017368525266647,-0.6344028115272522,-0.05859403312206268,-0.02375454269349575,-1,-13,-1027,-632,-57,-23,-8,-6,11,207654.0
00:17:25.338,AUTO,-35.3632611,149.1652374,34529,-0.0333220399916172,-0.007898627780377865,0.11791979521512985,0.046916425228118896,-0.04101783037185669,-0.021471917629241943,-2,28,-1013,49,-39,-21,-8,-12,8,207654.0
00:17:25.540,AUTO,-35.3632611,149.1652374,34529,-0.0333220399916172,-0.007898627780377865,0.11791979521512985,0.046916425228118896,-0.04101783037185669,-0.021471917629241943,-2,28,-1013,49,-39,-21,-8,-12,8,207654.0
00:17:25.741,AUTO,-35.3632611,149.1652374,34529,-0.0333220399916172,-0.007898627780377865,0.11791979521512985,0.046916425228118896,-0.04101783037185669,-0.021471917629241943,-2,28,-1013,49,-39,-21,-8,-12,8,207654.0
00:17:25.943,AUTO,-35.3632612,149.1652344,34480,-0.03134588524699211,-0.03022843413054943,0.11036521941423416,0.39517107605934143,-0.027561314404010773,-0.010714144445955753,-7,12,-1005,395,-26,-10,6,-37,0,207654.0
00:17:26.145,AUTO,-35.3632612,149.1652344,34480,-0.03134588524699211,-0.03022843413054943,0.11036521941423416,0.39517107605934143,-0.027561314404010773,-0.010714144445955753,-7,12,-1005,395,-26,-10,6,-37,0,207654.0
00:17:26.347,AUTO,-35.3632612,149.1652329,34477,-0.041792817413806915,-0.03629109263420105,0.10591141879558563,-0.18053580820560455,-0.016024673357605934,-0.041792500764131546,-7,-11,-1001,-180,-14,-41,12,-48,-2,207654.0
00:17:26.549,AUTO,-35.3632608,149.1652311,34480,-0.052631814032793045,-0.04355554282665253,0.03528975695371628,-0.6445819735527039,0.016255589202046394,-0.526615560054779,-13,-18,-1011,-643,17,-526,19,-58,-5,207654.0
00:17:26.751,AUTO,-35.3632603,149.165229,34490,-0.049692071974277496,-0.05692420154809952,-0.1485564261674881,-0.33072417974472046,-0.00343872862868011,-0.8408275246620178,-18,18,-1012,-328,-2,-840,27,-69,-7,207654.0
00:17:26.959,AUTO,-35.3632597,149.1652266,34503,-0.03760787472128868,-0.07486917078495026,-0.3649674654006958,0.3456415832042694,-0.04309941083192825,-0.876568615436554,-24,37,-1014,348,-41,-876,35,-81,-8,207654.0
00:17:27.182,AUTO,-35.3632589,149.1652238,34518,-0.02141341008245945,-0.09195917099714279,-0.5782579779624939,0.5514835715293884,-0.05237998068332672,-0.82590252161026,-27,31,-1021,553,-51,-825,44,-97,-9,207654.0
00:17:27.390,AUTO,-35.3632589,149.1652238,34518,-0.02141341008245945,-0.09195917099714279,-0.5782579779624939,0.5514835715293884,-0.05237998068332672,-0.82590252161026,-27,31,-1021,553,-51,-825,44,-97,-9,207654.0
00:17:27.653,AUTO,-35.3632589,149.1652238,34518,-0.02141341008245945,-0.09195917099714279,-0.5782579779624939,0.5514835715293884,-0.05237998068332672,-0.82590252161026,-27,31,-1021,553,-51,-825,44,-97,-9,207654.0
00:17:27.861,AUTO,-35.3632589,149.1652238,34518,-0.02141341008245945,-0.09195917099714279,-0.5782579779624939,0.5514835715293884,-0.05237998068332672,-0.82590252161026,-27,31,-1021,553,-51,-825,44,-97,-9,207654.0
00:17:28.063,AUTO,-35.3632553,149.1652126,34592,0.017967764288187027,-0.130369171500206,-1.1083039045333862,-0.3677043914794922,-0.0551181323826313,-0.33676251769065857,-40,-45,-1026,-366,-54,-336,70,-156,-15,207654.0
00:17:28.265,AUTO,-35.3632537,149.1652076,34628,0.02638935297727585,-0.14239053428173065,-1.1503981351852417,-0.2889355719089508,-0.05316140502691269,-0.021658068522810936,-43,-30,-1015,-287,-52,-21,79,-180,-16,207654.0
00:17:28.467,AUTO,-35.3632519,149.165202,34669,0.0367794893682003,-0.15232020616531372,-1.1372127532958984,0.32919439673423767,-0.04110877588391304,0.08258534222841263,-48,1,-1011,331,-40,82,91,-205,-18,56061.0
00:17:28.669,AUTO,-35.3632519,149.165202,34669,0.0367794893682003,-0.15232020616531372,-1.1372127532958984,0.32919439673423767,-0.04110877588391304,0.08258534222841263,-48,1,-1011,331,-40,82,91,-205,-18,56061.0
00:17:28.871,AUTO,-35.3632497,149.1651957,34713,0.0364864245057106,-0.1622016727924347,-1.1120268106460571,0.30754542350769043,-0.011570132337510586,0.09942639619112015,-57,-26,-1017,308,-10,99,103,-231,-20,56061.0
00:17:29.073,AUTO,-35.3632473,149.1651888,34763,0.032487012445926666,-0.16555078327655792,-1.094096302986145,-0.15224744379520416,0.0012917621061205864,0.07351820170879364,-56,-46,-1015,-151,2,73,115,-256,-22,56061.0
00:17:29.274,AUTO,-35.3632446,149.1651812,34821,0.027982890605926514,-0.16773363947868347,-1.086907148361206,-0.17728658020496368,-0.010851366445422173,0.0025685566943138838,-78,-46,-1018,-175,-9,3,126,-281,-25,56061.0
00:17:29.476,AUTO,-35.3632446,149.1651812,34821,0.027982890605926514,-0.16773363947868347,-1.086907148361206,-0.17728658020496368,-0.010851366445422173,0.0025685566943138838,-78,-46,-1018,-175,-9,3,126,-281,-25,56061.0
00:17:29.678,AUTO,-35.3632446,149.1651812,34821,0.027982890605926514,-0.16773363947868347,-1.086907148361206,-0.17728658020496368,-0.010851366445422173,0.0025685566943138838,-78,-46,-1018,-175,-9,3,126,-281,-25,56061.0
00:17:29.880,AUTO,-35.3632446,149.1651812,34821,0.027982890605926514,-0.16773363947868347,-1.086907148361206,-0.17728658020496368,-0.010851366445422173,0.0025685566943138838,-78,-46,-1018,-175,-9,3,126,-281,-25,56061.0
00:17:30.082,AUTO,-35.3632348,149.1651546,35029,0.026556842029094696,-0.1791488379240036,-1.0896730422973633,-0.1400957554578781,-0.04522562399506569,-0.010973547585308552,-82,-51,-1007,-138,-43,-10,155,-353,-32,56061.0
00:17:30.284,AUTO,-35.3632311,149.1651445,35109,0.027198664844036102,-0.18435250222682953,-1.09224534034729,0.0632748007774353,0.013670453801751137,-0.015110315755009651,-88,-35,-1009,64,14,-14,165,-377,-33,56061.0
00:17:30.485,AUTO,-35.3632271,149.1651337,35195,0.029782582074403763,-0.17306841909885406,-1.0938934087753296,0.10725678503513336,0.043657150119543076,-0.01301771029829979,-89,-40,-1017,108,44,-12,173,-401,-37,56061.0
00:17:30.687,AUTO,-35.363223,149.1651223,35291,0.029750321060419083,-0.16514906287193298,-1.095245361328125,-0.10465588420629501,0.012631799094378948,0.003200833685696125,-109,-42,-1013,-103,13,3,179,-420,-41,56061.0
00:17:30.889,AUTO,-35.363223,149.1651223,35291,0.029750321060419083,-0.16514906287193298,-1.095245361328125,-0.10465588420629501,0.012631799094378948,0.003200833685696125,-109,-42,-1013,-103,13,3,179,-420,-41,56061.0
00:17:31.091,AUTO,-35.3632187,149.1651104,35395,0.032140813767910004,-0.16059595346450806,-1.0967373847961426,0.04167306050658226,0.014512177556753159,-0.011539959348738194,-103,-54,-1008,43,15,-11,185,-437,-43,56061.0
00:17:31.294,AUTO,-35.3632143,149.165098,35506,0.03730929642915726,-0.15794454514980316,-1.098892331123352,0.022181328386068344,0.013356193900108337,-0.011860199272632599,-119,-37,-1010,23,14,-11,189,-454,-45,56061.0
00:17:31.496,AUTO,-35.3632143,149.165098,35506,0.03730929642915726,-0.15794454514980316,-1.098892331123352,0.022181328386068344,0.013356193900108337,-0.011860199272632599,-119,-37,-1010,23,14,-11,189,-454,-45,56061.0
00:17:31.698,AUTO,-35.3632143,149.165098,35506,0.03730929642915726,-0.15794454514980316,-1.098892331123352,0.022181328386068344,0.013356193900108337,-0.011860199272632599,-119,-37,-1010,23,14,-11,189,-454,-45,56061.0
00:17:31.900,AUTO,-35.3632143,149.165098,35506,0.03730929642915726,-0.15794454514980316,-1.098892331123352,0.022181328386068344,0.013356193900108337,-0.011860199272632599,-119,-37,-1010,23,14,-11,189,-454,-45,56061.0
00:17:32.102,AUTO,-35.3632004,149.1650588,35858,0.04239208623766899,-0.14704138040542603,-1.1029229164123535,0.054498303681612015,0.00806364044547081,-0.011831673793494701,-91,-38,-991,56,9,-11,203,-492,-49,56061.0
00:17:32.303,AUTO,-35.3631957,149.1650452,35983,0.043472014367580414,-0.14775949716567993,-1.1046373844146729,-0.012114235199987888,-0.00523096090182662,-2.731074346229434e-05,-91,-47,-982,-10,-4,0,207,-501,-49,56061.0
00:17:32.573,AUTO,-35.3631908,149.1650313,36106,0.040289487689733505,-0.1405930072069168,-1.1048948764801025,-0.009138105437159538,0.0473206453025341,-0.0015806939918547869,-104,-47,-1001,-7,48,-1,212,-511,-49,56061.0
00:17:32.788,AUTO,-35.3631858,149.1650168,36237,0.04355159029364586,-0.13469044864177704,-1.1061797142028809,-0.010090159252285957,0.015154452063143253,-0.0009236811893060803,-96,-42,-985,-8,16,0,215,-518,-50,56061.0
00:17:33.087,AUTO,-35.3631808,149.1650026,36368,0.04452725127339363,-0.1297244429588318,-1.10701322555542,-0.013133939355611801,0.007134996820241213,-0.005700592417269945,-109,-60,-996,-11,8,-5,216,-524,-50,56061.0
00:17:33.364,AUTO,-35.363176,149.1649882,36501,0.05304637923836708,-0.12904669344425201,-1.1093720197677612,0.07320795953273773,-0.004511673469096422,-0.02167266048491001,-124,-53,-993,74,-3,-21,217,-527,-50,56061.0
00:17:33.621,AUTO,-35.363176,149.1649882,36501,0.05304637923836708,-0.12904669344425201,-1.1093720197677612,0.07320795953273773,-0.004511673469096422,-0.02167266048491001,-124,-53,-993,74,-3,-21,217,-527,-50,56061.0
00:17:33.824,AUTO,-35.363176,149.1649882,36501,0.05304637923836708,-0.12904669344425201,-1.1093720197677612,0.07320795953273773,-0.004511673469096422,-0.02167266048491001,-124,-53,-993,74,-3,-21,217,-527,-50,56061.0
00:17:34.029,AUTO,-35.3631612,149.1649449,36896,0.0641658753156662,-0.11124022305011749,-1.1137070655822754,-0.004884460475295782,-0.026221200823783875,-0.010806901380419731,-121,-57,-990,-3,-25,-10,218,-530,-50,56061.0
00:17:34.231,AUTO,-35.3631563,149.1649305,37024,0.061246588826179504,-0.12075129896402359,-1.1148545742034912,0.028158793225884438,-0.03416728973388672,0.0023871774319559336,-107,-60,-974,29,-33,2,220,-528,-46,248848.0
00:17:34.434,AUTO,-35.3631512,149.1649161,37146,0.05807735398411751,-0.12290135771036148,-1.1150466203689575,-0.030161190778017044,0.009130257181823254,0.004047968424856663,-107,-59,-978,-28,10,4,222,-529,-43,248848.0
00:17:34.636,AUTO,-35.3631512,149.1649161,37146,0.05807735398411751,-0.12290135771036148,-1.1150466203689575,-0.030161190778017044,0.009130257181823254,0.004047968424856663,-107,-59,-978,-28,10,4,222,-529,-43,248848.0
00:17:34.838,AUTO,-35.3631462,149.1649016,37265,0.056708525866270065,-0.10578623414039612,-1.1152517795562744,-0.024077333509922028,0.07365237176418304,-0.002099890261888504,-125,-61,-1007,-22,75,-1,222,-528,-45,248848.0
00:17:35.039,AUTO,-35.3631411,149.1648872,37389,0.05752500519156456,-0.0894504263997078,-1.1157281398773193,0.06420016288757324,0.028656987473368645,-0.0027979800943285227,-124,-57,-999,65,29,-2,220,-523,-47,248848.0
00:17:35.241,AUTO,-35.3631362,149.164873,37514,0.05624957010149956,-0.07852252572774887,-1.116442322731018,-0.09125183522701263,0.047693490982055664,0.008186017163097858,-118,-67,-991,-89,48,8,216,-516,-47,248848.0
00:17:35.446,AUTO,-35.3631362,149.164873,37514,0.05624957010149956,-0.07852252572774887,-1.116442322731018,-0.09125183522701263,0.047693490982055664,0.008186017163097858,-118,-67,-991,-89,48,8,216,-516,-47,248848.0
00:17:35.648,AUTO,-35.3631362,149.164873,37514,0.05624957010149956,-0.07852252572774887,-1.116442322731018,-0.09125183522701263,0.047693490982055664,0.008186017163097858,-118,-67,-991,-89,48,8,216,-516,-47,248848.0
00:17:35.850,AUTO,-35.3631362,149.164873,37514,0.05624957010149956,-0.07852252572774887,-1.116442322731018,-0.09125183522701263,0.047693490982055664,0.008186017163097858,-118,-67,-991,-89,48,8,216,-516,-47,248848.0
00:17:36.052,AUTO,-35.3631218,149.1648318,37878,0.061701349914073944,-0.0378049872815609,-1.1187077760696411,-0.1748335212469101,0.043253157287836075,0.004368262831121683,-105,-75,-982,-173,44,4,200,-482,-43,248848.0
00:17:36.253,AUTO,-35.3631173,149.1648189,37991,0.062116749584674835,-0.027749113738536835,-1.120071530342102,-0.12108849734067917,0.030297687277197838,-0.01095283217728138,-100,-55,-976,-119,31,-10,194,-464,-40,248848.0
00:17:36.455,AUTO,-35.3631128,149.1648064,38094,0.06416643410921097,-0.014018009416759014,-1.1214344501495361,0.4368703067302704,0.0536407046020031,-0.023529401049017906,-98,-33,-988,438,54,-22,188,-445,-37,248848.0
00:17:36.657,AUTO,-35.3631128,149.1648064,38094,0.06416643410921097,-0.014018009416759014,-1.1214344501495361,0.4368703067302704,0.0536407046020031,-0.023529401049017906,-98,-33,-988,438,54,-22,188,-445,-37,248848.0
00:17:36.858,AUTO,-35.3631086,149.1647945,38189,0.06094302237033844,-0.0036205321084707975,-1.1210036277770996,-0.013204263523221016,0.05200710892677307,0.02839774452149868,-92,-71,-975,-12,52,29,179,-426,-33,248848.0
00:17:37.060,AUTO,-35.3631045,149.1647831,38274,0.04707453027367592,0.01231247279793024,-1.122349739074707,-0.5952152609825134,0.0674874559044838,0.0255429707467556,-94,-77,-998,-594,68,25,170,-404,-31,248848.0
00:17:37.262,AUTO,-35.3631006,149.1647724,38354,0.04305548593401909,0.024508805945515633,-1.1230124235153198,-0.21003803610801697,0.04910869151353836,-0.015735602006316185,-89,-42,-987,-207,50,-15,161,-379,-27,248848.0
00:17:37.464,AUTO,-35.3631006,149.1647724,38354,0.04305548593401909,0.024508805945515633,-1.1230124235153198,-0.21003803610801697,0.04910869151353836,-0.015735602006316185,-89,-42,-987,-207,50,-15,161,-379,-27,248848.0
00:17:37.666,AUTO,-35.3631006,149.1647724,38354,0.04305548593401909,0.024508805945515633,-1.1230124235153198,-0.21003803610801697,0.04910869151353836,-0.015735602006316185,-89,-42,-987,-207,50,-15,161,-379,-27,248848.0
00:17:37.868,AUTO,-35.3631006,149.1647724,38354,0.04305548593401909,0.024508805945515633,-1.1230124235153198,-0.21003803610801697,0.04910869151353836,-0.015735602006316185,-89,-42,-987,-207,50,-15,161,-379,-27,248848.0
