time_stamp,MODE,lat,lon,relative_alt,roll,pitch,yaw,rollspeed,pitchspeed,yawspeed,xacc,yacc,zacc,xgyro,ygyro,zgyro,vx,vy,vz,RTL_ALT
18:40:40.435,AUTO,-35.3632622,149.1652374,3,-0.0002249210956506431,0.0013459749752655625,0.026750123128294945,0.0003254644980188459,0.0003455781261436641,0.0022111008875072002,0,1,-1000,0,1,0,-1,1,-1,1500.0
18:40:40.636,AUTO,-35.3632622,149.1652374,3,-0.0002249210956506431,0.0013459749752655625,0.026750123128294945,0.0003254644980188459,0.0003455781261436641,0.0022111008875072002,0,1,-1000,0,1,0,-1,1,-1,1500.0
18:40:40.838,AUTO,-35.3632622,149.1652374,3,-0.0002249210956506431,0.0013459749752655625,0.026750123128294945,0.0003254644980188459,0.0003455781261436641,0.0022111008875072002,0,1,-1000,0,1,0,-1,1,-1,1500.0
18:40:41.041,AUTO,-35.3632622,149.1652374,3,-0.0002249210956506431,0.0013459749752655625,0.026750123128294945,0.0003254644980188459,0.0003455781261436641,0.0022111008875072002,0,1,-1000,0,1,0,-1,1,-1,1500.0
18:40:41.245,AUTO,-35.363262,149.1652376,1672,0.02886763960123062,-0.0018538030562922359,0.02391941100358963,0.04615074023604393,-0.007656746543943882,0.0027627311646938324,0,0,-1016,47,-6,1,1,10,-147,1500.0
18:40:41.446,AUTO,-35.3632619,149.1652382,2179,0.046446532011032104,-0.005316285882145166,0.024030489847064018,0.042146652936935425,-0.009499712847173214,0.0036235693842172623,0,-3,-1002,42,-8,2,3,21,-148,1500.0
18:40:41.647,AUTO,-35.3632619,149.1652382,2179,0.054541513323783875,-0.00740510318428278,0.024143097922205925,0.039564263075590134,-0.010965390130877495,0.00396390026435256,1,-5,-1000,39,-10,2,3,21,-148,1500.0
18:40:41.849,AUTO,-35.3632619,149.1652382,2179,0.058391690254211426,-0.008573494851589203,0.024187859147787094,0.03824397921562195,-0.011506644077599049,0.004233349580317736,1,-5,-1000,39,-10,2,3,21,-148,1500.0
18:40:42.050,AUTO,-35.3632619,149.1652382,2179,0.058391690254211426,-0.008573494851589203,0.024187859147787094,0.03824397921562195,-0.011506644077599049,0.004233349580317736,1,-5,-1000,39,-10,2,3,21,-148,1500.0
18:40:42.254,AUTO,-35.3632619,149.1652382,2179,0.058391690254211426,-0.008573494851589203,0.024187859147787094,0.03824397921562195,-0.011506644077599049,0.004233349580317736,1,-5,-1000,39,-10,2,3,21,-148,1500.0
18:40:42.456,AUTO,-35.3632619,149.1652382,2179,0.058391690254211426,-0.008573494851589203,0.024187859147787094,0.03824397921562195,-0.011506644077599049,0.004233349580317736,1,-5,-1000,39,-10,2,3,21,-148,1500.0
18:40:42.659,AUTO,-35.3632619,149.1652382,2179,0.058391690254211426,-0.008573494851589203,0.024187859147787094,0.03824397921562195,-0.011506644077599049,0.004233349580317736,1,-5,-1000,39,-10,2,3,21,-148,1500.0
18:40:42.862,AUTO,-35.3632619,149.1652382,2179,0.058391690254211426,-0.008573494851589203,0.024187859147787094,0.03824397921562195,-0.011506644077599049,0.004233349580317736,1,-5,-1000,39,-10,2,3,21,-148,1500.0
18:40:46.655,AUTO,-35.3632619,149.1652382,2179,0.058391690254211426,-0.008573494851589203,0.024187859147787094,0.03824397921562195,-0.011506644077599049,0.004233349580317736,1,-5,-1000,39,-10,2,3,21,-148,1500.0
18:40:46.857,AUTO,-35.3632619,149.1652382,2179,0.058391690254211426,-0.008573494851589203,0.024187859147787094,0.03824397921562195,-0.011506644077599049,0.004233349580317736,1,-5,-1000,39,-10,2,3,21,-148,1500.0
18:40:47.059,AUTO,-35.3632608,149.1652451,4461,-0.031284354627132416,0.0025348379276692867,-0.06196445971727371,-0.038415394723415375,-0.016800569370388985,-0.03000033088028431,4,-8,-1003,-37,-16,-31,3,36,-148,1500.0
18:40:47.261,AUTO,-35.3632606,149.1652463,5617,-0.08061156421899796,0.0066247787326574326,-0.0955912247300148,0.01927247643470764,-0.001645794603973627,-0.03515117987990379,0,0,-1006,19,-1,-35,0,-11,-148,1500.0
18:40:47.465,AUTO,-35.3632606,149.1652463,5617,-0.08061156421899796,0.0066247787326574326,-0.0955912247300148,0.01927247643470764,-0.001645794603973627,-0.03515117987990379,0,0,-1006,19,-1,-35,0,-11,-148,1500.0
18:40:47.667,AUTO,-35.3632606,149.1652463,5617,-0.08061156421899796,0.0066247787326574326,-0.0955912247300148,0.01927247643470764,-0.001645794603973627,-0.03515117987990379,0,0,-1006,19,-1,-35,0,-11,-148,1500.0
18:40:47.871,AUTO,-35.3632606,149.1652463,5617,-0.08061156421899796,0.0066247787326574326,-0.0955912247300148,0.01927247643470764,-0.001645794603973627,-0.03515117987990379,0,0,-1006,19,-1,-35,0,-11,-148,1500.0
18:40:48.076,AUTO,-35.3632606,149.1652463,5617,-0.08061156421899796,0.0066247787326574326,-0.0955912247300148,0.01927247643470764,-0.001645794603973627,-0.03515117987990379,0,0,-1006,19,-1,-35,0,-11,-148,1500.0
18:40:48.294,AUTO,-35.3632606,149.1652463,5617,-0.08061156421899796,0.0066247787326574326,-0.0955912247300148,0.01927247643470764,-0.001645794603973627,-0.03515117987990379,0,0,-1006,19,-1,-35,0,-11,-148,1500.0
18:40:48.511,AUTO,-35.3632606,149.1652463,5617,-0.08061156421899796,0.0066247787326574326,-0.0955912247300148,0.01927247643470764,-0.001645794603973627,-0.03515117987990379,0,0,-1006,19,-1,-35,0,-11,-148,1500.0
18:40:48.774,AUTO,-35.3632606,149.1652463,5617,-0.08061156421899796,0.0066247787326574326,-0.0955912247300148,0.01927247643470764,-0.001645794603973627,-0.03515117987990379,0,0,-1006,19,-1,-35,0,-11,-148,1500.0
18:40:48.979,AUTO,-35.363262,149.1652375,8164,0.019500011578202248,0.013574611395597458,-0.1161390170454979,0.06967402994632721,0.007181554567068815,0.0012316389475017786,-3,12,-1004,70,7,0,-20,-54,-150,1500.0
18:40:49.183,AUTO,-35.3632625,149.1652361,8555,0.03656438738107681,0.014722525142133236,-0.11518913507461548,0.06825604289770126,0.003119751112535596,0.0031771042849868536,-4,13,-1004,68,3,2,-23,-44,-151,1500.0
18:40:49.388,AUTO,-35.3632625,149.1652361,8555,0.03656438738107681,0.014722525142133236,-0.11518913507461548,0.06825604289770126,0.003119751112535596,0.0031771042849868536,-4,13,-1004,68,3,2,-23,-44,-151,1500.0
18:40:49.592,AUTO,-35.3632625,149.1652361,8555,0.03656438738107681,0.014722525142133236,-0.11518913507461548,0.06825604289770126,0.003119751112535596,0.0031771042849868536,-4,13,-1004,68,3,2,-23,-44,-151,1500.0
18:40:49.795,AUTO,-35.3632625,149.1652361,8555,0.03656438738107681,0.014722525142133236,-0.11518913507461548,0.06825604289770126,0.003119751112535596,0.0031771042849868536,-4,13,-1004,68,3,2,-23,-44,-151,1500.0
18:40:49.999,AUTO,-35.3632625,149.1652361,8555,0.03656438738107681,0.014722525142133236,-0.11518913507461548,0.06825604289770126,0.003119751112535596,0.0031771042849868536,-4,13,-1004,68,3,2,-23,-44,-151,1500.0
18:40:50.201,AUTO,-35.3632625,149.1652361,8555,0.03656438738107681,0.014722525142133236,-0.11518913507461548,0.06825604289770126,0.003119751112535596,0.0031771042849868536,-4,13,-1004,68,3,2,-23,-44,-151,1500.0
18:40:50.404,AUTO,-35.3632625,149.1652361,8555,0.03656438738107681,0.014722525142133236,-0.11518913507461548,0.06825604289770126,0.003119751112535596,0.0031771042849868536,-4,13,-1004,68,3,2,-23,-44,-151,1500.0
18:40:50.606,AUTO,-35.3632625,149.1652361,8555,0.03656438738107681,0.014722525142133236,-0.11518913507461548,0.06825604289770126,0.003119751112535596,0.0031771042849868536,-4,13,-1004,68,3,2,-23,-44,-151,1500.0
18:40:50.808,AUTO,-35.3632625,149.1652361,8555,0.03656438738107681,0.014722525142133236,-0.11518913507461548,0.06825604289770126,0.003119751112535596,0.0031771042849868536,-4,13,-1004,68,3,2,-23,-44,-151,1500.0
18:40:51.012,AUTO,-35.3632647,149.1652342,10112,0.05304824188351631,-0.0397728830575943,-0.06694839149713516,-0.020045924931764603,-0.1037595272064209,0.11343032866716385,5,1,-1001,-19,-103,112,-15,14,-149,1500.0
18:40:51.217,AUTO,-35.3632634,149.165237,11648,-0.02359817363321781,-0.020358946174383163,-0.0649772360920906,-0.051203757524490356,0.09027539193630219,-0.10086193680763245,-1,-9,-1002,-100,109,-78,40,22,-147,1500.0
18:40:51.420,AUTO,-35.3632634,149.165237,11648,-0.02359817363321781,-0.020358946174383163,-0.0649772360920906,-0.051203757524490356,0.09027539193630219,-0.10086193680763245,-3,-10,-1007,-50,90,-102,40,22,-147,1500.0
18:40:51.623,AUTO,-35.3632634,149.165237,11648,-0.02359817363321781,-0.020358946174383163,-0.0649772360920906,-0.051203757524490356,0.09027539193630219,-0.10086193680763245,-3,-10,-1007,-50,90,-102,40,22,-147,1500.0
18:40:51.826,AUTO,-35.3632634,149.165237,11648,-0.02359817363321781,-0.020358946174383163,-0.0649772360920906,-0.051203757524490356,0.09027539193630219,-0.10086193680763245,-3,-10,-1007,-50,90,-102,40,22,-147,1500.0
18:40:52.030,AUTO,-35.3632634,149.165237,11648,-0.02359817363321781,-0.020358946174383163,-0.0649772360920906,-0.051203757524490356,0.09027539193630219,-0.10086193680763245,-3,-10,-1007,-50,90,-102,40,22,-147,1500.0
18:40:52.233,AUTO,-35.3632634,149.165237,11648,-0.02359817363321781,-0.020358946174383163,-0.0649772360920906,-0.051203757524490356,0.09027539193630219,-0.10086193680763245,-3,-10,-1007,-50,90,-102,40,22,-147,1500.0
18:40:52.436,AUTO,-35.3632634,149.165237,11648,-0.02359817363321781,-0.020358946174383163,-0.0649772360920906,-0.051203757524490356,0.09027539193630219,-0.10086193680763245,-3,-10,-1007,-50,90,-102,40,22,-147,1500.0
18:40:52.637,AUTO,-35.3632634,149.165237,11648,-0.02359817363321781,-0.020358946174383163,-0.0649772360920906,-0.051203757524490356,0.09027539193630219,-0.10086193680763245,-3,-10,-1007,-50,90,-102,40,22,-147,1500.0
18:40:52.840,AUTO,-35.3632634,149.165237,11648,-0.02359817363321781,-0.020358946174383163,-0.0649772360920906,-0.051203757524490356,0.09027539193630219,-0.10086193680763245,-3,-10,-1007,-50,90,-102,40,22,-147,1500.0
18:40:53.042,AUTO,-35.3632634,149.165237,11648,-0.02359817363321781,-0.020358946174383163,-0.0649772360920906,-0.051203757524490356,0.09027539193630219,-0.10086193680763245,-3,-10,-1007,-50,90,-102,40,22,-147,1500.0
18:40:53.246,AUTO,-35.3632593,149.1652361,14134,0.004286004230380058,0.032626308500766754,-0.17689740657806396,0.04016658663749695,0.0009382488206028938,-0.016127213835716248,-4,2,-1000,40,1,-17,3,-17,-152,1500.0
18:40:53.450,AUTO,-35.3632593,149.1652352,14920,0.01768544875085354,0.026507673785090446,-0.1768394261598587,0.013380766846239567,-0.019772393628954887,0.010884186252951622,-1,3,-999,14,-19,9,-9,-8,-151,1500.0
18:40:53.655,AUTO,-35.3632593,149.1652352,14920,0.01768544875085354,0.026507673785090446,-0.1768394261598587,0.013380766846239567,-0.019772393628954887,0.010884186252951622,-1,3,-999,14,-19,9,-9,-8,-151,1500.0
18:40:53.868,AUTO,-35.3632593,149.1652352,14920,0.01768544875085354,0.026507673785090446,-0.1768394261598587,0.013380766846239567,-0.019772393628954887,0.010884186252951622,-1,3,-999,14,-19,9,-9,-8,-151,1500.0
18:40:54.083,AUTO,-35.3632593,149.1652352,14920,0.01768544875085354,0.026507673785090446,-0.1768394261598587,0.013380766846239567,-0.019772393628954887,0.010884186252951622,-1,3,-999,14,-19,9,-9,-8,-151,1500.0
18:40:54.286,AUTO,-35.3632593,149.1652352,14920,0.01768544875085354,0.026507673785090446,-0.1768394261598587,0.013380766846239567,-0.019772393628954887,0.010884186252951622,-1,3,-999,14,-19,9,-9,-8,-151,1500.0
18:40:54.488,AUTO,-35.3632593,149.1652352,14920,0.01768544875085354,0.026507673785090446,-0.1768394261598587,0.013380766846239567,-0.019772393628954887,0.010884186252951622,-1,3,-999,14,-19,9,-9,-8,-151,1500.0
18:40:54.689,AUTO,-35.3632593,149.1652352,14920,0.01768544875085354,0.026507673785090446,-0.1768394261598587,0.013380766846239567,-0.019772393628954887,0.010884186252951622,-1,3,-999,14,-19,9,-9,-8,-151,1500.0
18:40:54.890,AUTO,-35.3632593,149.1652352,14920,0.01768544875085354,0.026507673785090446,-0.1768394261598587,0.013380766846239567,-0.019772393628954887,0.010884186252951622,-1,3,-999,14,-19,9,-9,-8,-151,1500.0
18:40:55.092,AUTO,-35.3632601,149.1652349,16090,0.015773026272654533,0.011485883966088295,-0.16586866974830627,-0.013307360000908375,-0.01774543523788452,0.010115999728441238,2,2,-999,-12,-17,9,-18,5,-151,1500.0
18:40:55.294,AUTO,-35.3632617,149.1652359,18046,0.00013939180644229054,-0.0031546354293823242,-0.16967231035232544,-0.006746257189661264,-0.004890233278274536,-0.01800670474767685,3,0,-1000,-9,-8,-11,-12,10,-151,1500.0
18:40:55.495,AUTO,-35.3632617,149.1652359,18046,0.00013939180644229054,-0.0031546354293823242,-0.16967231035232544,-0.006746257189661264,-0.004890233278274536,-0.01800670474767685,3,0,-1001,-6,-4,-18,-12,10,-151,1500.0
18:40:55.698,AUTO,-35.3632617,149.1652359,18046,0.00013939180644229054,-0.0031546354293823242,-0.16967231035232544,-0.006746257189661264,-0.004890233278274536,-0.01800670474767685,3,0,-1001,-6,-4,-18,-12,10,-151,1500.0
18:40:55.900,AUTO,-35.3632617,149.1652359,18046,0.00013939180644229054,-0.0031546354293823242,-0.16967231035232544,-0.006746257189661264,-0.004890233278274536,-0.01800670474767685,3,0,-1001,-6,-4,-18,-12,10,-151,1500.0
18:40:56.102,AUTO,-35.3632617,149.1652359,18046,0.00013939180644229054,-0.0031546354293823242,-0.16967231035232544,-0.006746257189661264,-0.004890233278274536,-0.01800670474767685,3,0,-1001,-6,-4,-18,-12,10,-151,1500.0
18:40:56.303,AUTO,-35.3632617,149.1652359,18046,0.00013939180644229054,-0.0031546354293823242,-0.16967231035232544,-0.006746257189661264,-0.004890233278274536,-0.01800670474767685,3,0,-1001,-6,-4,-18,-12,10,-151,1500.0
18:40:56.505,AUTO,-35.3632617,149.1652359,18046,0.00013939180644229054,-0.0031546354293823242,-0.16967231035232544,-0.006746257189661264,-0.004890233278274536,-0.01800670474767685,3,0,-1001,-6,-4,-18,-12,10,-151,1500.0
18:40:56.706,AUTO,-35.3632617,149.1652359,18046,0.00013939180644229054,-0.0031546354293823242,-0.16967231035232544,-0.006746257189661264,-0.004890233278274536,-0.01800670474767685,3,0,-1001,-6,-4,-18,-12,10,-151,1500.0
18:40:56.908,AUTO,-35.3632617,149.1652359,18046,0.00013939180644229054,-0.0031546354293823242,-0.16967231035232544,-0.006746257189661264,-0.004890233278274536,-0.01800670474767685,3,0,-1001,-6,-4,-18,-12,10,-151,1500.0
18:40:57.114,AUTO,-35.3632623,149.1652365,20542,0.0015909714857116342,-0.0008680428727529943,-0.21051590144634247,0.005882883910089731,0.00474532600492239,-0.029645271599292755,0,0,-1000,3,2,-26,-1,1,-152,1500.0
18:40:57.321,AUTO,-35.3632623,149.1652364,20934,0.00256712781265378,0.0003227459383197129,-0.2176278531551361,0.004555202089250088,0.005326307378709316,-0.02909763529896736,0,0,-1000,5,5,-29,0,1,-152,1500.0
18:40:57.527,AUTO,-35.3632623,149.1652364,20934,0.00256712781265378,0.0003227459383197129,-0.2176278531551361,0.004555202089250088,0.005326307378709316,-0.02909763529896736,0,0,-1000,5,5,-29,0,1,-152,1500.0
18:40:57.738,AUTO,-35.3632623,149.1652364,20934,0.00256712781265378,0.0003227459383197129,-0.2176278531551361,0.004555202089250088,0.005326307378709316,-0.02909763529896736,0,0,-1000,5,5,-29,0,1,-152,1500.0
18:40:57.952,AUTO,-35.3632623,149.1652364,20934,0.00256712781265378,0.0003227459383197129,-0.2176278531551361,0.004555202089250088,0.005326307378709316,-0.02909763529896736,0,0,-1000,5,5,-29,0,1,-152,1500.0
18:40:58.190,AUTO,-35.3632623,149.1652364,20934,0.00256712781265378,0.0003227459383197129,-0.2176278531551361,0.004555202089250088,0.005326307378709316,-0.02909763529896736,0,0,-1000,5,5,-29,0,1,-152,1500.0
18:40:58.393,AUTO,-35.3632623,149.1652364,20934,0.00256712781265378,0.0003227459383197129,-0.2176278531551361,0.004555202089250088,0.005326307378709316,-0.02909763529896736,0,0,-1000,5,5,-29,0,1,-152,1500.0
18:40:58.594,AUTO,-35.3632623,149.1652364,20934,0.00256712781265378,0.0003227459383197129,-0.2176278531551361,0.004555202089250088,0.005326307378709316,-0.02909763529896736,0,0,-1000,5,5,-29,0,1,-152,1500.0
18:40:58.798,AUTO,-35.3632623,149.1652364,20934,0.00256712781265378,0.0003227459383197129,-0.2176278531551361,0.004555202089250088,0.005326307378709316,-0.02909763529896736,0,0,-1000,5,5,-29,0,1,-152,1500.0
18:40:59.000,AUTO,-35.3632622,149.1652364,23364,0.004515705164521933,0.0034944918006658554,-0.25878846645355225,-0.0013022874481976032,-0.000592002528719604,-0.017900370061397552,0,0,-1000,2,1,-20,0,3,-152,1500.0
18:40:59.201,AUTO,-35.3632622,149.1652365,24146,0.003971748985350132,0.0032381475903093815,-0.2631906569004059,-0.0037829081993550062,0.0006029129726812243,-0.017475349828600883,0,0,-1000,0,0,-18,0,3,-152,1500.0
18:40:59.407,AUTO,-35.3632622,149.1652365,24146,0.003971748985350132,0.0032381475903093815,-0.2631906569004059,-0.0037829081993550062,0.0006029129726812243,-0.017475349828600883,0,0,-999,-2,1,-18,0,3,-152,1500.0
18:40:59.610,AUTO,-35.3632622,149.1652365,24146,0.003971748985350132,0.0032381475903093815,-0.2631906569004059,-0.0037829081993550062,0.0006029129726812243,-0.017475349828600883,0,0,-999,-2,1,-18,0,3,-152,1500.0
18:40:59.812,AUTO,-35.3632622,149.1652365,24146,0.003971748985350132,0.0032381475903093815,-0.2631906569004059,-0.0037829081993550062,0.0006029129726812243,-0.017475349828600883,0,0,-999,-2,1,-18,0,3,-152,1500.0
18:41:00.013,AUTO,-35.3632622,149.1652365,24146,0.003971748985350132,0.0032381475903093815,-0.2631906569004059,-0.0037829081993550062,0.0006029129726812243,-0.017475349828600883,0,0,-999,-2,1,-18,0,3,-152,1500.0
18:41:00.216,AUTO,-35.3632622,149.1652365,24146,0.003971748985350132,0.0032381475903093815,-0.2631906569004059,-0.0037829081993550062,0.0006029129726812243,-0.017475349828600883,0,0,-999,-2,1,-18,0,3,-152,1500.0
18:41:00.417,AUTO,-35.3632622,149.1652365,24146,0.003971748985350132,0.0032381475903093815,-0.2631906569004059,-0.0037829081993550062,0.0006029129726812243,-0.017475349828600883,0,0,-999,-2,1,-18,0,3,-152,1500.0
18:41:00.618,AUTO,-35.3632622,149.1652365,24146,0.003971748985350132,0.0032381475903093815,-0.2631906569004059,-0.0037829081993550062,0.0006029129726812243,-0.017475349828600883,0,0,-999,-2,1,-18,0,3,-152,1500.0
18:41:00.821,AUTO,-35.3632622,149.1652366,25316,-0.009237267076969147,0.004858870059251785,-0.2743127644062042,-0.04144470393657684,0.010953353717923164,0.003740315092727542,0,0,-1000,-40,11,2,-1,2,-151,1500.0
18:41:01.022,AUTO,-35.3632623,149.1652365,26881,0.01056405808776617,0.004337555728852749,-0.2560156583786011,0.011296462267637253,-0.0031583847012370825,0.026794321835041046,0,0,-999,11,-2,26,-4,1,-152,1500.0
18:41:01.224,AUTO,-35.3632623,149.1652365,27272,0.011518076062202454,0.003197374986484647,-0.24963058531284332,0.0013649861793965101,-0.0026090487372130156,0.026456497609615326,0,0,-999,2,-1,25,-4,3,-152,1500.0
18:41:01.460,AUTO,-35.3632623,149.1652365,27272,0.011518076062202454,0.003197374986484647,-0.24963058531284332,0.0013649861793965101,-0.0026090487372130156,0.026456497609615326,0,0,-999,2,-1,25,-4,3,-152,1500.0
18:41:01.677,AUTO,-35.3632623,149.1652365,27272,0.011518076062202454,0.003197374986484647,-0.24963058531284332,0.0013649861793965101,-0.0026090487372130156,0.026456497609615326,0,0,-999,2,-1,25,-4,3,-152,1500.0
18:41:01.884,AUTO,-35.3632623,149.1652365,27272,0.011518076062202454,0.003197374986484647,-0.24963058531284332,0.0013649861793965101,-0.0026090487372130156,0.026456497609615326,0,0,-999,2,-1,25,-4,3,-152,1500.0
18:41:02.105,AUTO,-35.3632623,149.1652365,27272,0.011518076062202454,0.003197374986484647,-0.24963058531284332,0.0013649861793965101,-0.0026090487372130156,0.026456497609615326,0,0,-999,2,-1,25,-4,3,-152,1500.0
18:41:02.315,AUTO,-35.3632623,149.1652365,27272,0.011518076062202454,0.003197374986484647,-0.24963058531284332,0.0013649861793965101,-0.0026090487372130156,0.026456497609615326,0,0,-999,2,-1,25,-4,3,-152,1500.0
18:41:02.522,AUTO,-35.3632623,149.1652365,27272,0.011518076062202454,0.003197374986484647,-0.24963058531284332,0.0013649861793965101,-0.0026090487372130156,0.026456497609615326,0,0,-999,2,-1,25,-4,3,-152,1500.0
18:41:02.724,AUTO,-35.3632623,149.1652365,27272,0.011518076062202454,0.003197374986484647,-0.24963058531284332,0.0013649861793965101,-0.0026090487372130156,0.026456497609615326,0,0,-999,2,-1,25,-4,3,-152,1500.0
18:41:02.926,AUTO,-35.3632623,149.1652365,27272,0.011518076062202454,0.003197374986484647,-0.24963058531284332,0.0013649861793965101,-0.0026090487372130156,0.026456497609615326,0,0,-999,2,-1,25,-4,3,-152,1500.0
18:41:03.128,AUTO,-35.3632624,149.1652372,29214,0.003281381679698825,0.0021301761735230684,-0.22117948532104492,-0.01053980365395546,-0.0020986702293157578,0.019834041595458984,1,-1,-1000,-9,-1,19,-1,9,-152,1500.0
18:41:03.329,AUTO,-35.3632624,149.1652378,30385,-0.0004673188959714025,0.0017026845598593354,-0.20649951696395874,-0.004690287169069052,-0.002591921715065837,0.02077876590192318,0,-1,-1000,-3,-1,20,0,7,-152,1500.0
18:41:03.531,AUTO,-35.3632624,149.1652378,30385,-0.0004673188959714025,0.0017026845598593354,-0.20649951696395874,-0.004690287169069052,-0.002591921715065837,0.02077876590192318,0,-1,-1000,-3,-1,20,0,7,-152,1500.0
18:41:03.733,AUTO,-35.3632624,149.1652378,30385,-0.0004673188959714025,0.0017026845598593354,-0.20649951696395874,-0.004690287169069052,-0.002591921715065837,0.02077876590192318,0,-1,-1000,-3,-1,20,0,7,-152,1500.0
18:41:03.936,AUTO,-35.3632624,149.1652378,30385,-0.0004673188959714025,0.0017026845598593354,-0.20649951696395874,-0.004690287169069052,-0.002591921715065837,0.02077876590192318,0,-1,-1000,-3,-1,20,0,7,-152,1500.0
18:41:04.137,AUTO,-35.3632624,149.1652378,30385,-0.0004673188959714025,0.0017026845598593354,-0.20649951696395874,-0.004690287169069052,-0.002591921715065837,0.02077876590192318,0,-1,-1000,-3,-1,20,0,7,-152,1500.0
18:41:04.340,AUTO,-35.3632624,149.1652378,30385,-0.0004673188959714025,0.0017026845598593354,-0.20649951696395874,-0.004690287169069052,-0.002591921715065837,0.02077876590192318,0,-1,-1000,-3,-1,20,0,7,-152,1500.0
18:41:04.544,AUTO,-35.3632624,149.1652378,30385,-0.0004673188959714025,0.0017026845598593354,-0.20649951696395874,-0.004690287169069052,-0.002591921715065837,0.02077876590192318,0,-1,-1000,-3,-1,20,0,7,-152,1500.0
18:41:04.747,AUTO,-35.3632624,149.1652378,30385,-0.0004673188959714025,0.0017026845598593354,-0.20649951696395874,-0.004690287169069052,-0.002591921715065837,0.02077876590192318,0,-1,-1000,-3,-1,20,0,7,-152,1500.0
18:41:04.949,AUTO,-35.3632624,149.1652378,30385,-0.0010875085135921836,0.0012332011247053742,-0.19328412413597107,-0.00260242260992527,9.632902219891548e-06,0.017354656010866165,0,-1,-1000,-3,-1,20,0,7,-152,1500.0
18:41:05.152,AUTO,-35.3632624,149.1652381,33110,0.0004532401799224317,0.001025488949380815,-0.1784658133983612,0.0023907083086669445,0.0006258648936636746,0.014164247550070286,0,0,-999,2,1,13,0,1,-152,1500.0
18:41:05.353,AUTO,-35.3632623,149.1652381,33501,0.000990065629594028,0.0009229768184013665,-0.17478984594345093,0.0025569340214133263,0.0003888061619363725,0.017197338864207268,0,0,-999,3,1,16,0,0,-152,1500.0
18:41:05.563,AUTO,-35.3632623,149.1652381,33501,0.000990065629594028,0.0009229768184013665,-0.17478984594345093,0.0025569340214133263,0.0003888061619363725,0.017197338864207268,0,0,-999,3,1,16,0,0,-152,1500.0
18:41:05.774,AUTO,-35.3632623,149.1652381,33501,0.000990065629594028,0.0009229768184013665,-0.17478984594345093,0.0025569340214133263,0.0003888061619363725,0.017197338864207268,0,0,-999,3,1,16,0,0,-152,1500.0
18:41:05.999,AUTO,-35.3632623,149.1652381,33501,0.000990065629594028,0.0009229768184013665,-0.17478984594345093,0.0025569340214133263,0.0003888061619363725,0.017197338864207268,0,0,-999,3,1,16,0,0,-152,1500.0
18:41:06.206,AUTO,-35.3632623,149.1652381,33501,0.000990065629594028,0.0009229768184013665,-0.17478984594345093,0.0025569340214133263,0.0003888061619363725,0.017197338864207268,0,0,-999,3,1,16,0,0,-152,1500.0
18:41:06.425,AUTO,-35.3632623,149.1652381,33501,0.000990065629594028,0.0009229768184013665,-0.17478984594345093,0.0025569340214133263,0.0003888061619363725,0.017197338864207268,0,0,-999,3,1,16,0,0,-152,1500.0
18:41:06.634,AUTO,-35.3632623,149.1652381,33501,0.000990065629594028,0.0009229768184013665,-0.17478984594345093,0.0025569340214133263,0.0003888061619363725,0.017197338864207268,0,0,-999,3,1,16,0,0,-152,1500.0
18:41:06.872,AUTO,-35.3632623,149.1652381,34671,0.0015584095381200314,0.0010056470055133104,-0.1651189774274826,-0.0035696905106306076,0.0021753343753516674,0.011925405822694302,0,0,-999,3,1,16,0,0,-152,1500.0
18:41:07.074,AUTO,-35.3632622,149.1652379,36233,0.0017220405861735344,0.001222730614244938,-0.15375372767448425,0.0029713495168834925,-0.0007692861836403608,0.010281892493367195,0,0,-1001,3,0,9,0,0,-152,1500.0
18:41:07.276,AUTO,-35.3632622,149.1652379,36623,0.0019280381966382265,0.0011504519497975707,-0.15107698738574982,0.002864331239834428,-0.0014514897484332323,0.01024859119206667,0,0,-1001,3,0,10,0,0,-152,1500.0
18:41:07.478,AUTO,-35.3632622,149.1652379,36623,0.0019280381966382265,0.0011504519497975707,-0.15107698738574982,0.002864331239834428,-0.0014514897484332323,0.01024859119206667,0,0,-1001,3,0,10,0,0,-152,1500.0
18:41:07.680,AUTO,-35.3632622,149.1652379,36623,0.0019280381966382265,0.0011504519497975707,-0.15107698738574982,0.002864331239834428,-0.0014514897484332323,0.01024859119206667,0,0,-1001,3,0,10,0,0,-152,1500.0
18:41:07.885,AUTO,-35.3632622,149.1652379,36623,0.0019280381966382265,0.0011504519497975707,-0.15107698738574982,0.002864331239834428,-0.0014514897484332323,0.01024859119206667,0,0,-1001,3,0,10,0,0,-152,1500.0
18:41:08.087,AUTO,-35.3632622,149.1652379,36623,0.0019280381966382265,0.0011504519497975707,-0.15107698738574982,0.002864331239834428,-0.0014514897484332323,0.01024859119206667,0,0,-1001,3,0,10,0,0,-152,1500.0
18:41:08.290,AUTO,-35.3632622,149.1652379,36623,0.0019280381966382265,0.0011504519497975707,-0.15107698738574982,0.002864331239834428,-0.0014514897484332323,0.01024859119206667,0,0,-1001,3,0,10,0,0,-152,1500.0
18:41:08.493,AUTO,-35.3632622,149.1652379,36623,0.0019280381966382265,0.0011504519497975707,-0.15107698738574982,0.002864331239834428,-0.0014514897484332323,0.01024859119206667,0,0,-1001,3,0,10,0,0,-152,1500.0
18:41:08.694,AUTO,-35.3632622,149.1652379,36623,0.0019280381966382265,0.0011504519497975707,-0.15107698738574982,0.002864331239834428,-0.0014514897484332323,0.01024859119206667,0,0,-1001,3,0,10,0,0,-152,1500.0
18:41:08.898,AUTO,-35.3632622,149.1652377,38569,0.002804018324241042,0.0014021885581314564,-0.1391477882862091,-0.0028039757162332535,0.0009134882129728794,0.009892873466014862,0,0,-999,-1,1,9,0,0,-152,1500.0
18:41:09.100,AUTO,-35.3632621,149.1652376,39348,0.0028334278613328934,0.0014032172039151192,-0.13523927330970764,-0.002616026671603322,0.00031545344972983,0.009195027872920036,0,0,-999,-1,0,8,0,0,-152,1500.0
18:41:09.302,AUTO,-35.3632621,149.1652376,39741,0.002593498444184661,0.0016829639207571745,-0.1332261562347412,0.001449134200811386,0.001642339862883091,0.00930026825517416,0,0,-1000,2,2,9,0,0,-152,1500.0
18:41:09.504,AUTO,-35.3632621,149.1652376,39741,0.002593498444184661,0.0016829639207571745,-0.1332261562347412,0.001449134200811386,0.001642339862883091,0.00930026825517416,0,0,-1000,2,2,9,0,0,-152,1500.0
18:41:09.706,AUTO,-35.3632621,149.1652376,39741,0.002593498444184661,0.0016829639207571745,-0.1332261562347412,0.001449134200811386,0.001642339862883091,0.00930026825517416,0,0,-1000,2,2,9,0,0,-152,1500.0
18:41:09.909,AUTO,-35.3632621,149.1652376,39741,0.002593498444184661,0.0016829639207571745,-0.1332261562347412,0.001449134200811386,0.001642339862883091,0.00930026825517416,0,0,-1000,2,2,9,0,0,-152,1500.0
18:41:10.117,AUTO,-35.3632621,149.1652376,39741,0.002593498444184661,0.0016829639207571745,-0.1332261562347412,0.001449134200811386,0.001642339862883091,0.00930026825517416,0,0,-1000,2,2,9,0,0,-152,1500.0
18:41:10.345,AUTO,-35.3632621,149.1652376,39741,0.002593498444184661,0.0016829639207571745,-0.1332261562347412,0.001449134200811386,0.001642339862883091,0.00930026825517416,0,0,-1000,2,2,9,0,0,-152,1500.0
18:41:10.555,AUTO,-35.3632621,149.1652376,39741,0.002593498444184661,0.0016829639207571745,-0.1332261562347412,0.001449134200811386,0.001642339862883091,0.00930026825517416,0,0,-1000,2,2,9,0,0,-152,1500.0
18:41:10.769,AUTO,-35.3632621,149.1652376,39741,0.002593498444184661,0.0016829639207571745,-0.1332261562347412,0.001449134200811386,0.001642339862883091,0.00930026825517416,0,0,-1000,2,2,9,0,0,-152,1500.0
18:41:10.977,AUTO,-35.3632621,149.1652376,39741,0.002593498444184661,0.0016829639207571745,-0.1332261562347412,0.001449134200811386,0.001642339862883091,0.00930026825517416,0,0,-1000,2,2,9,0,0,-152,1500.0
18:41:11.201,AUTO,-35.3632621,149.1652375,42088,0.0021215220913290977,0.0012850075727328658,-0.12245666235685349,0.0019485179800540209,0.001484402222558856,0.008870777674019337,0,0,-1000,0,-1,7,0,1,-152,1500.0
18:41:11.403,AUTO,-35.3632621,149.1652375,42868,0.002363033825531602,0.0013878787867724895,-0.11915268748998642,-0.0005085754673928022,0.0027510293293744326,0.007898050360381603,0,0,-999,0,3,7,-1,1,-152,1500.0
18:41:11.609,AUTO,-35.3632621,149.1652375,42868,0.002363033825531602,0.0013878787867724895,-0.11915268748998642,-0.0005085754673928022,0.0027510293293744326,0.007898050360381603,0,0,-999,0,3,7,-1,1,-152,1500.0
18:41:11.813,AUTO,-35.3632621,149.1652375,42868,0.002363033825531602,0.0013878787867724895,-0.11915268748998642,-0.0005085754673928022,0.0027510293293744326,0.007898050360381603,0,0,-999,0,3,7,-1,1,-152,1500.0
18:41:12.017,AUTO,-35.3632621,149.1652375,42868,0.002363033825531602,0.0013878787867724895,-0.11915268748998642,-0.0005085754673928022,0.0027510293293744326,0.007898050360381603,0,0,-999,0,3,7,-1,1,-152,1500.0
18:41:12.219,AUTO,-35.3632621,149.1652375,42868,0.002363033825531602,0.0013878787867724895,-0.11915268748998642,-0.0005085754673928022,0.0027510293293744326,0.007898050360381603,0,0,-999,0,3,7,-1,1,-152,1500.0
18:41:12.423,AUTO,-35.3632621,149.1652375,42868,0.002363033825531602,0.0013878787867724895,-0.11915268748998642,-0.0005085754673928022,0.0027510293293744326,0.007898050360381603,0,0,-999,0,3,7,-1,1,-152,1500.0
18:41:12.625,AUTO,-35.3632621,149.1652375,42868,0.002363033825531602,0.0013878787867724895,-0.11915268748998642,-0.0005085754673928022,0.0027510293293744326,0.007898050360381603,0,0,-999,0,3,7,-1,1,-152,1500.0
18:41:12.827,AUTO,-35.3632621,149.1652375,42868,0.002363033825531602,0.0013878787867724895,-0.11915268748998642,-0.0005085754673928022,0.0027510293293744326,0.007898050360381603,0,0,-999,0,3,7,-1,1,-152,1500.0
18:41:13.028,AUTO,-35.363262,149.1652374,45198,0.002005247864872217,0.001244536368176341,-0.11035753041505814,0.0012576458975672722,-0.0007444166112691164,0.00790348369628191,0,0,-1000,2,0,7,-1,1,-152,1500.0
18:41:13.230,AUTO,-35.363262,149.1652374,45587,0.0021686875261366367,0.001348554971627891,-0.10901771485805511,-0.000722815515473485,0.0001849294058047235,0.007220948580652475,0,0,-999,0,1,7,-1,1,-152,1500.0
18:41:13.432,AUTO,-35.363262,149.1652374,45977,0.0022189731243997812,0.0011506668524816632,-0.10743752866983414,0.0035967850126326084,-0.0008188143256120384,0.006746521685272455,0,0,-1001,4,0,6,-1,1,-152,1500.0
18:41:13.634,AUTO,-35.363262,149.1652374,45977,0.0022189731243997812,0.0011506668524816632,-0.10743752866983414,0.0035967850126326084,-0.0008188143256120384,0.006746521685272455,0,0,-1001,4,0,6,-1,1,-152,1500.0
18:41:13.835,AUTO,-35.363262,149.1652374,45977,0.0022189731243997812,0.0011506668524816632,-0.10743752866983414,0.0035967850126326084,-0.0008188143256120384,0.006746521685272455,0,0,-1001,4,0,6,-1,1,-152,1500.0
18:41:14.038,AUTO,-35.363262,149.1652374,45977,0.0022189731243997812,0.0011506668524816632,-0.10743752866983414,0.0035967850126326084,-0.0008188143256120384,0.006746521685272455,0,0,-1001,4,0,6,-1,1,-152,1500.0
18:41:14.239,AUTO,-35.363262,149.1652374,45977,0.0022189731243997812,0.0011506668524816632,-0.10743752866983414,0.0035967850126326084,-0.0008188143256120384,0.006746521685272455,0,0,-1001,4,0,6,-1,1,-152,1500.0
18:41:14.440,AUTO,-35.363262,149.1652374,45977,0.0022189731243997812,0.0011506668524816632,-0.10743752866983414,0.0035967850126326084,-0.0008188143256120384,0.006746521685272455,0,0,-1001,4,0,6,-1,1,-152,1500.0
18:41:14.642,AUTO,-35.363262,149.1652374,45977,0.0022189731243997812,0.0011506668524816632,-0.10743752866983414,0.0035967850126326084,-0.0008188143256120384,0.006746521685272455,0,0,-1001,4,0,6,-1,1,-152,1500.0
18:41:14.843,AUTO,-35.363262,149.1652374,45977,0.0022189731243997812,0.0011506668524816632,-0.10743752866983414,0.0035967850126326084,-0.0008188143256120384,0.006746521685272455,0,0,-1001,4,0,6,-1,1,-152,1500.0
18:41:15.044,AUTO,-35.363262,149.1652373,47513,-0.034850526601076126,0.040919579565525055,-0.006548414006829262,-0.14217615127563477,0.1328420639038086,0.4446251094341278,0,0,-970,-82,85,182,-7,-4,-141,1500.0
18:41:15.246,AUTO,-35.3632635,149.1652353,48465,-0.018840964883565903,-0.007585819344967604,0.2667824923992157,0.11688829213380814,-0.17249751091003418,0.130765900015831,3,11,-947,117,-171,130,-31,-37,-103,1500.0
18:41:15.450,AUTO,-35.3632641,149.1652342,48716,0.005694165825843811,-0.0393664576113224,0.28644514083862305,0.07814500480890274,-0.09113084524869919,0.04895292595028877,3,9,-955,78,-90,49,-25,-34,-91,1500.0
18:41:15.681,AUTO,-35.3632641,149.1652342,48716,0.005694165825843811,-0.0393664576113224,0.28644514083862305,0.07814500480890274,-0.09113084524869919,0.04895292595028877,3,9,-955,78,-90,49,-25,-34,-91,1500.0
18:41:15.890,AUTO,-35.3632641,149.1652342,48716,0.005694165825843811,-0.0393664576113224,0.28644514083862305,0.07814500480890274,-0.09113084524869919,0.04895292595028877,3,9,-955,78,-90,49,-25,-34,-91,1500.0
18:41:16.109,AUTO,-35.3632641,149.1652342,48716,0.005694165825843811,-0.0393664576113224,0.28644514083862305,0.07814500480890274,-0.09113084524869919,0.04895292595028877,3,9,-955,78,-90,49,-25,-34,-91,1500.0
18:41:16.310,AUTO,-35.3632641,149.1652342,48716,0.005694165825843811,-0.0393664576113224,0.28644514083862305,0.07814500480890274,-0.09113084524869919,0.04895292595028877,3,9,-955,78,-90,49,-25,-34,-91,1500.0
18:41:16.513,AUTO,-35.3632641,149.1652342,48716,0.005694165825843811,-0.0393664576113224,0.28644514083862305,0.07814500480890274,-0.09113084524869919,0.04895292595028877,3,9,-955,78,-90,49,-25,-34,-91,1500.0
18:41:16.715,AUTO,-35.3632641,149.1652342,48716,0.005694165825843811,-0.0393664576113224,0.28644514083862305,0.07814500480890274,-0.09113084524869919,0.04895292595028877,3,9,-955,78,-90,49,-25,-34,-91,1500.0
18:41:16.918,AUTO,-35.3632641,149.1652342,48716,0.005694165825843811,-0.0393664576113224,0.28644514083862305,0.07814500480890274,-0.09113084524869919,0.04895292595028877,3,9,-955,78,-90,49,-25,-34,-91,1500.0
18:41:17.119,AUTO,-35.363264,149.1652332,49721,0.023670904338359833,-0.01750241592526436,0.2521156966686249,-0.5540904998779297,0.042739879339933395,-0.03467932716012001,-2,-25,-968,-553,43,-34,20,24,-44,1500.0
18:41:17.321,AUTO,-35.363263,149.1652347,49919,0.019627513363957405,0.001379031571559608,0.23452390730381012,0.4629519283771515,0.027882367372512817,-0.026658644899725914,-2,1,-990,-74,38,-28,20,31,-34,1500.0
18:41:17.524,AUTO,-35.363263,149.1652347,49919,0.019627513363957405,0.001379031571559608,0.23452390730381012,0.4629519283771515,0.027882367372512817,-0.026658644899725914,-2,21,-988,467,28,-26,20,31,-34,1500.0
18:41:17.727,AUTO,-35.363263,149.1652347,49919,0.019627513363957405,0.001379031571559608,0.23452390730381012,0.4629519283771515,0.027882367372512817,-0.026658644899725914,-2,21,-988,467,28,-26,20,31,-34,1500.0
18:41:17.929,AUTO,-35.363263,149.1652347,49919,0.019627513363957405,0.001379031571559608,0.23452390730381012,0.4629519283771515,0.027882367372512817,-0.026658644899725914,-2,21,-988,467,28,-26,20,31,-34,1500.0
18:41:18.130,AUTO,-35.363263,149.1652347,49919,0.019627513363957405,0.001379031571559608,0.23452390730381012,0.4629519283771515,0.027882367372512817,-0.026658644899725914,-2,21,-988,467,28,-26,20,31,-34,1500.0
18:41:18.331,AUTO,-35.363263,149.1652347,49919,0.019627513363957405,0.001379031571559608,0.23452390730381012,0.4629519283771515,0.027882367372512817,-0.026658644899725914,-2,21,-988,467,28,-26,20,31,-34,1500.0
18:41:18.536,AUTO,-35.363263,149.1652347,49919,0.019627513363957405,0.001379031571559608,0.23452390730381012,0.4629519283771515,0.027882367372512817,-0.026658644899725914,-2,21,-988,467,28,-26,20,31,-34,1500.0
18:41:18.738,AUTO,-35.363263,149.1652347,49919,0.019627513363957405,0.001379031571559608,0.23452390730381012,0.4629519283771515,0.027882367372512817,-0.026658644899725914,-2,21,-988,467,28,-26,20,31,-34,1500.0
18:41:22.524,AUTO,-35.3632615,149.1652374,50147,-0.007531814277172089,0.015774818137288094,0.20906053483486176,-0.5633642077445984,0.003036912763491273,-0.027343807741999626,0,-42,-977,-566,4,-27,12,24,-15,1500.0
18:41:22.726,AUTO,-35.363261,149.1652391,50157,-0.0432676300406456,0.04468812048435211,0.19568905234336853,0.2930208444595337,0.012587006203830242,-0.04334893450140953,4,38,-958,301,13,-43,0,8,18,1500.0
18:41:22.927,AUTO,-35.3632611,149.1652392,50103,-0.03639586269855499,0.035996176302433014,0.18845140933990479,0.7105222344398499,-0.052693795412778854,-0.03280353173613548,0,41,-1036,715,-51,-32,-7,-2,18,1500.0
18:41:23.140,AUTO,-35.3632611,149.1652392,50103,-0.03639586269855499,0.035996176302433014,0.18845140933990479,0.7105222344398499,-0.052693795412778854,-0.03280353173613548,0,41,-1036,715,-51,-32,-7,-2,18,1500.0
18:41:23.349,AUTO,-35.3632611,149.1652392,50103,-0.03639586269855499,0.035996176302433014,0.18845140933990479,0.7105222344398499,-0.052693795412778854,-0.03280353173613548,0,41,-1036,715,-51,-32,-7,-2,18,1500.0
18:41:23.556,AUTO,-35.3632611,149.1652392,50103,-0.03639586269855499,0.035996176302433014,0.18845140933990479,0.7105222344398499,-0.052693795412778854,-0.03280353173613548,0,41,-1036,715,-51,-32,-7,-2,18,1500.0
18:41:23.770,AUTO,-35.3632611,149.1652392,50103,-0.03639586269855499,0.035996176302433014,0.18845140933990479,0.7105222344398499,-0.052693795412778854,-0.03280353173613548,0,41,-1036,715,-51,-32,-7,-2,18,1500.0
18:41:23.980,AUTO,-35.3632611,149.1652392,50103,-0.03639586269855499,0.035996176302433014,0.18845140933990479,0.7105222344398499,-0.052693795412778854,-0.03280353173613548,0,41,-1036,715,-51,-32,-7,-2,18,1500.0
18:41:24.188,AUTO,-35.3632611,149.1652392,50103,-0.03639586269855499,0.035996176302433014,0.18845140933990479,0.7105222344398499,-0.052693795412778854,-0.03280353173613548,0,41,-1036,715,-51,-32,-7,-2,18,1500.0
18:41:24.391,AUTO,-35.3632611,149.1652392,50103,-0.03639586269855499,0.035996176302433014,0.18845140933990479,0.7105222344398499,-0.052693795412778854,-0.03280353173613548,0,41,-1036,715,-51,-32,-7,-2,18,1500.0
18:41:24.592,AUTO,-35.3632611,149.1652392,50103,-0.03639586269855499,0.035996176302433014,0.18845140933990479,0.7105222344398499,-0.052693795412778854,-0.03280353173613548,0,41,-1036,715,-51,-32,-7,-2,18,1500.0
18:41:24.793,AUTO,-35.3632626,149.1652375,49976,-0.03315165638923645,0.013583295047283173,0.16364121437072754,-0.5660404562950134,0.005636550951749086,-0.020292093977332115,3,-14,-1016,34,-13,-18,-21,-33,3,1500.0
18:41:24.995,AUTO,-35.3632654,149.1652332,49955,-0.06321021914482117,0.02926105074584484,0.06899867951869965,0.40808483958244324,-0.007967492565512657,-0.5398250222206116,4,53,-995,413,-7,-539,-37,-62,-2,1500.0
18:41:25.200,AUTO,-35.3632654,149.1652332,49955,-0.06321021914482117,0.02926105074584484,0.06899867951869965,0.40808483958244324,-0.007967492565512657,-0.5398250222206116,4,53,-995,413,-7,-539,-37,-62,-2,1500.0
18:41:25.402,AUTO,-35.3632654,149.1652332,49955,-0.06321021914482117,0.02926105074584484,0.06899867951869965,0.40808483958244324,-0.007967492565512657,-0.5398250222206116,4,53,-995,413,-7,-539,-37,-62,-2,1500.0
18:41:25.604,AUTO,-35.3632654,149.1652332,49955,-0.06321021914482117,0.02926105074584484,0.06899867951869965,0.40808483958244324,-0.007967492565512657,-0.5398250222206116,4,53,-995,413,-7,-539,-37,-62,-2,1500.0
18:41:25.808,AUTO,-35.3632654,149.1652332,49955,-0.06321021914482117,0.02926105074584484,0.06899867951869965,0.40808483958244324,-0.007967492565512657,-0.5398250222206116,4,53,-995,413,-7,-539,-37,-62,-2,1500.0
18:41:26.010,AUTO,-35.3632654,149.1652332,49955,-0.06321021914482117,0.02926105074584484,0.06899867951869965,0.40808483958244324,-0.007967492565512657,-0.5398250222206116,4,53,-995,413,-7,-539,-37,-62,-2,1500.0
18:41:26.213,AUTO,-35.3632654,149.1652332,49955,-0.06321021914482117,0.02926105074584484,0.06899867951869965,0.40808483958244324,-0.007967492565512657,-0.5398250222206116,4,53,-995,413,-7,-539,-37,-62,-2,1500.0
18:41:26.415,AUTO,-35.3632654,149.1652332,49955,-0.06321021914482117,0.02926105074584484,0.06899867951869965,0.40808483958244324,-0.007967492565512657,-0.5398250222206116,4,53,-995,413,-7,-539,-37,-62,-2,1500.0
18:41:26.618,AUTO,-35.3632654,149.1652332,49955,-0.06321021914482117,0.02926105074584484,0.06899867951869965,0.40808483958244324,-0.007967492565512657,-0.5398250222206116,4,53,-995,413,-7,-539,-37,-62,-2,1500.0
18:41:26.819,AUTO,-35.3632781,149.1652112,49958,-0.08171362429857254,-0.14525312185287476,-1.3749566078186035,0.06595861166715622,-0.06716114282608032,-0.675692081451416,-45,4,-999,62,-66,-674,-117,-192,0,1500.0
18:41:27.023,AUTO,-35.363281,149.165206,49956,-0.06712410598993301,-0.1732812076807022,-1.5538575649261475,-0.44293156266212463,-0.03670373186469078,-0.6908966302871704,-52,-23,-1012,-444,-35,-690,-132,-216,0,1500.0
18:41:27.225,AUTO,-35.363281,149.165206,49956,-0.06712410598993301,-0.1732812076807022,-1.5538575649261475,-0.44293156266212463,-0.03670373186469078,-0.6908966302871704,-52,-23,-1012,-444,-35,-690,-132,-216,0,1500.0
18:41:27.427,AUTO,-35.363281,149.165206,49956,-0.06712410598993301,-0.1732812076807022,-1.5538575649261475,-0.44293156266212463,-0.03670373186469078,-0.6908966302871704,-52,-23,-1012,-444,-35,-690,-132,-216,0,1500.0
18:41:27.628,AUTO,-35.363281,149.165206,49956,-0.06712410598993301,-0.1732812076807022,-1.5538575649261475,-0.44293156266212463,-0.03670373186469078,-0.6908966302871704,-52,-23,-1012,-444,-35,-690,-132,-216,0,1500.0
18:41:27.829,AUTO,-35.363281,149.165206,49956,-0.06712410598993301,-0.1732812076807022,-1.5538575649261475,-0.44293156266212463,-0.03670373186469078,-0.6908966302871704,-52,-23,-1012,-444,-35,-690,-132,-216,0,1500.0
18:41:28.031,AUTO,-35.363281,149.165206,49956,-0.06712410598993301,-0.1732812076807022,-1.5538575649261475,-0.44293156266212463,-0.03670373186469078,-0.6908966302871704,-52,-23,-1012,-444,-35,-690,-132,-216,0,1500.0
18:41:28.233,AUTO,-35.363281,149.165206,49956,-0.06712410598993301,-0.1732812076807022,-1.5538575649261475,-0.44293156266212463,-0.03670373186469078,-0.6908966302871704,-52,-23,-1012,-444,-35,-690,-132,-216,0,1500.0
18:41:28.434,AUTO,-35.363281,149.165206,49956,-0.06712410598993301,-0.1732812076807022,-1.5538575649261475,-0.44293156266212463,-0.03670373186469078,-0.6908966302871704,-52,-23,-1012,-444,-35,-690,-132,-216,0,1500.0
18:41:28.636,AUTO,-35.3633024,149.1651648,49953,0.03489792346954346,-0.17933207750320435,-2.06400465965271,-0.28709861636161804,-0.17255520820617676,0.08290794491767883,-77,-59,-1015,-117,93,88,-208,-336,-1,1500.0
18:41:28.838,AUTO,-35.3633071,149.1651555,49950,0.03538600727915764,-0.2142845094203949,-2.045100450515747,0.1654711365699768,-0.06759630143642426,0.039412789046764374,-86,-31,-981,168,-66,39,-221,-356,3,1500.0
18:41:29.041,AUTO,-35.3633122,149.1651456,49941,0.04480263963341713,-0.19548504054546356,-2.0358035564422607,0.24998119473457336,0.19972176849842072,0.00372757064178586,-99,-38,-1024,250,200,4,-236,-378,2,1500.0
18:41:29.242,AUTO,-35.3633122,149.1651456,49941,0.04480263963341713,-0.19548504054546356,-2.0358035564422607,0.24998119473457336,0.19972176849842072,0.00372757064178586,-99,-38,-1024,250,200,4,-236,-378,2,1500.0
18:41:29.444,AUTO,-35.3633122,149.1651456,49941,0.04480263963341713,-0.19548504054546356,-2.0358035564422607,0.24998119473457336,0.19972176849842072,0.00372757064178586,-99,-38,-1024,250,200,4,-236,-378,2,1500.0
18:41:29.646,AUTO,-35.3633122,149.1651456,49941,0.04480263963341713,-0.19548504054546356,-2.0358035564422607,0.24998119473457336,0.19972176849842072,0.00372757064178586,-99,-38,-1024,250,200,4,-236,-378,2,1500.0
18:41:29.848,AUTO,-35.3633122,149.1651456,49941,0.04480263963341713,-0.19548504054546356,-2.0358035564422607,0.24998119473457336,0.19972176849842072,0.00372757064178586,-99,-38,-1024,250,200,4,-236,-378,2,1500.0
18:41:30.049,AUTO,-35.3633122,149.1651456,49941,0.04480263963341713,-0.19548504054546356,-2.0358035564422607,0.24998119473457336,0.19972176849842072,0.00372757064178586,-99,-38,-1024,250,200,4,-236,-378,2,1500.0
18:41:30.251,AUTO,-35.3633122,149.1651456,49941,0.04480263963341713,-0.19548504054546356,-2.0358035564422607,0.24998119473457336,0.19972176849842072,0.00372757064178586,-99,-38,-1024,250,200,4,-236,-378,2,1500.0
18:41:30.453,AUTO,-35.3633122,149.1651456,49941,0.04480263963341713,-0.19548504054546356,-2.0358035564422607,0.24998119473457336,0.19972176849842072,0.00372757064178586,-99,-38,-1024,250,200,4,-236,-378,2,1500.0
18:41:30.655,AUTO,-35.3633465,149.1650792,49940,0.053266435861587524,-0.1782165765762329,-2.048064947128296,-0.09237264841794968,0.25159451365470886,-0.016450978815555573,-110,-50,-1033,-90,252,-15,-281,-451,1,1500.0
18:41:30.856,AUTO,-35.3633529,149.1650668,49950,0.06922976672649384,-0.10044899582862854,-2.049692153930664,0.2775794267654419,0.3215327262878418,-0.03655314818024635,-118,-44,-1048,278,322,-36,-284,-455,-13,1500.0
18:41:31.059,AUTO,-35.3633593,149.1650544,49984,0.06895512342453003,-0.09442351013422012,-2.0513253211975098,-0.20718321204185486,-0.19100557267665863,0.050331875681877136,-112,-74,-965,-209,-190,50,-281,-448,-16,1500.0
18:41:31.262,AUTO,-35.3633593,149.1650544,49984,0.06895512342453003,-0.09442351013422012,-2.0513253211975098,-0.20718321204185486,-0.19100557267665863,0.050331875681877136,-112,-74,-965,-209,-190,50,-281,-448,-16,1500.0
18:41:31.463,AUTO,-35.3633593,149.1650544,49984,0.06895512342453003,-0.09442351013422012,-2.0513253211975098,-0.20718321204185486,-0.19100557267665863,0.050331875681877136,-112,-74,-965,-209,-190,50,-281,-448,-16,1500.0
18:41:31.664,AUTO,-35.3633593,149.1650544,49984,0.06895512342453003,-0.09442351013422012,-2.0513253211975098,-0.20718321204185486,-0.19100557267665863,0.050331875681877136,-112,-74,-965,-209,-190,50,-281,-448,-16,1500.0
18:41:31.865,AUTO,-35.3633593,149.1650544,49984,0.06895512342453003,-0.09442351013422012,-2.0513253211975098,-0.20718321204185486,-0.19100557267665863,0.050331875681877136,-112,-74,-965,-209,-190,50,-281,-448,-16,1500.0
18:41:32.067,AUTO,-35.3633593,149.1650544,49984,0.06895512342453003,-0.09442351013422012,-2.0513253211975098,-0.20718321204185486,-0.19100557267665863,0.050331875681877136,-112,-74,-965,-209,-190,50,-281,-448,-16,1500.0
18:41:32.268,AUTO,-35.3633593,149.1650544,49984,0.06895512342453003,-0.09442351013422012,-2.0513253211975098,-0.20718321204185486,-0.19100557267665863,0.050331875681877136,-112,-74,-965,-209,-190,50,-281,-448,-16,1500.0
18:41:32.470,AUTO,-35.3633593,149.1650544,49984,0.06895512342453003,-0.09442351013422012,-2.0513253211975098,-0.20718321204185486,-0.19100557267665863,0.050331875681877136,-112,-74,-965,-209,-190,50,-281,-448,-16,1500.0
18:41:32.672,AUTO,-35.3634067,149.1649638,49992,0.08124052733182907,-0.1129659041762352,-2.0614264011383057,-0.10098794102668762,-0.016397882252931595,0.024355217814445496,-118,-52,-980,392,13,-22,-295,-475,-6,1500.0
18:41:32.874,AUTO,-35.3634067,149.1649638,49992,0.08124052733182907,-0.1129659041762352,-2.0614264011383057,-0.10098794102668762,-0.016397882252931595,0.024355217814445496,-126,-75,-982,-103,-15,24,-295,-475,-6,1500.0
18:41:33.075,AUTO,-35.3634136,149.1649508,49996,0.07715103030204773,-0.11368506401777267,-2.0622758865356445,-0.3503202199935913,0.028347916901111603,-0.01030337531119585,-121,-88,-991,-349,29,-10,-294,-473,-4,1500.0
18:41:33.278,AUTO,-35.3634136,149.1649508,49996,0.07715103030204773,-0.11368506401777267,-2.0622758865356445,-0.3503202199935913,0.028347916901111603,-0.01030337531119585,-121,-88,-991,-349,29,-10,-294,-473,-4,1500.0
18:41:33.480,AUTO,-35.3634136,149.1649508,49996,0.07715103030204773,-0.11368506401777267,-2.0622758865356445,-0.3503202199935913,0.028347916901111603,-0.01030337531119585,-121,-88,-991,-349,29,-10,-294,-473,-4,1500.0
18:41:33.685,AUTO,-35.3634136,149.1649508,49996,0.07715103030204773,-0.11368506401777267,-2.0622758865356445,-0.3503202199935913,0.028347916901111603,-0.01030337531119585,-121,-88,-991,-349,29,-10,-294,-473,-4,1500.0
18:41:33.888,AUTO,-35.3634136,149.1649508,49996,0.07715103030204773,-0.11368506401777267,-2.0622758865356445,-0.3503202199935913,0.028347916901111603,-0.01030337531119585,-121,-88,-991,-349,29,-10,-294,-473,-4,1500.0
18:41:34.089,AUTO,-35.3634136,149.1649508,49996,0.07715103030204773,-0.11368506401777267,-2.0622758865356445,-0.3503202199935913,0.028347916901111603,-0.01030337531119585,-121,-88,-991,-349,29,-10,-294,-473,-4,1500.0
18:41:34.292,AUTO,-35.3634136,149.1649508,49996,0.07715103030204773,-0.11368506401777267,-2.0622758865356445,-0.3503202199935913,0.028347916901111603,-0.01030337531119585,-121,-88,-991,-349,29,-10,-294,-473,-4,1500.0
18:41:34.493,AUTO,-35.3634136,149.1649508,49996,0.07715103030204773,-0.11368506401777267,-2.0622758865356445,-0.3503202199935913,0.028347916901111603,-0.01030337531119585,-121,-88,-991,-349,29,-10,-294,-473,-4,1500.0
18:41:34.695,AUTO,-35.3634461,149.164888,50015,0.07053263485431671,-0.047436486929655075,-2.066494941711426,-0.4616183638572693,0.0411008857190609,-0.02513742446899414,-106,-61,-991,-458,41,-25,-265,-439,-5,1500.0
18:41:34.897,AUTO,-35.3634638,149.1648538,50021,0.08949416130781174,-0.015203003771603107,-2.0687901973724365,0.4620473086833954,0.037207189947366714,-0.01733994483947754,-95,-22,-1002,674,61,-36,-236,-395,-3,1500.0
18:41:35.100,AUTO,-35.3634638,149.1648538,50021,0.08949416130781174,-0.015203003771603107,-2.0687901973724365,0.4620473086833954,0.037207189947366714,-0.01733994483947754,-94,-57,-980,458,38,-16,-236,-395,-3,1500.0
18:41:35.303,AUTO,-35.3634638,149.1648538,50021,0.08949416130781174,-0.015203003771603107,-2.0687901973724365,0.4620473086833954,0.037207189947366714,-0.01733994483947754,-94,-57,-980,458,38,-16,-236,-395,-3,1500.0
18:41:35.505,AUTO,-35.3634638,149.1648538,50021,0.08949416130781174,-0.015203003771603107,-2.0687901973724365,0.4620473086833954,0.037207189947366714,-0.01733994483947754,-94,-57,-980,458,38,-16,-236,-395,-3,1500.0
18:41:35.706,AUTO,-35.3634638,149.1648538,50021,0.08949416130781174,-0.015203003771603107,-2.0687901973724365,0.4620473086833954,0.037207189947366714,-0.01733994483947754,-94,-57,-980,458,38,-16,-236,-395,-3,1500.0
18:41:35.908,AUTO,-35.3634638,149.1648538,50021,0.08949416130781174,-0.015203003771603107,-2.0687901973724365,0.4620473086833954,0.037207189947366714,-0.01733994483947754,-94,-57,-980,458,38,-16,-236,-395,-3,1500.0
18:41:36.110,AUTO,-35.3634638,149.1648538,50021,0.08949416130781174,-0.015203003771603107,-2.0687901973724365,0.4620473086833954,0.037207189947366714,-0.01733994483947754,-94,-57,-980,458,38,-16,-236,-395,-3,1500.0
18:41:36.311,AUTO,-35.3634638,149.1648538,50021,0.08949416130781174,-0.015203003771603107,-2.0687901973724365,0.4620473086833954,0.037207189947366714,-0.01733994483947754,-94,-57,-980,458,38,-16,-236,-395,-3,1500.0
18:41:36.514,AUTO,-35.3634638,149.1648538,50021,0.08949416130781174,-0.015203003771603107,-2.0687901973724365,0.4620473086833954,0.037207189947366714,-0.01733994483947754,-94,-57,-980,458,38,-16,-236,-395,-3,1500.0
18:41:36.716,AUTO,-35.3634878,149.1648069,49999,0.06610076129436493,0.049937911331653595,-2.073044776916504,0.42112240195274353,0.06500860303640366,-0.05704730004072189,-65,-6,-996,428,65,-57,-165,-290,-1,1500.0
18:41:36.918,AUTO,-35.3634978,149.1647867,49984,0.06430624425411224,0.06359151750802994,-2.0732312202453613,0.3103804588317871,0.01694897562265396,0.00762657355517149,-45,-46,-995,306,17,7,-116,-212,-1,1500.0
18:41:37.120,AUTO,-35.3634978,149.1647867,49984,0.06430624425411224,0.06359151750802994,-2.0732312202453613,0.3103804588317871,0.01694897562265396,0.00762657355517149,-45,-46,-995,306,17,7,-116,-212,-1,1500.0
18:41:37.323,AUTO,-35.3634978,149.1647867,49984,0.06430624425411224,0.06359151750802994,-2.0732312202453613,0.3103804588317871,0.01694897562265396,0.00762657355517149,-45,-46,-995,306,17,7,-116,-212,-1,1500.0
18:41:37.525,AUTO,-35.3634978,149.1647867,49984,0.06430624425411224,0.06359151750802994,-2.0732312202453613,0.3103804588317871,0.01694897562265396,0.00762657355517149,-45,-46,-995,306,17,7,-116,-212,-1,1500.0
18:41:37.726,AUTO,-35.3634978,149.1647867,49984,0.06430624425411224,0.06359151750802994,-2.0732312202453613,0.3103804588317871,0.01694897562265396,0.00762657355517149,-45,-46,-995,306,17,7,-116,-212,-1,1500.0
18:41:37.928,AUTO,-35.3634978,149.1647867,49984,0.06430624425411224,0.06359151750802994,-2.0732312202453613,0.3103804588317871,0.01694897562265396,0.00762657355517149,-45,-46,-995,306,17,7,-116,-212,-1,1500.0
18:41:38.132,AUTO,-35.3634978,149.1647867,49984,0.06430624425411224,0.06359151750802994,-2.0732312202453613,0.3103804588317871,0.01694897562265396,0.00762657355517149,-45,-46,-995,306,17,7,-116,-212,-1,1500.0
18:41:38.334,AUTO,-35.3634978,149.1647867,49984,0.06430624425411224,0.06359151750802994,-2.0732312202453613,0.3103804588317871,0.01694897562265396,0.00762657355517149,-45,-46,-995,306,17,7,-116,-212,-1,1500.0
18:41:38.537,AUTO,-35.3634978,149.1647867,49984,0.06430624425411224,0.06359151750802994,-2.0732312202453613,0.3103804588317871,0.01694897562265396,0.00762657355517149,-45,-46,-995,306,17,7,-116,-212,-1,1500.0
18:41:38.741,AUTO,-35.3635085,149.1647639,49943,0.030761346220970154,0.06090385094285011,-2.080939769744873,0.6313173174858093,0.016065116971731186,-0.011503024026751518,-17,22,-1027,635,16,-11,-35,-83,-4,1500.0
18:41:38.943,AUTO,-35.3635099,149.1647607,49943,0.019689321517944336,0.040408290922641754,-2.0832712650299072,-0.07801332324743271,-0.07159429043531418,0.015784963965415955,-10,-29,-999,-82,-70,15,-19,-49,-3,1500.0
18:41:39.145,AUTO,-35.3635099,149.1647607,49943,0.019689321517944336,0.040408290922641754,-2.0832712650299072,-0.07801332324743271,-0.07159429043531418,0.015784963965415955,-10,-29,-999,-82,-70,15,-19,-49,-3,1500.0
18:41:39.347,AUTO,-35.3635099,149.1647607,49943,0.019689321517944336,0.040408290922641754,-2.0832712650299072,-0.07801332324743271,-0.07159429043531418,0.015784963965415955,-10,-29,-999,-82,-70,15,-19,-49,-3,1500.0
18:41:39.548,AUTO,-35.3635099,149.1647607,49943,0.019689321517944336,0.040408290922641754,-2.0832712650299072,-0.07801332324743271,-0.07159429043531418,0.015784963965415955,-10,-29,-999,-82,-70,15,-19,-49,-3,1500.0
18:41:39.751,AUTO,-35.3635099,149.1647607,49943,0.019689321517944336,0.040408290922641754,-2.0832712650299072,-0.07801332324743271,-0.07159429043531418,0.015784963965415955,-10,-29,-999,-82,-70,15,-19,-49,-3,1500.0
18:41:39.952,AUTO,-35.3635099,149.1647607,49943,0.019689321517944336,0.040408290922641754,-2.0832712650299072,-0.07801332324743271,-0.07159429043531418,0.015784963965415955,-10,-29,-999,-82,-70,15,-19,-49,-3,1500.0
18:41:40.156,AUTO,-35.3635099,149.1647607,49943,0.019689321517944336,0.040408290922641754,-2.0832712650299072,-0.07801332324743271,-0.07159429043531418,0.015784963965415955,-10,-29,-999,-82,-70,15,-19,-49,-3,1500.0
18:41:40.358,AUTO,-35.3635099,149.1647607,49943,0.019689321517944336,0.040408290922641754,-2.0832712650299072,-0.07801332324743271,-0.07159429043531418,0.015784963965415955,-10,-29,-999,-82,-70,15,-19,-49,-3,1500.0
18:41:40.561,AUTO,-35.3635121,149.1647577,49948,0.021486200392246246,0.007074653171002865,-2.089217185974121,0.5090413689613342,0.0136786587536335,0.0012384059373289347,-5,18,-986,49,-6,-4,0,-15,-4,1500.0
18:41:40.762,AUTO,-35.3635124,149.1647576,49954,0.02636021561920643,0.00890500470995903,-2.090594530105591,0.530958354473114,0.0036542401649057865,0.003559431992471218,-4,16,-999,530,4,3,1,-11,-4,1500.0
18:41:40.963,AUTO,-35.3635127,149.1647577,49958,0.029556183144450188,0.007691121194511652,-2.092101812362671,-0.005034031346440315,-0.010776120238006115,0.00450943224132061,-3,-18,-987,-8,-9,4,3,-7,-3,1500.0
18:41:41.165,AUTO,-35.3635127,149.1647577,49958,0.029556183144450188,0.007691121194511652,-2.092101812362671,-0.005034031346440315,-0.010776120238006115,0.00450943224132061,-3,-18,-987,-8,-9,4,3,-7,-3,1500.0
18:41:41.369,AUTO,-35.3635127,149.1647577,49958,0.029556183144450188,0.007691121194511652,-2.092101812362671,-0.005034031346440315,-0.010776120238006115,0.00450943224132061,-3,-18,-987,-8,-9,4,3,-7,-3,1500.0
18:41:41.572,AUTO,-35.3635127,149.1647577,49958,0.029556183144450188,0.007691121194511652,-2.092101812362671,-0.005034031346440315,-0.010776120238006115,0.00450943224132061,-3,-18,-987,-8,-9,4,3,-7,-3,1500.0
18:41:41.774,AUTO,-35.3635127,149.1647577,49958,0.029556183144450188,0.007691121194511652,-2.092101812362671,-0.005034031346440315,-0.010776120238006115,0.00450943224132061,-3,-18,-987,-8,-9,4,3,-7,-3,1500.0
18:41:41.975,AUTO,-35.3635127,149.1647577,49958,0.029556183144450188,0.007691121194511652,-2.092101812362671,-0.005034031346440315,-0.010776120238006115,0.00450943224132061,-3,-18,-987,-8,-9,4,3,-7,-3,1500.0
18:41:42.178,AUTO,-35.3635127,149.1647577,49958,0.029556183144450188,0.007691121194511652,-2.092101812362671,-0.005034031346440315,-0.010776120238006115,0.00450943224132061,-3,-18,-987,-8,-9,4,3,-7,-3,1500.0
18:41:42.380,AUTO,-35.3635127,149.1647577,49958,0.029556183144450188,0.007691121194511652,-2.092101812362671,-0.005034031346440315,-0.010776120238006115,0.00450943224132061,-3,-18,-987,-8,-9,4,3,-7,-3,1500.0
18:41:42.581,AUTO,-35.3635137,149.1647586,49976,0.04130455479025841,-0.029186615720391273,-2.098982572555542,0.30950120091438293,-0.04204658046364784,0.014419039711356163,-1,17,-1006,683,-36,6,13,-9,-3,1500.0
18:41:42.783,RTL,-35.363514,149.1647585,49981,0.03037218004465103,-0.034281861037015915,-2.1000540256500244,-0.23088891804218292,-0.001042475108988583,0.003461021464318037,-2,-31,-988,-233,0,4,10,-20,-1,1500.0
18:41:42.985,RTL,-35.3635142,149.1647581,49985,0.02341242879629135,-0.027147792279720306,-2.1005868911743164,-0.6530865430831909,0.09269159287214279,-0.00180671492125839,-4,-34,-1000,-653,93,-1,9,-26,-2,1500.0
18:41:43.187,RTL,-35.3635142,149.1647581,49985,0.02341242879629135,-0.027147792279720306,-2.1005868911743164,-0.6530865430831909,0.09269159287214279,-0.00180671492125839,-4,-34,-1000,-653,93,-1,9,-26,-2,1500.0
18:41:43.392,RTL,-35.3635142,149.1647581,49985,0.02341242879629135,-0.027147792279720306,-2.1005868911743164,-0.6530865430831909,0.09269159287214279,-0.00180671492125839,-4,-34,-1000,-653,93,-1,9,-26,-2,1500.0
18:41:43.594,RTL,-35.3635142,149.1647581,49985,0.02341242879629135,-0.027147792279720306,-2.1005868911743164,-0.6530865430831909,0.09269159287214279,-0.00180671492125839,-4,-34,-1000,-653,93,-1,9,-26,-2,1500.0
18:41:43.798,RTL,-35.3635142,149.1647581,49985,0.02341242879629135,-0.027147792279720306,-2.1005868911743164,-0.6530865430831909,0.09269159287214279,-0.00180671492125839,-4,-34,-1000,-653,93,-1,9,-26,-2,1500.0
18:41:44.000,RTL,-35.3635142,149.1647581,49985,0.02341242879629135,-0.027147792279720306,-2.1005868911743164,-0.6530865430831909,0.09269159287214279,-0.00180671492125839,-4,-34,-1000,-653,93,-1,9,-26,-2,1500.0
18:41:44.202,RTL,-35.3635142,149.1647581,49985,0.02341242879629135,-0.027147792279720306,-2.1005868911743164,-0.6530865430831909,0.09269159287214279,-0.00180671492125839,-4,-34,-1000,-653,93,-1,9,-26,-2,1500.0
18:41:44.403,RTL,-35.3635142,149.1647581,49985,0.02341242879629135,-0.027147792279720306,-2.1005868911743164,-0.6530865430831909,0.09269159287214279,-0.00180671492125839,-4,-34,-1000,-653,93,-1,9,-26,-2,1500.0
18:41:44.604,RTL,-35.3635148,149.1647565,49978,0.026842782273888588,0.008235545828938484,-2.102674722671509,0.548790454864502,0.0034961337223649025,0.009368113242089748,-1,32,-1016,555,4,9,16,-19,1,1500.0
18:41:44.806,RTL,-35.3635148,149.1647558,49971,0.007890560664236546,0.018022792413830757,-2.1034700870513916,-0.5966322422027588,0.033125441521406174,-0.00358535535633564,0,-39,-1001,-598,33,-2,20,-9,0,1500.0
18:41:45.008,RTL,-35.3635146,149.1647557,49973,0.0031593695748597383,0.0262680072337389,-2.1039915084838867,-0.6062952876091003,0.029791805893182755,0.0008440352394245565,0,-21,-1003,-602,30,1,22,-3,0,1500.0
