time_stamp,RTL_ALT,MODE,roll,pitch,yaw,rollspeed,pitchspeed,yawspeed,xacc,yacc,zacc,xgyro,ygyro,zgyro,lat,lon,relative_alt,vx,vy,vz
07:05:23,1500.0,STABILIZE,-0.0003887330094585195,0.0009865367319434881,0.024498622864484787,0.00017065691645257175,0.00028607143030967563,0.0019090018467977643,0.0,1.0,-1000.0,0.0,0.0,0.0,-35.3632621,149.1652375,0.0,-1.0,2.0,1.5
07:05:35,70348.5,AUTO,-0.001270241104066372,0.001004473422653973,0.02115958370268345,0.00023883400717750192,0.00018339086091145873,0.00145175022771582,0.0,1.0,-1000.0,0.0,1.0,0.5,-35.3632622,149.16523755,5.5,-1.0,1.0,3.0
07:05:37,139197.0,AUTO,-0.0009485833288636059,0.0013924323138780892,0.02084297314286232,0.0002891817130148411,0.0003110890102107078,0.0014601587899960577,0.0,1.0,-1000.0,0.0,0.5,0.0,-35.3632621,149.1652374,1.5,0.0,0.0,1.0
07:05:38,218404.0,AUTO,-0.0007961021328810602,0.001616103807464242,0.020695099607110023,0.0002673034759936854,0.0003142581699648872,0.0013862063060514629,0.0,1.5,-1000.0,0.75,0.25,0.25,-35.3632621,149.1652374,4.5,0.0,0.0,0.5
07:05:39,218404.0,AUTO,0.002427640021778643,0.00059556861378951,0.02042694389820099,0.0006207539699971676,0.0034274187637493014,0.0004252806102158502,0.0,0.0,-1120.0,1.5,3.5,0.0,-35.3632621,149.1652375,291.0,0.0,0.0,-82.0
07:05:41,138830.0,AUTO,0.053480397909879684,-0.00038063107058405876,-0.015643680235370994,-0.053574425633996725,0.057110257097519934,-0.06919574551284313,0.5,-9.5,-992.0,-53.0,57.5,-69.0,-35.3632615,149.1652402,3105.5,9.0,45.5,-147.0
07:05:43,59256.0,AUTO,-0.06311598606407642,-0.0069028474390506744,-0.09067939221858978,0.05199645273387432,-0.0006894024554640055,-0.007131227990612388,-2.0,4.0,-1002.0,52.5,0.0,-7.0,-35.363261,149.1652454,6180.0,-2.0,-32.5,-150.0
07:05:44,258326.0,AUTO,-0.017855489975772798,-0.002191745094023645,-0.0942700244486332,0.0638903770595789,0.010580704314634204,-0.00015407497994601727,-6.5,11.25,-1002.25,64.25,11.0,-0.5,-35.36326125,149.165241425,7338.25,-3.75,-55.25,-150.75
07:05:45,258326.0,AUTO,0.060525719076395035,0.008424876257777214,-0.08972440659999847,0.03795389458537102,-0.014742363011464477,0.022567730862647295,-2.0,7.0,-999.0,38.5,-14.5,21.5,-35.36326205,149.1652348,9295.0,-10.5,-19.0,-154.0
07:05:47,177454.5,AUTO,-0.013155938126146793,-9.777568629942834e-05,-0.10795272141695023,0.0073119912995025516,0.008615995291620493,-0.0300546707585454,-0.5,-1.5,-1001.0,8.0,9.0,-30.0,-35.363262250000005,149.1652362,12393.0,6.0,3.0,-152.5
07:05:49,96583.0,AUTO,0.008723216596990824,0.007450188510119915,-0.15152128040790558,0.0014677142607979476,-0.0005797706835437566,-0.011788038071244955,-0.5,0.0,-1000.0,2.0,0.0,-12.0,-35.3632615,149.1652354,15514.0,-1.5,-0.5,-153.0
07:05:50,297652.0,AUTO,0.007394716609269381,0.005677769077010453,-0.1605003923177719,-0.0028233335760887712,-0.0024037635885179043,-0.011333840433508158,0.0,0.0,-999.75,-1.5,-1.25,-11.0,-35.3632615,149.165235375,16682.75,-2.75,3.5,-153.0
07:05:51,297652.0,AUTO,0.0026011454174295068,0.003834762959741056,-0.18050090223550797,-0.003815383417531848,0.00030944342142902315,-0.01924640592187643,0.5,0.0,-999.5,-2.5,0.5,-19.0,-35.3632616,149.16523575000002,18637.5,-3.0,6.0,-153.0
07:05:53,239975.0,AUTO,-0.002173304557800293,0.004532787948846817,0.07855511084198952,0.12606151401996613,-0.15797054022550583,0.1152983894571662,1.5,10.5,-955.5,126.0,-156.5,114.5,-35.36326325,149.1652335,21599.5,-33.0,-34.0,-120.5
07:05:55,182298.0,AUTO,0.01877066260203719,-0.003649162143119611,0.05724112316966057,-0.0391318928450346,0.032339075580239296,0.0022760169813409448,0.0,-9.5,-976.5,-37.5,32.5,1.5,-35.3632639,149.16523404999998,23301.5,18.5,37.5,-55.0
07:05:56,236296.0,AUTO,-0.0031844079203438014,0.011587012326344848,0.05510413460433483,-0.01873725320911035,0.01173044671304524,-0.0002767098103504395,0.0,-8.25,-976.5,-17.5,12.0,-0.25,-35.36326255,149.165236875,23640.25,15.75,32.25,-38.0
07:05:57,236296.0,AUTO,-0.019643429201096296,0.01759303780272603,0.05040992423892021,-0.002521175891160965,0.035877189598977566,-0.004998989636078477,1.0,0.0,-945.0,-1.5,36.5,-4.5,-35.363261249999994,149.16523975,23912.5,2.5,9.5,-3.0
07:05:59,203148.5,AUTO,-0.035021623596549034,-0.04859224893152714,0.03792431764304638,0.3888910636305809,-0.03421973343938589,-0.08529084315523505,-12.5,32.5,-1016.0,390.0,-33.0,-85.0,-35.36326035,149.16523469999998,23666.5,25.0,-50.0,-1.0
07:06:01,170001.0,AUTO,0.02365106251090765,-0.1321173682808876,-0.8923504054546356,-0.13815893977880478,-0.01000552554614842,-0.025194117799401283,-41.0,-28.0,-1007.0,-137.0,-8.5,-25.5,-35.363247799999996,149.16521369999998,23758.0,124.0,-154.0,-9.5
07:06:02,269627.0,AUTO,0.038046155124902725,-0.11097061820328236,-0.8581336140632629,0.06247049570083618,0.03915833728387952,0.04085828142706305,-51.25,-30.0,-1007.5,63.5,39.5,40.5,-35.363238224999996,149.165198875,23836.5,160.0,-196.25,-14.25
07:06:03,269627.0,AUTO,0.044812267646193504,-0.08440493792295456,-0.850892961025238,0.264396995306015,0.009573209099471569,-0.009667377104051411,-62.5,-26.0,-996.5,265.5,10.0,-9.0,-35.36321845,149.16516915,24027.0,193.0,-229.0,-17.0
07:06:05,253707.5,AUTO,0.05160205066204071,-0.0629038792103529,-0.8555268943309784,0.2344997674226761,0.013358517782762647,-0.009835758246481419,-62.5,-34.0,-994.5,235.0,14.5,-9.5,-35.36318305,149.1651164,24338.0,203.5,-238.5,-15.0
07:06:07,237788.0,AUTO,0.03698163479566574,0.03259992878884077,-0.8577569425106049,0.24209930002689362,0.039075398817658424,-0.004629428964108229,-45.5,-29.5,-996.5,242.5,39.5,-5.0,-35.3631498,149.16506885,24620.5,149.0,-177.0,-11.0
07:06:08,111868.0,AUTO,0.032084932550787926,0.06406111922115088,-0.8570421636104584,0.0970770288258791,0.03281705058179796,-0.007809244096279144,-32.0,-9.75,-1000.0,98.5,32.75,-7.5,-35.36314155,149.16505640000003,24680.5,107.25,-125.0,-6.25
07:06:09,111868.0,AUTO,0.02501267660409212,0.04448999650776386,-0.8575744330883026,0.28626101883128285,-0.052981914952397346,-0.016552658285945654,-11.5,14.0,-1005.5,288.5,-52.0,-16.0,-35.36313415,149.1650449,24711.0,42.5,-37.0,0.0
07:06:11,125823.0,AUTO,0.00993989808648621,0.007212766873029371,-0.8627082705497742,0.10338979959487915,-0.01909603054324786,-0.004778360792746146,-1.3333333333333333,10.333333333333334,-1004.3333333333334,105.0,-18.0,-4.666666666666667,-35.363132,149.16504146666668,24703.0,15.0,-1.0,0.0
07:06:13,139778.0,RTL,0.021429582498967648,0.0021219941991148517,-0.8705841898918152,-0.4275915026664734,0.021864977898076177,0.008516067638993263,-3.5,-18.5,-1013.5,-425.0,22.0,8.0,-35.3631322,149.16503895,24707.5,23.5,-1.5,-2.0
07:06:14,273578.0,RTL,0.02040038676932454,0.005897328723222017,-0.8704667091369629,-0.01306181401014328,0.0005291339912218973,0.010411957744508982,-0.5,-0.25,-1035.0,-11.0,0.75,10.25,-35.3631319,149.165038225,24797.75,22.75,6.0,-21.5
07:06:15,273578.0,RTL,0.001979270949959755,0.005093256710097194,-0.8695991039276123,-0.06043630465865135,-0.006393205374479294,0.003381454385817051,2.0,-5.5,-1028.5,-58.0,-5.5,3.0,-35.363131100000004,149.16503840000001,25426.0,16.0,11.0,-83.5
07:06:17,262452.0,RTL,-0.007113784551620483,0.014431935346995791,-0.8704590201377869,-0.01764173557360967,0.03944028254287938,-0.0006384384469129145,0.6666666666666666,-3.6666666666666665,-983.6666666666666,-15.666666666666666,40.0,0.0,-35.3631301,149.16503973333332,26978.333333333332,1.6666666666666667,4.666666666666667,-83.0
07:06:19,251326.0,RTL,-0.02620697859674692,0.09305311739444733,-0.8744491636753082,-0.2241242751479149,-0.03825944568961859,0.0035308609949424863,21.5,21.0,-969.0,-221.0,-37.5,3.0,-35.36313475,149.16504859999998,28073.5,-74.0,83.5,7.5
07:06:20,78276.0,RTL,-0.02378527633845806,0.047978716902434826,-0.8729461431503296,0.08727872371673584,-0.053706265054643154,-0.0006449655629694462,26.75,12.75,-1002.25,89.0,-52.5,0.0,-35.363139974999996,149.165057,27975.5,-93.5,104.0,14.0
07:06:21,78276.0,RTL,-0.012519801501184702,0.007000334793701768,-0.8717302680015564,0.5279623866081238,0.01200181245803833,-0.003217642195522785,25.0,32.0,-1011.0,529.0,12.5,-2.5,-35.3631501,149.16507165000002,27851.5,-92.0,97.0,5.0
07:06:23,71890.0,RTL,-0.025204398669302464,0.031908538192510605,-0.8745522499084473,-0.5707847326993942,0.00022345921024680138,-0.0023199801798909903,25.5,2.0,-993.5,-568.0,0.5,-1.5,-35.36316575,149.16509305,27812.0,-87.0,103.0,-0.5
07:06:25,65504.0,RTL,-0.012395943515002728,0.025862091220915318,-0.8752821087837219,0.11771361529827118,0.00215086925891228,0.0010997047647833824,26.5,21.0,-1002.0,119.5,2.5,1.5,-35.3631777,149.16511055,27816.0,-86.5,105.5,-1.5
07:06:26,274267.0,RTL,-0.02042764164507389,0.025480417907238005,-0.8753575205802917,-0.01108146198093891,-0.0016067796619608997,-0.0007852266542613506,28.2,18.0,-995.8,-9.2,-0.8,-0.4,-35.363186459999994,149.165124,27822.2,-84.2,104.6,-0.2
07:06:27,274267.0,RTL,-0.032652135007083416,0.02517569437623024,-0.8764369189739227,-0.48882266879081726,-0.0019674430368468165,-0.003224531188607216,29.0,3.0,-1002.5,-486.5,-1.5,-2.5,-35.36319675,149.1651405,27826.0,-86.5,100.0,-0.5
07:06:29,157677.5,RTL,-0.03437969647347927,0.02681314665824175,-0.8773898780345917,-0.026148319244384766,0.0018432073993608356,-0.005219687940552831,27.5,13.0,-1009.0,-24.5,1.5,-4.5,-35.36320775,149.1651587,27831.0,-91.0,94.0,0.0
07:06:31,41088.0,RTL,-0.0420868806540966,0.028078717179596424,-0.8786178529262543,-0.01133987307548523,-0.0026787661481648684,-0.0018729600124061108,27.0,10.0,-1008.0,-10.5,-2.0,-1.5,-35.36322205,149.1651829,27833.0,-103.5,85.0,0.0
07:06:32,174879.0,RTL,-0.03732020268216729,0.026734449435025454,-0.8789107799530029,0.2595851495862007,-0.002719036245252937,0.006937864935025573,26.5,30.25,-999.5,260.75,-2.5,7.5,-35.363229625,149.165194525,27835.75,-107.5,83.25,0.25
07:06:33,174879.0,RTL,-0.028639329597353935,0.026738762234648068,-0.8797421256701151,0.06600221494833629,-0.0013416189855585496,-0.0026137998017172017,25.666666666666668,17.333333333333332,-1006.0,66.0,-0.6666666666666666,-2.0,-35.3632393,149.16520813333332,27836.333333333332,-107.0,84.0,0.0
07:06:35,89785.0,RTL,-0.02197349350899458,-0.007245045155286789,-0.878732293844223,0.15032576024532318,-0.05277261883020401,0.005253547802567482,19.0,27.0,-1006.0,151.5,-51.5,5.5,-35.363253650000004,149.1652277,27834.0,-92.0,79.0,0.0
07:06:37,4691.0,RTL,-0.003956610802561045,-0.04036876745522022,-0.8783730268478394,0.02513664960861206,0.0403439924120903,0.0007928757113404572,-1.0,7.0,-1011.5,25.5,40.0,1.0,-35.36326255,149.1652384,27823.0,-16.0,-1.0,0.5
07:06:38,224526.0,RTL,0.009202514629578218,0.005672403145581484,-0.8793921768665314,-0.13001707568764687,0.026784632122144103,-7.816540892235935e-05,-1.75,-7.0,-996.5,-129.75,26.75,0.75,-35.363263175,149.165237825,27819.25,-0.5,-8.5,-0.25
07:06:39,224526.0,RTL,0.00034595979377627373,0.010970164788886905,-0.8793431520462036,-0.025338441133499146,-0.0076608676463365555,0.0020946526201441884,1.0,3.0,-992.0,-25.0,-7.0,2.5,-35.363263149999995,149.16523775,27823.0,-1.5,4.0,-0.5
07:06:41,130421.5,RTL,0.010027167401858605,-0.006313977064564824,-0.8792304694652557,0.05325081944465637,0.0033170841925311834,0.0018547384242992848,-1.0,3.0,-1003.5,53.5,3.5,2.0,-35.36326355,149.16523845,27822.0,2.0,0.0,0.0
07:06:43,36317.0,RTL,0.011392052052542567,0.0013324576284503564,-0.8792987167835236,0.013691216707229614,0.0024987600336316973,-0.0005188846262171865,0.0,6.0,-1007.5,14.5,2.5,0.5,-35.3632639,149.16523734999998,27828.0,11.5,2.5,0.0
07:06:44,9513.0,RTL,0.009856863820459694,0.003982458962127566,-0.8797556310892105,0.001621072762645781,0.0012350180149951484,-0.0004442079516593367,0.0,-6.0,-985.25,1.75,1.5,0.5,-35.363263425,149.1652371,27824.75,11.5,4.5,2.75
07:06:45,9513.0,RTL,-0.008131617913022637,0.005479281768202782,-0.8801332116127014,-0.12026262283325195,-0.002632596646435559,0.0011651104141492397,0.5,17.0,-946.5,-118.5,-2.0,1.5,-35.3632628,149.16523725000002,27562.5,8.5,4.5,51.0
07:06:47,38521.0,RTL,-0.021844484843313694,-0.0005676793516613543,-0.8804739713668823,-0.7744629979133606,-0.006567903095856309,0.006616696715354919,-1.5,7.0,-984.5,-771.5,-5.5,7.0,-35.363262250000005,149.1652378,25591.0,0.0,1.0,108.5
07:06:49,67529.0,RTL,0.025213084649294615,-0.007649653358384967,-0.8808275759220123,-0.5492381080985069,0.002240748261101544,0.007359630893915892,-6.0,12.5,-1001.0,-546.0,2.0,8.0,-35.36326485,149.16523575,23496.0,15.0,10.5,96.0
07:06:50,207083.0,RTL,0.04198383819311857,-0.004961423168424517,-0.8804766535758972,0.33786836080253124,0.0052321869297884405,0.004143336758716032,-3.0,60.0,-986.0,341.75,5.0,4.75,-35.36326625,149.165234275,22483.25,32.75,21.5,97.5
07:06:51,207083.0,RTL,0.06205279380083084,-0.00017596135148778558,-0.8803598880767822,1.4225473999977112,0.0014177311677485704,0.0007873153663240373,0.0,50.0,-984.0,1424.5,2.0,2.0,-35.36326665,149.16523354999998,21478.0,43.0,29.0,96.0
07:06:53,191694.5,RTL,0.029863368719816208,0.005050687585026026,-0.8799497783184052,-0.009698480367660522,-8.05326271802187e-05,0.005662084324285388,4.0,-37.5,-977.0,-9.5,0.0,7.0,-35.3632651,149.16523465,19427.0,36.5,26.5,101.5
07:06:55,176306.0,RTL,-0.010854794178158045,0.003676295862533152,-0.8802637159824371,-1.023704171180725,-0.003145928028970957,-0.003712878387887031,4.5,-79.5,-1024.5,-1022.0,-3.0,-2.0,-35.3632628,149.16523705,17375.0,14.5,10.5,98.0
07:06:56,198790.0,RTL,-0.010867450866498984,0.003179493942297995,-0.8801465034484863,-0.876877523958683,0.003151364828227088,-0.009973406617064029,4.0,-71.75,-1017.25,-875.5,3.0,-8.25,-35.363261949999995,149.1652381,16347.75,4.25,1.25,98.25
07:06:57,198790.0,RTL,-0.028608242515474558,0.005506250774487853,-0.8802679181098938,-1.113550841808319,0.00195318266924005,-0.011905452702194452,3.5,-84.0,-938.5,-1112.5,1.5,-10.0,-35.3632607,149.1652393,15334.5,-4.5,-7.0,98.5
07:06:59,182429.5,RTL,-0.04942205920815468,-0.0004125695559196174,-0.88004070520401,-1.2736117243766785,-0.003191454568877816,0.00914038484916091,0.0,-40.0,-1007.0,-1271.0,-2.5,10.0,-35.363258849999994,149.16524135,13303.0,-30.0,-25.5,96.5
07:07:01,166069.0,RTL,-0.014573442284017801,-0.002429436193779111,-0.8806637525558472,0.046943724155426025,0.0018595510628074408,0.0018888441263698041,-2.5,21.0,-1072.0,49.5,2.0,3.5,-35.36326005,149.16524035,11513.0,-27.0,-25.0,50.5
07:07:02,217547.0,RTL,-0.009515795798506588,0.0007847292540645867,-0.8804989904165268,-0.13311662338674068,0.0026510048137424747,0.0025792738306336105,-2.0,-10.5,-997.75,-132.0,2.0,3.5,-35.363260600000004,149.16523945,11175.25,-20.0,-19.0,21.5
07:07:03,217547.0,RTL,5.284184589982033e-05,0.0010119472863152623,-0.8805387318134308,0.38065205514431,-0.0010464866645634174,0.0033088563941419125,-1.0,23.0,-987.5,381.0,-1.0,4.0,-35.363260999999994,149.16523875000001,10917.0,-15.0,-13.5,28.5
07:07:05,142949.5,RTL,0.011622980237007141,0.00021906277470407076,-0.8805738985538483,0.028280287981033325,0.004713108297437429,0.0010816105059348047,-3.5,8.0,-1000.5,29.5,4.5,2.5,-35.363262399999996,149.16523719999998,10257.0,-3.5,-1.5,33.0
07:07:07,68352.0,RTL,0.014039832749404013,0.003558692173101008,-0.880548894405365,-0.03557741641998291,0.0024128780933097005,-0.0024171516415663064,1.0,-19.5,-983.0,-35.0,2.0,-1.0,-35.36326325,149.1652362,9577.0,7.0,7.0,33.5
07:07:08,176211.0,RTL,-0.00016664504073560238,0.005489595700055361,-0.8802850544452667,0.1536833420395851,0.0033090621000155807,0.0015997760347090662,0.75,16.5,-1004.5,156.0,3.25,2.75,-35.3632628,149.165236475,9234.75,8.5,8.75,32.75
07:07:09,176211.0,RTL,0.0019405209459364414,0.004506352823227644,-0.8807733058929443,0.0735866129398346,-0.006089023780077696,0.0005582750309258699,0.5,-8.0,-1039.5,74.5,-5.5,1.5,-35.363262250000005,149.165237,8918.0,3.0,5.5,20.0
07:07:11,92579.5,RTL,0.008664082793984562,0.00017042057879734784,-0.880998820066452,-0.240936366841197,0.0003601672942750156,-0.0011326041421853006,-1.5,-10.0,-997.5,-239.5,0.5,0.5,-35.363262649999996,149.165237,8904.5,1.5,3.5,-5.0
07:07:13,8948.0,RTL,0.014702349435538054,0.001609307189937681,-0.8809858858585358,-0.06187969446182251,0.0003165022499160841,0.0025056242593564093,-2.0,3.0,-1035.5,-60.0,0.5,4.0,-35.3632633,149.16523635,8698.5,9.0,9.0,6.5
07:07:14,243505.0,RTL,0.01810596603900194,0.0024892009678296745,-0.8810840547084808,-0.006212797132320702,0.0006549532772623934,0.001389875600580126,-0.5,-0.75,-998.25,-4.0,0.5,2.5,-35.3632635,149.165235975,8707.25,11.75,11.75,-1.75
07:07:15,243505.0,RTL,0.016814221162348986,0.003307941253297031,-0.8808430731296539,-0.16435479745268822,0.0031348633929155767,-0.001833661226555705,-1.0,-5.0,-1007.0,-162.5,2.5,0.0,-35.36326375,149.16523569999998,8732.0,13.5,14.0,-0.5
07:07:17,138715.0,RTL,0.014064713846892118,0.005324632627889514,-0.8805810511112213,0.190074160695076,0.001884856348624453,-0.0004298221319913864,1.0,1.0,-1002.0,192.5,1.5,1.5,-35.3632635,149.16523569999998,8736.5,15.5,16.0,0.0
07:07:19,33925.0,RTL,-0.002601593383587897,0.005270645022392273,-0.8801294267177582,-0.11588260903954506,0.0028045428916811943,0.0025213976623490453,1.0,-10.0,-954.5,-113.0,3.0,4.0,-35.36326235,149.16523690000002,8717.5,5.5,9.0,10.0
07:07:20,14619.0,RTL,-0.010546592413447797,0.0041205076850019395,-0.8805164843797684,-0.5966709088534117,-0.001965192030183971,0.0001819878234528005,0.25,-19.5,-986.0,-593.0,-1.0,1.5,-35.363262049999996,149.165237225,8479.25,0.25,5.0,40.75
07:07:21,14619.0,RTL,0.006632151082158089,0.0026248875074088573,-0.8807063400745392,0.2995751425623894,-0.004405946237966418,0.0007644644938409328,0.0,4.5,-995.0,302.0,-3.0,2.5,-35.36326205,149.16523734999998,8071.5,-0.5,3.5,37.5
07:07:23,109283.5,RTL,0.003325584315462038,0.0021655064774677157,-0.8802358508110046,0.16883260011672974,-0.002139780583092943,-0.0005496223457157612,0.0,3.0,-999.5,171.5,-1.5,1.0,-35.3632621,149.1652374,7359.0,0.0,2.0,34.0
07:07:25,203948.0,RTL,0.008161320118233562,0.0015961973986122757,-0.8808870315551758,0.17655600607395172,-0.0016150932642631233,-0.001229420944582671,-1.0,2.0,-999.5,179.0,-1.0,1.0,-35.36326215,149.16523755,6679.0,-0.5,0.5,34.0
07:07:26,269073.0,RTL,0.006597999352379702,-0.0005788362814200809,-0.8807807117700577,0.002595454454421997,-0.0020395595638547093,0.0009848552581388503,-1.5,14.75,-996.75,6.0,-1.25,2.5,-35.36326255,149.165237225,6343.5,1.25,2.5,33.75
07:07:27,269073.0,RTL,0.02220126148313284,-0.001731057302094996,-0.8812522292137146,0.05118778347969055,-0.002873234887374565,-0.001430395757779479,-1.5,-7.0,-991.0,54.0,-2.0,1.0,-35.36326335,149.16523655,6004.0,5.0,5.0,33.5
07:07:29,252410.5,RTL,0.018363489070907235,0.004275038023479283,-0.8805263340473175,-0.0186481773853302,0.004036490805447102,0.001008104532957077,1.0,-8.5,-1020.0,-15.5,4.0,2.5,-35.36326385,149.1652358,5317.5,17.5,13.5,33.0
07:07:31,235748.0,RTL,-0.013942617049906403,0.008103806525468826,-0.8804669678211212,-0.02964848279953003,-0.004071316565386951,-0.0006909995572641492,3.5,-5.0,-1007.0,-26.5,-3.0,1.0,-35.3632616,149.16523755,4640.5,3.5,5.5,34.5
07:07:32,212822.0,RTL,-0.02580663887783885,0.005928873084485531,-0.8802113682031631,0.12229971960186958,-0.001406692375894636,0.0052273022884037346,2.25,14.5,-1010.25,126.75,-0.5,6.75,-35.363260675,149.165238675,4299.25,-7.0,-2.25,33.5
07:07:33,212822.0,RTL,-0.025260434485971928,0.0028955182642675936,-0.8801546096801758,-0.024912983179092407,-0.0022432301775552332,0.0005266666412353516,1.0,-2.5,-999.5,-22.0,-1.5,2.5,-35.3632601,149.16523949999998,3960.0,-16.0,-10.0,34.5
07:07:35,187306.0,RTL,-0.024135520681738853,0.0011336522875353694,-0.880141019821167,-0.5106428861618042,0.0009098734299186617,-7.541861850768328e-05,0.0,-12.5,-975.0,-507.5,1.0,2.0,-35.36326015,149.16523975,3269.5,-21.5,-16.5,35.5
07:07:37,161790.0,RTL,-0.009951332118362188,0.0008711646078154445,-0.8803820312023163,-0.06164655089378357,0.00281257345341146,-0.0031014984706416726,-1.5,1.5,-1003.0,-59.0,3.5,-1.0,-35.36326055,149.1652393,2585.5,-19.0,-15.0,31.5
07:07:38,184215.0,RTL,-0.0003423758171265945,-0.0005501331688719802,-0.8806609064340591,0.17882221937179565,-0.004533965140581131,0.0010209031752310693,-1.75,-0.75,-1007.25,180.5,-3.25,2.75,-35.36326095,149.165238925,2241.5,-16.5,-12.75,32.25
07:07:39,184215.0,RTL,-0.0008177186828106642,-0.001750725379679352,-0.880563497543335,-0.12989559769630432,0.002051829156698659,8.779345080256462e-05,-3.0,9.5,-1008.0,-127.0,2.5,1.5,-35.36326165,149.16523825,1892.0,-10.5,-8.5,32.0
07:07:41,216057.0,RTL,0.021216232795268297,0.0005256990843918175,-0.8805482387542725,0.08486872911453247,0.0013112082378938794,0.0011271603871136904,-2.0,4.5,-1011.0,87.5,1.5,3.0,-35.36326325,149.16523645,1205.0,3.5,3.0,30.0
07:07:43,247899.0,RTL,0.02030712040141225,0.0032307510264217854,-0.8804510533809662,0.39970771968364716,-0.0007635936490260065,0.0034803174203261733,0.0,14.5,-1015.5,402.0,0.5,5.0,-35.36326365,149.16523575000002,528.0,13.0,12.5,31.0
07:07:44,28235.0,RTL,0.015229881275445223,0.0025869004311971366,-0.8835962265729904,-0.21325080859242007,0.0007178349478635937,-0.0014094069483689964,-1.0,-19.25,-997.75,-211.5,1.25,0.5,-35.36326365,149.1652357,222.0,15.0,14.75,16.75
07:07:45,28235.0,RTL,0.010364255402237177,0.0039020819822326303,-0.8868584334850311,-3.479223232716322e-05,0.0020087118027731776,0.0005842943210154772,0.0,0.0,-1000.0,2.0,2.0,2.0,-35.36326365,149.1652357,138.0,14.0,14.0,3.0
07:07:47,40455.5,RTL,0.004201765870675445,0.006591912126168609,-0.8864836692810059,-0.00024494738318026066,0.001841568446252495,0.0006770370528101921,0.0,0.0,-1000.0,2.5,2.0,2.0,-35.363264,149.16523545,103.0,3.0,9.5,2.0
07:07:49,52676.0,RTL,0.0006656263067270629,0.007819353369995952,-0.8855260908603668,-0.00038173235952854156,0.0018468528287485242,0.0005395181942731142,0.0,0.0,-1000.0,3.0,3.0,2.0,-35.3632646,149.1652353,72.0,-4.5,6.5,1.5
07:07:51,52676.0,RTL,-0.0005502075655385852,0.007682636380195618,-0.8846763670444489,-0.0002563078887760639,0.001706138951703906,0.000707445084117353,0.0,0.0,-1000.0,2.5,2.0,2.5,-35.36326495,149.16523504999998,55.0,-7.5,4.0,1.0
07:07:53,52676.0,RTL,-0.0005614071269519627,0.007782697677612305,-0.8845661878585815,-0.00028338958509266376,0.0017825382528826594,0.0005508423782885075,0.0,0.0,-1000.0,3.0,2.0,2.0,-35.363265,149.1652349,50.0,-8.0,4.0,1.0
