time_stamp,MODE,lat,lon,relative_alt,roll,pitch,yaw,rollspeed,pitchspeed,yawspeed,xacc,yacc,zacc,xgyro,ygyro,zgyro,vx,vy,vz,alt,VFR_HUD_alt,EK2_ALT_SOURCE,RTL_ALT
07:54:23.153,AUTO,-35.3632622,149.1652375,0,-0.0004981730598956347,0.00099375715944916,0.020893992856144905,0.0003875910770148039,0.00025354139506816864,0.0013746382901445031,0,1,-1000,1,1,0,-1,2,2,583930,583.9299926757812,0.0,1500.0
07:54:23.354,AUTO,-35.3632622,149.1652375,0,-0.0004981730598956347,0.00099375715944916,0.020893992856144905,0.0003875910770148039,0.00025354139506816864,0.0013746382901445031,0,1,-1000,1,1,0,-1,2,2,583930,583.9299926757812,0.0,1500.0
07:54:23.555,AUTO,-35.3632622,149.1652375,0,-0.0004981730598956347,0.00099375715944916,0.020893992856144905,0.0003875910770148039,0.00025354139506816864,0.0013746382901445031,0,1,-1000,1,1,0,-1,2,2,583930,583.9199829101562,0.0,1500.0
07:54:23.756,AUTO,-35.3632622,149.1652375,0,-0.0004981730598956347,0.00099375715944916,0.020893992856144905,0.0003875910770148039,0.00025354139506816864,0.0013746382901445031,0,1,-1000,1,1,0,-1,2,2,583930,583.9199829101562,0.0,1500.0
07:54:23.956,AUTO,-35.3632622,149.1652375,0,-0.0004981730598956347,0.00099375715944916,0.020893992856144905,0.0003875910770148039,0.00025354139506816864,0.0013746382901445031,0,1,-1000,1,1,0,-1,2,2,583930,583.9199829101562,0.0,1500.0
07:54:24.157,AUTO,-35.3632622,149.1652375,0,-0.0004981730598956347,0.00099375715944916,0.020893992856144905,0.0003875910770148039,0.00025354139506816864,0.0013746382901445031,0,1,-1000,1,1,0,-1,2,2,583930,583.9199829101562,0.0,1500.0
07:54:24.358,AUTO,-35.3632622,149.1652375,0,-0.0006439065327867866,0.0011149048805236816,0.020555824041366577,0.0002491888590157032,0.0002939880941994488,0.001354366191662848,0,1,-1000,1,1,0,-1,2,2,583930,583.9199829101562,0.0,1500.0
07:54:24.559,AUTO,-35.3632621,149.1652375,0,-0.0006439065327867866,0.0011149048805236816,0.020555824041366577,0.0002491888590157032,0.0002939880941994488,0.001354366191662848,0,1,-1000,0,1,0,0,0,1,583910,583.9099731445312,0.0,1500.0
07:54:24.759,AUTO,-35.3632621,149.1652375,0,-0.0006439065327867866,0.0011149048805236816,0.020555824041366577,0.0002491888590157032,0.0002939880941994488,0.001354366191662848,0,1,-1000,0,1,0,0,0,1,583910,583.9099731445312,0.0,1500.0
07:54:24.960,AUTO,-35.3632621,149.1652375,0,-0.0005490073817782104,0.0012491600355133414,0.020452551543712616,0.00024015182862058282,0.00019329460337758064,0.0012810435146093369,0,1,-1000,0,0,1,0,0,1,583910,583.9099731445312,0.0,1500.0
07:54:25.161,AUTO,-35.3632621,149.1652375,0,-0.000491604907438159,0.0013154939515516162,0.020409272983670235,0.00043745164293795824,0.00030054402304813266,0.001397751155309379,0,1,-1000,0,1,1,0,0,1,583910,583.9099731445312,0.0,1500.0
07:54:25.362,AUTO,-35.3632621,149.1652375,0,-0.00043892126996070147,0.00138261413667351,0.020357253029942513,0.00037009897641837597,0.0002832561731338501,0.0012771429028362036,0,2,-1000,0,1,1,0,0,1,583910,583.9099731445312,0.0,1500.0
07:54:25.562,AUTO,-35.3632621,149.1652374,0,-0.0003839102282654494,0.0014488897286355495,0.020306026563048363,0.0002558245905674994,0.00023261475143954158,0.0014397352933883667,0,2,-1000,1,1,1,0,0,1,583910,583.9099731445312,0.0,1500.0
07:54:25.763,AUTO,-35.3632621,149.1652374,0,-0.0003839102282654494,0.0014488897286355495,0.020306026563048363,0.0002558245905674994,0.00023261475143954158,0.0014397352933883667,0,2,-1000,1,1,1,0,0,1,583910,583.9099731445312,0.0,1500.0
07:54:25.964,AUTO,-35.3632621,149.1652374,0,-0.0003839102282654494,0.0014488897286355495,0.020306026563048363,0.0002558245905674994,0.00023261475143954158,0.0014397352933883667,0,2,-1000,1,1,1,0,0,1,583910,583.9099731445312,0.0,1500.0
07:54:26.164,AUTO,-35.3632621,149.1652374,0,-0.0003839102282654494,0.0014488897286355495,0.020306026563048363,0.0002558245905674994,0.00023261475143954158,0.0014397352933883667,0,2,-1000,1,1,1,0,0,1,583910,583.9099731445312,0.0,1500.0
07:54:26.365,AUTO,-35.3632621,149.1652374,0,-0.00018891166837420315,0.001673384103924036,0.020128386095166206,0.0002926875022239983,0.0002572972443886101,0.0013778104912489653,0,2,-1000,0,1,0,0,0,0,583910,583.9099731445312,0.0,1500.0
07:54:26.566,AUTO,-35.3632621,149.1652374,0,-0.00011743694631149992,0.0017436235211789608,0.020074421539902687,0.00038247613701969385,0.00019124039681628346,0.001347126322798431,0,1,-1000,1,1,1,0,0,0,583910,583.9099731445312,0.0,1500.0
07:54:26.766,AUTO,-35.3632621,149.1652374,0,-0.00011743694631149992,0.0017436235211789608,0.020074421539902687,0.00038247613701969385,0.00019124039681628346,0.001347126322798431,0,1,-1000,1,1,1,0,0,0,583910,583.9099731445312,0.0,1500.0
07:54:26.967,AUTO,-35.3632621,149.1652374,4,0.0022220395039767027,0.000762800918892026,0.020139873027801514,0.029362987726926804,-0.00992917362600565,0.0022865762002766132,0,0,-1123,30,-9,1,0,0,-9,583920,583.9199829101562,0.0,1500.0
07:54:27.170,AUTO,-35.3632621,149.1652374,75,0.0041808788664639,-0.0004952286253683269,0.020105969160795212,-0.010649116709828377,0.0009587882086634636,0.00269155390560627,0,0,-1141,-9,1,2,0,0,-43,583990,583.989990234375,0.0,1500.0
07:54:27.371,AUTO,-35.3632621,149.1652375,234,0.002913197036832571,0.0004389450768940151,0.020036546513438225,-0.00375150959007442,0.004539202898740768,0.0018861290300264955,0,0,-1125,-3,5,1,0,0,-77,584150,584.1499633789062,0.0,1500.0
07:54:27.571,AUTO,-35.3632621,149.1652375,463,0.001970840385183692,0.0012858794070780277,0.01992817036807537,0.00268257362768054,0.0019014201825484633,0.0026119621470570564,0,0,-1104,3,2,2,0,0,-104,584380,584.3800048828125,0.0,1500.0
07:54:27.772,AUTO,-35.3632621,149.1652375,463,0.001970840385183692,0.0012858794070780277,0.01992817036807537,0.00268257362768054,0.0019014201825484633,0.0026119621470570564,0,0,-1104,3,2,2,0,0,-104,584380,584.3800048828125,0.0,1500.0
07:54:27.973,AUTO,-35.3632621,149.1652375,463,0.001970840385183692,0.0012858794070780277,0.01992817036807537,0.00268257362768054,0.0019014201825484633,0.0026119621470570564,0,0,-1104,3,2,2,0,0,-104,584380,584.3800048828125,0.0,1500.0
07:54:28.174,AUTO,-35.3632621,149.1652375,463,0.001970840385183692,0.0012858794070780277,0.01992817036807537,0.00268257362768054,0.0019014201825484633,0.0026119621470570564,0,0,-1104,3,2,2,0,0,-104,584380,584.3800048828125,0.0,1500.0
07:54:28.374,AUTO,-35.363262,149.1652375,1461,0.02370770275592804,-0.0009645223617553711,0.019444523379206657,0.04638794809579849,-0.007410399615764618,0.001981070265173912,0,0,-1015,47,-6,1,1,5,-145,585380,585.3800048828125,0.0,1500.0
07:54:28.575,AUTO,-35.363262,149.1652377,1841,0.03509168699383736,-0.0029474524781107903,0.01957678608596325,0.04506390914320946,-0.00823931023478508,0.002759455470368266,0,-1,-1006,45,-7,2,1,12,-147,585760,585.760009765625,0.0,1500.0
07:54:28.775,AUTO,-35.363262,149.1652377,1841,0.03509168699383736,-0.0029474524781107903,0.01957678608596325,0.04506390914320946,-0.00823931023478508,0.002759455470368266,0,-1,-1006,45,-7,2,1,12,-147,585760,585.760009765625,0.0,1500.0
07:54:28.976,AUTO,-35.3632619,149.1652382,2226,0.0458553172647953,-0.0052281636744737625,0.019795339554548264,0.042195793241262436,-0.009658990427851677,0.0032223514281213284,0,-3,-1002,42,-8,3,3,21,-148,586140,586.1400146484375,0.0,1500.0
07:54:29.177,AUTO,-35.3632618,149.1652389,2613,0.05586743727326393,-0.007932517677545547,0.020072590559720993,0.03830834478139877,-0.011410912498831749,0.0036262855865061283,1,-4,-1000,39,-10,3,5,31,-148,586530,586.5299682617188,0.0,1500.0
07:54:29.378,AUTO,-35.3632616,149.1652399,2998,0.06140097230672836,-0.008172014728188515,-0.009172054938971996,-0.025225140154361725,0.03458356112241745,-0.05571528896689415,1,-7,-991,-24,35,-56,8,44,-147,586910,586.9099731445312,0.0,1500.0
07:54:29.578,AUTO,-35.3632613,149.1652412,3378,0.03728681057691574,0.015097047202289104,-0.032848525792360306,-0.1523035764694214,0.0877385139465332,-0.0990578681230545,3,-12,-991,-151,88,-99,9,53,-145,587290,587.2899780273438,0.0,1500.0
07:54:29.779,AUTO,-35.3632613,149.1652412,3378,0.03728681057691574,0.015097047202289104,-0.032848525792360306,-0.1523035764694214,0.0877385139465332,-0.0990578681230545,3,-12,-991,-151,88,-99,9,53,-145,587290,587.2899780273438,0.0,1500.0
07:54:29.979,AUTO,-35.3632613,149.1652412,3378,0.03728681057691574,0.015097047202289104,-0.032848525792360306,-0.1523035764694214,0.0877385139465332,-0.0990578681230545,3,-12,-991,-151,88,-99,9,53,-145,587290,587.2899780273438,0.0,1500.0
07:54:30.180,AUTO,-35.3632613,149.1652412,3378,0.03728681057691574,0.015097047202289104,-0.032848525792360306,-0.1523035764694214,0.0877385139465332,-0.0990578681230545,3,-12,-991,-151,88,-99,9,53,-145,587290,587.2899780273438,0.0,1500.0
07:54:30.381,AUTO,-35.3632609,149.1652451,4517,-0.03501928970217705,0.016912946477532387,-0.07955164462327957,-0.015538268722593784,-0.012561185285449028,-0.048976119607686996,5,-8,-1006,-14,-11,-49,0,35,-149,588430,588.4299926757812,0.0,1500.0
07:54:30.581,AUTO,-35.3632609,149.1652459,4905,-0.04277733340859413,0.011291664093732834,-0.08771483600139618,-0.046336498111486435,-0.030094804242253304,-0.022966567426919937,4,-6,-1000,-45,-29,-23,-3,23,-149,588820,588.8200073242188,0.0,1500.0
07:54:30.782,AUTO,-35.363261,149.1652464,5291,-0.059018705040216446,0.001729976269416511,-0.08981659263372421,-0.07568051666021347,-0.04211510717868805,0.0007388748927041888,3,-2,-998,-74,-41,0,-4,9,-149,589210,589.2099609375,0.0,1500.0
07:54:30.983,AUTO,-35.363261,149.1652464,5291,-0.059018705040216446,0.001729976269416511,-0.08981659263372421,-0.07568051666021347,-0.04211510717868805,0.0007388748927041888,3,-2,-998,-74,-41,0,-4,9,-149,589210,589.2099609375,0.0,1500.0
07:54:31.184,AUTO,-35.363261,149.1652464,5675,-0.07572324573993683,-0.008366793394088745,-0.0881689041852951,-0.02336043491959572,-0.025759439915418625,-0.001792313065379858,1,0,-1004,-22,-24,-2,-4,-8,-148,589590,589.5899658203125,0.0,1500.0
07:54:31.384,AUTO,-35.3632611,149.1652461,6060,-0.06996891647577286,-0.01032962091267109,-0.09016641974449158,0.045569732785224915,-0.0018945059273391962,-0.0044966875575482845,0,2,-1003,46,-1,-4,-2,-26,-149,589980,589.97998046875,0.0,1500.0
07:54:31.585,AUTO,-35.3632611,149.1652451,6445,-0.056663479655981064,-0.010524913668632507,-0.09148295223712921,0.05657126381993294,0.001182895852252841,-0.0016278022667393088,-4,7,-1001,57,2,-1,-2,-41,-149,590360,590.3599853515625,0.0,1500.0
07:54:31.786,AUTO,-35.3632611,149.1652451,6445,-0.056663479655981064,-0.010524913668632507,-0.09148295223712921,0.05657126381993294,0.001182895852252841,-0.0016278022667393088,-4,7,-1001,57,2,-1,-2,-41,-149,590360,590.3599853515625,0.0,1500.0
07:54:31.987,AUTO,-35.3632611,149.1652451,6445,-0.056663479655981064,-0.010524913668632507,-0.09148295223712921,0.05657126381993294,0.001182895852252841,-0.0016278022667393088,-4,7,-1001,57,2,-1,-2,-41,-149,590360,590.3599853515625,0.0,1500.0
07:54:32.188,AUTO,-35.3632611,149.1652451,6445,-0.056663479655981064,-0.010524913668632507,-0.09148295223712921,0.05657126381993294,0.001182895852252841,-0.0016278022667393088,-4,7,-1001,57,2,-1,-2,-41,-149,590360,590.3599853515625,0.0,1500.0
07:54:32.388,AUTO,-35.3632612,149.1652407,7601,-0.010186053812503815,-0.0036775977350771427,-0.09305200725793839,0.06588879972696304,0.014418801292777061,0.002277073450386524,-8,14,-1003,66,15,2,-1,-60,-150,591520,591.5199584960938,0.0,1500.0
07:54:32.589,AUTO,-35.3632613,149.165239,7989,0.006121290847659111,2.4395325453951955e-05,-0.09256456792354584,0.06696081161499023,0.01500635128468275,0.0033394116908311844,-7,10,-1003,67,15,3,-2,-59,-151,591900,591.8999633789062,0.0,1500.0
07:54:32.790,AUTO,-35.3632614,149.1652374,8380,0.022570189088582993,0.0036923468578606844,-0.0917506068944931,0.06568972021341324,0.014124151319265366,0.003699342254549265,-7,12,-1004,66,15,3,-3,-52,-152,592300,592.2999877929688,0.0,1500.0
07:54:32.990,AUTO,-35.3632614,149.1652374,8380,0.022570189088582993,0.0036923468578606844,-0.0917506068944931,0.06568972021341324,0.014124151319265366,0.003699342254549265,-7,12,-1004,66,15,3,-3,-52,-152,592300,592.2999877929688,0.0,1500.0
07:54:33.191,AUTO,-35.3632615,149.165236,8773,0.03883969783782959,0.006811049301177263,-0.09069454669952393,0.0648748129606247,0.011347658932209015,0.004175547044724226,-5,11,-1003,65,11,3,-5,-43,-153,592690,592.6900024414062,0.0,1500.0
07:54:33.392,AUTO,-35.3632616,149.1652349,9176,0.05471954867243767,0.008985527791082859,-0.08956510573625565,0.06194336712360382,0.006893901154398918,0.004264474380761385,-4,9,-1003,62,7,4,-7,-29,-153,593090,593.0899658203125,0.0,1500.0
07:54:33.592,AUTO,-35.3632618,149.1652342,9570,0.06936164945363998,0.009751946665346622,-0.08844687789678574,0.057306524366140366,0.0007125352858565748,0.005132608115673065,-1,5,-1001,58,1,5,-8,-13,-153,593490,593.489990234375,0.0,1500.0
07:54:33.793,AUTO,-35.3632618,149.1652342,9570,0.06936164945363998,0.009751946665346622,-0.08844687789678574,0.057306524366140366,0.0007125352858565748,0.005132608115673065,-1,5,-1001,58,1,5,-8,-13,-153,593490,593.489990234375,0.0,1500.0
07:54:33.994,AUTO,-35.3632618,149.1652342,9570,0.06936164945363998,0.009751946665346622,-0.08844687789678574,0.057306524366140366,0.0007125352858565748,0.005132608115673065,-1,5,-1001,58,1,5,-8,-13,-153,593490,593.489990234375,0.0,1500.0
07:54:34.195,AUTO,-35.3632618,149.1652342,9570,0.06936164945363998,0.009751946665346622,-0.08844687789678574,0.057306524366140366,0.0007125352858565748,0.005132608115673065,-1,5,-1001,58,1,5,-8,-13,-153,593490,593.489990234375,0.0,1500.0
07:54:34.395,AUTO,-35.3632623,149.1652346,10734,0.021339071914553642,-0.0010179368546232581,-0.08396852761507034,-0.0849180668592453,-0.012830098159611225,-0.0017085389699786901,4,-2,-1000,-84,-12,-1,-5,23,-149,594650,594.6499633789062,0.0,1500.0
07:54:34.596,AUTO,-35.3632624,149.1652352,11117,0.0033134690020233393,-0.0032047838903963566,-0.08621244877576828,-0.05738939344882965,-0.007248247042298317,-0.011956312693655491,3,-3,-1003,-56,-6,-12,-3,23,-149,595030,595.0299682617188,0.0,1500.0
07:54:34.797,AUTO,-35.3632624,149.1652358,11503,-0.00859607569873333,-0.004350882023572922,-0.09058739989995956,-0.0412621945142746,-0.0031588494312018156,-0.018914738669991493,2,-3,-1002,-40,-2,-19,-1,21,-150,595420,595.4199829101562,0.0,1500.0
07:54:34.998,AUTO,-35.3632624,149.1652358,11503,-0.00859607569873333,-0.004350882023572922,-0.09058739989995956,-0.0412621945142746,-0.0031588494312018156,-0.018914738669991493,2,-3,-1002,-40,-2,-19,-1,21,-150,595420,595.4199829101562,0.0,1500.0
07:54:35.198,AUTO,-35.3632624,149.1652362,11890,-0.01522449404001236,-0.004824820905923843,-0.0963420644402504,-0.019858956336975098,-0.0007887557148933411,-0.02424294874072075,2,-3,-1002,-18,0,-24,0,16,-151,595810,595.8099975585938,0.0,1500.0
07:54:35.399,AUTO,-35.3632624,149.1652366,12279,-0.017746178433299065,-0.004679095931351185,-0.10299737006425858,-0.001690188655629754,0.0021426212042570114,-0.026544934138655663,1,-2,-1002,-1,2,-26,1,10,-151,596190,596.1900024414062,0.0,1500.0
07:54:35.600,AUTO,-35.3632624,149.1652368,12668,-0.016498709097504616,-0.0037760818377137184,-0.11018539220094681,0.009363306686282158,0.004751806613057852,-0.025471651926636696,0,-1,-1001,10,5,-25,3,4,-152,596580,596.5800170898438,0.0,1500.0
07:54:35.801,AUTO,-35.3632624,149.1652368,12668,-0.016498709097504616,-0.0037760818377137184,-0.11018539220094681,0.009363306686282158,0.004751806613057852,-0.025471651926636696,0,-1,-1001,10,5,-25,3,4,-152,596580,596.5800170898438,0.0,1500.0
07:54:36.002,AUTO,-35.3632624,149.1652368,12668,-0.016498709097504616,-0.0037760818377137184,-0.11018539220094681,0.009363306686282158,0.004751806613057852,-0.025471651926636696,0,-1,-1001,10,5,-25,3,4,-152,596580,596.5800170898438,0.0,1500.0
07:54:36.203,AUTO,-35.3632624,149.1652368,12668,-0.016498709097504616,-0.0037760818377137184,-0.11018539220094681,0.009363306686282158,0.004751806613057852,-0.025471651926636696,0,-1,-1001,10,5,-25,3,4,-152,596580,596.5800170898438,0.0,1500.0
07:54:36.403,AUTO,-35.3632622,149.1652367,13842,-0.004178850445896387,0.00012747837172355503,-0.1297980695962906,0.018271727487444878,0.008053651079535484,-0.022922297939658165,-1,0,-1000,19,8,-22,4,-5,-152,597760,597.760009765625,0.0,1500.0
07:54:36.604,AUTO,-35.3632621,149.1652365,14234,0.00015813398931641132,0.0019131919834762812,-0.13561926782131195,0.017802884802222252,0.0076708863489329815,-0.02170243300497532,-2,0,-1000,18,8,-21,3,-6,-152,598150,598.1499633789062,0.0,1500.0
07:54:36.805,AUTO,-35.363262,149.1652362,14625,0.003886472899466753,0.0036437599919736385,-0.14104612171649933,0.014431368559598923,0.007435539737343788,-0.020427217707037926,-2,0,-1000,15,8,-20,3,-6,-152,598540,598.5399780273438,0.0,1500.0
07:54:37.006,AUTO,-35.363262,149.1652362,14625,0.003886472899466753,0.0036437599919736385,-0.14104612171649933,0.014431368559598923,0.007435539737343788,-0.020427217707037926,-2,0,-1000,15,8,-20,3,-6,-152,598540,598.5399780273438,0.0,1500.0
07:54:37.206,AUTO,-35.3632619,149.165236,15016,0.006703261751681566,0.005319980438798666,-0.14617401361465454,0.009789273142814636,0.006609043572098017,-0.01931784115731716,-2,0,-1000,10,7,-19,2,-5,-152,598930,598.9299926757812,0.0,1500.0
07:54:37.407,AUTO,-35.3632618,149.1652358,15407,0.008573608472943306,0.006243386771529913,-0.15045705437660217,0.006252065766602755,0.0034944340586662292,-0.015030382201075554,-1,0,-999,7,4,-15,1,-4,-152,599320,599.3200073242188,0.0,1500.0
07:54:37.608,AUTO,-35.3632617,149.1652357,15798,0.009586513042449951,0.0066729043610394,-0.1541420966386795,0.0046807462349534035,0.0001878749462775886,-0.013144339434802532,-1,0,-1000,5,1,-13,0,-2,-152,599710,599.7099609375,0.0,1500.0
07:54:37.809,AUTO,-35.3632617,149.1652357,15798,0.009586513042449951,0.0066729043610394,-0.1541420966386795,0.0046807462349534035,0.0001878749462775886,-0.013144339434802532,-1,0,-1000,5,1,-13,0,-2,-152,599710,599.7099609375,0.0,1500.0
07:54:38.009,AUTO,-35.3632617,149.1652357,15798,0.009586513042449951,0.0066729043610394,-0.1541420966386795,0.0046807462349534035,0.0001878749462775886,-0.013144339434802532,-1,0,-1000,5,1,-13,0,-2,-152,599710,599.7099609375,0.0,1500.0
07:54:38.210,AUTO,-35.3632617,149.1652357,15798,0.009586513042449951,0.0066729043610394,-0.1541420966386795,0.0046807462349534035,0.0001878749462775886,-0.013144339434802532,-1,0,-1000,5,1,-13,0,-2,-152,599710,599.7099609375,0.0,1500.0
07:54:38.411,AUTO,-35.3632616,149.1652355,16970,0.00911050196737051,0.006217703223228455,-0.16360938549041748,-0.003713360521942377,-0.002143216086551547,-0.011114675551652908,0,0,-1000,-2,-1,-11,-1,2,-152,600890,600.8900146484375,0.0,1500.0
07:54:38.612,AUTO,-35.3632616,149.1652355,17361,0.007971183396875858,0.005739741493016481,-0.1666155308485031,-0.0027532309759408236,-0.001543716760352254,-0.011275728233158588,0,0,-1000,-1,-1,-11,-2,3,-152,601280,601.2799682617188,0.0,1500.0
07:54:38.812,AUTO,-35.3632616,149.1652355,17751,0.006898339372128248,0.005331795662641525,-0.16994285583496094,-0.003991254605352879,-0.0003840251883957535,-0.014924570918083191,0,0,-1000,-3,0,-15,-2,4,-152,601670,601.6699829101562,0.0,1500.0
07:54:39.013,AUTO,-35.3632616,149.1652355,17751,0.006898339372128248,0.005331795662641525,-0.16994285583496094,-0.003991254605352879,-0.0003840251883957535,-0.014924570918083191,0,0,-1000,-3,0,-15,-2,4,-152,601670,601.6699829101562,0.0,1500.0
07:54:39.213,AUTO,-35.3632616,149.1652356,18142,0.0058625671081244946,0.005012643989175558,-0.17349693179130554,-0.0030248421244323254,-0.0009247782290913165,-0.01471951138228178,0,0,-1000,-2,0,-14,-3,5,-153,602060,602.0599975585938,0.0,1500.0
07:54:39.414,AUTO,-35.3632616,149.1652357,18537,0.004793243482708931,0.004489488434046507,-0.17720428109169006,-0.0035432183649390936,-0.0016904601361602545,-0.014893305487930775,0,0,-1000,-2,0,-15,-3,6,-153,602450,602.4500122070312,0.0,1500.0
07:54:39.614,AUTO,-35.3632616,149.1652358,18927,0.003946301527321339,0.003992709331214428,-0.18108469247817993,-0.00450834259390831,-0.0015908433124423027,-0.017003824934363365,0,0,-1000,-3,0,-17,-3,6,-153,602840,602.8399658203125,0.0,1500.0
07:54:39.815,AUTO,-35.3632616,149.1652358,18927,0.003946301527321339,0.003992709331214428,-0.18108469247817993,-0.00450834259390831,-0.0015908433124423027,-0.017003824934363365,0,0,-1000,-3,0,-17,-3,6,-153,602840,602.8399658203125,0.0,1500.0
07:54:40.016,AUTO,-35.3632616,149.1652358,18927,0.003946301527321339,0.003992709331214428,-0.18108469247817993,-0.00450834259390831,-0.0015908433124423027,-0.017003824934363365,0,0,-1000,-3,0,-17,-3,6,-153,602840,602.8399658203125,0.0,1500.0
07:54:40.217,AUTO,-35.3632616,149.1652358,18927,0.003946301527321339,0.003992709331214428,-0.18108469247817993,-0.00450834259390831,-0.0015908433124423027,-0.017003824934363365,0,0,-1000,-3,0,-17,-3,6,-153,602840,602.8399658203125,0.0,1500.0
07:54:40.418,AUTO,-35.3632617,149.165236,20096,0.0026880165096372366,0.0036596774589270353,-0.19471760094165802,-0.0013964708195999265,-0.0001507833949290216,-0.01913258619606495,0,0,-1000,0,0,-19,-3,5,-153,604010,604.010009765625,0.0,1500.0
07:54:40.618,AUTO,-35.3632617,149.1652361,20487,0.00233727740123868,0.003472487209364772,-0.19950726628303528,-5.511910421773791e-05,-0.000621359096840024,-0.020980536937713623,0,0,-1000,0,0,-21,-3,5,-153,604400,604.3999633789062,0.0,1500.0
07:54:40.819,AUTO,-35.3632617,149.1652362,20878,0.001977614825591445,0.0034712788183242083,-0.2045261561870575,-0.0013469059485942125,0.0005687281955033541,-0.020675357431173325,0,0,-1000,0,1,-20,-3,5,-153,604790,604.7899780273438,0.0,1500.0
07:54:41.019,AUTO,-35.3632617,149.1652362,20878,0.001977614825591445,0.0034712788183242083,-0.2045261561870575,-0.0013469059485942125,0.0005687281955033541,-0.020675357431173325,0,0,-1000,0,1,-20,-3,5,-153,604790,604.7899780273438,0.0,1500.0
07:54:41.220,AUTO,-35.3632617,149.1652363,21269,0.0018153934506699443,0.003444372909143567,-0.20956635475158691,0.0010227484162896872,0.0008331325370818377,-0.021084660664200783,0,0,-1000,1,1,-21,-3,4,-153,605180,605.1799926757812,0.0,1500.0
07:54:41.421,AUTO,-35.3632617,149.1652363,21659,0.0020780651830136776,0.0033784317784011364,-0.2145290970802307,0.0014544683508574963,-0.0007272356888279319,-0.017971856519579887,0,0,-1000,2,0,-17,-3,4,-153,605570,605.5700073242188,0.0,1500.0
07:54:41.622,AUTO,-35.3632617,149.1652364,22051,0.002101122634485364,0.0030435696244239807,-0.21929852664470673,-0.0003769902396015823,-0.0018356314394623041,-0.01897423528134823,0,0,-1000,0,-1,-19,-2,4,-153,605970,605.969970703125,0.0,1500.0
07:54:41.822,AUTO,-35.3632617,149.1652364,22051,0.002101122634485364,0.0030435696244239807,-0.21929852664470673,-0.0003769902396015823,-0.0018356314394623041,-0.01897423528134823,0,0,-1000,0,-1,-19,-2,4,-153,605970,605.969970703125,0.0,1500.0
07:54:42.023,AUTO,-35.3632617,149.1652364,22051,0.002101122634485364,0.0030435696244239807,-0.21929852664470673,-0.0003769902396015823,-0.0018356314394623041,-0.01897423528134823,0,0,-1000,0,-1,-19,-2,4,-153,605970,605.969970703125,0.0,1500.0
07:54:42.223,AUTO,-35.3632617,149.1652364,22051,0.002101122634485364,0.0030435696244239807,-0.21929852664470673,-0.0003769902396015823,-0.0018356314394623041,-0.01897423528134823,0,0,-1000,0,-1,-19,-2,4,-153,605970,605.969970703125,0.0,1500.0
07:54:42.424,AUTO,-35.3632618,149.1652365,23223,0.0021609829273074865,0.003137751715257764,-0.23435617983341217,0.0023057819344103336,0.00013373297406360507,-0.019851498305797577,0,0,-1000,3,0,-20,-2,3,-153,607140,607.1400146484375,0.0,1500.0
07:54:42.625,AUTO,-35.3632618,149.1652366,23614,0.0020078120287507772,0.0030417940579354763,-0.2393069863319397,-0.002601941116154194,-0.0005669861566275358,-0.02006501331925392,0,0,-1000,-1,0,-20,-2,3,-153,607530,607.5299682617188,0.0,1500.0
07:54:42.825,AUTO,-35.3632618,149.1652366,24005,0.0021131804678589106,0.002980021061375737,-0.24428999423980713,0.003532072762027383,-0.00015210459241643548,-0.0204611923545599,0,0,-1001,4,0,-20,-2,3,-153,607920,607.9199829101562,0.0,1500.0
07:54:43.026,AUTO,-35.3632618,149.1652366,24005,0.0021131804678589106,0.002980021061375737,-0.24428999423980713,0.003532072762027383,-0.00015210459241643548,-0.0204611923545599,0,0,-1001,4,0,-20,-2,3,-153,607920,607.9199829101562,0.0,1500.0
07:54:43.227,AUTO,-35.3632618,149.1652366,24395,0.0022936954628676176,0.0028423091862350702,-0.24914804100990295,0.0008589175995439291,3.260606899857521e-05,-0.01944078505039215,0,0,-1000,1,1,-19,-2,3,-153,608310,608.3099975585938,0.0,1500.0
07:54:43.428,AUTO,-35.3632618,149.1652367,24786,0.0023905793204903603,0.0026112215127795935,-0.25383731722831726,-0.0018877978436648846,-0.0004443356301635504,-0.017450764775276184,0,0,-999,-1,0,-17,-2,3,-153,608700,608.7000122070312,0.0,1500.0
07:54:43.628,AUTO,-35.3632619,149.1652367,25176,-0.001931099919602275,0.002819454064592719,-0.2577475309371948,-0.10913189500570297,0.009856803342700005,-8.429445733781904e-05,0,-2,-979,-108,10,0,-2,2,-152,609090,609.0899658203125,0.0,1500.0
07:54:43.829,AUTO,-35.3632619,149.1652367,25176,-0.001931099919602275,0.002819454064592719,-0.2577475309371948,-0.10913189500570297,0.009856803342700005,-8.429445733781904e-05,0,-2,-979,-108,10,0,-2,2,-152,609090,609.0899658203125,0.0,1500.0
07:54:44.030,AUTO,-35.3632619,149.1652367,25176,-0.001931099919602275,0.002819454064592719,-0.2577475309371948,-0.10913189500570297,0.009856803342700005,-8.429445733781904e-05,0,-2,-979,-108,10,0,-2,2,-152,609090,609.0899658203125,0.0,1500.0
07:54:44.231,AUTO,-35.3632619,149.1652367,25176,-0.001931099919602275,0.002819454064592719,-0.2577475309371948,-0.10913189500570297,0.009856803342700005,-8.429445733781904e-05,0,-2,-979,-108,10,0,-2,2,-152,609090,609.0899658203125,0.0,1500.0
07:54:44.432,AUTO,-35.363262,149.1652366,26344,0.004125049803406,0.004387490451335907,-0.24678051471710205,0.028217000886797905,-0.0063703227788209915,0.025076407939195633,0,1,-1001,29,-5,25,-5,-1,-153,610260,610.260009765625,0.0,1500.0
07:54:44.633,AUTO,-35.3632622,149.1652365,26734,0.009205262176692486,0.0030077765695750713,-0.2402181625366211,0.01632055640220642,-0.004243550822138786,0.027949629351496696,0,1,-999,17,-3,28,-5,0,-153,610650,610.6499633789062,0.0,1500.0
07:54:44.834,AUTO,-35.3632622,149.1652365,27125,0.011313376016914845,0.0017089638859033585,-0.2335074096918106,0.004557430278509855,-0.0029373024590313435,0.026303056627511978,0,0,-998,5,-1,26,-5,1,-153,611040,611.0399780273438,0.0,1500.0
07:54:45.034,AUTO,-35.3632623,149.1652366,27515,0.011488283984363079,0.0011072095949202776,-0.22704185545444489,-0.0038723284378647804,0.0004071677103638649,0.02506924420595169,0,0,-998,5,-1,26,-4,4,-153,611430,611.0399780273438,0.0,1500.0
07:54:45.235,AUTO,-35.3632623,149.1652366,27515,0.011488283984363079,0.0011072095949202776,-0.22704185545444489,-0.0038723284378647804,0.0004071677103638649,0.02506924420595169,0,0,-998,-2,1,24,-4,4,-153,611430,611.4299926757812,0.0,1500.0
07:54:45.436,AUTO,-35.3632624,149.1652366,27908,0.010444684885442257,0.000802692724391818,-0.22075875103473663,-0.0048364195972681046,-0.0015933627728372812,0.023959489539265633,1,0,-1000,-3,0,24,-3,6,-153,611820,611.8200073242188,0.0,1500.0
07:54:45.637,AUTO,-35.3632624,149.1652367,28297,0.008590918965637684,0.0006659163627773523,-0.21510544419288635,-0.0077707706950604916,0.0002555960672907531,0.02062153071165085,0,0,-1000,-6,1,20,-2,7,-153,612210,612.2099609375,0.0,1500.0
07:54:45.837,AUTO,-35.3632624,149.1652367,28297,0.008590918965637684,0.0006659163627773523,-0.21510544419288635,-0.0077707706950604916,0.0002555960672907531,0.02062153071165085,0,0,-1000,-6,1,20,-2,7,-153,612210,612.2099609375,0.0,1500.0
07:54:46.038,AUTO,-35.3632624,149.1652367,28297,0.008590918965637684,0.0006659163627773523,-0.21510544419288635,-0.0077707706950604916,0.0002555960672907531,0.02062153071165085,0,0,-1000,-6,1,20,-2,7,-153,612210,612.2099609375,0.0,1500.0
07:54:46.239,AUTO,-35.3632624,149.1652367,28297,0.008590918965637684,0.0006659163627773523,-0.21510544419288635,-0.0077707706950604916,0.0002555960672907531,0.02062153071165085,0,0,-1000,-6,1,20,-2,7,-153,612210,612.2099609375,0.0,1500.0
07:54:46.439,AUTO,-35.3632624,149.1652372,29459,0.003371315775439143,0.0014096726663410664,-0.19943870604038239,-0.005859261844307184,-0.0008884649141691625,0.02043634094297886,0,-1,-1000,-4,0,20,0,8,-153,613370,613.3699951171875,0.0,1500.0
07:54:46.640,AUTO,-35.3632624,149.1652374,29848,0.0015507536008954048,0.0015520849265158176,-0.1946006715297699,-0.009814411401748657,-0.0006211836007423699,0.019343562424182892,0,-1,-1000,-8,0,19,0,8,-153,613760,613.760009765625,0.0,1500.0
07:54:46.841,AUTO,-35.3632624,149.1652375,30237,0.0002801140653900802,0.001797691686078906,-0.18996202945709229,-0.0029674656689167023,0.0033373127225786448,0.018879108130931854,0,-1,-1000,-2,4,18,0,7,-153,614150,614.1499633789062,0.0,1500.0
07:54:47.041,AUTO,-35.3632624,149.1652377,30626,-0.0004955052281729877,0.0020234582480043173,-0.18565069139003754,0.000816667452454567,0.0012772715417668223,0.017682457342743874,0,-1,-1000,1,2,17,0,6,-153,614540,614.5399780273438,0.0,1500.0
07:54:47.242,AUTO,-35.3632624,149.1652377,30626,-0.0004955052281729877,0.0020234582480043173,-0.18565069139003754,0.000816667452454567,0.0012772715417668223,0.017682457342743874,0,-1,-1000,1,2,17,0,6,-153,614540,614.5399780273438,0.0,1500.0
07:54:47.443,AUTO,-35.3632624,149.1652378,31015,-0.0007369613740593195,0.0018216067692264915,-0.18135139346122742,-0.0021835986990481615,0.00019613909535109997,0.01879892311990261,0,-1,-999,-1,1,18,0,5,-153,614930,614.9299926757812,0.0,1500.0
07:54:47.643,AUTO,-35.3632624,149.1652379,31404,-0.0007588122971355915,0.0016428334638476372,-0.17724758386611938,0.0008982578292489052,-0.0015242977533489466,0.0176448542624712,0,0,-1000,2,0,17,0,4,-153,615320,615.3200073242188,0.0,1500.0
07:54:47.844,AUTO,-35.3632624,149.1652379,31404,-0.0007588122971355915,0.0016428334638476372,-0.17724758386611938,0.0008982578292489052,-0.0015242977533489466,0.0176448542624712,0,0,-1000,2,0,17,0,4,-153,615320,615.3200073242188,0.0,1500.0
07:54:48.045,AUTO,-35.3632624,149.1652379,31404,-0.0007588122971355915,0.0016428334638476372,-0.17724758386611938,0.0008982578292489052,-0.0015242977533489466,0.0176448542624712,0,0,-1000,2,0,17,0,4,-153,615320,615.3200073242188,0.0,1500.0
07:54:48.246,AUTO,-35.3632624,149.1652379,31404,-0.0007588122971355915,0.0016428334638476372,-0.17724758386611938,0.0008982578292489052,-0.0015242977533489466,0.0176448542624712,0,0,-1000,2,0,17,0,4,-153,615320,615.3200073242188,0.0,1500.0
07:54:48.447,AUTO,-35.3632623,149.165238,32577,-0.00022590118169318885,0.0011663330951705575,-0.16546861827373505,0.003875324036926031,-0.0012774696806445718,0.013613362796604633,0,0,-1001,4,0,13,0,2,-153,616490,616.489990234375,0.0,1500.0
07:54:48.648,AUTO,-35.3632623,149.165238,32966,0.00021025542810093611,0.0011398026254028082,-0.16188761591911316,0.0006416025571525097,-0.0005164546892046928,0.014758965000510216,0,0,-1000,1,0,14,0,1,-153,616880,616.8800048828125,0.0,1500.0
07:54:48.849,AUTO,-35.3632623,149.165238,33356,0.0006461168522946537,0.0009555670549161732,-0.15838691592216492,0.005098877940326929,0.0010486614191904664,0.01581023819744587,0,0,-1000,6,2,16,0,0,-153,617270,617.2699584960938,0.0,1500.0
07:54:49.049,AUTO,-35.3632623,149.165238,33746,0.0011606707703322172,0.0010820056777447462,-0.15483985841274261,0.005865541286766529,0.0028383126482367516,0.01436217688024044,0,0,-1000,6,4,14,0,0,-153,617660,617.6599731445312,0.0,1500.0
07:54:49.250,AUTO,-35.3632623,149.165238,33746,0.0011606707703322172,0.0010820056777447462,-0.15483985841274261,0.005865541286766529,0.0028383126482367516,0.01436217688024044,0,0,-1000,6,4,14,0,0,-153,617660,617.6599731445312,0.0,1500.0
07:54:49.451,AUTO,-35.3632623,149.165238,34135,0.0013940584613010287,0.0012442040024325252,-0.15148329734802246,0.0003855874529108405,0.0013761811424046755,0.01413043774664402,0,0,-999,1,2,14,0,0,-153,618050,618.0499877929688,0.0,1500.0
07:54:49.651,AUTO,-35.3632623,149.165238,34532,0.0015836355742067099,0.0014165225438773632,-0.14831417798995972,0.002291587181389332,0.000637686112895608,0.013158747926354408,0,0,-1000,3,1,12,0,0,-153,618450,618.4500122070312,0.0,1500.0
07:54:49.852,AUTO,-35.3632623,149.165238,34532,0.0015836355742067099,0.0014165225438773632,-0.14831417798995972,0.002291587181389332,0.000637686112895608,0.013158747926354408,0,0,-1000,3,1,12,0,0,-153,618450,618.4500122070312,0.0,1500.0
07:54:50.052,AUTO,-35.3632623,149.165238,34532,0.0015836355742067099,0.0014165225438773632,-0.14831417798995972,0.002291587181389332,0.000637686112895608,0.013158747926354408,0,0,-1000,3,1,12,0,0,-153,618450,618.4500122070312,0.0,1500.0
07:54:50.253,AUTO,-35.3632623,149.165238,34532,0.0015836355742067099,0.0014165225438773632,-0.14831417798995972,0.002291587181389332,0.000637686112895608,0.013158747926354408,0,0,-1000,3,1,12,0,0,-153,618450,618.4500122070312,0.0,1500.0
07:54:50.454,AUTO,-35.3632622,149.1652379,35694,0.001596315996721387,0.001233832212164998,-0.13966698944568634,-0.0011228113435208797,1.8471619114279747e-06,0.012773686088621616,0,0,-999,0,1,12,0,0,-153,619610,619.6099853515625,0.0,1500.0
07:54:50.654,AUTO,-35.3632622,149.1652378,36083,0.0018351327162235975,0.0010082026710733771,-0.13679155707359314,0.0035764677450060844,-0.00016078853514045477,0.01066681370139122,0,0,-1000,4,0,10,0,0,-153,620000,620.0,0.0,1500.0
07:54:50.855,AUTO,-35.3632622,149.1652378,36473,0.002046342473477125,0.0009979958413168788,-0.13417541980743408,0.002495175926014781,0.0017436714842915535,0.01102779433131218,0,0,-1000,3,2,10,0,0,-153,620390,620.3900146484375,0.0,1500.0
07:54:51.055,AUTO,-35.3632622,149.1652378,36863,0.0021962050814181566,0.0009632380097173154,-0.13162416219711304,-0.00046838982962071896,-0.00022089428966864944,0.010584533214569092,0,0,-1000,3,2,10,0,0,-153,620780,620.7799682617188,0.0,1500.0
07:54:51.256,AUTO,-35.3632622,149.1652378,36863,0.0021962050814181566,0.0009632380097173154,-0.13162416219711304,-0.00046838982962071896,-0.00022089428966864944,0.010584533214569092,0,0,-1000,0,0,10,0,0,-153,620780,620.7799682617188,0.0,1500.0
07:54:51.457,AUTO,-35.3632622,149.1652377,37252,0.002400153549388051,0.0011848763097077608,-0.1292518675327301,0.0045796651393175125,0.0025444598868489265,0.010034751147031784,0,0,-1000,5,3,10,0,0,-153,621170,621.1699829101562,0.0,1500.0
07:54:51.657,AUTO,-35.3632622,149.1652377,37642,0.002505701733753085,0.0013969303108751774,-0.12713053822517395,-0.0027994317933917046,1.6649719327688217e-05,0.009815028868615627,0,0,-999,-1,1,10,0,0,-153,621560,621.5599975585938,0.0,1500.0
07:54:51.858,AUTO,-35.3632622,149.1652377,37642,0.002505701733753085,0.0013969303108751774,-0.12713053822517395,-0.0027994317933917046,1.6649719327688217e-05,0.009815028868615627,0,0,-999,-1,1,10,0,0,-153,621560,621.5599975585938,0.0,1500.0
07:54:52.059,AUTO,-35.3632622,149.1652377,37642,0.002505701733753085,0.0013969303108751774,-0.12713053822517395,-0.0027994317933917046,1.6649719327688217e-05,0.009815028868615627,0,0,-999,-1,1,10,0,0,-153,621560,621.5599975585938,0.0,1500.0
07:54:52.260,AUTO,-35.3632622,149.1652377,37642,0.002505701733753085,0.0013969303108751774,-0.12713053822517395,-0.0027994317933917046,1.6649719327688217e-05,0.009815028868615627,0,0,-999,-1,1,10,0,0,-153,621560,621.5599975585938,0.0,1500.0
07:54:52.460,AUTO,-35.3632621,149.1652376,38810,0.002589518204331398,0.0017706091748550534,-0.12062611430883408,-0.0021402831189334393,-0.00015886721666902304,0.008145775645971298,0,0,-1000,-1,0,8,0,0,-153,622730,622.72998046875,0.0,1500.0
07:54:52.661,AUTO,-35.3632621,149.1652375,39207,0.002676167991012335,0.001677834428846836,-0.11853447556495667,0.0031406451016664505,0.00034216116182506084,0.008536716923117638,0,0,-1000,4,1,8,0,0,-153,623120,623.1199951171875,0.0,1500.0
07:54:52.862,AUTO,-35.3632621,149.1652375,39597,0.0025438719894737005,0.0017862174427136779,-0.11639539897441864,-0.0005127756739966571,0.0017270812531933188,0.008731571026146412,0,0,-1000,0,2,8,0,0,-153,623510,623.510009765625,0.0,1500.0
07:54:53.062,AUTO,-35.3632621,149.1652375,39986,0.0023190563078969717,0.0016858624294400215,-0.1144462525844574,-0.0011657809372991323,0.0005488984752446413,0.006459490396082401,0,0,-1000,0,1,6,0,0,-153,623900,623.8999633789062,0.0,1500.0
07:54:53.263,AUTO,-35.3632621,149.1652375,39986,0.0023190563078969717,0.0016858624294400215,-0.1144462525844574,-0.0011657809372991323,0.0005488984752446413,0.006459490396082401,0,0,-1000,0,1,6,0,0,-153,623900,623.8999633789062,0.0,1500.0
07:54:53.464,AUTO,-35.3632621,149.1652375,40376,0.002229206031188369,0.0015574494609609246,-0.11284241825342178,-0.001142863999120891,0.0010969355935230851,0.007191668730229139,0,0,-1000,0,2,7,-1,0,-153,624290,624.2899780273438,0.0,1500.0
07:54:53.664,AUTO,-35.3632621,149.1652374,40765,0.0023059139493852854,0.001471622963435948,-0.11107929795980453,0.0020202784799039364,-0.0005675016436725855,0.007417361717671156,0,0,-1000,3,0,7,-1,0,-153,624680,624.6799926757812,0.0,1500.0
07:54:53.865,AUTO,-35.3632621,149.1652374,40765,0.0023059139493852854,0.001471622963435948,-0.11107929795980453,0.0020202784799039364,-0.0005675016436725855,0.007417361717671156,0,0,-1000,3,0,7,-1,0,-153,624680,624.6799926757812,0.0,1500.0
07:54:54.066,AUTO,-35.3632621,149.1652374,40765,0.0023059139493852854,0.001471622963435948,-0.11107929795980453,0.0020202784799039364,-0.0005675016436725855,0.007417361717671156,0,0,-1000,3,0,7,-1,0,-153,624680,624.6799926757812,0.0,1500.0
07:54:54.267,AUTO,-35.3632621,149.1652374,40765,0.0023059139493852854,0.001471622963435948,-0.11107929795980453,0.0020202784799039364,-0.0005675016436725855,0.007417361717671156,0,0,-1000,3,0,7,-1,0,-153,624680,624.6799926757812,0.0,1500.0
07:54:54.468,AUTO,-35.3632621,149.1652374,41926,0.002057867357507348,0.001543880789540708,-0.10591454058885574,0.0007115735206753016,-4.3695676140487194e-05,0.005780799314379692,0,0,-1000,2,1,5,-1,1,-153,625840,625.8399658203125,0.0,1500.0
07:54:54.669,AUTO,-35.363262,149.1652374,42315,0.0019157715141773224,0.0015011349460110068,-0.10432174056768417,-0.0010754222748801112,-0.0008775098831392825,0.004989900626242161,0,0,-1000,0,0,5,-1,1,-153,626230,626.22998046875,0.0,1500.0
07:54:54.870,AUTO,-35.363262,149.1652374,42704,0.002045009285211563,0.0014112230855971575,-0.1026076227426529,0.005067428573966026,0.0026363139040768147,0.007302869111299515,0,0,-1000,6,3,7,-1,1,-153,626620,626.6199951171875,0.0,1500.0
07:54:55.070,AUTO,-35.363262,149.1652374,43094,0.002143228193745017,0.001512245275080204,-0.10113844275474548,0.000595942372456193,0.0005998304113745689,0.008306420408189297,0,0,-1000,1,1,8,-1,1,-153,627010,627.010009765625,0.0,1500.0
07:54:55.271,AUTO,-35.363262,149.1652374,43094,0.002143228193745017,0.001512245275080204,-0.10113844275474548,0.000595942372456193,0.0005998304113745689,0.008306420408189297,0,0,-1000,1,1,8,-1,1,-153,627010,627.010009765625,0.0,1500.0
07:54:55.471,AUTO,-35.363262,149.1652374,43483,0.0021301391534507275,0.0013694697991013527,-0.0993688553571701,0.000575715908780694,4.304829053580761e-05,0.0065873973071575165,0,0,-1000,1,1,7,-1,1,-153,627400,627.3999633789062,0.0,1500.0
07:54:55.672,AUTO,-35.363262,149.1652374,43880,0.0021218135952949524,0.0013751020887866616,-0.09803137928247452,0.0022304710000753403,0.0007392005063593388,0.005738798063248396,0,0,-1001,3,1,6,-1,1,-153,627800,627.7999877929688,0.0,1500.0
07:54:55.873,AUTO,-35.363262,149.1652374,43880,0.0021218135952949524,0.0013751020887866616,-0.09803137928247452,0.0022304710000753403,0.0007392005063593388,0.005738798063248396,0,0,-1001,3,1,6,-1,1,-153,627800,627.7999877929688,0.0,1500.0
07:54:56.073,AUTO,-35.363262,149.1652374,43880,0.0021218135952949524,0.0013751020887866616,-0.09803137928247452,0.0022304710000753403,0.0007392005063593388,0.005738798063248396,0,0,-1001,3,1,6,-1,1,-153,627800,627.7999877929688,0.0,1500.0
07:54:56.274,AUTO,-35.363262,149.1652374,43880,0.0021218135952949524,0.0013751020887866616,-0.09803137928247452,0.0022304710000753403,0.0007392005063593388,0.005738798063248396,0,0,-1001,3,1,6,-1,1,-153,627800,627.7999877929688,0.0,1500.0
07:54:56.474,AUTO,-35.363262,149.1652373,45048,0.002115521812811494,0.0010838245507329702,-0.09326529502868652,-0.0019142159726470709,0.0007044748635962605,0.005790582858026028,0,0,-999,0,1,5,-1,1,-153,628960,628.9599609375,0.0,1500.0
07:54:56.675,AUTO,-35.363262,149.1652373,45437,0.001935972017236054,0.001060515409335494,-0.09179262816905975,-0.0005368858110159636,-7.427018135786057e-05,0.005875820759683847,0,0,-1000,0,0,6,-1,1,-153,629350,629.3499755859375,0.0,1500.0
07:54:56.876,AUTO,-35.363262,149.1652373,45827,0.0017750220140442252,0.0010546933626756072,-0.09061788767576218,0.0001263967715203762,0.002544337185099721,0.006868342868983746,0,0,-999,1,4,7,-1,1,-153,629740,629.739990234375,0.0,1500.0
07:54:57.076,AUTO,-35.363262,149.1652373,46216,0.001666172523982823,0.0011916139628738165,-0.08927245438098907,-0.002142509212717414,-0.0002066466840915382,0.00509228277951479,0,0,-1000,0,1,5,-1,1,-153,630130,630.1300048828125,0.0,1500.0
07:54:57.277,AUTO,-35.363262,149.1652373,46216,0.001666172523982823,0.0011916139628738165,-0.08927245438098907,-0.002142509212717414,-0.0002066466840915382,0.00509228277951479,0,0,-1000,0,1,5,-1,1,-153,630130,630.1300048828125,0.0,1500.0
07:54:57.478,AUTO,-35.363262,149.1652373,46606,0.0017551343189552426,0.0012564851203933358,-0.08801808208227158,0.002115757204592228,0.0001828561071306467,0.005405564326792955,0,0,-1000,3,1,5,-1,1,-153,630520,630.5199584960938,0.0,1500.0
07:54:57.679,AUTO,-35.363262,149.1652373,46995,0.0018747483845800161,0.0013563955435529351,-0.08672922849655151,-0.001867471495643258,2.9137940146028996e-05,0.01117368508130312,0,0,-999,0,1,11,-1,1,-153,630910,630.9099731445312,0.0,1500.0
07:54:57.880,AUTO,-35.363262,149.1652373,46995,0.0018747483845800161,0.0013563955435529351,-0.08672922849655151,-0.001867471495643258,2.9137940146028996e-05,0.01117368508130312,0,0,-999,0,1,11,-1,1,-153,630910,630.9099731445312,0.0,1500.0
07:54:58.080,AUTO,-35.363262,149.1652373,46995,0.0018747483845800161,0.0013563955435529351,-0.08672922849655151,-0.001867471495643258,2.9137940146028996e-05,0.01117368508130312,0,0,-999,0,1,11,-1,1,-153,630910,630.9099731445312,0.0,1500.0
07:54:58.281,AUTO,-35.363262,149.1652373,46995,0.0018747483845800161,0.0013563955435529351,-0.08672922849655151,-0.001867471495643258,2.9137940146028996e-05,0.01117368508130312,0,0,-999,0,1,11,-1,1,-153,630910,630.9099731445312,0.0,1500.0
07:54:58.482,AUTO,-35.3632624,149.1652367,48085,-0.06052183359861374,0.069034144282341,0.17745570838451385,0.00035423843655735254,-0.09675774723291397,0.4152206480503082,2,5,-940,1,-95,415,-23,-22,-127,632000,632.0,0.0,1500.0
07:54:58.682,AUTO,-35.363263,149.1652359,48394,-0.03927018120884895,0.025964943692088127,0.25529342889785767,0.09936603903770447,-0.21589171886444092,0.2182365208864212,3,8,-941,100,-214,218,-31,-34,-112,632310,632.3099975585938,0.0,1500.0
07:54:58.883,AUTO,-35.3632637,149.1652348,48664,-0.011195266619324684,-0.018659593537449837,0.29303526878356934,0.11494791507720947,-0.14845725893974304,0.10303276777267456,5,10,-948,116,-147,103,-29,-38,-99,632580,632.5799560546875,0.0,1500.0
07:54:59.084,AUTO,-35.3632642,149.1652338,48902,0.011933928355574608,-0.04442087560892105,0.3074616491794586,0.0812244638800621,-0.07080891728401184,0.034379590302705765,2,9,-955,82,-69,34,-21,-33,-87,632820,632.8200073242188,0.0,1500.0
07:54:59.284,AUTO,-35.3632642,149.1652338,48902,0.011933928355574608,-0.04442087560892105,0.3074616491794586,0.0812244638800621,-0.07080891728401184,0.034379590302705765,2,9,-955,82,-69,34,-21,-33,-87,632820,632.8200073242188,0.0,1500.0
07:54:59.485,AUTO,-35.3632646,149.165233,49110,0.027866864576935768,-0.05483527109026909,0.30887141823768616,0.033009547740221024,-0.017884405329823494,-0.005225224886089563,1,6,-961,34,-16,-4,-11,-23,-76,633030,633.0299682617188,0.0,1500.0
07:54:59.686,AUTO,-35.3632648,149.1652325,49293,0.03763025254011154,-0.05414995551109314,0.3038334250450134,0.06302639842033386,0.015365508385002613,-0.024253686890006065,0,5,-966,64,16,-23,-1,-10,-67,633210,633.2099609375,0.0,1500.0
07:54:59.886,AUTO,-35.3632648,149.1652325,49293,0.03763025254011154,-0.05414995551109314,0.3038334250450134,0.06302639842033386,0.015365508385002613,-0.024253686890006065,0,5,-966,64,16,-23,-1,-10,-67,633210,633.2099609375,0.0,1500.0
07:55:00.087,AUTO,-35.3632648,149.1652325,49293,0.03763025254011154,-0.05414995551109314,0.3038334250450134,0.06302639842033386,0.015365508385002613,-0.024253686890006065,0,5,-966,64,16,-23,-1,-10,-67,633210,633.2099609375,0.0,1500.0
07:55:00.287,AUTO,-35.3632648,149.1652325,49293,0.03763025254011154,-0.05414995551109314,0.3038334250450134,0.06302639842033386,0.015365508385002613,-0.024253686890006065,0,5,-966,64,16,-23,-1,-10,-67,633210,633.2099609375,0.0,1500.0
07:55:00.488,AUTO,-35.3632642,149.1652328,49720,0.036308612674474716,-0.024995971471071243,0.27777257561683655,0.2575509250164032,0.040899619460105896,-0.03366616368293762,-3,10,-980,260,42,-33,17,20,-46,633640,633.6400146484375,0.0,1500.0
07:55:00.689,ALT_HOLD,-35.3632638,149.1652333,49828,0.034863635897636414,-0.01456222590059042,0.2685578763484955,0.19968950748443604,0.03874565288424492,-0.041756294667720795,-2,-10,-964,198,40,-41,20,26,-39,633740,633.739990234375,0.0,1500.0
07:55:00.890,ALT_HOLD,-35.3632633,149.165234,49920,-0.005897812079638243,0.010954839177429676,0.2601771652698517,-0.6796812415122986,0.13067097961902618,-0.05298204720020294,-5,-35,-968,-680,132,-52,20,27,-34,633840,633.8399658203125,0.0,1500.0
07:55:01.091,ALT_HOLD,-35.3632629,149.1652346,49984,-0.03134690597653389,0.025782130658626556,0.2495066225528717,-0.40138429403305054,0.0288314837962389,-0.04009489715099335,-3,-3,-895,-397,30,-39,16,21,-15,633900,633.8999633789062,0.0,1500.0
07:55:01.291,ALT_HOLD,-35.3632625,149.1652351,49981,-0.02575496770441532,0.02701626531779766,0.24096894264221191,0.6658499836921692,-0.0075319609604775906,-0.03486908599734306,0,43,-852,673,-6,-34,12,14,16,633900,633.8999633789062,0.0,1500.0
07:55:01.492,ALT_HOLD,-35.3632625,149.1652351,49981,-0.02575496770441532,0.02701626531779766,0.24096894264221191,0.6658499836921692,-0.0075319609604775906,-0.03486908599734306,0,43,-852,673,-6,-34,12,14,16,633900,633.8999633789062,0.0,1500.0
07:55:01.693,ALT_HOLD,-35.3632622,149.1652353,49878,-0.013979860581457615,0.024236688390374184,0.23274675011634827,1.365161418914795,-0.011110015213489532,-0.029983147978782654,-2,80,-836,1370,-9,-29,8,7,60,633790,633.7899780273438,0.0,1500.0
07:55:01.893,ALT_HOLD,-35.3632622,149.1652353,49878,-0.013979860581457615,0.024236688390374184,0.23274675011634827,1.365161418914795,-0.011110015213489532,-0.029983147978782654,-2,80,-836,1370,-9,-29,8,7,60,633790,633.7899780273438,0.0,1500.0
07:55:02.094,ALT_HOLD,-35.3632622,149.1652353,49878,-0.013979860581457615,0.024236688390374184,0.23274675011634827,1.365161418914795,-0.011110015213489532,-0.029983147978782654,-2,80,-836,1370,-9,-29,8,7,60,633790,633.7899780273438,0.0,1500.0
07:55:02.295,ALT_HOLD,-35.3632622,149.1652353,49878,-0.013979860581457615,0.024236688390374184,0.23274675011634827,1.365161418914795,-0.011110015213489532,-0.029983147978782654,-2,80,-836,1370,-9,-29,8,7,60,633790,633.7899780273438,0.0,1500.0
07:55:02.495,ALT_HOLD,-35.3632619,149.1652352,49010,-0.024458523839712143,0.013758291490375996,0.2145346701145172,0.19766932725906372,-0.00586442556232214,-0.033573929220438004,-2,69,-905,209,-4,-33,-1,-5,156,632930,632.9299926757812,0.0,1500.0
07:55:02.696,ALT_HOLD,-35.3632619,149.1652351,48585,-0.027689117938280106,0.01088445819914341,0.20794732868671417,-0.9885434508323669,-0.013370630331337452,-0.007841887883841991,0,8,-933,-979,-12,-7,-3,-7,174,632500,632.5,0.0,1500.0
07:55:02.897,ALT_HOLD,-35.3632619,149.165235,48126,-0.026934994384646416,0.009019844233989716,0.20198355615139008,-2.0022993087768555,-0.013838297687470913,-0.007905668579041958,1,-60,-982,-2000,-12,-7,-5,-8,181,632040,632.0399780273438,0.0,1500.0
07:55:03.097,ALT_HOLD,-35.3632621,149.1652348,47652,-0.0009327528532594442,0.007319844327867031,0.19732172787189484,-1.725285291671753,-0.012491920962929726,-0.02996940165758133,1,-114,-981,-1731,-11,-29,-7,-9,184,631570,631.5700073242188,0.0,1500.0
07:55:03.298,ALT_HOLD,-35.3632622,149.1652346,47172,0.014299745671451092,0.005779427941888571,0.19195027649402618,-1.0545014142990112,-0.012139325961470604,-0.04922627657651901,2,-100,-988,-1063,-10,-48,-8,-7,183,631090,631.0899658203125,0.0,1500.0
07:55:03.498,ALT_HOLD,-35.3632622,149.1652346,47172,0.014299745671451092,0.005779427941888571,0.19195027649402618,-1.0545014142990112,-0.012139325961470604,-0.04922627657651901,2,-100,-988,-1063,-10,-48,-8,-7,183,631090,631.0899658203125,0.0,1500.0
07:55:03.700,ALT_HOLD,-35.3632624,149.1652344,46697,0.03089737705886364,0.0049440329894423485,0.18881946802139282,0.05714799091219902,-0.0033305031247437,-0.03458143770694733,2,-60,-986,48,-2,-34,-9,-4,183,630610,630.6099853515625,0.0,1500.0
07:55:03.900,ALT_HOLD,-35.3632624,149.1652344,46697,0.03089737705886364,0.0049440329894423485,0.18881946802139282,0.05714799091219902,-0.0033305031247437,-0.03458143770694733,2,-60,-986,48,-2,-34,-9,-4,183,630610,630.6099853515625,0.0,1500.0
07:55:04.102,ALT_HOLD,-35.3632624,149.1652344,46697,0.03089737705886364,0.0049440329894423485,0.18881946802139282,0.05714799091219902,-0.0033305031247437,-0.03458143770694733,2,-60,-986,48,-2,-34,-9,-4,183,630610,630.6099853515625,0.0,1500.0
07:55:04.303,ALT_HOLD,-35.3632624,149.1652344,46697,0.03089737705886364,0.0049440329894423485,0.18881946802139282,0.05714799091219902,-0.0033305031247437,-0.03458143770694733,2,-60,-986,48,-2,-34,-9,-4,183,630610,630.6099853515625,0.0,1500.0
07:55:04.504,ALT_HOLD,-35.3632632,149.1652346,45297,0.0289778932929039,0.0028183425310999155,0.17218248546123505,2.058202028274536,0.007859021425247192,0.005572597961872816,2,92,-1017,2064,9,6,-11,6,175,629210,629.2099609375,0.0,1500.0
07:55:04.705,ALT_HOLD,-35.3632635,149.1652349,44838,0.016434941440820694,0.0022240877151489258,0.16777735948562622,1.3227306604385376,0.000961845857091248,-0.01575510948896408,1,104,-1007,1333,2,-14,-12,10,173,628750,628.75,0.0,1500.0
07:55:04.906,ALT_HOLD,-35.3632638,149.1652353,44388,-0.006956829689443111,0.0014720429899170995,0.16509872674942017,0.23910437524318695,-0.0017338404431939125,-0.00938801933079958,4,68,-993,250,0,-8,-12,13,172,628300,628.2999877929688,0.0,1500.0
07:55:05.106,ALT_HOLD,-35.3632641,149.1652356,43944,-0.01797790639102459,0.0011570260394364595,0.1608937829732895,-0.5953880548477173,0.003568718209862709,-0.018028661608695984,4,30,-985,-584,5,-17,-11,14,171,627860,627.8599853515625,0.0,1500.0
07:55:05.307,ALT_HOLD,-35.3632644,149.1652361,43503,-0.02355830743908882,0.0010425877990201116,0.15586379170417786,-1.8677648305892944,0.0006116862641647458,-0.019431905820965767,4,-48,-992,-1863,1,-18,-10,13,171,627420,627.4199829101562,0.0,1500.0
07:55:05.507,ALT_HOLD,-35.3632644,149.1652361,43503,-0.02355830743908882,0.0010425877990201116,0.15586379170417786,-1.8677648305892944,0.0006116862641647458,-0.019431905820965767,4,-48,-992,-1863,1,-18,-10,13,171,627420,627.4199829101562,0.0,1500.0
07:55:05.708,AUTO,-35.3632647,149.1652365,43061,-0.021281013265252113,0.0009955790592357516,0.1514115184545517,-2.027308940887451,-0.007823312655091286,-0.010138087905943394,5,-91,-1014,-2029,-6,-9,-10,13,170,626980,626.97998046875,0.0,1500.0
07:55:05.909,AUTO,-35.3632647,149.1652365,43061,-0.021281013265252113,0.0009955790592357516,0.1514115184545517,-2.027308940887451,-0.007823312655091286,-0.010138087905943394,5,-91,-1014,-2029,-6,-9,-10,13,170,626980,626.97998046875,0.0,1500.0
07:55:06.110,AUTO,-35.3632647,149.1652365,43061,-0.021281013265252113,0.0009955790592357516,0.1514115184545517,-2.027308940887451,-0.007823312655091286,-0.010138087905943394,5,-91,-1014,-2029,-6,-9,-10,13,170,626980,626.97998046875,0.0,1500.0
07:55:06.311,AUTO,-35.3632647,149.1652365,43061,-0.021281013265252113,0.0009955790592357516,0.1514115184545517,-2.027308940887451,-0.007823312655091286,-0.010138087905943394,5,-91,-1014,-2029,-6,-9,-10,13,170,626980,626.97998046875,0.0,1500.0
07:55:06.512,AUTO,-35.3632655,149.1652376,41978,-0.013711958192288876,-0.005449152551591396,0.14271950721740723,-1.0120608806610107,-0.008269129320979118,-0.017013350501656532,2,-62,-1086,-1015,-6,-16,-5,9,91,625890,625.8900146484375,0.0,1500.0
07:55:06.712,AUTO,-35.3632657,149.1652378,41772,-0.019010310992598534,-0.006301281042397022,0.13963176310062408,-1.0413012504577637,0.0002916798694059253,-0.018703101202845573,1,-49,-1093,-1042,1,-18,-3,6,67,625690,625.6900024414062,0.0,1500.0
07:55:06.913,AUTO,-35.3632658,149.1652379,41621,-0.017173664644360542,-0.005920440424233675,0.1360020786523819,-0.8950482606887817,0.0038495284970849752,-0.011247131042182446,2,-29,-1073,-893,4,-10,-1,5,50,625540,625.5399780273438,0.0,1500.0
07:55:07.114,AUTO,-35.3632659,149.165238,41517,-0.015599879436194897,-0.005548195447772741,0.1328154057264328,-0.378773957490921,-0.0009764123242348433,-0.010125734843313694,0,1,-1053,-374,0,-9,0,4,33,625430,625.4299926757812,0.0,1500.0
07:55:07.314,AUTO,-35.363266,149.165238,41452,-0.008395538665354252,-0.006030917167663574,0.1300954669713974,0.11103583127260208,0.00025982840452343225,-0.007935409434139729,0,20,-1054,117,1,-7,0,3,20,625370,625.3699951171875,0.0,1500.0
07:55:07.515,AUTO,-35.363266,149.165238,41452,-0.008395538665354252,-0.006030917167663574,0.1300954669713974,0.11103583127260208,0.00025982840452343225,-0.007935409434139729,0,20,-1054,117,1,-7,0,3,20,625370,625.3699951171875,0.0,1500.0
07:55:07.716,AUTO,-35.3632661,149.165238,41420,0.005112288519740105,-0.006045238580554724,0.12731334567070007,0.6284254193305969,-0.0006896768463775516,-0.006432332098484039,1,35,-1057,632,0,-5,1,2,6,625340,625.3399658203125,0.0,1500.0
07:55:07.917,AUTO,-35.3632661,149.165238,41420,0.005112288519740105,-0.006045238580554724,0.12731334567070007,0.6284254193305969,-0.0006896768463775516,-0.006432332098484039,1,35,-1057,632,0,-5,1,2,6,625340,625.3399658203125,0.0,1500.0
07:55:08.117,AUTO,-35.3632661,149.165238,41420,0.005112288519740105,-0.006045238580554724,0.12731334567070007,0.6284254193305969,-0.0006896768463775516,-0.006432332098484039,1,35,-1057,632,0,-5,1,2,6,625340,625.3399658203125,0.0,1500.0
07:55:08.318,AUTO,-35.3632661,149.165238,41420,0.005112288519740105,-0.006045238580554724,0.12731334567070007,0.6284254193305969,-0.0006896768463775516,-0.006432332098484039,1,35,-1057,632,0,-5,1,2,6,625340,625.3399658203125,0.0,1500.0
07:55:08.519,AUTO,-35.3632661,149.165238,41512,-0.002381308237090707,-0.004498658701777458,0.11885671317577362,-0.37705519795417786,0.0037985676899552345,-0.009025628678500652,-1,-23,-1047,-377,4,-8,4,1,-29,625430,625.4299926757812,0.0,1500.0
07:55:08.720,AUTO,-35.3632662,149.165238,41601,-0.0029404701199382544,-0.003828209824860096,0.11631689220666885,-0.22962327301502228,0.004170510917901993,-0.007622500881552696,-1,-5,-1048,-227,5,-6,4,0,-41,625520,625.5199584960938,0.0,1500.0
07:55:08.920,AUTO,-35.3632662,149.1652379,41720,0.0038541248068213463,-0.003280455246567726,0.11381354182958603,0.24923770129680634,0.001688766642473638,-0.006407622247934341,0,17,-1050,252,2,-5,4,1,-53,625640,625.6400146484375,0.0,1500.0
07:55:09.121,AUTO,-35.3632662,149.1652379,41869,0.005679123569279909,-0.003058224217966199,0.11161060631275177,0.1613941788673401,-0.0030746408738195896,-0.0077372328378260136,0,3,-1048,161,-2,-7,4,0,-64,625780,625.7799682617188,0.0,1500.0
07:55:09.322,AUTO,-35.3632662,149.1652379,42049,0.003144623711705208,-0.0028973822481930256,0.10961045324802399,-0.17303939163684845,-0.0020671356469392776,-0.004117728676646948,0,-12,-1045,-173,0,-3,4,0,-76,625960,625.9599609375,0.0,1500.0
07:55:09.522,AUTO,-35.3632662,149.1652379,42049,0.003144623711705208,-0.0028973822481930256,0.10961045324802399,-0.17303939163684845,-0.0020671356469392776,-0.004117728676646948,0,-12,-1045,-173,0,-3,4,0,-76,625960,625.9599609375,0.0,1500.0
07:55:09.723,AUTO,-35.3632662,149.1652377,42259,0.002915943507105112,-0.0030452352948486805,0.10768620669841766,-0.11834108084440231,-0.0009915275732055306,-0.006818651221692562,0,0,-1047,-116,0,-6,4,1,-88,626170,626.1699829101562,0.0,1500.0
07:55:09.924,AUTO,-35.3632662,149.1652377,42259,0.002915943507105112,-0.0030452352948486805,0.10768620669841766,-0.11834108084440231,-0.0009915275732055306,-0.006818651221692562,0,0,-1047,-116,0,-6,4,1,-88,626170,626.1699829101562,0.0,1500.0
07:55:10.124,AUTO,-35.3632662,149.1652377,42259,0.002915943507105112,-0.0030452352948486805,0.10768620669841766,-0.11834108084440231,-0.0009915275732055306,-0.006818651221692562,0,0,-1047,-116,0,-6,4,1,-88,626170,626.1699829101562,0.0,1500.0
07:55:10.325,AUTO,-35.3632662,149.1652377,42259,0.002915943507105112,-0.0030452352948486805,0.10768620669841766,-0.11834108084440231,-0.0009915275732055306,-0.006818651221692562,0,0,-1047,-116,0,-6,4,1,-88,626170,626.1699829101562,0.0,1500.0
07:55:10.526,AUTO,-35.3632662,149.1652373,43205,0.009508385322988033,-0.0030718455091118813,0.10098884999752045,0.006278760265558958,0.0009559703757986426,-0.004576035309582949,-1,1,-1045,7,1,-3,4,4,-127,627120,627.1199951171875,0.0,1500.0
07:55:10.726,AUTO,-35.3632661,149.1652372,43548,0.013253867626190186,-0.002614429220557213,0.0994381532073021,0.039410948753356934,-0.0011102076387032866,-0.0038482523523271084,-1,1,-1035,40,0,-3,4,5,-138,627460,627.4599609375,0.0,1500.0
07:55:10.927,AUTO,-35.3632661,149.1652372,43912,0.024654891341924667,-0.0033030256163328886,0.0984758660197258,0.04797879233956337,-0.004235533997416496,-0.0017962106503546238,0,0,-1015,49,-3,-1,4,8,-143,627830,627.8299560546875,0.0,1500.0
07:55:11.128,AUTO,-35.3632661,149.1652372,43912,0.024654891341924667,-0.0033030256163328886,0.0984758660197258,0.04797879233956337,-0.004235533997416496,-0.0017962106503546238,0,0,-1015,49,-3,-1,4,8,-143,627830,627.8299560546875,0.0,1500.0
07:55:11.329,AUTO,-35.3632661,149.1652372,44285,0.03610903397202492,-0.004298131912946701,0.09798021614551544,0.046650953590869904,-0.005622691009193659,-0.0003554864670149982,0,0,-1006,48,-4,0,4,14,-145,628200,628.2000122070312,0.0,1500.0
07:55:11.529,AUTO,-35.363266,149.1652374,44664,0.04701797664165497,-0.005586333107203245,0.09784482419490814,0.04399581253528595,-0.005967810284346342,0.0009533029515296221,0,-1,-1002,45,-5,1,4,22,-146,628580,628.5799560546875,0.0,1500.0
07:55:11.730,AUTO,-35.3632659,149.1652379,45045,0.05718578025698662,-0.007323899306356907,0.09796126186847687,0.04083126410841942,-0.007901708595454693,0.0017356235766783357,0,-4,-1000,42,-6,2,5,32,-146,628960,628.9599609375,0.0,1500.0
07:55:11.931,AUTO,-35.3632659,149.1652379,45045,0.05718578025698662,-0.007323899306356907,0.09796126186847687,0.04083126410841942,-0.007901708595454693,0.0017356235766783357,0,-4,-1000,42,-6,2,5,32,-146,628960,628.9599609375,0.0,1500.0
07:55:12.131,AUTO,-35.3632659,149.1652379,45045,0.05718578025698662,-0.007323899306356907,0.09796126186847687,0.04083126410841942,-0.007901708595454693,0.0017356235766783357,0,-4,-1000,42,-6,2,5,32,-146,628960,628.9599609375,0.0,1500.0
07:55:12.332,AUTO,-35.3632659,149.1652379,45045,0.05718578025698662,-0.007323899306356907,0.09796126186847687,0.04083126410841942,-0.007901708595454693,0.0017356235766783357,0,-4,-1000,42,-6,2,5,32,-146,628960,628.9599609375,0.0,1500.0
07:55:12.533,AUTO,-35.3632655,149.1652408,46028,0.04532027617096901,0.015430107712745667,0.07110530138015747,-0.14372418820858002,0.09230415523052216,-0.09789629280567169,1,-12,-991,-142,93,-97,6,62,-143,629940,629.9400024414062,0.0,1500.0
07:55:12.734,AUTO,-35.3632654,149.1652423,46400,0.000257896346738562,0.023850617930293083,0.05082843825221062,-0.18858475983142853,-0.011438132263720036,-0.06759875267744064,4,-12,-998,-186,-10,-66,2,63,-142,630320,630.3200073242188,0.0,1500.0
07:55:12.934,AUTO,-35.3632654,149.1652437,46772,-0.043849747627973557,0.01660905033349991,0.03689919784665108,-0.1516137421131134,-0.031939808279275894,-0.04754031077027321,5,-10,-1010,-150,-30,-46,0,52,-144,630690,630.6900024414062,0.0,1500.0
