time_stamp,MODE,lat,lon,relative_alt,roll,pitch,yaw,rollspeed,pitchspeed,yawspeed,xacc,yacc,zacc,xgyro,ygyro,zgyro,vx,vy,vz,LAND_SPEED_HIGH,WPNAV_SPEED_DN,RTL_ALT
20:46:47.266,GUIDED,-35.3632621,149.1652374,13,0.0002832229947671294,0.0013448192039504647,0.02833779901266098,0.00029980542603880167,0.0002391407615505159,0.002589375711977482,0,1,-1000,0,0,0,0,0,-1,0.0,150.0,1500.0
20:46:47.466,GUIDED,-35.3632621,149.1652374,9,0.0003336988447699696,0.001401437446475029,0.028167182579636574,0.0002793616149574518,0.00025946085224859416,0.002545415423810482,0,1,-1000,0,0,0,0,0,0,0.0,150.0,1500.0
20:46:47.667,GUIDED,-35.3632621,149.1652374,5,0.0003716061473824084,0.0014638579450547695,0.027984144166111946,0.00025439372984692454,0.00022066361270844936,0.0023478823713958263,0,2,-1000,0,0,0,0,1,0,0.0,150.0,1500.0
20:46:47.868,GUIDED,-35.3632621,149.1652374,2,0.0004019468033220619,0.0015094586415216327,0.027797793969511986,0.00035568440216593444,0.00029811705462634563,0.0022444636560976505,0,1,-1000,0,0,0,-1,1,0,0.0,150.0,1500.0
20:46:48.069,GUIDED,-35.3632621,149.1652374,2,0.0004019468033220619,0.0015094586415216327,0.027797793969511986,0.00035568440216593444,0.00029811705462634563,0.0022444636560976505,0,1,-1000,0,0,0,-1,1,0,0.0,150.0,1500.0
20:46:48.270,GUIDED,-35.3632621,149.1652374,0,0.0004118229553569108,0.0015438387636095285,0.027611397206783295,0.00037938126479275525,0.0002371165610384196,0.002503168536350131,0,1,-1000,0,0,0,-1,1,0,0.0,150.0,1500.0
20:46:48.471,GUIDED,-35.3632621,149.1652374,0,0.0004189035389572382,0.0015753365587443113,0.027421386912465096,0.00032611461938358843,0.00026629099738784134,0.002303692977875471,0,1,-1000,0,0,0,-1,1,0,0.0,150.0,1500.0
20:46:48.672,GUIDED,-35.3632621,149.1652374,0,0.0004189035389572382,0.0015753365587443113,0.027421386912465096,0.00032611461938358843,0.00026629099738784134,0.002303692977875471,0,1,-1000,0,0,0,-1,1,0,0.0,150.0,1500.0
20:46:48.872,GUIDED,-35.3632621,149.1652374,0,0.0004189035389572382,0.0015753365587443113,0.027421386912465096,0.00032611461938358843,0.00026629099738784134,0.002303692977875471,0,1,-1000,0,0,0,-1,1,0,0.0,150.0,1500.0
20:46:49.073,GUIDED,-35.3632621,149.1652374,0,0.0004189035389572382,0.0015753365587443113,0.027421386912465096,0.00032611461938358843,0.00026629099738784134,0.002303692977875471,0,1,-1000,0,0,0,-1,1,0,0.0,150.0,1500.0
20:46:49.274,GUIDED,-35.3632621,149.1652375,0,0.0003301807737443596,0.0015738210640847683,0.026890307664871216,0.00026927681756205857,0.00041977554792538285,0.002348163165152073,0,1,-1000,0,0,0,-1,2,0,0.0,150.0,1500.0
20:46:49.474,GUIDED,-35.3632621,149.1652375,0,0.0002754037268459797,0.0015544486232101917,0.026723317801952362,0.0002662866027094424,0.00019071687711402774,0.0022428047377616167,0,1,-1000,0,0,0,-2,2,0,0.0,150.0,1500.0
20:46:49.675,GUIDED,-35.3632621,149.1652375,7,0.00019387424981687218,0.0015265006804838777,0.02653990127146244,0.0003062297764699906,0.0003359820693731308,0.0022233002819120884,0,1,-1000,1,0,0,-2,2,0,0.0,150.0,1500.0
20:46:49.876,GUIDED,-35.3632622,149.1652375,6,0.00011066808656323701,0.001480653416365385,0.026402531191706657,0.00024426807067357004,0.0003152136050630361,0.0021223898511379957,0,1,-1000,0,0,0,-2,2,0,0.0,150.0,1500.0
20:46:50.077,GUIDED,-35.3632622,149.1652375,6,0.00011066808656323701,0.001480653416365385,0.026402531191706657,0.00024426807067357004,0.0003152136050630361,0.0021223898511379957,0,1,-1000,0,0,0,-2,2,0,0.0,150.0,1500.0
20:46:50.278,GUIDED,-35.3632622,149.1652375,6,3.615680179791525e-05,0.0014357003383338451,0.026265881955623627,0.00027163702179677784,0.0002346058317925781,0.0023016496561467648,0,1,-1000,0,0,0,-1,2,0,0.0,150.0,1500.0
20:46:50.479,GUIDED,-35.3632622,149.1652375,5,-3.777132587856613e-05,0.0014030324527993798,0.026125075295567513,0.000171137711731717,0.0003681043745018542,0.002205747878178954,0,1,-1000,0,0,0,-1,1,0,0.0,150.0,1500.0
20:46:50.680,GUIDED,-35.3632622,149.1652375,5,-3.777132587856613e-05,0.0014030324527993798,0.026125075295567513,0.000171137711731717,0.0003681043745018542,0.002205747878178954,0,1,-1000,0,0,0,-1,1,0,0.0,150.0,1500.0
20:46:50.881,GUIDED,-35.3632622,149.1652375,5,-3.777132587856613e-05,0.0014030324527993798,0.026125075295567513,0.000171137711731717,0.0003681043745018542,0.002205747878178954,0,1,-1000,0,0,0,-1,1,0,0.0,150.0,1500.0
20:46:51.082,GUIDED,-35.3632622,149.1652375,5,-3.777132587856613e-05,0.0014030324527993798,0.026125075295567513,0.000171137711731717,0.0003681043745018542,0.002205747878178954,0,1,-1000,0,0,0,-1,1,0,0.0,150.0,1500.0
20:46:51.282,GUIDED,-35.3632621,149.1652375,0,0.00025604022084735334,0.001438989071175456,0.02570367231965065,0.00020932292682118714,0.00028256731457076967,0.0020716371946036816,0,1,-1000,0,0,0,0,1,2,0.0,150.0,1500.0
20:46:51.483,GUIDED,-35.3632621,149.1652375,0,0.00026638718554750085,0.001489117625169456,0.025529667735099792,0.00022030947729945183,0.0003099015448242426,0.0021041634026914835,0,1,-1000,0,0,0,0,1,2,0.0,150.0,1500.0
20:46:51.684,GUIDED,-35.3632621,149.1652374,0,0.0002970070345327258,0.0015450834762305021,0.02538084052503109,0.0003940573369618505,0.00023362503270618618,0.0021572699770331383,0,1,-1000,0,0,0,0,0,2,0.0,150.0,1500.0
20:46:51.885,GUIDED,-35.3632621,149.1652374,0,0.00034241160028614104,0.0016160174272954464,0.02523927018046379,0.0002084065054077655,0.00043343185097910464,0.002083379542455077,0,1,-1000,0,0,0,0,0,2,0.0,150.0,1500.0
20:46:52.085,GUIDED,-35.3632621,149.1652374,0,0.00034241160028614104,0.0016160174272954464,0.02523927018046379,0.0002084065054077655,0.00043343185097910464,0.002083379542455077,0,1,-1000,0,0,0,0,0,2,0.0,150.0,1500.0
20:46:52.286,GUIDED,-35.3632621,149.1652374,0,0.0003961152979172766,0.0016734582604840398,0.025073744356632233,0.00031233509071171284,0.00020830114954151213,0.0020456716883927584,0,1,-1000,0,0,1,0,0,2,0.0,150.0,1500.0
20:46:52.487,GUIDED,-35.3632621,149.1652374,0,0.0004504572134464979,0.0017513545462861657,0.02491600625216961,0.00021408603060990572,0.0002983919403050095,0.0020623072050511837,0,2,-1000,0,0,0,0,0,2,0.0,150.0,1500.0
20:46:52.687,GUIDED,-35.3632621,149.1652374,0,0.0004504572134464979,0.0017513545462861657,0.02491600625216961,0.00021408603060990572,0.0002983919403050095,0.0020623072050511837,0,2,-1000,0,0,0,0,0,2,0.0,150.0,1500.0
20:46:52.888,GUIDED,-35.3632621,149.1652374,0,0.0004504572134464979,0.0017513545462861657,0.02491600625216961,0.00021408603060990572,0.0002983919403050095,0.0020623072050511837,0,2,-1000,0,0,0,0,0,2,0.0,150.0,1500.0
20:46:53.089,GUIDED,-35.3632621,149.1652374,0,0.0004504572134464979,0.0017513545462861657,0.02491600625216961,0.00021408603060990572,0.0002983919403050095,0.0020623072050511837,0,2,-1000,0,0,0,0,0,2,0.0,150.0,1500.0
20:46:53.289,GUIDED,-35.3632621,149.1652374,0,0.000621493614744395,0.001965978415682912,0.024439994245767593,0.00033843819983303547,0.00027045380556955934,0.0019644442945718765,0,1,-1000,0,0,0,0,0,1,0.0,150.0,1500.0
20:46:53.490,GUIDED,-35.3632621,149.1652374,0,0.0006855581887066364,0.0020425927359610796,0.024288088083267212,0.00025800985167734325,0.00036887318128719926,0.0019453566055744886,0,1,-1000,1,0,0,0,0,1,0.0,150.0,1500.0
20:46:53.691,GUIDED,-35.3632621,149.1652374,0,0.0007610783795826137,0.002118930919095874,0.02413969486951828,0.0003692230675369501,0.00031612912425771356,0.0019707500468939543,0,1,-1000,0,0,0,0,0,1,0.0,150.0,1500.0
20:46:53.892,GUIDED,-35.3632621,149.1652374,0,0.0008347759721800685,0.0021981883328408003,0.023964188992977142,0.00038815612788312137,0.00020401363144628704,0.0018828290048986673,0,1,-1000,0,0,0,0,0,1,0.0,150.0,1500.0
20:46:54.093,GUIDED,-35.3632621,149.1652374,0,0.0008347759721800685,0.0021981883328408003,0.023964188992977142,0.00038815612788312137,0.00020401363144628704,0.0018828290048986673,0,1,-1000,0,0,0,0,0,1,0.0,150.0,1500.0
20:46:54.293,GUIDED,-35.3632621,149.1652374,0,0.0028098244220018387,0.0002683784405235201,0.02387719415128231,0.007500289939343929,-0.01567680947482586,0.0029921703971922398,0,0,-1133,8,-15,1,0,0,-12,0.0,150.0,1500.0
20:46:54.495,GUIDED,-35.3632621,149.1652374,73,0.004077087622135878,-0.0008918015519157052,0.024004600942134857,-0.002763239201158285,0.0026102764531970024,0.0036334001924842596,0,0,-1139,-2,3,2,0,0,-46,0.0,150.0,1500.0
20:46:54.695,GUIDED,-35.3632621,149.1652374,73,0.004077087622135878,-0.0008918015519157052,0.024004600942134857,-0.002763239201158285,0.0026102764531970024,0.0036334001924842596,0,0,-1139,-2,3,2,0,0,-46,0.0,150.0,1500.0
20:46:54.896,GUIDED,-35.3632621,149.1652374,73,0.004077087622135878,-0.0008918015519157052,0.024004600942134857,-0.002763239201158285,0.0026102764531970024,0.0036334001924842596,0,0,-1139,-2,3,2,0,0,-46,0.0,150.0,1500.0
20:46:55.097,GUIDED,-35.3632621,149.1652374,73,0.004077087622135878,-0.0008918015519157052,0.024004600942134857,-0.002763239201158285,0.0026102764531970024,0.0036334001924842596,0,0,-1139,-2,3,2,0,0,-46,0.0,150.0,1500.0
20:46:55.297,GUIDED,-35.3632621,149.1652374,761,0.0033713248558342457,0.002223703544586897,0.023982129991054535,0.022252889350056648,0.0001659827248658985,0.00123654177878052,0,0,-1076,22,0,0,0,0,-127,0.0,150.0,1500.0
20:46:55.498,GUIDED,-35.363262,149.1652374,1107,0.014183072373270988,0.0011150354985147715,0.023858556523919106,0.04785258695483208,-0.005774925462901592,0.00248955306597054,0,0,-1033,48,-5,1,0,1,-139,0.0,150.0,1500.0
20:46:55.699,GUIDED,-35.363262,149.1652375,1477,0.025969212874770164,-0.0006310447352007031,0.02387876808643341,0.04671142250299454,-0.007365201134234667,0.00313941715285182,0,0,-1014,47,-7,1,1,6,-144,0.0,150.0,1500.0
20:46:55.900,GUIDED,-35.363262,149.1652377,1856,0.037286970764398575,-0.002490663668140769,0.024025559425354004,0.04454612359404564,-0.008048731833696365,0.0035248473286628723,0,-1,-1006,45,-7,2,2,12,-146,0.0,150.0,1500.0
20:46:56.101,GUIDED,-35.363262,149.1652377,1856,0.037286970764398575,-0.002490663668140769,0.024025559425354004,0.04454612359404564,-0.008048731833696365,0.0035248473286628723,0,-1,-1006,45,-7,2,2,12,-146,0.0,150.0,1500.0
20:46:56.301,GUIDED,-35.3632619,149.1652382,2239,0.04803302511572838,-0.004775953944772482,0.024223560467362404,0.04180753231048584,-0.009496176615357399,0.0039020979311317205,1,-3,-1002,42,-9,3,3,22,-147,0.0,150.0,1500.0
20:46:56.502,GUIDED,-35.3632617,149.1652389,2628,0.05810277909040451,-0.007444814313203096,0.02442043460905552,0.038620393723249435,-0.011295512318611145,0.004169597756117582,0,-5,-999,38,-10,3,5,33,-147,0.0,150.0,1500.0
20:46:56.703,GUIDED,-35.3632617,149.1652389,2628,0.05810277909040451,-0.007444814313203096,0.02442043460905552,0.038620393723249435,-0.011295512318611145,0.004169597756117582,0,-5,-999,38,-10,3,5,33,-147,0.0,150.0,1500.0
20:46:56.903,GUIDED,-35.3632617,149.1652389,2628,0.05810277909040451,-0.007444814313203096,0.02442043460905552,0.038620393723249435,-0.011295512318611145,0.004169597756117582,0,-5,-999,38,-10,3,5,33,-147,0.0,150.0,1500.0
20:46:57.105,GUIDED,-35.3632617,149.1652389,2628,0.05810277909040451,-0.007444814313203096,0.02442043460905552,0.038620393723249435,-0.011295512318611145,0.004169597756117582,0,-5,-999,38,-10,3,5,33,-147,0.0,150.0,1500.0
20:46:57.305,GUIDED,-35.3632611,149.1652427,3761,-0.005833472590893507,0.02442753314971924,-0.05423121526837349,-0.12368325144052505,0.0010888800024986267,-0.06883788853883743,5,-9,-1009,-123,1,-69,5,54,-144,0.0,150.0,1500.0
20:46:57.506,GUIDED,-35.3632609,149.1652441,4140,-0.024196213111281395,0.020266897976398468,-0.06724534928798676,-0.04344143718481064,-0.01884124055504799,-0.053296614438295364,6,-10,-1009,-43,-18,-54,2,46,-146,0.0,150.0,1500.0
20:46:57.707,GUIDED,-35.3632609,149.1652452,4524,-0.030758464708924294,0.015242967754602432,-0.07783707976341248,-0.01449408195912838,-0.016419904306530952,-0.04389382153749466,4,-8,-1005,-14,-16,-44,0,36,-148,0.0,150.0,1500.0
20:46:57.908,GUIDED,-35.3632609,149.165246,4910,-0.0369160994887352,0.010352670215070248,-0.08619818091392517,-0.05134829878807068,-0.022741906344890594,-0.025857949629426003,4,-6,-998,-50,-22,-26,-2,26,-149,0.0,150.0,1500.0
20:46:58.111,GUIDED,-35.3632609,149.165246,4910,-0.0369160994887352,0.010352670215070248,-0.08619818091392517,-0.05134829878807068,-0.022741906344890594,-0.025857949629426003,4,-6,-998,-50,-22,-26,-2,26,-149,0.0,150.0,1500.0
20:46:58.312,GUIDED,-35.3632609,149.1652466,5296,-0.0543505921959877,0.0026159905828535557,-0.08973189443349838,-0.07904893159866333,-0.03377046808600426,-0.009360539726912975,3,-4,-998,-78,-33,-10,-3,13,-148,0.0,150.0,1500.0
20:46:58.513,GUIDED,-35.3632609,149.1652467,5679,-0.0740618035197258,-0.005545746069401503,-0.08979939669370651,-0.07525086402893066,-0.03047926537692547,0.00242838473059237,2,0,-999,-74,-30,1,-3,-3,-147,0.0,150.0,1500.0
20:46:58.714,GUIDED,-35.3632609,149.1652467,5679,-0.0740618035197258,-0.005545746069401503,-0.08979939669370651,-0.07525086402893066,-0.03047926537692547,0.00242838473059237,2,0,-999,-74,-30,1,-3,-3,-147,0.0,150.0,1500.0
20:46:58.915,GUIDED,-35.3632609,149.1652467,5679,-0.0740618035197258,-0.005545746069401503,-0.08979939669370651,-0.07525086402893066,-0.03047926537692547,0.00242838473059237,2,0,-999,-74,-30,1,-3,-3,-147,0.0,150.0,1500.0
20:46:59.116,GUIDED,-35.3632609,149.1652467,5679,-0.0740618035197258,-0.005545746069401503,-0.08979939669370651,-0.07525086402893066,-0.03047926537692547,0.00242838473059237,2,0,-999,-74,-30,1,-3,-3,-147,0.0,150.0,1500.0
20:46:59.317,GUIDED,-35.3632611,149.1652443,6829,-0.04731240123510361,-0.008348149247467518,-0.09488653391599655,0.059931617230176926,0.0061212037689983845,-0.0012433924712240696,-6,8,-1001,60,6,-2,-2,-52,-148,0.0,150.0,1500.0
20:46:59.518,GUIDED,-35.3632612,149.1652427,7212,-0.03165462985634804,-0.006066225003451109,-0.09542778879404068,0.0643405169248581,0.011971830390393734,0.0013939798809587955,-7,12,-1002,64,12,0,-2,-60,-148,0.0,150.0,1500.0
20:46:59.719,GUIDED,-35.3632612,149.165241,7596,-0.01537507027387619,-0.002723928540945053,-0.09549008309841156,0.06720449775457382,0.014721359126269817,0.0023506167344748974,-7,12,-1003,67,15,1,-2,-63,-149,0.0,150.0,1500.0
20:46:59.920,GUIDED,-35.3632613,149.1652392,7982,0.001301538199186325,0.001085688709281385,-0.09513592720031738,0.067547507584095,0.0158837903290987,0.003504331223666668,-7,13,-1004,68,16,2,-4,-63,-150,0.0,150.0,1500.0
20:47:00.121,GUIDED,-35.3632614,149.1652375,8375,0.018153158947825432,0.0049592722207307816,-0.09435659646987915,0.06710583716630936,0.014893417246639729,0.003934284672141075,-7,9,-1004,67,15,2,-5,-58,-151,0.0,150.0,1500.0
20:47:00.323,GUIDED,-35.3632614,149.1652375,8375,0.018153158947825432,0.0049592722207307816,-0.09435659646987915,0.06710583716630936,0.014893417246639729,0.003934284672141075,-7,9,-1004,67,15,2,-5,-58,-151,0.0,150.0,1500.0
20:47:00.524,GUIDED,-35.3632616,149.1652359,8766,0.034701794385910034,0.008284486830234528,-0.09332363307476044,0.06523192673921585,0.012359821237623692,0.004779714159667492,-6,13,-1004,65,12,3,-7,-50,-152,0.0,150.0,1500.0
20:47:00.724,GUIDED,-35.3632616,149.1652359,8766,0.034701794385910034,0.008284486830234528,-0.09332363307476044,0.06523192673921585,0.012359821237623692,0.004779714159667492,-6,13,-1004,65,12,3,-7,-50,-152,0.0,150.0,1500.0
20:47:00.926,GUIDED,-35.3632616,149.1652359,8766,0.034701794385910034,0.008284486830234528,-0.09332363307476044,0.06523192673921585,0.012359821237623692,0.004779714159667492,-6,13,-1004,65,12,3,-7,-50,-152,0.0,150.0,1500.0
20:47:01.127,GUIDED,-35.3632616,149.1652359,8766,0.034701794385910034,0.008284486830234528,-0.09332363307476044,0.06523192673921585,0.012359821237623692,0.004779714159667492,-6,13,-1004,65,12,3,-7,-50,-152,0.0,150.0,1500.0
20:47:01.329,GUIDED,-35.3632622,149.1652334,9944,0.08041883260011673,0.011307833716273308,-0.08964251726865768,0.055184606462717056,-0.004832196515053511,0.005537793971598148,0,4,-1000,55,-4,4,-12,-3,-152,0.0,150.0,1500.0
20:47:01.530,GUIDED,-35.3632625,149.1652335,10336,0.0809534564614296,-0.0003629385610111058,-0.0802445188164711,-0.06611210107803345,-0.07689505815505981,0.056903935968875885,1,0,-989,-65,-76,56,-11,16,-150,0.0,150.0,1500.0
20:47:01.731,GUIDED,-35.3632627,149.165234,10720,0.052057139575481415,-0.013660697266459465,-0.07221228629350662,-0.14115123450756073,-0.022472666576504707,0.01981712505221367,4,-2,-992,-140,-21,18,-6,30,-147,0.0,150.0,1500.0
20:47:01.931,GUIDED,-35.3632628,149.1652349,11100,0.018720876425504684,-0.014284067787230015,-0.07227839529514313,-0.11863262951374054,0.00939673651009798,-0.013371318578720093,5,-7,-1001,-118,9,-14,0,36,-147,0.0,150.0,1500.0
20:47:02.132,GUIDED,-35.3632628,149.1652358,11480,-0.005671990569680929,-0.01056744996458292,-0.07890869677066803,-0.08335229009389877,0.01645796187222004,-0.03283090144395828,5,-6,-1005,-82,16,-33,4,34,-148,0.0,150.0,1500.0
20:47:02.332,GUIDED,-35.3632628,149.1652358,11480,-0.005671990569680929,-0.01056744996458292,-0.07890869677066803,-0.08335229009389877,0.01645796187222004,-0.03283090144395828,5,-6,-1005,-82,16,-33,4,34,-148,0.0,150.0,1500.0
20:47:02.533,GUIDED,-35.3632627,149.1652366,11864,-0.021506475284695625,-0.007000857964158058,-0.0885983258485794,-0.045206550508737564,0.011521606706082821,-0.040268223732709885,2,-7,-1005,-44,12,-41,6,27,-149,0.0,150.0,1500.0
20:47:02.734,GUIDED,-35.3632627,149.1652366,11864,-0.021506475284695625,-0.007000857964158058,-0.0885983258485794,-0.045206550508737564,0.011521606706082821,-0.040268223732709885,2,-7,-1005,-44,12,-41,6,27,-149,0.0,150.0,1500.0
20:47:02.935,GUIDED,-35.3632627,149.1652366,11864,-0.021506475284695625,-0.007000857964158058,-0.0885983258485794,-0.045206550508737564,0.011521606706082821,-0.040268223732709885,2,-7,-1005,-44,12,-41,6,27,-149,0.0,150.0,1500.0
20:47:03.136,GUIDED,-35.3632627,149.1652366,11864,-0.021506475284695625,-0.007000857964158058,-0.0885983258485794,-0.045206550508737564,0.011521606706082821,-0.040268223732709885,2,-7,-1005,-44,12,-41,6,27,-149,0.0,150.0,1500.0
20:47:03.337,GUIDED,-35.3632621,149.1652378,13027,-0.02569151110947132,-0.0005708643002435565,-0.1201658770442009,0.02352016232907772,0.009519137442111969,-0.03632359579205513,-1,-2,-1002,24,9,-37,8,1,-152,0.0,150.0,1500.0
20:47:03.538,GUIDED,-35.3632619,149.1652377,13418,-0.01913806051015854,0.0018285621190443635,-0.12968853116035461,0.029204130172729492,0.011448631063103676,-0.0352761447429657,-2,-1,-1000,29,12,-36,8,-5,-152,0.0,150.0,1500.0
20:47:03.739,GUIDED,-35.3632618,149.1652375,13817,-0.010928595438599586,0.004392514005303383,-0.13814182579517365,0.03357556089758873,0.010426773689687252,-0.030056439340114594,-2,0,-1000,34,11,-30,6,-10,-152,0.0,150.0,1500.0
20:47:03.939,GUIDED,-35.3632616,149.1652372,14209,-0.0029946148861199617,0.006626273039728403,-0.1449594348669052,0.03141194209456444,0.0076362378895282745,-0.02234608680009842,-2,0,-1000,32,8,-23,4,-12,-152,0.0,150.0,1500.0
20:47:04.140,GUIDED,-35.3632615,149.1652368,14600,0.003421349450945854,0.008080427534878254,-0.15018489956855774,0.022775352001190186,0.006329183932393789,-0.01726631633937359,-3,1,-1000,23,6,-18,2,-12,-152,0.0,150.0,1500.0
20:47:04.341,GUIDED,-35.3632615,149.1652368,14600,0.003421349450945854,0.008080427534878254,-0.15018489956855774,0.022775352001190186,0.006329183932393789,-0.01726631633937359,-3,1,-1000,23,6,-18,2,-12,-152,0.0,150.0,1500.0
20:47:04.542,GUIDED,-35.3632614,149.1652364,14992,0.008615774102509022,0.00913647748529911,-0.15417663753032684,0.020571064203977585,0.003604940138757229,-0.013151477091014385,-3,2,-1000,21,4,-14,1,-11,-152,0.0,150.0,1500.0
20:47:04.742,GUIDED,-35.3632614,149.1652364,14992,0.008615774102509022,0.00913647748529911,-0.15417663753032684,0.020571064203977585,0.003604940138757229,-0.013151477091014385,-3,2,-1000,21,4,-14,1,-11,-152,0.0,150.0,1500.0
20:47:04.944,GUIDED,-35.3632614,149.1652364,14992,0.008615774102509022,0.00913647748529911,-0.15417663753032684,0.020571064203977585,0.003604940138757229,-0.013151477091014385,-3,2,-1000,21,4,-14,1,-11,-152,0.0,150.0,1500.0
20:47:05.145,GUIDED,-35.3632614,149.1652364,14992,0.008615774102509022,0.00913647748529911,-0.15417663753032684,0.020571064203977585,0.003604940138757229,-0.013151477091014385,-3,2,-1000,21,4,-14,1,-11,-152,0.0,150.0,1500.0
20:47:05.346,GUIDED,-35.3632614,149.1652357,16157,0.014094063080847263,0.00814481545239687,-0.15994583070278168,2.0309409592300653e-05,-0.0018938547000288963,-0.007767583709210157,-1,1,-999,0,-1,-8,-3,-3,-152,0.0,150.0,1500.0
20:47:05.548,GUIDED,-35.3632614,149.1652356,16545,0.013484028168022633,0.007202209439128637,-0.16107553243637085,-0.0031593770254403353,-0.005086250137537718,-0.0039934273809194565,0,1,-999,-2,-4,-4,-4,0,-152,0.0,150.0,1500.0
20:47:05.749,GUIDED,-35.3632614,149.1652355,16935,0.012022984214127064,0.006179265212267637,-0.16252431273460388,-0.005538005381822586,-0.0040979404002428055,-0.005657249130308628,0,0,-1000,-4,-3,-6,-4,2,-152,0.0,150.0,1500.0
20:47:05.949,GUIDED,-35.3632615,149.1652355,17324,0.010197196155786514,0.005364280194044113,-0.16452230513095856,-0.008258362300693989,-0.0034760520793497562,-0.010036728344857693,0,0,-1000,-7,-2,-10,-4,3,-152,0.0,150.0,1500.0
20:47:06.150,GUIDED,-35.3632615,149.1652355,17714,0.00842650979757309,0.0047266194596886635,-0.167144313454628,-0.005289778113365173,-0.0010103728855028749,-0.012411783449351788,0,0,-1000,-4,0,-13,-4,5,-152,0.0,150.0,1500.0
20:47:06.350,GUIDED,-35.3632615,149.1652355,17714,0.00842650979757309,0.0047266194596886635,-0.167144313454628,-0.005289778113365173,-0.0010103728855028749,-0.012411783449351788,0,0,-1000,-4,0,-13,-4,5,-152,0.0,150.0,1500.0
20:47:06.551,GUIDED,-35.3632616,149.1652356,18112,0.006985897663980722,0.004393630661070347,-0.17046219110488892,-0.0029471074230968952,-0.0014089479809626937,-0.012887966819107533,0,0,-1000,-2,0,-13,-4,5,-152,0.0,150.0,1500.0
20:47:06.752,GUIDED,-35.3632616,149.1652356,18112,0.006985897663980722,0.004393630661070347,-0.17046219110488892,-0.0029471074230968952,-0.0014089479809626937,-0.012887966819107533,0,0,-1000,-2,0,-13,-4,5,-152,0.0,150.0,1500.0
20:47:06.952,GUIDED,-35.3632616,149.1652356,18112,0.006985897663980722,0.004393630661070347,-0.17046219110488892,-0.0029471074230968952,-0.0014089479809626937,-0.012887966819107533,0,0,-1000,-2,0,-13,-4,5,-152,0.0,150.0,1500.0
20:47:07.154,GUIDED,-35.3632616,149.1652356,18112,0.006985897663980722,0.004393630661070347,-0.17046219110488892,-0.0029471074230968952,-0.0014089479809626937,-0.012887966819107533,0,0,-1000,-2,0,-13,-4,5,-152,0.0,150.0,1500.0
20:47:07.355,GUIDED,-35.3632617,149.1652358,19282,0.003947871271520853,0.0029648905619978905,-0.1822439730167389,9.213242447003722e-05,0.0005073566571809351,-0.017468765377998352,0,0,-1000,0,1,-18,-3,6,-152,0.0,150.0,1500.0
20:47:07.556,GUIDED,-35.3632617,149.1652359,19672,0.0035680592991411686,0.002835642546415329,-0.18685723841190338,-0.0019442586926743388,-1.1671276297420263e-05,-0.01848761737346649,0,0,-1000,-1,0,-19,-3,5,-152,0.0,150.0,1500.0
20:47:07.757,GUIDED,-35.3632618,149.165236,20063,0.003222865518182516,0.0027788872830569744,-0.19170016050338745,-0.003823415609076619,-8.884113049134612e-05,-0.0187989454716444,0,0,-1000,-2,0,-19,-3,5,-152,0.0,150.0,1500.0
20:47:07.958,GUIDED,-35.3632618,149.1652361,20452,0.0027282319497317076,0.002739663701504469,-0.19677439332008362,-0.0011414559558033943,0.0010642576962709427,-0.02207176201045513,0,0,-1000,0,1,-23,-2,5,-153,0.0,150.0,1500.0
20:47:08.159,GUIDED,-35.3632618,149.1652362,20842,0.00257280794903636,0.002882612170651555,-0.20201434195041656,0.0004942349623888731,0.0018807088490575552,-0.020869208499789238,0,0,-1000,1,2,-21,-2,4,-153,0.0,150.0,1500.0
20:47:08.359,GUIDED,-35.3632618,149.1652362,20842,0.00257280794903636,0.002882612170651555,-0.20201434195041656,0.0004942349623888731,0.0018807088490575552,-0.020869208499789238,0,0,-1000,1,2,-21,-2,4,-153,0.0,150.0,1500.0
20:47:08.561,GUIDED,-35.3632618,149.1652362,21233,0.0026936233043670654,0.0030156143475323915,-0.2072879672050476,-0.0006456281407736242,0.0021935964468866587,-0.02177126333117485,0,0,-1000,0,2,-22,-2,4,-153,0.0,150.0,1500.0
20:47:08.762,GUIDED,-35.3632618,149.1652362,21233,0.0026936233043670654,0.0030156143475323915,-0.2072879672050476,-0.0006456281407736242,0.0021935964468866587,-0.02177126333117485,0,0,-1000,0,2,-22,-2,4,-153,0.0,150.0,1500.0
20:47:08.963,GUIDED,-35.3632618,149.1652362,21233,0.0026936233043670654,0.0030156143475323915,-0.2072879672050476,-0.0006456281407736242,0.0021935964468866587,-0.02177126333117485,0,0,-1000,0,2,-22,-2,4,-153,0.0,150.0,1500.0
20:47:09.164,GUIDED,-35.3632618,149.1652362,21233,0.0026936233043670654,0.0030156143475323915,-0.2072879672050476,-0.0006456281407736242,0.0021935964468866587,-0.02177126333117485,0,0,-1000,0,2,-22,-2,4,-153,0.0,150.0,1500.0
20:47:09.365,GUIDED,-35.3632618,149.1652363,22404,0.0034153384622186422,0.0032008420675992966,-0.22273990511894226,0.0011793194571509957,0.002540190936997533,-0.021942444145679474,0,0,-1000,1,2,-22,-2,3,-153,0.0,150.0,1500.0
20:47:09.566,GUIDED,-35.3632618,149.1652364,22798,0.0034705966245383024,0.0034922338090837,-0.22807340323925018,-0.0013249543262645602,0.0016282456927001476,-0.021487543359398842,0,0,-999,0,2,-22,-2,3,-153,0.0,150.0,1500.0
20:47:09.767,GUIDED,-35.3632618,149.1652364,23187,0.0032113795168697834,0.003609809558838606,-0.23321302235126495,-0.0029272104147821665,4.782358882948756e-05,-0.02015259861946106,0,0,-999,-2,0,-21,-2,3,-153,0.0,150.0,1500.0
20:47:09.968,GUIDED,-35.3632618,149.1652365,23578,0.00319975265301764,0.003638481954112649,-0.2384299635887146,-0.0009924478363245726,0.0013777369167655706,-0.021962551400065422,0,0,-1000,0,1,-22,-2,3,-153,0.0,150.0,1500.0
20:47:10.169,GUIDED,-35.3632618,149.1652365,23968,0.0031292519997805357,0.003433485748246312,-0.2433103770017624,3.8914557080715895e-05,0.0007715564570389688,-0.01978503167629242,0,0,-1000,0,1,-20,-2,3,-153,0.0,150.0,1500.0
20:47:10.370,GUIDED,-35.3632618,149.1652365,23968,0.0031292519997805357,0.003433485748246312,-0.2433103770017624,3.8914557080715895e-05,0.0007715564570389688,-0.01978503167629242,0,0,-1000,0,1,-20,-2,3,-153,0.0,150.0,1500.0
20:47:10.570,GUIDED,-35.3632619,149.1652365,24357,0.003121856600046158,0.0033370673190802336,-0.2481239140033722,0.001121446955949068,0.00033807760337367654,-0.017238635569810867,0,0,-1000,1,1,-17,-2,3,-153,0.0,150.0,1500.0
20:47:10.771,GUIDED,-35.3632619,149.1652365,24357,0.003121856600046158,0.0033370673190802336,-0.2481239140033722,0.001121446955949068,0.00033807760337367654,-0.017238635569810867,0,0,-1000,1,1,-17,-2,3,-153,0.0,150.0,1500.0
20:47:10.972,GUIDED,-35.3632619,149.1652365,24357,0.003121856600046158,0.0033370673190802336,-0.2481239140033722,0.001121446955949068,0.00033807760337367654,-0.017238635569810867,0,0,-1000,1,1,-17,-2,3,-153,0.0,150.0,1500.0
20:47:11.173,GUIDED,-35.3632619,149.1652365,24357,0.003121856600046158,0.0033370673190802336,-0.2481239140033722,0.001121446955949068,0.00033807760337367654,-0.017238635569810867,0,0,-1000,1,1,-17,-2,3,-153,0.0,150.0,1500.0
20:47:11.374,GUIDED,-35.363262,149.1652366,25910,-0.003957628738135099,0.0036578928120434284,-0.262149840593338,0.04263957589864731,0.005849348846822977,-0.00016650027828291059,0,0,-1004,19,4,-11,-3,-3,-153,0.0,150.0,1500.0
20:47:11.575,GUIDED,-35.363262,149.1652366,25910,-0.003957628738135099,0.0036578928120434284,-0.262149840593338,0.04263957589864731,0.005849348846822977,-0.00016650027828291059,0,0,-1002,43,6,-1,-3,-3,-153,0.0,150.0,1500.0
20:47:11.776,GUIDED,-35.3632621,149.1652365,26301,0.005313027650117874,0.004395431373268366,-0.2601411044597626,0.030887344852089882,0.00013693131040781736,0.014218910597264767,0,0,-1000,31,0,13,-4,-3,-153,0.0,150.0,1500.0
20:47:11.977,GUIDED,-35.3632621,149.1652364,26692,0.011144659481942654,0.0042024897411465645,-0.2558777928352356,0.019854137673974037,0.0007932531298138201,0.019432099536061287,0,1,-999,20,1,18,-4,-1,-153,0.0,150.0,1500.0
20:47:12.178,GUIDED,-35.3632622,149.1652363,27081,0.013735571876168251,0.004093032795935869,-0.2503052353858948,0.005172043107450008,-0.0011721726041287184,0.025043994188308716,0,0,-999,5,0,24,-4,1,-153,0.0,150.0,1500.0
20:47:12.378,GUIDED,-35.3632623,149.1652363,27475,0.013804208487272263,0.0035747827496379614,-0.24423152208328247,-0.0015587941743433475,-0.0007035107119008899,0.02490508183836937,0,0,-999,0,0,23,-3,4,-153,0.0,150.0,1500.0
20:47:12.579,GUIDED,-35.3632623,149.1652363,27475,0.013804208487272263,0.0035747827496379614,-0.24423152208328247,-0.0015587941743433475,-0.0007035107119008899,0.02490508183836937,0,0,-999,0,0,23,-3,4,-153,0.0,150.0,1500.0
20:47:12.780,GUIDED,-35.3632623,149.1652363,27475,0.013804208487272263,0.0035747827496379614,-0.24423152208328247,-0.0015587941743433475,-0.0007035107119008899,0.02490508183836937,0,0,-999,0,0,23,-3,4,-153,0.0,150.0,1500.0
20:47:12.980,GUIDED,-35.3632623,149.1652363,27475,0.013804208487272263,0.0035747827496379614,-0.24423152208328247,-0.0015587941743433475,-0.0007035107119008899,0.02490508183836937,0,0,-999,0,0,23,-3,4,-153,0.0,150.0,1500.0
20:47:13.181,GUIDED,-35.3632623,149.1652363,27475,0.013804208487272263,0.0035747827496379614,-0.24423152208328247,-0.0015587941743433475,-0.0007035107119008899,0.02490508183836937,0,0,-999,0,0,23,-3,4,-153,0.0,150.0,1500.0
20:47:13.382,GUIDED,-35.3632623,149.1652369,29023,0.004893280565738678,0.002521074842661619,-0.22049687802791595,-0.00803292728960514,0.0029945557471364737,0.02223872020840645,0,-1,-1000,-7,3,21,-1,9,-152,0.0,150.0,1500.0
20:47:13.583,GUIDED,-35.3632623,149.1652369,29023,0.004893280565738678,0.002521074842661619,-0.22049687802791595,-0.00803292728960514,0.0029945557471364737,0.02223872020840645,0,-1,-1000,-7,3,21,-1,9,-152,0.0,150.0,1500.0
20:47:13.783,GUIDED,-35.3632623,149.1652371,29410,0.003303469391539693,0.002699795179069042,-0.21510405838489532,-0.00591374421492219,0.0009310548193752766,0.022458968684077263,0,-1,-1000,-4,1,21,-1,9,-152,0.0,150.0,1500.0
20:47:13.984,GUIDED,-35.3632623,149.1652373,29798,0.001791495829820633,0.0026895501650869846,-0.20980913937091827,-0.003947258926928043,-0.0008791459258645773,0.02198939397931099,0,-1,-1000,-3,0,21,0,9,-152,0.0,150.0,1500.0
20:47:14.185,GUIDED,-35.3632623,149.1652375,30187,0.00033226163941435516,0.0023913197219371796,-0.20461545884609222,-0.0061346739530563354,0.00015901308506727219,0.021406682208180428,1,-1,-1000,-5,0,20,0,8,-152,0.0,150.0,1500.0
20:47:14.385,GUIDED,-35.3632623,149.1652377,30576,-0.000544568698387593,0.0023066115099936724,-0.1997157335281372,-0.002778050722554326,-0.0020185494795441628,0.01975436881184578,0,-1,-1001,-1,-1,19,0,7,-152,0.0,150.0,1500.0
20:47:14.586,GUIDED,-35.3632623,149.1652377,30576,-0.000544568698387593,0.0023066115099936724,-0.1997157335281372,-0.002778050722554326,-0.0020185494795441628,0.01975436881184578,0,-1,-1001,-1,-1,19,0,7,-152,0.0,150.0,1500.0
20:47:14.787,GUIDED,-35.3632623,149.1652377,30576,-0.000544568698387593,0.0023066115099936724,-0.1997157335281372,-0.002778050722554326,-0.0020185494795441628,0.01975436881184578,0,-1,-1001,-1,-1,19,0,7,-152,0.0,150.0,1500.0
20:47:14.988,GUIDED,-35.3632623,149.1652377,30576,-0.000544568698387593,0.0023066115099936724,-0.1997157335281372,-0.002778050722554326,-0.0020185494795441628,0.01975436881184578,0,-1,-1001,-1,-1,19,0,7,-152,0.0,150.0,1500.0
20:47:15.190,GUIDED,-35.3632623,149.1652377,30576,-0.000544568698387593,0.0023066115099936724,-0.1997157335281372,-0.002778050722554326,-0.0020185494795441628,0.01975436881184578,0,-1,-1001,-1,-1,19,0,7,-152,0.0,150.0,1500.0
20:47:15.391,GUIDED,-35.3632623,149.1652381,32134,-0.0006579059991054237,0.0013573949690908194,-0.18199868500232697,0.0006244491087272763,0.000700932287145406,0.017665686085820198,0,0,-1000,1,1,17,0,3,-153,0.0,150.0,1500.0
20:47:15.592,GUIDED,-35.3632623,149.1652381,32134,-0.0006579059991054237,0.0013573949690908194,-0.18199868500232697,0.0006244491087272763,0.000700932287145406,0.017665686085820198,0,0,-1000,1,1,17,0,3,-153,0.0,150.0,1500.0
20:47:15.793,GUIDED,-35.3632623,149.1652381,32523,-0.00019748958584386855,0.0012235300382599235,-0.17806196212768555,0.0039001626428216696,-0.0004841643385589123,0.01761573925614357,0,0,-1000,4,0,17,0,2,-153,0.0,150.0,1500.0
20:47:15.994,GUIDED,-35.3632623,149.1652381,32912,0.0003880437870975584,0.0011818399652838707,-0.17415371537208557,0.004039555788040161,0.0019084886880591512,0.017052164301276207,0,0,-999,4,2,16,0,1,-153,0.0,150.0,1500.0
20:47:16.195,GUIDED,-35.3632623,149.1652381,33301,0.0008809700957499444,0.0012080357410013676,-0.17037352919578552,-0.0011224988847970963,0.0004899616469629109,0.014684177935123444,0,0,-1000,0,1,14,0,0,-153,0.0,150.0,1500.0
20:47:16.396,GUIDED,-35.3632623,149.1652381,33690,0.0013626664876937866,0.001184410648420453,-0.16700057685375214,0.003963025286793709,0.002173834713175893,0.014558129012584686,0,0,-1000,5,2,14,0,0,-153,0.0,150.0,1500.0
20:47:16.596,GUIDED,-35.3632623,149.1652381,33690,0.0013626664876937866,0.001184410648420453,-0.16700057685375214,0.003963025286793709,0.002173834713175893,0.014558129012584686,0,0,-1000,5,2,14,0,0,-153,0.0,150.0,1500.0
20:47:16.797,GUIDED,-35.3632623,149.1652381,33690,0.0013626664876937866,0.001184410648420453,-0.16700057685375214,0.003963025286793709,0.002173834713175893,0.014558129012584686,0,0,-1000,5,2,14,0,0,-153,0.0,150.0,1500.0
20:47:16.998,GUIDED,-35.3632623,149.1652381,33690,0.0013626664876937866,0.001184410648420453,-0.16700057685375214,0.003963025286793709,0.002173834713175893,0.014558129012584686,0,0,-1000,5,2,14,0,0,-153,0.0,150.0,1500.0
20:47:17.199,GUIDED,-35.3632623,149.1652381,33690,0.0013626664876937866,0.001184410648420453,-0.16700057685375214,0.003963025286793709,0.002173834713175893,0.014558129012584686,0,0,-1000,5,2,14,0,0,-153,0.0,150.0,1500.0
20:47:17.400,GUIDED,-35.3632623,149.165238,35242,0.002246192889288068,0.0008845547563396394,-0.15370382368564606,0.0012754956260323524,-0.0004414076101966202,0.012157944962382317,0,0,-1001,2,0,11,0,0,-153,0.0,150.0,1500.0
20:47:17.601,GUIDED,-35.3632623,149.165238,35242,0.002246192889288068,0.0008845547563396394,-0.15370382368564606,0.0012754956260323524,-0.0004414076101966202,0.012157944962382317,0,0,-1001,2,0,11,0,0,-153,0.0,150.0,1500.0
20:47:17.801,GUIDED,-35.3632623,149.1652379,35631,0.0023230479564517736,0.000896535930223763,-0.15064796805381775,-0.0024848193861544132,0.0010913049336522818,0.012858454138040543,0,0,-999,-1,1,12,0,0,-153,0.0,150.0,1500.0
20:47:18.002,GUIDED,-35.3632623,149.1652379,36018,0.0024006441235542297,0.0009118952439166605,-0.14791107177734375,0.004598083905875683,0.0002550582867115736,0.013540116138756275,0,0,-1001,5,1,13,0,0,-153,0.0,150.0,1500.0
20:47:18.203,GUIDED,-35.3632622,149.1652378,36407,0.0025096458848565817,0.0009434980456717312,-0.14521200954914093,0.0008912372286431491,0.00039524573367089033,0.008474139496684074,0,0,-1000,1,1,8,0,0,-153,0.0,150.0,1500.0
20:47:18.404,GUIDED,-35.3632622,149.1652378,36800,0.0026550060138106346,0.0009699241491034627,-0.14257514476776123,6.294652121141553e-05,0.00032821681816130877,0.013890179805457592,0,0,-999,0,1,13,0,0,-153,0.0,150.0,1500.0
20:47:19.022,GUIDED,-35.3632622,149.1652378,36800,0.0026550060138106346,0.0009699241491034627,-0.14257514476776123,6.294652121141553e-05,0.00032821681816130877,0.013890179805457592,0,0,-999,0,1,13,0,0,-153,0.0,150.0,1500.0
20:47:19.222,GUIDED,-35.3632622,149.1652378,36800,0.0026550060138106346,0.0009699241491034627,-0.14257514476776123,6.294652121141553e-05,0.00032821681816130877,0.013890179805457592,0,0,-999,0,1,13,0,0,-153,0.0,150.0,1500.0
20:47:19.423,GUIDED,-35.3632622,149.1652378,36800,0.0026550060138106346,0.0009699241491034627,-0.14257514476776123,6.294652121141553e-05,0.00032821681816130877,0.013890179805457592,0,0,-999,0,1,13,0,0,-153,0.0,150.0,1500.0
20:47:19.624,GUIDED,-35.3632622,149.1652378,36800,0.0026550060138106346,0.0009699241491034627,-0.14257514476776123,6.294652121141553e-05,0.00032821681816130877,0.013890179805457592,0,0,-999,0,1,13,0,0,-153,0.0,150.0,1500.0
20:47:19.825,GUIDED,-35.3632622,149.1652376,38353,0.003574189031496644,0.0008934365469031036,-0.1326064020395279,0.004802015610039234,0.00029629311757162213,0.01245880126953125,0,0,-1000,5,1,12,0,0,-153,0.0,150.0,1500.0
20:47:20.026,GUIDED,-35.3632622,149.1652376,38353,0.003574189031496644,0.0008934365469031036,-0.1326064020395279,0.004802015610039234,0.00029629311757162213,0.01245880126953125,0,0,-1000,5,1,12,0,0,-153,0.0,150.0,1500.0
20:47:20.227,GUIDED,-35.3632622,149.1652376,38741,0.0033980412408709526,0.0009715649648569524,-0.1303221732378006,-0.0018232311122119427,-3.816664684563875e-05,0.009621696546673775,0,0,-1000,0,0,9,0,0,-153,0.0,150.0,1500.0
20:47:20.428,GUIDED,-35.3632622,149.1652375,39130,0.0031208426225930452,0.0010959458304569125,-0.12797078490257263,-0.0008489723550155759,0.00013438391033560038,0.01086020190268755,0,0,-1000,0,0,10,0,0,-153,0.0,150.0,1500.0
20:47:20.629,GUIDED,-35.3632622,149.1652375,39519,0.003097567241638899,0.001445049769245088,-0.12561438977718353,-0.001093333587050438,0.002825628500431776,0.0079885795712471,0,0,-1000,0,3,7,0,0,-153,0.0,150.0,1500.0
20:47:20.830,GUIDED,-35.3632621,149.1652375,39907,0.002922342624515295,0.0015033268136903644,-0.12368933856487274,-0.00018781074322760105,-0.00047940260265022516,0.009302457794547081,0,0,-1000,0,0,8,0,0,-153,0.0,150.0,1500.0
20:47:21.031,GUIDED,-35.3632621,149.1652375,39907,0.002922342624515295,0.0015033268136903644,-0.12368933856487274,-0.00018781074322760105,-0.00047940260265022516,0.009302457794547081,0,0,-1000,0,0,8,0,0,-153,0.0,150.0,1500.0
20:47:21.231,GUIDED,-35.3632621,149.1652375,39907,0.002922342624515295,0.0015033268136903644,-0.12368933856487274,-0.00018781074322760105,-0.00047940260265022516,0.009302457794547081,0,0,-1000,0,0,8,0,0,-153,0.0,150.0,1500.0
20:47:21.432,GUIDED,-35.3632621,149.1652375,39907,0.002922342624515295,0.0015033268136903644,-0.12368933856487274,-0.00018781074322760105,-0.00047940260265022516,0.009302457794547081,0,0,-1000,0,0,8,0,0,-153,0.0,150.0,1500.0
20:47:21.633,GUIDED,-35.3632621,149.1652374,41073,0.0027851478662341833,0.0017732795095071197,-0.11827011406421661,0.00392577052116394,0.0016038063913583755,0.008964791893959045,0,0,-1000,0,0,8,0,0,-153,0.0,150.0,1500.0
20:47:21.834,GUIDED,-35.3632621,149.1652374,41465,0.0027149501256644726,0.0018202993087470531,-0.11648006737232208,-0.0030072196386754513,0.00028577109333127737,0.0065676006488502026,0,0,-1000,-2,1,6,0,0,-153,0.0,150.0,1500.0
20:47:22.035,GUIDED,-35.3632621,149.1652374,41465,0.0027149501256644726,0.0018202993087470531,-0.11648006737232208,-0.0030072196386754513,0.00028577109333127737,0.0065676006488502026,0,0,-1000,-2,1,6,0,0,-153,0.0,150.0,1500.0
20:47:22.235,GUIDED,-35.3632621,149.1652374,41854,0.0026594791561365128,0.001656064298003912,-0.11468838155269623,0.0004263726295903325,-0.001427855109795928,0.00862350594252348,0,0,-1000,1,0,8,0,0,-153,0.0,150.0,1500.0
20:47:22.436,GUIDED,-35.3632621,149.1652374,42243,0.0026182159781455994,0.001349548576399684,-0.11302904784679413,0.002232387661933899,-0.0006096394499763846,0.009581230580806732,0,0,-1000,2,0,9,0,0,-153,0.0,150.0,1500.0
20:47:22.637,GUIDED,-35.3632621,149.1652374,42631,0.002882528817281127,0.0015802141278982162,-0.111299529671669,0.00042503175791352987,0.0028813837561756372,0.006005577277392149,0,0,-1000,1,3,5,-1,1,-153,0.0,150.0,1500.0
20:47:22.838,GUIDED,-35.3632621,149.1652374,43020,0.0029842706862837076,0.0015098319854587317,-0.10949801653623581,-0.0004028100520372391,-0.0007948944112285972,0.007225909270346165,0,0,-1000,0,0,6,-1,1,-153,0.0,150.0,1500.0
20:47:23.039,GUIDED,-35.3632621,149.1652374,43020,0.0029842706862837076,0.0015098319854587317,-0.10949801653623581,-0.0004028100520372391,-0.0007948944112285972,0.007225909270346165,0,0,-1000,0,0,6,-1,1,-153,0.0,90.0,1500.0
20:47:23.240,GUIDED,-35.3632621,149.1652374,43020,0.0029842706862837076,0.0015098319854587317,-0.10949801653623581,-0.0004028100520372391,-0.0007948944112285972,0.007225909270346165,0,0,-1000,0,0,6,-1,1,-153,0.0,90.0,1500.0
20:47:23.441,GUIDED,-35.3632621,149.1652374,43020,0.0029842706862837076,0.0015098319854587317,-0.10949801653623581,-0.0004028100520372391,-0.0007948944112285972,0.007225909270346165,0,0,-1000,0,0,6,-1,1,-153,0.0,90.0,1500.0
20:47:23.642,GUIDED,-35.363262,149.1652374,44185,0.002446610014885664,0.0014148341724649072,-0.10512275993824005,-0.0031775033567100763,3.117125015705824e-05,0.005839534569531679,0,0,-999,-2,0,5,-1,1,-153,0.0,90.0,1500.0
20:47:23.842,GUIDED,-35.363262,149.1652373,44574,0.0024884676095098257,0.001398479100316763,-0.10344728082418442,0.0007424189825542271,0.00216089328750968,0.007740451022982597,0,0,-999,1,2,7,-1,1,-153,0.0,90.0,1500.0
20:47:24.043,GUIDED,-35.363262,149.1652373,44962,0.0023638056591153145,0.001251343754120171,-0.10199009627103806,-0.002016997430473566,-0.002702584257349372,0.0076823849231004715,0,0,-999,1,2,7,-1,1,-153,0.0,90.0,1500.0
20:47:24.244,GUIDED,-35.363262,149.1652373,44962,0.0023638056591153145,0.001251343754120171,-0.10199009627103806,-0.002016997430473566,-0.002702584257349372,0.0076823849231004715,0,0,-1000,-1,-1,7,-1,1,-153,0.0,90.0,1500.0
20:47:24.444,GUIDED,-35.363262,149.1652373,45350,0.002303880173712969,0.0012115808203816414,-0.10054686665534973,-0.00013936072355136275,0.0012074977857992053,0.0076405806466937065,0,0,-1000,0,2,7,-1,1,-153,0.0,90.0,1500.0
20:47:24.645,GUIDED,-35.363262,149.1652373,45740,0.0023255436681210995,0.0012239479692652822,-0.09914927929639816,0.002156234346330166,0.0005513289361260831,0.006842242553830147,0,0,-1000,3,1,6,-1,1,-153,0.0,90.0,1500.0
20:47:24.846,GUIDED,-35.363262,149.1652373,46129,0.0022356791887432337,0.0012113861739635468,-0.09767968207597733,-0.0012398767285048962,0.0008131684153340757,0.007531533017754555,0,0,-999,0,1,7,-1,1,-153,0.0,90.0,1500.0
20:47:25.047,GUIDED,-35.363262,149.1652373,46129,0.0022356791887432337,0.0012113861739635468,-0.09767968207597733,-0.0012398767285048962,0.0008131684153340757,0.007531533017754555,0,0,-999,0,1,7,-1,1,-153,0.0,90.0,1500.0
20:47:25.248,GUIDED,-35.363262,149.1652373,46129,0.0022356791887432337,0.0012113861739635468,-0.09767968207597733,-0.0012398767285048962,0.0008131684153340757,0.007531533017754555,0,0,-999,0,1,7,-1,1,-153,0.0,90.0,1500.0
20:47:25.449,GUIDED,-35.363262,149.1652373,46129,0.0022356791887432337,0.0012113861739635468,-0.09767968207597733,-0.0012398767285048962,0.0008131684153340757,0.007531533017754555,0,0,-999,0,1,7,-1,1,-153,0.0,90.0,1500.0
20:47:25.651,GUIDED,-35.363262,149.1652373,46129,0.0022356791887432337,0.0012113861739635468,-0.09767968207597733,-0.0012398767285048962,0.0008131684153340757,0.007531533017754555,0,0,-999,0,1,7,-1,1,-153,0.0,90.0,1500.0
20:47:25.853,GUIDED,-35.363262,149.1652373,47683,0.002413401613011956,0.0010306634940207005,-0.09212440997362137,-0.0013349424116313457,-0.00039610464591532946,0.006153163965791464,0,0,-1000,0,0,6,-1,1,-153,0.0,90.0,1500.0
20:47:26.054,GUIDED,-35.363262,149.1652373,48071,0.00242948392406106,0.001002946519292891,-0.09077905863523483,-0.001274268375709653,0.0010172215988859534,0.007402665913105011,0,0,-999,0,1,7,-1,1,-152,90.0,90.0,1500.0
20:47:26.255,GUIDED,-35.363262,149.1652373,48071,0.00242948392406106,0.001002946519292891,-0.09077905863523483,-0.001274268375709653,0.0010172215988859534,0.007402665913105011,0,0,-999,0,1,7,-1,1,-152,90.0,90.0,1500.0
20:47:26.455,GUIDED,-35.363262,149.1652373,48468,0.0024135911371558905,0.000962603953666985,-0.0896606370806694,0.002333913929760456,-0.0003553161513991654,0.004581649787724018,0,0,-1001,3,0,4,-1,1,-153,90.0,90.0,1500.0
20:47:26.656,GUIDED,-35.363262,149.1652373,48857,0.002972796792164445,0.0009922432946041226,-0.08846472203731537,0.005756826605647802,0.001447402173653245,0.0052442364394664764,0,0,-1001,6,2,5,-1,1,-153,90.0,90.0,1500.0
20:47:26.857,GUIDED,-35.363262,149.1652373,49246,0.003101001027971506,0.0010511241853237152,-0.08718821406364441,-0.004706091247498989,0.0005231197574175894,0.007006362080574036,0,0,-999,-3,1,6,-1,1,-152,90.0,90.0,1500.0
20:47:27.058,GUIDED,-35.363262,149.1652373,49246,0.003101001027971506,0.0010511241853237152,-0.08718821406364441,-0.004706091247498989,0.0005231197574175894,0.007006362080574036,0,0,-999,-3,1,6,-1,1,-152,90.0,90.0,1500.0
20:47:27.260,GUIDED,-35.363262,149.1652373,49246,0.003101001027971506,0.0010511241853237152,-0.08718821406364441,-0.004706091247498989,0.0005231197574175894,0.007006362080574036,0,0,-999,-3,1,6,-1,1,-152,90.0,90.0,1500.0
20:47:27.462,GUIDED,-35.363262,149.1652373,49246,0.003101001027971506,0.0010511241853237152,-0.08718821406364441,-0.004706091247498989,0.0005231197574175894,0.007006362080574036,0,0,-999,-3,1,6,-1,1,-152,90.0,90.0,1500.0
20:47:27.664,GUIDED,-35.363262,149.1652373,49246,0.003101001027971506,0.0010511241853237152,-0.08718821406364441,-0.004706091247498989,0.0005231197574175894,0.007006362080574036,0,0,-999,-3,1,6,-1,1,-152,90.0,90.0,1500.0
20:47:27.865,GUIDED,-35.363262,149.1652372,50793,0.002663510851562023,0.0014001488452777267,-0.08175382763147354,0.0019745738245546818,0.0011562370928004384,0.007082998752593994,0,0,-1000,2,2,7,-1,1,-152,90.0,90.0,1500.0
20:47:28.066,GUIDED,-35.363262,149.1652372,51181,0.0026962400879710913,0.0013934129383414984,-0.08048849552869797,-0.0016846552025526762,-0.0018552474211901426,0.0057907551527023315,0,0,-1000,0,0,6,-1,1,-152,90.0,90.0,1500.0
20:47:28.267,GUIDED,-35.363262,149.1652372,51181,0.0026962400879710913,0.0013934129383414984,-0.08048849552869797,-0.0016846552025526762,-0.0018552474211901426,0.0057907551527023315,0,0,-1000,0,0,6,-1,1,-152,90.0,90.0,1500.0
20:47:28.468,GUIDED,-35.363262,149.1652372,51568,0.0025523679796606302,0.0009820421691983938,-0.07928229868412018,0.00034164218232035637,-0.002109880791977048,0.005834813229739666,0,0,-1000,1,-1,5,-1,1,-152,90.0,90.0,1500.0
20:47:28.669,GUIDED,-35.363262,149.1652372,51957,0.0026271899696439505,0.0009693802567198873,-0.0781714916229248,0.0006978390738368034,0.0008990247151814401,0.005119895562529564,0,0,-1000,1,1,5,-1,1,-152,90.0,90.0,1500.0
20:47:28.870,GUIDED,-35.363262,149.1652372,52346,0.002535407431423664,0.0008182805613614619,-0.07717473804950714,-0.0015112576074898243,0.00034844200126826763,0.003921155817806721,0,0,-1000,0,1,4,-1,1,-152,90.0,90.0,1500.0
20:47:29.071,LAND,-35.363262,149.1652372,52346,0.002535407431423664,0.0008182805613614619,-0.07717473804950714,-0.0015112576074898243,0.00034844200126826763,0.003921155817806721,0,0,-1000,0,1,4,-1,1,-152,90.0,90.0,1500.0
20:47:29.273,LAND,-35.363262,149.1652372,52346,0.002535407431423664,0.0008182805613614619,-0.07717473804950714,-0.0015112576074898243,0.00034844200126826763,0.003921155817806721,0,0,-1000,0,1,4,-1,1,-152,90.0,90.0,1500.0
20:47:29.474,LAND,-35.363262,149.1652372,52346,0.002535407431423664,0.0008182805613614619,-0.07717473804950714,-0.0015112576074898243,0.00034844200126826763,0.003921155817806721,0,0,-1000,0,1,4,-1,1,-152,90.0,90.0,1500.0
20:47:29.674,LAND,-35.363262,149.1652372,53520,0.0017536513041704893,0.0009319632081314921,-0.07405636459589005,0.0010293049272149801,-0.00020622514421120286,0.008612739853560925,0,0,-1000,1,0,9,-1,1,-152,90.0,90.0,1500.0
20:47:29.875,LAND,-35.363262,149.1652372,53909,0.0017009787261486053,0.0009214968886226416,-0.07316359877586365,0.0037804171442985535,0.001012840191833675,0.006404511630535126,0,0,-1000,4,1,6,-1,1,-152,90.0,90.0,1500.0
20:47:30.111,LAND,-35.363262,149.1652372,54295,-0.004626643378287554,0.006429847329854965,-0.059978973120450974,-0.09101054072380066,0.08434398472309113,0.17860427498817444,0,-1,-962,-90,85,178,-1,0,-149,90.0,90.0,1500.0
20:47:30.312,LAND,-35.363262,149.1652372,54660,-0.041651152074337006,0.04749953746795654,0.034963179379701614,-0.19736163318157196,0.1814233958721161,0.5667663216590881,-1,-1,-952,-195,182,567,-7,-4,-137,90.0,90.0,1500.0
20:47:30.513,LAND,-35.363262,149.1652372,54660,-0.041651152074337006,0.04749953746795654,0.034963179379701614,-0.19736163318157196,0.1814233958721161,0.5667663216590881,-1,-1,-952,-195,182,567,-7,-4,-137,90.0,90.0,1500.0
20:47:30.714,LAND,-35.3632623,149.1652369,54992,-0.0668862983584404,0.0788126289844513,0.1809820979833603,-0.03583705425262451,-0.06008245795965195,0.47496047616004944,2,4,-907,-34,-59,475,-20,-20,-119,90.0,90.0,1500.0
20:47:30.915,LAND,-35.3632628,149.1652361,55267,-0.047271549701690674,0.03797532990574837,0.2712318003177643,0.11112919449806213,-0.2311752587556839,0.26181358098983765,4,7,-906,112,-230,262,-30,-34,-95,90.0,90.0,1500.0
20:47:31.117,LAND,-35.3632628,149.1652361,55267,-0.047271549701690674,0.03797532990574837,0.2712318003177643,0.11112919449806213,-0.2311752587556839,0.26181358098983765,4,7,-906,112,-230,262,-30,-34,-95,260.0,90.0,1500.0
20:47:31.318,LAND,-35.3632628,149.1652361,55267,-0.047271549701690674,0.03797532990574837,0.2712318003177643,0.11112919449806213,-0.2311752587556839,0.26181358098983765,4,7,-906,112,-230,262,-30,-34,-95,260.0,90.0,1500.0
20:47:31.519,LAND,-35.3632628,149.1652361,55267,-0.047271549701690674,0.03797532990574837,0.2712318003177643,0.11112919449806213,-0.2311752587556839,0.26181358098983765,4,7,-906,112,-230,262,-30,-34,-95,260.0,90.0,1500.0
20:47:31.721,LAND,-35.3632645,149.1652331,55757,0.02689097635447979,-0.05687875300645828,0.34538573026657104,0.13667546212673187,-0.028852717950940132,0.010392003692686558,0,8,-929,137,-27,10,-13,-27,-34,260.0,90.0,1500.0
20:47:31.921,LAND,-35.3632647,149.1652325,55824,0.02860313467681408,-0.05839056149125099,0.34273213148117065,-0.5054148435592651,0.015948902815580368,-0.01753072626888752,0,-18,-933,-504,17,-17,-3,-15,-17,260.0,90.0,1500.0
20:47:32.122,LAND,-35.3632647,149.1652322,55843,0.03328143432736397,-0.05290471389889717,0.3355126976966858,-0.3166367709636688,0.029400579631328583,-0.0295303575694561,-2,8,-914,-313,30,-29,4,-2,3,260.0,90.0,1500.0
20:47:32.324,LAND,-35.3632645,149.1652322,55816,0.04301003739237785,-0.04233603551983833,0.32626092433929443,0.498576283454895,0.05112522840499878,-0.031139085069298744,-1,45,-941,501,52,-30,11,10,16,260.0,90.0,1500.0
20:47:32.524,LAND,-35.3632645,149.1652322,55816,0.04301003739237785,-0.04233603551983833,0.32626092433929443,0.498576283454895,0.05112522840499878,-0.031139085069298744,-1,45,-941,501,52,-30,11,10,16,260.0,90.0,1500.0
20:47:32.725,LAND,-35.3632642,149.1652326,55759,0.045763447880744934,-0.029415791854262352,0.314853310585022,0.9469067454338074,0.04170405492186546,-0.03934980556368828,-1,44,-977,949,42,-38,16,19,26,260.0,90.0,1500.0
20:47:32.925,LAND,-35.3632638,149.165233,55674,0.04348990321159363,-0.01839965023100376,0.3049938380718231,1.0126152038574219,0.035466019064188004,-0.039388127624988556,-3,36,-1001,1014,36,-39,19,26,36,260.0,90.0,1500.0
20:47:33.126,LAND,-35.3632638,149.165233,55674,0.04348990321159363,-0.01839965023100376,0.3049938380718231,1.0126152038574219,0.035466019064188004,-0.039388127624988556,-3,36,-1001,1014,36,-39,19,26,36,260.0,90.0,1500.0
20:47:33.327,LAND,-35.3632638,149.165233,55674,0.04348990321159363,-0.01839965023100376,0.3049938380718231,1.0126152038574219,0.035466019064188004,-0.039388127624988556,-3,36,-1001,1014,36,-39,19,26,36,260.0,90.0,1500.0
20:47:33.528,LAND,-35.3632638,149.165233,55674,0.04348990321159363,-0.01839965023100376,0.3049938380718231,1.0126152038574219,0.035466019064188004,-0.039388127624988556,-3,36,-1001,1014,36,-39,19,26,36,260.0,90.0,1500.0
20:47:33.729,LAND,-35.3632625,149.1652354,55288,0.028286758810281754,0.00726660480722785,0.27617692947387695,0.61994469165802,0.023854685947299004,-0.03112979047000408,-1,-3,-943,619,24,-30,18,31,65,260.0,90.0,1500.0
20:47:33.930,LAND,-35.3632621,149.1652362,55110,0.018763745203614235,0.011639140546321869,0.26772475242614746,0.8250080347061157,0.006275116465985775,-0.027070393785834312,-1,-7,-919,823,7,-26,16,29,76,260.0,90.0,1500.0
20:47:34.130,LAND,-35.3632617,149.1652369,54903,0.02176027186214924,0.01368720643222332,0.26016607880592346,0.947613000869751,-0.006934089120477438,-0.049717046320438385,-1,-2,-996,946,-6,-49,13,26,81,260.0,90.0,1500.0
20:47:34.331,LAND,-35.3632614,149.1652375,54668,0.026008285582065582,0.016021285206079483,0.2513764500617981,1.5003985166549683,0.005077767185866833,-0.02210637927055359,0,34,-932,1500,6,-21,10,23,101,260.0,90.0,1500.0
20:47:34.532,LAND,-35.3632614,149.1652375,54668,0.026008285582065582,0.016021285206079483,0.2513764500617981,1.5003985166549683,0.005077767185866833,-0.02210637927055359,0,34,-932,1500,6,-21,10,23,101,260.0,90.0,1500.0
20:47:34.733,LAND,-35.3632612,149.1652381,54366,0.023375967517495155,0.016665924340486526,0.2437351793050766,1.9056118726730347,-0.0033284607343375683,-0.020812073722481728,0,65,-862,1906,-2,-20,7,22,132,260.0,90.0,1500.0
20:47:34.934,LAND,-35.363261,149.1652387,53970,0.02311265654861927,0.01646381802856922,0.2354724407196045,2.1217026710510254,-0.0034307013265788555,-0.015667948871850967,0,94,-857,2125,-2,-15,4,20,172,260.0,90.0,1500.0
20:47:35.135,LAND,-35.363261,149.1652387,53970,0.02311265654861927,0.01646381802856922,0.2354724407196045,2.1217026710510254,-0.0034307013265788555,-0.015667948871850967,0,94,-857,2125,-2,-15,4,20,172,260.0,90.0,1500.0
20:47:35.338,LAND,-35.363261,149.1652387,53970,0.02311265654861927,0.01646381802856922,0.2354724407196045,2.1217026710510254,-0.0034307013265788555,-0.015667948871850967,0,94,-857,2125,-2,-15,4,20,172,260.0,90.0,1500.0
20:47:35.541,LAND,-35.363261,149.1652387,53970,0.02311265654861927,0.01646381802856922,0.2354724407196045,2.1217026710510254,-0.0034307013265788555,-0.015667948871850967,0,94,-857,2125,-2,-15,4,20,172,260.0,90.0,1500.0
20:47:35.744,LAND,-35.3632611,149.1652402,52420,-0.043880220502614975,0.010023385286331177,0.21767979860305786,-1.8757262229919434,-0.020404115319252014,-0.01388451736420393,5,-45,-1034,-1872,-19,-13,-1,12,206,380.0,90.0,1500.0
20:47:35.945,LAND,-35.3632611,149.1652406,51891,-0.04058494418859482,0.00812583602964878,0.21076515316963196,-2.3096420764923096,-0.022020231932401657,-0.01342487707734108,1,-104,-1022,-2310,-20,-13,-2,6,200,380.0,90.0,1500.0
20:47:36.146,LAND,-35.3632612,149.1652408,51354,-0.03066343441605568,0.004842502996325493,0.20553365349769592,-1.438581109046936,-0.006497526075690985,-0.028306761756539345,2,-94,-822,-1440,-5,-27,-2,1,220,380.0,90.0,1500.0
20:47:36.347,LAND,-35.3632613,149.165241,50735,-0.0030572477262467146,0.0022236069198697805,0.19896207749843597,-0.870599091053009,-0.028560085222125053,-0.0257418230175972,5,-97,-908,-874,-27,-25,-2,-2,252,380.0,90.0,1500.0
20:47:36.547,LAND,-35.3632615,149.1652411,50060,0.011994739063084126,-9.513229451840743e-05,0.1913391351699829,0.18521034717559814,-0.041122473776340485,-0.044530320912599564,5,-97,-908,-874,-27,-25,-2,-3,268,380.0,90.0,1500.0
20:47:36.749,LAND,-35.3632615,149.1652411,50060,0.011994739063084126,-9.513229451840743e-05,0.1913391351699829,0.18521034717559814,-0.041122473776340485,-0.044530320912599564,5,-48,-943,181,-39,-44,-2,-3,268,380.0,90.0,1500.0
20:47:36.949,LAND,-35.3632616,149.1652412,49360,0.014151298440992832,-0.002989275846630335,0.1868123859167099,1.007680892944336,-0.0417366586625576,-0.006834250874817371,2,-10,-966,1004,-40,-6,-2,-3,273,380.0,90.0,1500.0
20:47:37.150,LAND,-35.3632616,149.1652412,49360,0.014151298440992832,-0.002989275846630335,0.1868123859167099,1.007680892944336,-0.0417366586625576,-0.006834250874817371,2,-10,-966,1004,-40,-6,-2,-3,273,380.0,90.0,1500.0
20:47:37.351,LAND,-35.3632616,149.1652412,49360,0.014151298440992832,-0.002989275846630335,0.1868123859167099,1.007680892944336,-0.0417366586625576,-0.006834250874817371,2,-10,-966,1004,-40,-6,-2,-3,273,380.0,90.0,1500.0
20:47:37.552,LAND,-35.3632616,149.1652412,49360,0.014151298440992832,-0.002989275846630335,0.1868123859167099,1.007680892944336,-0.0417366586625576,-0.006834250874817371,2,-10,-966,1004,-40,-6,-2,-3,273,380.0,90.0,1500.0
20:47:37.752,LAND,-35.363262,149.1652406,47234,0.013986104167997837,-0.00642643915489316,0.17226742208003998,2.278036594390869,0.00018158508464694023,-0.01609141007065773,0,114,-1022,2280,1,-15,0,-12,272,380.0,90.0,1500.0
20:47:37.953,LAND,-35.3632622,149.1652403,46533,0.005960224196314812,-0.007389070000499487,0.1680939793586731,1.916390299797058,0.0031828084029257298,-0.0061605507507920265,-1,120,-1035,1920,4,-5,1,-12,267,380.0,90.0,1500.0
20:47:38.154,LAND,-35.3632622,149.16524,45831,-0.03484204411506653,-0.00846126675605774,0.16330614686012268,0.8511396050453186,-0.006379513535648584,-0.023027878254652023,-1,101,-1016,857,-5,-22,2,-15,266,380.0,90.0,1500.0
20:47:38.355,LAND,-35.3632623,149.1652396,45146,-0.007512659765779972,-0.008317220024764538,0.1575814187526703,-0.4978103041648865,0.010858853347599506,-0.02220381237566471,0,39,-1017,-492,11,-21,3,-14,262,380.0,90.0,1500.0
20:47:38.556,LAND,-35.3632623,149.1652392,44469,-0.024400250986218452,-0.008238326758146286,0.15473271906375885,-1.401161789894104,-0.005121544003486633,0.008490139618515968,-2,3,-989,-1396,-4,8,3,-10,259,380.0,90.0,1500.0
20:47:38.757,LAND,-35.3632623,149.1652392,44469,-0.024400250986218452,-0.008238326758146286,0.15473271906375885,-1.401161789894104,-0.005121544003486633,0.008490139618515968,-2,3,-989,-1396,-4,8,3,-10,259,380.0,90.0,1500.0
20:47:38.958,LAND,-35.3632625,149.1652389,43799,-0.033170100301504135,-0.009040400385856628,0.15132911503314972,-2.0937752723693848,-0.010731684044003487,-0.005943207070231438,-1,-57,-984,-2091,-9,-5,4,-10,257,380.0,90.0,1500.0
20:47:39.161,LAND,-35.3632625,149.1652389,43799,-0.033170100301504135,-0.009040400385856628,0.15132911503314972,-2.0937752723693848,-0.010731684044003487,-0.005943207070231438,-1,-57,-984,-2091,-9,-5,4,-10,257,380.0,90.0,1500.0
20:47:39.363,LAND,-35.3632625,149.1652389,43799,-0.033170100301504135,-0.009040400385856628,0.15132911503314972,-2.0937752723693848,-0.010731684044003487,-0.005943207070231438,-1,-57,-984,-2091,-9,-5,4,-10,257,380.0,90.0,1500.0
20:47:39.565,LAND,-35.3632625,149.1652389,43799,-0.033170100301504135,-0.009040400385856628,0.15132911503314972,-2.0937752723693848,-0.010731684044003487,-0.005943207070231438,-1,-57,-984,-2091,-9,-5,4,-10,257,380.0,90.0,1500.0
20:47:39.767,LAND,-35.3632625,149.1652375,41828,0.04080962762236595,-0.010618445463478565,0.13990628719329834,-0.5483130812644958,-0.011844581924378872,-0.00901230052113533,-1,-77,-978,-552,-11,-8,4,-4,250,380.0,90.0,1500.0
20:47:39.969,LAND,-35.3632625,149.1652369,41179,0.04559037834405899,-0.010317136533558369,0.13635465502738953,0.7983542084693909,-0.007053947541862726,-0.019381852820515633,-3,-25,-980,795,-6,-18,4,0,250,380.0,90.0,1500.0
20:47:40.170,LAND,-35.3632624,149.1652364,40534,0.06546362489461899,-0.009596050716936588,0.1332227885723114,1.5917481184005737,-0.005539861042052507,-0.003012274391949177,-3,22,-991,1590,-4,-2,4,3,248,100.0,90.0,1500.0
20:47:40.371,LAND,-35.3632624,149.1652357,39906,0.052167102694511414,-0.008287989534437656,0.13563589751720428,2.171245574951172,0.0195339173078537,0.03161108121275902,-4,97,-1274,2173,20,32,4,10,223,100.0,90.0,1500.0
20:47:40.572,LAND,-35.3632623,149.1652352,39492,0.02484283223748207,-0.006119897589087486,0.1299615055322647,0.6110245585441589,-0.0007420870824716985,-0.013483264483511448,-4,34,-1484,613,0,-12,4,13,84,100.0,90.0,1500.0
20:47:40.772,LAND,-35.3632623,149.1652352,39492,0.02484283223748207,-0.006119897589087486,0.1299615055322647,0.6110245585441589,-0.0007420870824716985,-0.013483264483511448,-4,34,-1484,613,0,-12,4,13,84,100.0,90.0,1500.0
20:47:40.973,LAND,-35.3632622,149.1652344,39331,0.033884137868881226,-0.006322220433503389,0.12599478662014008,0.4724693298339844,-0.011292745359241962,-0.009123936295509338,-4,15,-1210,472,-10,-8,4,14,31,100.0,90.0,1500.0
20:47:41.174,LAND,-35.3632622,149.1652344,39331,0.033884137868881226,-0.006322220433503389,0.12599478662014008,0.4724693298339844,-0.011292745359241962,-0.009123936295509338,-4,15,-1210,472,-10,-8,4,14,31,100.0,90.0,1500.0
20:47:41.375,LAND,-35.3632622,149.1652344,39331,0.033884137868881226,-0.006322220433503389,0.12599478662014008,0.4724693298339844,-0.011292745359241962,-0.009123936295509338,-4,15,-1210,472,-10,-8,4,14,31,100.0,90.0,1500.0
20:47:41.576,LAND,-35.3632622,149.1652344,39331,0.033884137868881226,-0.006322220433503389,0.12599478662014008,0.4724693298339844,-0.011292745359241962,-0.009123936295509338,-4,15,-1210,472,-10,-8,4,14,31,100.0,90.0,1500.0
