time_stamp,MODE,lat,lon,relative_alt,roll,pitch,yaw,rollspeed,pitchspeed,yawspeed,xacc,yacc,zacc,xgyro,ygyro,zgyro,vx,vy,vz,RTL_ALT
06:49:27.607,STABILIZE,-35.3632621,149.1652374,29,0.00014894797641318291,0.0014321055496111512,0.029707418754696846,0.00029337877640500665,0.0003191450086887926,0.002374802716076374,0,1,-1000,0,0,0,0,0,1,1500.0
06:49:27.808,STABILIZE,-35.3632621,149.1652374,29,0.00014894797641318291,0.0014321055496111512,0.029707418754696846,0.00029337877640500665,0.0003191450086887926,0.002374802716076374,0,1,-1000,0,0,0,0,0,1,1500.0
06:49:28.009,STABILIZE,-35.3632621,149.1652374,29,0.00014894797641318291,0.0014321055496111512,0.029707418754696846,0.00029337877640500665,0.0003191450086887926,0.002374802716076374,0,1,-1000,0,0,0,0,0,1,1500.0
06:49:28.209,STABILIZE,-35.3632621,149.1652374,29,0.00014894797641318291,0.0014321055496111512,0.029707418754696846,0.00029337877640500665,0.0003191450086887926,0.002374802716076374,0,1,-1000,0,0,0,0,0,1,1500.0
06:49:28.410,STABILIZE,-35.3632621,149.1652374,28,0.00022447877563536167,0.0015767303993925452,0.029129303991794586,0.0003489354276098311,0.0002669216482900083,0.0024244661908596754,0,1,-1000,0,0,0,-1,1,0,1500.0
06:49:28.611,STABILIZE,-35.3632621,149.1652374,28,0.00022447877563536167,0.0015767303993925452,0.029129303991794586,0.0003489354276098311,0.0002669216482900083,0.0024244661908596754,0,1,-1000,0,0,0,-1,1,0,1500.0
06:49:28.811,STABILIZE,-35.3632621,149.1652374,28,0.00022447877563536167,0.0015767303993925452,0.029129303991794586,0.0003489354276098311,0.0002669216482900083,0.0024244661908596754,0,1,-1000,0,0,0,-1,1,0,1500.0
06:49:29.012,STABILIZE,-35.3632621,149.1652374,28,0.00022447877563536167,0.0015767303993925452,0.029129303991794586,0.0003489354276098311,0.0002669216482900083,0.0024244661908596754,0,1,-1000,0,0,0,-1,1,0,1500.0
06:49:29.213,STABILIZE,-35.3632621,149.1652374,28,0.00022447877563536167,0.0015767303993925452,0.029129303991794586,0.0003489354276098311,0.0002669216482900083,0.0024244661908596754,0,1,-1000,0,0,0,-1,1,0,1500.0
06:49:29.413,STABILIZE,-35.3632621,149.1652375,27,0.00012394612713251263,0.0015873099910095334,0.02835749089717865,0.00015154926222749054,0.0002892980701290071,0.0022802327293902636,0,1,-1000,0,0,0,-1,2,0,1500.0
06:49:29.615,STABILIZE,-35.3632621,149.1652375,26,0.00012394612713251263,0.0015873099910095334,0.02835749089717865,0.00015154926222749054,0.0002892980701290071,0.0022802327293902636,0,1,-1000,0,0,0,-2,2,0,1500.0
06:49:29.816,STABILIZE,-35.3632621,149.1652375,26,0.00012394612713251263,0.0015873099910095334,0.02835749089717865,0.00015154926222749054,0.0002892980701290071,0.0022802327293902636,0,1,-1000,0,0,0,-2,2,0,1500.0
06:49:30.017,STABILIZE,-35.3632621,149.1652375,26,0.00012394612713251263,0.0015873099910095334,0.02835749089717865,0.00015154926222749054,0.0002892980701290071,0.0022802327293902636,0,1,-1000,0,0,0,-2,2,0,1500.0
06:49:30.219,STABILIZE,-35.3632622,149.1652375,30,0.0001224378647748381,0.0014682153705507517,0.02785155549645424,0.0002375094627495855,0.0003238746721763164,0.0022649201564490795,0,1,-1000,0,0,0,-2,1,0,1500.0
06:49:30.420,STABILIZE,-35.3632622,149.1652375,31,0.0001224378647748381,0.0014682153705507517,0.02785155549645424,0.0002375094627495855,0.0003238746721763164,0.0022649201564490795,0,1,-1000,0,0,0,-2,1,0,1500.0
06:49:30.622,STABILIZE,-35.3632622,149.1652375,32,0.0001224378647748381,0.0014682153705507517,0.02785155549645424,0.0002375094627495855,0.0003238746721763164,0.0022649201564490795,0,1,-1000,0,1,0,-2,1,0,1500.0
06:49:30.826,STABILIZE,-35.3632622,149.1652375,32,0.0001224378647748381,0.0014682153705507517,0.02785155549645424,0.0002375094627495855,0.0003238746721763164,0.0022649201564490795,0,1,-1000,0,1,0,-2,1,0,1500.0
06:49:31.030,STABILIZE,-35.3632622,149.1652375,32,0.0001224378647748381,0.0014682153705507517,0.02785155549645424,0.0002375094627495855,0.0003238746721763164,0.0022649201564490795,0,1,-1000,0,1,0,-2,1,0,1500.0
06:49:31.233,STABILIZE,-35.3632622,149.1652375,32,0.0001224378647748381,0.0014682153705507517,0.02785155549645424,0.0002375094627495855,0.0003238746721763164,0.0022649201564490795,0,1,-1000,0,1,0,-2,1,0,1500.0
06:49:31.434,STABILIZE,-35.3632622,149.1652375,32,0.0001224378647748381,0.0014682153705507517,0.02785155549645424,0.0002375094627495855,0.0003238746721763164,0.0022649201564490795,0,1,-1000,0,1,0,-2,1,0,1500.0
06:49:31.636,STABILIZE,-35.3632622,149.1652375,32,-0.00016318201960530132,0.00118166022002697,0.026900701224803925,0.00014071643818169832,0.00019513818551786244,0.0021495104301720858,0,1,-1000,0,1,0,-2,1,0,1500.0
06:49:31.837,STABILIZE,-35.3632622,149.1652375,33,-0.00022876683215145022,0.0011378894560039043,0.02677484229207039,0.00021041417494416237,0.0002330131537746638,0.002167319180443883,0,1,-1000,0,0,0,-1,1,0,1500.0
06:49:32.039,STABILIZE,-35.3632622,149.1652375,33,-0.00022876683215145022,0.0011378894560039043,0.02677484229207039,0.00021041417494416237,0.0002330131537746638,0.002167319180443883,0,1,-1000,0,0,0,-1,1,0,1500.0
06:49:32.240,STABILIZE,-35.3632622,149.1652375,33,-0.00028415455017238855,0.0010962683008983731,0.02664586901664734,0.0001665487070567906,0.0001775113050825894,0.0021624118089675903,0,1,-1000,0,1,0,-1,1,0,1500.0
06:49:32.442,STABILIZE,-35.3632622,149.1652375,33,-0.00028415455017238855,0.0010962683008983731,0.02664586901664734,0.0001665487070567906,0.0001775113050825894,0.0021624118089675903,0,1,-1000,0,1,0,-1,1,0,1500.0
06:49:32.643,STABILIZE,-35.3632622,149.1652375,33,-0.00028415455017238855,0.0010962683008983731,0.02664586901664734,0.0001665487070567906,0.0001775113050825894,0.0021624118089675903,0,1,-1000,0,1,0,-1,1,0,1500.0
06:49:32.844,STABILIZE,-35.3632622,149.1652375,33,-0.00028415455017238855,0.0010962683008983731,0.02664586901664734,0.0001665487070567906,0.0001775113050825894,0.0021624118089675903,0,1,-1000,0,1,0,-1,1,0,1500.0
06:49:33.046,STABILIZE,-35.3632622,149.1652375,33,-0.00028415455017238855,0.0010962683008983731,0.02664586901664734,0.0001665487070567906,0.0001775113050825894,0.0021624118089675903,0,1,-1000,0,1,0,-1,1,0,1500.0
06:49:33.247,STABILIZE,-35.3632622,149.1652375,33,-0.00028415455017238855,0.0010962683008983731,0.02664586901664734,0.0001665487070567906,0.0001775113050825894,0.0021624118089675903,0,1,-1000,0,1,0,-1,1,0,1500.0
06:49:33.449,STABILIZE,-35.3632622,149.1652375,33,-0.00028415455017238855,0.0010962683008983731,0.02664586901664734,0.0001665487070567906,0.0001775113050825894,0.0021624118089675903,0,1,-1000,0,1,0,-1,1,0,1500.0
06:49:33.650,STABILIZE,-35.3632621,149.1652374,45,-0.0005600608419626951,0.0009718746296130121,0.025889435783028603,0.00016589037841185927,0.00029144843574613333,0.0020510214380919933,0,1,-1000,1,0,0,-1,0,-3,1500.0
06:49:33.851,STABILIZE,-35.3632621,149.1652374,45,-0.0005600608419626951,0.0009718746296130121,0.025889435783028603,0.00016589037841185927,0.00029144843574613333,0.0020510214380919933,0,1,-1000,0,0,0,-1,0,-3,1500.0
06:49:34.052,STABILIZE,-35.3632621,149.1652374,45,-0.0005600608419626951,0.0009718746296130121,0.025889435783028603,0.00016589037841185927,0.00029144843574613333,0.0020510214380919933,0,1,-1000,0,0,0,-1,0,-3,1500.0
06:49:34.254,STABILIZE,-35.3632621,149.1652374,45,-0.0005600608419626951,0.0009718746296130121,0.025889435783028603,0.00016589037841185927,0.00029144843574613333,0.0020510214380919933,0,1,-1000,0,0,0,-1,0,-3,1500.0
06:49:34.455,STABILIZE,-35.3632621,149.1652374,45,-0.0005600608419626951,0.0009718746296130121,0.025889435783028603,0.00016589037841185927,0.00029144843574613333,0.0020510214380919933,0,1,-1000,0,0,0,-1,0,-3,1500.0
06:49:34.657,STABILIZE,-35.3632621,149.1652374,51,-0.0005600608419626951,0.0009718746296130121,0.025889435783028603,0.00016589037841185927,0.00029144843574613333,0.0020510214380919933,0,1,-1000,0,0,1,-1,0,-2,1500.0
06:49:34.858,STABILIZE,-35.3632621,149.1652374,51,-0.0005600608419626951,0.0009718746296130121,0.025889435783028603,0.00016589037841185927,0.00029144843574613333,0.0020510214380919933,0,1,-1000,0,0,1,-1,0,-2,1500.0
06:49:35.059,STABILIZE,-35.3632621,149.1652374,51,-0.0005600608419626951,0.0009718746296130121,0.025889435783028603,0.00016589037841185927,0.00029144843574613333,0.0020510214380919933,0,1,-1000,0,0,1,-1,0,-2,1500.0
06:49:35.261,STABILIZE,-35.3632621,149.1652374,51,-0.0005600608419626951,0.0009718746296130121,0.025889435783028603,0.00016589037841185927,0.00029144843574613333,0.0020510214380919933,0,1,-1000,0,0,1,-1,0,-2,1500.0
06:49:35.462,STABILIZE,-35.3632621,149.1652374,51,-0.0005600608419626951,0.0009718746296130121,0.025889435783028603,0.00016589037841185927,0.00029144843574613333,0.0020510214380919933,0,1,-1000,0,0,1,-1,0,-2,1500.0
06:49:35.664,STABILIZE,-35.3632621,149.1652374,52,-0.00041926480480469763,0.0009231942240148783,0.025019144639372826,0.0002844200935214758,0.0002322336658835411,0.0018446072936058044,0,1,-1000,0,0,0,-1,1,-1,1500.0
06:49:35.865,STABILIZE,-35.3632621,149.1652374,52,-0.00041926480480469763,0.0009231942240148783,0.025019144639372826,0.0002844200935214758,0.0002322336658835411,0.0018446072936058044,0,1,-1000,0,0,0,-1,1,-1,1500.0
06:49:36.066,STABILIZE,-35.3632621,149.1652374,52,-0.00041926480480469763,0.0009231942240148783,0.025019144639372826,0.0002844200935214758,0.0002322336658835411,0.0018446072936058044,0,1,-1000,0,0,0,-1,1,-1,1500.0
06:49:36.268,STABILIZE,-35.3632621,149.1652374,52,-0.00041926480480469763,0.0009231942240148783,0.025019144639372826,0.0002844200935214758,0.0002322336658835411,0.0018446072936058044,0,1,-1000,0,0,0,-1,1,-1,1500.0
06:49:36.469,STABILIZE,-35.3632621,149.1652375,51,-0.0004547413263935596,0.0009278701618313789,0.02470230497419834,0.0003285455168224871,0.0003477577120065689,0.0018722659442573786,0,1,-1000,0,0,0,-1,1,0,1500.0
06:49:36.671,STABILIZE,-35.3632621,149.1652375,50,-0.0004703578306362033,0.0009317878284491599,0.024584701284766197,0.0002759569906629622,0.00033473916118964553,0.0017617945559322834,0,-56,-1088,0,1,0,-1,0,-3,1500.0
06:49:36.872,STABILIZE,-35.3632621,149.1652375,50,-0.0004703578306362033,0.0009317878284491599,0.024584701284766197,0.0002759569906629622,0.00033473916118964553,0.0017617945559322834,0,-56,-1088,0,1,0,-1,0,-3,1500.0
06:49:37.074,STABILIZE,-35.3632621,149.1652375,50,-0.0004703578306362033,0.0009317878284491599,0.024584701284766197,0.0002759569906629622,0.00033473916118964553,0.0017617945559322834,0,-56,-1088,0,1,0,-1,0,-3,1500.0
06:49:37.275,STABILIZE,-35.3632621,149.1652375,50,-0.0004703578306362033,0.0009317878284491599,0.024584701284766197,0.0002759569906629622,0.00033473916118964553,0.0017617945559322834,0,-56,-1088,0,1,0,-1,0,-3,1500.0
06:49:37.477,STABILIZE,-35.3632621,149.1652374,61,-0.00039870082400739193,0.0009283710387535393,0.024273909628391266,0.0002186872879974544,0.0002046896843239665,0.001692762365564704,0,1,-1000,1,0,0,-1,0,-3,1500.0
06:49:37.678,STABILIZE,-35.3632621,149.1652374,62,-0.00039870082400739193,0.0009283710387535393,0.024273909628391266,0.0002186872879974544,0.0002046896843239665,0.001692762365564704,0,2,-1000,1,1,0,-1,0,-2,1500.0
06:49:37.880,STABILIZE,-35.3632621,149.1652374,62,-0.00039870082400739193,0.0009283710387535393,0.024273909628391266,0.0002186872879974544,0.0002046896843239665,0.001692762365564704,0,2,-1000,1,1,0,-1,0,-2,1500.0
06:49:38.082,STABILIZE,-35.3632621,149.1652374,62,-0.0003126845695078373,0.0009380226256325841,0.023977268487215042,0.00027974951080977917,0.00028613314498215914,0.001738614635542035,0,2,-1000,0,0,0,-1,1,-2,1500.0
06:49:38.283,STABILIZE,-35.3632621,149.1652374,62,-0.0003126845695078373,0.0009380226256325841,0.023977268487215042,0.00027974951080977917,0.00028613314498215914,0.001738614635542035,0,2,-1000,0,0,0,-1,1,-2,1500.0
06:49:38.486,STABILIZE,-35.3632621,149.1652374,62,-0.0003022178716491908,0.0009453435195609927,0.023881487548351288,0.00021474651293829083,0.0003523378982208669,0.001668785815127194,0,2,-1000,0,0,0,-1,1,-2,1500.0
06:49:38.688,STABILIZE,-35.3632621,149.1652374,61,-0.00030353778856806457,0.0009499083971604705,0.023789238184690475,0.00025911477860063314,0.0003410306526347995,0.0017977766692638397,0,2,-1000,0,0,0,-1,1,-1,1500.0
06:49:38.890,STABILIZE,-35.3632621,149.1652374,61,-0.00030353778856806457,0.0009499083971604705,0.023789238184690475,0.00025911477860063314,0.0003410306526347995,0.0017977766692638397,0,2,-1000,0,0,0,-1,1,-1,1500.0
06:49:39.092,STABILIZE,-35.3632621,149.1652374,61,-0.00030353778856806457,0.0009499083971604705,0.023789238184690475,0.00025911477860063314,0.0003410306526347995,0.0017977766692638397,0,2,-1000,0,0,0,-1,1,-1,1500.0
06:49:39.294,STABILIZE,-35.3632621,149.1652374,61,-0.00030353778856806457,0.0009499083971604705,0.023789238184690475,0.00025911477860063314,0.0003410306526347995,0.0017977766692638397,0,2,-1000,0,0,0,-1,1,-1,1500.0
06:49:39.496,STABILIZE,-35.3632622,149.1652375,59,-0.0003358242684043944,0.0009509483352303505,0.023483814671635628,0.00022082251962274313,0.0001616085646674037,0.0016887893434613943,0,1,-1000,0,1,1,-1,1,-1,1500.0
06:49:39.699,STABILIZE,-35.3632621,149.1652375,57,-0.0003358242684043944,0.0009509483352303505,0.023483814671635628,0.00022082251962274313,0.0001616085646674037,0.0016887893434613943,0,1,-1000,1,0,0,-1,2,0,1500.0
06:49:39.901,STABILIZE,-35.3632621,149.1652375,56,-0.00039452570490539074,0.0009621381759643555,0.023274486884474754,0.0002646551583893597,0.0002392821479588747,0.0015570190735161304,0,1,-1000,0,1,0,-1,2,0,1500.0
06:49:40.103,STABILIZE,-35.3632621,149.1652375,56,-0.00039452570490539074,0.0009621381759643555,0.023274486884474754,0.0002646551583893597,0.0002392821479588747,0.0015570190735161304,0,1,-1000,0,1,0,-1,2,0,1500.0
06:49:40.304,STABILIZE,-35.3632621,149.1652375,56,-0.00039452570490539074,0.0009621381759643555,0.023274486884474754,0.0002646551583893597,0.0002392821479588747,0.0015570190735161304,0,1,-1000,0,1,0,-1,2,0,1500.0
06:49:40.507,STABILIZE,-35.3632622,149.1652376,46,-0.00015983666526153684,0.0009651309810578823,0.023098453879356384,0.0003223727107979357,0.00017000612569972873,0.0017059855163097382,0,1,-1000,0,0,0,-1,4,2,1500.0
06:49:40.708,STABILIZE,-35.3632622,149.1652376,41,-0.00024932168889790773,0.000967206375207752,0.02297930419445038,0.0003076506545767188,0.00028977420879527926,0.0016750816721469164,0,1,-1000,0,0,0,-1,3,2,1500.0
06:49:40.910,STABILIZE,-35.3632622,149.1652376,41,-0.00024932168889790773,0.000967206375207752,0.02297930419445038,0.0003076506545767188,0.00028977420879527926,0.0016750816721469164,0,1,-1000,0,0,0,-1,3,2,1500.0
06:49:41.112,STABILIZE,-35.3632622,149.1652376,41,-0.00024932168889790773,0.000967206375207752,0.02297930419445038,0.0003076506545767188,0.00028977420879527926,0.0016750816721469164,0,1,-1000,0,0,0,-1,3,2,1500.0
06:49:41.317,STABILIZE,-35.3632622,149.1652376,41,-0.00024932168889790773,0.000967206375207752,0.02297930419445038,0.0003076506545767188,0.00028977420879527926,0.0016750816721469164,0,1,-1000,0,0,0,-1,3,2,1500.0
06:49:41.518,STABILIZE,-35.3632622,149.1652376,41,-0.00024932168889790773,0.000967206375207752,0.02297930419445038,0.0003076506545767188,0.00028977420879527926,0.0016750816721469164,0,1,-1000,0,0,0,-1,3,2,1500.0
06:49:41.720,STABILIZE,-35.3632622,149.1652376,41,-0.0006148663233034313,0.0009691418381407857,0.022627785801887512,0.00031141279032453895,0.0003046293859370053,0.0016080099157989025,0,1,-1000,0,0,0,-1,3,2,1500.0
06:49:41.922,STABILIZE,-35.3632622,149.1652376,41,-0.0006148663233034313,0.0009691418381407857,0.022627785801887512,0.00031141279032453895,0.0003046293859370053,0.0016080099157989025,0,1,-1000,0,0,0,-1,3,2,1500.0
06:49:42.123,STABILIZE,-35.3632622,149.1652376,41,-0.0006148663233034313,0.0009691418381407857,0.022627785801887512,0.00031141279032453895,0.0003046293859370053,0.0016080099157989025,0,1,-1000,0,0,0,-1,3,2,1500.0
06:49:42.325,STABILIZE,-35.3632622,149.1652376,21,-0.0008243531920015812,0.0009607135434634984,0.022412022575736046,0.00023200723808258772,0.0001820931793190539,0.001642353367060423,0,2,-1000,0,0,0,-1,2,2,1500.0
06:49:42.526,STABILIZE,-35.3632622,149.1652376,21,-0.0008243531920015812,0.0009607135434634984,0.022412022575736046,0.00023200723808258772,0.0001820931793190539,0.001642353367060423,0,2,-1000,0,0,0,-1,2,2,1500.0
06:49:42.727,STABILIZE,-35.3632622,149.1652376,19,-0.0008243531920015812,0.0009607135434634984,0.022412022575736046,0.00023200723808258772,0.0001820931793190539,0.001642353367060423,0,2,-1000,1,1,0,-1,2,2,1500.0
06:49:42.930,AUTO,-35.3632622,149.1652376,19,-0.0008243531920015812,0.0009607135434634984,0.022412022575736046,0.00023200723808258772,0.0001820931793190539,0.001642353367060423,0,2,-1000,1,1,0,-1,2,2,1500.0
06:49:43.133,AUTO,-35.3632622,149.1652376,19,-0.0008243531920015812,0.0009607135434634984,0.022412022575736046,0.00023200723808258772,0.0001820931793190539,0.001642353367060423,0,2,-1000,1,1,0,-1,2,2,1500.0
06:49:43.334,AUTO,-35.3632622,149.1652375,4,-0.001013933215290308,0.000984278740361333,0.02217317931354046,0.00029367918614298105,0.00027347635477781296,0.0016263953875750303,0,2,-1000,0,0,0,-1,1,2,1500.0
06:49:43.536,AUTO,-35.3632622,149.1652375,4,-0.001013933215290308,0.000984278740361333,0.02217317931354046,0.00029367918614298105,0.00027347635477781296,0.0016263953875750303,0,2,-1000,0,0,0,-1,1,2,95337.0
06:49:43.737,AUTO,-35.3632621,149.1652375,2,-0.0008966416353359818,0.0009939434239640832,0.022137748077511787,0.00018149195238947868,0.0002723661018535495,0.0015713470056653023,0,0,-1001,0,0,0,-1,2,3,95337.0
06:49:43.938,AUTO,-35.3632621,149.1652375,0,-0.000910864386241883,0.0010175090283155441,0.022076860070228577,0.00026669795624911785,0.00022502942010760307,0.001607811776921153,0,1,-1000,1,0,0,0,1,3,95337.0
06:49:44.140,AUTO,-35.3632621,149.1652375,0,-0.0009172361460514367,0.0010508071864023805,0.022019505500793457,0.0003758111852221191,0.0002318809856660664,0.0015043909661471844,0,1,-1000,0,0,0,0,1,3,95337.0
06:49:44.341,AUTO,-35.3632621,149.1652375,0,-0.0008994975942187011,0.0010941243963316083,0.02197447046637535,0.00029143248684704304,0.00023875600891187787,0.0014982698485255241,0,2,-1000,0,0,0,0,0,3,95337.0
06:49:44.543,AUTO,-35.3632621,149.1652375,0,-0.0008994975942187011,0.0010941243963316083,0.02197447046637535,0.00029143248684704304,0.00023875600891187787,0.0014982698485255241,0,2,-1000,0,0,0,0,0,3,95337.0
06:49:44.744,AUTO,-35.3632621,149.1652375,0,-0.0008742142235860229,0.0011514461366459727,0.021918632090091705,0.00022500386694446206,0.0003032199456356466,0.0014062381815165281,0,1,-1000,0,1,0,0,0,2,95337.0
06:49:44.945,AUTO,-35.3632621,149.1652375,0,-0.0008742142235860229,0.0011514461366459727,0.021918632090091705,0.00022500386694446206,0.0003032199456356466,0.0014062381815165281,0,1,-1000,0,1,0,0,0,2,95337.0
06:49:45.147,AUTO,-35.3632621,149.1652375,0,-0.0008742142235860229,0.0011514461366459727,0.021918632090091705,0.00022500386694446206,0.0003032199456356466,0.0014062381815165281,0,1,-1000,0,1,0,0,0,2,95337.0
06:49:45.348,AUTO,-35.3632621,149.1652375,0,-0.0007325091864913702,0.0013570929877460003,0.02177026867866516,0.0003803071449510753,0.00019119796343147755,0.00156504032202065,0,1,-1000,1,0,0,0,0,2,95337.0
06:49:45.549,AUTO,-35.3632621,149.1652375,0,-0.0007325091864913702,0.0013570929877460003,0.02177026867866516,0.0003803071449510753,0.00019119796343147755,0.00156504032202065,0,1,-1000,1,0,0,0,0,2,95337.0
06:49:45.751,AUTO,-35.3632621,149.1652374,0,-0.0006831102655269206,0.0014324142830446362,0.021693285554647446,0.00032691453816369176,0.0003659935900941491,0.0015604377258569002,0,1,-1000,0,0,1,0,0,2,95337.0
06:49:45.952,AUTO,-35.3632621,149.1652374,0,-0.0006302196998149157,0.0015035931719467044,0.021631859242916107,0.0003000147407874465,0.00028824975015595555,0.0015122604090720415,0,1,-1000,1,1,0,0,0,2,95337.0
06:49:46.153,AUTO,-35.3632621,149.1652374,0,-0.0005718342727050185,0.0015775710344314575,0.02157515473663807,0.00031218223739415407,0.00029348890529945493,0.0014235489070415497,0,1,-1000,0,1,1,0,0,2,95337.0
06:49:46.354,AUTO,-35.3632621,149.1652374,0,-0.0005109764169901609,0.0016502485377714038,0.021500764414668083,0.0002900038962252438,0.00033135124249383807,0.0014682949986308813,0,1,-1000,0,1,1,0,0,2,95337.0
06:49:46.556,AUTO,-35.3632621,149.1652374,0,-0.0005109764169901609,0.0016502485377714038,0.021500764414668083,0.0002900038962252438,0.00033135124249383807,0.0014682949986308813,0,1,-1000,0,1,1,0,0,2,95337.0
06:49:46.757,AUTO,-35.3632621,149.1652374,0,-0.00044596081716008484,0.0017227819189429283,0.02143288590013981,0.00023905083071440458,0.0002747088437899947,0.0014049354940652847,0,2,-1000,0,1,1,0,0,1,95337.0
06:49:46.959,AUTO,-35.3632621,149.1652374,0,-0.00044596081716008484,0.0017227819189429283,0.02143288590013981,0.00023905083071440458,0.0002747088437899947,0.0014049354940652847,0,2,-1000,0,1,1,0,0,1,95337.0
06:49:47.160,AUTO,-35.3632621,149.1652374,0,-0.00044596081716008484,0.0017227819189429283,0.02143288590013981,0.00023905083071440458,0.0002747088437899947,0.0014049354940652847,0,2,-1000,0,1,1,0,0,1,95337.0
06:49:47.362,AUTO,-35.3632621,149.1652375,167,0.00364768342114985,0.00014327089593280107,0.021451156586408615,0.006277178414165974,0.004792120773345232,0.002247907454147935,0,0,-1130,6,5,1,0,0,-67,95337.0
06:49:47.563,AUTO,-35.3632621,149.1652375,167,0.00364768342114985,0.00014327089593280107,0.021451156586408615,0.006277178414165974,0.004792120773345232,0.002247907454147935,0,0,-1130,6,5,1,0,0,-67,216694.0
06:49:47.764,AUTO,-35.3632621,149.1652375,373,0.0021911715157330036,0.0010832390980795026,0.021283790469169617,-0.0003025627229362726,0.003191028954461217,0.0004887611139565706,0,0,-1110,0,3,0,0,0,-96,216694.0
06:49:47.966,AUTO,-35.3632621,149.1652375,648,0.0011083697900176048,0.0017345893429592252,0.021230051293969154,-0.0076667447574436665,0.00025455403374508023,0.002694939961656928,0,0,-1089,-6,1,2,0,0,-120,216694.0
06:49:48.167,AUTO,-35.3632621,149.1652375,982,0.0086345374584198,0.001258712843991816,0.020886704325675964,0.04648550972342491,-0.005463161505758762,0.0011390597792342305,0,0,-1045,47,-4,0,0,1,-136,216694.0
06:49:48.369,AUTO,-35.363262,149.1652375,1346,0.02041161060333252,-0.0004458148032426834,0.020847804844379425,0.04652590677142143,-0.007148968521505594,0.0020945256110280752,0,0,-1019,47,-6,1,0,4,-143,216694.0
06:49:48.570,AUTO,-35.363262,149.1652375,1346,0.02041161060333252,-0.0004458148032426834,0.020847804844379425,0.04652590677142143,-0.007148968521505594,0.0020945256110280752,0,0,-1019,47,-6,1,0,4,-143,216694.0
06:49:48.772,AUTO,-35.363262,149.1652377,1724,0.03190010040998459,-0.0023696746211498976,0.02097371034324169,0.04519291967153549,-0.008244538679718971,0.0028890117537230253,0,-1,-1008,45,-7,2,1,10,-146,216694.0
06:49:48.974,AUTO,-35.363262,149.1652377,1724,0.03190010040998459,-0.0023696746211498976,0.02097371034324169,0.04519291967153549,-0.008244538679718971,0.0028890117537230253,0,-1,-1008,45,-7,2,1,10,-146,216694.0
06:49:49.175,AUTO,-35.363262,149.1652377,1724,0.03190010040998459,-0.0023696746211498976,0.02097371034324169,0.04519291967153549,-0.008244538679718971,0.0028890117537230253,0,-1,-1008,45,-7,2,1,10,-146,216694.0
06:49:49.377,AUTO,-35.3632616,149.1652397,2882,0.061265066266059875,-0.00940442830324173,-0.006853935774415731,0.0025711816269904375,0.008729927241802216,-0.030308464542031288,2,-7,-993,3,9,-30,7,41,-147,216694.0
06:49:49.578,AUTO,-35.3632614,149.1652409,3264,0.04518842697143555,0.009577701799571514,-0.027069972828030586,-0.1241644099354744,0.10729518532752991,-0.10447081923484802,2,-8,-990,-123,108,-104,9,51,-145,216694.0
06:49:49.780,AUTO,-35.3632614,149.1652409,3264,0.04518842697143555,0.009577701799571514,-0.027069972828030586,-0.1241644099354744,0.10729518532752991,-0.10447081923484802,2,-8,-990,-123,108,-104,9,51,-145,216694.0
06:49:49.982,AUTO,-35.3632612,149.1652424,3641,0.0012992210686206818,0.023048439994454384,-0.04738619923591614,-0.18968798220157623,0.009037674404680729,-0.07454557716846466,3,-10,-997,-188,9,-74,6,54,-143,216694.0
06:49:50.184,AUTO,-35.363261,149.1652438,4018,-0.02626911737024784,0.019715500995516777,-0.06127697601914406,-0.05984407290816307,-0.017318658530712128,-0.05744871124625206,5,-10,-1012,-59,-16,-57,3,47,-146,216694.0
06:49:50.386,AUTO,-35.3632609,149.1652449,4401,-0.035525381565093994,0.01473146304488182,-0.07218073308467865,-0.019511491060256958,-0.01316709816455841,-0.048824772238731384,5,-10,-1007,-18,-12,-49,0,37,-148,216694.0
06:49:50.588,AUTO,-35.3632609,149.1652458,4786,-0.043694280087947845,0.010088387876749039,-0.08092647790908813,-0.04853028804063797,-0.0205425675958395,-0.0328364297747612,3,-6,-1000,-47,-19,-33,-1,25,-149,216694.0
06:49:50.790,AUTO,-35.3632609,149.1652458,4786,-0.043694280087947845,0.010088387876749039,-0.08092647790908813,-0.04853028804063797,-0.0205425675958395,-0.0328364297747612,3,-6,-1000,-47,-19,-33,-1,25,-149,216694.0
06:49:50.992,AUTO,-35.3632609,149.1652458,4786,-0.043694280087947845,0.010088387876749039,-0.08092647790908813,-0.04853028804063797,-0.0205425675958395,-0.0328364297747612,3,-6,-1000,-47,-19,-33,-1,25,-149,216694.0
06:49:51.195,AUTO,-35.3632609,149.1652458,4786,-0.043694280087947845,0.010088387876749039,-0.08092647790908813,-0.04853028804063797,-0.0205425675958395,-0.0328364297747612,3,-6,-1000,-47,-19,-33,-1,25,-149,216694.0
06:49:51.398,AUTO,-35.3632609,149.1652459,5940,-0.06967835873365402,-0.006202490534633398,-0.09016525745391846,0.04770194739103317,-0.0035674693062901497,-0.009463905356824398,0,3,-1003,48,-2,-9,-2,-25,-148,216694.0
06:49:51.599,AUTO,-35.363261,149.1652451,6325,-0.056341446936130524,-0.006654039490967989,-0.0928950086236,0.05611661821603775,0.0005151807563379407,-0.005621823947876692,-3,5,-1001,56,0,-5,-3,-40,-148,174620.0
06:49:51.802,AUTO,-35.363261,149.1652451,6325,-0.056341446936130524,-0.006654039490967989,-0.0928950086236,0.05611661821603775,0.0005151807563379407,-0.005621823947876692,-3,5,-1001,56,0,-5,-3,-40,-148,174620.0
06:49:52.003,AUTO,-35.3632611,149.1652438,6709,-0.04154932126402855,-0.0057508270256221294,-0.09487633407115936,0.06171023100614548,0.006251564249396324,-0.0027974105905741453,-5,10,-1001,62,6,-3,-3,-50,-148,174620.0
06:49:52.205,AUTO,-35.3632612,149.1652423,7098,-0.025877363979816437,-0.003643159521743655,-0.0960264652967453,0.0644698515534401,0.009990323334932327,-0.0005165311740711331,-5,9,-1002,65,10,0,-3,-57,-149,174620.0
06:49:52.407,AUTO,-35.3632613,149.1652407,7484,-0.009714188985526562,-0.0007495800964534283,-0.09656558930873871,0.06498388946056366,0.012111521326005459,0.0005684640491381288,-8,13,-1003,65,13,0,-4,-59,-150,174620.0
06:49:52.609,AUTO,-35.3632614,149.1652391,7873,0.006787773221731186,0.002407803200185299,-0.09648528695106506,0.06647645682096481,0.01280372217297554,0.001863739569671452,-6,13,-1004,67,13,1,-6,-57,-151,174620.0
06:49:52.811,AUTO,-35.3632614,149.1652391,7873,0.006787773221731186,0.002407803200185299,-0.09648528695106506,0.06647645682096481,0.01280372217297554,0.001863739569671452,-6,13,-1004,67,13,1,-6,-57,-151,174620.0
06:49:53.013,AUTO,-35.3632614,149.1652391,7873,0.006787773221731186,0.002407803200185299,-0.09648528695106506,0.06647645682096481,0.01280372217297554,0.001863739569671452,-6,13,-1004,67,13,1,-6,-57,-151,174620.0
06:49:53.215,AUTO,-35.3632614,149.1652391,7873,0.006787773221731186,0.002407803200185299,-0.09648528695106506,0.06647645682096481,0.01280372217297554,0.001863739569671452,-6,13,-1004,67,13,1,-6,-57,-151,174620.0
06:49:53.416,AUTO,-35.363262,149.1652352,9044,0.054875534027814865,0.009158276952803135,-0.09383315593004227,0.06150263920426369,0.003542504273355007,0.004514713771641254,-2,8,-1002,62,4,3,-10,-27,-153,174620.0
06:49:53.618,AUTO,-35.3632623,149.1652346,9438,0.06669101864099503,0.007006139028817415,-0.0899151861667633,0.016112441197037697,-0.03324626386165619,0.041330624371767044,0,5,-997,16,-32,40,-11,-11,-152,174620.0
06:49:53.820,AUTO,-35.3632623,149.1652346,9438,0.06669101864099503,0.007006139028817415,-0.0899151861667633,0.016112441197037697,-0.03324626386165619,0.041330624371767044,0,5,-997,16,-32,40,-11,-11,-152,174620.0
06:49:54.022,AUTO,-35.3632625,149.1652344,9828,0.058780718594789505,-0.009564600884914398,-0.0766114890575409,-0.07412891089916229,-0.05795634537935257,0.048396021127700806,0,2,-992,-73,-57,47,-9,3,-150,174620.0
06:49:54.224,AUTO,-35.3632627,149.1652346,10214,0.03654979541897774,-0.015943482518196106,-0.0702272281050682,-0.09217818081378937,-0.0014392915181815624,0.010385259985923767,2,0,-996,-91,0,9,-4,14,-149,174620.0
06:49:54.426,AUTO,-35.3632627,149.1652349,10597,0.015051916241645813,-0.013073788024485111,-0.07148654013872147,-0.07798051834106445,0.01701202802360058,-0.013911678455770016,1,-2,-1000,-77,17,-14,0,18,-149,174620.0
06:49:54.627,AUTO,-35.3632627,149.1652354,10981,-0.00022127279953565449,-0.008845041505992413,-0.07739508897066116,-0.047774363309144974,0.016752101480960846,-0.02926427684724331,1,-4,-1003,-47,17,-29,4,18,-149,174620.0
06:49:54.838,AUTO,-35.3632627,149.1652354,10981,-0.00022127279953565449,-0.008845041505992413,-0.07739508897066116,-0.047774363309144974,0.016752101480960846,-0.02926427684724331,1,-4,-1003,-47,17,-29,4,18,-149,174620.0
06:49:55.039,AUTO,-35.3632627,149.1652354,10981,-0.00022127279953565449,-0.008845041505992413,-0.07739508897066116,-0.047774363309144974,0.016752101480960846,-0.02926427684724331,1,-4,-1003,-47,17,-29,4,18,-149,174620.0
06:49:55.241,AUTO,-35.3632627,149.1652354,10981,-0.00022127279953565449,-0.008845041505992413,-0.07739508897066116,-0.047774363309144974,0.016752101480960846,-0.02926427684724331,1,-4,-1003,-47,17,-29,4,18,-149,174620.0
06:49:55.443,AUTO,-35.3632623,149.1652363,12144,-0.014898579567670822,-0.0005570306675508618,-0.1037764698266983,0.004692558664828539,0.009249991737306118,-0.03314977511763573,0,-2,-1002,5,9,-33,8,5,-151,174620.0
06:49:55.644,AUTO,-35.3632621,149.1652363,12533,-0.01268739067018032,0.0015360090183094144,-0.1126345545053482,0.012332303449511528,0.008136664517223835,-0.031159691512584686,-1,-1,-1001,12,8,-31,7,0,-152,98309.0
06:49:55.846,AUTO,-35.363262,149.1652363,12922,-0.009188160300254822,0.003259299322962761,-0.1205395981669426,0.01569061167538166,0.006703400984406471,-0.027308760210871696,-2,-1,-1000,16,7,-27,6,-2,-152,98309.0
06:49:56.047,AUTO,-35.363262,149.1652363,12922,-0.009188160300254822,0.003259299322962761,-0.1205395981669426,0.01569061167538166,0.006703400984406471,-0.027308760210871696,-2,-1,-1000,16,7,-27,6,-2,-152,98309.0
06:49:56.249,AUTO,-35.3632618,149.1652363,13312,-0.005023694131523371,0.004781647119671106,-0.12746936082839966,0.019816778600215912,0.00592329865321517,-0.024370422586798668,-2,0,-1001,20,6,-24,5,-5,-152,98309.0
06:49:56.452,AUTO,-35.3632617,149.1652361,13702,-0.00036071616341359913,0.00622318172827363,-0.13355159759521484,0.01782994531095028,0.006581520661711693,-0.022070327773690224,-2,0,-1000,18,7,-22,4,-6,-152,98309.0
06:49:56.654,AUTO,-35.3632616,149.1652359,14102,0.0037936284206807613,0.007230541203171015,-0.13866552710533142,0.014399835839867592,0.0034267520532011986,-0.018565839156508446,-2,0,-1000,14,3,-18,2,-6,-152,98309.0
06:49:56.855,AUTO,-35.3632616,149.1652359,14102,0.0037936284206807613,0.007230541203171015,-0.13866552710533142,0.014399835839867592,0.0034267520532011986,-0.018565839156508446,-2,0,-1000,14,3,-18,2,-6,-152,98309.0
06:49:57.057,AUTO,-35.3632616,149.1652359,14102,0.0037936284206807613,0.007230541203171015,-0.13866552710533142,0.014399835839867592,0.0034267520532011986,-0.018565839156508446,-2,0,-1000,14,3,-18,2,-6,-152,98309.0
06:49:57.259,AUTO,-35.3632616,149.1652359,14102,0.0037936284206807613,0.007230541203171015,-0.13866552710533142,0.014399835839867592,0.0034267520532011986,-0.018565839156508446,-2,0,-1000,14,3,-18,2,-6,-152,98309.0
06:49:57.460,AUTO,-35.3632614,149.1652354,15265,0.009480401873588562,0.007740172557532787,-0.14926336705684662,0.0013044830411672592,-0.0012248021084815264,-0.011259237304329872,-1,0,-999,1,0,-11,-1,-1,-152,98309.0
06:49:57.662,AUTO,-35.3632614,149.1652354,15655,0.009591602720320225,0.007472629193216562,-0.15222221612930298,0.0003183392691425979,-0.0008722752681933343,-0.012487640604376793,0,0,-1000,1,0,-12,-2,0,-152,98309.0
06:49:57.863,AUTO,-35.3632614,149.1652354,16044,0.009212342090904713,0.006799099501222372,-0.15484030544757843,-0.0018657362088561058,-0.003478823695331812,-0.008602810092270374,0,0,-1000,0,-2,-9,-3,2,-152,98309.0
06:49:58.065,AUTO,-35.3632614,149.1652354,16044,0.009212342090904713,0.006799099501222372,-0.15484030544757843,-0.0018657362088561058,-0.003478823695331812,-0.008602810092270374,0,0,-1000,0,-2,-9,-3,2,-152,98309.0
06:49:58.266,AUTO,-35.3632614,149.1652354,16433,0.008408654481172562,0.0060576084069907665,-0.15771064162254333,-0.005077663343399763,-0.0023808327969163656,-0.011466207914054394,0,0,-999,-4,-1,-11,-3,3,-152,98309.0
06:49:58.468,AUTO,-35.3632615,149.1652354,16822,0.007468078751116991,0.005556552205234766,-0.1609572321176529,-0.0013636394869536161,-0.0013729550410062075,-0.013552836142480373,0,0,-1000,0,0,-13,-4,4,-152,98309.0
06:49:58.669,AUTO,-35.3632615,149.1652354,17211,0.006600526161491871,0.004689380992203951,-0.16413544118404388,-0.0036757548805326223,-0.0023976312950253487,-0.013498530723154545,0,0,-1000,-3,-1,-13,-4,5,-152,98309.0
06:49:58.871,AUTO,-35.3632615,149.1652354,17211,0.006600526161491871,0.004689380992203951,-0.16413544118404388,-0.0036757548805326223,-0.0023976312950253487,-0.013498530723154545,0,0,-1000,-3,-1,-13,-4,5,-152,98309.0
06:49:59.073,AUTO,-35.3632615,149.1652354,17211,0.006600526161491871,0.004689380992203951,-0.16413544118404388,-0.0036757548805326223,-0.0023976312950253487,-0.013498530723154545,0,0,-1000,-3,-1,-13,-4,5,-152,300000.0
06:49:59.275,AUTO,-35.3632615,149.1652354,17211,0.006600526161491871,0.004689380992203951,-0.16413544118404388,-0.0036757548805326223,-0.0023976312950253487,-0.013498530723154545,0,0,-1000,-3,-1,-13,-4,5,-152,300000.0
06:49:59.477,AUTO,-35.3632616,149.1652357,18380,0.0032072775065898895,0.0032306830398738384,-0.1761917769908905,-0.0033201086334884167,0.0008266681106761098,-0.01824704185128212,0,0,-1000,-2,1,-18,-3,6,-152,300000.0
06:49:59.678,AUTO,-35.3632617,149.1652358,18769,0.002735966118052602,0.0032644697930663824,-0.18109826743602753,-9.81271150521934e-05,0.001027780817821622,-0.018855523318052292,0,0,-1000,0,1,-19,-3,6,-152,300000.0
06:49:59.880,AUTO,-35.3632617,149.1652359,19159,0.0021585910581052303,0.003060436574742198,-0.18603792786598206,-0.0009876956464722753,-0.0005053037311881781,-0.020789381116628647,0,0,-1000,0,0,-20,-3,5,-152,300000.0
06:50:00.082,AUTO,-35.3632617,149.165236,19549,0.0020608659833669662,0.0028006876818835735,-0.19097061455249786,-0.00237607816234231,-0.0017418016213923693,-0.020288486033678055,0,0,-999,-1,-1,-20,-3,5,-153,300000.0
06:50:00.283,AUTO,-35.3632617,149.165236,19549,0.0020608659833669662,0.0028006876818835735,-0.19097061455249786,-0.00237607816234231,-0.0017418016213923693,-0.020288486033678055,0,0,-999,-1,-1,-20,-3,5,-153,300000.0
06:50:00.486,AUTO,-35.3632618,149.1652361,19938,0.0019155407790094614,0.0026269471272826195,-0.19607043266296387,-0.0006900961743667722,0.0010619176318868995,-0.022778289392590523,0,0,-1000,0,1,-23,-3,5,-153,300000.0
06:50:00.688,AUTO,-35.3632618,149.1652362,20328,0.0017963153077289462,0.0028112453874200583,-0.20134314894676208,0.0012500507291406393,0.0006032439996488392,-0.02031482383608818,0,0,-1000,1,1,-20,-2,4,-153,300000.0
06:50:00.890,AUTO,-35.3632618,149.1652362,20328,0.0017963153077289462,0.0028112453874200583,-0.20134314894676208,0.0012500507291406393,0.0006032439996488392,-0.02031482383608818,0,0,-1000,1,1,-20,-2,4,-153,300000.0
06:50:01.092,AUTO,-35.3632618,149.1652362,20328,0.0017963153077289462,0.0028112453874200583,-0.20134314894676208,0.0012500507291406393,0.0006032439996488392,-0.02031482383608818,0,0,-1000,1,1,-20,-2,4,-153,300000.0
06:50:01.294,AUTO,-35.3632618,149.1652362,20328,0.0017963153077289462,0.0028112453874200583,-0.20134314894676208,0.0012500507291406393,0.0006032439996488392,-0.02031482383608818,0,0,-1000,1,1,-20,-2,4,-153,300000.0
06:50:01.496,AUTO,-35.3632618,149.1652363,21497,0.0020686625503003597,0.00318203610368073,-0.21727581322193146,0.0031764255836606026,0.0028021521866321564,-0.023221416398882866,0,0,-1000,4,3,-23,-2,3,-153,300000.0
06:50:01.698,AUTO,-35.3632618,149.1652364,21887,0.002348111243918538,0.0034232977777719498,-0.22262664139270782,0.002428472274914384,0.0004012162680737674,-0.02126871794462204,0,0,-1000,3,0,-21,-2,3,-153,300000.0
06:50:01.900,AUTO,-35.3632618,149.1652364,22277,0.00250368844717741,0.0031935288570821285,-0.22758528590202332,-0.0003116723382845521,-0.0010209594620391726,-0.0169117022305727,0,0,-1000,0,0,-17,-2,3,-153,300000.0
06:50:02.102,AUTO,-35.3632618,149.1652365,22667,0.0022693646606057882,0.0030340671073645353,-0.23253102600574493,-0.0002250870456919074,-0.0007026797975413501,-0.0192710068076849,0,0,-1000,0,0,-19,-2,3,-153,300000.0
06:50:02.303,AUTO,-35.3632618,149.1652365,22667,0.0022693646606057882,0.0030340671073645353,-0.23253102600574493,-0.0002250870456919074,-0.0007026797975413501,-0.0192710068076849,0,0,-1000,0,0,-19,-2,3,-153,300000.0
06:50:02.505,AUTO,-35.3632618,149.1652365,23065,0.002194071188569069,0.0029865459073334932,-0.23761554062366486,0.001273582922294736,0.0008783158264122903,-0.020593836903572083,0,0,-1000,1,1,-20,-2,3,-153,300000.0
06:50:02.706,AUTO,-35.3632619,149.1652366,23455,0.0022976836189627647,0.0029160864651203156,-0.24246451258659363,0.0015134412096813321,0.00019393680850043893,-0.01910659298300743,0,0,-1000,2,1,-19,-2,3,-153,300000.0
06:50:02.908,AUTO,-35.3632619,149.1652366,23455,0.0022976836189627647,0.0029160864651203156,-0.24246451258659363,0.0015134412096813321,0.00019393680850043893,-0.01910659298300743,0,0,-1000,2,1,-19,-2,3,-153,300000.0
06:50:03.110,AUTO,-35.3632619,149.1652366,23455,0.0022976836189627647,0.0029160864651203156,-0.24246451258659363,0.0015134412096813321,0.00019393680850043893,-0.01910659298300743,0,0,-1000,2,1,-19,-2,3,-153,200292.0
06:50:03.311,AUTO,-35.3632619,149.1652366,23455,0.0022976836189627647,0.0029160864651203156,-0.24246451258659363,0.0015134412096813321,0.00019393680850043893,-0.01910659298300743,0,0,-1000,2,1,-19,-2,3,-153,200292.0
06:50:03.513,AUTO,-35.3632619,149.1652367,24623,0.0025588213466107845,0.0019821503665298223,-0.2559707462787628,0.0012998407473787665,0.00124097871594131,-0.016546878963708878,0,0,-1000,1,1,-16,-2,3,-153,200292.0
06:50:03.714,AUTO,-35.363262,149.1652367,25013,0.0027494768146425486,0.0020485937129706144,-0.2606850266456604,0.0010597794316709042,0.0008722112397663295,-0.019923722371459007,0,0,-1000,2,1,-20,-1,3,-153,200292.0
06:50:03.916,AUTO,-35.363262,149.1652367,25400,-0.007942362688481808,0.004565820097923279,-0.2611018121242523,-0.03403770551085472,0.0141458036378026,0.0107125760987401,0,0,-1000,-33,14,10,-2,2,-151,200292.0
06:50:04.117,AUTO,-35.363262,149.1652367,25787,-0.007618124596774578,0.006162703037261963,-0.25710394978523254,0.023601965978741646,-0.001112711033783853,0.0189627967774868,0,0,-1004,24,0,18,-3,0,-152,200292.0
06:50:04.319,AUTO,-35.363262,149.1652367,25787,-0.007618124596774578,0.006162703037261963,-0.25710394978523254,0.023601965978741646,-0.001112711033783853,0.0189627967774868,0,0,-1004,24,0,18,-3,0,-152,200292.0
06:50:04.520,AUTO,-35.3632621,149.1652367,26176,0.0003313394554425031,0.005129385273903608,-0.25125962495803833,0.03049028292298317,-0.005438380409032106,0.025014422833919525,0,0,-1001,30,-4,24,-4,-1,-153,200292.0
06:50:04.722,AUTO,-35.3632622,149.1652366,26565,0.006692277267575264,0.004051727242767811,-0.2442461997270584,0.021011492237448692,-0.0028246853034943342,0.02884833514690399,0,1,-1000,21,-1,28,-5,0,-153,200292.0
06:50:04.924,AUTO,-35.3632622,149.1652366,26565,0.006692277267575264,0.004051727242767811,-0.2442461997270584,0.021011492237448692,-0.0028246853034943342,0.02884833514690399,0,1,-1000,21,-1,28,-5,0,-153,200292.0
06:50:05.126,AUTO,-35.3632622,149.1652366,26565,0.006692277267575264,0.004051727242767811,-0.2442461997270584,0.021011492237448692,-0.0028246853034943342,0.02884833514690399,0,1,-1000,21,-1,28,-5,0,-153,200292.0
06:50:05.327,AUTO,-35.3632622,149.1652366,26565,0.006692277267575264,0.004051727242767811,-0.2442461997270584,0.021011492237448692,-0.0028246853034943342,0.02884833514690399,0,1,-1000,21,-1,28,-5,0,-153,200292.0
06:50:05.535,AUTO,-35.3632624,149.1652367,27731,0.009910695254802704,0.0013974974863231182,-0.22437821328639984,-0.004087853245437145,-0.0004758739087264985,0.025757890194654465,0,0,-999,-3,0,25,-3,5,-152,200292.0
06:50:05.737,AUTO,-35.3632624,149.1652367,28118,0.008561566472053528,0.0011825226247310638,-0.2183346003293991,-0.006789815612137318,0.0005220049642957747,0.025016041472554207,0,0,-999,-6,1,24,-2,6,-152,200292.0
06:50:05.938,AUTO,-35.3632624,149.1652368,28505,0.006865581031888723,0.0010950233554467559,-0.21268732845783234,-0.0071415975689888,-0.001154092838987708,0.02216191589832306,0,0,-1001,-6,0,21,-1,7,-152,200292.0
06:50:06.140,AUTO,-35.3632624,149.165237,28893,0.004978217650204897,0.0013040340272709727,-0.20742395520210266,-0.007031239103525877,0.0010612845653668046,0.0198271032422781,0,-1,-1000,-6,1,19,-1,8,-152,200292.0
06:50:06.341,AUTO,-35.3632624,149.1652372,29281,0.0032514636404812336,0.0015392587520182133,-0.2023509293794632,-0.006925756111741066,0.0006463970057666302,0.0214009340852499,0,-1,-1000,-6,1,20,0,8,-152,200292.0
06:50:06.543,AUTO,-35.3632624,149.1652372,29281,0.0032514636404812336,0.0015392587520182133,-0.2023509293794632,-0.006925756111741066,0.0006463970057666302,0.0214009340852499,0,-1,-1000,-6,1,20,0,8,-152,200292.0
06:50:06.746,AUTO,-35.3632624,149.1652373,29670,0.0019774273969233036,0.0017211290542036295,-0.19737714529037476,-0.002892569173127413,0.0020632862579077482,0.02108694054186344,0,-1,-1000,-2,2,20,0,8,-152,200292.0
06:50:06.947,AUTO,-35.3632624,149.1652373,29670,0.0019774273969233036,0.0017211290542036295,-0.19737714529037476,-0.002892569173127413,0.0020632862579077482,0.02108694054186344,0,-1,-1000,-2,2,20,0,8,-152,200292.0
06:50:07.149,AUTO,-35.3632624,149.1652373,29670,0.0019774273969233036,0.0017211290542036295,-0.19737714529037476,-0.002892569173127413,0.0020632862579077482,0.02108694054186344,0,-1,-1000,-2,2,20,0,8,-152,116374.0
06:50:07.351,AUTO,-35.3632624,149.1652377,30834,-0.0004923762753605843,0.0016135872574523091,-0.1837332397699356,-1.6709906049072742e-05,0.0009227701229974627,0.01879390887916088,0,0,-1000,0,2,18,0,5,-153,116374.0
06:50:07.552,AUTO,-35.3632624,149.1652377,30834,-0.0004923762753605843,0.0016135872574523091,-0.1837332397699356,-1.6709906049072742e-05,0.0009227701229974627,0.01879390887916088,0,0,-1000,0,2,18,0,5,-153,116374.0
06:50:07.754,AUTO,-35.3632624,149.1652378,31222,-0.0005908257444389164,0.0015289235161617398,-0.1795317381620407,-0.00044091453310102224,-0.000777606968767941,0.016556670889258385,0,0,-1001,0,0,16,0,4,-153,116374.0
06:50:07.955,AUTO,-35.3632624,149.1652379,31610,-0.0005772391450591385,0.001537555130198598,-0.17545174062252045,-0.0017347917892038822,-0.0010856081498786807,0.015609619207680225,0,0,-1000,0,0,15,0,3,-153,116374.0
06:50:08.157,AUTO,-35.3632624,149.1652379,31997,-0.00037774810334667563,0.0013209049357101321,-0.171503946185112,0.003356312168762088,-0.0012366070877760649,0.01588689163327217,0,0,-1001,4,0,15,0,3,-153,116374.0
06:50:08.358,AUTO,-35.3632623,149.165238,32390,-0.00018728537543211132,0.0012021868024021387,-0.167663112282753,-0.001836150768212974,0.00018880603602156043,0.015730639919638634,0,0,-999,0,1,15,0,2,-153,116374.0
06:50:08.560,AUTO,-35.3632623,149.165238,32390,-0.00018728537543211132,0.0012021868024021387,-0.167663112282753,-0.001836150768212974,0.00018880603602156043,0.015730639919638634,0,0,-999,0,1,15,0,2,-153,116374.0
06:50:08.762,AUTO,-35.3632623,149.165238,32779,0.0001667863252805546,0.0010657605016604066,-0.16396057605743408,0.0021895980462431908,0.0012456935364753008,0.01461793389171362,0,0,-1000,3,2,14,0,1,-153,116374.0
06:50:08.963,AUTO,-35.3632623,149.165238,32779,0.0001667863252805546,0.0010657605016604066,-0.16396057605743408,0.0021895980462431908,0.0012456935364753008,0.01461793389171362,0,0,-1000,3,2,14,0,1,-153,116374.0
06:50:09.165,AUTO,-35.3632623,149.165238,32779,0.0001667863252805546,0.0010657605016604066,-0.16396057605743408,0.0021895980462431908,0.0012456935364753008,0.01461793389171362,0,0,-1000,3,2,14,0,1,-153,116374.0
06:50:09.367,AUTO,-35.3632623,149.1652379,33941,0.0008423837716691196,0.00117161322850734,-0.15376463532447815,0.0014730727998539805,0.0013415864668786526,0.012815441004931927,0,0,-1000,2,2,13,0,0,-153,116374.0
06:50:09.568,AUTO,-35.3632623,149.1652379,33941,0.0008423837716691196,0.00117161322850734,-0.15376463532447815,0.0014730727998539805,0.0013415864668786526,0.012815441004931927,0,0,-1000,2,2,13,0,0,-153,116374.0
06:50:09.770,AUTO,-35.3632623,149.1652379,34329,0.0010471574496477842,0.0013559377985075116,-0.15058355033397675,0.001751612056978047,0.0006401532446034253,0.014207730069756508,0,0,-1000,2,1,14,0,0,-153,116374.0
06:50:09.971,AUTO,-35.3632623,149.1652379,34718,0.0011754833394661546,0.0012439751299098134,-0.14746446907520294,0.00032061408273875713,7.295818068087101e-05,0.011283698491752148,0,0,-1000,1,1,11,0,0,-153,116374.0
06:50:10.173,AUTO,-35.3632622,149.1652379,35106,0.0014540620613843203,0.0012982665793970227,-0.1444714367389679,0.002288262126967311,0.0010304958559572697,0.012467811815440655,0,0,-1000,3,2,12,0,0,-153,116374.0
06:50:10.374,AUTO,-35.3632622,149.1652379,35494,0.001519020413979888,0.001169739756733179,-0.14139123260974884,0.0012877864064648747,0.0002030355972237885,0.0125352181494236,0,0,-1000,2,1,12,0,0,-153,116374.0
06:50:10.576,AUTO,-35.3632622,149.1652379,35494,0.001519020413979888,0.001169739756733179,-0.14139123260974884,0.0012877864064648747,0.0002030355972237885,0.0125352181494236,0,0,-1000,2,1,12,0,0,-153,116374.0
06:50:10.778,AUTO,-35.3632622,149.1652378,35881,0.0019548842683434486,0.0011855096090584993,-0.13885203003883362,0.0003650902071967721,-2.8366222977638245e-05,0.008326497860252857,0,0,-1000,1,0,8,0,0,-153,116374.0
06:50:10.980,AUTO,-35.3632622,149.1652378,35881,0.0019548842683434486,0.0011855096090584993,-0.13885203003883362,0.0003650902071967721,-2.8366222977638245e-05,0.008326497860252857,0,0,-1000,1,0,8,0,0,-153,116374.0
06:50:11.182,AUTO,-35.3632622,149.1652378,35881,0.0019548842683434486,0.0011855096090584993,-0.13885203003883362,0.0003650902071967721,-2.8366222977638245e-05,0.008326497860252857,0,0,-1000,1,0,8,0,0,-153,200.0
06:50:11.384,AUTO,-35.3632622,149.1652377,37046,0.0026214327663183212,0.0014778281329199672,-0.13112999498844147,0.0011189311044290662,0.0007407126249745488,0.009825486689805984,0,0,-1000,2,1,9,0,0,-153,200.0
06:50:11.586,AUTO,-35.3632622,149.1652376,37435,0.002757486654445529,0.0014915313804522157,-0.1287420690059662,0.0011053247144445777,0.001341410679742694,0.010297696106135845,0,0,-1000,2,2,10,0,0,-153,200.0
06:50:11.787,AUTO,-35.3632622,149.1652376,37435,0.002757486654445529,0.0014915313804522157,-0.1287420690059662,0.0011053247144445777,0.001341410679742694,0.010297696106135845,0,0,-1000,2,2,10,0,0,-153,200.0
06:50:11.989,AUTO,-35.3632622,149.1652376,37823,0.0025298427790403366,0.0014988576294854283,-0.12650109827518463,-0.002909483155235648,0.0011289585381746292,0.011244046501815319,0,0,-999,-1,2,11,0,0,-153,200.0
06:50:12.192,AUTO,-35.3632621,149.1652376,38211,0.002523906761780381,0.001445302157662809,-0.12424655258655548,0.001878926414065063,-0.0005468199960887432,0.00866067223250866,0,0,-1000,2,0,8,0,0,-153,200.0
06:50:12.395,AUTO,-35.3632621,149.1652375,38599,0.002403672318905592,0.0016275865491479635,-0.12214962393045425,-3.847968764603138e-05,0.0009903025347739458,0.009579567238688469,0,0,-999,0,1,9,0,0,-153,200.0
06:50:12.597,AUTO,-35.3632621,149.1652375,38988,0.0022081981878727674,0.0017781577771529555,-0.11998073011636734,-0.0028718949761241674,0.0014906625729054213,0.009322036057710648,0,0,-999,-2,2,9,0,0,-153,200.0
06:50:12.799,AUTO,-35.3632621,149.1652375,38988,0.0022081981878727674,0.0017781577771529555,-0.11998073011636734,-0.0028718949761241674,0.0014906625729054213,0.009322036057710648,0,0,-999,-2,2,9,0,0,-153,200.0
06:50:13.001,AUTO,-35.3632621,149.1652375,38988,0.0022081981878727674,0.0017781577771529555,-0.11998073011636734,-0.0028718949761241674,0.0014906625729054213,0.009322036057710648,0,0,-999,-2,2,9,0,0,-153,200.0
06:50:13.203,AUTO,-35.3632621,149.1652375,38988,0.0022081981878727674,0.0017781577771529555,-0.11998073011636734,-0.0028718949761241674,0.0014906625729054213,0.009322036057710648,0,0,-999,-2,2,9,0,0,-153,200.0
06:50:13.405,AUTO,-35.3632621,149.1652374,40151,0.0020986711606383324,0.0016689677722752094,-0.11416923254728317,-0.002291034907102585,0.00045170343946665525,0.008888939395546913,0,0,-999,0,1,9,0,0,-153,200.0
06:50:13.607,AUTO,-35.3632621,149.1652374,40540,0.0022022619377821684,0.0015636507887393236,-0.11243820190429688,0.0029685399495065212,0.0007824598578736186,0.007844186387956142,0,0,-1000,3,1,7,-1,1,-153,200.0
06:50:13.808,AUTO,-35.3632621,149.1652374,40540,0.0022022619377821684,0.0015636507887393236,-0.11243820190429688,0.0029685399495065212,0.0007824598578736186,0.007844186387956142,0,0,-1000,3,1,7,-1,1,-153,200.0
06:50:14.010,AUTO,-35.3632621,149.1652374,40928,0.002062445040792227,0.0013171122409403324,-0.11068084090948105,-0.00040815112879499793,0.0020134025253355503,0.007691119331866503,0,0,-999,0,2,7,-1,1,-153,200.0
06:50:14.211,AUTO,-35.3632621,149.1652374,41316,0.0017518987879157066,0.0014957134844735265,-0.10879680514335632,0.0009061347227543592,0.0006887483177706599,0.005546977277845144,0,0,-1001,2,1,5,-1,1,-153,200.0
06:50:14.413,AUTO,-35.3632621,149.1652374,41708,0.0015616097953170538,0.00178209797013551,-0.10666150599718094,-0.006941081024706364,0.007843866012990475,0.026781998574733734,0,0,-994,-5,8,27,-1,1,-152,200.0
06:50:14.615,AUTO,-35.3632621,149.1652374,42088,-0.015454460866749287,0.01941882073879242,-0.06764770299196243,-0.1092892438173294,0.11195749789476395,0.26762744784355164,0,0,-970,-108,113,267,-3,0,-146,200.0
06:50:14.816,AUTO,-35.3632621,149.1652374,42088,-0.015454460866749287,0.01941882073879242,-0.06764770299196243,-0.1092892438173294,0.11195749789476395,0.26762744784355164,0,0,-970,-108,113,267,-3,0,-146,200.0
06:50:15.018,AUTO,-35.3632621,149.1652374,42088,-0.015454460866749287,0.01941882073879242,-0.06764770299196243,-0.1092892438173294,0.11195749789476395,0.26762744784355164,0,0,-970,-108,113,267,-3,0,-146,200.0
06:50:15.219,AUTO,-35.3632621,149.1652374,42088,-0.015454460866749287,0.01941882073879242,-0.06764770299196243,-0.1092892438173294,0.11195749789476395,0.26762744784355164,0,0,-970,-108,113,267,-3,0,-146,300000.0
06:50:15.421,AUTO,-35.3632631,149.1652359,43094,-0.038771115243434906,0.025182543322443962,0.2335769087076187,0.11558836698532104,-0.21101310849189758,0.19421380758285522,4,9,-942,116,-209,194,-32,-34,-112,300000.0
06:50:15.623,AUTO,-35.3632637,149.1652349,43362,-0.009797386825084686,-0.019030816853046417,0.26616138219833374,0.10638130456209183,-0.14340564608573914,0.08104350417852402,5,12,-949,107,-142,81,-30,-37,-99,300000.0
06:50:15.824,AUTO,-35.3632637,149.1652349,43362,-0.009797386825084686,-0.019030816853046417,0.26616138219833374,0.10638130456209183,-0.14340564608573914,0.08104350417852402,5,12,-949,107,-142,81,-30,-37,-99,300000.0
06:50:16.026,AUTO,-35.3632643,149.1652339,43601,0.0139527078717947,-0.044543612748384476,0.27601808309555054,0.0816902443766594,-0.06854251027107239,0.01739003323018551,3,10,-956,82,-67,17,-22,-32,-87,300000.0
06:50:16.228,AUTO,-35.3632647,149.1652331,43811,0.030527520924806595,-0.054045408964157104,0.2742287516593933,0.06278222054243088,-0.015795830637216568,-0.015704238787293434,1,6,-962,63,-14,-15,-12,-22,-77,300000.0
06:50:16.430,AUTO,-35.3632648,149.1652326,43996,0.038898762315511703,-0.0532427653670311,0.2673995792865753,-0.007056861184537411,0.01619550585746765,-0.02867133542895317,0,2,-968,-6,17,-28,-2,-10,-68,300000.0
06:50:16.632,AUTO,-35.3632648,149.1652324,44159,0.041346754878759384,-0.045820970088243484,0.25889721512794495,0.022524328902363777,0.03706096485257149,-0.03376869857311249,-1,2,-971,23,37,-33,6,1,-60,300000.0
06:50:16.843,AUTO,-35.3632648,149.1652324,44159,0.041346754878759384,-0.045820970088243484,0.25889721512794495,0.022524328902363777,0.03706096485257149,-0.03376869857311249,-1,2,-971,23,37,-33,6,1,-60,300000.0
06:50:17.045,AUTO,-35.3632648,149.1652324,44159,0.041346754878759384,-0.045820970088243484,0.25889721512794495,0.022524328902363777,0.03706096485257149,-0.03376869857311249,-1,2,-971,23,37,-33,6,1,-60,300000.0
06:50:17.247,AUTO,-35.3632648,149.1652324,44159,0.041346754878759384,-0.045820970088243484,0.25889721512794495,0.022524328902363777,0.03706096485257149,-0.03376869857311249,-1,2,-971,23,37,-33,6,1,-60,300000.0
06:50:17.449,AUTO,-35.3632639,149.1652334,44544,0.03105960041284561,-0.013884656131267548,0.23332640528678894,0.31110841035842896,0.03439712151885033,-0.028358152136206627,-2,9,-980,312,35,-28,20,26,-42,300000.0
06:50:17.651,AUTO,-35.3632634,149.1652341,44640,0.025594882667064667,-0.004828267265111208,0.22539018094539642,0.017172692343592644,0.03609375283122063,-0.031073492020368576,-2,-19,-967,17,37,-30,21,29,-35,300000.0
06:50:17.852,AUTO,-35.3632629,149.1652349,44721,0.007040803320705891,0.003180801635608077,0.21815668046474457,-0.5670217275619507,0.03094583749771118,-0.024637315422296524,-2,-30,-981,-565,32,-24,20,31,-30,300000.0
06:50:18.054,AUTO,-35.3632629,149.1652349,44721,0.007040803320705891,0.003180801635608077,0.21815668046474457,-0.5670217275619507,0.03094583749771118,-0.024637315422296524,-2,-30,-981,-565,32,-24,20,31,-30,300000.0
06:50:18.256,AUTO,-35.3632624,149.1652357,44788,-0.001412447658367455,0.00897168554365635,0.21164651215076447,-0.2012370079755783,0.019548431038856506,-0.01962614618241787,-1,4,-973,-199,20,-19,18,31,-24,300000.0
06:50:18.457,AUTO,-35.363262,149.1652365,44840,0.004212141036987305,0.013129488565027714,0.20545025169849396,0.48178285360336304,0.0151655413210392,-0.019157031551003456,-1,24,-999,483,16,-18,16,29,-19,300000.0
06:50:18.659,AUTO,-35.3632616,149.1652371,44879,0.007089546415954828,0.015544471330940723,0.20009185373783112,0.5023406147956848,0.006124432198703289,-0.018577544018626213,-1,5,-983,503,7,-18,13,25,-13,300000.0
06:50:18.861,AUTO,-35.3632616,149.1652371,44879,0.007089546415954828,0.015544471330940723,0.20009185373783112,0.5023406147956848,0.006124432198703289,-0.018577544018626213,-1,5,-983,503,7,-18,13,25,-13,300000.0
06:50:19.063,AUTO,-35.3632616,149.1652371,44879,0.007089546415954828,0.015544471330940723,0.20009185373783112,0.5023406147956848,0.006124432198703289,-0.018577544018626213,-1,5,-983,503,7,-18,13,25,-13,300000.0
06:50:19.265,AUTO,-35.3632616,149.1652371,44879,0.007089546415954828,0.015544471330940723,0.20009185373783112,0.5023406147956848,0.006124432198703289,-0.018577544018626213,-1,5,-983,503,7,-18,13,25,-13,121178.0
06:50:19.466,AUTO,-35.363261,149.1652386,44878,-0.046735040843486786,0.04081028327345848,0.1872316151857376,-0.3880157470703125,-0.04473866522312164,-0.03155875578522682,2,4,-971,-385,-43,-31,0,7,16,121178.0
06:50:19.668,AUTO,-35.3632611,149.1652387,44833,-0.035330794751644135,0.017876658588647842,0.182244673371315,0.48010680079460144,-0.09933038055896759,-0.032955948263406754,1,39,-1005,482,-98,-32,-5,-2,16,121178.0
06:50:19.869,AUTO,-35.3632611,149.1652387,44790,-0.02334597148001194,-0.00205115950666368,0.17790034413337708,0.8109689354896545,-0.0608939528465271,-0.01953336037695408,0,42,-1016,812,-59,-19,-5,-10,14,121178.0
06:50:20.071,AUTO,-35.3632611,149.1652387,44790,-0.02334597148001194,-0.00205115950666368,0.17790034413337708,0.8109689354896545,-0.0608939528465271,-0.01953336037695408,0,42,-1016,812,-59,-19,-5,-10,14,121178.0
06:50:20.272,AUTO,-35.3632612,149.1652383,44753,-0.01927502267062664,-0.012422407977283001,0.17217814922332764,0.438279390335083,-0.0376911535859108,-0.01738632284104824,0,7,-1016,438,-36,-16,-2,-17,10,121178.0
06:50:20.474,AUTO,-35.3632613,149.1652378,44723,-0.027615154162049294,-0.02048620581626892,0.16706451773643494,-0.3760567903518677,-0.034729402512311935,-0.010821064934134483,-1,-25,-1008,-376,-33,-10,1,-22,8,121178.0
06:50:20.677,AUTO,-35.3632612,149.1652371,44697,-0.035607077181339264,-0.02838296815752983,0.1628044694662094,-0.6784700155258179,-0.03315867483615875,-0.012582366354763508,-4,-24,-1010,-677,-32,-12,7,-27,7,121178.0
06:50:20.879,AUTO,-35.3632612,149.1652371,44697,-0.035607077181339264,-0.02838296815752983,0.1628044694662094,-0.6784700155258179,-0.03315867483615875,-0.012582366354763508,-4,-24,-1010,-677,-32,-12,7,-27,7,121178.0
06:50:21.081,AUTO,-35.3632612,149.1652371,44697,-0.035607077181339264,-0.02838296815752983,0.1628044694662094,-0.6784700155258179,-0.03315867483615875,-0.012582366354763508,-4,-24,-1010,-677,-32,-12,7,-27,7,121178.0
06:50:21.283,AUTO,-35.3632612,149.1652371,44697,-0.035607077181339264,-0.02838296815752983,0.1628044694662094,-0.6784700155258179,-0.03315867483615875,-0.012582366354763508,-4,-24,-1010,-677,-32,-12,7,-27,7,121178.0
06:50:21.485,AUTO,-35.3632601,149.1652342,44627,-0.03541549667716026,-0.05587954819202423,0.1480768322944641,0.7073895335197449,-0.04837334156036377,-0.08059490472078323,-10,44,-1011,709,-47,-80,33,-42,8,121178.0
06:50:21.687,AUTO,-35.3632593,149.1652328,44599,-0.02978953719139099,-0.06710603833198547,0.06412462145090103,0.54192054271698,-0.04532119631767273,-0.5888363122940063,-15,20,-993,542,-44,-588,45,-50,10,121178.0
06:50:21.890,AUTO,-35.3632582,149.1652312,44566,-0.028079157695174217,-0.07614078372716904,-0.13015010952949524,-0.4799712598323822,0.009338479489088058,-0.8214900493621826,-23,-36,-979,-479,10,-821,57,-60,13,121178.0
06:50:22.092,AUTO,-35.3632568,149.1652294,44526,-0.018950456753373146,-0.07948310673236847,-0.34686383605003357,-0.7800693511962891,0.033029209822416306,-0.8579453825950623,-24,-32,-1001,-779,34,-857,69,-68,15,121178.0
06:50:22.294,AUTO,-35.3632568,149.1652294,44526,-0.018950456753373146,-0.07948310673236847,-0.34686383605003357,-0.7800693511962891,0.033029209822416306,-0.8579453825950623,-24,-32,-1001,-779,34,-857,69,-68,15,121178.0
06:50:22.496,AUTO,-35.3632552,149.1652273,44480,-0.0028205295093357563,-0.07206730544567108,-0.5575407147407532,-0.4071062505245209,0.05267335847020149,-0.7674713730812073,-26,-11,-989,-405,53,-767,79,-75,18,121178.0
06:50:22.699,AUTO,-35.3632535,149.1652251,44428,0.014969921670854092,-0.057068802416324615,-0.6809375882148743,0.31808945536613464,0.07350313663482666,-0.2605252265930176,-28,24,-982,320,74,-259,86,-80,20,121178.0
06:50:22.902,AUTO,-35.3632535,149.1652251,44428,0.014969921670854092,-0.057068802416324615,-0.6809375882148743,0.31808945536613464,0.07350313663482666,-0.2605252265930176,-28,24,-982,320,74,-259,86,-80,20,121178.0
06:50:23.104,AUTO,-35.3632535,149.1652251,44428,0.014969921670854092,-0.057068802416324615,-0.6809375882148743,0.31808945536613464,0.07350313663482666,-0.2605252265930176,-28,24,-982,320,74,-259,86,-80,20,121178.0
06:50:23.306,AUTO,-35.3632535,149.1652251,44428,0.014969921670854092,-0.057068802416324615,-0.6809375882148743,0.31808945536613464,0.07350313663482666,-0.2605252265930176,-28,24,-982,320,74,-259,86,-80,20,300000.0
06:50:23.509,AUTO,-35.3632476,149.1652178,44255,0.035654377192258835,-0.03209282457828522,-0.6617352366447449,0.34205713868141174,0.008682385087013245,0.07753079384565353,-30,-23,-977,342,9,78,94,-86,23,300000.0
06:50:23.711,AUTO,-35.3632455,149.1652153,44191,0.02862527221441269,-0.028219224885106087,-0.6498407125473022,-0.4052058160305023,0.020551132038235664,0.04239074885845184,-25,-56,-989,-405,21,43,95,-86,23,300000.0
06:50:23.913,AUTO,-35.3632434,149.1652128,44122,0.019955845549702644,-0.02085879258811474,-0.646433413028717,-0.803961455821991,0.03655479848384857,0.015062978491187096,-29,-60,-1012,-803,37,15,95,-85,24,300000.0
06:50:24.114,AUTO,-35.3632413,149.1652104,44052,0.013258633203804493,-0.014135243371129036,-0.6478449106216431,-0.7750446796417236,0.028396975249052048,-0.014300411567091942,-30,-39,-998,-773,29,-13,94,-82,25,300000.0
