time_stamp,RTL_ALT,MODE,roll,pitch,yaw,rollspeed,pitchspeed,yawspeed,lat,lon,relative_alt,vx,vy,vz,xacc,yacc,zacc,xgyro,ygyro,zgyro
09:41:10,223551.0,STABILIZE,-0.0001227291504619643,0.001422419911250472,0.028530938550829887,0.00016828393563628197,0.00019291284843347967,0.0024931225925683975,-35.3632621,149.1652374,0.0,0.0,0.0,0.0,0.0,1.0,-1000.0,0.0,0.0,0.0
09:41:28,223551.0,AUTO,-0.0008187749190256,0.0011067682644352317,0.021589243784546852,0.0002553775848355144,0.00033521460136398673,0.0015236057224683464,-35.3632621,149.1652375,0.0,0.0,0.0,2.0,0.0,1.5,-1000.0,0.5,0.5,0.5
09:41:29,177666.0,AUTO,-0.0006856322434032336,0.001302154123550281,0.021428242791444063,0.0002314392477273941,0.0002205381024396047,0.0014870698796585202,-35.3632621,149.165237475,0.0,0.0,0.0,1.75,0.0,1.0,-1000.0,0.5,0.25,0.25
09:41:30,177666.0,AUTO,-0.00029018992790952325,0.0016643346170894802,0.02111516334116459,0.0003133736609015614,0.0003112326958216727,0.0014076068764552474,-35.3632621,149.1652374,0.0,0.0,0.0,1.0,0.0,1.0,-1000.0,1.0,0.0,0.5
09:41:32,177666.0,AUTO,0.026380326598882675,-0.0014512765919789672,0.02047701273113489,0.04617053642868996,-0.0074106024112552404,0.002199455862864852,-35.363262,149.1652376,1556.5,0.5,7.0,-145.5,0.0,-0.5,-1013.5,46.0,-6.5,1.5
09:41:33,238778.0,AUTO,0.05111200921237469,-0.003014180692844093,0.001959198387339711,-0.006615111138671637,0.02113888884196058,-0.030618853867053986,-35.363261675000004,149.1652393,2711.0,5.5,34.5,-147.0,1.25,-6.5,-997.0,-6.0,21.75,-30.75
09:41:34,238778.0,AUTO,-0.037154966965317726,0.013158933259546757,-0.07794000208377838,-0.028879089280962944,-0.01711351051926613,-0.039730800315737724,-35.3632609,149.16524525,4616.5,-0.5,31.5,-149.0,3.5,-6.5,-1004.0,-28.0,-16.0,-39.5
09:41:36,238778.0,AUTO,-0.005139769520610571,-0.0008080572006292641,-0.09519615769386292,0.06558588519692421,0.013143721502274275,0.0015495091502089053,-35.363261249999994,149.16524025,7700.5,-3.5,-58.5,-150.5,-7.0,12.5,-1003.0,66.0,13.5,1.0
09:41:37,259377.0,AUTO,0.043187140952795744,0.007314976071938872,-0.09281840547919273,0.05966826342046261,0.005429576383903623,0.007357609341852367,-35.363261725,149.165236025,8876.0,-8.0,-35.25,-152.75,-4.0,9.25,-1002.5,60.0,5.75,6.75
09:41:38,259377.0,AUTO,0.011840039398521185,-0.0077531891874969006,-0.07872366160154343,-0.06934729032218456,0.005427871597930789,-0.013632504036650062,-35.3632625,149.165235,10816.0,-1.0,19.5,-149.0,2.5,-2.5,-1001.0,-68.5,5.5,-13.5
09:41:40,259377.0,AUTO,-0.0004922176594845951,0.004110586014576256,-0.13409611582756042,0.014457792043685913,0.0070518553256988525,-0.02188857737928629,-35.36326185,149.16523619999998,13921.0,3.5,-5.5,-152.5,-1.5,0.0,-1000.0,14.5,7.5,-21.5
09:41:41,286811.0,AUTO,0.007467780029401183,0.006709464476443827,-0.14777005836367607,0.006669431284535676,0.0010083903325721622,-0.014157074736431241,-35.363261625,149.16523569999998,15091.25,0.25,-3.25,-152.75,-0.75,0.25,-999.75,7.0,1.5,-14.0
09:41:42,286811.0,AUTO,0.004226397300953977,0.0050167543813586235,-0.1632189303636551,-0.03362015029415488,-0.0010743958700913936,-0.013623373582959175,-35.3632616,149.1652355,17039.5,-2.5,3.5,-152.0,0.0,0.0,-997.0,-32.5,0.0,-13.0
09:41:44,286811.0,AUTO,0.05317112058401108,-0.034483120776712894,0.06326786987483501,0.06368627026677132,-0.03551042638719082,-0.03762930538505316,-35.363264,149.165231,19814.0,-21.0,-18.0,-101.0,0.5,7.0,-960.5,64.0,-34.5,-37.5
09:41:45,200.0,AUTO,0.0524818142876029,-0.026960077928379178,0.04395551234483719,-0.033065289724618196,0.027188457315787673,-0.012362359615508467,-35.363264425,149.1652311,20472.25,2.75,21.75,-75.0,1.0,-2.75,-970.75,-31.75,27.5,-12.25
09:41:46,200.0,AUTO,0.001833252317737788,0.008400661405175924,0.03920905292034149,-0.023803122341632843,0.020006178878247738,0.001012923923553899,-35.363262899999995,149.16523565,21224.5,16.5,39.5,-44.0,1.0,-9.5,-978.0,-22.5,20.0,0.5
09:41:48,200.0,AUTO,-0.03336700331419706,0.027112357318401337,0.033605633303523064,0.3031509965658188,0.007930907653644681,-0.0046406000619754195,-35.363261249999994,149.16523999999998,21564.0,-5.0,-5.0,15.5,0.0,7.5,-983.0,303.5,8.0,-4.5
09:41:49,221448.0,AUTO,0.0026415232568979263,0.04122466500848532,0.03311352338641882,-0.002495821565389633,0.025070329196751118,-0.0014773611619602889,-35.363262225,149.16523892499998,21425.0,-27.75,-11.75,12.5,2.75,9.25,-1015.5,-1.25,25.25,-1.5
09:41:50,221448.0,AUTO,0.035050404258072376,0.07272783294320107,0.32284628599882126,-0.4089266434311867,0.013960522832348943,1.1259223222732544,-35.36326805,149.165238,21337.0,-87.0,10.0,-2.0,21.0,-3.0,-1010.5,-407.0,14.0,1125.5
09:41:52,221448.0,AUTO,0.02094582701101899,-0.17808334529399872,-0.033959388732910156,-0.19744722917675972,-0.02133437362499535,0.497303269803524,-35.36329795,149.16524470000002,21362.0,-266.5,42.0,-2.0,-60.5,-32.0,-1004.5,-195.5,-20.0,496.5
09:41:53,186143.0,AUTO,0.02997152879834175,-0.18961777910590172,1.5295024514198303,0.05413877824321389,-0.018578647053800523,-0.13645507395267487,-35.363319125,149.16524872499997,21369.25,-352.5,51.0,-2.75,-74.75,-32.0,-1005.25,54.75,-17.25,-136.0
09:41:54,186143.0,AUTO,0.05215136893093586,-0.21146216243505478,3.037168502807617,0.029630101460497826,-0.02552690450102091,0.0069178922567516565,-35.363366049999996,149.16525715,21397.5,-489.0,69.5,-3.5,-100.0,-52.0,-997.5,30.0,-24.0,7.0
09:41:56,186143.0,AUTO,0.06855860352516174,-0.16511114686727524,3.034120798110962,0.01730269193649292,0.007011941634118557,-0.004092988092452288,-35.3634696,149.16527505,21563.5,-638.0,88.5,-14.0,-124.0,-74.5,-992.5,17.5,7.5,-3.5
09:41:57,174672.0,AUTO,0.07440553978085518,-0.15573763102293015,3.032030463218689,0.00363685074262321,0.020627291407436132,-0.0007396034779958427,-35.363513625,149.165282575,21655.25,-661.0,92.25,-11.75,-120.75,-71.25,-983.5,4.5,21.25,-0.5
09:41:58,174672.0,AUTO,0.07797887548804283,-0.1276250258088112,3.029653787612915,0.013568759546615183,-0.011547024361789227,0.00263238325715065,-35.36358885,149.1652953,21803.0,-670.0,92.5,-9.5,-130.5,-65.0,-976.0,14.5,-10.5,3.0
09:42:00,174672.0,AUTO,0.07738516852259636,-0.13552774488925934,3.025304913520813,0.002701476216316223,0.013874884694814682,-0.006274099927395582,-35.3637102,149.1653159,21900.5,-678.5,95.0,-6.0,-143.5,-79.0,-994.0,3.5,14.5,-6.0
09:42:01,300000.0,AUTO,0.0799032486975193,-0.10512893833220005,3.024194896221161,0.009550182265229523,0.04540532222017646,-0.003836905409116298,-35.36375604999999,149.1653237,21967.5,-670.5,94.5,-11.0,-132.75,-72.0,-992.0,10.5,45.75,-3.75
09:42:02,300000.0,AUTO,0.07836810126900673,-0.03899681940674782,3.0236421823501587,0.012748195556923747,0.04283728636801243,-0.00870609818957746,-35.363828850000004,149.16533615,22130.5,-602.5,84.5,-10.5,-126.5,-64.0,-985.5,13.5,43.5,-8.0
09:42:04,300000.0,AUTO,0.06569276563823223,0.051388321444392204,3.0228618383407593,0.22913500666618347,0.008829870726913214,0.03333661542274058,-35.36392105,149.16535119999998,22204.0,-395.0,55.0,3.5,-84.0,-59.0,-999.0,229.0,9.5,33.0
09:42:05,255670.0,AUTO,0.040929464623332024,0.05089808814227581,3.023956060409546,0.04347202926874161,0.006919292849488556,-0.011294411029666662,-35.363944775,149.165354825,22175.75,-308.25,41.75,1.75,-61.5,-32.5,-1005.0,45.0,8.0,-11.0
09:42:06,255670.0,AUTO,0.018863395787775517,0.07821421697735786,3.0223402976989746,-0.21787967532873154,0.029422011226415634,-0.008465881459414959,-35.3639726,149.16535925,22163.5,-174.0,24.5,-0.5,-37.5,-18.5,-1002.0,-216.0,30.5,-8.5
09:42:08,255670.0,AUTO,0.013600877486169338,0.04404069855809212,3.0195515155792236,-0.47310324013233185,-0.015471813268959522,-0.0003232587478123605,-35.36398885,149.16536335,22175.0,-21.5,-1.5,0.0,-7.0,-25.5,-1001.5,-471.5,-13.5,-0.5
09:42:09,300000.0,AUTO,0.012519599316874519,0.028570646420121193,3.0174084305763245,-0.025508321821689606,-0.02419317001476884,-3.4860648156609386e-05,-35.363989675,149.16536395,22181.0,2.5,-8.0,0.0,-1.0,0.0,-1002.0,-24.25,-22.0,0.0
09:42:10,300000.0,AUTO,0.011279702419415116,-0.0007383910706266761,3.015234351158142,-0.18299951404333115,0.007358829490840435,0.0036532350350171328,-35.36398935,149.1653645,22190.0,10.0,-10.5,0.0,0.0,-18.5,-993.5,-182.5,9.0,3.5
09:42:12,300000.0,RTL,0.010028883814811707,0.00762950093485415,3.013690710067749,0.21257590502500534,0.0031889943638816476,0.005139831453561783,-35.3639894,149.1653646,22314.0,6.0,-12.0,-27.0,0.5,7.0,-1037.0,213.5,4.5,5.0
09:42:13,300000.0,RTL,-0.00378321175230667,0.008322395849972963,3.0139495134353638,-0.0735585002694279,0.0009119212627410889,-0.000794405976193957,-35.3639894,149.16536385,22658.0,6.5,-9.5,-59.5,2.0,-5.75,-1043.75,-72.25,2.5,0.0
09:42:14,300000.0,RTL,-0.012187051121145487,0.00660599023103714,3.013458728790283,-0.006793728563934565,-0.0018807227606885135,-0.002671057591214776,-35.3639895,149.16536250000001,23745.0,8.0,1.0,-112.5,1.0,-1.5,-1042.0,-4.5,0.0,-1.5
09:42:16,300000.0,RTL,0.04937952384352684,-0.011227911338210106,3.0138816833496094,0.008875125087797642,0.008705578278750181,-0.024815015960484743,-35.36398935,149.16536025,26632.5,-5.0,-24.5,-148.5,1.0,-5.0,-995.5,10.5,11.0,-24.5
09:42:17,300000.0,RTL,-0.021454948000609875,0.009869574219919741,2.9696764945983887,-0.10284468019381166,-0.011160415248014033,-0.03534667834173888,-35.36399005,149.16535692500003,27772.25,-5.75,-32.5,-146.75,4.0,-8.5,-1003.5,-101.0,-8.75,-34.5
09:42:18,300000.0,RTL,-0.06991006806492805,0.00542416371172294,2.938138246536255,0.027223062410485,0.045411004684865475,-0.05831260606646538,-35.3639907,149.1653556,29678.5,-2.5,34.0,-148.0,-3.5,3.5,-1004.0,28.0,46.5,-57.5
09:42:20,300000.0,RTL,0.05840408243238926,0.02120541874319315,2.9045225381851196,0.04918935149908066,-0.020545244216918945,0.017508861667010933,-35.36398695,149.16536639999998,32777.5,37.5,20.0,-152.5,1.0,11.0,-1000.0,50.0,-18.0,17.5
09:42:21,176961.0,RTL,0.04963097255676985,-0.04910709091927856,2.9661684036254883,-0.014683412853628397,-0.09678783267736435,0.10817983187735081,-35.363984824999996,149.165366375,33946.75,14.0,-19.75,-150.5,5.75,1.75,-1000.75,-13.5,-94.5,108.5
09:42:22,176961.0,RTL,-0.03248765505850315,-0.010868300101719797,2.9435776472091675,-0.054864175617694855,0.0792396254837513,-0.1154927983880043,-35.3639873,149.1653629,35863.0,-52.0,-18.5,-149.0,-5.5,-11.5,-1008.0,-53.0,80.5,-114.5
09:42:24,176961.0,RTL,0.02223327662795782,0.03271838929504156,2.830543637275696,0.03579428605735302,-0.01759488834068179,0.004850651603192091,-35.363990900000005,149.1653661,38996.5,12.5,10.0,-153.0,-1.0,4.0,-999.0,37.0,-16.0,5.5
09:42:25,215237.0,RTL,0.021451331209391356,0.0009442425216548145,2.855211615562439,-0.02003270189743489,-0.031675859121605754,0.02946142504515592,-35.363989724999996,149.165366275,40169.0,15.75,-9.25,-151.5,3.5,1.75,-999.0,-18.5,-29.5,29.75
09:42:26,215237.0,RTL,-0.0037463889457285404,-0.006640344159677625,2.8480249643325806,-0.007527509005740285,0.0006470965454354882,-0.025265629403293133,-35.3639884,149.165365,42109.5,3.0,-11.0,-152.0,2.0,0.0,-1001.0,-6.0,2.0,-24.0
09:42:28,215237.0,RTL,0.004858868662267923,0.00033177388468175195,2.7888829708099365,0.003484253538772464,0.002154178568162024,-0.024074050597846508,-35.3639881,149.16536465000001,45231.0,-1.0,-1.0,-153.0,0.0,0.0,-1000.0,4.5,3.5,-23.0
09:42:29,300000.0,RTL,0.005953553598374128,0.0014041507965885103,2.7714661359786987,0.001173355121864006,0.0004028590046800673,-0.02073050383478403,-35.3639881,149.1653647,46402.5,-1.0,-3.0,-152.5,0.0,0.0,-1000.0,2.25,1.75,-19.25
09:42:30,300000.0,RTL,0.0043679706286638975,0.0012406655005179346,2.7459895610809326,-0.004020561114884913,-0.0010034170118160546,-0.018911322578787804,-35.3639881,149.1653646,48346.5,-1.0,-5.0,-152.0,0.0,0.0,-999.5,-2.0,0.0,-17.5
09:42:32,300000.0,RTL,0.0029476028867065907,0.0015513385296799242,2.7075711488723755,0.007342242635786533,0.004966984852217138,-0.004814287880435586,-35.3639882,149.16536405,51460.5,-1.0,-4.0,-152.5,0.0,0.0,-998.5,8.5,6.0,-3.5
09:42:33,300000.0,RTL,0.005607268889434636,0.003651062725111842,2.7157830595970154,-0.0004139381926506758,-0.00036331461160443723,0.02044621342793107,-35.3639882,149.16536385,52625.5,0.0,-5.5,-152.0,0.0,0.0,-999.75,0.75,1.5,20.75
09:42:34,300000.0,RTL,0.001765924273058772,0.0010139760561287403,2.747163414955139,-0.00166020926553756,-0.0018075465923175216,0.027031468227505684,-35.3639882,149.16536324999998,54562.0,0.0,-6.5,-152.0,0.0,0.0,-1000.5,0.0,0.0,27.5
09:42:36,300000.0,RTL,0.0013850975665263832,-0.0007537700003013015,2.7903162240982056,0.003479926846921444,0.000524296541698277,0.018081992864608765,-35.3639882,149.1653629,57665.0,0.0,-1.0,-152.0,0.0,0.0,-1000.5,4.5,2.0,18.5
09:42:37,149606.0,RTL,0.002136859664460644,-0.00036682892095996067,2.802688479423523,0.000571694050449878,0.0007783581968396902,0.01674976758658886,-35.3639882,149.1653629,58832.5,-1.0,-0.25,-152.0,0.0,0.0,-999.5,1.75,2.0,17.25
09:42:38,149606.0,RTL,0.003629218554124236,0.00011425022603361867,2.8224294185638428,0.0020659478032030165,0.00072815379826352,0.01416850509122014,-35.3639882,149.16536315000002,60930.5,-1.0,-0.5,-152.0,0.0,0.0,-1000.0,6.0,3.0,15.0
09:42:40,149606.0,RTL,0.0034492218401283026,0.0006078452715883031,2.840331554412842,0.0009458790882490575,0.00039714615559205413,0.010867536067962646,-35.363988250000006,149.16536335,63258.5,-1.0,-1.0,-152.0,0.0,0.0,-1000.0,2.5,1.5,12.0
09:42:41,200.0,RTL,0.003331619082018733,0.0008409028960159048,2.850497543811798,0.0015338832745328546,0.00029565399745479226,0.010544943157583475,-35.3639883,149.165363475,64815.25,-1.0,-2.0,-152.0,0.0,0.0,-1000.0,2.75,2.0,11.25
09:42:42,200.0,RTL,0.0030161134200170636,0.0014252517721615732,2.859307050704956,-1.4123681467026472e-05,0.00045599433360621333,0.010591162368655205,-35.36398835,149.16536355,66367.5,0.0,-2.0,-152.0,0.0,0.0,-1000.0,1.5,2.0,11.5
09:42:44,200.0,RTL,0.0025286419161905846,0.0012135390813151996,2.874496857325236,-0.0006444532191380858,0.0003604739128301541,0.00688800277809302,-35.3639885,149.1653636,69696.66666666667,0.0,-2.0,-152.0,0.0,0.0,-1000.0,1.3333333333333333,1.6666666666666667,8.0
09:42:45,227598.0,RTL,0.0029434963362291455,0.001325663150055334,2.8806670904159546,0.0008040573447942734,-0.0008700475445948541,0.006900559877976775,-35.3639885,149.1653636,71261.5,0.0,-2.0,-152.0,0.0,0.0,-1000.0,2.25,0.75,7.5
09:42:46,227598.0,RTL,0.00274987006559968,0.0010646943701431155,2.8876047134399414,-0.0022352065425366163,0.0011143258307129145,0.006769844330847263,-35.3639885,149.1653637,73164.0,0.0,-2.0,-152.0,0.0,0.0,-999.0,0.0,2.0,8.0
09:42:48,227598.0,RTL,0.002680735429748893,0.0008112441282719374,2.896437168121338,-0.0008999528363347054,0.000990375701803714,0.0061698732897639275,-35.3639885,149.1653637,75687.0,0.0,-2.0,-152.0,0.0,0.0,-999.5,0.5,2.0,7.0
09:42:49,200.0,RTL,0.0028865885105915368,0.0008513995999237522,2.901731312274933,0.0007459054468199611,-0.00014628437929786742,0.007073018467053771,-35.3639885,149.1653637,77241.0,0.0,-2.0,-152.0,0.0,0.0,-999.75,2.25,1.0,8.0
09:42:50,200.0,RTL,0.00291030784137547,0.0010309407662134618,2.906034827232361,0.004789595725014806,0.001512732298579067,0.006123887840658426,-35.3639885,149.1653637,78794.5,0.0,-2.0,-152.0,0.0,0.0,-1000.0,6.0,2.5,7.0
09:42:52,200.0,RTL,0.002823191578499973,0.0012288347352296114,2.9141162633895874,0.0013577069039456546,0.0011681299656629562,0.004501271760091186,-35.3639885,149.1653637,81897.5,0.0,-2.0,-152.0,0.0,0.0,-1000.0,3.0,2.5,5.5
09:42:53,136072.0,RTL,0.0027471770299598575,0.0016235775838140398,2.9177582263946533,0.00022204476408660412,0.0001577315852046013,0.003941409901017323,-35.3639885,149.1653637,83451.5,0.0,-2.0,-152.0,0.0,0.0,-1000.25,2.0,1.75,5.0
09:42:54,136072.0,RTL,0.0027065472677350044,0.0014396791812032461,2.9209622144699097,0.0005786510882899165,3.049225779250264e-05,0.0027275634929537773,-35.3639885,149.1653637,85004.0,0.0,-2.0,-152.0,0.0,0.0,-1000.5,2.0,1.0,3.5
09:42:56,136072.0,RTL,0.0023530247854068875,0.0013520893990062177,2.9272111654281616,0.0001854795846156776,0.00221806054469198,0.0037030105013400316,-35.3639885,149.1653637,88112.0,0.0,-2.0,-152.0,0.0,0.0,-999.5,1.5,4.0,4.5
09:42:57,112790.0,RTL,0.002382855163887143,0.0017141325224656612,2.9297043681144714,0.0003563905484043062,0.00011999683920294046,0.003474486496997997,-35.36398855,149.1653637,89663.75,0.25,-2.0,-152.0,0.0,0.0,-1000.0,1.75,1.5,4.75
09:42:58,112790.0,RTL,0.002470649895258248,0.0014602942392230034,2.932141900062561,0.0015129336388781667,0.0007416008738800883,0.004287739749997854,-35.3639886,149.1653637,91221.0,1.0,-2.0,-152.0,0.0,0.0,-999.5,3.0,2.0,5.5
09:43:00,112790.0,RTL,0.002762891468591988,0.0013489810517057776,2.9369521141052246,0.0018371097976341844,0.001276104710996151,0.00402914616279304,-35.3639886,149.1653637,94330.5,1.0,-2.0,-152.0,0.0,0.0,-999.5,3.5,2.5,5.5
09:43:01,129665.0,RTL,0.002836100698914379,0.0009524330380372703,2.9390686750411987,-0.0001239785342477262,0.00018033277592621744,0.001448882365366444,-35.3639886,149.1653637,95882.25,0.25,-2.0,-152.0,0.0,0.0,-1000.25,1.75,1.5,2.5
09:43:02,129665.0,RTL,0.002754651242867112,0.0012592672719620168,2.9408445358276367,0.002839585766196251,0.0009741459507495165,0.004896890372037888,-35.3639886,149.1653637,97436.5,0.0,-2.0,-152.0,0.0,0.0,-999.5,4.5,2.5,6.5
09:43:04,129665.0,RTL,0.002651209942996502,0.0015055268304422498,2.9448843002319336,0.0041356709552928805,0.0014479192905128002,0.0035165721783414483,-35.3639886,149.1653637,100543.0,0.0,-2.0,-152.0,0.0,0.0,-1000.0,6.0,2.5,5.0
09:43:05,300000.0,RTL,0.002767066704109311,0.0014046108117327094,2.946805417537689,0.001309355313424021,0.00013524730456992984,0.0018663848750293255,-35.3639886,149.1653637,102100.0,0.75,-2.0,-152.0,0.0,0.0,-999.75,2.75,1.75,3.25
09:43:06,300000.0,RTL,0.0027546449564397335,0.0013368971413001418,2.9482455253601074,-0.0004648665199056268,0.0009380790870636702,0.0022747754701413214,-35.3639886,149.1653637,103654.0,0.0,-2.0,-152.0,0.0,0.0,-1000.0,1.0,2.5,3.5
09:43:08,300000.0,RTL,0.002223562332801521,0.0017551922937855124,2.950762391090393,0.000899804406799376,9.502284228801727e-05,0.0028238792438060045,-35.3639886,149.1653637,106761.5,1.0,-2.0,-152.0,0.0,0.0,-999.5,2.5,1.5,4.0
09:43:09,300000.0,RTL,0.002421210752800107,0.0014687370567116886,2.952144145965576,0.0008361747022718191,0.0001214382064063102,0.0021741263626608998,-35.3639886,149.1653637,108313.25,1.0,-1.75,-152.0,0.0,0.0,-1000.0,2.75,1.75,3.5
09:43:10,300000.0,RTL,0.002610095194540918,0.001507895183749497,2.9531009197235107,-2.615543780848384e-05,0.0010516192996874452,0.00040227448334917426,-35.3639886,149.1653637,109869.0,1.0,-2.0,-152.0,0.0,0.0,-999.5,1.5,3.0,1.5
09:43:12,300000.0,RTL,0.002439960604533553,0.001501853985246271,2.9550411701202393,0.0001283498713746667,0.0017274562269449234,0.0022054832079447806,-35.3639886,149.1653637,112972.5,1.0,-2.0,-152.0,0.0,0.0,-1000.0,2.5,3.5,3.5
09:43:13,168818.0,RTL,0.0025355179677717388,0.001522998180007562,2.9559527039527893,-0.000273063313215971,0.00030417105881497264,0.001162458473118022,-35.3639886,149.1653637,114525.75,1.0,-2.0,-152.0,0.0,0.0,-1000.0,1.75,2.0,2.5
09:43:14,168818.0,RTL,0.0024366864236071706,0.0014284588978625834,2.9567770957946777,2.7149217203259468e-05,0.000829384895041585,0.0013170164893381298,-35.3639886,149.1653637,116079.0,1.0,-2.0,-152.0,0.0,0.0,-1000.0,2.0,2.5,2.5
09:43:16,168818.0,RTL,0.0029254406690597534,0.0011064752179663628,2.9581663608551025,0.0009987949742935598,9.579909965395927e-05,0.0025287146563641727,-35.3639886,149.1653637,119188.5,0.5,-2.0,-152.0,0.0,0.0,-999.5,2.5,1.5,4.0
09:43:17,8621.0,RTL,0.0027620434993878007,0.0013332876260392368,2.958856761455536,-0.00029101091786287725,0.0006268284050747752,0.002710592496441677,-35.3639886,149.1653637,120739.5,0.0,-2.0,-152.0,0.0,0.0,-999.75,1.75,2.5,4.0
09:43:18,8621.0,RTL,0.0025948933325707912,0.0014376207836903632,2.9595948457717896,-4.226417513564229e-05,0.00021385238505899906,0.0014038804802112281,-35.3639886,149.1653637,122296.5,0.0,-2.0,-152.0,0.0,0.0,-1000.0,1.5,2.0,3.0
09:43:20,8621.0,RTL,0.002052598400041461,0.0019599059596657753,2.9609577655792236,0.0005177544662728906,0.00042347394628450274,0.0025956822792068124,-35.3639886,149.1653637,125407.0,1.0,-1.5,-152.0,0.0,0.0,-1000.0,2.5,2.0,4.0
09:43:21,200.0,RTL,0.002314775309059769,0.001693302532657981,2.9619288444519043,0.0001844170328695327,0.0007268469198606908,0.0006981040933169425,-35.3639886,149.1653637,126956.25,1.0,-1.0,-152.0,0.0,0.0,-999.5,2.0,2.25,2.25
09:43:22,200.0,RTL,0.002439790521748364,0.0014630202786065638,2.9622960090637207,0.0014893432380631566,0.000655149226076901,0.0019270849879831076,-35.3639886,149.1653637,128509.0,1.0,-1.0,-152.0,0.0,0.0,-1000.0,3.0,2.5,3.0
09:43:24,200.0,RTL,0.002506852732039988,0.0015347148873843253,2.963012218475342,0.000897123827598989,-0.0004686631145887077,0.0028019561432302,-35.3639886,149.1653637,131620.5,1.0,-1.0,-152.0,0.0,0.0,-1000.0,3.0,1.5,4.5
09:43:25,232677.0,RTL,0.0025611467426642776,0.001418421947164461,2.9635863304138184,0.0013085854589007795,0.0004005991213489324,0.0008522623393218964,-35.3639886,149.1653637,133178.0,1.0,-2.0,-152.0,0.0,0.0,-1000.0,3.25,2.25,2.5
09:43:26,232677.0,RTL,0.0025004150811582804,0.0016149660805240273,2.963964581489563,-0.0016739004058763385,9.891926310956478e-06,0.0008873199694789946,-35.3639886,149.1653637,134731.5,1.0,-1.5,-152.0,0.0,0.0,-999.5,0.5,2.0,2.5
09:43:28,232677.0,RTL,0.0025579918874427676,0.0014768147957511246,2.964352250099182,0.0022681778063997626,0.0012930872617289424,-0.0001670487690716982,-35.3639886,149.1653637,137839.5,1.0,-2.0,-152.0,0.0,0.0,-1000.0,4.0,3.0,1.5
09:43:29,48631.0,RTL,0.002494269167073071,0.0015310283342842013,2.9645925760269165,0.0006619040505029261,0.00019323831656947732,0.0013562098320107907,-35.3639886,149.1653637,139390.0,1.0,-2.0,-152.0,0.0,0.0,-1000.0,2.5,2.0,3.0
09:43:30,48631.0,RTL,0.0027459380216896534,0.0016121938242577016,2.9649860858917236,0.0003898896975442767,0.0006070113740861416,0.000643195235170424,-35.3639886,149.1653637,140944.0,1.0,-2.0,-152.0,0.0,0.0,-1000.0,2.5,2.5,2.5
09:43:32,48631.0,RTL,0.0025904785143211484,0.0014343173243105412,2.965301513671875,0.0006165206432342529,0.0002968877670355141,0.002679224591702223,-35.3639886,149.1653637,144049.5,1.0,-2.0,-152.0,0.0,0.0,-999.5,3.0,2.0,4.5
09:43:33,72697.0,RTL,0.0026410662685520947,0.0011979989358223975,2.96547669172287,0.0008779499912634492,0.00011840130900964141,0.00016932238941080868,-35.3639886,149.1653637,145607.75,1.0,-2.0,-152.0,0.0,0.0,-1000.25,3.25,2.25,2.0
09:43:34,72697.0,RTL,0.0024677924811840057,0.0012761737452819943,2.965736150741577,-0.0031393831595778465,-0.00038629292976111174,0.000292277371045202,-35.3639886,149.1653637,147159.0,0.0,-2.0,-152.0,0.0,0.0,-1000.0,-0.5,1.0,2.0
09:43:36,72697.0,RTL,0.002407446503639221,0.0017781847855076194,2.9662760496139526,-0.0016305510653182864,0.0009703143732622266,0.001978448242880404,-35.3639886,149.1653637,150265.5,1.0,-1.0,-152.0,0.0,0.0,-999.0,1.0,3.0,4.0
09:43:37,300000.0,RTL,0.0023121541016735137,0.001818817836465314,2.967223882675171,-0.0003551168483681977,-0.0004587518924381584,-0.0004690039495471865,-35.3639886,149.1653637,151816.5,1.0,-1.25,-152.0,0.0,0.0,-1000.0,1.75,1.5,1.25
09:43:38,300000.0,RTL,0.002447690349072218,0.001483650819864124,2.96708881855011,-0.0015800910769030452,0.00041515985503792763,-0.00024382158881053329,-35.3639886,149.1653637,153372.5,1.0,-1.0,-152.0,0.0,0.0,-999.5,0.5,2.5,1.5
09:43:40,300000.0,RTL,0.0025022310437634587,0.001561238314025104,2.96738338470459,0.0012273372849449515,0.0007627794984728098,0.0007583937258459628,-35.3639886,149.1653637,156483.5,1.0,-2.0,-152.0,0.0,0.0,-1000.0,3.5,3.0,2.5
09:43:41,151692.0,RTL,0.002510550490114838,0.001547048130305484,2.9673483967781067,0.00034644830157049,-0.0004400569014251232,0.0001769217778928578,-35.3639886,149.1653637,158034.5,1.0,-2.0,-152.0,0.0,0.0,-1000.5,2.5,1.75,1.75
09:43:42,151692.0,RTL,0.002599599538370967,0.0016043588984757662,2.967436671257019,-0.0020975664374418557,0.00018764054402709007,-0.0010101370280608535,-35.3639886,149.1653637,159587.0,1.0,-2.0,-152.0,0.0,0.0,-1000.0,0.0,2.5,0.5
09:43:44,151692.0,RTL,0.0026110082399100065,0.001563490368425846,2.9676918983459473,0.00022084428928792477,0.00018367241136729717,-2.4464796297252178e-05,-35.3639886,149.1653637,162694.0,1.0,-2.0,-152.0,0.0,0.0,-999.5,2.5,2.5,2.0
09:43:45,112083.0,RTL,0.003015309455804527,0.001605304452823475,2.967771828174591,0.000505738309584558,0.00080715655349195,0.0008722518396098167,-35.3639886,149.1653637,164250.5,1.0,-2.0,-152.0,0.0,0.0,-1000.0,3.0,2.75,2.75
09:43:46,112083.0,RTL,0.002636367455124855,0.001636624918319285,2.9676942825317383,6.680376827716827e-05,-0.0010879539186134934,0.002085598767735064,-35.3639886,149.1653637,165805.5,1.0,-2.0,-152.0,0.0,0.0,-1000.0,2.5,1.5,3.5
09:43:48,112083.0,RTL,0.0023183453595265746,0.00156280561350286,2.967865824699402,0.0012874685344286263,0.0008461260003969073,0.0013625501887872815,-35.3639886,149.1653637,168912.5,1.0,-2.0,-152.0,0.0,0.0,-1000.0,3.5,3.0,3.0
09:43:49,269553.0,RTL,0.0023596943356096745,0.0015789048047736287,2.9678834080696106,-9.226874681189656e-05,0.00023875449551269412,0.0002645751810632646,-35.3639886,149.1653637,170470.75,1.0,-1.25,-152.0,0.0,0.0,-1000.0,2.5,2.0,2.25
09:43:50,269553.0,RTL,0.0023497282527387142,0.0016541795921511948,2.9678345918655396,0.0008834790205582976,-0.0003724844427779317,0.0009459160501137376,-35.3639886,149.1653637,172022.5,1.0,-1.0,-152.0,0.0,0.0,-1000.0,3.5,2.0,3.0
09:43:52,269553.0,RTL,0.002469120197929442,0.0015700440853834152,2.967923164367676,-0.0013883094070479274,0.00034857483115047216,0.0002565368777140975,-35.3639886,149.1653637,175133.0,1.0,-1.0,-152.0,0.0,0.0,-1000.0,1.0,2.5,2.0
09:43:53,300000.0,RTL,0.0024191714474000037,0.0017841172812040895,2.9687336683273315,0.0014989836199674755,0.0011618566350080073,0.0016046668170019984,-35.3639886,149.1653637,176687.25,1.0,-1.0,-152.0,0.0,0.0,-1000.25,4.0,3.5,3.75
09:43:54,300000.0,RTL,0.002686389721930027,0.0011517414241097867,2.9688481092453003,-0.00019397540017962456,-0.0014141987776383758,-0.0006958581507205963,-35.3639886,149.1653637,178240.0,1.0,-2.0,-152.0,0.0,0.0,-1000.0,2.0,1.0,1.5
09:43:56,300000.0,RTL,0.0026135623920708895,0.0014974753721617162,2.968590497970581,-0.00010535621549934149,0.00045970885548740625,-0.0009655588655732572,-35.3639886,149.1653637,181347.0,0.0,-2.0,-152.0,0.0,0.0,-1000.0,2.0,2.5,1.0
09:43:57,195987.0,RTL,0.002515263156965375,0.0017722847405821085,2.9686155319213867,0.00041186995804309845,0.0005825497210025787,0.00017924437997862697,-35.3639886,149.1653637,182902.5,1.0,-2.0,-152.0,0.0,0.0,-999.75,3.0,2.75,2.0
09:43:58,195987.0,RTL,0.0025308706099167466,0.0017572434735484421,2.968740701675415,0.0005853575421497226,-3.251945599913597e-06,0.0003788417670875788,-35.3639886,149.1653637,184457.0,1.0,-2.0,-152.0,0.0,0.0,-1000.0,3.0,2.5,2.5
09:44:00,195987.0,RTL,0.00282179971691221,0.0015785710420459509,2.968719482421875,8.696399163454771e-05,0.0002093614311888814,0.0013336690608412027,-35.3639886,149.1653637,187562.0,1.0,-2.0,-152.0,0.0,0.0,-1000.0,2.5,3.0,3.5
09:44:01,72714.0,RTL,0.0026056208298541605,0.0017609017086215317,2.9688169956207275,0.0002790723228827119,0.00040263525443151593,0.0006756096845492721,-35.3639886,149.1653637,189115.0,1.0,-2.0,-152.0,0.0,0.0,-1000.0,3.0,2.75,2.75
09:44:02,72714.0,RTL,0.00244995194952935,0.0015565156936645508,2.968582272529602,0.0004613924538716674,-0.0003107098746113479,0.0008653021650388837,-35.3639886,149.1653637,190668.0,1.0,-2.0,-152.0,0.0,0.0,-1000.0,3.0,2.0,3.0
09:44:04,72714.0,RTL,0.0023228564532473683,0.0015494083054363728,2.9685025215148926,-0.00038398837205022573,0.0001809884561225772,0.0011750817648135126,-35.3639886,149.1653637,193776.0,1.0,-1.5,-152.0,0.0,0.0,-999.5,2.0,2.5,3.0
09:44:05,32348.0,RTL,0.0025425732019357383,0.001422708824975416,2.968678116798401,0.0006501269817817956,-4.394171992316842e-05,0.0007136485073715448,-35.3639886,149.1653637,195329.25,1.0,-1.25,-152.0,0.0,0.0,-1000.0,3.5,2.5,2.75
09:44:06,32348.0,RTL,0.002472375868819654,0.0016827855142764747,2.968632459640503,-0.00047526205889880657,0.0001312850508838892,-0.0013056310126557946,-35.3639886,149.1653637,196884.5,1.0,-2.0,-152.0,0.0,0.0,-1000.0,2.0,2.5,1.0
09:44:08,32348.0,RTL,0.0025291338097304106,0.0015554613200947642,2.968726396560669,-0.0003864587051793933,0.0005733348662033677,-7.136364001780748e-05,-35.3639886,149.1653637,199995.0,1.0,-1.5,-152.0,0.0,0.0,-1000.0,2.5,3.0,2.0
09:44:09,266947.0,RTL,0.0023362887441180646,0.0017032947216648608,2.969184398651123,0.00019313200027681887,0.000102336605777964,0.0006698016659356654,-35.3639886,149.1653637,201546.5,1.0,-1.75,-152.0,0.0,0.0,-1000.0,2.75,2.5,3.0
09:44:10,266947.0,RTL,0.0025726505555212498,0.0011969193874392658,2.9693737030029297,-0.0010430856491439044,-0.0017134060617536306,0.0015397700481116772,-35.3639886,149.1653637,203102.0,1.0,-1.5,-152.0,0.0,0.0,-1000.0,1.5,0.5,3.5
09:44:12,266947.0,RTL,0.0025851981481537223,0.0014619581052102149,2.969271421432495,0.00010712502989917994,0.0003987576346844435,0.00127557129599154,-35.3639886,149.1653637,206208.5,0.0,-2.0,-152.0,0.0,0.0,-1000.0,2.5,2.5,3.5
09:44:13,300000.0,RTL,0.00284584955079481,0.0016016927256714553,2.9690533876419067,0.0005025034188292921,1.6690522897988558e-05,-3.667705459520221e-05,-35.3639886,149.1653637,207765.5,0.75,-1.75,-152.0,0.0,0.0,-1000.0,3.25,2.5,2.25
09:44:14,300000.0,RTL,0.002842407557182014,0.0018971298122778535,2.968991994857788,-0.002708090119995177,0.0004258108092471957,-0.0002221925533376634,-35.3639886,149.1653637,209319.0,1.0,-2.0,-152.0,0.0,0.0,-999.5,0.0,3.0,2.0
09:44:16,300000.0,RTL,0.0023211651714518666,0.0015079701552167535,2.968966841697693,6.498442962765694e-05,0.00018423632718622684,-0.00047316751442849636,-35.3639886,149.1653637,212428.5,1.0,-2.0,-152.0,0.0,0.0,-1000.5,3.0,3.0,2.0
09:44:17,23673.0,RTL,0.0021727257408201694,0.001619147224118933,2.9689406752586365,0.0009796577505767345,-0.00010756886331364512,0.0014864272670820355,-35.3639886,149.1653637,213979.75,1.0,-1.75,-152.0,0.0,0.0,-1000.0,3.75,2.5,3.75
09:44:18,23673.0,RTL,0.00241269264370203,0.001554609916638583,2.968991994857788,-0.0013988623395562172,0.0002686352236196399,-0.001201585924718529,-35.3639886,149.1653637,215534.0,1.0,-1.5,-152.0,0.0,0.0,-1000.0,1.0,3.0,1.0
09:44:20,23673.0,RTL,0.00243253109510988,0.0014757502940483391,2.968758463859558,-0.0004678743425756693,-0.00016067619435489178,-0.0013598027871921659,-35.3639886,149.1653637,218639.5,1.0,-1.5,-152.0,0.0,0.0,-1000.5,2.0,2.5,1.0
09:44:21,232629.0,RTL,0.002497446839697659,0.0015577392186969519,2.968848168849945,-0.00012174923904240131,0.0007169533637352288,-0.00042255446896888316,-35.3639886,149.1653637,220193.0,1.0,-1.75,-152.0,0.0,0.0,-1000.0,2.75,3.5,2.0
09:44:22,232629.0,RTL,0.0024438704131171107,0.0015017795958556235,2.9689258337020874,0.0006373269716277719,-0.0007195834768936038,0.00252954731695354,-35.3639886,149.1653637,221745.5,1.0,-2.0,-152.0,0.0,0.0,-1000.0,3.5,2.0,5.0
09:44:24,232629.0,RTL,0.002483136602677405,0.0016021992778405547,2.9686832427978516,0.0008461087709292769,-6.597128231078386e-05,0.0007935564499348402,-35.3639886,149.1653637,224854.5,1.0,-1.5,-152.0,0.0,0.0,-1000.0,4.0,2.5,3.5
09:44:25,157149.0,RTL,0.0025367281632497907,0.0012609440018422902,2.9692121148109436,-2.2799242287874222e-05,0.0006864690803922713,0.0017144466401077807,-35.3639886,149.1653637,226406.0,1.0,-1.75,-152.0,0.0,0.0,-999.5,3.0,3.5,4.25
09:44:26,157149.0,RTL,0.0027679316699504852,0.0012570609687827528,2.969537615776062,0.0024366307770833373,-0.00028826959896832705,0.0005001655081287026,-35.3639886,149.1653637,227963.0,0.5,-1.5,-152.0,0.0,0.0,-1001.0,5.5,2.0,3.0
09:44:28,157149.0,RTL,0.002695010742172599,0.0015540355234406888,2.969459652900696,-0.001043736469000578,5.6049670092761517e-05,-1.4294462744146585e-05,-35.3639886,149.1653637,231074.0,1.0,-2.0,-152.0,0.0,0.0,-999.5,2.0,2.5,2.5
09:44:29,226502.0,RTL,0.0029978801612742245,0.0020314162829890847,2.9694207906723022,0.0009630477288737893,0.0010719153797253966,0.0008102516876533628,-35.3639886,149.1653637,232623.25,1.0,-2.0,-152.0,0.0,0.0,-1000.0,4.0,3.75,3.5
09:44:30,226502.0,RTL,0.002564295311458409,0.0018357823137193918,2.96921169757843,-0.0006903844187036157,-0.0006812127539888024,0.0001327848294749856,-35.3639886,149.1653637,234182.0,1.0,-2.0,-152.0,0.0,0.0,-1000.0,2.5,2.0,3.0
09:44:32,226502.0,RTL,0.0023230090737342834,0.0014617281849496067,2.9692509174346924,-0.0012925398768857121,-0.0009681415976956487,0.0009223618544638157,-35.3639886,149.1653637,237287.5,1.0,-2.0,-152.0,0.0,0.0,-1000.0,2.0,2.0,3.5
09:44:33,200.0,RTL,0.0022838106960989535,0.00163220742251724,2.9691132307052612,0.0005056231166236103,-0.0002432753099128604,0.0002711345150601119,-35.3639886,149.1653637,238845.25,1.0,-1.75,-152.0,0.0,0.0,-1000.0,3.5,2.75,3.0
09:44:34,200.0,RTL,0.002448616549372673,0.001606854551937431,2.969036340713501,0.0007200628751888871,0.00017749296966940165,-0.00011091947089880705,-35.3639886,149.1653637,240398.0,1.0,-1.0,-152.0,0.0,0.0,-1000.5,4.0,3.0,2.0
09:44:36,200.0,RTL,0.0023816415341570973,0.0015871556825004518,2.969113826751709,0.0005842584650963545,-0.0006555038271471858,0.00014821882359683514,-35.3639886,149.1653637,243507.5,1.0,-1.0,-152.0,0.0,0.0,-1000.5,3.5,2.5,3.0
09:44:37,160139.0,RTL,0.002495991124305874,0.0015656592149753124,2.968850255012512,0.0008426706772297621,0.00034389313077554107,0.0004865524242632091,-35.3639886,149.1653637,245058.0,1.0,-1.25,-152.0,0.0,0.0,-999.75,3.75,3.0,3.25
09:44:38,160139.0,RTL,0.0025332877412438393,0.0015525231137871742,2.968785285949707,-0.0026744670467451215,-0.0001406113151460886,-0.0007878715405240655,-35.3639886,149.1653637,246611.5,1.0,-2.0,-152.0,0.0,0.0,-1000.0,0.0,2.5,2.0
09:44:40,160139.0,RTL,0.0024693100713193417,0.0015751238679513335,2.968861937522888,-0.0021790633909404278,0.0005097041139379144,0.001008029910735786,-35.3639886,149.1653637,249717.5,1.0,-2.0,-152.0,0.0,0.0,-999.5,1.0,3.5,4.0
09:44:41,195084.0,RTL,0.0024867934407666326,0.0016494981828145683,2.9690778255462646,0.0013625380815938115,0.000565208843909204,0.0019332792144268751,-35.3639886,149.1653637,251274.75,1.0,-2.0,-152.0,0.0,0.0,-999.75,4.5,3.5,4.5
09:44:42,195084.0,RTL,0.002835257793776691,0.00160874956054613,2.9696418046951294,0.001859887968748808,0.00031031074468046427,0.000848551164381206,-35.3639886,149.1653637,252826.5,1.0,-2.0,-152.0,0.0,0.0,-1000.0,5.0,3.0,4.0
09:44:44,195084.0,RTL,0.0027678010519593954,0.0014012312167324126,2.969497561454773,-4.279147833585739e-05,0.00019468425307422876,-0.000711458851583302,-35.3639886,149.1653637,255934.0,0.0,-2.0,-152.0,0.0,0.0,-1000.0,3.0,3.0,1.5
09:44:45,119243.0,RTL,0.002642050269059837,0.0016387451905757189,2.9691988229751587,1.9778264686465263e-05,0.0005056756199337542,0.0006582718342542648,-35.3639886,149.1653637,257486.25,0.5,-2.0,-152.0,0.0,0.0,-1000.0,3.25,3.5,3.25
09:44:46,119243.0,RTL,0.0025084679946303368,0.0014722003252245486,2.969197630882263,0.0006847985787317157,0.0006270275916904211,0.0001804620260372758,-35.3639886,149.1653637,259043.5,1.0,-2.0,-152.0,0.0,0.0,-1000.0,4.0,3.5,3.0
09:44:48,119243.0,RTL,0.002282988396473229,0.0016561787342652678,2.969231963157654,-0.0011553545482456684,0.00029082142282277346,0.0010030980920419097,-35.3639886,149.1653637,262154.0,1.0,-1.0,-152.0,0.0,0.0,-1000.0,2.0,3.5,4.0
09:44:49,123765.0,RTL,0.0024659105692990124,0.0015627285465598106,2.969120681285858,-0.00015386653831228614,0.000489428173750639,0.0003666518605314195,-35.3639886,149.1653637,263703.75,1.0,-1.0,-152.0,0.0,0.0,-1000.0,3.25,3.5,3.25
09:44:50,123765.0,RTL,0.002373132389038801,0.0016022043419070542,2.9690849781036377,-0.002792519051581621,2.895435318350792e-05,-0.0008971242350526154,-35.3639886,149.1653637,265261.5,1.0,-2.0,-152.0,0.0,0.0,-999.5,0.5,3.0,2.0
09:44:52,123765.0,RTL,0.002328712260350585,0.0015117473085410893,2.9688462018966675,-0.0013667272869497538,0.00028921104967594147,-0.00023294903803616762,-35.3639886,149.1653637,268367.0,1.0,-1.5,-152.0,0.0,0.0,-999.5,2.0,3.5,2.5
09:44:53,255628.0,RTL,0.002489230770152062,0.0015942321333568543,2.9690017700195312,0.00047336798161268234,0.0004694009548984468,0.0008802430238574743,-35.3639886,149.1653637,269924.0,1.0,-1.25,-152.0,0.0,0.0,-999.75,3.75,3.5,3.75
09:44:54,255628.0,RTL,0.0024196081794798374,0.001537882024422288,2.968930959701538,0.001016303081996739,0.0002129237400367856,-0.0012216840987093747,-35.3639886,149.1653637,271476.5,1.0,-2.0,-152.0,0.0,0.0,-1000.0,4.5,3.0,1.5
09:44:56,255628.0,RTL,0.002534116734750569,0.0016063927905634046,2.969064235687256,0.00046382599975913763,0.001900372328236699,-7.664912845939398e-05,-35.3639886,149.1653637,274585.5,1.0,-2.0,-152.0,0.0,0.0,-1000.0,4.0,4.5,3.0
09:44:57,225761.0,RTL,0.0022922991192899644,0.0015963059267960489,2.9690293669700623,-6.595475133508444e-05,3.0890980269759893e-05,0.0006566712399944663,-35.3639886,149.1653637,276138.25,1.0,-1.5,-152.0,0.0,0.0,-1000.0,3.25,3.25,3.75
09:44:58,225761.0,RTL,0.002592061529867351,0.0015948681393638253,2.9695430994033813,0.0015646874671801925,0.0004823841154575348,0.0009969186503440142,-35.3639886,149.1653637,277692.5,1.0,-1.0,-152.0,0.0,0.0,-1000.5,4.5,4.0,3.5
09:45:00,225761.0,RTL,0.0026952134212478995,0.0013565770932473242,2.9694676399230957,0.0009040257427841425,0.0011078803800046444,0.0025918243918567896,-35.3639886,149.1653637,280798.5,0.0,-2.0,-152.0,0.0,0.0,-999.5,4.0,4.5,5.5
09:45:01,156044.0,RTL,0.0029253048705868423,0.0016102264053188264,2.969457685947418,0.0008968463516794145,0.0008851764141581953,0.0009220692445524037,-35.3639886,149.1653637,282350.5,0.75,-2.0,-152.0,0.0,0.0,-999.75,4.25,4.0,3.75
09:45:02,156044.0,RTL,0.0027191019617021084,0.001433570811059326,2.969225525856018,0.002619323437102139,0.0010363180190324783,0.00031794095411896706,-35.3639886,149.1653637,283904.5,1.0,-2.0,-152.0,0.0,0.0,-999.5,5.5,4.0,3.5
09:45:04,156044.0,RTL,0.002410129993222654,0.0018553865374997258,2.9694008827209473,-0.0005658500595018268,0.0012704133987426758,0.0001882548676803708,-35.3639886,149.1653637,287012.5,1.0,-2.0,-152.0,0.0,0.0,-999.5,3.0,4.0,3.5
09:45:05,224979.0,RTL,0.0021722055971622467,0.0015332881012000144,2.9692527055740356,0.0012740015517920256,0.0001381572219543159,0.00016851996770128608,-35.3639886,149.1653637,288566.0,1.0,-2.0,-152.0,0.0,0.0,-1000.0,4.75,3.5,3.0
09:45:06,224979.0,RTL,0.00231748737860471,0.0016484265797771513,2.9691160917282104,-0.0005759443156421185,0.0007357349386438727,0.0018820412224158645,-35.3639886,149.1653637,290121.0,1.0,-1.0,-152.0,0.0,0.0,-999.5,3.0,4.0,5.0
09:45:08,224979.0,RTL,0.002501891227439046,0.0016252865316346288,2.9690158367156982,0.0004543755203485489,1.0176794603466988e-05,0.0014479606179520488,-35.3639886,149.1653637,293232.0,1.0,-1.5,-152.0,0.0,0.0,-1000.0,4.0,3.5,4.5
09:45:09,117526.0,RTL,0.002354908036068082,0.0015975329151842743,2.9690374732017517,-0.00031045597279444337,-0.0004370042006485164,0.0007575291092507541,-35.3639886,149.1653637,294784.75,1.0,-2.0,-152.0,0.0,0.0,-1000.0,3.0,3.0,3.75
09:45:10,117526.0,RTL,0.0024495876859873533,0.0015485016629099846,2.968987226486206,0.0005924240685999393,0.001707663876004517,0.00023793370928615332,-35.3639886,149.1653637,296338.0,1.0,-1.0,-152.0,0.0,0.0,-1000.0,4.0,5.0,3.5
09:45:12,117526.0,RTL,0.002448603743687272,0.0015225118841044605,2.9687533378601074,0.001956747844815254,0.0021540832240134478,0.0007603152189403772,-35.3639886,149.1653637,299444.5,1.0,-2.0,-152.0,0.0,0.0,-1000.5,5.5,5.5,4.0
09:45:13,300000.0,RTL,0.002436559123452753,0.0016632609476801008,2.968958020210266,-0.0002127724583260715,0.00035385985393077135,0.001628096797503531,-35.3639886,149.1653637,301002.0,1.0,-2.0,-152.0,0.0,0.0,-1000.0,3.25,3.75,4.75
09:45:14,300000.0,RTL,0.0023875347105786204,0.001378829823806882,2.9696155786514282,0.0020189450588077307,-0.0003599283518269658,0.000548464828170836,-35.3639886,149.1653637,302555.0,1.0,-1.5,-152.0,0.0,0.0,-1000.5,5.5,3.0,3.5
09:45:16,300000.0,RTL,0.002869793795980513,0.0014411654556170106,2.9695056676864624,0.003712133737280965,0.0011507616145536304,0.0016523575177416205,-35.3639886,149.1653637,305661.5,1.0,-2.0,-152.0,0.0,0.0,-1000.0,7.5,4.5,5.0
09:45:17,95100.0,RTL,0.0028780487482436,0.001607544720172882,2.9692999720573425,-3.732956247404218e-05,0.0009271599701605737,0.0005553750670515001,-35.3639886,149.1653637,307218.0,1.0,-2.0,-152.0,0.0,0.0,-999.75,3.25,4.5,3.75
09:45:18,95100.0,RTL,0.002589676179923117,0.00167743768543005,2.9693455696105957,-0.000743128708563745,0.0011642128229141235,0.000501696253195405,-35.3639886,149.1653637,308770.5,1.0,-2.0,-152.0,0.0,0.0,-1000.0,3.0,5.0,4.0
09:45:20,95100.0,RTL,0.002318525919690728,0.0016384355258196592,2.969253182411194,0.002187037141993642,0.0004534265026450157,0.0006276249187067151,-35.3639886,149.1653637,311878.5,1.0,-2.0,-152.0,0.0,0.0,-1000.0,6.0,4.0,4.0
09:45:21,200.0,RTL,0.0023179383715614676,0.0016469755792059004,2.9692261815071106,0.0003926734789274633,0.0004854449653066695,0.00023343850625678897,-35.3639886,149.1653637,313429.25,1.0,-1.75,-152.0,0.0,0.0,-1000.0,4.25,4.25,3.75
09:45:22,200.0,RTL,0.0024292306043207645,0.0015606227098032832,2.9692753553390503,0.00016112462617456913,0.0011045429855585098,-0.0003418584819883108,-35.3639886,149.1653637,314982.5,1.0,-1.0,-152.0,0.0,0.0,-999.5,3.5,4.0,3.0
09:45:24,200.0,RTL,0.0024345931597054005,0.0016114962054416537,2.9690247774124146,-0.0004691830836236477,0.0015220304485410452,0.001674021827057004,-35.3639886,149.1653637,318088.5,1.0,-1.5,-152.0,0.0,0.0,-999.0,3.5,5.5,5.0
09:45:25,275504.0,RTL,0.002441893797367811,0.0015268335992004722,2.968986690044403,0.0006887526251375675,-8.572253864258528e-05,0.0012630032724700868,-35.3639886,149.1653637,319645.75,1.0,-1.5,-152.0,0.0,0.0,-1000.25,4.5,3.5,4.25
09:45:26,275504.0,RTL,0.0025122547522187233,0.0014829832944087684,2.9689654111862183,0.0022292996291071177,0.0006471584783867002,0.0001702700974419713,-35.3639886,149.1653637,321199.5,1.0,-2.0,-152.0,0.0,0.0,-1000.0,6.5,4.0,3.5
09:45:28,275504.0,RTL,0.0026130571495741606,0.001100239169318229,2.9690815210342407,0.000622195191681385,0.0004010291304439306,-0.0001658287364989519,-35.3639886,149.1653637,324305.5,0.5,-2.0,-152.0,0.0,0.0,-1000.0,4.5,4.0,3.0
09:45:29,234908.0,RTL,0.0023459512158297002,0.0013455308508127928,2.9689090251922607,0.0003910341183654964,0.00014894339255988598,0.00047731579979881644,-35.3639886,149.1653637,325865.5,0.0,-1.5,-152.0,0.0,0.0,-1000.0,4.0,3.5,4.0
09:45:30,234908.0,RTL,0.0022544602397829294,0.001419677515514195,2.9695316553115845,0.000805699615739286,0.0005620748270303011,0.0016558347269892693,-35.3639886,149.1653637,327415.0,0.5,-1.0,-152.0,0.0,0.0,-1000.5,4.5,4.0,5.0
09:45:32,234908.0,RTL,0.0019193879561498761,0.0012224896345287561,2.96929931640625,0.0003994887229055166,-0.0005598596762865782,-0.0009932981338351965,-35.3639886,149.1653636,330526.5,0.0,-1.0,-152.0,0.0,0.0,-1000.5,4.5,3.0,2.5
09:45:33,300000.0,RTL,0.0015371410408988595,0.0009762985864654183,2.9693435430526733,-0.00015336077194660902,-0.0002782655064947903,0.0003167746472172439,-35.3639886,149.1653636,332079.25,0.0,-1.0,-152.0,0.0,0.0,-1000.0,3.75,3.5,4.0
09:45:34,300000.0,RTL,0.0016419998719356954,0.000910078058950603,2.969180464744568,0.0025536571629345417,0.00036798068322241306,0.0006839609704911709,-35.3639886,149.1653635,333631.5,0.0,-0.5,-152.0,0.0,0.0,-1000.0,6.0,4.5,4.5
09:45:36,300000.0,RTL,0.0010927354742307216,0.0004528504068730399,2.9691455364227295,-2.1844636648893356e-05,0.0003326297737658024,0.0006737395888194442,-35.3639885,149.1653635,336738.5,0.0,0.0,-152.0,0.0,0.0,-1000.0,4.0,4.0,4.0
09:45:37,226229.0,RTL,0.001047067460604012,0.000568246454349719,2.9691492915153503,0.0015798481181263924,0.000515146239195019,0.00022118381457403302,-35.3639885,149.1653634,338291.5,0.0,0.0,-152.0,0.0,0.0,-999.75,5.5,4.5,4.0
09:45:38,226229.0,RTL,0.00137998879654333,0.000544374284800142,2.969175934791565,0.001626655226573348,0.0004398596938699484,0.0015006399480625987,-35.3639885,149.1653634,339844.0,0.0,0.0,-152.0,0.0,0.0,-1000.0,5.5,3.5,5.0
09:45:40,226229.0,RTL,0.0014401072985492647,-0.00024287589076266158,2.9690184593200684,-0.0007327656494453549,-0.0005839007208123803,-0.00014493626076728106,-35.3639884,149.1653634,342952.5,0.0,0.0,-152.0,0.0,0.0,-1000.0,3.0,3.0,3.5
09:45:41,196052.0,RTL,0.001330545695964247,0.0003147181123495102,2.9691572189331055,0.0007119268411770463,0.0002346120891161263,0.0006202394142746925,-35.3639884,149.1653634,344504.0,0.0,0.0,-152.0,0.0,0.0,-1000.25,4.5,3.75,3.75
09:45:42,196052.0,RTL,0.0013094413443468511,0.0006436224648496136,2.9690088033676147,-0.00031057558953762054,-0.0006153713911771774,0.0005683708004653454,-35.3639884,149.1653634,346139.0,0.0,0.0,-152.0,0.0,0.0,-1000.0,3.5,3.0,4.5
09:45:44,196052.0,RTL,0.0009406331519130617,0.00028686571022262797,2.9689682722091675,-0.000995449023321271,-0.0007180047687143087,-0.0004277274711057544,-35.3639884,149.1653634,349325.5,0.0,0.0,-152.0,0.0,0.0,-1000.0,3.0,3.0,3.0
09:45:45,200.0,RTL,0.0010230277111986652,0.000164904889970785,2.968970775604248,-0.00045882113045081496,-0.00019903911743313074,-0.0005366894765757024,-35.3639884,149.1653634,350877.5,0.0,0.0,-152.0,0.0,0.0,-999.75,3.5,3.5,3.0
09:45:46,200.0,RTL,0.0006107699737185612,-0.00046297463995870203,2.9694467782974243,-0.0011097714304924011,-0.0010997351491823792,0.0011266282526776195,-35.3639884,149.1653634,352431.0,0.0,0.0,-152.0,0.0,0.0,-1000.0,3.0,3.0,4.5
09:45:48,200.0,RTL,0.0007941109361127019,-0.0001845861133915605,2.9694437980651855,-0.0020587772596627474,0.00018673506565392017,-0.0007961741648614407,-35.3639884,149.16536335,355536.0,0.0,0.0,-152.0,0.0,0.0,-1000.0,2.0,4.0,2.5
09:45:49,300000.0,RTL,0.0005508205940714106,-4.556078681616782e-05,2.9693562388420105,-0.00020339584443718195,-0.0008072034106589854,-0.00032852328149601817,-35.3639884,149.1653633,357089.25,0.0,0.0,-152.0,0.0,0.0,-1000.0,3.5,2.75,3.25
09:45:50,300000.0,RTL,0.0006208943668752909,-0.0003076651264564134,2.9693647623062134,-0.0011056694202125072,0.0002508831676095724,0.0006183322984725237,-35.3639884,149.1653633,358643.5,0.0,0.5,-152.0,0.0,0.0,-999.0,2.5,4.0,4.0
09:45:52,300000.0,RTL,0.000758072012104094,-0.00022802188323112205,2.9691877365112305,1.3834098353981972e-05,-0.0003190484130755067,-0.0007799530867487192,-35.3639884,149.1653633,361755.0,0.0,0.5,-152.0,0.0,0.0,-1000.0,4.0,3.0,3.0
09:45:53,74961.0,RTL,0.0007760266598779708,-0.000253212023380911,2.9692643880844116,-0.0003852434456348419,-0.0005141282454133034,3.975181607529521e-05,-35.3639884,149.1653633,363307.25,0.0,0.0,-152.0,0.0,0.0,-1000.0,3.5,3.25,3.5
09:45:54,74961.0,RTL,0.0006922430184204131,-0.0002828976575983688,2.9692989587783813,0.00014653056859970093,0.0001803082413971424,2.607691567391157e-05,-35.3639884,149.1653633,364861.0,0.0,0.0,-152.0,0.0,0.0,-1000.0,3.5,4.0,4.0
09:45:56,74961.0,RTL,0.0006516663124784827,-0.0004890722775598988,2.969334840774536,-1.1083204299211502e-05,0.0007028067484498024,-9.880284778773785e-06,-35.3639884,149.1653633,367972.0,0.0,1.0,-152.0,0.0,0.0,-1000.0,3.5,4.5,3.5
09:45:57,54792.0,RTL,0.0006181469070725143,-0.0003641988841991406,2.9690951108932495,-0.0004941457300446928,8.063385030254722e-05,0.00045094394590705633,-35.3639884,149.1653633,369525.75,0.0,1.0,-152.0,0.0,0.0,-999.5,3.25,3.25,4.25
09:45:58,54792.0,RTL,0.0005843233957421035,-0.00031596067128703,2.9692405462265015,0.0006953203119337559,0.0002458724193274975,0.0010671652853488922,-35.3639884,149.1653633,371082.0,0.0,1.0,-152.0,0.0,0.0,-1000.0,4.0,4.0,4.5
09:46:00,54792.0,RTL,5.28791788383387e-05,-0.0004269975906936452,2.9690754413604736,-0.0011585266329348087,-0.0006032787496224046,-0.0005536373937502503,-35.3639884,149.16536324999998,374188.5,0.0,1.0,-152.0,0.0,0.0,-1000.0,2.5,3.0,3.5
09:46:01,300000.0,RTL,-4.612382599589182e-05,-0.0004739433352369815,2.9691184163093567,0.00031133682932704687,-0.00023022451205179095,0.000364900566637516,-35.3639884,149.1653632,375741.5,0.0,1.0,-152.0,0.0,0.0,-999.75,3.75,3.5,4.0
09:46:02,300000.0,RTL,8.047884693951346e-05,-0.0005517875251825899,2.969498634338379,-0.000877771177329123,-0.00015938305296003819,0.0014400980435311794,-35.3639884,149.1653632,377295.5,0.0,1.0,-152.0,0.0,0.0,-999.5,3.0,3.5,5.0
09:46:04,300000.0,RTL,0.0010267898032907397,-0.0003540303878253326,2.969484567642212,-0.0015899220015853643,0.0002565972972661257,-0.00045389984734356403,-35.3639884,149.1653632,380401.5,-0.5,1.0,-152.0,0.0,0.0,-999.5,2.5,3.5,3.0
09:46:05,300000.0,RTL,0.0005682185510522686,-0.0003941687900805846,2.9694639444351196,-1.1956901289522648e-05,-0.0004569338052533567,0.00047520658699795604,-35.3639884,149.1653632,381956.0,-1.0,1.0,-152.0,0.0,0.0,-1000.5,3.5,3.0,3.75
09:46:06,300000.0,RTL,0.0003303057746961713,-0.00036544249451253563,2.9694124460220337,-0.0021596981678158045,0.0007997595239430666,0.0004529273137450218,-35.3639884,149.1653632,383509.0,-1.0,1.0,-152.0,0.0,0.0,-999.5,1.5,4.0,4.5
09:46:08,300000.0,RTL,-0.00022734721278538927,-0.0004894932499155402,2.9693349599838257,0.002394513227045536,-0.0008923009736463428,-3.5751028917729855e-05,-35.3639884,149.1653632,386616.0,-0.5,1.0,-152.0,0.0,0.0,-1000.5,6.0,2.5,4.0
09:46:09,257783.0,RTL,0.00027659778152155923,-0.0010229268809780478,2.9694029688835144,0.0008083363063633442,-0.00031941657653078437,7.657578680664301e-05,-35.36398835,149.1653632,388167.75,-0.5,1.5,-152.0,0.0,0.0,-1000.0,4.5,3.0,3.75
09:46:10,257783.0,RTL,0.00026406763936392963,-0.0009487595525570214,2.9693124294281006,-0.0018048456404358149,-0.0008760521886870265,-0.0009251715382561088,-35.3639883,149.1653632,389723.0,-1.0,1.0,-152.0,0.0,0.0,-1000.0,1.5,2.5,2.5
09:46:12,257783.0,RTL,0.0002668287415872328,-0.0006522296171169728,2.969313621520996,-0.000342837767675519,-0.0006806462770327926,0.0009495704434812069,-35.3639883,149.1653632,392836.0,-1.0,1.0,-152.0,0.0,0.0,-1000.0,3.5,3.0,4.5
09:46:13,200.0,RTL,0.0005688271339749917,-0.0005678027519024909,2.969212532043457,-0.00015540473395958543,-0.00018549809465184808,-0.0007943628588691354,-35.3639883,149.1653632,394385.25,-1.0,1.0,-152.0,0.0,0.0,-999.75,3.0,3.0,2.75
09:46:14,200.0,RTL,0.0008740514458622783,-0.00027114224940305576,2.9692389965057373,0.00018719059880822897,-0.0015481527661904693,-0.0007761991582810879,-35.3639883,149.1653632,395938.5,-1.0,1.0,-152.0,0.0,0.0,-1000.5,3.5,2.0,3.0
09:46:16,200.0,RTL,-0.00011472807091195136,-0.0004810673126485199,2.969212055206299,-0.00026002072263509035,0.00019378424622118473,-0.0009396271780133247,-35.3639883,149.1653632,399044.5,0.0,1.0,-152.0,0.0,0.0,-1000.0,3.0,3.5,2.5
09:46:17,300000.0,RTL,-0.0004587376897688955,-0.0006359510516631417,2.969296455383301,0.000951028021518141,3.970117541030049e-05,0.0003103792550973594,-35.3639883,149.1653632,400605.75,-0.25,1.0,-152.0,0.0,0.0,-999.75,4.25,3.5,4.25
09:46:18,300000.0,RTL,-0.0005631279200315475,-0.0006548955570906401,2.9694414138793945,-0.0026426672702655196,-0.000163798569701612,-0.0008295521838590503,-35.3639883,149.16536315000002,402159.0,0.0,2.0,-152.0,0.0,0.0,-999.5,1.0,3.0,2.5
09:46:20,300000.0,RTL,0.0005703218776034191,-0.0010282514849677682,2.9699045419692993,0.0010398603044450283,-0.001509562018327415,-0.0009762789122760296,-35.3639883,149.1653631,405267.5,-0.5,1.5,-152.0,0.0,0.0,-1000.5,4.5,2.0,2.5
09:46:21,186275.0,RTL,0.00056726552429609,-0.0008263313065981492,2.969784200191498,0.00023778894683346152,0.00045242690248414874,-0.0010868561221286654,-35.3639883,149.1653632,406818.5,-1.0,1.0,-152.0,0.0,0.0,-999.75,3.75,3.75,2.25
09:46:22,186275.0,RTL,0.0011298567987978458,-0.0005117299733683467,2.969611167907715,-0.001544110244140029,-0.00021236948668956757,-0.0008360212668776512,-35.3639883,149.1653632,408372.0,-1.0,1.0,-152.0,0.0,0.0,-1000.0,2.0,3.0,3.0
09:46:24,186275.0,RTL,8.436745702056214e-05,-0.0005774699820904061,2.969521403312683,-0.002926671993918717,-0.0006732649635523558,-0.0012633841251954436,-35.3639883,149.1653632,411478.5,-1.0,1.0,-152.0,0.0,0.0,-1000.0,1.0,2.5,2.5
09:46:25,223082.0,RTL,-0.00032785885559860617,-0.000696135641192086,2.969370722770691,-0.0007258649566210806,-0.0002433518529869616,-0.0005975893582217395,-35.3639883,149.1653632,413036.25,-1.0,1.0,-152.0,0.0,0.0,-999.75,2.75,2.75,3.0
09:46:26,223082.0,RTL,-1.4171091606840491e-06,-0.0008060139953158796,2.9693785905838013,-0.0015983565244823694,-0.0002699859905987978,-0.0013755972031503916,-35.3639883,149.1653632,414587.5,-1.0,1.5,-152.0,0.0,0.0,-999.5,2.0,3.0,2.0
09:46:28,223082.0,RTL,5.377822481023031e-05,-0.0004097609198652208,2.9692846536636353,-0.0017329895636066794,-0.0013758378336206079,-0.00034475349821150303,-35.3639883,149.1653632,417693.5,-1.0,1.5,-152.0,0.0,0.0,-1000.0,1.5,2.0,3.5
09:46:29,77991.0,RTL,5.2466341003309935e-05,-0.0005268643435556442,2.969159424304962,-0.0007109640282578766,-0.0005986024043522775,-0.0007340651354752481,-35.3639883,149.1653632,419244.75,0.0,1.0,-152.0,0.0,0.0,-1000.0,2.75,2.25,2.75
09:46:30,77991.0,RTL,2.2231846742215566e-05,-0.0006614441226702183,2.9690762758255005,-0.0019752291264012456,-0.0005756935570389032,-0.0006718771765008569,-35.3639883,149.1653632,420802.0,-0.5,1.0,-152.0,0.0,0.0,-1000.0,1.5,3.0,3.0
09:46:32,77991.0,RTL,0.000196283872355707,-0.0008225721248891205,2.9692349433898926,-0.0010844540083780885,-0.00031028292141854763,-3.278197254985571e-05,-35.3639883,149.1653632,423912.0,-1.0,1.0,-152.0,0.0,0.0,-999.5,2.0,2.5,3.5
09:46:33,300000.0,RTL,0.00021478357984960894,-0.000950018729781732,2.9690229892730713,0.000182113959454,0.0005900940741412342,-0.0007330139633268118,-35.3639883,149.1653632,425461.0,-1.0,1.5,-152.0,0.0,0.0,-1000.0,3.5,3.75,2.75
09:46:34,300000.0,RTL,5.420533489086665e-05,-0.0006054993718862534,2.9695674180984497,-0.0013700443087145686,-0.0008268662495538592,0.00047794554848223925,-35.3639883,149.1653632,427018.0,-1.0,1.0,-152.0,0.0,0.0,-1000.0,2.0,2.0,4.0
09:46:36,300000.0,RTL,0.00025908122188411653,-0.0007455764862243086,2.969850778579712,-0.0007912834407761693,-0.0002673262497410178,-0.0026297663571313024,-35.3639883,149.1653632,430124.5,-1.0,2.0,-152.0,0.0,0.0,-1000.0,2.5,2.5,1.0
09:46:37,143547.0,RTL,0.000245154500589706,-0.0007310241926461458,2.9697235822677612,-0.00017042338731698692,-0.0006048092036508024,-0.00027222331846132874,-35.3639883,149.1653632,431682.0,-1.0,1.0,-152.0,0.0,0.0,-1000.0,2.75,2.0,3.5
09:46:38,143547.0,RTL,0.00022602426179219037,-0.0007072876032907516,2.9696316719055176,-0.0009958677692338824,-0.00023938866797834635,-0.0020978039829060435,-35.3639883,149.1653632,433235.0,-1.0,1.0,-152.0,0.0,0.0,-1000.0,2.5,3.0,1.5
09:46:40,143547.0,RTL,0.00013601407044916414,-0.0007435655279550701,2.9695106744766235,0.002161121228709817,0.0005401389207690954,0.0011203218018636107,-35.3639883,149.1653632,436343.0,-1.0,1.0,-152.0,0.0,0.0,-1000.0,5.0,3.5,4.5
09:46:41,27951.0,RTL,0.0002303488399775233,-0.0007134554034564644,2.969401180744171,-0.0008120667189359665,-0.0009322906262241304,-0.0010416520526632667,-35.3639883,149.1653632,437894.75,-1.0,1.25,-152.0,0.0,0.0,-1000.0,2.25,2.0,2.5
09:46:42,27951.0,RTL,0.0001268277846975252,-0.00046135838056216016,2.9694724082946777,-0.0007136935601010919,-0.0003846988547593355,-0.0013371475506573915,-35.3639883,149.1653632,439449.0,-1.0,1.0,-152.0,0.0,0.0,-1000.5,2.5,3.0,2.0
09:46:44,27951.0,RTL,0.00010918013140326366,-0.0005986735632177442,2.9693493843078613,-0.0021827814634889364,-2.9414426535367966e-05,-0.0013161253882572055,-35.3639883,149.1653632,442553.5,0.0,1.5,-152.0,0.0,0.0,-999.5,1.0,2.5,2.0
09:46:45,249363.0,RTL,9.906971172313206e-05,-0.0006033981480868533,2.969178020954132,-0.0006194490706548095,0.00030070875072851777,-0.00033781700767576694,-35.3639883,149.1653632,444107.0,-1.0,1.0,-152.0,0.0,0.0,-1000.25,2.5,3.25,3.0
09:46:46,249363.0,RTL,0.00014055538667889778,-0.0009403598378412426,2.9694671630859375,-0.00074926414526999,-0.0008375096367672086,7.865449879318476e-05,-35.3639883,149.1653632,445659.5,-1.0,1.5,-152.0,0.0,0.0,-1000.0,3.0,2.0,3.5
09:46:48,249363.0,RTL,0.00022202689433470368,-0.000653650495223701,2.969093918800354,0.0013378701405599713,4.44524921476841e-05,0.0009107292862609029,-35.3639883,149.1653632,448767.5,-1.0,2.0,-152.0,0.0,0.0,-1000.0,4.5,3.5,4.5
09:46:49,41141.0,RTL,0.0002567669471318368,-0.0007998970395419747,2.9692288041114807,6.437406409531832e-05,-0.0009890846558846533,8.89961957000196e-05,-35.3639883,149.1653632,450321.25,-1.0,1.5,-152.0,0.0,0.0,-1000.25,3.25,2.0,3.5
09:46:50,41141.0,RTL,0.00012052049351041205,-0.0006496042187791318,2.969304323196411,-0.00019862107001245022,0.0010803104378283024,-5.310866981744766e-06,-35.3639883,149.1653632,451878.0,-1.0,1.0,-152.0,0.0,0.0,-1000.0,2.5,4.0,3.0
09:46:52,41141.0,RTL,0.00028428772930055857,-0.0006925516354385763,2.9699065685272217,7.754552643746138e-05,0.0017969374312087893,-0.000666452688165009,-35.3639883,149.1653632,454988.5,-1.0,2.0,-152.0,0.0,0.0,-999.5,3.5,4.5,2.5
09:46:53,117065.0,RTL,0.00018295708377991104,-0.0007174256461439654,2.969658315181732,-0.0006890226504765451,0.00022460793843492866,-0.0005236353608779609,-35.3639883,149.1653632,456542.0,-1.0,2.0,-152.0,0.0,0.0,-1000.0,2.75,3.0,2.75
09:46:54,117065.0,RTL,0.00029321292458917014,-0.0006397610559361055,2.9695922136306763,-8.711975533515215e-05,-0.0002647009678184986,-0.0008041172986850142,-35.3639883,149.1653632,458096.0,-1.0,1.0,-152.0,0.0,0.0,-1000.0,2.5,2.5,2.5
09:46:56,117065.0,RTL,0.00018863707009586506,-0.0007284850289579481,2.969606041908264,0.0014978661201894283,9.306531865149736e-05,0.00022403255570679903,-35.3639883,149.1653632,461203.5,-1.0,1.0,-152.0,0.0,0.0,-1000.0,4.5,3.0,3.5
09:46:57,200.0,RTL,0.0002035798352153506,-0.0006989832181716338,2.9695181250572205,-0.00032966898288577795,-0.0005551745998673141,-0.0011152662336826324,-35.3639883,149.1653632,462760.5,-1.0,1.0,-152.0,0.0,0.0,-999.75,2.5,2.5,2.0
09:46:58,200.0,RTL,9.007980406749994e-05,-0.00038718518044333905,2.9694106578826904,-0.0010670380434021354,0.00012165645603090525,-0.0010558560024946928,-35.3639883,149.1653632,464313.0,-1.0,1.0,-152.0,0.0,0.0,-1000.0,1.5,2.5,2.5
09:47:00,200.0,RTL,0.0001117234569392167,-0.0005755784222856164,2.969475507736206,0.0023434507893398404,-9.621353819966316e-05,0.0008477306691929698,-35.3639883,149.1653632,467419.0,0.0,1.5,-152.0,0.0,0.0,-1000.5,5.0,2.5,4.0
09:47:01,287088.0,RTL,7.475397251255345e-05,-0.0007188000454334542,2.9692468643188477,-0.0008715058793313801,3.568950342014432e-05,-0.0009068841463886201,-35.3639883,149.1653632,468975.5,-1.0,2.0,-152.0,0.0,0.0,-1000.0,2.25,3.0,2.0
09:47:02,287088.0,RTL,0.0001275204194826074,-0.000997088965959847,2.969320774078369,0.0015036207623779774,-0.0006801072740927339,8.585082832723856e-05,-35.3639883,149.1653632,470528.0,-1.0,1.5,-152.0,0.0,0.0,-1000.0,4.5,2.0,3.0
09:47:04,287088.0,RTL,-0.00016150510782608762,-0.0007454935985151678,2.9691072702407837,0.0005125810857862234,-0.0010554229374974966,-0.0013135140761733055,-35.3639883,149.1653631,473634.0,-1.0,2.0,-152.0,0.0,0.0,-1000.0,3.5,1.5,1.5
09:47:05,52775.0,RTL,1.612305959497462e-05,-0.0008417971985181794,2.9692469239234924,-0.0012468129862099886,-0.00047214204096235335,-0.0006254152394831181,-35.3639883,149.1653631,475185.0,-1.0,2.0,-152.0,0.0,0.0,-1000.0,1.75,2.25,2.25
09:47:06,52775.0,RTL,-2.5751753582881065e-05,-0.0007746066548861563,2.9691933393478394,-0.0004463793011382222,-2.829381264746189e-05,-0.00035090220626443624,-35.3639883,149.1653631,476738.0,-1.0,2.0,-152.0,0.0,0.0,-999.5,2.5,2.5,3.0
09:47:08,52775.0,RTL,0.00012992622214369476,-0.0008041673572733998,2.969752550125122,-0.000670521694701165,0.0013782914029434323,-0.0014165950706228614,-35.3639883,149.1653631,479844.0,-1.0,2.0,-152.0,0.0,0.0,-999.0,2.0,4.0,2.0
09:47:09,59753.0,RTL,0.00047645927406847477,-0.0006696758646285161,2.9696895480155945,0.000445232552010566,-0.0001461066131014377,-0.0006761616095900536,-35.3639883,149.1653631,481400.75,-1.0,2.0,-152.0,0.0,0.0,-1000.0,3.25,2.5,2.25
09:47:10,59753.0,RTL,0.00027091458105132915,-0.0006252508028410375,2.9697569608688354,0.00016527052503079176,0.0020186167676001787,0.00021463923621922731,-35.3639883,149.1653631,482955.0,-1.0,1.5,-152.0,0.0,0.0,-999.5,2.5,4.5,3.5
09:47:12,59753.0,RTL,4.191153038846096e-05,-0.0007355542329605669,2.9694637060165405,0.001071605714969337,0.0009848229819908738,0.00010529183782637119,-35.3639883,149.1653631,486062.0,-1.0,2.0,-152.0,0.0,0.0,-1000.0,4.0,3.5,3.0
