time_stamp,MODE,lat,lon,relative_alt,roll,pitch,yaw,rollspeed,pitchspeed,yawspeed,xacc,yacc,zacc,xgyro,ygyro,zgyro,vx,vy,vz,alt,VFR_HUD_alt,EK2_ALT_SOURCE,RTL_ALT
11:49:30.258,STABILIZE,-35.3632621,149.1652374,47,-0.00015941177844069898,0.0015810037730261683,0.026403486728668213,0.0004422502242960036,0.00028243675478734076,0.002235840540379286,0,1,-1000,0,0,0,0,0,-1,584030,584.0199584960938,0.0,1500.0
11:49:30.462,STABILIZE,-35.3632621,149.1652374,47,-0.00015941177844069898,0.0015810037730261683,0.026403486728668213,0.0004422502242960036,0.00028243675478734076,0.002235840540379286,0,1,-1000,0,0,0,0,0,-1,584030,584.0199584960938,0.0,1500.0
11:49:30.671,STABILIZE,-35.3632621,149.1652374,47,-0.00015941177844069898,0.0015810037730261683,0.026403486728668213,0.0004422502242960036,0.00028243675478734076,0.002235840540379286,0,1,-1000,0,0,0,0,0,-1,584030,584.0199584960938,0.0,1500.0
11:49:30.877,STABILIZE,-35.3632621,149.1652374,47,-0.00015941177844069898,0.0015810037730261683,0.026403486728668213,0.0004422502242960036,0.00028243675478734076,0.002235840540379286,0,1,-1000,0,0,0,0,0,-1,584030,584.0199584960938,0.0,1500.0
11:49:31.080,STABILIZE,-35.3632621,149.1652374,47,-0.00015941177844069898,0.0015810037730261683,0.026403486728668213,0.0004422502242960036,0.00028243675478734076,0.002235840540379286,0,1,-1000,0,0,0,0,0,-1,584030,584.0199584960938,0.0,1500.0
11:49:31.288,STABILIZE,-35.3632621,149.1652374,47,-0.00015941177844069898,0.0015810037730261683,0.026403486728668213,0.0004422502242960036,0.00028243675478734076,0.002235840540379286,0,1,-1000,0,0,0,0,0,-1,584030,584.0199584960938,0.0,1500.0
11:49:31.493,STABILIZE,-35.3632621,149.1652374,47,-0.00015941177844069898,0.0015810037730261683,0.026403486728668213,0.0004422502242960036,0.00028243675478734076,0.002235840540379286,0,1,-1000,0,0,0,0,0,-1,584030,584.0199584960938,0.0,1500.0
11:49:31.701,STABILIZE,-35.3632621,149.1652374,47,-0.00015941177844069898,0.0015810037730261683,0.026403486728668213,0.0004422502242960036,0.00028243675478734076,0.002235840540379286,0,1,-1000,0,0,0,0,0,-1,584030,584.0199584960938,0.0,1500.0
11:49:31.919,STABILIZE,-35.3632621,149.1652374,47,-0.00015941177844069898,0.0015810037730261683,0.026403486728668213,0.0004422502242960036,0.00028243675478734076,0.002235840540379286,0,1,-1000,0,0,0,0,0,-1,584030,584.0199584960938,0.0,1500.0
11:49:32.124,STABILIZE,-35.3632621,149.1652374,47,-0.00015941177844069898,0.0015810037730261683,0.026403486728668213,0.0004422502242960036,0.00028243675478734076,0.002235840540379286,0,1,-1000,0,0,0,0,0,-1,584030,584.0199584960938,0.0,1500.0
11:49:32.327,STABILIZE,-35.3632621,149.1652374,47,-0.00015941177844069898,0.0015810037730261683,0.026403486728668213,0.0004422502242960036,0.00028243675478734076,0.002235840540379286,0,1,-1000,0,0,0,0,0,-1,584030,584.0199584960938,0.0,1500.0
11:49:32.533,STABILIZE,-35.3632621,149.1652374,47,-0.00018016692774835974,0.001340100192464888,0.02512398734688759,0.00025326688773930073,0.00023644760949537158,0.0020338541362434626,0,1,-1000,0,0,0,0,0,-1,584030,584.010009765625,0.0,1500.0
11:49:32.743,STABILIZE,-35.3632621,149.1652374,47,-0.00018016692774835974,0.001340100192464888,0.02512398734688759,0.00025326688773930073,0.00023644760949537158,0.0020338541362434626,0,1,-1000,0,0,0,0,0,-1,584030,584.010009765625,0.0,1500.0
11:49:32.945,STABILIZE,-35.3632621,149.1652374,47,-0.00018016692774835974,0.001340100192464888,0.02512398734688759,0.00025326688773930073,0.00023644760949537158,0.0020338541362434626,0,1,-1000,0,0,0,0,0,-1,584030,584.010009765625,0.0,1500.0
11:49:33.146,STABILIZE,-35.3632621,149.1652374,47,-0.00018016692774835974,0.001340100192464888,0.02512398734688759,0.00025326688773930073,0.00023644760949537158,0.0020338541362434626,0,1,-1000,0,0,0,0,0,-1,584030,584.010009765625,0.0,1500.0
11:49:33.366,STABILIZE,-35.3632621,149.1652374,47,-0.00018016692774835974,0.001340100192464888,0.02512398734688759,0.00025326688773930073,0.00023644760949537158,0.0020338541362434626,0,1,-1000,0,0,0,0,0,-1,584030,584.010009765625,0.0,1500.0
11:49:33.607,STABILIZE,-35.3632621,149.1652374,47,-0.00018016692774835974,0.001340100192464888,0.02512398734688759,0.00025326688773930073,0.00023644760949537158,0.0020338541362434626,0,1,-1000,0,0,0,0,0,-1,584030,584.010009765625,0.0,1500.0
11:49:33.816,STABILIZE,-35.3632621,149.1652374,47,-0.00018016692774835974,0.001340100192464888,0.02512398734688759,0.00025326688773930073,0.00023644760949537158,0.0020338541362434626,0,1,-1000,0,0,0,0,0,-1,584030,584.010009765625,0.0,1500.0
11:49:34.028,STABILIZE,-35.3632621,149.1652374,47,-0.00018016692774835974,0.001340100192464888,0.02512398734688759,0.00025326688773930073,0.00023644760949537158,0.0020338541362434626,0,1,-1000,0,0,0,0,0,-1,584030,584.010009765625,0.0,1500.0
11:49:34.233,STABILIZE,-35.3632621,149.1652374,47,-0.00018016692774835974,0.001340100192464888,0.02512398734688759,0.00025326688773930073,0.00023644760949537158,0.0020338541362434626,0,1,-1000,0,0,0,0,0,-1,584030,584.010009765625,0.0,1500.0
11:49:34.465,STABILIZE,-35.3632621,149.1652374,47,-0.00018016692774835974,0.001340100192464888,0.02512398734688759,0.00025326688773930073,0.00023644760949537158,0.0020338541362434626,0,1,-1000,0,0,0,0,0,-1,584030,584.010009765625,0.0,1500.0
11:49:34.675,STABILIZE,-35.3632622,149.1652375,20,-0.00040236988570541143,0.0011476296931505203,0.024559704586863518,0.00016679157852195203,0.0002493607171345502,0.0019438345916569233,0,1,-1000,0,0,0,-1,1,0,584010,584.010009765625,0.0,1500.0
11:49:34.880,STABILIZE,-35.3632622,149.1652375,20,-0.00029577757231891155,0.0010167778236791492,0.02409120835363865,0.011947890743613243,0.0002673810231499374,0.001932285143993795,0,12,-984,6,0,0,-1,1,0,584010,584.0,0.0,1500.0
11:49:35.085,STABILIZE,-35.3632622,149.1652375,20,-0.000411608925787732,0.0009636014001443982,0.023766443133354187,0.00028647424187511206,0.0001343287294730544,0.0019104902166873217,0,1,-1000,0,1,0,-1,1,0,584010,584.0,0.0,1500.0
11:49:35.287,STABILIZE,-35.3632622,149.1652375,20,-0.000411608925787732,0.0009636014001443982,0.023766443133354187,0.00028647424187511206,0.0001343287294730544,0.0019104902166873217,0,1,-1000,0,1,0,-1,1,0,584010,584.0,0.0,1500.0
11:49:35.490,STABILIZE,-35.3632622,149.1652375,20,-0.000411608925787732,0.0009636014001443982,0.023766443133354187,0.00028647424187511206,0.0001343287294730544,0.0019104902166873217,0,1,-1000,0,1,0,-1,1,0,584010,584.0,0.0,1500.0
11:49:35.703,STABILIZE,-35.3632622,149.1652375,20,-0.000411608925787732,0.0009636014001443982,0.023766443133354187,0.00028647424187511206,0.0001343287294730544,0.0019104902166873217,0,1,-1000,0,1,0,-1,1,0,584010,584.0,0.0,1500.0
11:49:35.911,STABILIZE,-35.3632622,149.1652375,20,-0.000411608925787732,0.0009636014001443982,0.023766443133354187,0.00028647424187511206,0.0001343287294730544,0.0019104902166873217,0,1,-1000,0,1,0,-1,1,0,584010,584.0,0.0,1500.0
11:49:36.115,STABILIZE,-35.3632622,149.1652375,20,-0.000411608925787732,0.0009636014001443982,0.023766443133354187,0.00028647424187511206,0.0001343287294730544,0.0019104902166873217,0,1,-1000,0,1,0,-1,1,0,584010,584.0,0.0,1500.0
11:49:36.323,STABILIZE,-35.3632622,149.1652375,20,-0.000411608925787732,0.0009636014001443982,0.023766443133354187,0.00028647424187511206,0.0001343287294730544,0.0019104902166873217,0,1,-1000,0,1,0,-1,1,0,584010,584.0,0.0,1500.0
11:49:36.527,STABILIZE,-35.3632622,149.1652375,20,-0.000411608925787732,0.0009636014001443982,0.023766443133354187,0.00028647424187511206,0.0001343287294730544,0.0019104902166873217,0,1,-1000,0,1,0,-1,1,0,584010,584.0,0.0,1500.0
11:49:36.739,STABILIZE,-35.3632622,149.1652375,20,-0.0004773606196977198,0.0009398970287293196,0.023586105555295944,0.00019238062668591738,0.0001987298601306975,0.002076612086966634,0,1,-1000,0,1,0,-1,1,0,584010,584.0,0.0,1500.0
11:49:36.945,STABILIZE,-35.3632622,149.1652375,20,-0.0004773606196977198,0.0009398970287293196,0.023586105555295944,0.00019238062668591738,0.0001987298601306975,0.002076612086966634,0,1,-1000,0,1,0,-1,1,0,584010,584.0,0.0,1500.0
11:49:37.150,STABILIZE,-35.3632622,149.1652375,20,-0.0004773606196977198,0.0009398970287293196,0.023586105555295944,0.00019238062668591738,0.0001987298601306975,0.002076612086966634,0,1,-1000,0,1,0,-1,1,0,584010,584.0,0.0,1500.0
11:49:37.355,STABILIZE,-35.3632622,149.1652375,11,-0.0005881370161660016,0.000937184551730752,0.02327544428408146,0.00021577061852440238,0.0002399758668616414,0.0017386695835739374,0,1,-1000,0,0,0,-1,1,0,584000,583.989990234375,0.0,1500.0
11:49:37.559,STABILIZE,-35.3632622,149.1652375,8,-0.0006837514811195433,0.0009298051591031253,0.02304012142121792,0.0003248400753363967,0.0001654850202612579,0.0017667233478277922,0,2,-1000,0,0,1,-1,1,0,583990,583.989990234375,0.0,1500.0
11:49:41.352,STABILIZE,-35.3632622,149.1652375,8,-0.0006837514811195433,0.0009298051591031253,0.02304012142121792,0.0003248400753363967,0.0001654850202612579,0.0017667233478277922,0,2,-1000,0,0,1,-1,1,0,583990,583.989990234375,0.0,1500.0
11:49:41.554,STABILIZE,-35.3632622,149.1652375,8,-0.0006837514811195433,0.0009298051591031253,0.02304012142121792,0.0003248400753363967,0.0001654850202612579,0.0017667233478277922,0,2,-1000,0,0,1,-1,1,0,583990,583.989990234375,0.0,1500.0
11:49:41.758,STABILIZE,-35.3632622,149.1652375,8,-0.0006837514811195433,0.0009298051591031253,0.02304012142121792,0.0003248400753363967,0.0001654850202612579,0.0017667233478277922,0,2,-1000,0,0,1,-1,1,0,583990,583.989990234375,0.0,1500.0
11:49:41.960,STABILIZE,-35.3632622,149.1652375,8,-0.0006837514811195433,0.0009298051591031253,0.02304012142121792,0.0003248400753363967,0.0001654850202612579,0.0017667233478277922,0,2,-1000,0,0,1,-1,1,0,583990,583.989990234375,0.0,1500.0
11:49:42.168,STABILIZE,-35.3632622,149.1652375,8,-0.0006837514811195433,0.0009298051591031253,0.02304012142121792,0.0003248400753363967,0.0001654850202612579,0.0017667233478277922,0,2,-1000,0,0,1,-1,1,0,583990,583.989990234375,0.0,1500.0
11:49:42.372,STABILIZE,-35.3632622,149.1652375,8,-0.0007395846187137067,0.0009336164221167564,0.022877531126141548,0.00017183349700644612,0.0002839521039277315,0.0017405555117875338,0,2,-1000,0,0,1,-1,1,0,583990,583.989990234375,0.0,1500.0
11:49:42.579,STABILIZE,-35.3632622,149.1652375,8,-0.0007395846187137067,0.0009336164221167564,0.022877531126141548,0.00017183349700644612,0.0002839521039277315,0.0017405555117875338,0,2,-1000,0,0,1,-1,1,0,583990,583.989990234375,0.0,1500.0
11:49:42.785,STABILIZE,-35.3632622,149.1652375,8,-0.0007395846187137067,0.0009336164221167564,0.022877531126141548,0.00017183349700644612,0.0002839521039277315,0.0017405555117875338,0,2,-1000,0,0,1,-1,1,0,583990,583.989990234375,0.0,1500.0
11:49:42.989,STABILIZE,-35.3632622,149.1652375,8,-0.0007395846187137067,0.0009336164221167564,0.022877531126141548,0.00017183349700644612,0.0002839521039277315,0.0017405555117875338,0,2,-1000,0,0,1,-1,1,0,583990,583.989990234375,0.0,1500.0
11:49:43.190,STABILIZE,-35.3632622,149.1652375,8,-0.0007395846187137067,0.0009336164221167564,0.022877531126141548,0.00017183349700644612,0.0002839521039277315,0.0017405555117875338,0,2,-1000,0,0,1,-1,1,0,583990,583.989990234375,0.0,1500.0
11:49:43.394,STABILIZE,-35.3632622,149.1652375,8,-0.0007395846187137067,0.0009336164221167564,0.022877531126141548,0.00017183349700644612,0.0002839521039277315,0.0017405555117875338,0,2,-1000,0,0,1,-1,1,0,583990,583.989990234375,0.0,1500.0
11:49:43.609,STABILIZE,-35.3632622,149.1652375,8,-0.0006053542019799352,0.0009630032000131905,0.022529516369104385,0.00021527614444494247,0.0001699217827990651,0.0017221043817698956,0,1,-1000,0,0,0,-1,1,0,583990,584.0,0.0,1500.0
11:49:43.841,STABILIZE,-35.3632622,149.1652375,29,-0.0003940706083085388,0.0009717878419905901,0.02226952463388443,0.00021758442744612694,0.00028137635672464967,0.001751217059791088,0,1,-1000,0,0,1,-1,0,-2,584010,584.010009765625,0.0,1500.0
11:49:44.059,STABILIZE,-35.3632622,149.1652375,29,-0.0003940706083085388,0.0009717878419905901,0.02226952463388443,0.00021758442744612694,0.00028137635672464967,0.001751217059791088,0,1,-1000,0,0,1,-1,0,-2,584010,584.010009765625,0.0,1500.0
11:49:44.272,STABILIZE,-35.3632622,149.1652375,29,-0.0003940706083085388,0.0009717878419905901,0.02226952463388443,0.00021758442744612694,0.00028137635672464967,0.001751217059791088,0,1,-1000,0,0,1,-1,0,-2,584010,584.010009765625,0.0,1500.0
11:49:44.499,STABILIZE,-35.3632622,149.1652375,29,-0.0003940706083085388,0.0009717878419905901,0.02226952463388443,0.00021758442744612694,0.00028137635672464967,0.001751217059791088,0,1,-1000,0,0,1,-1,0,-2,584010,584.010009765625,0.0,1500.0
11:49:44.703,STABILIZE,-35.3632622,149.1652375,29,-0.0003940706083085388,0.0009717878419905901,0.02226952463388443,0.00021758442744612694,0.00028137635672464967,0.001751217059791088,0,1,-1000,0,0,1,-1,0,-2,584010,584.010009765625,0.0,1500.0
11:49:44.924,STABILIZE,-35.3632622,149.1652375,29,-0.0003940706083085388,0.0009717878419905901,0.02226952463388443,0.00021758442744612694,0.00028137635672464967,0.001751217059791088,0,1,-1000,0,0,1,-1,0,-2,584010,584.010009765625,0.0,1500.0
11:49:45.137,STABILIZE,-35.3632622,149.1652375,29,-0.0003940706083085388,0.0009717878419905901,0.02226952463388443,0.00021758442744612694,0.00028137635672464967,0.001751217059791088,0,1,-1000,0,0,1,-1,0,-2,584010,584.010009765625,0.0,1500.0
11:49:45.343,STABILIZE,-35.3632622,149.1652375,29,-0.0003940706083085388,0.0009717878419905901,0.02226952463388443,0.00021758442744612694,0.00028137635672464967,0.001751217059791088,0,1,-1000,0,0,1,-1,0,-2,584010,584.010009765625,0.0,1500.0
11:49:45.573,STABILIZE,-35.3632622,149.1652375,29,-0.0003940706083085388,0.0009717878419905901,0.02226952463388443,0.00021758442744612694,0.00028137635672464967,0.001751217059791088,0,1,-1000,0,0,1,-1,0,-2,584010,584.010009765625,0.0,1500.0
11:49:45.784,STABILIZE,-35.3632622,149.1652375,29,-0.0003940706083085388,0.0009717878419905901,0.02226952463388443,0.00021758442744612694,0.00028137635672464967,0.001751217059791088,0,1,-1000,0,0,1,-1,0,-2,584010,584.010009765625,0.0,1500.0
11:49:46.002,STABILIZE,-35.3632622,149.1652375,29,-0.0003940706083085388,0.0009717878419905901,0.02226952463388443,0.00021758442744612694,0.00028137635672464967,0.001751217059791088,0,1,-1000,0,0,1,-1,0,-2,584010,584.010009765625,0.0,1500.0
11:49:46.205,STABILIZE,-35.3632622,149.1652375,30,-0.000287013070192188,0.0009788518073037267,0.022035691887140274,0.00019716238602995872,0.0002763576339930296,0.0016785768093541265,0,2,-1000,0,0,1,-1,1,-1,584020,584.010009765625,0.0,1500.0
11:49:46.407,STABILIZE,-35.3632622,149.1652375,30,-0.000287013070192188,0.0009788518073037267,0.022035691887140274,0.00019716238602995872,0.0002763576339930296,0.0016785768093541265,0,2,-1000,0,0,1,-1,1,-1,584020,584.010009765625,0.0,1500.0
11:49:46.612,STABILIZE,-35.3632622,149.1652375,30,-0.000287013070192188,0.0009788518073037267,0.022035691887140274,0.00019716238602995872,0.0002763576339930296,0.0016785768093541265,0,2,-1000,0,0,1,-1,1,-1,584020,584.010009765625,0.0,1500.0
11:49:46.817,STABILIZE,-35.3632622,149.1652375,30,-0.000287013070192188,0.0009788518073037267,0.022035691887140274,0.00019716238602995872,0.0002763576339930296,0.0016785768093541265,0,2,-1000,0,0,1,-1,1,-1,584020,584.010009765625,0.0,1500.0
11:49:47.027,STABILIZE,-35.3632622,149.1652375,30,-0.000287013070192188,0.0009788518073037267,0.022035691887140274,0.00019716238602995872,0.0002763576339930296,0.0016785768093541265,0,2,-1000,0,0,1,-1,1,-1,584020,584.010009765625,0.0,1500.0
11:49:47.232,STABILIZE,-35.3632622,149.1652375,30,-0.000287013070192188,0.0009788518073037267,0.022035691887140274,0.00019716238602995872,0.0002763576339930296,0.0016785768093541265,0,2,-1000,0,0,1,-1,1,-1,584020,584.010009765625,0.0,1500.0
11:49:47.437,STABILIZE,-35.3632622,149.1652375,30,-0.000287013070192188,0.0009788518073037267,0.022035691887140274,0.00019716238602995872,0.0002763576339930296,0.0016785768093541265,0,2,-1000,0,0,1,-1,1,-1,584020,584.010009765625,0.0,1500.0
11:49:47.644,STABILIZE,-35.3632622,149.1652375,30,-0.000287013070192188,0.0009788518073037267,0.022035691887140274,0.00019716238602995872,0.0002763576339930296,0.0016785768093541265,0,2,-1000,0,0,1,-1,1,-1,584020,584.010009765625,0.0,1500.0
11:49:47.847,STABILIZE,-35.3632622,149.1652375,30,-0.000287013070192188,0.0009788518073037267,0.022035691887140274,0.00019716238602995872,0.0002763576339930296,0.0016785768093541265,0,2,-1000,0,0,1,-1,1,-1,584020,584.010009765625,0.0,1500.0
11:49:48.054,STABILIZE,-35.3632622,149.1652375,30,-0.000287013070192188,0.0009788518073037267,0.022035691887140274,0.00019716238602995872,0.0002763576339930296,0.0016785768093541265,0,2,-1000,0,0,1,-1,1,-1,584020,584.010009765625,0.0,1500.0
11:49:48.259,STABILIZE,-35.3632622,149.1652375,30,-0.000287013070192188,0.0009788518073037267,0.022035691887140274,0.00019716238602995872,0.0002763576339930296,0.0016785768093541265,0,2,-1000,0,0,1,-1,1,-1,584020,584.010009765625,0.0,1500.0
11:49:48.461,STABILIZE,-35.3632622,149.1652375,30,-0.000287013070192188,0.0009788518073037267,0.022035691887140274,0.00019716238602995872,0.0002763576339930296,0.0016785768093541265,0,2,-1000,0,0,1,-1,1,-1,584020,584.010009765625,0.0,1500.0
11:49:48.666,STABILIZE,-35.3632622,149.1652375,30,-0.000287013070192188,0.0009788518073037267,0.022035691887140274,0.00019716238602995872,0.0002763576339930296,0.0016785768093541265,0,2,-1000,0,0,1,-1,1,-1,584020,584.010009765625,0.0,1500.0
11:49:48.869,STABILIZE,-35.3632622,149.1652375,30,-0.000287013070192188,0.0009788518073037267,0.022035691887140274,0.00019716238602995872,0.0002763576339930296,0.0016785768093541265,0,2,-1000,0,0,1,-1,1,-1,584020,584.010009765625,0.0,1500.0
11:49:49.072,STABILIZE,-35.3632622,149.1652375,30,-0.000287013070192188,0.0009788518073037267,0.022035691887140274,0.00019716238602995872,0.0002763576339930296,0.0016785768093541265,0,2,-1000,0,0,1,-1,1,-1,584020,584.010009765625,0.0,1500.0
11:49:49.278,STABILIZE,-35.3632622,149.1652375,30,-0.000287013070192188,0.0009788518073037267,0.022035691887140274,0.00019716238602995872,0.0002763576339930296,0.0016785768093541265,0,2,-1000,0,0,1,-1,1,-1,584020,584.010009765625,0.0,1500.0
11:49:49.481,STABILIZE,-35.3632622,149.1652375,30,-0.000287013070192188,0.0009788518073037267,0.022035691887140274,0.00019716238602995872,0.0002763576339930296,0.0016785768093541265,0,2,-1000,0,0,1,-1,1,-1,584020,584.010009765625,0.0,1500.0
11:49:49.685,STABILIZE,-35.3632622,149.1652375,30,-0.000287013070192188,0.0009788518073037267,0.022035691887140274,0.00019716238602995872,0.0002763576339930296,0.0016785768093541265,0,2,-1000,0,0,1,-1,1,-1,584020,584.010009765625,0.0,1500.0
11:49:49.888,STABILIZE,-35.3632622,149.1652375,30,-0.000287013070192188,0.0009788518073037267,0.022035691887140274,0.00019716238602995872,0.0002763576339930296,0.0016785768093541265,0,2,-1000,0,0,1,-1,1,-1,584020,584.010009765625,0.0,1500.0
11:49:50.091,STABILIZE,-35.3632622,149.1652375,30,-0.000287013070192188,0.0009788518073037267,0.022035691887140274,0.00019716238602995872,0.0002763576339930296,0.0016785768093541265,0,2,-1000,0,0,1,-1,1,-1,584020,584.010009765625,0.0,1500.0
11:49:50.293,STABILIZE,-35.3632622,149.1652375,30,-0.000287013070192188,0.0009788518073037267,0.022035691887140274,0.00019716238602995872,0.0002763576339930296,0.0016785768093541265,0,2,-1000,0,0,1,-1,1,-1,584020,584.010009765625,0.0,1500.0
11:49:50.498,STABILIZE,-35.3632622,149.1652375,30,-0.000287013070192188,0.0009788518073037267,0.022035691887140274,0.00019716238602995872,0.0002763576339930296,0.0016785768093541265,0,2,-1000,0,0,1,-1,1,-1,584020,584.010009765625,0.0,1500.0
11:49:50.704,STABILIZE,-35.3632622,149.1652375,30,-0.000287013070192188,0.0009788518073037267,0.022035691887140274,0.00019716238602995872,0.0002763576339930296,0.0016785768093541265,0,2,-1000,0,0,1,-1,1,-1,584020,584.010009765625,0.0,1500.0
11:49:50.908,STABILIZE,-35.3632622,149.1652375,30,-0.000287013070192188,0.0009788518073037267,0.022035691887140274,0.00019716238602995872,0.0002763576339930296,0.0016785768093541265,0,2,-1000,0,0,1,-1,1,-1,584020,584.010009765625,0.0,1500.0
11:49:51.111,STABILIZE,-35.3632622,149.1652375,30,-0.000287013070192188,0.0009788518073037267,0.022035691887140274,0.00019716238602995872,0.0002763576339930296,0.0016785768093541265,0,2,-1000,0,0,1,-1,1,-1,584020,584.010009765625,0.0,1500.0
11:49:51.313,STABILIZE,-35.3632622,149.1652375,30,-0.000287013070192188,0.0009788518073037267,0.022035691887140274,0.00019716238602995872,0.0002763576339930296,0.0016785768093541265,0,2,-1000,0,0,1,-1,1,-1,584020,584.010009765625,0.0,1500.0
11:49:51.517,STABILIZE,-35.3632622,149.1652375,30,-0.000287013070192188,0.0009788518073037267,0.022035691887140274,0.00019716238602995872,0.0002763576339930296,0.0016785768093541265,0,2,-1000,0,0,1,-1,1,-1,584020,584.010009765625,0.0,1500.0
11:49:51.719,STABILIZE,-35.3632622,149.1652375,30,-0.000287013070192188,0.0009788518073037267,0.022035691887140274,0.00019716238602995872,0.0002763576339930296,0.0016785768093541265,0,2,-1000,0,0,1,-1,1,-1,584020,584.010009765625,0.0,1500.0
11:49:51.921,STABILIZE,-35.3632622,149.1652375,30,-0.000287013070192188,0.0009788518073037267,0.022035691887140274,0.00019716238602995872,0.0002763576339930296,0.0016785768093541265,0,2,-1000,0,0,1,-1,1,-1,584020,584.010009765625,0.0,1500.0
11:49:52.125,STABILIZE,-35.3632622,149.1652375,30,-0.000287013070192188,0.0009788518073037267,0.022035691887140274,0.00019716238602995872,0.0002763576339930296,0.0016785768093541265,0,2,-1000,0,0,1,-1,1,-1,584020,584.010009765625,0.0,1500.0
11:49:52.328,STABILIZE,-35.3632622,149.1652375,30,-0.000287013070192188,0.0009788518073037267,0.022035691887140274,0.00019716238602995872,0.0002763576339930296,0.0016785768093541265,0,2,-1000,0,0,1,-1,1,-1,584020,584.010009765625,0.0,1500.0
11:49:52.531,STABILIZE,-35.3632622,149.1652375,30,-0.000287013070192188,0.0009788518073037267,0.022035691887140274,0.00019716238602995872,0.0002763576339930296,0.0016785768093541265,0,2,-1000,0,0,1,-1,1,-1,584020,584.010009765625,0.0,1500.0
11:49:52.733,STABILIZE,-35.3632622,149.1652376,16,-5.270121164357988e-06,0.000985999358817935,0.021197620779275894,0.0002409802400507033,0.0002932548522949219,0.0016629224410280585,0,1,-1000,0,1,0,-1,3,1,584000,584.0,0.0,1500.0
11:49:52.937,STABILIZE,-35.3632622,149.1652376,16,-5.270121164357988e-06,0.000985999358817935,0.021197620779275894,0.0002409802400507033,0.0002932548522949219,0.0016629224410280585,0,1,-1000,0,1,0,-1,3,1,584000,584.0,0.0,1500.0
11:49:53.140,STABILIZE,-35.3632622,149.1652376,16,-5.270121164357988e-06,0.000985999358817935,0.021197620779275894,0.0002409802400507033,0.0002932548522949219,0.0016629224410280585,0,1,-1000,0,1,0,-1,3,1,584000,584.0,0.0,1500.0
11:49:53.343,STABILIZE,-35.3632622,149.1652376,16,-5.270121164357988e-06,0.000985999358817935,0.021197620779275894,0.0002409802400507033,0.0002932548522949219,0.0016629224410280585,0,1,-1000,0,1,0,-1,3,1,584000,584.0,0.0,1500.0
11:49:53.545,STABILIZE,-35.3632622,149.1652376,16,-5.270121164357988e-06,0.000985999358817935,0.021197620779275894,0.0002409802400507033,0.0002932548522949219,0.0016629224410280585,0,1,-1000,0,1,0,-1,3,1,584000,584.0,0.0,1500.0
11:49:53.765,STABILIZE,-35.3632622,149.1652376,16,-5.270121164357988e-06,0.000985999358817935,0.021197620779275894,0.0002409802400507033,0.0002932548522949219,0.0016629224410280585,0,1,-1000,0,1,0,-1,3,1,584000,584.0,0.0,1500.0
11:49:53.968,STABILIZE,-35.3632622,149.1652376,16,-5.270121164357988e-06,0.000985999358817935,0.021197620779275894,0.0002409802400507033,0.0002932548522949219,0.0016629224410280585,0,1,-1000,0,1,0,-1,3,1,584000,584.0,0.0,1500.0
11:49:54.170,STABILIZE,-35.3632622,149.1652376,16,-5.270121164357988e-06,0.000985999358817935,0.021197620779275894,0.0002409802400507033,0.0002932548522949219,0.0016629224410280585,0,1,-1000,0,1,0,-1,3,1,584000,584.0,0.0,1500.0
11:49:54.375,STABILIZE,-35.3632622,149.1652376,16,-5.270121164357988e-06,0.000985999358817935,0.021197620779275894,0.0002409802400507033,0.0002932548522949219,0.0016629224410280585,0,1,-1000,0,1,0,-1,3,1,584000,584.0,0.0,1500.0
11:49:54.578,STABILIZE,-35.3632622,149.1652376,16,-5.270121164357988e-06,0.000985999358817935,0.021197620779275894,0.0002409802400507033,0.0002932548522949219,0.0016629224410280585,0,1,-1000,0,1,0,-1,3,1,584000,584.0,0.0,1500.0
11:49:54.782,STABILIZE,-35.3632622,149.1652374,0,-0.0004797052242793143,0.0015498694265261292,0.019712261855602264,0.00037518696626648307,0.00027435715310275555,0.0014462890103459358,0,2,-1000,0,1,1,0,-1,2,583950,583.9500122070312,0.0,1500.0
11:49:54.992,AUTO,-35.3632622,149.1652374,0,-0.00030789605807513,0.0017708942759782076,0.019542714580893517,0.0003794931690208614,0.0004124812548980117,0.001384490984492004,0,1,-1000,1,1,0,0,-1,1,583950,583.9500122070312,0.0,1500.0
11:49:55.199,AUTO,-35.3632621,149.1652374,101,0.004487005062401295,-0.0003572670684661716,0.01970735378563404,-0.025524187833070755,0.004199234768748283,0.002009281190112233,0,-1,-1136,-25,4,1,0,0,-54,584080,584.0800170898438,0.0,1500.0
11:49:55.408,AUTO,-35.3632621,149.1652374,101,0.004487005062401295,-0.0003572670684661716,0.01970735378563404,-0.025524187833070755,0.004199234768748283,0.002009281190112233,0,-1,-1136,-25,4,1,0,0,-54,584080,584.0800170898438,0.0,1500.0
11:49:55.615,AUTO,-35.3632621,149.1652374,101,0.004487005062401295,-0.0003572670684661716,0.01970735378563404,-0.025524187833070755,0.004199234768748283,0.002009281190112233,0,-1,-1136,-25,4,1,0,0,-54,584080,584.0800170898438,0.0,1500.0
11:49:55.821,AUTO,-35.3632621,149.1652374,101,0.004487005062401295,-0.0003572670684661716,0.01970735378563404,-0.025524187833070755,0.004199234768748283,0.002009281190112233,0,-1,-1136,-25,4,1,0,0,-54,584080,584.0800170898438,0.0,1500.0
11:49:56.028,AUTO,-35.3632621,149.1652374,101,0.004487005062401295,-0.0003572670684661716,0.01970735378563404,-0.025524187833070755,0.004199234768748283,0.002009281190112233,0,-1,-1136,-25,4,1,0,0,-54,584080,584.0800170898438,0.0,1500.0
11:49:56.231,AUTO,-35.3632621,149.1652374,101,0.004487005062401295,-0.0003572670684661716,0.01970735378563404,-0.025524187833070755,0.004199234768748283,0.002009281190112233,0,-1,-1136,-25,4,1,0,0,-54,584080,584.0800170898438,0.0,1500.0
11:49:56.435,AUTO,-35.3632621,149.1652374,101,0.004487005062401295,-0.0003572670684661716,0.01970735378563404,-0.025524187833070755,0.004199234768748283,0.002009281190112233,0,-1,-1136,-25,4,1,0,0,-54,584080,584.0800170898438,0.0,1500.0
11:49:56.640,AUTO,-35.3632621,149.1652374,101,0.004487005062401295,-0.0003572670684661716,0.01970735378563404,-0.025524187833070755,0.004199234768748283,0.002009281190112233,0,-1,-1136,-25,4,1,0,0,-54,584080,584.0800170898438,0.0,1500.0
11:49:56.849,AUTO,-35.3632619,149.1652381,2230,0.04271779954433441,-0.004356474615633488,0.01913200505077839,0.042809247970581055,-0.009459746070206165,0.0030887543689459562,0,-1,-1006,45,-7,2,2,18,-148,586210,586.2099609375,0.0,1500.0
11:49:57.064,AUTO,-35.3632616,149.1652396,2970,0.06190889701247215,-0.009601728990674019,-0.006632514297962189,0.019951296970248222,-0.0028662742115557194,-0.02613779902458191,1,-8,-995,20,-2,-26,7,40,-147,586950,586.9500122070312,0.0,1500.0
11:49:57.271,AUTO,-35.3632616,149.1652396,2970,0.06190889701247215,-0.009601728990674019,-0.006632514297962189,0.019951296970248222,-0.0028662742115557194,-0.02613779902458191,1,-8,-995,20,-2,-26,7,40,-147,586950,586.9500122070312,0.0,1500.0
11:49:57.474,AUTO,-35.3632616,149.1652396,2970,0.06190889701247215,-0.009601728990674019,-0.006632514297962189,0.019951296970248222,-0.0028662742115557194,-0.02613779902458191,1,-8,-995,20,-2,-26,7,40,-147,586950,586.9500122070312,0.0,1500.0
11:49:57.681,AUTO,-35.3632616,149.1652396,2970,0.06190889701247215,-0.009601728990674019,-0.006632514297962189,0.019951296970248222,-0.0028662742115557194,-0.02613779902458191,1,-8,-995,20,-2,-26,7,40,-147,586950,586.9500122070312,0.0,1500.0
11:49:57.887,AUTO,-35.3632616,149.1652396,2970,0.06190889701247215,-0.009601728990674019,-0.006632514297962189,0.019951296970248222,-0.0028662742115557194,-0.02613779902458191,1,-8,-995,20,-2,-26,7,40,-147,586950,586.9500122070312,0.0,1500.0
11:49:58.092,AUTO,-35.3632616,149.1652396,2970,0.06190889701247215,-0.009601728990674019,-0.006632514297962189,0.019951296970248222,-0.0028662742115557194,-0.02613779902458191,1,-8,-995,20,-2,-26,7,40,-147,586950,586.9500122070312,0.0,1500.0
11:49:58.298,AUTO,-35.3632616,149.1652396,2970,0.06190889701247215,-0.009601728990674019,-0.006632514297962189,0.019951296970248222,-0.0028662742115557194,-0.02613779902458191,1,-8,-995,20,-2,-26,7,40,-147,586950,586.9500122070312,0.0,1500.0
11:49:58.509,AUTO,-35.3632605,149.1652498,5079,-0.03017488494515419,0.021230623126029968,-0.1102067232131958,-0.11749344319105148,-0.056189313530921936,-0.029888758435845375,9,-14,-1002,-112,-46,-53,-5,65,-146,589050,588.6900024414062,0.0,1500.0
11:49:58.711,AUTO,-35.3632608,149.1652526,5812,-0.08285994827747345,-0.003621610114350915,-0.11773499101400375,-0.09033402055501938,-0.040607910603284836,-0.010022085160017014,7,-7,-1005,-89,-40,-10,-8,31,-148,589790,589.7899780273438,0.0,1500.0
11:49:58.915,AUTO,-35.3632608,149.1652526,5812,-0.08285994827747345,-0.003621610114350915,-0.11773499101400375,-0.09033402055501938,-0.040607910603284836,-0.010022085160017014,7,-7,-1005,-89,-40,-10,-8,31,-148,589790,589.7899780273438,0.0,1500.0
11:49:59.119,AUTO,-35.3632608,149.1652526,5812,-0.08285994827747345,-0.003621610114350915,-0.11773499101400375,-0.09033402055501938,-0.040607910603284836,-0.010022085160017014,7,-7,-1005,-89,-40,-10,-8,31,-148,589790,589.7899780273438,0.0,1500.0
11:49:59.324,AUTO,-35.3632608,149.1652526,5812,-0.08285994827747345,-0.003621610114350915,-0.11773499101400375,-0.09033402055501938,-0.040607910603284836,-0.010022085160017014,7,-7,-1005,-89,-40,-10,-8,31,-148,589790,589.7899780273438,0.0,1500.0
11:49:59.528,AUTO,-35.3632608,149.1652526,5812,-0.08285994827747345,-0.003621610114350915,-0.11773499101400375,-0.09033402055501938,-0.040607910603284836,-0.010022085160017014,7,-7,-1005,-89,-40,-10,-8,31,-148,589790,589.7899780273438,0.0,1500.0
11:49:59.731,AUTO,-35.3632608,149.1652526,5812,-0.08285994827747345,-0.003621610114350915,-0.11773499101400375,-0.09033402055501938,-0.040607910603284836,-0.010022085160017014,7,-7,-1005,-89,-40,-10,-8,31,-148,589790,589.7899780273438,0.0,1500.0
11:49:59.939,AUTO,-35.3632608,149.1652526,5812,-0.08285994827747345,-0.003621610114350915,-0.11773499101400375,-0.09033402055501938,-0.040607910603284836,-0.010022085160017014,7,-7,-1005,-89,-40,-10,-8,31,-148,589790,589.7899780273438,0.0,1500.0
11:50:00.140,AUTO,-35.3632608,149.1652526,5812,-0.08285994827747345,-0.003621610114350915,-0.11773499101400375,-0.09033402055501938,-0.040607910603284836,-0.010022085160017014,7,-7,-1005,-89,-40,-10,-8,31,-148,589790,589.7899780273438,0.0,1500.0
11:50:00.345,AUTO,-35.3632613,149.1652503,7273,-0.1023370623588562,-0.022445062175393105,-0.11681939661502838,0.06342986971139908,0.010432276874780655,0.0032979557290673256,-8,13,-998,64,11,3,-1,-76,-143,591250,591.25,0.0,1500.0
11:50:00.546,AUTO,-35.3632615,149.1652385,8705,-0.02583831362426281,0.006642439402639866,-0.11266335844993591,0.08278774470090866,0.037473250180482864,0.007753809913992882,-14,20,-1007,83,38,7,-8,-123,-144,592680,592.6799926757812,0.0,1500.0
11:50:00.757,AUTO,-35.3632615,149.1652385,8705,-0.02583831362426281,0.006642439402639866,-0.11266335844993591,0.08278774470090866,0.037473250180482864,0.007753809913992882,-14,20,-1007,83,38,7,-8,-123,-144,592680,592.6799926757812,0.0,1500.0
11:50:00.988,AUTO,-35.3632615,149.1652385,8705,-0.02583831362426281,0.006642439402639866,-0.11266335844993591,0.08278774470090866,0.037473250180482864,0.007753809913992882,-14,20,-1007,83,38,7,-8,-123,-144,592680,592.6799926757812,0.0,1500.0
11:50:01.191,AUTO,-35.3632615,149.1652385,8705,-0.02583831362426281,0.006642439402639866,-0.11266335844993591,0.08278774470090866,0.037473250180482864,0.007753809913992882,-14,20,-1007,83,38,7,-8,-123,-144,592680,592.6799926757812,0.0,1500.0
11:50:01.394,AUTO,-35.3632615,149.1652385,8705,-0.02583831362426281,0.006642439402639866,-0.11266335844993591,0.08278774470090866,0.037473250180482864,0.007753809913992882,-14,20,-1007,83,38,7,-8,-123,-144,592680,592.6799926757812,0.0,1500.0
11:50:01.597,AUTO,-35.3632615,149.1652385,8705,-0.02583831362426281,0.006642439402639866,-0.11266335844993591,0.08278774470090866,0.037473250180482864,0.007753809913992882,-14,20,-1007,83,38,7,-8,-123,-144,592680,592.6799926757812,0.0,1500.0
11:50:01.800,AUTO,-35.3632615,149.1652385,8705,-0.02583831362426281,0.006642439402639866,-0.11266335844993591,0.08278774470090866,0.037473250180482864,0.007753809913992882,-14,20,-1007,83,38,7,-8,-123,-144,592680,592.6799926757812,0.0,1500.0
11:50:02.005,AUTO,-35.3632615,149.1652385,8705,-0.02583831362426281,0.006642439402639866,-0.11266335844993591,0.08278774470090866,0.037473250180482864,0.007753809913992882,-14,20,-1007,83,38,7,-8,-123,-144,592680,592.6799926757812,0.0,1500.0
11:50:02.207,AUTO,-35.3632643,149.165224,10556,0.0798957422375679,0.04013736918568611,-0.09924618899822235,0.0797731801867485,0.0059386431239545345,0.009352613240480423,-2,20,-1006,80,6,9,-45,-61,-152,594530,594.5299682617188,0.0,1500.0
11:50:02.409,AUTO,-35.3632654,149.1652226,10930,0.0990404263138771,0.03946864232420921,-0.09685414284467697,0.07476703822612762,-0.007699308916926384,0.010580886155366898,3,15,-1003,75,-7,10,-52,-34,-151,594910,594.9099731445312,0.0,1500.0
11:50:02.617,AUTO,-35.3632654,149.1652226,10930,0.0990404263138771,0.03946864232420921,-0.09685414284467697,0.07476703822612762,-0.007699308916926384,0.010580886155366898,3,15,-1003,75,-7,10,-52,-34,-151,594910,594.9099731445312,0.0,1500.0
11:50:02.820,AUTO,-35.3632654,149.1652226,10930,0.0990404263138771,0.03946864232420921,-0.09685414284467697,0.07476703822612762,-0.007699308916926384,0.010580886155366898,3,15,-1003,75,-7,10,-52,-34,-151,594910,594.9099731445312,0.0,1500.0
11:50:03.027,AUTO,-35.3632654,149.1652226,10930,0.0990404263138771,0.03946864232420921,-0.09685414284467697,0.07476703822612762,-0.007699308916926384,0.010580886155366898,3,15,-1003,75,-7,10,-52,-34,-151,594910,594.9099731445312,0.0,1500.0
11:50:03.237,AUTO,-35.3632654,149.1652226,10930,0.0990404263138771,0.03946864232420921,-0.09685414284467697,0.07476703822612762,-0.007699308916926384,0.010580886155366898,3,15,-1003,75,-7,10,-52,-34,-151,594910,594.9099731445312,0.0,1500.0
11:50:03.440,AUTO,-35.3632654,149.1652226,10930,0.0990404263138771,0.03946864232420921,-0.09685414284467697,0.07476703822612762,-0.007699308916926384,0.010580886155366898,3,15,-1003,75,-7,10,-52,-34,-151,594910,594.9099731445312,0.0,1500.0
11:50:03.645,AUTO,-35.3632654,149.1652226,10930,0.0990404263138771,0.03946864232420921,-0.09685414284467697,0.07476703822612762,-0.007699308916926384,0.010580886155366898,3,15,-1003,75,-7,10,-52,-34,-151,594910,594.9099731445312,0.0,1500.0
11:50:03.852,AUTO,-35.3632654,149.1652226,10930,0.0990404263138771,0.03946864232420921,-0.09685414284467697,0.07476703822612762,-0.007699308916926384,0.010580886155366898,3,15,-1003,75,-7,10,-52,-34,-151,594910,594.9099731445312,0.0,1500.0
11:50:04.057,AUTO,-35.3632702,149.1652265,12753,0.07491108030080795,-0.10774216055870056,0.01839718036353588,-0.03493061661720276,-0.11944444477558136,0.14813241362571716,14,-5,-1003,-31,-129,145,-2,84,-142,596730,596.3699951171875,0.0,1500.0
11:50:04.266,AUTO,-35.3632655,149.1652373,14159,-0.008097564801573753,-0.0534004382789135,-0.012138556689023972,-0.09692307561635971,0.09411200881004333,-0.12407367676496506,-6,-30,-1012,-96,94,-124,96,96,-140,598130,598.1300048828125,0.0,1500.0
11:50:04.472,AUTO,-35.3632655,149.1652373,14159,-0.008097564801573753,-0.0534004382789135,-0.012138556689023972,-0.09692307561635971,0.09411200881004333,-0.12407367676496506,-6,-30,-1012,-96,94,-124,96,96,-140,598130,598.1300048828125,0.0,1500.0
11:50:04.680,AUTO,-35.3632655,149.1652373,14159,-0.008097564801573753,-0.0534004382789135,-0.012138556689023972,-0.09692307561635971,0.09411200881004333,-0.12407367676496506,-6,-30,-1012,-96,94,-124,96,96,-140,598130,598.1300048828125,0.0,1500.0
11:50:04.883,AUTO,-35.3632655,149.1652373,14159,-0.008097564801573753,-0.0534004382789135,-0.012138556689023972,-0.09692307561635971,0.09411200881004333,-0.12407367676496506,-6,-30,-1012,-96,94,-124,96,96,-140,598130,598.1300048828125,0.0,1500.0
11:50:05.087,AUTO,-35.3632655,149.1652373,14159,-0.008097564801573753,-0.0534004382789135,-0.012138556689023972,-0.09692307561635971,0.09411200881004333,-0.12407367676496506,-6,-30,-1012,-96,94,-124,96,96,-140,598130,598.1300048828125,0.0,1500.0
11:50:05.297,AUTO,-35.3632655,149.1652373,14159,-0.008097564801573753,-0.0534004382789135,-0.012138556689023972,-0.09692307561635971,0.09411200881004333,-0.12407367676496506,-6,-30,-1012,-96,94,-124,96,96,-140,598130,598.1300048828125,0.0,1500.0
11:50:05.501,AUTO,-35.3632655,149.1652373,14159,-0.008097564801573753,-0.0534004382789135,-0.012138556689023972,-0.09692307561635971,0.09411200881004333,-0.12407367676496506,-6,-30,-1012,-96,94,-124,96,96,-140,598130,598.1300048828125,0.0,1500.0
11:50:05.722,AUTO,-35.3632655,149.1652373,14159,-0.008097564801573753,-0.0534004382789135,-0.012138556689023972,-0.09692307561635971,0.09411200881004333,-0.12407367676496506,-6,-30,-1012,-96,94,-124,96,96,-140,598130,598.1300048828125,0.0,1500.0
11:50:05.930,AUTO,-35.3632518,149.165243,17056,-0.04910678789019585,0.06178766489028931,-0.22915488481521606,0.04626743122935295,0.02452671155333519,-0.036323145031929016,-11,-4,-999,38,28,-48,17,-37,-150,601030,600.6599731445312,0.0,1500.0
11:50:06.138,AUTO,-35.3632515,149.1652418,17427,-0.0371016226708889,0.06681271642446518,-0.23641084134578705,0.05345022678375244,0.02008957415819168,-0.02646300010383129,-8,5,-999,54,20,-26,-2,-43,-149,601400,601.3999633789062,0.0,1500.0
11:50:06.340,AUTO,-35.3632515,149.1652418,17427,-0.0371016226708889,0.06681271642446518,-0.23641084134578705,0.05345022678375244,0.02008957415819168,-0.02646300010383129,-8,5,-999,54,20,-26,-2,-43,-149,601400,601.3999633789062,0.0,1500.0
11:50:06.545,AUTO,-35.3632515,149.1652418,17427,-0.0371016226708889,0.06681271642446518,-0.23641084134578705,0.05345022678375244,0.02008957415819168,-0.02646300010383129,-8,5,-999,54,20,-26,-2,-43,-149,601400,601.3999633789062,0.0,1500.0
11:50:06.750,AUTO,-35.3632515,149.1652418,17427,-0.0371016226708889,0.06681271642446518,-0.23641084134578705,0.05345022678375244,0.02008957415819168,-0.02646300010383129,-8,5,-999,54,20,-26,-2,-43,-149,601400,601.3999633789062,0.0,1500.0
11:50:06.957,AUTO,-35.3632515,149.1652418,17427,-0.0371016226708889,0.06681271642446518,-0.23641084134578705,0.05345022678375244,0.02008957415819168,-0.02646300010383129,-8,5,-999,54,20,-26,-2,-43,-149,601400,601.3999633789062,0.0,1500.0
11:50:07.160,AUTO,-35.3632515,149.1652418,17427,-0.0371016226708889,0.06681271642446518,-0.23641084134578705,0.05345022678375244,0.02008957415819168,-0.02646300010383129,-8,5,-999,54,20,-26,-2,-43,-149,601400,601.3999633789062,0.0,1500.0
11:50:07.364,AUTO,-35.3632515,149.1652418,17427,-0.0371016226708889,0.06681271642446518,-0.23641084134578705,0.05345022678375244,0.02008957415819168,-0.02646300010383129,-8,5,-999,54,20,-26,-2,-43,-149,601400,601.3999633789062,0.0,1500.0
11:50:07.579,AUTO,-35.3632515,149.1652418,17427,-0.0371016226708889,0.06681271642446518,-0.23641084134578705,0.05345022678375244,0.02008957415819168,-0.02646300010383129,-8,5,-999,54,20,-26,-2,-43,-149,601400,601.3999633789062,0.0,1500.0
11:50:07.781,AUTO,-35.3632606,149.1652368,20058,0.049636360257864,0.019085099920630455,-0.22916842997074127,-0.04813377931714058,-0.17515818774700165,0.11245222389698029,18,12,-1004,-47,-174,112,-93,24,-144,604030,604.0299682617188,0.0,1500.0
11:50:07.984,AUTO,-35.3632606,149.1652368,20058,0.049636360257864,0.019085099920630455,-0.22916842997074127,-0.04813377931714058,-0.17515818774700165,0.11245222389698029,18,12,-1004,-47,-174,112,-93,24,-144,604030,604.0299682617188,0.0,1500.0
11:50:08.187,AUTO,-35.3632606,149.1652368,20058,0.049636360257864,0.019085099920630455,-0.22916842997074127,-0.04813377931714058,-0.17515818774700165,0.11245222389698029,18,12,-1004,-47,-174,112,-93,24,-144,604030,604.0299682617188,0.0,1500.0
11:50:08.394,AUTO,-35.3632606,149.1652368,20058,0.049636360257864,0.019085099920630455,-0.22916842997074127,-0.04813377931714058,-0.17515818774700165,0.11245222389698029,18,12,-1004,-47,-174,112,-93,24,-144,604030,604.0299682617188,0.0,1500.0
11:50:08.600,AUTO,-35.3632606,149.1652368,20058,0.049636360257864,0.019085099920630455,-0.22916842997074127,-0.04813377931714058,-0.17515818774700165,0.11245222389698029,18,12,-1004,-47,-174,112,-93,24,-144,604030,604.0299682617188,0.0,1500.0
11:50:08.811,AUTO,-35.3632606,149.1652368,20058,0.049636360257864,0.019085099920630455,-0.22916842997074127,-0.04813377931714058,-0.17515818774700165,0.11245222389698029,18,12,-1004,-47,-174,112,-93,24,-144,604030,604.0299682617188,0.0,1500.0
11:50:09.018,AUTO,-35.3632606,149.1652368,20058,0.049636360257864,0.019085099920630455,-0.22916842997074127,-0.04813377931714058,-0.17515818774700165,0.11245222389698029,18,12,-1004,-47,-174,112,-93,24,-144,604030,604.0299682617188,0.0,1500.0
11:50:09.224,AUTO,-35.3632606,149.1652368,20058,0.049636360257864,0.019085099920630455,-0.22916842997074127,-0.04813377931714058,-0.17515818774700165,0.11245222389698029,18,12,-1004,-47,-174,112,-93,24,-144,604030,604.0299682617188,0.0,1500.0
11:50:09.426,AUTO,-35.3632643,149.1652406,22486,-0.0658521056175232,-0.055143263190984726,-0.15932057797908783,-0.006726676598191261,0.07479457557201385,-0.10070358216762543,-2,-5,-1001,-41,98,-103,45,-18,-144,606460,606.0999755859375,0.0,1500.0
11:50:09.630,AUTO,-35.363262,149.1652386,23208,-0.05527244508266449,-0.027779463678598404,-0.20528191328048706,0.039314985275268555,0.05016835778951645,-0.0662146583199501,-16,0,-1003,40,50,-66,53,-53,-144,607180,607.1799926757812,0.0,1500.0
11:50:09.832,AUTO,-35.363262,149.1652386,23208,-0.05527244508266449,-0.027779463678598404,-0.20528191328048706,0.039314985275268555,0.05016835778951645,-0.0662146583199501,-16,0,-1003,40,50,-66,53,-53,-144,607180,607.1799926757812,0.0,1500.0
11:50:10.035,AUTO,-35.363262,149.1652386,23208,-0.05527244508266449,-0.027779463678598404,-0.20528191328048706,0.039314985275268555,0.05016835778951645,-0.0662146583199501,-16,0,-1003,40,50,-66,53,-53,-144,607180,607.1799926757812,0.0,1500.0
11:50:10.239,AUTO,-35.363262,149.1652386,23208,-0.05527244508266449,-0.027779463678598404,-0.20528191328048706,0.039314985275268555,0.05016835778951645,-0.0662146583199501,-16,0,-1003,40,50,-66,53,-53,-144,607180,607.1799926757812,0.0,1500.0
11:50:10.458,AUTO,-35.363262,149.1652386,23208,-0.05527244508266449,-0.027779463678598404,-0.20528191328048706,0.039314985275268555,0.05016835778951645,-0.0662146583199501,-16,0,-1003,40,50,-66,53,-53,-144,607180,607.1799926757812,0.0,1500.0
11:50:10.662,AUTO,-35.363262,149.1652386,23208,-0.05527244508266449,-0.027779463678598404,-0.20528191328048706,0.039314985275268555,0.05016835778951645,-0.0662146583199501,-16,0,-1003,40,50,-66,53,-53,-144,607180,607.1799926757812,0.0,1500.0
11:50:10.868,AUTO,-35.363262,149.1652386,23208,-0.05527244508266449,-0.027779463678598404,-0.20528191328048706,0.039314985275268555,0.05016835778951645,-0.0662146583199501,-16,0,-1003,40,50,-66,53,-53,-144,607180,607.1799926757812,0.0,1500.0
11:50:11.072,AUTO,-35.363262,149.1652386,23208,-0.05527244508266449,-0.027779463678598404,-0.20528191328048706,0.039314985275268555,0.05016835778951645,-0.0662146583199501,-16,0,-1003,40,50,-66,53,-53,-144,607180,607.1799926757812,0.0,1500.0
11:50:11.276,AUTO,-35.3632564,149.1652245,25817,0.040220584720373154,0.054430488497018814,-0.2565001845359802,0.0608275830745697,0.032085906714200974,-0.007749392185360193,-12,8,-1004,61,33,-8,0,-52,-152,609790,609.7899780273438,0.0,1500.0
11:50:11.480,AUTO,-35.3632564,149.1652245,25817,0.040220584720373154,0.054430488497018814,-0.2565001845359802,0.0608275830745697,0.032085906714200974,-0.007749392185360193,-12,8,-1004,61,33,-8,0,-52,-152,609790,609.7899780273438,0.0,1500.0
11:50:11.687,AUTO,-35.3632564,149.1652245,25817,0.040220584720373154,0.054430488497018814,-0.2565001845359802,0.0608275830745697,0.032085906714200974,-0.007749392185360193,-12,8,-1004,61,33,-8,0,-52,-152,609790,609.7899780273438,0.0,1500.0
11:50:11.890,AUTO,-35.3632564,149.1652245,25817,0.040220584720373154,0.054430488497018814,-0.2565001845359802,0.0608275830745697,0.032085906714200974,-0.007749392185360193,-12,8,-1004,61,33,-8,0,-52,-152,609790,609.7899780273438,0.0,1500.0
11:50:12.095,AUTO,-35.3632564,149.1652245,25817,0.040220584720373154,0.054430488497018814,-0.2565001845359802,0.0608275830745697,0.032085906714200974,-0.007749392185360193,-12,8,-1004,61,33,-8,0,-52,-152,609790,609.7899780273438,0.0,1500.0
11:50:12.298,AUTO,-35.3632564,149.1652245,25817,0.040220584720373154,0.054430488497018814,-0.2565001845359802,0.0608275830745697,0.032085906714200974,-0.007749392185360193,-12,8,-1004,61,33,-8,0,-52,-152,609790,609.7899780273438,0.0,1500.0
11:50:12.505,AUTO,-35.3632564,149.1652245,25817,0.040220584720373154,0.054430488497018814,-0.2565001845359802,0.0608275830745697,0.032085906714200974,-0.007749392185360193,-12,8,-1004,61,33,-8,0,-52,-152,609790,609.7899780273438,0.0,1500.0
11:50:12.719,AUTO,-35.3632573,149.1652222,26998,0.08645530790090561,0.06254037469625473,-0.25888657569885254,0.055150002241134644,-0.01143810898065567,0.0006379737751558423,-12,8,-1004,61,33,-8,-33,11,-148,610970,609.7899780273438,0.0,1500.0
11:50:12.923,AUTO,-35.3632605,149.1652287,28419,0.06967175006866455,0.003969036974012852,-0.24816489219665527,-0.2398556023836136,-0.09144772589206696,0.029189297929406166,22,-11,-992,-238,-90,29,-32,110,-135,612390,612.3900146484375,0.0,1500.0
11:50:13.127,AUTO,-35.3632605,149.1652287,28419,0.06967175006866455,0.003969036974012852,-0.24816489219665527,-0.2398556023836136,-0.09144772589206696,0.029189297929406166,22,-11,-992,-238,-90,29,-32,110,-135,612390,612.3900146484375,0.0,1500.0
11:50:13.330,AUTO,-35.3632605,149.1652287,28419,0.06967175006866455,0.003969036974012852,-0.24816489219665527,-0.2398556023836136,-0.09144772589206696,0.029189297929406166,22,-11,-992,-238,-90,29,-32,110,-135,612390,612.3900146484375,0.0,1500.0
11:50:13.534,AUTO,-35.3632605,149.1652287,28419,0.06967175006866455,0.003969036974012852,-0.24816489219665527,-0.2398556023836136,-0.09144772589206696,0.029189297929406166,22,-11,-992,-238,-90,29,-32,110,-135,612390,612.3900146484375,0.0,1500.0
11:50:17.320,AUTO,-35.3632605,149.1652287,28419,0.06967175006866455,0.003969036974012852,-0.24816489219665527,-0.2398556023836136,-0.09144772589206696,0.029189297929406166,22,-11,-992,-238,-90,29,-32,110,-135,612390,612.3900146484375,0.0,1500.0
11:50:17.531,AUTO,-35.3632605,149.1652287,28419,0.06967175006866455,0.003969036974012852,-0.24816489219665527,-0.2398556023836136,-0.09144772589206696,0.029189297929406166,22,-11,-992,-238,-90,29,-32,110,-135,612390,612.3900146484375,0.0,1500.0
11:50:17.736,AUTO,-35.3632605,149.1652287,28419,0.06967175006866455,0.003969036974012852,-0.24816489219665527,-0.2398556023836136,-0.09144772589206696,0.029189297929406166,22,-11,-992,-238,-90,29,-32,110,-135,612390,612.3900146484375,0.0,1500.0
11:50:17.943,AUTO,-35.3632605,149.1652287,28419,0.06967175006866455,0.003969036974012852,-0.24816489219665527,-0.2398556023836136,-0.09144772589206696,0.029189297929406166,22,-11,-992,-238,-90,29,-32,110,-135,612390,612.3900146484375,0.0,1500.0
11:50:18.154,AUTO,-35.3632617,149.1652404,30316,-0.08455304801464081,-0.03396314010024071,-0.30307573080062866,0.012615181505680084,-0.0023855201434344053,-0.06587611883878708,7,-6,-1003,13,-1,-65,1,24,-151,614290,614.2899780273438,0.0,1500.0
11:50:18.362,AUTO,-35.3632617,149.1652406,31075,-0.05895547196269035,-0.025984307751059532,-0.3193141222000122,0.08810655027627945,0.05039392039179802,0.013075386174023151,-1,0,-996,89,51,13,5,-16,-148,615050,615.0499877929688,0.0,1500.0
11:50:18.566,AUTO,-35.3632617,149.1652406,31075,-0.05895547196269035,-0.025984307751059532,-0.3193141222000122,0.08810655027627945,0.05039392039179802,0.013075386174023151,-1,0,-996,89,51,13,5,-16,-148,615050,615.0499877929688,0.0,1500.0
11:50:18.772,AUTO,-35.3632617,149.1652406,31075,-0.05895547196269035,-0.025984307751059532,-0.3193141222000122,0.08810655027627945,0.05039392039179802,0.013075386174023151,-1,0,-996,89,51,13,5,-16,-148,615050,615.0499877929688,0.0,1500.0
11:50:18.981,AUTO,-35.3632617,149.1652406,31075,-0.05895547196269035,-0.025984307751059532,-0.3193141222000122,0.08810655027627945,0.05039392039179802,0.013075386174023151,-1,0,-996,89,51,13,5,-16,-148,615050,615.0499877929688,0.0,1500.0
11:50:19.187,AUTO,-35.3632617,149.1652406,31075,-0.05895547196269035,-0.025984307751059532,-0.3193141222000122,0.08810655027627945,0.05039392039179802,0.013075386174023151,-1,0,-996,89,51,13,5,-16,-148,615050,615.0499877929688,0.0,1500.0
11:50:19.402,AUTO,-35.3632617,149.1652406,31075,-0.05895547196269035,-0.025984307751059532,-0.3193141222000122,0.08810655027627945,0.05039392039179802,0.013075386174023151,-1,0,-996,89,51,13,5,-16,-148,615050,615.0499877929688,0.0,1500.0
11:50:19.606,AUTO,-35.3632617,149.1652406,31075,-0.05895547196269035,-0.025984307751059532,-0.3193141222000122,0.08810655027627945,0.05039392039179802,0.013075386174023151,-1,0,-996,89,51,13,5,-16,-148,615050,615.0499877929688,0.0,1500.0
11:50:19.812,AUTO,-35.3632617,149.1652406,31075,-0.05895547196269035,-0.025984307751059532,-0.3193141222000122,0.08810655027627945,0.05039392039179802,0.013075386174023151,-1,0,-996,89,51,13,5,-16,-148,615050,615.0499877929688,0.0,1500.0
11:50:20.016,AUTO,-35.3632617,149.1652406,31075,-0.05895547196269035,-0.025984307751059532,-0.3193141222000122,0.08810655027627945,0.05039392039179802,0.013075386174023151,-1,0,-996,89,51,13,5,-16,-148,615050,615.0499877929688,0.0,1500.0
11:50:20.221,AUTO,-35.3632617,149.1652406,31075,-0.05895547196269035,-0.025984307751059532,-0.3193141222000122,0.08810655027627945,0.05039392039179802,0.013075386174023151,-1,0,-996,89,51,13,5,-16,-148,615050,615.0499877929688,0.0,1500.0
11:50:20.428,AUTO,-35.3632616,149.1652356,33380,0.043527159839868546,0.012725322507321835,-0.28456878662109375,0.05262501910328865,0.004632883705198765,0.008477073162794113,-3,4,-1001,54,5,8,-3,-13,-150,617360,617.3599853515625,0.0,1500.0
11:50:20.631,AUTO,-35.3632619,149.1652356,34487,0.027052845805883408,0.012929657474160194,-0.2861591875553131,-0.07267264276742935,-0.03641046583652496,0.0153861278668046,3,-1,-997,-71,-35,15,-6,19,-146,618460,618.4599609375,0.0,1500.0
11:50:20.833,AUTO,-35.3632619,149.1652356,34487,0.027052845805883408,0.012929657474160194,-0.2861591875553131,-0.07267264276742935,-0.03641046583652496,0.0153861278668046,3,-1,-997,-71,-35,15,-6,19,-146,618460,618.4599609375,0.0,1500.0
11:50:21.037,AUTO,-35.3632619,149.1652356,34487,0.027052845805883408,0.012929657474160194,-0.2861591875553131,-0.07267264276742935,-0.03641046583652496,0.0153861278668046,3,-1,-997,-71,-35,15,-6,19,-146,618460,618.4599609375,0.0,1500.0
11:50:21.242,AUTO,-35.3632619,149.1652356,34487,0.027052845805883408,0.012929657474160194,-0.2861591875553131,-0.07267264276742935,-0.03641046583652496,0.0153861278668046,3,-1,-997,-71,-35,15,-6,19,-146,618460,618.4599609375,0.0,1500.0
11:50:21.448,AUTO,-35.3632619,149.1652356,34487,0.027052845805883408,0.012929657474160194,-0.2861591875553131,-0.07267264276742935,-0.03641046583652496,0.0153861278668046,3,-1,-997,-71,-35,15,-6,19,-146,618460,618.4599609375,0.0,1500.0
11:50:21.654,AUTO,-35.3632619,149.1652356,34487,0.027052845805883408,0.012929657474160194,-0.2861591875553131,-0.07267264276742935,-0.03641046583652496,0.0153861278668046,3,-1,-997,-71,-35,15,-6,19,-146,618460,618.4599609375,0.0,1500.0
11:50:21.857,AUTO,-35.3632619,149.1652356,34487,0.027052845805883408,0.012929657474160194,-0.2861591875553131,-0.07267264276742935,-0.03641046583652496,0.0153861278668046,3,-1,-997,-71,-35,15,-6,19,-146,618460,618.4599609375,0.0,1500.0
11:50:22.063,AUTO,-35.3632619,149.1652356,34487,0.027052845805883408,0.012929657474160194,-0.2861591875553131,-0.07267264276742935,-0.03641046583652496,0.0153861278668046,3,-1,-997,-71,-35,15,-6,19,-146,618460,618.4599609375,0.0,1500.0
11:50:22.276,AUTO,-35.3632619,149.1652356,34487,0.027052845805883408,0.012929657474160194,-0.2861591875553131,-0.07267264276742935,-0.03641046583652496,0.0153861278668046,3,-1,-997,-71,-35,15,-6,19,-146,618460,618.4599609375,0.0,1500.0
11:50:22.482,AUTO,-35.3632619,149.1652356,34487,0.027052845805883408,0.012929657474160194,-0.2861591875553131,-0.07267264276742935,-0.03641046583652496,0.0153861278668046,3,-1,-997,-71,-35,15,-6,19,-146,618460,618.4599609375,0.0,1500.0
11:50:22.686,AUTO,-35.3632619,149.1652356,34487,0.027052845805883408,0.012929657474160194,-0.2861591875553131,-0.07267264276742935,-0.03641046583652496,0.0153861278668046,3,-1,-997,-71,-35,15,-6,19,-146,618460,618.4599609375,0.0,1500.0
11:50:22.889,AUTO,-35.3632619,149.1652356,34487,0.027052845805883408,0.012929657474160194,-0.2861591875553131,-0.07267264276742935,-0.03641046583652496,0.0153861278668046,3,-1,-997,-71,-35,15,-6,19,-146,618460,618.4599609375,0.0,1500.0
11:50:23.091,AUTO,-35.3632623,149.1652377,36509,-0.016309723258018494,-0.00841367058455944,-0.2864026129245758,0.004782606847584248,0.0016995943151414394,-0.018790576606988907,1,-1,-1002,5,2,-18,0,6,-148,620480,620.47998046875,0.0,1500.0
11:50:23.299,AUTO,-35.3632622,149.1652375,37999,-0.0017484951531514525,-0.000861292181070894,-0.30284708738327026,0.020072681829333305,0.012845534831285477,0.0025084149092435837,-2,0,-999,20,13,2,2,-7,-148,621970,621.969970703125,0.0,1500.0
11:50:23.505,AUTO,-35.3632622,149.1652373,38373,0.0025020188186317682,0.0012906232150271535,-0.3014332950115204,0.012433561496436596,0.006876411382108927,0.009691908024251461,-2,0,-999,13,7,10,2,-7,-148,622350,622.3499755859375,0.0,1500.0
11:50:23.707,AUTO,-35.3632622,149.1652373,38373,0.0025020188186317682,0.0012906232150271535,-0.3014332950115204,0.012433561496436596,0.006876411382108927,0.009691908024251461,-2,0,-999,13,7,10,2,-7,-148,622350,622.3499755859375,0.0,1500.0
11:50:23.911,AUTO,-35.3632622,149.1652373,38373,0.0025020188186317682,0.0012906232150271535,-0.3014332950115204,0.012433561496436596,0.006876411382108927,0.009691908024251461,-2,0,-999,13,7,10,2,-7,-148,622350,622.3499755859375,0.0,1500.0
11:50:24.113,AUTO,-35.3632622,149.1652373,38373,0.0025020188186317682,0.0012906232150271535,-0.3014332950115204,0.012433561496436596,0.006876411382108927,0.009691908024251461,-2,0,-999,13,7,10,2,-7,-148,622350,622.3499755859375,0.0,1500.0
11:50:24.319,AUTO,-35.3632622,149.1652373,38373,0.0025020188186317682,0.0012906232150271535,-0.3014332950115204,0.012433561496436596,0.006876411382108927,0.009691908024251461,-2,0,-999,13,7,10,2,-7,-148,622350,622.3499755859375,0.0,1500.0
11:50:24.522,AUTO,-35.3632622,149.1652373,38373,0.0025020188186317682,0.0012906232150271535,-0.3014332950115204,0.012433561496436596,0.006876411382108927,0.009691908024251461,-2,0,-999,13,7,10,2,-7,-148,622350,622.3499755859375,0.0,1500.0
11:50:24.736,AUTO,-35.3632622,149.1652373,38373,0.0025020188186317682,0.0012906232150271535,-0.3014332950115204,0.012433561496436596,0.006876411382108927,0.009691908024251461,-2,0,-999,13,7,10,2,-7,-148,622350,622.3499755859375,0.0,1500.0
11:50:24.940,AUTO,-35.3632622,149.1652373,38373,0.0025020188186317682,0.0012906232150271535,-0.3014332950115204,0.012433561496436596,0.006876411382108927,0.009691908024251461,-2,0,-999,13,7,10,2,-7,-148,622350,622.3499755859375,0.0,1500.0
11:50:25.145,AUTO,-35.3632622,149.1652373,38373,0.0025020188186317682,0.0012906232150271535,-0.3014332950115204,0.012433561496436596,0.006876411382108927,0.009691908024251461,-2,0,-999,13,7,10,2,-7,-148,622350,622.3499755859375,0.0,1500.0
11:50:25.347,AUTO,-35.3632622,149.1652373,38373,0.0025020188186317682,0.0012906232150271535,-0.3014332950115204,0.012433561496436596,0.006876411382108927,0.009691908024251461,-2,0,-999,13,7,10,2,-7,-148,622350,622.3499755859375,0.0,1500.0
11:50:25.553,AUTO,-35.3632621,149.1652365,40027,0.00772984279319644,0.003977005835622549,-0.2846110463142395,-0.0023402534425258636,-0.0013540212530642748,0.01613757386803627,-1,0,-1000,-1,0,15,0,0,-148,624000,624.0,0.0,1500.0
11:50:25.756,AUTO,-35.363262,149.1652365,41549,0.003495185635983944,0.0033665893133729696,-0.2715451121330261,-0.0002691478584893048,-0.00079934555105865,0.013705763965845108,0,0,-1000,-2,0,12,0,3,-149,625520,625.1400146484375,0.0,1500.0
11:50:25.962,AUTO,-35.363262,149.1652365,41549,0.003495185635983944,0.0033665893133729696,-0.2715451121330261,-0.0002691478584893048,-0.00079934555105865,0.013705763965845108,0,0,-1001,1,0,13,0,3,-149,625520,625.5199584960938,0.0,1500.0
11:50:26.176,AUTO,-35.363262,149.1652365,41549,0.003495185635983944,0.0033665893133729696,-0.2715451121330261,-0.0002691478584893048,-0.00079934555105865,0.013705763965845108,0,0,-1001,1,0,13,0,3,-149,625520,625.5199584960938,0.0,1500.0
11:50:26.387,AUTO,-35.363262,149.1652365,41549,0.003495185635983944,0.0033665893133729696,-0.2715451121330261,-0.0002691478584893048,-0.00079934555105865,0.013705763965845108,0,0,-1001,1,0,13,0,3,-149,625520,625.5199584960938,0.0,1500.0
11:50:26.598,AUTO,-35.363262,149.1652365,41549,0.003495185635983944,0.0033665893133729696,-0.2715451121330261,-0.0002691478584893048,-0.00079934555105865,0.013705763965845108,0,0,-1001,1,0,13,0,3,-149,625520,625.5199584960938,0.0,1500.0
11:50:26.803,AUTO,-35.363262,149.1652365,41549,0.003495185635983944,0.0033665893133729696,-0.2715451121330261,-0.0002691478584893048,-0.00079934555105865,0.013705763965845108,0,0,-1001,1,0,13,0,3,-149,625520,625.5199584960938,0.0,1500.0
11:50:27.008,AUTO,-35.363262,149.1652365,41549,0.003495185635983944,0.0033665893133729696,-0.2715451121330261,-0.0002691478584893048,-0.00079934555105865,0.013705763965845108,0,0,-1001,1,0,13,0,3,-149,625520,625.5199584960938,0.0,1500.0
11:50:27.223,AUTO,-35.363262,149.1652365,41549,0.003495185635983944,0.0033665893133729696,-0.2715451121330261,-0.0002691478584893048,-0.00079934555105865,0.013705763965845108,0,0,-1001,1,0,13,0,3,-149,625520,625.5199584960938,0.0,1500.0
11:50:27.426,AUTO,-35.363262,149.1652365,41549,0.003495185635983944,0.0033665893133729696,-0.2715451121330261,-0.0002691478584893048,-0.00079934555105865,0.013705763965845108,0,0,-1001,1,0,13,0,3,-149,625520,625.5199584960938,0.0,1500.0
11:50:27.628,AUTO,-35.363262,149.1652365,41549,0.003495185635983944,0.0033665893133729696,-0.2715451121330261,-0.0002691478584893048,-0.00079934555105865,0.013705763965845108,0,0,-1001,1,0,13,0,3,-149,625520,625.5199584960938,0.0,1500.0
11:50:27.830,AUTO,-35.363262,149.1652368,44411,0.0015368645545095205,0.0021071915980428457,-0.25170132517814636,7.317517884075642e-05,0.0014465766726061702,0.010980907827615738,0,0,-999,0,2,11,-1,3,-151,628390,628.3900146484375,0.0,1500.0
11:50:28.036,AUTO,-35.363262,149.1652368,44411,0.0015368645545095205,0.0021071915980428457,-0.25170132517814636,7.317517884075642e-05,0.0014465766726061702,0.010980907827615738,0,0,-999,0,2,11,-1,3,-151,628390,628.3900146484375,0.0,1500.0
11:50:28.254,AUTO,-35.363262,149.1652368,44411,0.0015368645545095205,0.0021071915980428457,-0.25170132517814636,7.317517884075642e-05,0.0014465766726061702,0.010980907827615738,0,0,-999,0,2,11,-1,3,-151,628390,628.3900146484375,0.0,1500.0
11:50:28.474,AUTO,-35.363262,149.1652368,44411,0.0015368645545095205,0.0021071915980428457,-0.25170132517814636,7.317517884075642e-05,0.0014465766726061702,0.010980907827615738,0,0,-999,0,2,11,-1,3,-151,628390,628.3900146484375,0.0,1500.0
11:50:28.677,AUTO,-35.363262,149.1652368,44411,0.0015368645545095205,0.0021071915980428457,-0.25170132517814636,7.317517884075642e-05,0.0014465766726061702,0.010980907827615738,0,0,-999,0,2,11,-1,3,-151,628390,628.3900146484375,0.0,1500.0
11:50:28.883,AUTO,-35.363262,149.1652368,44411,0.0015368645545095205,0.0021071915980428457,-0.25170132517814636,7.317517884075642e-05,0.0014465766726061702,0.010980907827615738,0,0,-999,0,2,11,-1,3,-151,628390,628.3900146484375,0.0,1500.0
