time_stamp,MODE,lat,lon,relative_alt,roll,pitch,yaw,rollspeed,pitchspeed,yawspeed,xacc,yacc,zacc,xgyro,ygyro,zgyro,vx,vy,vz,RTL_ALT
05:18:33.734,STABILIZE,-35.3632621,149.1652375,0,0.00044126177090220153,0.0015497268177568913,0.02694110944867134,0.00022073689615353942,0.00024319428484886885,0.002334998454898596,0,1,-1000,0,0,0,-2,4,3,1500.0
05:18:33.935,STABILIZE,-35.3632622,149.1652376,0,0.0002509714977350086,0.001500131911598146,0.0267893485724926,0.00022311278735287488,0.0003512053517624736,0.0021769029553979635,0,1,-1000,0,0,0,-2,4,3,1500.0
05:18:34.136,STABILIZE,-35.3632622,149.1652376,0,5.9317564591765404e-05,0.0014532406348735094,0.02661896124482155,0.00014854353503324091,0.00028259740793146193,0.0021230855491012335,0,1,-1000,1,0,0,-2,3,2,1500.0
05:18:34.337,STABILIZE,-35.3632622,149.1652376,0,5.9317564591765404e-05,0.0014532406348735094,0.02661896124482155,0.00014854353503324091,0.00028259740793146193,0.0021230855491012335,0,1,-1000,1,0,0,-2,3,2,1500.0
05:18:34.537,STABILIZE,-35.3632622,149.1652376,0,5.9317564591765404e-05,0.0014532406348735094,0.02661896124482155,0.00014854353503324091,0.00028259740793146193,0.0021230855491012335,0,1,-1000,1,0,0,-2,3,2,1500.0
05:18:34.738,STABILIZE,-35.3632622,149.1652376,0,5.9317564591765404e-05,0.0014532406348735094,0.02661896124482155,0.00014854353503324091,0.00028259740793146193,0.0021230855491012335,0,1,-1000,1,0,0,-2,3,2,1500.0
05:18:34.939,STABILIZE,-35.3632622,149.1652376,0,5.9317564591765404e-05,0.0014532406348735094,0.02661896124482155,0.00014854353503324091,0.00028259740793146193,0.0021230855491012335,0,1,-1000,1,0,0,-2,3,2,1500.0
05:18:35.140,STABILIZE,-35.3632622,149.1652376,0,5.9317564591765404e-05,0.0014532406348735094,0.02661896124482155,0.00014854353503324091,0.00028259740793146193,0.0021230855491012335,0,1,-1000,1,0,0,-2,3,2,1500.0
05:18:35.340,STABILIZE,-35.3632622,149.1652376,0,-0.0006954623968340456,0.0011903158156201243,0.025934526696801186,0.00032527348957955837,0.0002067025052383542,0.0020527252927422523,0,1,-1000,1,0,0,-2,3,2,1500.0
05:18:35.541,STABILIZE,-35.3632622,149.1652376,0,-0.0006954623968340456,0.0011903158156201243,0.025934526696801186,0.00032527348957955837,0.0002067025052383542,0.0020527252927422523,0,1,-1000,1,0,0,-2,3,2,1500.0
05:18:35.742,STABILIZE,-35.3632622,149.1652376,0,-0.0006954623968340456,0.0011903158156201243,0.025934526696801186,0.00032527348957955837,0.0002067025052383542,0.0020527252927422523,0,1,-1000,0,0,0,-2,3,2,1500.0
05:18:35.942,STABILIZE,-35.3632622,149.1652375,0,-0.0008866266580298543,0.0011043073609471321,0.02571759559214115,0.0002875635982491076,0.0002871373144444078,0.002074014861136675,0,1,-1000,0,0,0,-1,1,1,1500.0
05:18:36.145,STABILIZE,-35.3632622,149.1652375,0,-0.0008866266580298543,0.0011043073609471321,0.02571759559214115,0.0002875635982491076,0.0002871373144444078,0.002074014861136675,0,1,-1000,0,0,0,-1,1,1,1500.0
05:18:36.346,STABILIZE,-35.3632622,149.1652375,0,-0.001023243647068739,0.0010393798584118485,0.0255198422819376,0.0001207105815410614,0.00030018927645869553,0.0019015485886484385,0,1,-1000,0,0,0,-1,1,1,1500.0
05:18:36.547,STABILIZE,-35.3632622,149.1652375,0,-0.001023243647068739,0.0010393798584118485,0.0255198422819376,0.0001207105815410614,0.00030018927645869553,0.0019015485886484385,0,1,-1000,0,0,0,-1,1,1,1500.0
05:18:36.748,STABILIZE,-35.3632622,149.1652375,0,-0.001023243647068739,0.0010393798584118485,0.0255198422819376,0.0001207105815410614,0.00030018927645869553,0.0019015485886484385,0,1,-1000,0,0,0,-1,1,1,1500.0
05:18:36.949,STABILIZE,-35.3632622,149.1652375,0,-0.001023243647068739,0.0010393798584118485,0.0255198422819376,0.0001207105815410614,0.00030018927645869553,0.0019015485886484385,0,1,-1000,0,0,0,-1,1,1,1500.0
05:18:37.151,STABILIZE,-35.3632621,149.1652375,0,-0.0011596851982176304,0.0009847846813499928,0.025267478078603745,0.00022961065405979753,0.0001983039255719632,0.0017755463486537337,0,1,-1000,0,0,0,-1,0,0,1500.0
05:18:37.352,STABILIZE,-35.3632621,149.1652375,0,-0.0011596851982176304,0.0009847846813499928,0.025267478078603745,0.00022961065405979753,0.0001983039255719632,0.0017755463486537337,0,1,-1000,0,0,0,-1,0,0,1500.0
05:18:37.553,STABILIZE,-35.3632621,149.1652375,0,-0.0011596851982176304,0.0009847846813499928,0.025267478078603745,0.00022961065405979753,0.0001983039255719632,0.0017755463486537337,0,1,-1000,0,0,0,-1,0,0,1500.0
05:18:37.754,STABILIZE,-35.3632621,149.1652375,0,-0.0011596851982176304,0.0009847846813499928,0.025267478078603745,0.00022961065405979753,0.0001983039255719632,0.0017755463486537337,0,1,-1000,0,0,0,-1,0,0,1500.0
05:18:37.955,STABILIZE,-35.3632621,149.1652375,0,-0.0012130290269851685,0.0009587715030647814,0.025041799992322922,0.0002311241696588695,0.00026805122615769506,0.0019597129430621862,0,1,-1000,0,0,0,-1,0,0,1500.0
05:18:38.157,STABILIZE,-35.3632621,149.1652375,0,-0.0012130290269851685,0.0009587715030647814,0.025041799992322922,0.0002311241696588695,0.00026805122615769506,0.0019597129430621862,0,1,-1000,0,0,0,-1,0,0,1500.0
05:18:38.358,STABILIZE,-35.3632621,149.1652375,0,-0.0012212850851938128,0.0009446403128094971,0.024904891848564148,0.00011809420539066195,0.0002821955713443458,0.0018714681500568986,0,1,-1000,0,0,0,-1,0,0,1500.0
05:18:38.559,STABILIZE,-35.3632621,149.1652375,0,-0.0012212850851938128,0.0009446403128094971,0.024904891848564148,0.00011809420539066195,0.0002821955713443458,0.0018714681500568986,0,1,-1000,0,0,0,-1,0,0,1500.0
05:18:38.760,STABILIZE,-35.3632621,149.1652375,0,-0.0012212850851938128,0.0009446403128094971,0.024904891848564148,0.00011809420539066195,0.0002821955713443458,0.0018714681500568986,0,1,-1000,0,0,0,-1,0,0,1500.0
05:18:38.962,STABILIZE,-35.3632621,149.1652375,0,-0.0012212850851938128,0.0009446403128094971,0.024904891848564148,0.00011809420539066195,0.0002821955713443458,0.0018714681500568986,0,1,-1000,0,0,0,-1,0,0,1500.0
05:18:39.163,STABILIZE,-35.3632621,149.1652375,0,-0.0012336489744484425,0.0009353265631943941,0.024706894531846046,0.0001690317876636982,0.0003452866803854704,0.001863118726760149,0,1,-1000,0,0,0,-1,0,0,1500.0
05:18:39.364,STABILIZE,-35.3632621,149.1652375,0,-0.0012336489744484425,0.0009353265631943941,0.024706894531846046,0.0001690317876636982,0.0003452866803854704,0.001863118726760149,0,2,-1000,1,0,0,-1,0,0,1500.0
05:18:39.565,STABILIZE,-35.3632621,149.1652375,0,-0.0012336489744484425,0.0009353265631943941,0.024706894531846046,0.0001690317876636982,0.0003452866803854704,0.001863118726760149,0,2,-1000,1,0,0,-1,0,0,1500.0
05:18:39.767,STABILIZE,-35.3632621,149.1652375,0,-0.0012266627745702863,0.0009375104564242065,0.02456136979162693,0.00017008796567097306,0.0001976095954887569,0.0019400041783228517,0,1,-1000,0,0,0,-1,0,0,1500.0
05:18:39.968,STABILIZE,-35.3632621,149.1652375,0,-0.0012191005516797304,0.0009375871741212904,0.024499310180544853,0.00019464368233457208,0.0002405575360171497,0.0018230063142254949,0,1,-1000,1,0,0,-1,0,0,1500.0
05:18:40.169,STABILIZE,-35.3632621,149.1652375,0,-0.0012096528662368655,0.0009344338905066252,0.024423297494649887,0.00032418291084468365,0.0002979293931275606,0.0019113636808469892,0,1,-1000,0,0,1,-1,0,0,1500.0
05:18:40.371,STABILIZE,-35.3632621,149.1652375,0,-0.001040862058289349,0.0009399325936101377,0.024364199489355087,0.008714955300092697,0.0003807073226198554,0.0017253601690754294,0,1,-1000,0,0,1,-1,0,-2,1500.0
05:18:40.572,STABILIZE,-35.3632621,149.1652375,0,-0.001040862058289349,0.0009399325936101377,0.024364199489355087,0.008714955300092697,0.0003807073226198554,0.0017253601690754294,0,1,-1000,0,0,1,-1,0,-2,1500.0
05:18:40.774,STABILIZE,-35.3632621,149.1652375,0,-0.001040862058289349,0.0009399325936101377,0.024364199489355087,0.008714955300092697,0.0003807073226198554,0.0017253601690754294,0,1,-1000,0,0,1,-1,0,-2,1500.0
05:18:40.975,STABILIZE,-35.3632621,149.1652375,0,-0.001040862058289349,0.0009399325936101377,0.024364199489355087,0.008714955300092697,0.0003807073226198554,0.0017253601690754294,0,1,-1000,0,0,1,-1,0,-2,1500.0
05:18:41.176,STABILIZE,-35.3632621,149.1652375,0,-0.001040862058289349,0.0009399325936101377,0.024364199489355087,0.008714955300092697,0.0003807073226198554,0.0017253601690754294,0,1,-1000,0,0,1,-1,0,-2,1500.0
05:18:41.378,STABILIZE,-35.3632621,149.1652375,0,-0.00091209402307868,0.0009202802903018892,0.024081679061055183,0.0001887868857011199,0.00012104451889172196,0.001634496496990323,0,1,-1000,0,0,0,-1,0,-1,1500.0
05:18:41.579,STABILIZE,-35.3632621,149.1652375,0,-0.00091209402307868,0.0009202802903018892,0.024081679061055183,0.0001887868857011199,0.00012104451889172196,0.001634496496990323,0,1,-1000,0,0,0,-1,0,-1,1500.0
05:18:41.780,STABILIZE,-35.3632621,149.1652375,0,-0.00091209402307868,0.0009202802903018892,0.024081679061055183,0.0001887868857011199,0.00012104451889172196,0.001634496496990323,0,1,-1000,0,0,0,-1,0,-1,1500.0
05:18:41.981,STABILIZE,-35.3632621,149.1652375,0,-0.00091209402307868,0.0009202802903018892,0.024081679061055183,0.0001887868857011199,0.00012104451889172196,0.001634496496990323,0,1,-1000,0,0,0,-1,0,-1,1500.0
05:18:42.182,STABILIZE,-35.3632621,149.1652375,0,-0.000834969338029623,0.0009324238053523004,0.023863283917307854,0.0001729399082250893,0.0003990394761785865,0.0018471936928108335,0,1,-1000,0,0,0,-1,0,-1,1500.0
05:18:42.383,STABILIZE,-35.3632622,149.1652375,1,-0.0008216677233576775,0.0009363906574435532,0.023782746866345406,0.0003320148680359125,0.00022817793069407344,0.0017537649255245924,0,1,-1000,0,0,0,-1,0,-1,1500.0
05:18:42.593,STABILIZE,-35.3632622,149.1652375,1,-0.0008216677233576775,0.0009363906574435532,0.023782746866345406,0.0003320148680359125,0.00022817793069407344,0.0017537649255245924,0,1,-1000,0,0,0,-1,0,-1,1500.0
05:18:42.799,STABILIZE,-35.3632622,149.1652375,1,-0.0008216677233576775,0.0009363906574435532,0.023782746866345406,0.0003320148680359125,0.00022817793069407344,0.0017537649255245924,0,1,-1000,0,0,0,-1,0,-1,1500.0
05:18:43.000,STABILIZE,-35.3632622,149.1652375,1,-0.0008216677233576775,0.0009363906574435532,0.023782746866345406,0.0003320148680359125,0.00022817793069407344,0.0017537649255245924,0,1,-1000,0,0,0,-1,0,-1,1500.0
05:18:43.202,STABILIZE,-35.3632622,149.1652375,1,-0.0008216677233576775,0.0009363906574435532,0.023782746866345406,0.0003320148680359125,0.00022817793069407344,0.0017537649255245924,0,1,-1000,0,0,0,-1,0,-1,1500.0
05:18:43.403,STABILIZE,-35.3632622,149.1652375,4,-0.0008130840724334121,0.0009488009382039309,0.02344030886888504,0.00015644170343875885,0.0002905791625380516,0.001564723439514637,0,1,-1000,0,0,0,-1,1,-1,1500.0
05:18:43.605,STABILIZE,-35.3632622,149.1652375,4,-0.0008130840724334121,0.0009488009382039309,0.02344030886888504,0.00015644170343875885,0.0002905791625380516,0.001564723439514637,0,1,-1000,0,1,0,-1,1,-1,1500.0
05:18:43.807,STABILIZE,-35.3632622,149.1652375,4,-0.0008130840724334121,0.0009488009382039309,0.02344030886888504,0.00015644170343875885,0.0002905791625380516,0.001564723439514637,0,1,-1000,0,1,0,-1,1,-1,1500.0
05:18:44.009,STABILIZE,-35.3632622,149.1652375,3,-0.0005004765698686242,0.000957066600676626,0.023280201479792595,-0.0005353656015358865,0.00025154196191579103,0.001769553404301405,0,29,-957,0,1,0,-1,3,1,1500.0
05:18:44.211,STABILIZE,-35.3632622,149.1652375,3,-0.0005004765698686242,0.000957066600676626,0.023280201479792595,-0.0005353656015358865,0.00025154196191579103,0.001769553404301405,0,29,-957,0,1,0,-1,3,1,1500.0
05:18:44.412,STABILIZE,-35.3632622,149.1652375,0,-0.0006031244993209839,0.0009526278590783477,0.023106975480914116,0.00025443517370149493,0.00020276097347959876,0.0016484576044604182,0,2,-1000,0,1,0,-1,3,1,1500.0
05:18:44.614,STABILIZE,-35.3632622,149.1652375,0,-0.0006031244993209839,0.0009526278590783477,0.023106975480914116,0.00025443517370149493,0.00020276097347959876,0.0016484576044604182,0,2,-1000,0,1,0,-1,3,1,1500.0
05:18:44.815,STABILIZE,-35.3632622,149.1652375,0,-0.0006031244993209839,0.0009526278590783477,0.023106975480914116,0.00025443517370149493,0.00020276097347959876,0.0016484576044604182,0,2,-1000,0,1,0,-1,3,1,1500.0
05:18:45.016,STABILIZE,-35.3632622,149.1652375,0,-0.0006031244993209839,0.0009526278590783477,0.023106975480914116,0.00025443517370149493,0.00020276097347959876,0.0016484576044604182,0,2,-1000,0,1,0,-1,3,1,1500.0
05:18:45.218,STABILIZE,-35.3632622,149.1652376,0,-0.0008101117564365268,0.0009605580125935376,0.022860189899802208,0.00024499872233718634,0.00039521860890090466,0.001634872634895146,0,1,-1000,1,0,1,-1,2,1,1500.0
05:18:45.419,STABILIZE,-35.3632622,149.1652376,0,-0.0008101117564365268,0.0009605580125935376,0.022860189899802208,0.00024499872233718634,0.00039521860890090466,0.001634872634895146,0,2,-1000,0,1,1,-1,2,1,1500.0
05:18:45.620,STABILIZE,-35.3632622,149.1652376,0,-0.0008101117564365268,0.0009605580125935376,0.022860189899802208,0.00024499872233718634,0.00039521860890090466,0.001634872634895146,0,2,-1000,0,1,1,-1,2,1,1500.0
05:18:45.822,STABILIZE,-35.3632622,149.1652376,0,-0.0008101117564365268,0.0009605580125935376,0.022860189899802208,0.00024499872233718634,0.00039521860890090466,0.001634872634895146,0,2,-1000,0,1,1,-1,2,1,1500.0
05:18:46.023,STABILIZE,-35.3632622,149.1652375,0,-0.0009778047678992152,0.0009629544802010059,0.022650985047221184,0.00034872081596404314,0.0003168804687447846,0.0016838546143844724,0,2,-1000,0,0,0,-1,2,0,1500.0
05:18:46.224,STABILIZE,-35.3632622,149.1652375,0,-0.0009778047678992152,0.0009629544802010059,0.022650985047221184,0.00034872081596404314,0.0003168804687447846,0.0016838546143844724,0,2,-1000,0,0,0,-1,2,0,1500.0
05:18:46.426,STABILIZE,-35.3632622,149.1652375,0,-0.0010690585477277637,0.0009709135047160089,0.022522710263729095,0.00020145869348198175,0.0003250794834457338,0.001512674381956458,0,2,-1000,0,0,0,-1,2,0,1500.0
05:18:46.627,STABILIZE,-35.3632622,149.1652375,0,-0.0010690585477277637,0.0009709135047160089,0.022522710263729095,0.00020145869348198175,0.0003250794834457338,0.001512674381956458,0,2,-1000,0,0,0,-1,2,0,1500.0
05:18:46.829,STABILIZE,-35.3632622,149.1652375,0,-0.0010690585477277637,0.0009709135047160089,0.022522710263729095,0.00020145869348198175,0.0003250794834457338,0.001512674381956458,0,2,-1000,0,0,0,-1,2,0,1500.0
05:18:47.030,STABILIZE,-35.3632622,149.1652375,0,-0.0010690585477277637,0.0009709135047160089,0.022522710263729095,0.00020145869348198175,0.0003250794834457338,0.001512674381956458,0,2,-1000,0,0,0,-1,2,0,1500.0
05:18:47.231,STABILIZE,-35.3632622,149.1652375,0,-0.0011583699379116297,0.0009873195085674524,0.022341502830386162,0.00031741487327963114,0.00041213008807972074,0.0016020983457565308,0,1,-1000,0,1,0,-1,1,0,1500.0
05:18:47.432,STABILIZE,-35.3632622,149.1652375,0,-0.0011864391854032874,0.0009977242443710566,0.022289765998721123,0.00024207396199926734,0.0001863906509242952,0.0013989408034831285,0,1,-1000,0,1,0,-1,1,0,1500.0
05:18:47.633,STABILIZE,-35.3632622,149.1652375,0,-0.0011864391854032874,0.0009977242443710566,0.022289765998721123,0.00024207396199926734,0.0001863906509242952,0.0013989408034831285,0,1,-1000,0,1,0,-1,1,0,1500.0
05:18:47.835,STABILIZE,-35.3632622,149.1652375,0,-0.0011864391854032874,0.0009977242443710566,0.022289765998721123,0.00024207396199926734,0.0001863906509242952,0.0013989408034831285,0,1,-1000,0,1,0,-1,1,0,1500.0
05:18:48.039,STABILIZE,-35.3632622,149.1652375,0,-0.0012184882070869207,0.0009964671917259693,0.022176148369908333,0.0002735404996201396,0.0003425512695685029,0.0014995434321463108,0,1,-1000,0,1,0,-1,1,0,1500.0
05:18:48.241,STABILIZE,-35.3632622,149.1652375,0,-0.0012184882070869207,0.0009964671917259693,0.022176148369908333,0.0002735404996201396,0.0003425512695685029,0.0014995434321463108,0,1,-1000,0,0,0,-1,1,0,1500.0
05:18:48.442,STABILIZE,-35.3632622,149.1652375,0,-0.0012411761563271284,0.0009941235184669495,0.02208784781396389,0.00029236002592369914,0.0002657684963196516,0.0015528267249464989,0,1,-1000,0,0,0,-1,1,0,1500.0
05:18:48.644,AUTO,-35.3632622,149.1652375,0,-0.0012411761563271284,0.0009941235184669495,0.02208784781396389,0.00029236002592369914,0.0002657684963196516,0.0015528267249464989,0,1,-1000,0,0,0,-1,1,0,1500.0
05:18:48.846,AUTO,-35.3632622,149.1652375,0,-0.0012411761563271284,0.0009941235184669495,0.02208784781396389,0.00029236002592369914,0.0002657684963196516,0.0015528267249464989,0,1,-1000,0,0,0,-1,1,0,1500.0
05:18:49.048,AUTO,-35.3632622,149.1652375,0,-0.0012411761563271284,0.0009941235184669495,0.02208784781396389,0.00029236002592369914,0.0002657684963196516,0.0015528267249464989,0,1,-1000,0,0,0,-1,1,0,1500.0
05:18:49.249,AUTO,-35.3632622,149.1652375,7,-0.0012477781856432557,0.001008430845104158,0.02198387123644352,0.00032627693144604564,0.000215706299059093,0.0014945841394364834,0,1,-1000,0,0,0,-1,0,0,200.0
05:18:49.451,AUTO,-35.3632622,149.1652375,8,-0.001238043885678053,0.0010159824742004275,0.021929675713181496,0.00034434034023433924,0.0002692050766199827,0.001486184075474739,0,1,-1000,1,0,1,-1,0,0,200.0
05:18:49.652,AUTO,-35.3632621,149.1652375,8,-0.001227505854330957,0.0010416366858407855,0.021882083266973495,0.00017050252063199878,0.00030256022000685334,0.0013935206225141883,0,1,-1000,0,0,0,0,0,0,200.0
05:18:49.854,AUTO,-35.3632621,149.1652375,8,-0.0011975427623838186,0.0010732156224548817,0.021841151639819145,0.0002263322239741683,0.00032194715458899736,0.001269713742658496,0,2,-1000,0,0,0,0,0,0,200.0
05:18:50.056,AUTO,-35.3632621,149.1652375,8,-0.0011975427623838186,0.0010732156224548817,0.021841151639819145,0.0002263322239741683,0.00032194715458899736,0.001269713742658496,0,2,-1000,0,0,0,0,0,0,200.0
05:18:50.258,AUTO,-35.3632621,149.1652375,9,-0.0011605292093008757,0.0011252840049564838,0.021789174526929855,0.000191176135558635,0.00034310808405280113,0.001351282000541687,0,2,-1000,0,1,1,0,0,0,200.0
05:18:50.460,AUTO,-35.3632621,149.1652375,9,-0.0011193669633939862,0.0011812371667474508,0.021739086136221886,0.00022093282314017415,0.00017001485684886575,0.0014567029429599643,0,1,-1000,1,1,0,0,0,0,200.0
05:18:50.662,AUTO,-35.3632621,149.1652375,9,-0.0011193669633939862,0.0011812371667474508,0.021739086136221886,0.00022093282314017415,0.00017001485684886575,0.0014567029429599643,0,1,-1000,1,1,0,0,0,0,200.0
05:18:50.864,AUTO,-35.3632621,149.1652375,9,-0.0011193669633939862,0.0011812371667474508,0.021739086136221886,0.00022093282314017415,0.00017001485684886575,0.0014567029429599643,0,1,-1000,1,1,0,0,0,0,200.0
05:18:51.065,AUTO,-35.3632621,149.1652375,9,-0.0011193669633939862,0.0011812371667474508,0.021739086136221886,0.00022093282314017415,0.00017001485684886575,0.0014567029429599643,0,1,-1000,1,1,0,0,0,0,200.0
05:18:51.267,AUTO,-35.3632621,149.1652374,14,-0.0009906371124088764,0.001373523729853332,0.02160247601568699,0.00026450154837220907,0.00018958764849230647,0.00148363399785012,0,2,-1000,0,1,0,0,-1,-1,200.0
05:18:51.468,AUTO,-35.3632621,149.1652374,16,-0.0009373579523526132,0.0014432998141273856,0.021563906222581863,0.00020930735627189279,0.00028705206932500005,0.0015061479061841965,0,1,-1000,1,0,0,0,0,-1,200.0
05:18:51.670,AUTO,-35.3632621,149.1652374,17,-0.0008844767580740154,0.0015153448330238461,0.021511927247047424,0.00028606742853298783,0.000236964609939605,0.0014533288776874542,0,2,-1000,1,1,1,0,0,-1,200.0
05:18:51.871,AUTO,-35.3632621,149.1652374,17,-0.0008279017638415098,0.0015905568143352866,0.021446801722049713,0.00031710590701550245,0.00032283877953886986,0.0013519790954887867,0,1,-1000,1,0,0,0,0,-1,200.0
05:18:52.073,AUTO,-35.3632621,149.1652374,17,-0.0008279017638415098,0.0015905568143352866,0.021446801722049713,0.00031710590701550245,0.00032283877953886986,0.0013519790954887867,0,1,-1000,1,0,0,0,0,-1,200.0
05:18:52.275,AUTO,-35.3632621,149.1652374,18,-0.0007655976805835962,0.0016647764714434743,0.021395331248641014,0.0003087891382165253,0.0003012827946804464,0.0014903791015967727,0,1,-1000,1,0,0,0,0,-1,200.0
05:18:52.477,AUTO,-35.3632621,149.1652374,18,-0.000700647768098861,0.0017431123415008187,0.02134568616747856,0.0003328774473629892,0.00038176437374204397,0.00143257318995893,0,1,-1000,0,0,0,0,0,-1,200.0
05:18:52.679,AUTO,-35.3632621,149.1652374,18,-0.000700647768098861,0.0017431123415008187,0.02134568616747856,0.0003328774473629892,0.00038176437374204397,0.00143257318995893,0,1,-1000,0,0,0,0,0,-1,200.0
05:18:52.881,AUTO,-35.3632621,149.1652374,18,-0.000700647768098861,0.0017431123415008187,0.02134568616747856,0.0003328774473629892,0.00038176437374204397,0.00143257318995893,0,1,-1000,0,0,0,0,0,-1,200.0
05:18:53.083,AUTO,-35.3632621,149.1652374,18,-0.000700647768098861,0.0017431123415008187,0.02134568616747856,0.0003328774473629892,0.00038176437374204397,0.00143257318995893,0,1,-1000,0,0,0,0,0,-1,200.0
05:18:53.285,AUTO,-35.3632621,149.1652375,220,0.0016853036358952522,0.0002929664042312652,0.0211736299097538,-0.009553811512887478,0.004954413510859013,0.0022235307842493057,0,0,-1130,-9,5,1,0,0,-74,200.0
05:18:53.486,AUTO,-35.3632621,149.1652375,439,0.0008533782092854381,0.0012762686237692833,0.021190527826547623,-0.004439978860318661,0.0035908850841224194,0.0011525980662554502,0,0,-1108,-3,4,1,0,0,-103,200.0
05:18:53.688,AUTO,-35.3632621,149.1652375,724,0.0009415897075086832,0.0016427830560132861,0.02098294347524643,0.011726670898497105,-0.0005029534222558141,-2.4801003746688366e-05,0,0,-1087,12,0,0,0,0,-126,200.0
05:18:53.890,AUTO,-35.3632621,149.1652375,1063,0.011053803376853466,0.0005218185833655298,0.020791422575712204,0.04798436164855957,-0.0065396688878536224,0.0013400439638644457,0,0,-1038,48,-5,0,0,1,-140,200.0
05:18:54.092,AUTO,-35.363262,149.1652375,1428,0.022936450317502022,-0.0012032443191856146,0.02080482244491577,0.0466853491961956,-0.007235291879624128,0.002168819308280945,0,0,-1016,47,-6,1,1,5,-146,200.0
05:18:54.294,AUTO,-35.363262,149.1652375,1428,0.022936450317502022,-0.0012032443191856146,0.02080482244491577,0.0466853491961956,-0.007235291879624128,0.002168819308280945,0,0,-1016,47,-6,1,1,5,-146,200.0
05:18:54.496,AUTO,-35.363262,149.1652377,1807,0.03441295027732849,-0.0031096579041332006,0.0209572222083807,0.04501183703541756,-0.007646792568266392,0.002981406170874834,0,-1,-1006,45,-6,2,1,12,-148,200.0
05:18:54.697,AUTO,-35.363262,149.1652377,1807,0.03441295027732849,-0.0031096579041332006,0.0209572222083807,0.04501183703541756,-0.007646792568266392,0.002981406170874834,0,-1,-1006,45,-6,2,1,12,-148,200.0
05:18:54.900,AUTO,-35.363262,149.1652377,1807,0.03441295027732849,-0.0031096579041332006,0.0209572222083807,0.04501183703541756,-0.007646792568266392,0.002981406170874834,0,-1,-1006,45,-6,2,1,12,-148,200.0
05:18:55.102,AUTO,-35.3632616,149.1652397,2959,0.06118320673704147,-0.008317390456795692,-0.007753717713057995,-0.026197664439678192,0.03314614295959473,-0.05990317463874817,0,-8,-991,-25,33,-60,8,44,-148,200.0
05:18:55.304,AUTO,-35.3632616,149.1652397,2959,0.06118320673704147,-0.008317390456795692,-0.007753717713057995,-0.026197664439678192,0.03314614295959473,-0.05990317463874817,0,-8,-991,-25,33,-60,8,44,-148,200.0
05:18:55.506,AUTO,-35.3632614,149.165241,3339,0.0381956584751606,0.01480991579592228,-0.03116362728178501,-0.14958952367305756,0.09286194294691086,-0.09965161234140396,3,-11,-991,-148,93,-100,9,53,-146,200.0
05:18:55.708,AUTO,-35.3632611,149.1652425,3713,-0.00453835166990757,0.023913301527500153,-0.05066321790218353,-0.13092441856861115,-0.0006754894275218248,-0.06767932325601578,6,-14,-1009,-130,0,-67,6,54,-145,200.0
05:18:55.911,AUTO,-35.363261,149.1652439,4099,-0.024242542684078217,0.019411366432905197,-0.06350453197956085,-0.04321782663464546,-0.02000165358185768,-0.05345538258552551,5,-10,-1010,-42,-19,-54,2,47,-148,200.0
05:18:56.114,AUTO,-35.3632609,149.165245,4482,-0.03443562239408493,0.013819905929267406,-0.07298266142606735,-0.0512835830450058,-0.018200993537902832,-0.03929538279771805,4,-9,-1003,-50,-17,-39,0,37,-149,200.0
05:18:56.316,AUTO,-35.3632609,149.165245,4482,-0.03443562239408493,0.013819905929267406,-0.07298266142606735,-0.0512835830450058,-0.018200993537902832,-0.03929538279771805,4,-9,-1003,-50,-17,-39,0,37,-149,200.0
05:18:56.518,AUTO,-35.3632609,149.1652458,4866,-0.051721084862947464,0.007434820756316185,-0.07931245118379593,-0.08475974202156067,-0.025917019695043564,-0.023129375651478767,4,-6,-999,-84,-25,-23,-1,24,-149,200.0
05:18:56.720,AUTO,-35.3632609,149.1652458,4866,-0.051721084862947464,0.007434820756316185,-0.07931245118379593,-0.08475974202156067,-0.025917019695043564,-0.023129375651478767,4,-6,-999,-84,-25,-23,-1,24,-149,200.0
05:18:56.922,AUTO,-35.3632609,149.1652458,4866,-0.051721084862947464,0.007434820756316185,-0.07931245118379593,-0.08475974202156067,-0.025917019695043564,-0.023129375651478767,4,-6,-999,-84,-25,-23,-1,24,-149,200.0
05:18:57.124,AUTO,-35.363261,149.1652456,6009,-0.06859073042869568,-0.005654031410813332,-0.08937320113182068,0.05247519537806511,-0.003572605550289154,-0.009788732044398785,-1,3,-1001,53,-3,-10,-2,-30,-149,200.0
05:18:57.326,AUTO,-35.363261,149.1652456,6009,-0.06859073042869568,-0.005654031410813332,-0.08937320113182068,0.05247519537806511,-0.003572605550289154,-0.009788732044398785,-1,3,-1001,53,-3,-10,-2,-30,-149,125457.0
05:18:57.528,AUTO,-35.363261,149.1652447,6393,-0.05475251376628876,-0.005789668299257755,-0.09194169193506241,0.05780992656946182,0.0025576718617230654,-0.005709783174097538,-4,8,-1000,58,3,-5,-3,-44,-149,125457.0
05:18:57.730,AUTO,-35.3632611,149.1652433,6777,-0.03967316076159477,-0.004465070087462664,-0.09381509572267532,0.0627104789018631,0.007788690272718668,-0.002945610787719488,-5,9,-1001,63,8,-3,-3,-54,-149,125457.0
05:18:57.932,AUTO,-35.3632612,149.1652417,7161,-0.023713013157248497,-0.0020081535913050175,-0.09501036256551743,0.06622818112373352,0.011494566686451435,-0.0007377802394330502,-6,10,-1002,66,12,-1,-4,-59,-150,125457.0
05:18:58.134,AUTO,-35.3632613,149.1652401,7546,-0.007302900310605764,0.001087288954295218,-0.09534777700901031,0.06536921113729477,0.01251186802983284,0.0015335682546719909,-5,8,-1003,66,13,1,-5,-60,-151,125457.0
05:18:58.336,AUTO,-35.3632613,149.1652401,7546,-0.007302900310605764,0.001087288954295218,-0.09534777700901031,0.06536921113729477,0.01251186802983284,0.0015335682546719909,-5,8,-1003,66,13,1,-5,-60,-151,125457.0
05:18:58.539,AUTO,-35.3632615,149.1652384,7934,0.009457929991185665,0.004378067329525948,-0.09509896486997604,0.06717471033334732,0.012938747182488441,0.002607925096526742,-8,15,-1004,67,13,2,-7,-57,-151,125457.0
05:18:58.740,AUTO,-35.3632615,149.1652384,7934,0.009457929991185665,0.004378067329525948,-0.09509896486997604,0.06717471033334732,0.012938747182488441,0.002607925096526742,-8,15,-1004,67,13,2,-7,-57,-151,125457.0
05:18:58.943,AUTO,-35.3632615,149.1652384,7934,0.009457929991185665,0.004378067329525948,-0.09509896486997604,0.06717471033334732,0.012938747182488441,0.002607925096526742,-8,15,-1004,67,13,2,-7,-57,-151,125457.0
05:18:59.144,AUTO,-35.3632622,149.1652346,9116,0.05801741033792496,0.010524548590183258,-0.09186086058616638,0.0612032376229763,0.0019837699364870787,0.004753440618515015,-3,8,-1002,61,2,4,-13,-25,-153,125457.0
05:18:59.346,AUTO,-35.3632625,149.165234,9511,0.07177954912185669,0.009442850016057491,-0.08959183841943741,0.03438131511211395,-0.01854802295565605,0.027908047661185265,0,5,-997,34,-18,27,-14,-7,-153,125457.0
05:18:59.548,AUTO,-35.3632625,149.165234,9511,0.07177954912185669,0.009442850016057491,-0.08959183841943741,0.03438131511211395,-0.01854802295565605,0.027908047661185265,0,5,-997,34,-18,27,-14,-7,-153,125457.0
05:18:59.750,AUTO,-35.3632628,149.165234,9901,0.06718341261148453,-0.009095489978790283,-0.07404692471027374,-0.055290281772613525,-0.10469862818717957,0.09051652997732162,1,1,-993,-54,-104,90,-12,9,-151,125457.0
05:18:59.951,AUTO,-35.363263,149.1652342,10286,0.04263832047581673,-0.025683535262942314,-0.061556413769721985,-0.12004329264163971,-0.019826091825962067,0.02912178821861744,2,-2,-994,-119,-19,28,-5,21,-149,125457.0
05:19:00.153,AUTO,-35.363263,149.1652348,10667,0.015053135342895985,-0.022539986297488213,-0.06203806400299072,-0.09806719422340393,0.030940711498260498,-0.01988864503800869,3,-4,-1000,-97,31,-20,2,26,-148,125457.0
05:19:00.355,AUTO,-35.363263,149.1652355,11049,-0.005431309808045626,-0.014299368485808372,-0.07051972299814224,-0.06392191350460052,0.03176378831267357,-0.04034976288676262,1,-4,-1004,-63,32,-40,8,25,-149,125457.0
05:19:00.557,AUTO,-35.363263,149.1652355,11049,-0.005431309808045626,-0.014299368485808372,-0.07051972299814224,-0.06392191350460052,0.03176378831267357,-0.04034976288676262,1,-4,-1004,-63,32,-40,8,25,-149,125457.0
05:19:00.759,AUTO,-35.363263,149.1652355,11049,-0.005431309808045626,-0.014299368485808372,-0.07051972299814224,-0.06392191350460052,0.03176378831267357,-0.04034976288676262,1,-4,-1004,-63,32,-40,8,25,-149,125457.0
05:19:00.960,AUTO,-35.363263,149.1652355,11049,-0.005431309808045626,-0.014299368485808372,-0.07051972299814224,-0.06392191350460052,0.03176378831267357,-0.04034976288676262,1,-4,-1004,-63,32,-40,8,25,-149,125457.0
05:19:01.162,AUTO,-35.3632622,149.1652367,12204,-0.022386735305190086,0.000490944308694452,-0.10640265792608261,0.0097237229347229,0.013895010575652122,-0.04322491213679314,-1,-3,-1003,10,14,-43,12,5,-151,125457.0
05:19:01.364,AUTO,-35.363262,149.1652367,12593,-0.019057048484683037,0.003298303112387657,-0.11738478392362595,0.01934186927974224,0.012399636209011078,-0.04047587886452675,-2,-2,-1001,20,13,-40,11,0,-152,180053.0
05:19:01.565,AUTO,-35.363262,149.1652367,12593,-0.019057048484683037,0.003298303112387657,-0.11738478392362595,0.01934186927974224,0.012399636209011078,-0.04047587886452675,-2,-2,-1001,20,13,-40,11,0,-152,180053.0
05:19:01.767,AUTO,-35.3632617,149.1652367,12982,-0.013825777918100357,0.005812846124172211,-0.12684224545955658,0.022088605910539627,0.009709305129945278,-0.03278188779950142,-3,-1,-1000,22,10,-33,9,-5,-152,180053.0
05:19:01.969,AUTO,-35.3632615,149.1652365,13376,-0.007659989409148693,0.008063952438533306,-0.13506518304347992,0.02294786088168621,0.00952679943293333,-0.02786770462989807,-3,0,-1000,23,10,-28,7,-8,-152,180053.0
05:19:02.170,AUTO,-35.3632613,149.1652363,13767,-0.00168313505128026,0.009860824793577194,-0.14162155985832214,0.023795919492840767,0.005328635685145855,-0.02059527300298214,-2,0,-1000,24,5,-20,4,-9,-152,180053.0
05:19:02.374,AUTO,-35.3632612,149.165236,14156,0.003514489158987999,0.010773593559861183,-0.1465684324502945,0.020427286624908447,0.00202061515301466,-0.0155229726806283,-2,0,-1000,21,2,-15,2,-8,-152,180053.0
05:19:02.576,AUTO,-35.3632612,149.165236,14156,0.003514489158987999,0.010773593559861183,-0.1465684324502945,0.020427286624908447,0.00202061515301466,-0.0155229726806283,-2,0,-1000,21,2,-15,2,-8,-152,180053.0
05:19:02.779,AUTO,-35.3632612,149.165236,14156,0.003514489158987999,0.010773593559861183,-0.1465684324502945,0.020427286624908447,0.00202061515301466,-0.0155229726806283,-2,0,-1000,21,2,-15,2,-8,-152,180053.0
05:19:02.981,AUTO,-35.3632612,149.165236,14156,0.003514489158987999,0.010773593559861183,-0.1465684324502945,0.020427286624908447,0.00202061515301466,-0.0155229726806283,-2,0,-1000,21,2,-15,2,-8,-152,180053.0
05:19:03.182,AUTO,-35.3632612,149.1652354,15322,0.010975552722811699,0.009649493731558323,-0.1545896977186203,0.005000576376914978,-0.0034588794223964214,-0.007589399814605713,0,1,-1000,5,-2,-7,-3,-2,-152,180053.0
05:19:03.384,AUTO,-35.3632612,149.1652353,15711,0.01100900024175644,0.008678758516907692,-0.15636402368545532,-0.0011395865585654974,-0.003813390387222171,-0.005933621898293495,0,0,-999,0,-3,-6,-4,0,-152,180053.0
05:19:03.585,AUTO,-35.3632612,149.1652353,15711,0.01100900024175644,0.008678758516907692,-0.15636402368545532,-0.0011395865585654974,-0.003813390387222171,-0.005933621898293495,0,0,-999,0,-3,-6,-4,0,-152,180053.0
05:19:03.787,AUTO,-35.3632612,149.1652353,16101,0.009905509650707245,0.0072817131876945496,-0.15800443291664124,-0.006153641734272242,-0.0034051949623972178,-0.00679304264485836,0,0,-1000,-5,-2,-7,-5,2,-152,180053.0
05:19:03.989,AUTO,-35.3632613,149.1652353,16489,0.008436993695795536,0.006276629865169525,-0.16013112664222717,-0.005654188804328442,-0.005025547929108143,-0.007291609887033701,0,0,-1000,-4,-4,-7,-6,4,-152,180053.0
05:19:04.191,AUTO,-35.3632614,149.1652353,16877,0.006881790701299906,0.005190491210669279,-0.16272078454494476,-0.006441048812121153,-0.0035533772315829992,-0.011386669240891933,0,0,-1000,-5,-2,-11,-6,5,-152,180053.0
05:19:04.393,AUTO,-35.3632615,149.1652354,17266,0.005474785342812538,0.004159808624535799,-0.16565820574760437,-0.004198664799332619,-0.0038020326755940914,-0.012312283739447594,1,0,-1000,-3,-3,-12,-6,6,-152,180053.0
05:19:04.601,AUTO,-35.3632615,149.1652354,17266,0.005474785342812538,0.004159808624535799,-0.16565820574760437,-0.004198664799332619,-0.0038020326755940914,-0.012312283739447594,1,0,-1000,-3,-3,-12,-6,6,-152,180053.0
05:19:04.803,AUTO,-35.3632615,149.1652354,17266,0.005474785342812538,0.004159808624535799,-0.16565820574760437,-0.004198664799332619,-0.0038020326755940914,-0.012312283739447594,1,0,-1000,-3,-3,-12,-6,6,-152,180053.0
05:19:05.005,AUTO,-35.3632615,149.1652354,17266,0.005474785342812538,0.004159808624535799,-0.16565820574760437,-0.004198664799332619,-0.0038020326755940914,-0.012312283739447594,1,0,-1000,-3,-3,-12,-6,6,-152,180053.0
05:19:05.206,AUTO,-35.3632617,149.1652357,18432,0.002225420903414488,0.001894084271043539,-0.1771978735923767,-0.0013496134197339416,-0.0018933657556772232,-0.018852800130844116,1,0,-1000,0,0,-19,-4,6,-152,180053.0
05:19:05.408,AUTO,-35.3632618,149.1652358,18822,0.0017910331953316927,0.0016654249047860503,-0.18202826380729675,-0.0004155600327067077,0.0003288035513833165,-0.02218479849398136,1,0,-1000,0,0,-22,-4,6,-152,143082.0
05:19:05.609,AUTO,-35.3632618,149.1652359,19211,0.0012997838202863932,0.001697772415354848,-0.187172070145607,-0.004236520733684301,0.0005153064848855138,-0.020237304270267487,0,0,-1000,-3,1,-20,-3,5,-152,143082.0
05:19:05.812,AUTO,-35.3632618,149.1652359,19211,0.0012997838202863932,0.001697772415354848,-0.187172070145607,-0.004236520733684301,0.0005153064848855138,-0.020237304270267487,0,0,-1000,-3,1,-20,-3,5,-152,143082.0
05:19:06.014,AUTO,-35.3632618,149.165236,19600,0.0009295220952481031,0.0016744048334658146,-0.1924421191215515,0.0029364456422626972,-0.0002300894702784717,-0.020480992272496223,0,0,-1001,3,0,-20,-3,5,-152,143082.0
05:19:06.216,AUTO,-35.3632619,149.1652361,19989,0.0008967005996964872,0.0018676779000088573,-0.1980361044406891,0.000447023194283247,0.0016773083480075002,-0.0215065348893404,0,0,-1000,1,2,-21,-2,4,-152,143082.0
05:19:06.418,AUTO,-35.3632619,149.1652362,20379,0.0010394469136372209,0.0021562157198786736,-0.20374689996242523,0.0017380011267960072,0.0029454310424625874,-0.024127904325723648,0,0,-1000,2,3,-24,-2,4,-153,143082.0
05:19:06.620,AUTO,-35.3632619,149.1652362,20379,0.0010394469136372209,0.0021562157198786736,-0.20374689996242523,0.0017380011267960072,0.0029454310424625874,-0.024127904325723648,0,0,-1000,2,3,-24,-2,4,-153,143082.0
05:19:06.822,AUTO,-35.3632619,149.1652362,20379,0.0010394469136372209,0.0021562157198786736,-0.20374689996242523,0.0017380011267960072,0.0029454310424625874,-0.024127904325723648,0,0,-1000,2,3,-24,-2,4,-153,143082.0
05:19:07.023,AUTO,-35.3632619,149.1652362,20379,0.0010394469136372209,0.0021562157198786736,-0.20374689996242523,0.0017380011267960072,0.0029454310424625874,-0.024127904325723648,0,0,-1000,2,3,-24,-2,4,-153,143082.0
05:19:07.225,AUTO,-35.3632619,149.1652363,21548,0.0019938184414058924,0.0026154122315347195,-0.22018280625343323,0.0021936679258942604,0.0001915855100378394,-0.02076069824397564,0,0,-1000,2,1,-21,-2,3,-153,143082.0
05:19:07.426,AUTO,-35.3632619,149.1652363,21937,0.0023373777512460947,0.0026517591904848814,-0.22533738613128662,0.001565967220813036,0.0011317833559587598,-0.0205340925604105,0,0,-1000,2,2,-21,-2,3,-153,143082.0
05:19:07.628,AUTO,-35.3632619,149.1652364,22331,0.0024851765483617783,0.00276441453024745,-0.23048080503940582,-0.0027896049432456493,0.0011072002816945314,-0.0207830723375082,0,0,-999,-1,2,-21,-1,3,-153,143082.0
05:19:07.830,AUTO,-35.3632619,149.1652364,22331,0.0024851765483617783,0.00276441453024745,-0.23048080503940582,-0.0027896049432456493,0.0011072002816945314,-0.0207830723375082,0,0,-999,-1,2,-21,-1,3,-153,143082.0
05:19:08.031,AUTO,-35.3632619,149.1652364,22720,0.002205224707722664,0.0028519700281322002,-0.23545174300670624,-0.0004605754802469164,-0.0010471470886841416,-0.01978013478219509,0,0,-1000,0,0,-20,-1,3,-153,143082.0
05:19:08.233,AUTO,-35.3632619,149.1652364,23109,0.0020059673115611076,0.0027573539409786463,-0.2403685301542282,0.0001695950049906969,0.0003340038238093257,-0.019639380276203156,0,0,-1000,1,1,-19,-1,3,-153,143082.0
05:19:08.435,AUTO,-35.3632619,149.1652365,23499,0.0019496344029903412,0.0028545164968818426,-0.24530857801437378,0.0006258884095586836,0.0013203183189034462,-0.017889533191919327,0,0,-1000,1,2,-18,-1,3,-153,143082.0
05:19:08.637,AUTO,-35.3632619,149.1652365,23499,0.0019496344029903412,0.0028545164968818426,-0.24530857801437378,0.0006258884095586836,0.0013203183189034462,-0.017889533191919327,0,0,-1000,1,2,-18,-1,3,-153,143082.0
05:19:08.838,AUTO,-35.3632619,149.1652365,23499,0.0019496344029903412,0.0028545164968818426,-0.24530857801437378,0.0006258884095586836,0.0013203183189034462,-0.017889533191919327,0,0,-1000,1,2,-18,-1,3,-153,143082.0
05:19:09.041,AUTO,-35.3632619,149.1652365,23499,0.0019496344029903412,0.0028545164968818426,-0.24530857801437378,0.0006258884095586836,0.0013203183189034462,-0.017889533191919327,0,0,-1000,1,2,-18,-1,3,-153,143082.0
05:19:09.243,AUTO,-35.3632619,149.1652366,24662,0.001612044987268746,0.0029739118181169033,-0.25982797145843506,-0.000715170637704432,0.00216106791049242,-0.020081132650375366,0,0,-1000,0,3,-20,-1,3,-153,143082.0
05:19:09.444,AUTO,-35.363262,149.1652367,25052,0.001516080112196505,0.002800403628498316,-0.26442983746528625,0.003945851232856512,-0.00019825907656922936,-0.018172012642025948,0,0,-1001,4,0,-18,-1,3,-153,222431.0
05:19:09.645,AUTO,-35.363262,149.1652367,25439,-0.011469664983451366,0.005662186071276665,-0.2629631757736206,-0.013644169084727764,0.011169593781232834,0.011121684685349464,0,0,-1002,-12,12,10,-2,1,-151,222431.0
05:19:09.847,AUTO,-35.363262,149.1652366,25825,-0.006396146025508642,0.006658619735389948,-0.2585892975330353,0.03635061904788017,-0.002332269214093685,0.019708776846528053,0,0,-1004,37,-1,19,-4,-1,-152,222431.0
05:19:10.049,AUTO,-35.363262,149.1652366,25825,-0.006396146025508642,0.006658619735389948,-0.2585892975330353,0.03635061904788017,-0.002332269214093685,0.019708776846528053,0,0,-1004,37,-1,19,-4,-1,-152,222431.0
05:19:10.252,AUTO,-35.3632621,149.1652366,26214,0.0020879358053207397,0.005733955185860395,-0.2524591088294983,0.030448421835899353,-0.0037537403404712677,0.027295958250761032,0,0,-1001,31,-2,27,-5,-1,-153,222431.0
05:19:10.454,AUTO,-35.3632621,149.1652365,26603,0.007490599527955055,0.004440490156412125,-0.24532344937324524,0.018749281764030457,-0.0032042907550930977,0.029023071750998497,0,0,-1000,19,-2,28,-5,0,-153,222431.0
05:19:10.655,AUTO,-35.3632621,149.1652365,26603,0.007490599527955055,0.004440490156412125,-0.24532344937324524,0.018749281764030457,-0.0032042907550930977,0.029023071750998497,0,0,-1000,19,-2,28,-5,0,-153,222431.0
05:19:10.857,AUTO,-35.3632621,149.1652365,26603,0.007490599527955055,0.004440490156412125,-0.24532344937324524,0.018749281764030457,-0.0032042907550930977,0.029023071750998497,0,0,-1000,19,-2,28,-5,0,-153,222431.0
05:19:11.059,AUTO,-35.3632621,149.1652365,26603,0.007490599527955055,0.004440490156412125,-0.24532344937324524,0.018749281764030457,-0.0032042907550930977,0.029023071750998497,0,0,-1000,19,-2,28,-5,0,-153,222431.0
05:19:11.261,AUTO,-35.3632623,149.1652366,27769,0.009134475141763687,0.0012396880192682147,-0.22531823813915253,-0.0021996856667101383,-0.0005857482319697738,0.024907054379582405,1,0,-1000,-1,0,24,-3,5,-152,222431.0
05:19:11.462,AUTO,-35.3632624,149.1652367,28157,0.00757105927914381,0.0011075657093897462,-0.2195064127445221,-0.007144017610698938,0.0013384923804551363,0.023660138249397278,0,0,-1000,-6,2,23,-2,7,-152,222431.0
05:19:11.664,AUTO,-35.3632624,149.1652368,28544,0.005860821809619665,0.0011406367411836982,-0.21405209600925446,-0.004489659331738949,0.0013352264650166035,0.02191794291138649,0,0,-1000,-3,2,21,-2,8,-152,222431.0
05:19:11.865,AUTO,-35.3632624,149.165237,28932,0.003961858805269003,0.0011988787446171045,-0.2088053673505783,-0.008917109109461308,-0.00042747112456709146,0.02090088464319706,1,-1,-999,-7,0,20,-1,8,-152,222431.0
05:19:12.067,AUTO,-35.3632624,149.165237,28932,0.003961858805269003,0.0011988787446171045,-0.2088053673505783,-0.008917109109461308,-0.00042747112456709146,0.02090088464319706,1,-1,-999,-7,0,20,-1,8,-152,222431.0
05:19:12.269,AUTO,-35.3632624,149.1652372,29320,0.0019705805461853743,0.0013268723851069808,-0.20390261709690094,-0.004968898370862007,0.00042044714791700244,0.020793134346604347,0,-1,-1000,-4,1,20,0,8,-152,222431.0
05:19:12.470,AUTO,-35.3632624,149.1652374,29708,0.00047864753287285566,0.001381492824293673,-0.19890421628952026,-0.005419888999313116,0.001447912072762847,0.020828351378440857,0,-1,-1000,-4,2,20,0,8,-152,222431.0
05:19:12.672,AUTO,-35.3632624,149.1652374,29708,0.00047864753287285566,0.001381492824293673,-0.19890421628952026,-0.005419888999313116,0.001447912072762847,0.020828351378440857,0,-1,-1000,-4,2,20,0,8,-152,222431.0
05:19:12.874,AUTO,-35.3632624,149.1652374,29708,0.00047864753287285566,0.001381492824293673,-0.19890421628952026,-0.005419888999313116,0.001447912072762847,0.020828351378440857,0,-1,-1000,-4,2,20,0,8,-152,222431.0
05:19:13.076,AUTO,-35.3632624,149.1652374,29708,0.00047864753287285566,0.001381492824293673,-0.19890421628952026,-0.005419888999313116,0.001447912072762847,0.020828351378440857,0,-1,-1000,-4,2,20,0,8,-152,222431.0
05:19:13.278,AUTO,-35.3632624,149.1652378,30871,-0.0013221866684034467,0.0017658114666119218,-0.18542592227458954,-0.0004486661055125296,0.0006085694767534733,0.018647048622369766,0,0,-1000,0,1,18,0,5,-152,222431.0
05:19:13.479,AUTO,-35.3632624,149.1652379,31258,-0.0015643533552065492,0.0014650451485067606,-0.18110980093479156,-0.0018379015382379293,-0.0001834205468185246,0.018239304423332214,0,0,-1000,0,0,18,0,4,-152,32553.0
05:19:13.681,AUTO,-35.3632624,149.1652379,31651,-0.0014137144898995757,0.0012795018265023828,-0.17696601152420044,0.0038903565146028996,-0.00019005965441465378,0.016635922715067863,0,0,-1000,4,0,16,0,3,-153,32553.0
05:19:13.883,AUTO,-35.3632624,149.1652379,32039,-0.001197608420625329,0.0010792576940730214,-0.17296981811523438,-0.0005750063573941588,-0.00032314215786755085,0.016934843733906746,0,0,-1000,0,0,16,0,2,-152,32553.0
05:19:14.086,AUTO,-35.3632624,149.1652379,32039,-0.001197608420625329,0.0010792576940730214,-0.17296981811523438,-0.0005750063573941588,-0.00032314215786755085,0.016934843733906746,0,0,-1000,0,0,16,0,2,-152,32553.0
05:19:14.287,AUTO,-35.3632623,149.165238,32427,-0.000893494812771678,0.0010830339742824435,-0.16914960741996765,0.005283390637487173,0.0011154662352055311,0.017238859087228775,0,0,-1000,6,2,17,0,1,-152,32553.0
05:19:14.489,AUTO,-35.3632623,149.165238,32816,-0.0005508976173587143,0.0010520225623622537,-0.16550177335739136,0.003066585399210453,0.0003343724529258907,0.015382361598312855,0,0,-1000,4,1,15,0,1,-153,32553.0
05:19:14.691,AUTO,-35.3632623,149.165238,32816,-0.0005508976173587143,0.0010520225623622537,-0.16550177335739136,0.003066585399210453,0.0003343724529258907,0.015382361598312855,0,0,-1000,4,1,15,0,1,-153,32553.0
05:19:14.892,AUTO,-35.3632623,149.165238,32816,-0.0005508976173587143,0.0010520225623622537,-0.16550177335739136,0.003066585399210453,0.0003343724529258907,0.015382361598312855,0,0,-1000,4,1,15,0,1,-153,32553.0
05:19:15.094,AUTO,-35.3632623,149.165238,32816,-0.0005508976173587143,0.0010520225623622537,-0.16550177335739136,0.003066585399210453,0.0003343724529258907,0.015382361598312855,0,0,-1000,4,1,15,0,1,-153,32553.0
05:19:15.296,AUTO,-35.3632623,149.165238,33981,0.0003544858773238957,0.0013646319275721908,-0.1550973802804947,-0.0028691436164081097,-0.00013533548917621374,0.011821149848401546,0,0,-1000,-1,0,11,0,0,-152,32553.0
05:19:15.498,AUTO,-35.3632623,149.165238,34370,0.0006734044291079044,0.0014326743548735976,-0.15195554494857788,0.002477506874129176,0.0013524675741791725,0.013662274926900864,0,0,-1000,3,2,13,0,0,-153,32553.0
05:19:15.699,AUTO,-35.3632623,149.1652379,34758,0.000899472099263221,0.0015300808008760214,-0.14890187978744507,0.0020609586499631405,0.0016906604869291186,0.01384546235203743,0,0,-1000,3,2,13,0,0,-152,32553.0
05:19:15.901,AUTO,-35.3632622,149.1652379,35146,0.0009123149211518466,0.0014315040316432714,-0.14603561162948608,-0.0003319563693366945,-0.0005381332593970001,0.011447318829596043,0,0,-1000,0,0,11,0,0,-152,32553.0
05:19:16.103,AUTO,-35.3632622,149.1652378,35535,0.0010432816343382,0.00118257908616215,-0.1432410329580307,0.0010457790922373533,-0.0007619858952239156,0.014090768061578274,0,0,-999,1,0,14,0,0,-152,32553.0
05:19:16.308,AUTO,-35.3632622,149.1652378,35535,0.0010432816343382,0.00118257908616215,-0.1432410329580307,0.0010457790922373533,-0.0007619858952239156,0.014090768061578274,0,0,-999,1,0,14,0,0,-152,32553.0
05:19:16.514,AUTO,-35.3632622,149.1652378,35923,0.001044902135618031,0.0009319011587649584,-0.1405348926782608,0.0010158558143302798,-0.00010986090637743473,0.01013548206537962,0,0,-1000,2,0,10,0,0,-152,32553.0
05:19:16.715,AUTO,-35.3632622,149.1652378,35923,0.001044902135618031,0.0009319011587649584,-0.1405348926782608,0.0010158558143302798,-0.00010986090637743473,0.01013548206537962,0,0,-1000,2,0,10,0,0,-152,32553.0
05:19:16.920,AUTO,-35.3632622,149.1652378,35923,0.001044902135618031,0.0009319011587649584,-0.1405348926782608,0.0010158558143302798,-0.00010986090637743473,0.01013548206537962,0,0,-1000,2,0,10,0,0,-152,32553.0
05:19:17.121,AUTO,-35.3632622,149.1652377,37088,0.0021416936069726944,0.0013708792394027114,-0.13256452977657318,0.0038359626196324825,0.004290384240448475,0.009519902989268303,0,0,-1000,5,5,9,0,0,-152,32553.0
05:19:17.323,AUTO,-35.3632622,149.1652377,37088,0.0021416936069726944,0.0013708792394027114,-0.13256452977657318,0.0038359626196324825,0.004290384240448475,0.009519902989268303,0,0,-1000,5,5,9,0,0,-152,32553.0
05:19:17.531,AUTO,-35.3632622,149.1652376,37476,0.0021142151672393084,0.0015266778646036983,-0.13043487071990967,-0.00046252907486632466,0.0015985193895176053,0.010161904618144035,0,0,-999,0,2,9,0,0,-152,194619.0
05:19:17.732,AUTO,-35.3632622,149.1652376,37865,0.0019561732187867165,0.0014484856510534883,-0.12818405032157898,0.004550395533442497,0.0009397851536050439,0.010394861921668053,0,0,-1000,5,2,10,0,0,-152,194619.0
05:19:17.934,AUTO,-35.3632622,149.1652375,38253,0.0017881422536447644,0.0014488011365756392,-0.1259399652481079,-0.0019097900949418545,-0.000396898714825511,0.007731573656201363,0,0,-1000,0,0,7,0,0,-152,194619.0
05:19:18.135,AUTO,-35.3632621,149.1652375,38648,0.0016876878216862679,0.001777501660399139,-0.12365755438804626,-0.0003142746281810105,0.001975122606381774,0.009408634155988693,0,0,-1000,0,2,9,0,0,-152,194619.0
05:19:18.337,AUTO,-35.3632621,149.1652375,38648,0.0016876878216862679,0.001777501660399139,-0.12365755438804626,-0.0003142746281810105,0.001975122606381774,0.009408634155988693,0,0,-1000,0,2,9,0,0,-152,194619.0
05:19:18.539,AUTO,-35.3632621,149.1652375,39036,0.0016671897610649467,0.0018825430888682604,-0.12149006873369217,0.004270357545465231,0.0007984888507053256,0.010011464357376099,0,0,-1000,5,1,9,0,0,-152,194619.0
05:19:18.741,AUTO,-35.3632621,149.1652375,39036,0.0016671897610649467,0.0018825430888682604,-0.12149006873369217,0.004270357545465231,0.0007984888507053256,0.010011464357376099,0,0,-1000,5,1,9,0,0,-152,194619.0
05:19:18.943,AUTO,-35.3632621,149.1652375,39036,0.0016671897610649467,0.0018825430888682604,-0.12149006873369217,0.004270357545465231,0.0007984888507053256,0.010011464357376099,0,0,-1000,5,1,9,0,0,-152,194619.0
05:19:19.145,AUTO,-35.3632621,149.1652374,40192,0.0014137113466858864,0.0016541123623028398,-0.11589743942022324,-0.0027575832791626453,0.0003714108606800437,0.008238007314503193,0,0,-999,-1,1,8,0,0,-152,194619.0
05:19:19.347,AUTO,-35.3632621,149.1652374,40192,0.001523636863566935,0.001777032040990889,-0.11407050490379333,-0.0007957092602737248,0.0016652708873152733,0.008288472890853882,0,0,-999,-1,1,8,0,0,-152,194619.0
05:19:19.549,AUTO,-35.3632621,149.1652374,40581,0.001523636863566935,0.001777032040990889,-0.11407050490379333,-0.0007957092602737248,0.0016652708873152733,0.008288472890853882,0,0,-1000,0,2,8,-1,0,-152,194619.0
05:19:19.750,AUTO,-35.363262,149.1652374,40970,0.0014001851668581367,0.001635589636862278,-0.11209813505411148,-0.0014502063859254122,-0.0006400931160897017,0.008125906810164452,0,0,-1000,0,0,8,-1,0,-152,194619.0
05:19:19.952,AUTO,-35.363262,149.1652374,41358,0.001392201753333211,0.0015942706959322095,-0.11031866818666458,0.0013628018787130713,2.26655974984169e-05,0.007131020538508892,0,0,-1000,2,1,7,-1,0,-152,194619.0
05:19:20.153,AUTO,-35.363262,149.1652374,41746,0.0013682261342182755,0.001710522803477943,-0.10904863476753235,0.0009039462311193347,0.0008537564426660538,0.0063714198768138885,0,0,-1000,2,1,6,-1,1,-152,194619.0
05:19:20.355,AUTO,-35.363262,149.1652374,42135,0.001486080582253635,0.001760505372658372,-0.10723762959241867,-0.0006413392256945372,0.002039802959188819,0.007720233406871557,0,0,-1000,0,3,7,-1,1,-152,194619.0
05:19:20.558,AUTO,-35.363262,149.1652374,42135,0.001486080582253635,0.001760505372658372,-0.10723762959241867,-0.0006413392256945372,0.002039802959188819,0.007720233406871557,0,0,-1000,0,3,7,-1,1,-152,194619.0
05:19:20.760,AUTO,-35.363262,149.1652374,42135,0.001486080582253635,0.001760505372658372,-0.10723762959241867,-0.0006413392256945372,0.002039802959188819,0.007720233406871557,0,0,-1000,0,3,7,-1,1,-152,194619.0
05:19:20.961,AUTO,-35.363262,149.1652374,42135,0.001486080582253635,0.001760505372658372,-0.10723762959241867,-0.0006413392256945372,0.002039802959188819,0.007720233406871557,0,0,-1000,0,3,7,-1,1,-152,194619.0
05:19:21.164,AUTO,-35.3632624,149.1652368,43237,-0.06241506710648537,0.07059518992900848,0.14548195898532867,-0.03231241926550865,-0.06106346473097801,0.44040337204933167,3,4,-943,-31,-60,440,-22,-20,-130,194619.0
05:19:21.365,AUTO,-35.363263,149.165236,43549,-0.04366784915328026,0.032878328114748,0.22591723501682281,0.10146487504243851,-0.21729958057403564,0.22266189754009247,4,6,-942,102,-215,222,-31,-33,-115,200.0
05:19:21.566,AUTO,-35.363263,149.165236,43549,-0.04366784915328026,0.032878328114748,0.22591723501682281,0.10146487504243851,-0.21729958057403564,0.22266189754009247,4,6,-942,102,-215,222,-31,-33,-115,200.0
05:19:21.768,AUTO,-35.3632636,149.165235,43825,-0.014381411485373974,-0.013835660181939602,0.263945996761322,0.11719365417957306,-0.15876273810863495,0.09868568927049637,4,10,-948,118,-157,98,-31,-38,-101,200.0
05:19:21.969,AUTO,-35.3632642,149.165234,44069,0.009926892817020416,-0.04199115186929703,0.2771762013435364,0.07872868329286575,-0.07867567241191864,0.027953311800956726,3,9,-955,79,-77,28,-24,-33,-90,200.0
05:19:22.171,AUTO,-35.3632646,149.1652332,44286,0.02694084867835045,-0.053458672016859055,0.27724695205688477,0.06110301613807678,-0.023718219250440598,-0.009779883548617363,1,8,-961,62,-22,-9,-14,-24,-79,200.0
05:19:22.373,AUTO,-35.3632648,149.1652326,44477,0.03713022544980049,-0.05405618995428085,0.2713802754878998,0.033007849007844925,0.011873994022607803,-0.026729444041848183,0,4,-967,34,13,-26,-3,-12,-70,200.0
05:19:22.575,AUTO,-35.3632648,149.1652326,44477,0.03713022544980049,-0.05405618995428085,0.2713802754878998,0.033007849007844925,0.011873994022607803,-0.026729444041848183,0,4,-967,34,13,-26,-3,-12,-70,200.0
05:19:22.777,AUTO,-35.3632648,149.1652326,44477,0.03713022544980049,-0.05405618995428085,0.2713802754878998,0.033007849007844925,0.011873994022607803,-0.026729444041848183,0,4,-967,34,13,-26,-3,-12,-70,200.0
05:19:22.980,AUTO,-35.3632648,149.1652326,44477,0.03713022544980049,-0.05405618995428085,0.2713802754878998,0.033007849007844925,0.011873994022607803,-0.026729444041848183,0,4,-967,34,13,-26,-3,-12,-70,200.0
05:19:23.182,AUTO,-35.3632644,149.1652327,44927,0.03392217680811882,-0.02584897354245186,0.2452971637248993,-0.08695279806852341,0.042635541409254074,-0.03303201496601105,-2,-10,-977,-86,43,-32,17,19,-49,200.0
05:19:23.383,AUTO,-35.3632639,149.1652333,45045,0.025198081508278847,-0.015208926983177662,0.23707053065299988,-0.08701391518115997,0.04023205488920212,-0.030736509710550308,-2,-4,-980,-85,41,-30,20,25,-44,200.0
05:19:23.585,AUTO,-35.3632639,149.1652333,45045,0.025198081508278847,-0.015208926983177662,0.23707053065299988,-0.08701391518115997,0.04023205488920212,-0.030736509710550308,-2,-4,-980,-85,41,-30,20,25,-44,200.0
05:19:23.787,AUTO,-35.3632634,149.1652339,45148,0.02786964550614357,-0.005897304974496365,0.22935444116592407,0.4732246994972229,0.03388737887144089,-0.028737500309944153,-2,9,-977,474,35,-28,21,29,-38,200.0
05:19:23.988,AUTO,-35.3632629,149.1652347,45234,0.018175773322582245,0.0022494401782751083,0.2218567281961441,-0.14108365774154663,0.03147007152438164,-0.03050154633820057,-2,-27,-974,-140,32,-30,20,30,-31,200.0
05:19:24.191,AUTO,-35.3632624,149.1652355,45307,0.0001979809021577239,0.008623183704912663,0.2148422747850418,-0.5602670311927795,0.0241708904504776,-0.02107352949678898,-2,-25,-986,-559,25,-20,19,31,-27,200.0
05:19:24.392,AUTO,-35.363262,149.1652363,45367,-0.0007272090879268944,0.01325095072388649,0.20833280682563782,0.15443269908428192,0.011808108538389206,-0.0194713082164526,-1,15,-982,156,12,-19,16,29,-22,200.0
05:19:24.594,AUTO,-35.363262,149.1652363,45367,-0.0007272090879268944,0.01325095072388649,0.20833280682563782,0.15443269908428192,0.011808108538389206,-0.0194713082164526,-1,15,-982,156,12,-19,16,29,-22,200.0
05:19:24.796,AUTO,-35.363262,149.1652363,45367,-0.0007272090879268944,0.01325095072388649,0.20833280682563782,0.15443269908428192,0.011808108538389206,-0.0194713082164526,-1,15,-982,156,12,-19,16,29,-22,200.0
05:19:25.001,AUTO,-35.363262,149.1652363,45367,-0.0007272090879268944,0.01325095072388649,0.20833280682563782,0.15443269908428192,0.011808108538389206,-0.0194713082164526,-1,15,-982,156,12,-19,16,29,-22,200.0
05:19:25.203,AUTO,-35.3632611,149.1652382,45449,-0.008288989774882793,0.01646839641034603,0.1921902298927307,-0.5062453150749207,0.0018430969212204218,-0.014400964602828026,0,-42,-968,-506,3,-13,7,17,-1,200.0
05:19:25.405,AUTO,-35.363261,149.1652385,45431,-0.042897872626781464,0.04284465312957764,0.1920173615217209,-0.7632514238357544,0.017659451812505722,-0.03299976885318756,0,-25,-957,-761,18,-32,1,10,13,59535.0
05:19:25.607,AUTO,-35.3632609,149.1652387,45386,-0.025102797895669937,0.024992685765028,0.185514897108078,-0.04421091079711914,-0.10219702124595642,-0.04017917066812515,1,16,-1000,-42,-101,-39,-5,2,17,59535.0
05:19:25.810,AUTO,-35.3632609,149.1652387,45386,-0.025102797895669937,0.024992685765028,0.185514897108078,-0.04421091079711914,-0.10219702124595642,-0.04017917066812515,1,16,-1000,-42,-101,-39,-5,2,17,59535.0
05:19:26.011,AUTO,-35.363261,149.1652386,45342,0.008102890104055405,-0.001097106491215527,0.17985306680202484,0.6130052804946899,-0.08796124160289764,-0.026625361293554306,1,38,-1027,615,-86,-26,-7,1,14,59535.0
05:19:26.213,AUTO,-35.3632612,149.1652387,45302,0.03544931858778,-0.0190085731446743,0.17419849336147308,0.8770061135292053,-0.06053416058421135,-0.017986906692385674,2,34,-1024,878,-59,-17,-5,5,13,59535.0
05:19:26.415,AUTO,-35.3632612,149.1652389,45269,0.0509994775056839,-0.031036099418997765,0.16924706101417542,0.3138636350631714,-0.04885328933596611,-0.015368626452982426,2,-10,-1003,314,-47,-15,0,13,9,59535.0
05:19:26.617,AUTO,-35.3632612,149.1652389,45269,0.0509994775056839,-0.031036099418997765,0.16924706101417542,0.3138636350631714,-0.04885328933596611,-0.015368626452982426,2,-10,-1003,314,-47,-15,0,13,9,59535.0
05:19:26.818,AUTO,-35.3632612,149.1652389,45269,0.0509994775056839,-0.031036099418997765,0.16924706101417542,0.3138636350631714,-0.04885328933596611,-0.015368626452982426,2,-10,-1003,314,-47,-15,0,13,9,59535.0
05:19:27.020,AUTO,-35.3632612,149.1652389,45269,0.0509994775056839,-0.031036099418997765,0.16924706101417542,0.3138636350631714,-0.04885328933596611,-0.015368626452982426,2,-10,-1003,314,-47,-15,0,13,9,59535.0
05:19:27.222,AUTO,-35.3632606,149.1652419,45193,0.07454738765954971,-0.05664985626935959,0.21471454203128815,0.1950388252735138,-0.009737314656376839,0.467166930437088,0,9,-994,197,-8,467,25,58,8,59535.0
05:19:27.424,AUTO,-35.36326,149.1652438,45164,0.07889580726623535,-0.07596328854560852,0.39246463775634766,0.7345201373100281,-0.003164764028042555,0.8201999068260193,-5,19,-998,736,-2,820,35,76,10,59535.0
05:19:27.626,AUTO,-35.3632592,149.1652462,45130,0.0727042481303215,-0.09652812033891678,0.6038987040519714,0.45964449644088745,-0.013906842097640038,0.8469315767288208,-8,-16,-1001,459,-12,847,47,95,12,59535.0
05:19:27.827,AUTO,-35.3632592,149.1652462,45130,0.0727042481303215,-0.09652812033891678,0.6038987040519714,0.45964449644088745,-0.013906842097640038,0.8469315767288208,-8,-16,-1001,459,-12,847,47,95,12,59535.0
05:19:28.029,AUTO,-35.3632581,149.1652492,45091,0.04998820275068283,-0.11448708176612854,0.810740053653717,-0.267759770154953,-0.03364035487174988,0.8177857398986816,-17,-60,-977,-267,-32,817,59,115,15,59535.0
05:19:28.231,AUTO,-35.3632567,149.1652528,45044,0.02518174797296524,-0.13205017149448395,1.0051954984664917,-0.7365151643753052,-0.057155538350343704,0.7621398568153381,-27,-59,-1000,-735,-56,762,70,138,17,59535.0
05:19:28.433,AUTO,-35.3632551,149.1652571,44987,0.002591723809018731,-0.14846137166023254,1.19044828414917,-0.3737908601760864,-0.06267955154180527,0.7016080021858215,-37,-33,-997,-372,-61,701,81,161,21,59535.0
05:19:28.635,AUTO,-35.3632551,149.1652571,44987,0.002591723809018731,-0.14846137166023254,1.19044828414917,-0.3737908601760864,-0.06267955154180527,0.7016080021858215,-37,-33,-997,-372,-61,701,81,161,21,59535.0
05:19:28.838,AUTO,-35.3632551,149.1652571,44987,0.002591723809018731,-0.14846137166023254,1.19044828414917,-0.3737908601760864,-0.06267955154180527,0.7016080021858215,-37,-33,-997,-372,-61,701,81,161,21,59535.0
05:19:29.040,AUTO,-35.3632551,149.1652571,44987,0.002591723809018731,-0.14846137166023254,1.19044828414917,-0.3737908601760864,-0.06267955154180527,0.7016080021858215,-37,-33,-997,-372,-61,701,81,161,21,59535.0
05:19:29.242,AUTO,-35.3632486,149.165274,44763,-0.006506364326924086,-0.18480545282363892,1.3730862140655518,0.005465279798954725,-0.04172569885849953,-0.05187910422682762,-63,-46,-986,5,-40,-51,120,241,32,59535.0
05:19:29.445,AUTO,-35.3632459,149.1652812,44668,-0.005737344268709421,-0.1908056139945984,1.3450138568878174,-0.5533363223075867,-0.005973954685032368,-0.10380209237337112,-68,-60,-997,-552,-5,-103,134,269,36,300000.0
05:19:29.647,AUTO,-35.3632428,149.1652892,44564,0.0006035705446265638,-0.18919937312602997,1.3144893646240234,-0.19755543768405914,0.008171540684998035,-0.1347685158252716,-66,-23,-995,-195,9,-134,146,297,40,300000.0
05:19:29.849,AUTO,-35.3632394,149.165298,44452,0.01720830425620079,-0.1861737221479416,1.2908533811569214,0.5600041747093201,0.002970391418784857,-0.1130395382642746,-78,-9,-990,561,4,-112,158,323,42,300000.0
05:19:30.051,AUTO,-35.3632394,149.165298,44452,0.01720830425620079,-0.1861737221479416,1.2908533811569214,0.5600041747093201,0.002970391418784857,-0.1130395382642746,-78,-9,-990,561,4,-112,158,323,42,300000.0
05:19:30.253,AUTO,-35.3632358,149.1653075,44332,0.027026014402508736,-0.1900903284549713,1.2762938737869263,0.17062148451805115,-0.020741118118166924,-0.01975243352353573,-84,-47,-983,170,-19,-19,171,347,46,300000.0
05:19:30.455,AUTO,-35.3632318,149.1653176,44204,0.02393968589603901,-0.19637148082256317,1.2680102586746216,-0.516251266002655,-0.031202198937535286,0.005757340230047703,-87,-73,-987,-515,-30,6,182,371,49,300000.0
05:19:30.657,AUTO,-35.3632318,149.1653176,44204,0.02393968589603901,-0.19637148082256317,1.2680102586746216,-0.516251266002655,-0.031202198937535286,0.005757340230047703,-87,-73,-987,-515,-30,6,182,371,49,300000.0
