time_stamp,MODE,lat,lon,relative_alt,roll,pitch,yaw,rollspeed,pitchspeed,yawspeed,xacc,yacc,zacc,xgyro,ygyro,zgyro,vx,vy,vz,RTL_ALT
17:31:49.734,STABILIZE,-35.3632622,149.1652375,14,0.00011368835112079978,0.0013651666231453419,0.026705389842391014,0.0002209283411502838,0.00030288248672150075,0.0021546087227761745,0,1,-1000,0,0,0,-2,2,0,1500.0
17:31:49.937,STABILIZE,-35.3632622,149.1652375,14,0.00011368835112079978,0.0013651666231453419,0.026705389842391014,0.0002209283411502838,0.00030288248672150075,0.0021546087227761745,0,1,-1000,0,0,0,-2,2,0,1500.0
17:31:50.139,STABILIZE,-35.3632622,149.1652375,14,0.00011368835112079978,0.0013651666231453419,0.026705389842391014,0.0002209283411502838,0.00030288248672150075,0.0021546087227761745,0,1,-1000,0,0,0,-2,2,0,1500.0
17:31:50.343,STABILIZE,-35.3632622,149.1652375,14,0.00011368835112079978,0.0013651666231453419,0.026705389842391014,0.0002209283411502838,0.00030288248672150075,0.0021546087227761745,0,1,-1000,0,0,0,-2,2,0,1500.0
17:31:50.546,STABILIZE,-35.3632622,149.1652375,14,0.00011368835112079978,0.0013651666231453419,0.026705389842391014,0.0002209283411502838,0.00030288248672150075,0.0021546087227761745,0,1,-1000,0,0,0,-2,2,0,1500.0
17:31:50.749,STABILIZE,-35.3632622,149.1652375,14,0.00011368835112079978,0.0013651666231453419,0.026705389842391014,0.0002209283411502838,0.00030288248672150075,0.0021546087227761745,0,1,-1000,0,0,0,-2,2,0,1500.0
17:31:50.952,STABILIZE,-35.3632622,149.1652375,14,0.00011368835112079978,0.0013651666231453419,0.026705389842391014,0.0002209283411502838,0.00030288248672150075,0.0021546087227761745,0,1,-1000,0,0,0,-2,2,0,1500.0
17:31:51.154,STABILIZE,-35.3632622,149.1652375,14,0.00011368835112079978,0.0013651666231453419,0.026705389842391014,0.0002209283411502838,0.00030288248672150075,0.0021546087227761745,0,1,-1000,0,0,0,-2,2,0,1500.0
17:31:51.368,AUTO,-35.3632622,149.1652375,1,-0.0005965728778392076,0.0010391765972599387,0.02557910978794098,0.00022021739277988672,0.0002859989181160927,0.0021583870984613895,0,2,-1000,0,0,0,-1,1,0,1500.0
17:31:51.570,AUTO,-35.3632622,149.1652375,1,-0.0006516845314763486,0.0010166059946641326,0.02552148327231407,0.0003526819637045264,0.00029906813870184124,0.0020142821595072746,0,1,-1000,0,0,0,-1,1,0,1500.0
17:31:51.782,AUTO,-35.3632622,149.1652375,1,-0.0006516845314763486,0.0010166059946641326,0.02552148327231407,0.0003526819637045264,0.00029906813870184124,0.0020142821595072746,0,1,-1000,0,0,0,-1,1,0,1500.0
17:31:51.989,AUTO,-35.3632622,149.1652375,1,-0.0006516845314763486,0.0010166059946641326,0.02552148327231407,0.0003526819637045264,0.00029906813870184124,0.0020142821595072746,0,1,-1000,0,0,0,-1,1,0,1500.0
17:31:52.191,AUTO,-35.3632622,149.1652375,1,-0.0006516845314763486,0.0010166059946641326,0.02552148327231407,0.0003526819637045264,0.00029906813870184124,0.0020142821595072746,0,1,-1000,0,0,0,-1,1,0,1500.0
17:31:52.393,AUTO,-35.3632622,149.1652375,1,-0.0006516845314763486,0.0010166059946641326,0.02552148327231407,0.0003526819637045264,0.00029906813870184124,0.0020142821595072746,0,1,-1000,0,0,0,-1,1,0,1500.0
17:31:52.598,AUTO,-35.3632622,149.1652375,1,-0.0006516845314763486,0.0010166059946641326,0.02552148327231407,0.0003526819637045264,0.00029906813870184124,0.0020142821595072746,0,1,-1000,0,0,0,-1,1,0,1500.0
17:31:52.800,AUTO,-35.3632622,149.1652375,1,-0.0006516845314763486,0.0010166059946641326,0.02552148327231407,0.0003526819637045264,0.00029906813870184124,0.0020142821595072746,0,1,-1000,0,0,0,-1,1,0,1500.0
17:31:53.004,AUTO,-35.3632622,149.1652375,1,-0.0006516845314763486,0.0010166059946641326,0.02552148327231407,0.0003526819637045264,0.00029906813870184124,0.0020142821595072746,0,1,-1000,0,0,0,-1,1,0,1500.0
17:31:53.207,AUTO,-35.3632622,149.1652375,1,-0.0006516845314763486,0.0010166059946641326,0.02552148327231407,0.0003526819637045264,0.00029906813870184124,0.0020142821595072746,0,1,-1000,0,0,0,-1,1,0,1500.0
17:31:53.408,AUTO,-35.3632622,149.1652375,1,-0.0005387440323829651,0.001173302880488336,0.02478979341685772,0.00025877932785078883,0.0003269046719651669,0.0019016406731680036,0,1,-1000,0,0,0,0,0,0,1500.0
17:31:53.609,AUTO,-35.3632622,149.1652375,1,-0.0005013275658711791,0.0012402050197124481,0.0246705561876297,0.00021161575568839908,0.0002511817729100585,0.0019384566694498062,0,1,-1000,0,0,0,0,0,0,1500.0
17:31:53.811,AUTO,-35.3632622,149.1652375,1,-0.0005013275658711791,0.0012402050197124481,0.0246705561876297,0.00021161575568839908,0.0002511817729100585,0.0019384566694498062,0,1,-1000,0,0,0,0,0,0,1500.0
17:31:54.014,AUTO,-35.3632622,149.1652375,1,-0.0005013275658711791,0.0012402050197124481,0.0246705561876297,0.00021161575568839908,0.0002511817729100585,0.0019384566694498062,0,1,-1000,0,0,0,0,0,0,1500.0
17:31:54.215,AUTO,-35.3632622,149.1652375,1,-0.0005013275658711791,0.0012402050197124481,0.0246705561876297,0.00021161575568839908,0.0002511817729100585,0.0019384566694498062,0,1,-1000,0,0,0,0,0,0,1500.0
17:31:54.417,AUTO,-35.3632622,149.1652375,1,-0.0005013275658711791,0.0012402050197124481,0.0246705561876297,0.00021161575568839908,0.0002511817729100585,0.0019384566694498062,0,1,-1000,0,0,0,0,0,0,1500.0
17:31:54.620,AUTO,-35.3632622,149.1652375,1,-0.0005013275658711791,0.0012402050197124481,0.0246705561876297,0.00021161575568839908,0.0002511817729100585,0.0019384566694498062,0,1,-1000,0,0,0,0,0,0,1500.0
17:31:54.823,AUTO,-35.3632622,149.1652375,1,-0.0005013275658711791,0.0012402050197124481,0.0246705561876297,0.00021161575568839908,0.0002511817729100585,0.0019384566694498062,0,1,-1000,0,0,0,0,0,0,1500.0
17:31:55.026,AUTO,-35.3632622,149.1652375,1,-0.0005013275658711791,0.0012402050197124481,0.0246705561876297,0.00021161575568839908,0.0002511817729100585,0.0019384566694498062,0,1,-1000,0,0,0,0,0,0,1500.0
17:31:55.227,AUTO,-35.3632622,149.1652374,1,-0.00036565374466590583,0.0014291104162111878,0.02433737739920616,0.00027510878862813115,0.00027234834851697087,0.0018150574760511518,0,2,-1000,0,0,0,0,0,0,1500.0
17:31:55.429,AUTO,-35.3632622,149.1652374,32,0.003177525009959936,-0.00038590209442190826,0.024022461846470833,0.0034579026978462934,-0.005210829898715019,0.005003902595490217,0,2,-1001,1,0,0,0,0,-28,1500.0
17:31:55.631,AUTO,-35.3632622,149.1652374,32,0.003177525009959936,-0.00038590209442190826,0.024022461846470833,0.0034579026978462934,-0.005210829898715019,0.005003902595490217,0,0,-1139,4,-4,3,0,0,-28,1500.0
17:31:55.832,AUTO,-35.3632622,149.1652374,32,0.003177525009959936,-0.00038590209442190826,0.024022461846470833,0.0034579026978462934,-0.005210829898715019,0.005003902595490217,0,0,-1139,4,-4,3,0,0,-28,1500.0
17:31:56.034,AUTO,-35.3632622,149.1652374,32,0.003177525009959936,-0.00038590209442190826,0.024022461846470833,0.0034579026978462934,-0.005210829898715019,0.005003902595490217,0,0,-1139,4,-4,3,0,0,-28,1500.0
17:31:56.235,AUTO,-35.3632622,149.1652374,32,0.003177525009959936,-0.00038590209442190826,0.024022461846470833,0.0034579026978462934,-0.005210829898715019,0.005003902595490217,0,0,-1139,4,-4,3,0,0,-28,1500.0
17:31:56.437,AUTO,-35.3632622,149.1652374,32,0.003177525009959936,-0.00038590209442190826,0.024022461846470833,0.0034579026978462934,-0.005210829898715019,0.005003902595490217,0,0,-1139,4,-4,3,0,0,-28,1500.0
17:31:56.640,AUTO,-35.3632622,149.1652374,32,0.003177525009959936,-0.00038590209442190826,0.024022461846470833,0.0034579026978462934,-0.005210829898715019,0.005003902595490217,0,0,-1139,4,-4,3,0,0,-28,1500.0
17:31:56.842,AUTO,-35.3632622,149.1652374,32,0.003177525009959936,-0.00038590209442190826,0.024022461846470833,0.0034579026978462934,-0.005210829898715019,0.005003902595490217,0,0,-1139,4,-4,3,0,0,-28,1500.0
17:31:57.044,AUTO,-35.3632622,149.1652374,32,0.003177525009959936,-0.00038590209442190826,0.024022461846470833,0.0034579026978462934,-0.005210829898715019,0.005003902595490217,0,0,-1139,4,-4,3,0,0,-28,1500.0
17:31:57.245,AUTO,-35.3632621,149.1652375,603,0.0014099726686254144,0.0014103895518928766,0.023894120007753372,-0.007741824723780155,0.002622306579723954,0.0015308079309761524,0,0,-1139,4,-4,3,0,0,-117,1500.0
17:31:57.448,AUTO,-35.3632618,149.1652386,2431,0.052288830280303955,-0.0071481093764305115,0.02384655550122261,0.0403163768351078,-0.010911130346357822,0.00392495933920145,0,-4,-1000,40,-10,2,4,27,-148,1500.0
17:31:57.649,AUTO,-35.3632618,149.1652386,2431,0.052288830280303955,-0.0071481093764305115,0.02384655550122261,0.0403163768351078,-0.010911130346357822,0.00392495933920145,0,-4,-1000,40,-10,2,4,27,-148,1500.0
17:31:57.851,AUTO,-35.3632618,149.1652386,2431,0.052288830280303955,-0.0071481093764305115,0.02384655550122261,0.0403163768351078,-0.010911130346357822,0.00392495933920145,0,-4,-1000,40,-10,2,4,27,-148,1500.0
17:31:58.055,AUTO,-35.3632618,149.1652386,2431,0.052288830280303955,-0.0071481093764305115,0.02384655550122261,0.0403163768351078,-0.010911130346357822,0.00392495933920145,0,-4,-1000,40,-10,2,4,27,-148,1500.0
17:31:58.257,AUTO,-35.3632618,149.1652386,2431,0.052288830280303955,-0.0071481093764305115,0.02384655550122261,0.0403163768351078,-0.010911130346357822,0.00392495933920145,0,-4,-1000,40,-10,2,4,27,-148,1500.0
17:31:58.458,AUTO,-35.3632618,149.1652386,2431,0.052288830280303955,-0.0071481093764305115,0.02384655550122261,0.0403163768351078,-0.010911130346357822,0.00392495933920145,0,-4,-1000,40,-10,2,4,27,-148,1500.0
17:31:58.661,AUTO,-35.3632618,149.1652386,2431,0.052288830280303955,-0.0071481093764305115,0.02384655550122261,0.0403163768351078,-0.010911130346357822,0.00392495933920145,0,-4,-1000,40,-10,2,4,27,-148,1500.0
17:31:58.866,AUTO,-35.3632618,149.1652386,2431,0.052288830280303955,-0.0071481093764305115,0.02384655550122261,0.0403163768351078,-0.010911130346357822,0.00392495933920145,0,-4,-1000,40,-10,2,4,27,-148,1500.0
17:31:59.072,AUTO,-35.3632618,149.1652386,2431,0.052288830280303955,-0.0071481093764305115,0.02384655550122261,0.0403163768351078,-0.010911130346357822,0.00392495933920145,0,-4,-1000,40,-10,2,4,27,-148,1500.0
17:31:59.273,AUTO,-35.363261,149.1652442,4173,-0.03106416016817093,0.024482587352395058,-0.07532533258199692,-0.04225523769855499,0.00010887693497352302,-0.0712820515036583,4,-11,-1010,-41,0,-72,0,43,-148,1500.0
17:31:59.475,AUTO,-35.3632611,149.1652462,5329,-0.07376506924629211,-0.009203780442476273,-0.08305326104164124,-0.04534216970205307,-0.051925886422395706,0.011758713982999325,2,-1,-1003,-44,-51,10,-6,1,-149,1500.0
17:31:59.676,AUTO,-35.3632611,149.1652462,5329,-0.07376506924629211,-0.009203780442476273,-0.08305326104164124,-0.04534216970205307,-0.051925886422395706,0.011758713982999325,2,-1,-1003,-44,-51,10,-6,1,-149,1500.0
17:31:59.877,AUTO,-35.3632611,149.1652462,5329,-0.07376506924629211,-0.009203780442476273,-0.08305326104164124,-0.04534216970205307,-0.051925886422395706,0.011758713982999325,2,-1,-1003,-44,-51,10,-6,1,-149,1500.0
17:32:00.079,AUTO,-35.3632611,149.1652462,5329,-0.07376506924629211,-0.009203780442476273,-0.08305326104164124,-0.04534216970205307,-0.051925886422395706,0.011758713982999325,2,-1,-1003,-44,-51,10,-6,1,-149,1500.0
17:32:00.281,AUTO,-35.3632611,149.1652462,5329,-0.07376506924629211,-0.009203780442476273,-0.08305326104164124,-0.04534216970205307,-0.051925886422395706,0.011758713982999325,2,-1,-1003,-44,-51,10,-6,1,-149,1500.0
17:32:00.484,AUTO,-35.3632611,149.1652462,5329,-0.07376506924629211,-0.009203780442476273,-0.08305326104164124,-0.04534216970205307,-0.051925886422395706,0.011758713982999325,2,-1,-1003,-44,-51,10,-6,1,-149,1500.0
17:32:00.688,AUTO,-35.3632611,149.1652462,5329,-0.07376506924629211,-0.009203780442476273,-0.08305326104164124,-0.04534216970205307,-0.051925886422395706,0.011758713982999325,2,-1,-1003,-44,-51,10,-6,1,-149,1500.0
17:32:00.889,AUTO,-35.3632611,149.1652462,5329,-0.07376506924629211,-0.009203780442476273,-0.08305326104164124,-0.04534216970205307,-0.051925886422395706,0.011758713982999325,2,-1,-1003,-44,-51,10,-6,1,-149,1500.0
17:32:01.092,AUTO,-35.3632613,149.1652413,7255,-0.016839196905493736,-0.0072447871789336205,-0.08537058532238007,0.06350863724946976,0.013530753552913666,0.003348970552906394,-6,11,-1001,63,10,1,0,-58,-150,1500.0
17:32:01.294,AUTO,-35.3632613,149.165238,8031,0.01573241502046585,0.00035798409953713417,-0.08392588049173355,0.06530343741178513,0.015592304058372974,0.004468119703233242,-8,12,-1004,65,16,3,0,-54,-152,1500.0
17:32:01.495,AUTO,-35.3632613,149.1652366,8424,0.03183472156524658,0.0039590708911418915,-0.08283551037311554,0.0640472024679184,0.01356825977563858,0.004761991091072559,-6,8,-1003,64,14,3,-1,-46,-152,1500.0
17:32:01.696,AUTO,-35.3632613,149.1652366,8424,0.03183472156524658,0.0039590708911418915,-0.08283551037311554,0.0640472024679184,0.01356825977563858,0.004761991091072559,-6,8,-1003,64,14,3,-1,-46,-152,1500.0
17:32:01.901,AUTO,-35.3632613,149.1652366,8424,0.03183472156524658,0.0039590708911418915,-0.08283551037311554,0.0640472024679184,0.01356825977563858,0.004761991091072559,-6,8,-1003,64,14,3,-1,-46,-152,1500.0
17:32:02.102,AUTO,-35.3632613,149.1652366,8424,0.03183472156524658,0.0039590708911418915,-0.08283551037311554,0.0640472024679184,0.01356825977563858,0.004761991091072559,-6,8,-1003,64,14,3,-1,-46,-152,1500.0
17:32:02.304,AUTO,-35.3632613,149.1652366,8424,0.03183472156524658,0.0039590708911418915,-0.08283551037311554,0.0640472024679184,0.01356825977563858,0.004761991091072559,-6,8,-1003,64,14,3,-1,-46,-152,1500.0
17:32:02.514,AUTO,-35.3632613,149.1652366,8424,0.03183472156524658,0.0039590708911418915,-0.08283551037311554,0.0640472024679184,0.01356825977563858,0.004761991091072559,-6,8,-1003,64,14,3,-1,-46,-152,1500.0
17:32:02.719,AUTO,-35.3632613,149.1652366,8424,0.03183472156524658,0.0039590708911418915,-0.08283551037311554,0.0640472024679184,0.01356825977563858,0.004761991091072559,-6,8,-1003,64,14,3,-1,-46,-152,1500.0
17:32:02.920,AUTO,-35.3632613,149.1652366,8424,0.03183472156524658,0.0039590708911418915,-0.08283551037311554,0.0640472024679184,0.01356825977563858,0.004761991091072559,-6,8,-1003,64,14,3,-1,-46,-152,1500.0
17:32:03.122,AUTO,-35.3632615,149.1652341,9605,0.0640815943479538,0.017902251332998276,-0.0874127745628357,-0.021800750866532326,0.027460087090730667,-0.0207666102796793,-1,3,-994,-21,27,-21,-6,-4,-152,1500.0
17:32:03.324,AUTO,-35.3632623,149.1652353,11155,-0.0016210201429203153,-0.0031947456300258636,-0.08723518252372742,-0.047439541667699814,-0.016881335526704788,-0.0020301362965255976,4,-3,-1002,-46,-16,-2,-8,20,-150,1500.0
17:32:03.525,AUTO,-35.3632625,149.1652358,11541,-0.009790519252419472,-0.0060786353424191475,-0.0893581211566925,-0.024171510711312294,-0.008395399898290634,-0.009506640024483204,3,-2,-1002,-23,-8,-10,-5,17,-150,1500.0
17:32:03.728,AUTO,-35.3632625,149.1652358,11541,-0.009790519252419472,-0.0060786353424191475,-0.0893581211566925,-0.024171510711312294,-0.008395399898290634,-0.009506640024483204,3,-2,-1002,-23,-8,-10,-5,17,-150,1500.0
17:32:03.934,AUTO,-35.3632625,149.1652358,11541,-0.009790519252419472,-0.0060786353424191475,-0.0893581211566925,-0.024171510711312294,-0.008395399898290634,-0.009506640024483204,3,-2,-1002,-23,-8,-10,-5,17,-150,1500.0
17:32:04.136,AUTO,-35.3632625,149.1652358,11541,-0.009790519252419472,-0.0060786353424191475,-0.0893581211566925,-0.024171510711312294,-0.008395399898290634,-0.009506640024483204,3,-2,-1002,-23,-8,-10,-5,17,-150,1500.0
17:32:04.337,AUTO,-35.3632625,149.1652358,11541,-0.009790519252419472,-0.0060786353424191475,-0.0893581211566925,-0.024171510711312294,-0.008395399898290634,-0.009506640024483204,3,-2,-1002,-23,-8,-10,-5,17,-150,1500.0
17:32:04.540,AUTO,-35.3632625,149.1652358,11541,-0.009790519252419472,-0.0060786353424191475,-0.0893581211566925,-0.024171510711312294,-0.008395399898290634,-0.009506640024483204,3,-2,-1002,-23,-8,-10,-5,17,-150,1500.0
17:32:04.746,AUTO,-35.3632625,149.1652358,11541,-0.009790519252419472,-0.0060786353424191475,-0.0893581211566925,-0.024171510711312294,-0.008395399898290634,-0.009506640024483204,3,-2,-1002,-23,-8,-10,-5,17,-150,1500.0
17:32:04.948,AUTO,-35.3632625,149.1652358,11541,-0.009790519252419472,-0.0060786353424191475,-0.0893581211566925,-0.024171510711312294,-0.008395399898290634,-0.009506640024483204,3,-2,-1002,-23,-8,-10,-5,17,-150,1500.0
17:32:05.149,AUTO,-35.3632625,149.1652358,11541,-0.009790519252419472,-0.0060786353424191475,-0.0893581211566925,-0.024171510711312294,-0.008395399898290634,-0.009506640024483204,3,-2,-1002,-23,-8,-10,-5,17,-150,1500.0
17:32:05.350,AUTO,-35.3632623,149.1652362,14274,0.0017630476504564285,0.00027049455093219876,-0.13041554391384125,0.011442193761467934,0.009161663241684437,-0.02334182895720005,-2,0,-999,11,9,-24,4,-5,-152,1500.0
17:32:05.552,AUTO,-35.3632622,149.165236,14665,0.004502089228481054,0.002290526172146201,-0.13618062436580658,0.010547960177063942,0.007247395813465118,-0.020974012091755867,-2,0,-1000,11,7,-22,4,-5,-152,1500.0
17:32:05.753,AUTO,-35.3632622,149.165236,14665,0.004502089228481054,0.002290526172146201,-0.13618062436580658,0.010547960177063942,0.007247395813465118,-0.020974012091755867,-2,0,-1000,11,7,-22,4,-5,-152,1500.0
17:32:05.954,AUTO,-35.3632622,149.165236,14665,0.004502089228481054,0.002290526172146201,-0.13618062436580658,0.010547960177063942,0.007247395813465118,-0.020974012091755867,-2,0,-1000,11,7,-22,4,-5,-152,1500.0
17:32:06.156,AUTO,-35.3632622,149.165236,14665,0.004502089228481054,0.002290526172146201,-0.13618062436580658,0.010547960177063942,0.007247395813465118,-0.020974012091755867,-2,0,-1000,11,7,-22,4,-5,-152,1500.0
17:32:06.358,AUTO,-35.3632622,149.165236,14665,0.004502089228481054,0.002290526172146201,-0.13618062436580658,0.010547960177063942,0.007247395813465118,-0.020974012091755867,-2,0,-1000,11,7,-22,4,-5,-152,1500.0
17:32:06.562,AUTO,-35.3632622,149.165236,14665,0.004502089228481054,0.002290526172146201,-0.13618062436580658,0.010547960177063942,0.007247395813465118,-0.020974012091755867,-2,0,-1000,11,7,-22,4,-5,-152,1500.0
17:32:06.763,AUTO,-35.3632622,149.165236,14665,0.004502089228481054,0.002290526172146201,-0.13618062436580658,0.010547960177063942,0.007247395813465118,-0.020974012091755867,-2,0,-1000,11,7,-22,4,-5,-152,1500.0
17:32:06.964,AUTO,-35.3632622,149.165236,14665,0.004502089228481054,0.002290526172146201,-0.13618062436580658,0.010547960177063942,0.007247395813465118,-0.020974012091755867,-2,0,-1000,11,7,-22,4,-5,-152,1500.0
17:32:07.165,AUTO,-35.3632622,149.165236,14665,0.004502089228481054,0.002290526172146201,-0.13618062436580658,0.010547960177063942,0.007247395813465118,-0.020974012091755867,-2,0,-1000,11,7,-22,4,-5,-152,1500.0
17:32:07.370,AUTO,-35.3632616,149.1652355,17403,0.007580289151519537,0.006387218367308378,-0.1650858223438263,-0.004316318314522505,-0.0007232496282085776,-0.012843413278460503,0,0,-1000,-3,0,-13,-1,4,-152,1500.0
17:32:07.572,AUTO,-35.3632616,149.1652355,17794,0.006487273145467043,0.005905447527766228,-0.16834832727909088,-0.00527531560510397,-0.0018908220808953047,-0.013219944201409817,0,0,-999,-4,-1,-14,-1,5,-152,1500.0
17:32:07.773,AUTO,-35.3632616,149.1652355,17794,0.006487273145467043,0.005905447527766228,-0.16834832727909088,-0.00527531560510397,-0.0018908220808953047,-0.013219944201409817,0,0,-999,-4,-1,-14,-1,5,-152,1500.0
17:32:07.974,AUTO,-35.3632616,149.1652355,17794,0.006487273145467043,0.005905447527766228,-0.16834832727909088,-0.00527531560510397,-0.0018908220808953047,-0.013219944201409817,0,0,-999,-4,-1,-14,-1,5,-152,1500.0
17:32:08.178,AUTO,-35.3632616,149.1652355,17794,0.006487273145467043,0.005905447527766228,-0.16834832727909088,-0.00527531560510397,-0.0018908220808953047,-0.013219944201409817,0,0,-999,-4,-1,-14,-1,5,-152,1500.0
17:32:08.380,AUTO,-35.3632616,149.1652355,17794,0.006487273145467043,0.005905447527766228,-0.16834832727909088,-0.00527531560510397,-0.0018908220808953047,-0.013219944201409817,0,0,-999,-4,-1,-14,-1,5,-152,1500.0
17:32:08.583,AUTO,-35.3632616,149.1652355,17794,0.006487273145467043,0.005905447527766228,-0.16834832727909088,-0.00527531560510397,-0.0018908220808953047,-0.013219944201409817,0,0,-999,-4,-1,-14,-1,5,-152,1500.0
17:32:08.789,AUTO,-35.3632616,149.1652355,17794,0.006487273145467043,0.005905447527766228,-0.16834832727909088,-0.00527531560510397,-0.0018908220808953047,-0.013219944201409817,0,0,-999,-4,-1,-14,-1,5,-152,1500.0
17:32:08.991,AUTO,-35.3632616,149.1652355,17794,0.006487273145467043,0.005905447527766228,-0.16834832727909088,-0.00527531560510397,-0.0018908220808953047,-0.013219944201409817,0,0,-999,-4,-1,-14,-1,5,-152,1500.0
17:32:09.192,AUTO,-35.3632616,149.1652358,18965,0.004512439947575331,0.004735197406262159,-0.17919887602329254,-0.0030578274745494127,-0.0023967239540070295,-0.014008602127432823,0,0,-999,-4,-1,-14,-2,6,-153,1500.0
17:32:09.393,AUTO,-35.3632616,149.1652362,20533,0.0019250436453148723,0.0033638067543506622,-0.19654227793216705,-0.00023190290085040033,-0.0004422200145199895,-0.019382493570446968,0,0,-1000,0,0,-20,-3,5,-153,1500.0
17:32:09.595,AUTO,-35.3632617,149.1652363,20923,0.0015527285868301988,0.003419198328629136,-0.201425701379776,0.0008453182526864111,-0.000585629022680223,-0.019386297091841698,0,0,-1000,1,0,-20,-3,5,-153,1500.0
17:32:09.798,AUTO,-35.3632617,149.1652363,20923,0.0015527285868301988,0.003419198328629136,-0.201425701379776,0.0008453182526864111,-0.000585629022680223,-0.019386297091841698,0,0,-1000,1,0,-20,-3,5,-153,1500.0
17:32:09.999,AUTO,-35.3632617,149.1652363,20923,0.0015527285868301988,0.003419198328629136,-0.201425701379776,0.0008453182526864111,-0.000585629022680223,-0.019386297091841698,0,0,-1000,1,0,-20,-3,5,-153,1500.0
17:32:10.201,AUTO,-35.3632617,149.1652363,20923,0.0015527285868301988,0.003419198328629136,-0.201425701379776,0.0008453182526864111,-0.000585629022680223,-0.019386297091841698,0,0,-1000,1,0,-20,-3,5,-153,1500.0
17:32:10.402,AUTO,-35.3632617,149.1652363,20923,0.0015527285868301988,0.003419198328629136,-0.201425701379776,0.0008453182526864111,-0.000585629022680223,-0.019386297091841698,0,0,-1000,1,0,-20,-3,5,-153,1500.0
17:32:10.604,AUTO,-35.3632617,149.1652363,20923,0.0015527285868301988,0.003419198328629136,-0.201425701379776,0.0008453182526864111,-0.000585629022680223,-0.019386297091841698,0,0,-1000,1,0,-20,-3,5,-153,1500.0
17:32:10.808,AUTO,-35.3632617,149.1652363,20923,0.0015527285868301988,0.003419198328629136,-0.201425701379776,0.0008453182526864111,-0.000585629022680223,-0.019386297091841698,0,0,-1000,1,0,-20,-3,5,-153,1500.0
17:32:11.009,AUTO,-35.3632617,149.1652363,20923,0.0015527285868301988,0.003419198328629136,-0.201425701379776,0.0008453182526864111,-0.000585629022680223,-0.019386297091841698,0,0,-1000,1,0,-20,-3,5,-153,1500.0
17:32:11.217,AUTO,-35.3632617,149.1652365,22093,0.0014981689164415002,0.0032342402264475822,-0.21616818010807037,0.0018148785457015038,0.0009721274836920202,-0.020513251423835754,0,0,-1000,2,1,-21,-2,3,-153,1500.0
17:32:11.420,AUTO,-35.3632618,149.1652367,24049,0.002058679237961769,0.002702389843761921,-0.24070625007152557,0.0016637705266475677,0.0005579407443292439,-0.021897807717323303,0,0,-999,-2,0,-20,-2,2,-153,1500.0
17:32:11.621,AUTO,-35.3632618,149.1652367,24049,0.002058679237961769,0.002702389843761921,-0.24070625007152557,0.0016637705266475677,0.0005579407443292439,-0.021897807717323303,0,0,-1000,2,1,-22,-2,2,-153,1500.0
17:32:11.823,AUTO,-35.3632618,149.1652367,24049,0.002058679237961769,0.002702389843761921,-0.24070625007152557,0.0016637705266475677,0.0005579407443292439,-0.021897807717323303,0,0,-1000,2,1,-22,-2,2,-153,1500.0
17:32:12.027,AUTO,-35.3632618,149.1652367,24049,0.002058679237961769,0.002702389843761921,-0.24070625007152557,0.0016637705266475677,0.0005579407443292439,-0.021897807717323303,0,0,-1000,2,1,-22,-2,2,-153,1500.0
17:32:12.230,AUTO,-35.3632618,149.1652367,24049,0.002058679237961769,0.002702389843761921,-0.24070625007152557,0.0016637705266475677,0.0005579407443292439,-0.021897807717323303,0,0,-1000,2,1,-22,-2,2,-153,1500.0
17:32:12.432,AUTO,-35.3632618,149.1652367,24049,0.002058679237961769,0.002702389843761921,-0.24070625007152557,0.0016637705266475677,0.0005579407443292439,-0.021897807717323303,0,0,-1000,2,1,-22,-2,2,-153,1500.0
17:32:12.634,AUTO,-35.3632618,149.1652367,24049,0.002058679237961769,0.002702389843761921,-0.24070625007152557,0.0016637705266475677,0.0005579407443292439,-0.021897807717323303,0,0,-1000,2,1,-22,-2,2,-153,1500.0
17:32:12.835,AUTO,-35.3632618,149.1652367,24049,0.002058679237961769,0.002702389843761921,-0.24070625007152557,0.0016637705266475677,0.0005579407443292439,-0.021897807717323303,0,0,-1000,2,1,-22,-2,2,-153,1500.0
17:32:13.037,AUTO,-35.3632618,149.1652367,24049,0.002058679237961769,0.002702389843761921,-0.24070625007152557,0.0016637705266475677,0.0005579407443292439,-0.021897807717323303,0,0,-1000,2,1,-22,-2,2,-153,1500.0
17:32:13.238,AUTO,-35.3632619,149.1652367,25609,-0.010948079638183117,0.005146202631294727,-0.2523270845413208,0.022992542013525963,0.00427608285099268,0.008386568166315556,0,0,-994,-80,10,-1,-4,-1,-152,1500.0
17:32:13.439,AUTO,-35.3632622,149.1652365,27171,0.011945843696594238,0.001649018027819693,-0.23066100478172302,0.0062227738089859486,-0.0029120866674929857,0.02671012654900551,0,1,-1000,13,-2,25,-4,2,-153,1500.0
17:32:13.641,AUTO,-35.3632622,149.1652365,27171,0.011945843696594238,0.001649018027819693,-0.23066100478172302,0.0062227738089859486,-0.0029120866674929857,0.02671012654900551,0,0,-1000,7,-2,26,-4,2,-153,1500.0
17:32:13.844,AUTO,-35.3632622,149.1652365,27171,0.011945843696594238,0.001649018027819693,-0.23066100478172302,0.0062227738089859486,-0.0029120866674929857,0.02671012654900551,0,0,-1000,7,-2,26,-4,2,-153,1500.0
17:32:14.046,AUTO,-35.3632622,149.1652365,27171,0.011945843696594238,0.001649018027819693,-0.23066100478172302,0.0062227738089859486,-0.0029120866674929857,0.02671012654900551,0,0,-1000,7,-2,26,-4,2,-153,1500.0
17:32:14.247,AUTO,-35.3632622,149.1652365,27171,0.011945843696594238,0.001649018027819693,-0.23066100478172302,0.0062227738089859486,-0.0029120866674929857,0.02671012654900551,0,0,-1000,7,-2,26,-4,2,-153,1500.0
17:32:14.451,AUTO,-35.3632622,149.1652365,27171,0.011945843696594238,0.001649018027819693,-0.23066100478172302,0.0062227738089859486,-0.0029120866674929857,0.02671012654900551,0,0,-1000,7,-2,26,-4,2,-153,1500.0
17:32:14.652,AUTO,-35.3632622,149.1652365,27171,0.011945843696594238,0.001649018027819693,-0.23066100478172302,0.0062227738089859486,-0.0029120866674929857,0.02671012654900551,0,0,-1000,7,-2,26,-4,2,-153,1500.0
17:32:14.855,AUTO,-35.3632622,149.1652365,27171,0.011945843696594238,0.001649018027819693,-0.23066100478172302,0.0062227738089859486,-0.0029120866674929857,0.02671012654900551,0,0,-1000,7,-2,26,-4,2,-153,1500.0
17:32:15.058,AUTO,-35.3632622,149.1652365,27171,0.011945843696594238,0.001649018027819693,-0.23066100478172302,0.0062227738089859486,-0.0029120866674929857,0.02671012654900551,0,0,-1000,7,-2,26,-4,2,-153,1500.0
17:32:15.260,AUTO,-35.3632624,149.1652369,28728,0.00612903805449605,0.0010779310250654817,-0.20722542703151703,-0.006033568177372217,0.00206124153919518,0.021513523533940315,0,0,-1001,-5,0,21,-1,8,-153,1500.0
17:32:15.461,AUTO,-35.3632624,149.1652376,30289,0.00029879261273890734,0.0019101292127743363,-0.18742984533309937,-0.0030385348945856094,0.0010823423508554697,0.018971428275108337,0,-1,-1000,-7,0,18,0,7,-153,1500.0
17:32:15.670,AUTO,-35.3632624,149.1652376,30289,0.00029879261273890734,0.0019101292127743363,-0.18742984533309937,-0.0030385348945856094,0.0010823423508554697,0.018971428275108337,0,-1,-1000,-2,1,18,0,7,-153,1500.0
17:32:15.872,AUTO,-35.3632624,149.1652376,30289,0.00029879261273890734,0.0019101292127743363,-0.18742984533309937,-0.0030385348945856094,0.0010823423508554697,0.018971428275108337,0,-1,-1000,-2,1,18,0,7,-153,1500.0
17:32:16.073,AUTO,-35.3632624,149.1652376,30289,0.00029879261273890734,0.0019101292127743363,-0.18742984533309937,-0.0030385348945856094,0.0010823423508554697,0.018971428275108337,0,-1,-1000,-2,1,18,0,7,-153,1500.0
17:32:16.275,AUTO,-35.3632624,149.1652376,30289,0.00029879261273890734,0.0019101292127743363,-0.18742984533309937,-0.0030385348945856094,0.0010823423508554697,0.018971428275108337,0,-1,-1000,-2,1,18,0,7,-153,1500.0
17:32:16.476,AUTO,-35.3632624,149.1652376,30289,0.00029879261273890734,0.0019101292127743363,-0.18742984533309937,-0.0030385348945856094,0.0010823423508554697,0.018971428275108337,0,-1,-1000,-2,1,18,0,7,-153,1500.0
17:32:16.677,AUTO,-35.3632624,149.1652376,30289,0.00029879261273890734,0.0019101292127743363,-0.18742984533309937,-0.0030385348945856094,0.0010823423508554697,0.018971428275108337,0,-1,-1000,-2,1,18,0,7,-153,1500.0
17:32:16.882,AUTO,-35.3632624,149.1652376,30289,0.00029879261273890734,0.0019101292127743363,-0.18742984533309937,-0.0030385348945856094,0.0010823423508554697,0.018971428275108337,0,-1,-1000,-2,1,18,0,7,-153,1500.0
17:32:17.089,AUTO,-35.3632624,149.1652376,30289,0.00029879261273890734,0.0019101292127743363,-0.18742984533309937,-0.0030385348945856094,0.0010823423508554697,0.018971428275108337,0,-1,-1000,-2,1,18,0,7,-153,1500.0
17:32:17.292,AUTO,-35.3632623,149.165238,32467,-0.0003525087668094784,0.0011158594861626625,-0.1642565131187439,-0.000531707308255136,0.00022576708579435945,0.01643439568579197,0,0,-1001,3,0,15,0,2,-153,1500.0
17:32:17.494,AUTO,-35.3632623,149.165238,33248,0.0006618353654630482,0.0009679184295237064,-0.15721184015274048,0.005526863504201174,0.0004405046347528696,0.015651166439056396,0,0,-1000,6,1,15,0,0,-153,1500.0
17:32:17.695,AUTO,-35.3632623,149.165238,33248,0.0006618353654630482,0.0009679184295237064,-0.15721184015274048,0.005526863504201174,0.0004405046347528696,0.015651166439056396,0,0,-1000,6,1,15,0,0,-153,1500.0
17:32:17.898,AUTO,-35.3632623,149.165238,33248,0.0006618353654630482,0.0009679184295237064,-0.15721184015274048,0.005526863504201174,0.0004405046347528696,0.015651166439056396,0,0,-1000,6,1,15,0,0,-153,1500.0
17:32:18.099,AUTO,-35.3632623,149.165238,33248,0.0006618353654630482,0.0009679184295237064,-0.15721184015274048,0.005526863504201174,0.0004405046347528696,0.015651166439056396,0,0,-1000,6,1,15,0,0,-153,1500.0
17:32:18.300,AUTO,-35.3632623,149.165238,33248,0.0006618353654630482,0.0009679184295237064,-0.15721184015274048,0.005526863504201174,0.0004405046347528696,0.015651166439056396,0,0,-1000,6,1,15,0,0,-153,1500.0
17:32:18.505,AUTO,-35.3632623,149.165238,33248,0.0006618353654630482,0.0009679184295237064,-0.15721184015274048,0.005526863504201174,0.0004405046347528696,0.015651166439056396,0,0,-1000,6,1,15,0,0,-153,1500.0
17:32:18.707,AUTO,-35.3632623,149.165238,33248,0.0006618353654630482,0.0009679184295237064,-0.15721184015274048,0.005526863504201174,0.0004405046347528696,0.015651166439056396,0,0,-1000,6,1,15,0,0,-153,1500.0
17:32:18.908,AUTO,-35.3632623,149.165238,33248,0.0006618353654630482,0.0009679184295237064,-0.15721184015274048,0.005526863504201174,0.0004405046347528696,0.015651166439056396,0,0,-1000,6,1,15,0,0,-153,1500.0
17:32:22.689,AUTO,-35.3632623,149.165238,33248,0.0006618353654630482,0.0009679184295237064,-0.15721184015274048,0.005526863504201174,0.0004405046347528696,0.015651166439056396,0,0,-1000,6,1,15,0,0,-153,1500.0
17:32:22.892,AUTO,-35.3632622,149.1652379,35985,0.0015059314901009202,0.0008191144443117082,-0.13554607331752777,-0.0019471260020509362,0.0008310865378007293,0.012528784573078156,0,0,-999,-1,1,12,0,0,-153,1500.0
17:32:23.093,AUTO,-35.3632622,149.1652379,36375,0.0016117483610287309,0.0007838365854695439,-0.1328412890434265,0.003329958999529481,0.00018826726591214538,0.0130572859197855,0,0,-1001,3,1,12,0,0,-153,1500.0
17:32:23.294,AUTO,-35.3632622,149.1652379,36375,0.0016117483610287309,0.0007838365854695439,-0.1328412890434265,0.003329958999529481,0.00018826726591214538,0.0130572859197855,0,0,-1001,3,1,12,0,0,-153,1500.0
17:32:23.495,AUTO,-35.3632622,149.1652379,36375,0.0016117483610287309,0.0007838365854695439,-0.1328412890434265,0.003329958999529481,0.00018826726591214538,0.0130572859197855,0,0,-1001,3,1,12,0,0,-153,1500.0
17:32:23.696,AUTO,-35.3632622,149.1652379,36375,0.0016117483610287309,0.0007838365854695439,-0.1328412890434265,0.003329958999529481,0.00018826726591214538,0.0130572859197855,0,0,-1001,3,1,12,0,0,-153,1500.0
17:32:23.898,AUTO,-35.3632622,149.1652379,36375,0.0016117483610287309,0.0007838365854695439,-0.1328412890434265,0.003329958999529481,0.00018826726591214538,0.0130572859197855,0,0,-1001,3,1,12,0,0,-153,1500.0
17:32:24.100,AUTO,-35.3632622,149.1652379,36375,0.0016117483610287309,0.0007838365854695439,-0.1328412890434265,0.003329958999529481,0.00018826726591214538,0.0130572859197855,0,0,-1001,3,1,12,0,0,-153,1500.0
17:32:24.301,AUTO,-35.3632622,149.1652379,36375,0.0016117483610287309,0.0007838365854695439,-0.1328412890434265,0.003329958999529481,0.00018826726591214538,0.0130572859197855,0,0,-1001,3,1,12,0,0,-153,1500.0
17:32:24.506,AUTO,-35.3632622,149.1652379,36375,0.0016117483610287309,0.0007838365854695439,-0.1328412890434265,0.003329958999529481,0.00018826726591214538,0.0130572859197855,0,0,-1001,3,1,12,0,0,-153,1500.0
17:32:24.707,AUTO,-35.3632622,149.1652379,36375,0.0016117483610287309,0.0007838365854695439,-0.1328412890434265,0.003329958999529481,0.00018826726591214538,0.0130572859197855,0,0,-1001,3,1,12,0,0,-153,1500.0
17:32:24.913,AUTO,-35.3632622,149.1652377,37935,0.0021743355318903923,0.0014894057530909777,-0.12300942093133926,0.0017394430469721556,0.0005748260300606489,0.009257138706743717,0,0,-1000,2,1,9,0,0,-153,1500.0
17:32:25.116,AUTO,-35.3632621,149.1652376,39497,0.0026080640964210033,0.0016130610601976514,-0.1147603765130043,-0.0020279763266444206,-7.534894393756986e-05,0.006433634087443352,0,0,-1000,0,0,6,0,0,-153,1500.0
17:32:25.318,AUTO,-35.3632621,149.1652376,39497,0.0026080640964210033,0.0016130610601976514,-0.1147603765130043,-0.0020279763266444206,-7.534894393756986e-05,0.006433634087443352,0,0,-1000,0,0,6,0,0,-153,1500.0
17:32:25.520,AUTO,-35.3632621,149.1652376,39497,0.0026080640964210033,0.0016130610601976514,-0.1147603765130043,-0.0020279763266444206,-7.534894393756986e-05,0.006433634087443352,0,0,-1000,0,0,6,0,0,-153,1500.0
17:32:25.721,AUTO,-35.3632621,149.1652376,39497,0.0026080640964210033,0.0016130610601976514,-0.1147603765130043,-0.0020279763266444206,-7.534894393756986e-05,0.006433634087443352,0,0,-1000,0,0,6,0,0,-153,1500.0
17:32:25.923,AUTO,-35.3632621,149.1652376,39497,0.0026080640964210033,0.0016130610601976514,-0.1147603765130043,-0.0020279763266444206,-7.534894393756986e-05,0.006433634087443352,0,0,-1000,0,0,6,0,0,-153,1500.0
17:32:26.126,AUTO,-35.3632621,149.1652376,39497,0.0026080640964210033,0.0016130610601976514,-0.1147603765130043,-0.0020279763266444206,-7.534894393756986e-05,0.006433634087443352,0,0,-1000,0,0,6,0,0,-153,1500.0
17:32:26.328,AUTO,-35.3632621,149.1652376,39497,0.0026080640964210033,0.0016130610601976514,-0.1147603765130043,-0.0020279763266444206,-7.534894393756986e-05,0.006433634087443352,0,0,-1000,0,0,6,0,0,-153,1500.0
17:32:26.530,AUTO,-35.3632621,149.1652376,39497,0.0026080640964210033,0.0016130610601976514,-0.1147603765130043,-0.0020279763266444206,-7.534894393756986e-05,0.006433634087443352,0,0,-1000,0,0,6,0,0,-153,1500.0
17:32:26.731,AUTO,-35.3632621,149.1652376,39497,0.0026080640964210033,0.0016130610601976514,-0.1147603765130043,-0.0020279763266444206,-7.534894393756986e-05,0.006433634087443352,0,0,-1000,0,0,6,0,0,-153,1500.0
17:32:26.937,AUTO,-35.3632621,149.1652375,40662,0.002476984867826104,0.0011891333851963282,-0.1090407446026802,-0.0016548136482015252,0.0006054140976630151,0.009552286937832832,0,0,-999,0,1,9,0,0,-153,1500.0
17:32:27.138,AUTO,-35.363262,149.1652374,42609,0.002170625375583768,0.0015023851301521063,-0.10054881870746613,8.772872388362885e-05,0.0007890237029641867,0.007262422703206539,0,0,-1000,0,1,7,-1,0,-153,1500.0
17:32:27.339,AUTO,-35.363262,149.1652374,42609,0.002170625375583768,0.0015023851301521063,-0.10054881870746613,8.772872388362885e-05,0.0007890237029641867,0.007262422703206539,0,0,-1000,0,1,7,-1,0,-153,1500.0
17:32:27.541,AUTO,-35.363262,149.1652374,42609,0.002170625375583768,0.0015023851301521063,-0.10054881870746613,8.772872388362885e-05,0.0007890237029641867,0.007262422703206539,0,0,-1000,0,1,7,-1,0,-153,1500.0
17:32:27.742,AUTO,-35.363262,149.1652374,42609,0.002170625375583768,0.0015023851301521063,-0.10054881870746613,8.772872388362885e-05,0.0007890237029641867,0.007262422703206539,0,0,-1000,0,1,7,-1,0,-153,1500.0
17:32:27.944,AUTO,-35.363262,149.1652374,42609,0.002170625375583768,0.0015023851301521063,-0.10054881870746613,8.772872388362885e-05,0.0007890237029641867,0.007262422703206539,0,0,-1000,0,1,7,-1,0,-153,1500.0
17:32:28.146,AUTO,-35.363262,149.1652374,42609,0.002170625375583768,0.0015023851301521063,-0.10054881870746613,8.772872388362885e-05,0.0007890237029641867,0.007262422703206539,0,0,-1000,0,1,7,-1,0,-153,1500.0
17:32:28.351,AUTO,-35.363262,149.1652374,42609,0.002170625375583768,0.0015023851301521063,-0.10054881870746613,8.772872388362885e-05,0.0007890237029641867,0.007262422703206539,0,0,-1000,0,1,7,-1,0,-153,1500.0
17:32:28.552,AUTO,-35.363262,149.1652374,42609,0.002170625375583768,0.0015023851301521063,-0.10054881870746613,8.772872388362885e-05,0.0007890237029641867,0.007262422703206539,0,0,-1000,0,1,7,-1,0,-153,1500.0
17:32:28.753,AUTO,-35.363262,149.1652374,42609,0.002170625375583768,0.0015023851301521063,-0.10054881870746613,8.772872388362885e-05,0.0007890237029641867,0.007262422703206539,0,0,-1000,0,1,7,-1,0,-153,1500.0
17:32:28.956,AUTO,-35.363262,149.1652374,42609,0.002170625375583768,0.0015023851301521063,-0.10054881870746613,8.772872388362885e-05,0.0007890237029641867,0.007262422703206539,0,0,-1000,0,1,7,-1,0,-153,1500.0
17:32:29.157,AUTO,-35.363262,149.1652374,44559,0.001958420965820551,0.0011757039465010166,-0.09291315823793411,0.001726762973703444,-0.0008479863172397017,0.005791346076875925,0,0,-1000,-2,0,7,-1,0,-153,1500.0
17:32:29.359,AUTO,-35.363262,149.1652373,46117,0.002319321036338806,0.0012555618304759264,-0.08721156418323517,-0.0012129476526752114,-0.000230196223128587,0.007458155043423176,0,0,-1000,0,0,7,-1,1,-153,1500.0
17:32:29.563,AUTO,-35.363262,149.1652373,46117,0.002319321036338806,0.0012555618304759264,-0.08721156418323517,-0.0012129476526752114,-0.000230196223128587,0.007458155043423176,0,0,-1000,0,0,7,-1,1,-153,1500.0
17:32:29.765,AUTO,-35.363262,149.1652373,46117,0.002319321036338806,0.0012555618304759264,-0.08721156418323517,-0.0012129476526752114,-0.000230196223128587,0.007458155043423176,0,0,-1000,0,0,7,-1,1,-153,1500.0
17:32:29.968,AUTO,-35.363262,149.1652373,46117,0.002319321036338806,0.0012555618304759264,-0.08721156418323517,-0.0012129476526752114,-0.000230196223128587,0.007458155043423176,0,0,-1000,0,0,7,-1,1,-153,1500.0
17:32:30.170,AUTO,-35.363262,149.1652373,46117,0.002319321036338806,0.0012555618304759264,-0.08721156418323517,-0.0012129476526752114,-0.000230196223128587,0.007458155043423176,0,0,-1000,0,0,7,-1,1,-153,1500.0
17:32:30.371,AUTO,-35.363262,149.1652373,46117,0.002319321036338806,0.0012555618304759264,-0.08721156418323517,-0.0012129476526752114,-0.000230196223128587,0.007458155043423176,0,0,-1000,0,0,7,-1,1,-153,1500.0
17:32:30.574,AUTO,-35.363262,149.1652373,46117,0.002319321036338806,0.0012555618304759264,-0.08721156418323517,-0.0012129476526752114,-0.000230196223128587,0.007458155043423176,0,0,-1000,0,0,7,-1,1,-153,1500.0
17:32:30.775,AUTO,-35.363262,149.1652373,46117,0.002319321036338806,0.0012555618304759264,-0.08721156418323517,-0.0012129476526752114,-0.000230196223128587,0.007458155043423176,0,0,-1000,0,0,7,-1,1,-153,1500.0
17:32:30.978,AUTO,-35.363262,149.1652373,46117,0.002319321036338806,0.0012555618304759264,-0.08721156418323517,-0.0012129476526752114,-0.000230196223128587,0.007458155043423176,0,0,-1000,0,0,7,-1,1,-153,1500.0
17:32:31.179,AUTO,-35.3632635,149.1652352,48532,-0.019107574597001076,-0.007195199839770794,0.2862991988658905,0.10897259414196014,-0.1713479608297348,0.1292121857404709,4,9,-947,109,-170,129,-30,-38,-103,1500.0
17:32:31.380,AUTO,-35.3632641,149.1652341,48781,0.006740521639585495,-0.03876861184835434,0.30596330761909485,0.09255608916282654,-0.09135414659976959,0.04995376244187355,3,10,-954,93,-90,50,-24,-35,-91,1500.0
17:32:31.581,AUTO,-35.3632641,149.1652341,48781,0.006740521639585495,-0.03876861184835434,0.30596330761909485,0.09255608916282654,-0.09135414659976959,0.04995376244187355,3,10,-954,93,-90,50,-24,-35,-91,1500.0
17:32:31.785,AUTO,-35.3632641,149.1652341,48781,0.006740521639585495,-0.03876861184835434,0.30596330761909485,0.09255608916282654,-0.09135414659976959,0.04995376244187355,3,10,-954,93,-90,50,-24,-35,-91,1500.0
17:32:31.986,AUTO,-35.3632641,149.1652341,48781,0.006740521639585495,-0.03876861184835434,0.30596330761909485,0.09255608916282654,-0.09135414659976959,0.04995376244187355,3,10,-954,93,-90,50,-24,-35,-91,1500.0
17:32:32.191,AUTO,-35.3632641,149.1652341,48781,0.006740521639585495,-0.03876861184835434,0.30596330761909485,0.09255608916282654,-0.09135414659976959,0.04995376244187355,3,10,-954,93,-90,50,-24,-35,-91,1500.0
17:32:32.394,AUTO,-35.3632641,149.1652341,48781,0.006740521639585495,-0.03876861184835434,0.30596330761909485,0.09255608916282654,-0.09135414659976959,0.04995376244187355,3,10,-954,93,-90,50,-24,-35,-91,1500.0
17:32:32.598,AUTO,-35.3632641,149.1652341,48781,0.006740521639585495,-0.03876861184835434,0.30596330761909485,0.09255608916282654,-0.09135414659976959,0.04995376244187355,3,10,-954,93,-90,50,-24,-35,-91,1500.0
17:32:32.799,AUTO,-35.3632641,149.1652341,48781,0.006740521639585495,-0.03876861184835434,0.30596330761909485,0.09255608916282654,-0.09135414659976959,0.04995376244187355,3,10,-954,93,-90,50,-24,-35,-91,1500.0
17:32:33.000,AUTO,-35.3632641,149.1652341,48781,0.006740521639585495,-0.03876861184835434,0.30596330761909485,0.09255608916282654,-0.09135414659976959,0.04995376244187355,3,10,-954,93,-90,50,-24,-35,-91,1500.0
17:32:33.203,AUTO,-35.3632641,149.1652329,49724,0.029758334159851074,-0.022065836936235428,0.2757089138031006,-0.35986328125,0.0438004694879055,-0.036618877202272415,-2,-27,-972,-361,45,-36,18,22,-46,1500.0
17:32:33.404,AUTO,-35.3632632,149.1652343,49920,0.009349735453724861,-0.0024814815260469913,0.25747865438461304,-0.21192564070224762,0.03671708703041077,-0.026214534416794777,-2,4,-975,-206,37,-26,20,31,-33,1500.0
17:32:33.607,AUTO,-35.3632632,149.1652343,49920,0.009349735453724861,-0.0024814815260469913,0.25747865438461304,-0.21192564070224762,0.03671708703041077,-0.026214534416794777,-2,4,-975,-206,37,-26,20,31,-33,1500.0
17:32:33.808,AUTO,-35.3632632,149.1652343,49920,0.009349735453724861,-0.0024814815260469913,0.25747865438461304,-0.21192564070224762,0.03671708703041077,-0.026214534416794777,-2,4,-975,-206,37,-26,20,31,-33,1500.0
17:32:34.010,AUTO,-35.3632632,149.1652343,49920,0.009349735453724861,-0.0024814815260469913,0.25747865438461304,-0.21192564070224762,0.03671708703041077,-0.026214534416794777,-2,4,-975,-206,37,-26,20,31,-33,1500.0
17:32:34.212,AUTO,-35.3632632,149.1652343,49920,0.009349735453724861,-0.0024814815260469913,0.25747865438461304,-0.21192564070224762,0.03671708703041077,-0.026214534416794777,-2,4,-975,-206,37,-26,20,31,-33,1500.0
17:32:34.415,AUTO,-35.3632632,149.1652343,49920,0.009349735453724861,-0.0024814815260469913,0.25747865438461304,-0.21192564070224762,0.03671708703041077,-0.026214534416794777,-2,4,-975,-206,37,-26,20,31,-33,1500.0
17:32:34.616,AUTO,-35.3632632,149.1652343,49920,0.009349735453724861,-0.0024814815260469913,0.25747865438461304,-0.21192564070224762,0.03671708703041077,-0.026214534416794777,-2,4,-975,-206,37,-26,20,31,-33,1500.0
17:32:34.821,AUTO,-35.3632632,149.1652343,49920,0.009349735453724861,-0.0024814815260469913,0.25747865438461304,-0.21192564070224762,0.03671708703041077,-0.026214534416794777,-2,4,-975,-206,37,-26,20,31,-33,1500.0
17:32:35.022,AUTO,-35.3632615,149.1652373,50154,7.937586633488536e-05,0.014891703613102436,0.2276177704334259,-0.2596246302127838,0.005252496805042028,-0.025622371584177017,-1,-32,-960,-263,6,-25,11,23,-13,1500.0
17:32:35.223,AUTO,-35.363261,149.1652386,50095,-0.01169117633253336,0.007761015091091394,0.20249265432357788,-0.07651093602180481,-0.10302545875310898,-0.017172658815979958,1,17,-1026,-69,-102,-16,-6,2,12,1500.0
17:32:35.424,AUTO,-35.363261,149.1652386,50095,-0.01169117633253336,0.007761015091091394,0.20249265432357788,-0.07651093602180481,-0.10302545875310898,-0.017172658815979958,1,17,-1026,-69,-102,-16,-6,2,12,1500.0
17:32:35.626,AUTO,-35.363261,149.1652386,50095,-0.01169117633253336,0.007761015091091394,0.20249265432357788,-0.07651093602180481,-0.10302545875310898,-0.017172658815979958,1,17,-1026,-69,-102,-16,-6,2,12,1500.0
17:32:35.829,AUTO,-35.363261,149.1652386,50095,-0.01169117633253336,0.007761015091091394,0.20249265432357788,-0.07651093602180481,-0.10302545875310898,-0.017172658815979958,1,17,-1026,-69,-102,-16,-6,2,12,1500.0
17:32:36.030,AUTO,-35.363261,149.1652386,50095,-0.01169117633253336,0.007761015091091394,0.20249265432357788,-0.07651093602180481,-0.10302545875310898,-0.017172658815979958,1,17,-1026,-69,-102,-16,-6,2,12,1500.0
17:32:36.231,AUTO,-35.363261,149.1652386,50095,-0.01169117633253336,0.007761015091091394,0.20249265432357788,-0.07651093602180481,-0.10302545875310898,-0.017172658815979958,1,17,-1026,-69,-102,-16,-6,2,12,1500.0
17:32:36.434,AUTO,-35.363261,149.1652386,50095,-0.01169117633253336,0.007761015091091394,0.20249265432357788,-0.07651093602180481,-0.10302545875310898,-0.017172658815979958,1,17,-1026,-69,-102,-16,-6,2,12,1500.0
17:32:36.637,AUTO,-35.363261,149.1652386,50095,-0.01169117633253336,0.007761015091091394,0.20249265432357788,-0.07651093602180481,-0.10302545875310898,-0.017172658815979958,1,17,-1026,-69,-102,-16,-6,2,12,1500.0
17:32:36.840,AUTO,-35.363261,149.1652386,50095,-0.01169117633253336,0.007761015091091394,0.20249265432357788,-0.07651093602180481,-0.10302545875310898,-0.017172658815979958,1,17,-1026,-69,-102,-16,-6,2,12,1500.0
17:32:37.041,AUTO,-35.363261,149.1652386,50095,-0.01169117633253336,0.007761015091091394,0.20249265432357788,-0.07651093602180481,-0.10302545875310898,-0.017172658815979958,1,17,-1026,-69,-102,-16,-6,2,12,1500.0
17:32:37.244,AUTO,-35.3632612,149.165239,50006,0.040120430290699005,-0.029163001105189323,0.19099916517734528,0.7264237403869629,-0.033397529274225235,-0.01582028530538082,1,17,-1026,-69,-102,-16,3,13,5,1500.0
17:32:37.445,AUTO,-35.3632589,149.1652448,49953,0.047373246401548386,-0.09422208368778229,0.48889443278312683,-0.15401211380958557,-0.044345710426568985,0.8296306729316711,-7,-13,-999,-148,-43,829,52,74,-1,1500.0
17:32:37.650,AUTO,-35.3632577,149.1652473,49948,0.03586321696639061,-0.112572580575943,0.6997314095497131,0.22728309035301208,-0.03820237144827843,0.8097608089447021,-19,0,-994,233,-36,809,66,92,0,1500.0
17:32:37.851,AUTO,-35.3632577,149.1652473,49948,0.03586321696639061,-0.112572580575943,0.6997314095497131,0.22728309035301208,-0.03820237144827843,0.8097608089447021,-19,0,-994,233,-36,809,66,92,0,1500.0
17:32:38.052,AUTO,-35.3632577,149.1652473,49948,0.03586321696639061,-0.112572580575943,0.6997314095497131,0.22728309035301208,-0.03820237144827843,0.8097608089447021,-19,0,-994,233,-36,809,66,92,0,1500.0
17:32:38.254,AUTO,-35.3632577,149.1652473,49948,0.03586321696639061,-0.112572580575943,0.6997314095497131,0.22728309035301208,-0.03820237144827843,0.8097608089447021,-19,0,-994,233,-36,809,66,92,0,1500.0
17:32:38.456,AUTO,-35.3632577,149.1652473,49948,0.03586321696639061,-0.112572580575943,0.6997314095497131,0.22728309035301208,-0.03820237144827843,0.8097608089447021,-19,0,-994,233,-36,809,66,92,0,1500.0
17:32:38.657,AUTO,-35.3632577,149.1652473,49948,0.03586321696639061,-0.112572580575943,0.6997314095497131,0.22728309035301208,-0.03820237144827843,0.8097608089447021,-19,0,-994,233,-36,809,66,92,0,1500.0
17:32:38.864,AUTO,-35.3632577,149.1652473,49948,0.03586321696639061,-0.112572580575943,0.6997314095497131,0.22728309035301208,-0.03820237144827843,0.8097608089447021,-19,0,-994,233,-36,809,66,92,0,1500.0
17:32:39.068,AUTO,-35.3632577,149.1652473,49948,0.03586321696639061,-0.112572580575943,0.6997314095497131,0.22728309035301208,-0.03820237144827843,0.8097608089447021,-19,0,-994,233,-36,809,66,92,0,1500.0
17:32:39.271,AUTO,-35.3632502,149.1652614,49940,-0.002540123648941517,-0.0851772129535675,1.253082275390625,0.235821932554245,0.09171080589294434,0.041605494916439056,-41,6,-1015,241,92,41,112,156,-5,1500.0
17:32:39.472,AUTO,-35.3632392,149.1652822,49938,0.008694246411323547,-0.10972409695386887,1.1626973152160645,-0.45094892382621765,0.07470877468585968,-0.07782154530286789,-60,-52,-1003,-453,75,-77,145,204,-3,1500.0
17:32:39.675,AUTO,-35.3632392,149.1652822,49938,0.008694246411323547,-0.10972409695386887,1.1626973152160645,-0.45094892382621765,0.07470877468585968,-0.07782154530286789,-60,-52,-1003,-453,75,-77,145,204,-3,1500.0
17:32:39.878,AUTO,-35.3632392,149.1652822,49938,0.008694246411323547,-0.10972409695386887,1.1626973152160645,-0.45094892382621765,0.07470877468585968,-0.07782154530286789,-60,-52,-1003,-453,75,-77,145,204,-3,1500.0
17:32:40.082,AUTO,-35.3632392,149.1652822,49938,0.008694246411323547,-0.10972409695386887,1.1626973152160645,-0.45094892382621765,0.07470877468585968,-0.07782154530286789,-60,-52,-1003,-453,75,-77,145,204,-3,1500.0
17:32:40.285,AUTO,-35.3632392,149.1652822,49938,0.008694246411323547,-0.10972409695386887,1.1626973152160645,-0.45094892382621765,0.07470877468585968,-0.07782154530286789,-60,-52,-1003,-453,75,-77,145,204,-3,1500.0
17:32:40.486,AUTO,-35.3632392,149.1652822,49938,0.008694246411323547,-0.10972409695386887,1.1626973152160645,-0.45094892382621765,0.07470877468585968,-0.07782154530286789,-60,-52,-1003,-453,75,-77,145,204,-3,1500.0
17:32:40.688,AUTO,-35.3632392,149.1652822,49938,0.008694246411323547,-0.10972409695386887,1.1626973152160645,-0.45094892382621765,0.07470877468585968,-0.07782154530286789,-60,-52,-1003,-453,75,-77,145,204,-3,1500.0
17:32:40.891,AUTO,-35.3632392,149.1652822,49938,0.008694246411323547,-0.10972409695386887,1.1626973152160645,-0.45094892382621765,0.07470877468585968,-0.07782154530286789,-60,-52,-1003,-453,75,-77,145,204,-3,1500.0
17:32:41.092,AUTO,-35.3632392,149.1652822,49938,0.008694246411323547,-0.10972409695386887,1.1626973152160645,-0.45094892382621765,0.07470877468585968,-0.07782154530286789,-60,-52,-1003,-453,75,-77,145,204,-3,1500.0
17:32:41.294,AUTO,-35.3632392,149.1652822,49938,0.008694246411323547,-0.10972409695386887,1.1626973152160645,-0.45094892382621765,0.07470877468585968,-0.07782154530286789,-60,-52,-1003,-453,75,-77,145,204,-3,1500.0
17:32:41.496,AUTO,-35.3632167,149.1653233,49953,0.03559049218893051,-0.07612934708595276,1.1254175901412964,-0.5837920904159546,-0.2219793200492859,0.00888960063457489,-66,-55,-977,-583,-220,8,179,264,-8,1500.0
17:32:41.698,AUTO,-35.3632036,149.1653475,49915,0.0353504978120327,-0.23427003622055054,1.1157912015914917,0.29358357191085815,0.10294102132320404,-0.006240724585950375,-87,-28,-1019,294,104,-6,214,330,9,1500.0
17:32:41.903,AUTO,-35.3632036,149.1653475,49915,0.0353504978120327,-0.23427003622055054,1.1157912015914917,0.29358357191085815,0.10294102132320404,-0.006240724585950375,-87,-28,-1019,294,104,-6,214,330,9,1500.0
17:32:42.104,AUTO,-35.3632036,149.1653475,49915,0.0353504978120327,-0.23427003622055054,1.1157912015914917,0.29358357191085815,0.10294102132320404,-0.006240724585950375,-87,-28,-1019,294,104,-6,214,330,9,1500.0
17:32:42.306,AUTO,-35.3632036,149.1653475,49915,0.0353504978120327,-0.23427003622055054,1.1157912015914917,0.29358357191085815,0.10294102132320404,-0.006240724585950375,-87,-28,-1019,294,104,-6,214,330,9,1500.0
17:32:42.508,AUTO,-35.3632036,149.1653475,49915,0.0353504978120327,-0.23427003622055054,1.1157912015914917,0.29358357191085815,0.10294102132320404,-0.006240724585950375,-87,-28,-1019,294,104,-6,214,330,9,1500.0
17:32:42.709,AUTO,-35.3632036,149.1653475,49915,0.0353504978120327,-0.23427003622055054,1.1157912015914917,0.29358357191085815,0.10294102132320404,-0.006240724585950375,-87,-28,-1019,294,104,-6,214,330,9,1500.0
17:32:42.910,AUTO,-35.3632036,149.1653475,49915,0.0353504978120327,-0.23427003622055054,1.1157912015914917,0.29358357191085815,0.10294102132320404,-0.006240724585950375,-87,-28,-1019,294,104,-6,214,330,9,1500.0
17:32:43.115,AUTO,-35.3632036,149.1653475,49915,0.0353504978120327,-0.23427003622055054,1.1157912015914917,0.29358357191085815,0.10294102132320404,-0.006240724585950375,-87,-28,-1019,294,104,-6,214,330,9,1500.0
17:32:43.317,BRAKE,-35.3632036,149.1653475,49915,0.0353504978120327,-0.23427003622055054,1.1157912015914917,0.29358357191085815,0.10294102132320404,-0.006240724585950375,-87,-28,-1019,294,104,-6,214,330,9,1500.0
17:32:43.520,BRAKE,-35.3631856,149.1653809,49961,0.08614978939294815,0.04359451308846474,1.1174670457839966,0.7409045696258545,0.5153627395629883,-0.052280038595199585,-96,-24,-1041,741,516,-52,221,347,-24,1500.0
17:32:43.723,BRAKE,-35.3631704,149.1654096,50083,0.07057821750640869,0.15687447786331177,1.1265400648117065,-0.278857558965683,-0.23273679614067078,0.03887919336557388,-41,-58,-1007,-284,-231,38,86,159,4,1500.0
17:32:43.924,BRAKE,-35.3631685,149.1654138,50066,0.04809843376278877,0.10547880083322525,1.1210335493087769,-0.8996145725250244,-0.15819524228572845,0.016590578481554985,-34,-71,-967,-903,-157,16,63,127,9,1500.0
17:32:44.126,BRAKE,-35.3631685,149.1654138,50066,0.04809843376278877,0.10547880083322525,1.1210335493087769,-0.8996145725250244,-0.15819524228572845,0.016590578481554985,-34,-71,-967,-903,-157,16,63,127,9,1500.0
17:32:44.328,BRAKE,-35.3631685,149.1654138,50066,0.04809843376278877,0.10547880083322525,1.1210335493087769,-0.8996145725250244,-0.15819524228572845,0.016590578481554985,-34,-71,-967,-903,-157,16,63,127,9,1500.0
17:32:44.535,BRAKE,-35.3631685,149.1654138,50066,0.04809843376278877,0.10547880083322525,1.1210335493087769,-0.8996145725250244,-0.15819524228572845,0.016590578481554985,-34,-71,-967,-903,-157,16,63,127,9,1500.0
17:32:44.740,BRAKE,-35.3631685,149.1654138,50066,0.04809843376278877,0.10547880083322525,1.1210335493087769,-0.8996145725250244,-0.15819524228572845,0.016590578481554985,-34,-71,-967,-903,-157,16,63,127,9,1500.0
17:32:44.944,BRAKE,-35.3631685,149.1654138,50066,0.04809843376278877,0.10547880083322525,1.1210335493087769,-0.8996145725250244,-0.15819524228572845,0.016590578481554985,-34,-71,-967,-903,-157,16,63,127,9,1500.0
17:32:45.163,BRAKE,-35.3631685,149.1654138,50066,0.04809843376278877,0.10547880083322525,1.1210335493087769,-0.8996145725250244,-0.15819524228572845,0.016590578481554985,-34,-71,-967,-903,-157,16,63,127,9,1500.0
17:32:45.435,BRAKE,-35.3631685,149.1654138,50066,0.04809843376278877,0.10547880083322525,1.1210335493087769,-0.8996145725250244,-0.15819524228572845,0.016590578481554985,-34,-71,-967,-903,-157,16,63,127,9,1500.0
17:32:45.648,BRAKE,-35.3631685,149.1654138,50066,0.04809843376278877,0.10547880083322525,1.1210335493087769,-0.8996145725250244,-0.15819524228572845,0.016590578481554985,-34,-71,-967,-903,-157,16,63,127,9,1500.0
17:32:45.865,BRAKE,-35.3631619,149.1654295,49976,0.002025485271587968,0.009506895206868649,1.1052898168563843,-0.5541740655899048,-0.00452663516625762,-0.00590956537052989,-14,-48,-1002,-557,-3,-5,29,55,0,1500.0
17:32:46.096,BRAKE,-35.3631612,149.165431,49978,-0.003743616631254554,0.009391608648002148,1.1039100885391235,-0.7942307591438293,0.007063961122184992,-0.004885524045675993,-11,-31,-1011,-793,8,-5,27,50,-2,1500.0
17:32:46.304,BRAKE,-35.3631612,149.165431,49978,-0.003743616631254554,0.009391608648002148,1.1039100885391235,-0.7942307591438293,0.007063961122184992,-0.004885524045675993,-11,-31,-1011,-793,8,-5,27,50,-2,1500.0
17:32:46.521,BRAKE,-35.3631612,149.165431,49978,-0.003743616631254554,0.009391608648002148,1.1039100885391235,-0.7942307591438293,0.007063961122184992,-0.004885524045675993,-11,-31,-1011,-793,8,-5,27,50,-2,1500.0
17:32:46.725,BRAKE,-35.3631612,149.165431,49978,-0.003743616631254554,0.009391608648002148,1.1039100885391235,-0.7942307591438293,0.007063961122184992,-0.004885524045675993,-11,-31,-1011,-793,8,-5,27,50,-2,1500.0
17:32:46.928,BRAKE,-35.3631612,149.165431,49978,-0.003743616631254554,0.009391608648002148,1.1039100885391235,-0.7942307591438293,0.007063961122184992,-0.004885524045675993,-11,-31,-1011,-793,8,-5,27,50,-2,1500.0
17:32:47.133,BRAKE,-35.3631612,149.165431,49978,-0.003743616631254554,0.009391608648002148,1.1039100885391235,-0.7942307591438293,0.007063961122184992,-0.004885524045675993,-11,-31,-1011,-793,8,-5,27,50,-2,1500.0
17:32:47.335,BRAKE,-35.3631612,149.165431,49978,-0.003743616631254554,0.009391608648002148,1.1039100885391235,-0.7942307591438293,0.007063961122184992,-0.004885524045675993,-11,-31,-1011,-793,8,-5,27,50,-2,1500.0
17:32:47.539,BRAKE,-35.3631612,149.165431,49978,-0.003743616631254554,0.009391608648002148,1.1039100885391235,-0.7942307591438293,0.007063961122184992,-0.004885524045675993,-11,-31,-1011,-793,8,-5,27,50,-2,1500.0
17:32:47.741,ALT_HOLD,-35.3631579,149.1654375,49976,0.013002757914364338,-0.002676595700904727,1.0957140922546387,0.8712131381034851,-0.008830062113702297,-0.016054516658186913,-8,23,-906,871,-7,-16,25,28,14,1500.0
17:32:47.944,ALT_HOLD,-35.3631562,149.1654401,49434,0.014807951636612415,-0.0034857308492064476,1.0909167528152466,1.7759997844696045,0.00477013411000371,-0.02116355486214161,-9,88,-895,1783,5,-21,29,25,134,1500.0
17:32:48.145,AUTO,-35.3631562,149.1654401,49434,0.014807951636612415,-0.0034857308492064476,1.0909167528152466,1.7759997844696045,0.00477013411000371,-0.02116355486214161,-9,88,-895,1783,5,-21,29,25,134,1500.0
17:32:48.347,AUTO,-35.3631562,149.1654401,49434,0.014807951636612415,-0.0034857308492064476,1.0909167528152466,1.7759997844696045,0.00477013411000371,-0.02116355486214161,-9,88,-895,1783,5,-21,29,25,134,1500.0
17:32:48.549,AUTO,-35.3631562,149.1654401,49434,0.014807951636612415,-0.0034857308492064476,1.0909167528152466,1.7759997844696045,0.00477013411000371,-0.02116355486214161,-9,88,-895,1783,5,-21,29,25,134,1500.0
17:32:48.751,AUTO,-35.3631562,149.1654401,49434,0.014807951636612415,-0.0034857308492064476,1.0909167528152466,1.7759997844696045,0.00477013411000371,-0.02116355486214161,-9,88,-895,1783,5,-21,29,25,134,1500.0
17:32:48.953,AUTO,-35.3631562,149.1654401,49434,0.014807951636612415,-0.0034857308492064476,1.0909167528152466,1.7759997844696045,0.00477013411000371,-0.02116355486214161,-9,88,-895,1783,5,-21,29,25,134,1500.0
17:32:49.169,AUTO,-35.3631562,149.1654401,49434,0.014807951636612415,-0.0034857308492064476,1.0909167528152466,1.7759997844696045,0.00477013411000371,-0.02116355486214161,-9,88,-895,1783,5,-21,29,25,134,1500.0
17:32:49.372,AUTO,-35.3631562,149.1654401,49434,0.014807951636612415,-0.0034857308492064476,1.0909167528152466,1.7759997844696045,0.00477013411000371,-0.02116355486214161,-9,88,-895,1783,5,-21,29,25,134,1500.0
17:32:49.605,AUTO,-35.3631562,149.1654401,49434,0.014807951636612415,-0.0034857308492064476,1.0909167528152466,1.7759997844696045,0.00477013411000371,-0.02116355486214161,-9,88,-895,1783,5,-21,29,25,134,1500.0
17:32:49.817,AUTO,-35.3631562,149.1654401,49434,0.014807951636612415,-0.0034857308492064476,1.0909167528152466,1.7759997844696045,0.00477013411000371,-0.02116355486214161,-9,88,-895,1783,5,-21,29,25,134,1500.0
17:32:50.020,AUTO,-35.3631543,149.1654447,47984,-0.014922058209776878,-0.008751417510211468,1.085668683052063,0.11262258142232895,-0.006888262461870909,-0.01711825095117092,-6,-1,-1140,-346,-9,-12,24,20,37,1500.0
17:32:50.225,AUTO,-35.3631539,149.1654468,47849,-0.012616247870028019,-0.009390616789460182,1.0853806734085083,0.7241988182067871,-0.0004724623868241906,-0.013239183463156223,-5,31,-1048,727,0,-13,29,23,14,1500.0
17:32:50.457,AUTO,-35.3631537,149.1654479,47816,-0.015851739794015884,-0.01308919582515955,1.0845805406570435,0.6647566556930542,-0.015125500038266182,-0.010240892879664898,-5,14,-1035,664,-13,-10,33,23,8,1500.0
17:32:50.690,AUTO,-35.3631537,149.1654479,47816,-0.015851739794015884,-0.01308919582515955,1.0845805406570435,0.6647566556930542,-0.015125500038266182,-0.010240892879664898,-5,14,-1035,664,-13,-10,33,23,8,1500.0
