time_stamp,MODE,RTL_ALT,roll,pitch,yaw,rollspeed,pitchspeed,yawspeed,lat,lon,relative_alt,vx,vy,vz,xacc,yacc,zacc,xgyro,ygyro,zgyro
13:23:49,STABILIZE,1500.0,-0.0003587998799048364,0.0012196442112326622,0.02703806199133396,0.0003132569254375994,0.00022422702750191092,0.0019879601895809174,-35.3632622,149.1652375,0.0,-1.0,1.0,0.0,0.0,1.0,-1000.0,0.0,0.0,0.0
13:24:03,STABILIZE,1500.0,-0.0007974525797180831,0.0009832518408074975,0.02223392389714718,0.00023885443806648254,0.0002929912297986448,0.001387046417221427,-35.3632622,149.1652375,0.0,-1.0,1.0,0.0,0.0,1.0,-1000.0,0.0,1.0,0.0
13:24:04,AUTO,164587.0,-0.0008737749449210241,0.000996873335679993,0.02188658621162176,0.0002677483862498775,0.0002881409600377083,0.0014922799018677324,-35.3632622,149.1652375,1.5,-1.0,1.0,0.0,0.0,1.0,-1000.0,0.0,0.5,0.75
13:24:05,AUTO,164587.0,-0.0007854145078454167,0.0010499132331460714,0.021648275665938854,0.00024098687572404742,0.00015463927411474288,0.0014228629297576845,-35.36326215,149.1652375,5.0,-0.5,0.5,-0.5,0.0,1.5,-1000.0,0.0,0.5,0.5
13:24:07,AUTO,200978.0,-0.0002859666492440738,0.0015200988273136318,0.021149718202650547,0.0004023060610052198,0.00027283953386358917,0.0014084908179938793,-35.3632621,149.1652375,9.0,0.0,0.0,-0.5,0.0,1.0,-1000.0,0.5,0.0,0.0
13:24:09,AUTO,237369.0,0.001543440856039524,0.0014382072258740664,0.01828479766845703,-0.01243636361323297,0.002072322298772633,-0.0027417211094871163,-35.36326205,149.1652375,1174.5,0.0,1.0,-134.5,0.0,0.0,-1044.5,-11.5,2.5,-3.0
13:24:10,AUTO,258794.0,0.012900718575110659,0.0007268976441991981,0.006460330216214061,0.034705687256064266,-0.004232379491440952,-0.001240226934896782,-35.363261975,149.165237525,2663.75,0.25,3.25,-148.75,0.0,0.0,-1003.0,34.75,-3.25,-1.25
13:24:11,AUTO,258794.0,0.04574180021882057,0.0004480064380913973,-0.023425566032528877,-0.02332487516105175,0.0482799937017262,-0.05518550088163465,-35.3632616,149.16523915,4208.0,6.0,32.0,-148.5,0.5,-4.0,-995.5,-22.5,49.0,-55.5
13:24:13,AUTO,132648.0,-0.06652390025556087,0.009846132241364103,-0.09947344660758972,-0.031739626079797745,0.028980886796489358,-0.06237855367362499,-35.36325985,149.16524679999998,7267.0,6.5,1.5,-148.0,0.0,-4.5,-1002.5,-31.5,29.0,-62.5
13:24:15,AUTO,6502.0,0.01707797357812524,0.029302675276994705,-0.14277231693267822,0.07671847566962242,0.002045960631221533,-0.00034222519025206566,-35.3632628,149.16523545,10331.5,-46.0,-65.0,-150.5,-2.0,18.5,-1004.5,76.5,2.5,-1.0
13:24:16,AUTO,59137.0,0.049958513118326664,-0.023631959222257137,-0.089601656422019,0.004537082277238369,-0.08779525756835938,0.09797480143606663,-35.363267324999995,149.16523052500003,11884.5,-46.0,-13.75,-152.0,4.75,11.25,-1002.0,5.25,-86.75,97.25
13:24:17,AUTO,59137.0,0.0703476294875145,-0.07990175113081932,-0.020156635509920307,0.003420388326048851,-0.0018255673348903656,0.03267499175854027,-35.36326855,149.16523165,13440.0,22.0,40.0,-149.0,1.5,-8.0,-992.5,4.0,-1.0,32.0
13:24:19,AUTO,171962.5,-0.06537945382297039,0.03409156668931246,-0.18119173496961594,-0.047763774171471596,0.014111366006545722,-0.059639791026711464,-35.3632571,149.1652407,16477.5,50.5,2.5,-152.0,-10.0,-11.5,-1006.0,-47.0,14.0,-59.5
13:24:21,AUTO,284788.0,0.027103298067231663,0.05854550190269947,-0.23264223337173462,0.07202009111642838,-0.014059752807952464,-0.001816589618101716,-35.36325815,149.1652327,19597.0,-65.5,-30.0,-151.0,4.0,15.0,-1002.0,72.0,-13.0,-2.0
13:24:22,AUTO,244226.0,0.08095830120146275,0.008905733178835362,-0.21477604657411575,0.009419282898306847,-0.10747216641902924,0.06629912543576211,-35.363264925,149.165232325,21137.5,-78.25,40.75,-149.75,17.5,8.25,-1002.0,10.5,-106.25,65.25
13:24:23,AUTO,244226.0,0.009739978238940239,-0.10066692903637886,-0.13517720252275467,-0.10434404946863651,-0.004815839231014252,0.012580879032611847,-35.3632683,149.16523955000002,22659.0,12.5,76.0,-147.5,10.5,-14.5,-1009.5,-103.0,-4.0,12.5
13:24:25,AUTO,156700.0,-0.08511169999837875,0.03096201177686453,-0.35669349133968353,0.05031982809305191,0.056552741676568985,-0.06373518705368042,-35.363257450000006,149.16523905,25683.0,34.0,-91.0,-149.5,-24.0,4.5,-1004.5,50.5,57.0,-63.0
13:24:27,AUTO,69174.0,0.06648065894842148,0.09278305247426033,-0.3974977433681488,0.08786952123045921,-0.020995417144149542,0.004428850137628615,-35.3632651,149.1652196,28738.0,-114.5,-25.0,-148.5,4.5,22.5,-1004.0,88.0,-20.5,4.5
13:24:28,AUTO,11319.0,0.13417194783687592,0.02181794377975166,-0.383402056992054,0.03019989375025034,-0.12679578736424446,0.05613735970109701,-35.363275699999996,149.16522307499997,30233.5,-109.75,101.5,-143.0,30.75,9.0,-1004.25,31.0,-125.0,55.75
13:24:29,AUTO,11319.0,0.06263753236271441,-0.15908515453338623,-0.2797478660941124,-0.14907315000891685,-0.08301442861557007,0.08987487386912107,-35.3632798,149.16523899999999,31670.5,31.5,161.0,-136.5,23.5,-29.0,-1009.5,-147.5,-82.5,89.0
13:24:31,AUTO,133218.0,-0.10149796679615974,0.03916654642671347,-0.4213862717151642,0.04405101574957371,0.16245758533477783,-0.02263189759105444,-35.36325265,149.16525035,34479.0,153.0,-80.0,-149.5,-37.5,-22.0,-1031.5,44.5,162.5,-22.0
13:24:33,AUTO,255117.0,0.012698507867753506,0.1569855660200119,-0.426410973072052,0.05010067950934172,-0.07025740668177605,0.05084693757817149,-35.363252200000005,149.16523185,37554.0,-148.5,-29.5,-137.5,11.5,30.0,-998.0,50.5,-69.5,50.5
13:24:34,AUTO,106253.0,0.0742314700037241,0.03335452079772949,-0.3554036542773247,0.054943486116826534,-0.15570678561925888,0.09924111142754555,-35.363268425,149.165234125,38942.0,-192.25,71.5,-140.0,39.0,28.25,-1024.5,55.5,-154.25,98.75
13:24:35,AUTO,106253.0,0.07717880420386791,-0.15128153190016747,-0.24973367154598236,-0.05539696678170003,-0.18139586597681046,0.13254192471504211,-35.363280950000004,149.1652466,40456.5,-64.0,136.0,-151.0,38.0,-10.0,-1015.0,-55.0,-180.0,132.0
13:24:37,AUTO,153615.0,-0.14589189738035202,-0.04698162525892258,-0.41993238031864166,-0.03852047026157379,0.1847124993801117,-0.11553843645378947,-35.363262000000006,149.1652606,43269.0,180.0,-83.0,-135.0,-40.0,-28.0,-1034.5,-37.5,185.0,-115.5
13:24:39,AUTO,200977.0,-0.003990553319454193,0.17439905554056168,-0.4670931249856949,0.16164735332131386,-0.12421002984046936,0.019234884821344167,-35.36325505,149.1652282,46191.5,-140.0,-117.5,-135.0,-9.0,41.5,-1002.5,162.0,-123.0,19.0
13:24:40,AUTO,268584.0,0.18326449394226074,-0.18543520756065845,-0.2892419248819351,0.10543888062238693,-0.28777134127449244,0.37400292232632637,-35.363269175,149.16522242500002,47465.75,-110.25,26.25,-104.25,23.0,23.75,-1001.5,106.5,-286.5,373.75
13:24:41,AUTO,268584.0,0.02556780818849802,-0.0733887329697609,-0.1379530280828476,0.019914813339710236,0.2556735724210739,-0.011048548854887486,-35.3632687,149.16523,48233.5,76.5,81.5,-51.5,0.0,-24.5,-969.0,20.5,256.0,-10.5
13:24:43,AUTO,195407.5,-0.03619502950459719,0.038380539044737816,-0.18810689449310303,-0.07846656441688538,-0.11812875419855118,-0.02698409464210272,-35.363258849999994,149.165239,48703.5,-4.0,-2.0,4.0,-0.5,-6.0,-967.5,-77.5,-116.5,-26.0
13:24:45,AUTO,122231.0,0.028448574244976044,-0.09803088381886482,-0.06868374720215797,-0.026038900017738342,-0.0256399093195796,0.12492291256785393,-35.3632585,149.1652348,48507.5,58.5,-12.0,8.5,-14.5,-3.0,-994.0,-25.0,-24.0,125.5
13:24:46,AUTO,152724.0,0.0245545688085258,-0.12733973190188408,0.10321743972599506,-0.13238709419965744,-0.03329753875732422,-0.02448355872184038,-35.363250525,149.16523214999998,48331.25,140.25,-2.25,23.0,-32.25,-23.25,-982.25,-131.75,-31.75,-23.5
13:24:47,AUTO,152724.0,0.03169700410217047,-0.15832291543483734,0.05745522305369377,0.05399402603507042,-0.024380730465054512,-0.017325694672763348,-35.363234199999994,149.16523005,47987.0,234.0,0.5,39.0,-49.0,-24.5,-979.5,55.5,-23.0,-16.5
13:24:49,AUTO,81698.5,0.049084559082984924,-0.14245953410863876,0.03396488633006811,0.46563162095844746,0.008263024967163801,0.0025268588215112686,-35.3631776,149.16522615,46734.0,392.0,-13.0,80.5,-78.5,-41.0,-970.5,466.5,8.5,3.0
13:24:51,AUTO,10673.0,0.055213021114468575,-0.11538925021886826,0.019997546449303627,0.2885475754737854,0.00854455679655075,-0.04256806569173932,-35.363101349999994,149.1652203,44824.5,455.0,-24.0,95.0,-98.0,-26.0,-992.0,291.0,9.0,-41.0
13:24:52,AUTO,273074.0,0.07522131316363811,-0.10676002874970436,0.013253754703328013,0.5866719954647124,-0.012925716349855065,0.005172036122530699,-35.3630605,149.1652166,43830.75,458.75,-25.0,95.0,-98.5,-54.0,-1001.25,587.25,-12.0,6.25
13:24:53,AUTO,273074.0,0.07306662201881409,-0.11488230898976326,0.008322858950123191,-0.7946421504020691,0.011967882048338652,0.06851162947714329,-35.363019449999996,149.16521219999998,42840.0,464.5,-24.0,96.0,-99.0,-114.5,-967.5,-793.5,12.0,69.5
13:24:55,AUTO,215078.0,0.10256751999258995,-0.05873211659491062,-0.002796015702188015,0.687251441180706,0.0738852433860302,-0.018447358161211014,-35.3629366,149.1652029,40871.0,452.5,-7.0,92.5,-91.5,-51.5,-972.5,688.0,74.0,-18.0
13:24:57,AUTO,157082.0,0.04211387876421213,0.04462918918579817,-0.008888871408998966,-1.1168068647384644,0.036434756591916084,0.021113962400704622,-35.36286715,149.1651988,39154.0,302.5,5.5,63.5,-58.0,-113.0,-1050.5,-1114.5,36.5,21.0
13:24:58,AUTO,292254.0,0.011093562468886375,0.08127877674996853,-0.0140854986384511,-0.2397139468230307,0.01071477512596175,-0.014660090208053589,-35.36284462500001,149.165199275,38594.75,188.75,2.75,37.5,-36.75,-24.75,-1044.0,-236.0,11.0,-13.75
13:24:59,AUTO,292254.0,0.005845146253705025,0.05332728289067745,-0.017877977341413498,-0.013109982013702393,-0.03902464918792248,-0.002035395707935095,-35.362832749999995,149.16519955,38314.5,92.0,-3.5,15.0,-18.0,-17.0,-1039.0,-11.0,-38.0,-2.0
13:25:01,AUTO,169102.0,0.009241073159500957,0.013355259550735354,-0.024461177177727222,0.05078801512718201,-0.013430428691208363,0.00022674660431221128,-35.3628257,149.16519805000001,38117.5,10.0,-3.5,0.5,-3.0,1.0,-1000.0,53.5,-12.5,0.5
13:25:03,RTL,45950.0,0.008439191384240985,-0.004627699498087168,-0.03206857666373253,-0.03213047981262207,-0.0006184857338666916,0.0003748857416212559,-35.3628249,149.1651963,38109.5,10.5,3.0,-1.0,-2.5,3.0,-995.0,-29.0,0.0,1.5
13:25:04,RTL,265861.0,0.007959251990541816,0.00957488571293652,-0.03440848086029291,0.015544641762971878,0.003009709354955703,0.0004807121295016259,-35.362823875000004,149.16519595,38158.75,8.75,7.0,-16.5,-1.25,0.5,-1028.75,19.0,3.0,1.0
13:25:05,RTL,265861.0,-0.0036868439783575013,0.008078766986727715,-0.036950016394257545,-0.1528894118964672,-0.002920504310168326,-0.0011677389265969396,-35.362823399999996,149.16519635,38533.0,1.0,7.0,-58.0,0.5,-2.0,-1045.0,-148.5,-2.0,0.0
13:25:07,RTL,268087.5,-2.108793705701828e-05,0.001240873767528683,-0.04109504632651806,0.008485632948577404,-0.0043252723990008235,-0.0012996717414353043,-35.3628234,149.16519775,40606.0,-3.0,-0.5,-137.0,0.5,-1.5,-1023.5,12.0,-4.0,-1.0
13:25:09,RTL,270314.0,-0.030010760761797428,0.01501821493729949,-0.09399688616394997,-0.1040562205016613,0.04377252236008644,-0.07873988710343838,-35.3628224,149.16520365000002,43613.0,3.0,26.5,-146.0,3.0,-9.0,-1000.5,-100.5,44.5,-78.0
13:25:10,RTL,171871.0,-0.07868055626749992,0.0031124215747695416,-0.12900258414447308,0.0339137886185199,-0.006018995423801243,-0.01547592761926353,-35.3628223,149.16520524999999,45132.25,-10.75,-33.5,-147.75,-1.0,2.5,-1001.75,36.25,-5.25,-14.5
13:25:11,RTL,171871.0,-0.020082636270672083,0.005786250112578273,-0.13557623326778412,0.06394427642226219,0.008901485009118915,-0.0007429545512422919,-35.3628232,149.16520045,46672.0,-19.5,-63.5,-148.5,-5.0,11.0,-1002.5,66.0,9.0,0.0
13:25:13,RTL,202555.0,0.03066350519657135,-0.03733695670962334,-0.07652347534894943,-0.037381820380687714,-0.007145491428673267,0.03710658475756645,-35.3628253,149.165194,49205.0,-7.0,-11.0,-150.0,-1.0,2.0,-995.0,-34.0,-6.0,37.0
13:25:15,RTL,233239.0,-0.0064928107894957066,0.024676420725882053,-0.11205226182937622,0.022385997232049704,0.006400506477802992,0.08782668597996235,-35.3628228,149.16519145,52879.0,-10.0,-26.5,-149.5,-3.0,3.0,-999.0,24.5,6.5,89.5
13:25:16,RTL,211718.0,0.035094987135380507,0.0036995455157011747,-0.032374901697039604,0.021373067051172256,-0.04190994496457279,0.026968849590048194,-35.362823675,149.16518982500003,54401.75,-23.0,-2.75,-144.25,1.5,2.75,-994.25,23.75,-40.5,27.75
13:25:17,RTL,211718.0,0.019410806708037853,-0.005339784612260701,-0.03935510478913784,-0.035031309351325035,0.008284107083454728,-0.006494342000223696,-35.36282435,149.165192,55871.5,-7.5,29.0,-142.0,4.0,-5.5,-1000.5,-32.5,8.5,-5.5
13:25:19,RTL,166701.0,-0.016979292035102844,0.008322529727593064,-0.04480958916246891,0.001272877911105752,-0.004427651292644441,-0.002657832228578627,-35.36282345,149.16519845,58851.0,-1.5,12.0,-147.5,1.0,-3.5,-1002.0,3.5,-3.5,-1.0
13:25:21,RTL,121684.0,-0.006943190703168511,0.0029434949392452836,-0.04978404566645622,0.005825036438181996,-0.0015483187744393945,-0.0027179053286090493,-35.3628233,149.16519935,61912.5,-5.0,-6.0,-148.5,0.0,0.5,-999.0,7.5,0.0,-1.0
13:25:22,RTL,107219.0,-0.003296734648756683,0.002139714313670993,-0.05225036758929491,0.0031959625193849206,0.000908652029465884,-0.0020193952950648963,-35.362823375,149.16519879999998,63434.75,-5.0,-7.0,-148.0,0.0,1.0,-1000.75,5.0,2.0,-0.75
13:25:23,RTL,107219.0,0.007207806687802076,0.0009180039050988853,-0.053438879549503326,0.047814927995204926,-0.005459648557007313,0.00015001592691987753,-35.3628234,149.1651984,64387.0,-5.0,-5.0,-151.0,0.0,1.0,-1009.0,49.0,-4.0,1.0
13:25:25,RTL,118981.5,-0.025159286335110664,0.004603506997227669,-0.09931337088346481,-0.05396323278546333,-0.006020270753651857,-0.033794302493333817,-35.3628229,149.1652026,67487.0,0.0,26.0,-151.0,3.0,-6.0,-1003.0,-51.0,-4.0,-32.0
13:25:27,RTL,130744.0,-0.04466696083545685,0.0070523424074053764,-0.14879469573497772,0.06816381216049194,0.014414585195481777,-0.005533645860850811,-35.3628231,149.1651984,70566.0,-17.0,-74.0,-149.0,-5.0,14.0,-1002.0,70.0,15.0,-4.0
13:25:28,RTL,12385.0,0.04577889256179333,-0.002312884293496609,-0.152078115940094,0.06396794468164443,-0.05498797316104174,0.00528730396181345,-35.362826000000005,149.16518932,72509.6,-32.2,-44.0,-153.2,-3.4,12.8,-1003.2,65.8,-53.6,6.4
13:25:29,RTL,12385.0,0.08152329176664352,-0.06276534497737885,-0.14174187183380127,0.029539819806814194,-0.04657597094774246,0.06641931086778641,-35.3628276,149.1651872,73684.0,-5.0,7.0,-152.0,1.0,2.0,-1000.0,31.0,-44.0,67.0
13:25:31,RTL,11663.0,-0.04842674359679222,0.05060041882097721,-0.17600301653146744,-0.007405375130474567,-0.016252226661890745,0.07286223582923412,-35.362820150000005,149.1651985,77299.0,-1.5,21.0,-151.5,3.0,-6.5,-1003.5,-5.0,-14.0,74.0
13:25:33,RTL,10941.0,-0.01053795125335455,-0.0153775904327631,-0.022968584671616554,0.05517929792404175,-0.05922204628586769,0.021476266905665398,-35.362824,149.1651981,79808.0,-38.0,-22.0,-150.0,6.0,8.0,-998.0,57.0,-57.0,22.0
13:25:34,RTL,63689.0,0.012848705053329468,-0.022444093599915504,-0.03169088289141655,-0.002274418901652098,0.019818438682705164,-0.004927324550226331,-35.362825980000004,149.16519636,81708.2,-1.6,-4.4,-147.4,-0.4,1.6,-999.6,0.0,21.0,-3.4
13:25:35,RTL,63689.0,0.007491531781852245,-0.006020668428391218,-0.03407074138522148,-0.007827416062355042,0.018554281443357468,-0.003929515369236469,-35.3628256,149.1651962,82841.0,10.0,4.0,-148.0,-1.0,-1.0,-1002.0,-5.0,20.0,-2.0
13:25:37,RTL,111099.5,-0.0026348826941102743,0.0076369415037333965,-0.040612369775772095,-0.0029545172583311796,-0.0033634472638368607,-0.004209521226584911,-35.3628237,149.1651971,85875.0,1.0,3.0,-148.0,0.0,-2.0,-999.0,0.0,-1.0,-2.0
13:25:39,RTL,158510.0,0.04888356104493141,-0.005636265035718679,-0.042317453771829605,0.0396123006939888,-0.012622261419892311,0.002945069456472993,-35.3628233,149.1651986,88952.0,1.0,27.0,-152.0,1.0,-4.0,-999.0,41.0,-10.0,4.0
13:25:40,RTL,52241.0,-0.05950744247529656,0.009403044154169038,-0.10546138882637024,-0.08494765609502793,-0.011888765171170235,-0.045952069014310835,-35.362822539999996,149.165204,90860.6,0.0,23.4,-149.4,4.0,-7.0,-1005.6,-82.6,-9.6,-43.8
13:25:41,RTL,52241.0,-0.07343531399965286,-0.0013962234370410442,-0.13062191009521484,0.05314535275101662,-0.002808765973895788,-0.01858399622142315,-35.3628224,149.1652044,92019.0,-7.0,-33.0,-151.0,-2.0,4.0,-1000.0,55.0,0.0,-17.0
13:25:43,RTL,94836.5,0.05610843375325203,0.011730935424566269,-0.13868457078933716,0.06305339187383652,-0.0013724627206102014,0.004610042087733746,-35.3628252,149.1651929,95129.0,-24.0,-25.0,-154.0,-1.0,10.0,-1003.0,65.0,0.0,6.0
13:25:45,RTL,137432.0,-0.04638877883553505,0.0036521649453788996,-0.13887697458267212,0.01763845793902874,0.03788283094763756,-0.07467111945152283,-35.3628241,149.1651948,98213.0,28.0,-5.0,-151.0,-5.0,-4.0,-1006.0,19.0,39.0,-72.0
13:25:46,RTL,115575.0,0.008011762890964747,0.021995750814676286,-0.1871687263250351,0.04683196991682052,0.008900558017194271,-0.016844258271157743,-35.36282232,149.16519172,100167.4,0.6,-22.4,-153.0,-4.8,2.8,-1000.6,48.4,10.2,-14.4
13:25:47,RTL,115575.0,0.04001354053616524,0.023365095257759094,-0.19492773711681366,0.032413020730018616,-0.02114974893629551,0.009333358146250248,-35.3628225,149.1651903,101347.0,-14.0,0.0,-153.0,0.0,2.0,-999.0,34.0,-18.0,11.0
13:25:49,RTL,61396.0,-0.014925087802112103,-0.005280944984406233,-0.22172081470489502,-0.023105906322598457,-0.0012746191350743175,-0.04297958314418793,-35.3628238,149.1651964,104440.0,0.0,31.0,-152.0,5.0,-5.0,-1002.0,-20.0,0.0,-41.0
13:25:51,RTL,7217.0,0.0026204611640423536,0.007149078242946416,-0.30007337033748627,-0.025129763409495354,0.03852446470409632,-0.06406407430768013,-35.36282315,149.16519895,107372.5,6.0,6.0,-152.0,0.0,-2.0,-998.0,-22.5,40.0,-61.5
13:25:52,RTL,9063.0,-0.01645209304988384,0.00284683977952227,-0.33858640789985656,0.010971930716186762,-0.0075588074512779714,-0.010236886329948902,-35.36282315999999,149.16519892,109498.6,-8.0,-7.0,-152.0,0.0,1.6,-1000.6,13.2,-5.0,-8.0
13:25:53,RTL,9063.0,-0.005641371943056583,-0.001851242850534618,-0.34438976645469666,-0.001500834827311337,-0.004429217427968979,-0.0036899857223033905,-35.3628237,149.165198,110666.0,-10.0,-13.0,-152.0,-1.0,3.0,-997.0,0.0,-2.0,-2.0
13:25:55,RTL,148715.0,0.010426401626318693,-0.0015135736321099102,-0.2392355352640152,-0.001503923092968762,-0.005117950029671192,0.07522675767540932,-35.3628253,149.1651953,113574.0,-8.0,-3.5,-151.0,0.0,1.5,-1000.0,1.0,-2.5,76.5
13:25:57,RTL,288367.0,0.009798772633075714,-0.004980467958375812,-0.17181841284036636,-0.018148179166018963,0.001599149196408689,-0.00403636647388339,-35.36282545,149.16519585,116680.0,5.0,13.5,-152.0,0.0,-2.5,-999.5,-15.5,3.0,-2.0
13:25:58,RTL,178987.0,-0.009087052545510232,0.0006881571680423804,-0.19509176909923553,-0.005666825920343399,0.005957964109256864,-0.023316603153944016,-35.362824275,149.1651973,118616.25,8.5,6.5,-152.0,-0.5,-2.5,-1000.5,-3.5,7.75,-21.25
13:25:59,RTL,178987.0,-0.006723584141582251,0.004047019639983773,-0.21215545386075974,0.023238434921950102,0.001482579333242029,-0.017556275241076946,-35.3628236,149.1651975,119786.5,5.5,-0.5,-152.5,-1.0,-0.5,-1002.0,25.0,3.0,-15.5
13:26:01,RTL,178987.0,-0.014667442068457603,0.0042631811229512095,-0.2462657243013382,0.0061690835282206535,-0.0018379312823526561,-0.015164390206336975,-35.3628229,149.16519775,122893.5,-3.5,-2.5,-152.0,0.0,0.0,-1001.0,8.0,0.5,-12.5
13:26:02,RTL,96568.0,-0.007981058093719184,0.008528090984327719,-0.23267080634832382,-0.004166789061855525,0.014100102707743645,0.08065991522744298,-35.362823425,149.16519655000002,124988.0,-9.25,-8.75,-150.0,0.0,2.25,-997.0,-1.75,16.0,82.25
13:26:03,RTL,96568.0,-0.005917867412790656,0.010398359037935734,-0.14546914398670197,0.009707145858556032,-0.019779356196522713,0.12313537672162056,-35.36282425,149.1651956,126136.0,-18.0,-11.0,-150.5,0.0,4.0,-1002.5,11.5,-17.0,124.5
13:26:05,RTL,287482.0,0.00842062383890152,-0.014929621014744043,0.03276768792420626,0.009274384239688516,-0.0033392379991710186,0.057686179876327515,-35.3628266,149.1651937,129234.0,-1.5,-0.5,-151.5,0.0,0.5,-1001.5,11.0,-1.0,59.5
13:26:07,RTL,287482.0,0.0073881789576262236,0.0008266184158856049,0.08862654864788055,-0.00347783078905195,0.006277511129155755,-0.0065439516911283135,-35.3628248,149.16519515,132328.0,12.0,14.5,-150.0,-1.5,-4.0,-999.0,-1.0,8.0,-4.5
13:26:08,RTL,261213.0,-0.0016900417540455237,0.007757806568406522,0.06755244173109531,-0.006110026966780424,0.003534544463036582,-0.0170012884773314,-35.362823399999996,149.16519695,134252.0,6.0,12.0,-150.0,-0.25,-3.5,-1000.0,-3.25,5.25,-14.25
13:26:09,RTL,261213.0,-0.004935890669003129,0.007928175386041403,0.05479693040251732,-0.0015464883763343096,-0.0007372359395958483,-0.01524704834446311,-35.362822949999995,149.1651977,135405.0,1.0,7.0,-150.0,0.0,-2.0,-1000.0,1.0,1.0,-12.5
13:26:11,RTL,284761.0,-0.0028713911306113005,0.0020055543282069266,0.028566278517246246,0.003479533246718347,-0.001202311657834798,-0.007812756346538663,-35.3628229,149.16519814999998,138474.5,-4.0,-1.5,-149.5,0.0,0.0,-998.5,5.5,0.5,-5.5
13:26:13,RTL,284761.0,0.000534453422005754,0.004731058405013755,0.009218018967658281,0.0024022471625357866,0.03118226770311594,-0.0072138323448598385,-35.3628234,149.16519745,141516.5,-3.5,-1.5,-149.0,0.0,0.5,-1000.0,4.5,33.0,-4.5
13:26:14,RTL,47621.0,0.020366120792459697,0.040962327271699905,-4.156318073000875e-05,0.03935812070267275,-0.01094022742472589,-0.003374978667125106,-35.362825300000004,149.165197425,143435.5,-37.5,7.5,-150.5,5.75,2.25,-1002.75,41.5,-8.25,-1.25
13:26:15,RTL,47621.0,0.028736642561852932,0.04388558026403189,-0.028808537870645523,-0.09544174186885357,0.09980139322578907,-0.15231342613697052,-35.3628283,149.16519875,144589.5,-56.5,33.0,-148.5,12.0,1.0,-989.5,-92.5,102.0,-149.5
13:26:17,RTL,217688.0,-0.01713628973811865,0.16113807260990143,-0.002905507164541632,0.06352627091109753,-0.051785726100206375,-0.0206534038297832,-35.362858200000005,149.16520094999998,146787.5,-305.0,-14.0,-41.5,48.0,30.0,-915.5,65.5,-49.0,-18.0
13:26:19,RTL,217688.0,-0.05042090453207493,0.14685317128896713,-0.030022460967302322,-0.16250842809677124,0.018397539854049683,0.010419500526040792,-35.3629256,149.16520595,146710.0,-438.5,44.0,7.5,88.5,47.5,-1008.0,-160.0,20.5,12.5
13:26:20,RTL,198866.0,-0.0667677316814661,0.14995300024747849,-0.03591671213507652,-0.050437310710549355,-0.009709223551908508,-0.002449354389682412,-35.36297855,149.1652125,146687.75,-504.5,42.75,-4.0,101.75,55.5,-996.75,-47.75,-7.0,0.0
13:26:21,RTL,198866.0,-0.06895842030644417,0.13051072508096695,-0.03774596191942692,0.04881623759865761,-0.036395774222910404,-0.007281745900399983,-35.3630135,149.1652161,146713.0,-533.0,40.0,-4.5,112.0,60.5,-994.0,51.0,-33.5,-5.0
13:26:23,RTL,178656.0,-0.07311150804162025,0.08044261485338211,-0.04451029933989048,-0.247602179646492,-0.05100142955780029,-0.021118092816323042,-35.36311045,149.1652245,146725.0,-532.5,37.5,-3.0,105.0,50.0,-994.5,-245.0,-48.0,-18.5
13:26:25,RTL,178656.0,-0.049797480925917625,-0.022419593296945095,-0.04805098474025726,-0.0018260478973388672,-0.06164189428091049,-0.02616126276552677,-35.363197099999994,149.16523125,146747.0,-403.5,27.5,0.5,82.0,39.0,-998.5,0.0,-58.5,-23.5
13:26:26,RTL,159149.0,-0.029834705870598555,-0.07813786901533604,-0.05094256717711687,0.39163394272327423,-0.014080353314056993,0.01522428885800764,-35.3632347,149.16523345000002,146729.5,-258.0,19.0,0.5,51.5,60.25,-1012.5,394.75,-11.5,17.5
13:26:27,RTL,159149.0,-0.009012306109070778,-0.08306322246789932,-0.053612763062119484,-0.3659289269708097,-0.010187669191509485,-0.010469942819327116,-35.3632497,149.16523365,146719.0,-169.0,15.0,0.5,31.5,-3.0,-1005.0,-363.5,-7.5,-7.5
13:26:29,RTL,14261.0,0.013648725114762783,-0.039346322417259216,-0.05775358900427818,0.46142393350601196,0.016739971470087767,0.007211030926555395,-35.36326575,149.1652337,146706.5,-23.0,20.5,0.0,5.5,35.0,-1014.0,465.0,18.5,10.0
13:26:31,RTL,14261.0,0.012600675225257874,0.0038917046040296555,-0.06075059808790684,-0.31375689432024956,-0.017039342084899545,-0.0033961113076657057,-35.36326665,149.1652345,146718.5,5.5,21.5,0.0,0.5,-24.0,-1003.0,-311.0,-14.5,-1.0
13:26:32,RTL,111400.0,0.010030162578914315,-0.009970741579309106,-0.06424735859036446,0.07089733332395554,0.003013723180629313,-0.006801687995903194,-35.363266325,149.165235425,146717.0,10.75,18.25,-0.5,-0.5,-7.0,-1008.5,74.0,4.75,-3.75
13:26:33,RTL,111400.0,0.008524338714778423,-0.006487246602773666,-0.06540858745574951,0.22915154695510864,0.0052576991729438305,-0.004139501485042274,-35.3632658,149.1652357,146719.0,14.5,15.5,0.0,-1.5,17.0,-1007.0,234.0,7.0,-1.5
13:26:35,RTL,164767.0,0.003763251006603241,0.0017766882665455341,-0.07032468169927597,-0.35040754871442914,0.0012921764282509685,-0.004839674569666386,-35.3632639,149.16523645,146716.5,11.0,10.5,0.0,1.0,-27.0,-999.0,-347.0,3.0,-2.0
13:26:37,RTL,164767.0,-0.02544824779033661,0.0006588848045794293,-0.07451077923178673,-1.2921496629714966,-0.0010993608739227057,-0.00027571292594075203,-35.363262950000006,149.1652383,146409.5,4.5,-0.5,61.0,-0.5,-46.5,-946.0,-1287.5,1.0,2.0
13:26:38,RTL,135165.0,-0.01930669415742159,-0.0007566120038973168,-0.07659460790455341,-1.4685257971286774,-0.0005318507901392877,-0.005132786987815052,-35.3632627,149.165238425,145236.75,2.0,-6.75,108.75,-0.25,-62.0,-993.5,-1464.5,1.25,-2.5
13:26:39,RTL,135165.0,-0.02472273726016283,0.00035301849857205525,-0.07725334912538528,-1.3306311964988708,0.003094736603088677,-0.005956939654424787,-35.3632626,149.16523855,144417.0,2.0,-6.5,101.5,1.0,-46.0,-1018.5,-1326.5,5.0,-3.0
13:26:41,RTL,41733.0,-0.024896087124943733,-0.0012013851082883775,-0.0801461860537529,-1.1621083617210388,-0.004967054119333625,-0.0038752801483497024,-35.3632623,149.1652401,142384.0,0.0,-19.5,94.5,0.5,-66.0,-1033.0,-1159.5,-2.0,-1.5
13:26:43,RTL,41733.0,-0.01897484390065074,-0.0014579278067685664,-0.08256972208619118,-0.7622621059417725,0.00021733419271185994,-0.0032041773665696383,-35.3632623,149.1652405,140469.5,0.0,-27.0,105.0,0.0,-72.0,-952.0,-761.0,1.5,-0.5
13:26:44,RTL,167306.0,-0.010646497248671949,-0.0014565938181476668,-0.08444112725555897,-0.011977259069681168,-0.0022855843417346478,-0.004119256482226774,-35.363262250000005,149.16524065,139208.75,0.0,-25.5,95.25,0.0,-35.0,-998.75,-11.75,-0.25,-2.0
13:26:45,RTL,167306.0,-0.007755591068416834,-0.0018079229048453271,-0.08351561427116394,-0.13923488184809685,0.005508601199835539,-0.0011819927021861076,-35.3632622,149.16524055000002,138491.0,0.0,-26.5,101.5,-1.0,-44.0,-963.0,-138.5,7.0,1.0
13:26:47,RTL,251447.0,0.017355070915073156,-0.004869513446465135,-0.08683351427316666,0.4937397986650467,-0.0007837200537323952,-0.005995617830194533,-35.3632623,149.16523840000002,136445.0,0.0,-19.0,103.0,-2.5,-20.0,-1006.0,494.0,0.5,-3.5
13:26:49,RTL,251447.0,0.01454924140125513,0.000506830278027337,-0.0867478959262371,1.3424468636512756,0.003550228546373546,0.004558056825771928,-35.3632624,149.16523745,134368.5,3.0,0.0,101.0,1.5,41.0,-1028.0,1343.5,5.0,7.5
13:26:50,RTL,280009.0,0.004775761402925127,0.000506014900338414,-0.08828606829047203,1.4290721714496613,-0.0042776075133588165,0.00018689336138777435,-35.3632622,149.1652384,133086.5,0.75,-4.5,108.25,0.5,56.0,-1002.25,1430.75,-2.0,2.25
13:26:51,RTL,280009.0,0.008288061013445258,-0.0015021432773210108,-0.08879802003502846,1.1507280468940735,2.0903069525957108e-05,0.004122383892536163,-35.363262250000005,149.16523855,132282.0,0.0,-7.5,105.0,0.0,43.5,-1050.0,1152.0,1.5,6.0
13:26:53,RTL,197758.0,0.02013702690601349,-0.004837992135435343,-0.09048016741871834,1.1263641119003296,0.0035001166397705674,0.0038659677375108004,-35.36326245,149.16523734999998,130230.0,1.5,-2.5,98.0,-2.0,61.5,-1112.5,1128.5,5.0,6.0
13:26:55,RTL,197758.0,0.052789684385061264,-0.006061791907995939,-0.0917905680835247,1.4692708849906921,0.012511709704995155,-0.0007737544365227222,-35.3632627,149.1652341,128281.0,2.5,14.5,107.0,-3.0,76.0,-1007.5,1472.0,14.0,2.0
13:26:56,RTL,60964.0,0.04742272570729256,-0.003933804749976844,-0.09172660112380981,1.067582756280899,0.0021646934328600764,0.004499345785006881,-35.363262775,149.1652319,127010.5,5.0,37.5,102.5,-2.5,75.25,-997.25,1071.75,3.75,7.0
13:26:57,RTL,60964.0,0.05128525570034981,-0.0029497541254386306,-0.09217303618788719,1.174962043762207,-0.002358124009333551,0.00923178589437157,-35.3632628,149.1652311,126266.5,6.0,47.0,106.0,-1.5,76.0,-1032.5,1178.5,-0.5,12.0
13:26:59,RTL,152686.0,0.03380716219544411,0.004067864385433495,-0.09084037318825722,0.9667961597442627,0.002802728908136487,0.0063019017688930035,-35.363262649999996,149.165231,124210.0,7.0,59.0,102.5,4.0,62.5,-1004.5,972.5,4.5,8.5
13:27:01,RTL,152686.0,-0.05060882866382599,0.008431921247392893,-0.09187536686658859,-0.3918003812432289,-0.007069437066093087,0.000989507301710546,-35.36326175,149.16523855000003,122149.5,-0.5,17.0,104.0,4.5,17.0,-1006.5,-385.0,-4.5,3.5
13:27:02,RTL,57965.0,-0.03899300564080477,-0.0028789752614102326,-0.09248735569417477,-0.933626651763916,-0.013270667404867709,0.00800704990979284,-35.363261949999995,149.165240075,120828.25,-3.75,-11.0,108.5,0.0,-8.25,-1005.5,-927.75,-10.75,10.5
13:27:03,RTL,57965.0,-0.024042918346822262,-0.005961003480479121,-0.09314092993736267,-0.6369215846061707,-0.00014666991773992777,0.010382368229329586,-35.363262250000005,149.16523975,120014.5,-2.5,-14.5,101.0,-0.5,6.5,-987.0,-630.5,2.0,12.5
13:27:05,RTL,9860.0,-0.0320169972255826,6.989663540934998e-05,-0.09251241013407707,-1.0159874260425568,-0.004470476065762341,0.011196628503967077,-35.36326235,149.16523925,117946.0,1.0,-10.5,104.5,0.0,-10.0,-961.0,-1010.5,-2.0,13.5
13:27:07,RTL,9860.0,-0.04088051989674568,0.0006182023207657039,-0.09327798336744308,-1.1889792680740356,-0.0029338831081986427,0.0009229271672666073,-35.36326205,149.16524040000002,115782.0,-1.0,-21.5,100.5,0.0,-27.5,-996.5,-1184.5,-0.5,3.0
13:27:08,RTL,75196.0,-0.028140009846538305,-0.000693523576046573,-0.09338355623185635,-1.0168810933828354,-0.0016662698180880398,0.00042552052764222026,-35.363262,149.16524065000002,114558.5,-2.0,-25.0,81.5,-0.75,-49.25,-1040.75,-1013.5,0.0,3.0
13:27:09,RTL,75196.0,-0.0333089753985405,-0.0017408926505595446,-0.09378968179225922,-0.4408216029405594,-0.00632143160328269,0.009645648766309023,-35.363262,149.16524055000002,113969.0,-2.0,-24.5,84.5,-2.5,17.0,-941.5,-436.0,-4.0,12.0
13:27:11,RTL,40136.0,-0.0038158487586770207,-0.006005202187225223,-0.09433338046073914,-0.5854405909776688,0.0003000865690410137,-0.006241313181817532,-35.3632623,149.16523745,111940.0,-1.0,-11.0,99.0,-5.0,13.0,-954.5,-580.0,2.0,-3.5
13:27:13,RTL,40136.0,0.018766799941658974,-0.003960488946177065,-0.0950121134519577,-1.3998766541481018,0.01118754642084241,-0.008715260308235884,-35.36326255,149.16523335,109616.5,2.0,21.0,100.0,-3.5,-57.0,-996.0,-1396.0,12.5,-5.0
13:27:14,RTL,161748.0,0.020768886199221015,0.0020017441056552343,-0.09401522018015385,-0.8402154054492712,0.0033992573444265872,-0.0014950912445783615,-35.363262425,149.16523225,108384.75,3.5,38.75,79.25,-0.5,-21.5,-1034.0,-835.0,4.75,1.0
13:27:15,RTL,161748.0,0.02084815688431263,0.0046978124883025885,-0.09397844970226288,0.5259484350681305,-0.007149359444156289,0.009389081038534641,-35.363262250000005,149.1652327,107824.0,3.0,42.5,80.5,1.0,59.0,-946.0,531.5,-4.5,12.0
13:27:17,RTL,254214.0,0.021684465929865837,0.0004040777785121463,-0.09473422914743423,0.3665286526083946,-0.0008010162273421884,-0.020014124223962426,-35.36326215,149.16523304999998,105811.5,0.0,37.5,103.0,0.5,44.5,-969.0,373.5,1.5,-17.0
13:27:19,RTL,254214.0,-0.00026559329126030207,0.005480916239321232,-0.09425441920757294,-1.5071427822113037,0.004940619925037026,-0.0017232740065082908,-35.36326205,149.16523404999998,103696.5,0.0,35.5,96.0,3.0,-63.5,-1012.5,-1501.5,6.5,1.0
13:27:20,RTL,115375.0,0.00600606996431452,0.003917833149898797,-0.09465277567505836,-1.02882120013237,-0.0006308953743427992,-0.003479015314951539,-35.363262,149.165235375,102395.5,-1.0,23.0,106.25,1.5,-74.25,-993.25,-1024.75,1.25,-0.25
13:27:21,RTL,115375.0,0.009907116182148457,0.002479166490957141,-0.09593869000673294,-0.08910693228244781,-0.0026675387052819133,-0.011968930717557669,-35.363262,149.16523610000002,101499.5,-1.5,18.0,108.5,2.5,-49.0,-958.5,-85.5,-0.5,-8.0
13:27:23,RTL,282546.0,0.0048148909118026495,0.000797191372839734,-0.09572147950530052,0.42021292448043823,-0.001879311166703701,0.004755385336466134,-35.363262,149.16523815,99390.0,-1.0,2.0,95.0,0.5,-17.0,-1022.5,424.0,0.0,7.5
13:27:25,RTL,282546.0,0.0008341472466781852,-0.0031620862428098917,-0.09526247531175613,-1.312113344669342,-0.004079204751178622,0.005925395176745951,-35.3632623,149.16523734999998,97612.5,-0.5,-1.5,96.5,-1.5,-75.5,-954.0,-1307.0,-2.0,8.5
13:27:26,RTL,236004.0,0.004649951297324151,0.0005190965821384452,-0.09430514834821224,-1.2739935964345932,0.008001038921065629,-0.006121510989032686,-35.3632623,149.1652362,96317.75,0.5,5.25,102.5,0.75,-74.5,-992.5,-1269.0,9.5,-2.5
13:27:27,RTL,236004.0,-0.013526656664907932,0.0038634254597127438,-0.09427834674715996,-1.4658804535865784,0.006078823935240507,-0.008430478861555457,-35.3632622,149.16523665,95492.5,1.0,7.0,104.0,3.0,-73.0,-1024.0,-1460.5,7.5,-4.5
13:27:29,RTL,195511.0,-0.046809447929263115,0.005712073529139161,-0.09530750289559364,-1.1801853775978088,-0.0022159190848469734,-0.009727910161018372,-35.36326165,149.1652411,93439.5,-3.0,-18.5,99.0,4.0,-73.0,-1020.5,-1176.0,0.0,-6.0
13:27:31,RTL,195511.0,-0.04928017966449261,-0.0011199196451343596,-0.09485353529453278,-1.445142388343811,-0.007503611966967583,-0.005162645131349564,-35.36326175,149.1652429,91493.5,-5.0,-43.0,103.0,0.5,-65.5,-994.5,-1440.5,-5.0,-2.0
13:27:32,RTL,172999.0,-0.04221287090331316,-0.002792549377772957,-0.09527328424155712,-1.232339322566986,-0.00290697836317122,0.0021659143385477364,-35.363261875,149.16524264999998,90235.25,-4.75,-46.25,96.0,-1.75,-44.75,-1017.75,-1227.75,-0.5,5.25
13:27:33,RTL,172999.0,-0.04121348448097706,-0.003155199927277863,-0.09496313706040382,-1.116021752357483,0.0022589373402297497,-0.006069838767871261,-35.3632619,149.16524195,89518.5,-4.0,-42.0,100.5,-4.5,-15.5,-1031.5,-1110.5,4.0,-2.5
13:27:35,RTL,104087.0,-0.02877033594995737,-0.0012389328330755234,-0.09508687257766724,-1.5445131659507751,0.006028677802532911,0.0024138446897268295,-35.363262,149.16523890000002,87469.0,-1.5,-20.5,104.5,-3.5,-25.0,-950.0,-1539.0,8.5,5.5
13:27:37,RTL,104087.0,-0.01354585262015462,0.0031390857184305787,-0.0948912501335144,-1.1883227825164795,0.004400271573103964,-0.004221112350933254,-35.3632619,149.1652386,85296.0,-1.5,-12.0,99.0,2.5,-78.0,-989.5,-1186.0,6.0,-1.0
13:27:38,RTL,150690.0,-0.022103247931227088,0.004523536306805909,-0.09475084953010082,-0.49960613902658224,0.0024669989361427724,-0.005082450923509896,-35.36326175,149.165240225,84015.75,-2.5,-17.75,103.75,3.75,-59.0,-962.75,-498.25,4.5,-1.75
13:27:39,RTL,150690.0,-0.0428827740252018,0.004477134672924876,-0.0944993607699871,-0.8761785924434662,0.0005969407502561808,-0.01926851738244295,-35.3632617,149.1652416,83221.5,-3.5,-28.5,100.5,4.5,-72.5,-977.5,-874.5,3.0,-15.5
13:27:41,RTL,22037.0,-0.0452401302754879,0.0016016887966543436,-0.09431715309619904,-0.7253049314022064,0.004830201272852719,0.0014845968689769506,-35.3632615,149.1652444,81154.5,-7.0,-55.0,101.0,1.5,-67.5,-997.0,-724.5,6.5,4.5
13:27:43,RTL,22037.0,-0.05349082313477993,0.002055908727925271,-0.09485054761171341,-0.4660837948322296,-0.003912058542482555,-0.017254298087209463,-35.3632615,149.1652459,79181.0,-7.0,-69.0,97.5,2.0,-63.5,-947.5,-467.0,-1.0,-13.5
13:27:44,RTL,235230.0,-0.04382514301687479,-0.001913022220833227,-0.09568987600505352,-0.20351062342524529,-0.003025905811227858,0.0012081070453859866,-35.363261550000004,149.16524592500002,77907.5,-8.0,-74.75,92.25,-2.0,-44.0,-1007.0,-205.25,-0.25,4.0
13:27:45,RTL,235230.0,-0.04501104727387428,-0.0038046176778152585,-0.09526710584759712,-1.0921413600444794,-0.0035727921640500426,-0.002342485066037625,-35.36326165,149.1652451,77209.0,-8.0,-73.0,93.0,-2.5,-71.0,-940.0,-1094.0,-1.0,0.5
13:27:47,RTL,102382.0,-0.011893327813595533,-0.0018566623330116272,-0.09481043368577957,0.03927481174468994,-1.3853772543370724e-05,-0.001188017544336617,-35.3632618,149.1652425,75161.5,-4.0,-53.5,95.5,-0.5,-33.0,-971.5,36.0,2.0,2.0
13:27:49,RTL,102382.0,-0.003020374948391691,-0.0016750902868807316,-0.0948847346007824,0.6058461666107178,0.004409739165566862,0.006298191146925092,-35.3632618,149.1652412,72977.0,-4.0,-39.5,99.5,-2.0,-8.0,-985.0,601.5,6.0,9.5
13:27:50,RTL,94674.0,0.010488425847142935,-0.001082517410395667,-0.09556219354271889,1.0023386925458908,0.0033309480641037226,0.0030609232489950955,-35.363261875,149.16523982500001,71730.5,-3.0,-28.5,88.0,-1.75,21.75,-1029.25,998.5,5.25,6.0
13:27:51,RTL,94674.0,0.0006051820237189531,-0.0014738870086148381,-0.09483744949102402,-0.3354463167488575,0.002342594845686108,-0.005980023182928562,-35.3632619,149.1652391,71089.0,-3.0,-23.0,82.5,-2.0,-41.5,-955.5,-339.5,4.5,-2.5
13:27:53,RTL,70258.0,0.02533556427806616,-0.0031498910393565893,-0.09678919240832329,0.3086609859019518,-0.005921927164308727,-0.008115011965855956,-35.363262,149.16523719999998,69080.5,-3.0,-7.0,99.0,-3.5,-24.0,-953.5,304.0,-2.5,-4.5
13:27:55,RTL,70258.0,0.05783180519938469,-0.00438543246127665,-0.0955309309065342,0.8670888543128967,0.003994171740487218,0.0028400339651852846,-35.36326245,149.16523305,66956.5,0.5,23.0,99.0,-3.5,13.5,-1012.0,863.5,5.5,6.5
13:27:56,RTL,256418.0,0.06280034221708775,-0.0009873628005152568,-0.0952666848897934,1.0586778223514557,-0.0004904688685201108,-0.002932148112449795,-35.3632626,149.16523132499998,65683.0,3.0,43.75,109.75,-0.75,23.75,-990.25,1055.75,1.75,0.75
13:27:57,RTL,256418.0,0.06661932542920113,-0.002490694751031697,-0.09541398659348488,0.9297992289066315,-0.00014943780843168497,0.008073910139501095,-35.3632626,149.1652305,64846.5,3.0,51.5,108.0,-3.0,20.0,-1058.0,927.0,2.5,11.5
13:27:59,RTL,80823.0,0.09128908067941666,-0.004560335073620081,-0.09439144283533096,0.5633814036846161,0.0037097641034051776,-0.0018461889121681452,-35.363262950000006,149.16522725,62770.0,6.5,76.5,102.5,-2.0,-12.0,-971.5,561.5,6.0,1.5
13:28:01,RTL,80823.0,0.06536369770765305,0.0059580940287560225,-0.09297366067767143,0.7721928954124451,0.008109859190881252,-0.0049779333639889956,-35.3632628,149.1652282,60693.5,10.0,87.5,103.0,7.0,-8.5,-987.5,772.5,10.5,-1.0
13:28:02,RTL,268633.0,0.019863768247887492,0.008148995228111744,-0.09361596032977104,0.5939765451475978,-0.0028523284127004445,-0.002728405816014856,-35.363262275000004,149.165232675,59435.5,5.0,61.25,87.5,6.5,-8.75,-1023.75,594.75,0.0,1.0
13:28:03,RTL,268633.0,-0.002294874604558572,0.005779637955129147,-0.0933607704937458,-0.7269944846630096,-0.0029540914110839367,-0.0098577244207263,-35.36326215,149.16523469999998,58849.5,1.5,41.5,79.5,4.0,-79.0,-918.0,-725.5,-0.5,-5.5
13:28:05,RTL,9636.0,-0.009769638068974018,0.0001240913334186189,-0.09411592781543732,-1.0161671042442322,-0.0025656181387603283,-0.0009724970441311598,-35.36326215,149.16523765,56866.5,0.0,8.0,99.5,1.0,-73.0,-992.0,-1014.5,0.0,2.5
13:28:07,RTL,9636.0,0.029437806457281113,-0.0038621705025434494,-0.09424411505460739,0.12180113047361374,0.001388093107379973,-0.0017596589168533683,-35.3632624,149.16523684999999,54763.5,0.0,1.0,99.5,-1.0,-41.0,-1026.0,122.0,3.5,2.0
13:28:08,RTL,259225.0,0.01658941386267543,0.0005751619974034838,-0.09391353465616703,-0.5008222758769989,0.0027097497368231416,-0.019117552204988897,-35.363262375000005,149.165236525,53486.0,2.0,7.75,102.75,1.25,-58.5,-990.75,-499.75,5.0,-15.0
13:28:09,RTL,259225.0,-0.003841314261080697,0.003015270340256393,-0.09386207163333893,-0.6150354295969009,0.003750627569388598,-0.01826922968029976,-35.363262250000005,149.16523725000002,52674.0,1.5,6.5,102.0,1.5,-64.0,-992.0,-613.5,6.0,-14.0
13:28:11,RTL,18725.0,-0.016463030595332384,-0.001088541728677228,-0.09428546205163002,-1.0763685703277588,-0.005310903186909854,0.001350774196907878,-35.363262,149.16523895,50636.0,-1.5,-8.0,98.5,-1.0,-64.5,-1003.5,-1075.5,-2.0,5.0
13:28:13,RTL,18725.0,0.011677251197397709,-0.0016832462861202657,-0.09383409842848778,-0.5664765387773514,0.00474199466407299,-0.011287044268101454,-35.3632622,149.1652376,48649.0,0.0,-7.0,96.5,0.0,-59.0,-1042.5,-565.5,8.0,-7.0
13:28:14,RTL,203408.0,-0.0010316281695850194,0.0053533753962256014,-0.09302356094121933,0.21716895699501038,0.007713403552770615,-0.0020527361193671823,-35.363262049999996,149.16523865,47361.5,0.75,-3.5,104.25,3.5,-39.5,-979.5,217.5,10.0,1.75
13:28:15,RTL,203408.0,-0.023688355460762978,0.0065301028080284595,-0.09377827867865562,0.4109438806772232,-0.00024550582747906446,-0.003864032682031393,-35.3632618,149.1652406,46517.5,-0.5,-13.0,109.0,4.5,-31.0,-1004.0,411.0,2.5,0.0
13:28:17,RTL,181963.0,-0.0249263234436512,-0.0009617839532438666,-0.09399542212486267,0.5480245798826218,-0.003251246700529009,-0.0043736343504861,-35.36326175,149.16524335,44448.5,-4.5,-41.0,101.0,0.5,-11.0,-971.5,547.5,-0.5,-0.5
13:28:19,RTL,181963.0,-0.00040277361404150724,-0.004433837020769715,-0.09326336905360222,0.5174415409564972,0.005036655347794294,0.00496781594119966,-35.363262,149.1652422,42529.5,-3.5,-43.5,105.5,-1.5,-4.5,-978.5,516.0,7.0,8.5
13:28:20,RTL,201071.0,0.004745964193716645,-0.006187831866554916,-0.0939501728862524,-0.11824976548086852,-0.00121055799536407,-0.0011603168677538633,-35.363262175,149.16524045,41246.5,-2.25,-35.75,96.75,-3.5,-37.0,-996.5,-119.5,0.75,2.75
13:28:21,RTL,201071.0,0.016848410479724407,-0.006194717716425657,-0.09411527588963509,-0.3516686409711838,0.002126988547388464,0.002719910116866231,-35.3632623,149.16523885,40520.5,-1.0,-26.5,96.0,-3.5,-51.0,-976.0,-352.5,4.0,6.0
13:28:23,RTL,220611.0,0.002579050953499973,0.0004990248780814,-0.0933157466351986,-1.1159839630126953,0.004562518792226911,-0.006350611802190542,-35.363262250000005,149.16523654999997,38492.5,1.0,0.5,100.0,0.0,-73.5,-980.5,-1116.5,6.5,-2.0
13:28:25,RTL,220611.0,-0.042369065806269646,0.0020721018663607538,-0.09170840680599213,-1.4490294456481934,-0.01067415764555335,0.0072153236251324415,-35.363262,149.1652385,36419.0,0.0,-1.5,103.5,2.0,-47.0,-953.0,-1448.0,-8.0,10.5
13:28:26,RTL,249505.0,-0.03516986919566989,-0.002412271947832778,-0.09319288469851017,-1.2087773382663727,-0.004594734404236078,0.0008458413067273796,-35.3632621,149.165239275,35147.5,-1.0,-13.25,99.0,-0.25,-30.75,-999.0,-1207.5,-1.75,4.5
13:28:27,RTL,249505.0,-0.027619519270956516,-0.003488116431981325,-0.09261425212025642,-1.1214712858200073,-0.0013930117711424828,0.0014246441423892975,-35.3632622,149.16523915,34407.0,-0.5,-14.5,97.5,0.0,-25.5,-993.5,-1120.0,0.5,5.0
13:28:29,RTL,158770.0,-0.043227264657616615,-0.0013271768111735582,-0.09225074201822281,-0.3784025013446808,-0.003722490626387298,0.0015477994456887245,-35.3632622,149.16524045,32372.5,0.0,-18.0,103.0,0.5,26.0,-993.5,-376.5,-1.0,5.5
13:28:31,RTL,158770.0,-0.0016117520863190293,-0.004443608922883868,-0.09280090034008026,0.014150746166706085,0.0033395328791812062,0.006884297821670771,-35.3632623,149.1652384,30298.5,0.0,-14.0,101.0,-0.5,43.0,-976.5,15.5,5.0,10.5
13:28:32,RTL,166115.0,-0.012453909148462117,-0.0007131266902433708,-0.09276394918560982,0.1638433188199997,0.0032364671933464706,0.00424730364466086,-35.363262275000004,149.165238075,29016.5,1.0,-6.0,99.0,-0.25,43.25,-1010.0,165.0,5.25,7.5
13:28:33,RTL,166115.0,0.0005459579988382757,0.00012553471606224775,-0.09288974851369858,1.1263903975486755,0.0004010900156572461,-0.0002712022978812456,-35.3632622,149.165238,28285.5,0.0,-5.0,97.5,-2.0,72.5,-1006.0,1127.0,2.5,3.0
13:28:35,RTL,188363.0,0.03421623259782791,-0.007836319971829653,-0.09303125366568565,1.2066383957862854,-0.007720314431935549,-0.001802779734134674,-35.36326245,149.1652355,26250.5,0.0,6.0,102.0,-7.5,87.0,-977.5,1207.5,-4.5,2.5
13:28:37,RTL,188363.0,0.07077677175402641,-0.009885309729725122,-0.0935407429933548,-0.2069753436371684,0.0008250859682448208,-0.0040265535935759544,-35.3632632,149.1652278,24073.5,6.5,57.5,104.5,-6.5,37.0,-1012.0,-204.0,3.0,0.0
13:28:38,RTL,201984.0,0.06115818303078413,-0.0006853124359622598,-0.09119761548936367,-0.5247857719659805,0.004987635591533035,0.006568778655491769,-35.363263225,149.165225775,22829.75,12.0,89.0,99.75,0.5,6.25,-1013.0,-520.5,7.0,10.25
13:28:39,RTL,201984.0,0.038291020318865776,0.005273008020594716,-0.0896969847381115,-0.11823884397745132,-0.0020529123721644282,0.018162374384701252,-35.36326285,149.1652268,22156.0,12.0,95.0,89.5,4.5,12.5,-1019.5,-113.0,0.5,22.0
13:28:41,RTL,298593.0,-0.01263885642401874,0.0055989958345890045,-0.09061096236109734,0.17153647541999817,-0.007577912416309118,0.011025243438780308,-35.3632622,149.16523375,20113.5,3.5,54.5,100.5,4.5,43.0,-1007.0,176.5,-5.0,14.5
13:28:43,RTL,298593.0,-0.0034999039489775896,-0.003700859728269279,-0.09113932400941849,0.3866751417517662,0.0007060031639412045,0.00019644328858703375,-35.3632625,149.1652364,18019.5,1.5,19.5,98.0,0.0,56.0,-976.5,391.5,3.0,4.0
13:28:44,RTL,154135.0,-0.005305433616740629,-0.0051392578752711415,-0.09187069907784462,-0.6114165708422661,-0.0005435094353742898,0.0046484097838401794,-35.3632627,149.165236,16735.25,3.25,15.25,101.5,-1.5,14.75,-983.75,-605.5,2.0,8.25
13:28:45,RTL,154135.0,-0.0036462608259171247,-0.004299352178350091,-0.09103557094931602,-1.0935328006744385,-0.0026382728246971965,-0.0013480602065101266,-35.3632628,149.1652354,15898.5,4.0,17.0,115.0,-1.0,-9.5,-975.5,-1088.0,-0.5,2.5
13:28:47,RTL,127327.0,0.002090209105517715,-0.0026207740884274244,-0.09158870950341225,-1.3068777322769165,0.0015706450212746859,-0.005400016903877258,-35.3632626,149.1652348,13812.5,3.0,19.0,96.5,-1.5,-58.0,-1041.5,-1302.5,3.5,-1.0
13:28:49,RTL,127327.0,0.020278986543416977,-0.00043337444367352873,-0.0907851830124855,-1.4132190942764282,0.007200045511126518,-0.002194428350776434,-35.3632626,149.16523275,11962.0,4.0,32.5,104.0,1.0,-77.0,-958.0,-1408.5,9.0,2.0
13:28:50,RTL,63342.0,-0.0020990889461245388,0.004026506212539971,-0.09008362330496311,-0.740096278488636,0.002206697012297809,-0.003838338772766292,-35.3632624,149.165234375,10901.75,4.75,34.0,55.5,5.0,-34.0,-1050.75,-734.0,4.0,0.25
13:28:51,RTL,63342.0,-0.011673918925225735,0.006843485636636615,-0.08960992842912674,0.633836954832077,0.002159734140150249,0.0011092852801084518,-35.36326215,149.16523665,10588.0,3.5,24.5,33.0,7.5,24.0,-1009.0,639.5,4.0,4.5
13:28:53,RTL,128433.0,-0.031229522079229355,0.0020750167313963175,-0.08992024883627892,0.7145972102880478,-0.004086536937393248,-0.00014143402222543955,-35.3632618,149.1652424,9893.0,-2.5,-25.0,36.0,3.5,19.0,-1007.0,719.0,-1.5,3.5
13:28:55,RTL,128433.0,-0.02894611470401287,-0.0027810431784018874,-0.0901150219142437,0.7473307251930237,0.003540551522746682,0.003247753484174609,-35.363262,149.16524375,9186.5,-2.5,-48.5,34.5,1.0,35.0,-1004.5,751.5,5.5,6.5
13:28:56,RTL,273766.0,-0.04921072442084551,-0.0017702201148495078,-0.09029945731163025,-0.5966064110398293,0.00012349308235570788,-0.002672665927093476,-35.363262,149.16524405,8767.0,-2.0,-53.0,30.5,0.0,-21.25,-1029.75,-592.75,2.5,1.25
13:28:57,RTL,273766.0,-0.02893253695219755,-0.002258539665490389,-0.09068796411156654,0.5462037920951843,0.0006320440443232656,0.0012723421677947044,-35.363262,149.1652439,8651.0,-2.5,-55.0,-1.0,-1.0,25.5,-1039.0,549.0,2.5,4.5
13:28:59,RTL,65439.0,-0.014248159248381853,-0.0041575474897399545,-0.09100520238280296,-0.2260405719280243,-0.004872394958510995,-2.685294020920992e-05,-35.363262,149.1652418,8707.0,-3.0,-45.0,0.0,-3.0,-16.5,-1001.5,-224.5,-2.0,3.5
13:29:01,RTL,65439.0,0.010729661677032709,-0.006586899748072028,-0.09084539115428925,0.1576927751302719,0.00017532194033265114,0.0033010283950716257,-35.3632623,149.16523755,8698.0,-0.5,-14.5,0.0,-4.5,29.0,-1004.5,161.0,2.0,7.0
13:29:02,RTL,189429.0,0.02867804653942585,-0.005444552865810692,-0.0905726719647646,-0.16271250694990158,0.0009258791978936642,0.0016691521159373224,-35.3632625,149.16523465,8701.0,1.5,8.0,0.0,-2.75,1.0,-998.5,-159.75,2.75,5.25
13:29:03,RTL,189429.0,0.035054564476013184,-0.002999208983965218,-0.09027306735515594,0.3881402388215065,0.0020969134056940675,-0.0029795931186527014,-35.3632626,149.16523385,8704.0,3.5,21.0,0.5,0.0,9.0,-1000.5,390.0,4.0,0.5
13:29:05,RTL,289367.0,0.0015674433670938015,0.004098234116099775,-0.08931295946240425,-0.20098302513360977,0.0023003597743809223,-0.006630826508626342,-35.3632622,149.1652359,8141.0,2.5,18.5,38.5,3.5,-33.0,-1000.0,-199.5,4.5,-2.5
13:29:07,RTL,289367.0,-0.007846191758289933,0.00013749896606896073,-0.08942646905779839,0.7063048779964447,0.00037188746500760317,-0.0021461693104356527,-35.3632621,149.16523899999999,7420.5,0.0,-3.0,32.0,1.5,18.5,-1014.0,708.0,2.5,1.5
13:29:08,RTL,8438.0,-0.019930500304326415,-0.001993531041080132,-0.08989219181239605,-0.3711852729320526,-0.004535197687800974,0.001113341422751546,-35.3632621,149.165239625,7010.0,-1.5,-14.75,28.25,-0.75,-6.75,-1010.75,-367.75,-2.25,4.5
13:29:09,RTL,8438.0,0.0057660352904349566,-0.00349150481633842,-0.08997247740626335,0.6419869959354401,0.00067381770350039,-0.002312349737621844,-35.3632622,149.16523925,6824.5,-1.0,-14.5,22.0,-1.0,22.5,-978.0,643.5,2.0,1.0
13:29:11,RTL,245051.0,0.025743731297552586,-0.004265090683475137,-0.09011971205472946,0.8133887350559235,0.004171628970652819,0.0006624903762713075,-35.3632624,149.1652369,6153.5,0.5,-1.5,34.0,-1.0,25.0,-993.5,815.0,6.0,3.5
13:29:13,RTL,245051.0,0.02527817338705063,-0.0018434901139698923,-0.08961645513772964,0.812213271856308,0.004509992548264563,-0.0035624976735562086,-35.3632625,149.16523535,5454.5,3.0,14.0,32.0,-0.5,30.0,-1012.5,814.5,6.5,0.0
13:29:14,RTL,21508.0,-0.007421410933602601,-0.00035434258643363137,-0.0898530911654234,-0.8226674646139145,-0.00013429144746623933,-0.003653058025520295,-35.36326245,149.165236075,5031.5,3.0,14.25,33.0,0.5,-32.25,-1004.75,-819.25,1.75,0.0
13:29:15,RTL,21508.0,-0.01251464756205678,9.677704929345055e-05,-0.08948436379432678,0.1151379644870758,-0.00036801613168790936,0.004687788197770715,-35.3632624,149.1652368,4767.5,2.5,11.0,34.0,0.0,25.5,-994.5,119.5,1.0,7.5
13:29:17,RTL,66574.0,-0.015054062940180302,0.001504765939898789,-0.08922300115227699,-0.8214277625083923,0.004156198701821268,-0.01026448979973793,-35.3632622,149.1652381,4089.0,1.0,0.0,33.5,2.0,-51.0,-1003.5,-819.0,5.5,-6.0
13:29:19,RTL,66574.0,-0.003368676989339292,-0.0036809813464060426,-0.09039242938160896,0.05182728171348572,-0.003676431253552437,0.002787675941362977,-35.36326215,149.16523915,3330.0,-1.0,-13.5,34.5,-1.5,-13.5,-1022.0,53.5,-1.0,6.0
13:29:20,RTL,177594.0,0.006069655966712162,-0.004872073419392109,-0.08940072357654572,-0.2470383234322071,0.0029238629795145243,-0.0002198995789512992,-35.363262375,149.165237275,2885.5,0.25,-5.0,26.25,-1.5,4.25,-1033.75,-243.5,4.5,3.5
13:29:21,RTL,177594.0,0.01655472442507744,-0.0026775990845635533,-0.08957087248563766,0.3583108186721802,0.0017635662225075066,-0.003124342765659094,-35.3632624,149.16523675000002,2720.5,2.0,2.5,12.5,0.0,-2.0,-977.5,360.0,3.5,0.5
13:29:23,RTL,135526.0,0.00789641379378736,5.732329191232566e-05,-0.0896390974521637,0.229226965457201,0.0025411637034267187,-0.0035209645284339786,-35.3632623,149.16523705,2061.5,1.5,3.0,30.0,0.0,-9.0,-996.0,231.0,4.5,0.0
13:29:25,RTL,135526.0,-0.007972863502800465,-0.0009015144314616919,-0.08981554582715034,-0.40937481820583344,-0.006262996233999729,-0.005052339052781463,-35.3632622,149.1652383,1332.0,0.0,-3.5,32.0,0.5,-44.0,-983.0,-408.0,-3.5,-1.5
13:29:26,RTL,15043.0,-0.01013508002506569,-0.0016108628478832543,-0.0894552655518055,0.3737816661596298,-0.0016775603289715946,0.0024297727504745126,-35.3632622,149.165238925,913.25,0.0,-7.75,29.0,0.0,28.5,-997.0,376.75,0.25,5.75
13:29:27,RTL,15043.0,-0.009353562258183956,-0.002366139437071979,-0.0897635892033577,-0.3413934800773859,-0.002836900530382991,-0.0010876519372686744,-35.3632622,149.16523905000003,694.5,0.0,-11.5,25.5,-0.5,-29.0,-982.5,-340.0,-0.5,2.0
13:29:29,RTL,276203.0,0.028667820617556572,-0.002084287174511701,-0.09827457368373871,0.0006440246943384409,0.00115659722359851,-0.0006947213551029563,-35.3632623,149.16523784999998,122.0,12.0,40.0,-9.5,0.0,0.5,-999.0,3.0,3.0,2.5
13:29:31,RTL,276203.0,0.01685586664825678,0.0024324817350134254,-0.09867361932992935,-7.246632594615221e-05,0.0012812332133762538,-0.0006069691153243184,-35.36326245,149.1652394,142.5,1.5,38.0,-8.0,0.0,0.0,-1000.0,3.0,3.0,2.0
13:29:33,RTL,276203.0,0.00466489396058023,0.0036406328435987234,-0.09707527607679367,-0.0007174770580604672,0.0010902161593548954,-0.0006628278642892838,-35.3632629,149.1652387,135.5,-4.5,18.5,-6.5,0.0,0.0,-1000.0,2.5,3.0,2.0
13:29:35,RTL,276203.0,-0.0031886438373476267,0.0030355789931491017,-0.09689468145370483,-0.0008833574829623103,0.0009133975836448371,-0.0006463571917265654,-35.3632631,149.16523725000002,114.5,-5.5,-0.5,-3.0,0.0,0.0,-1000.0,3.0,2.5,2.5
