time_stamp,MODE,lat,lon,relative_alt,roll,pitch,yaw,rollspeed,pitchspeed,yawspeed,xacc,yacc,zacc,xgyro,ygyro,zgyro,vx,vy,vz,LAND_SPEED_HIGH,WPNAV_SPEED_DN,RTL_ALT
13:30:14.880,GUIDED,-35.3632621,149.1652374,0,-7.558087963843718e-05,0.0015014323871582747,0.02786785364151001,0.0003916691057384014,0.00033804590930230916,0.0024281563237309456,0,1,-1000,0,0,0,0,0,0,70.0,90.0,1500.0
13:30:15.082,GUIDED,-35.3632621,149.1652374,0,-3.934455162379891e-05,0.0016198601806536317,0.027364671230316162,0.0002852061006706208,0.0002463346754666418,0.0024721554946154356,0,1,-1000,0,0,0,-1,1,0,70.0,90.0,1500.0
13:30:15.289,GUIDED,-35.3632621,149.1652375,0,-0.00016623621922917664,0.001596006564795971,0.026725109666585922,0.00011410238221287727,0.00020316295558586717,0.002299963030964136,0,1,-1000,0,0,0,-2,2,0,70.0,90.0,1500.0
13:30:15.491,GUIDED,-35.3632621,149.1652375,0,-0.00016623621922917664,0.001596006564795971,0.026725109666585922,0.00011410238221287727,0.00020316295558586717,0.002299963030964136,0,2,-1000,1,0,0,-2,2,0,70.0,90.0,1500.0
13:30:15.696,GUIDED,-35.3632621,149.1652375,0,-0.00016623621922917664,0.001596006564795971,0.026725109666585922,0.00011410238221287727,0.00020316295558586717,0.002299963030964136,0,2,-1000,1,0,0,-2,2,0,70.0,90.0,1500.0
13:30:15.909,GUIDED,-35.3632621,149.1652375,0,-0.00016623621922917664,0.001596006564795971,0.026725109666585922,0.00011410238221287727,0.00020316295558586717,0.002299963030964136,0,2,-1000,1,0,0,-2,2,0,70.0,90.0,1500.0
13:30:16.114,GUIDED,-35.3632621,149.1652375,0,-0.00016623621922917664,0.001596006564795971,0.026725109666585922,0.00011410238221287727,0.00020316295558586717,0.002299963030964136,0,2,-1000,1,0,0,-2,2,0,70.0,90.0,1500.0
13:30:16.320,GUIDED,-35.3632621,149.1652375,0,-0.00016623621922917664,0.001596006564795971,0.026725109666585922,0.00011410238221287727,0.00020316295558586717,0.002299963030964136,0,2,-1000,1,0,0,-2,2,0,70.0,90.0,1500.0
13:30:16.526,GUIDED,-35.3632621,149.1652375,0,-0.00016623621922917664,0.001596006564795971,0.026725109666585922,0.00011410238221287727,0.00020316295558586717,0.002299963030964136,0,2,-1000,1,0,0,-2,2,0,70.0,90.0,1500.0
13:30:16.734,GUIDED,-35.3632621,149.1652375,0,-0.00016623621922917664,0.001596006564795971,0.026725109666585922,0.00011410238221287727,0.00020316295558586717,0.002299963030964136,0,2,-1000,1,0,0,-2,2,0,70.0,90.0,1500.0
13:30:16.936,GUIDED,-35.3632621,149.1652375,0,-0.00016623621922917664,0.001596006564795971,0.026725109666585922,0.00011410238221287727,0.00020316295558586717,0.002299963030964136,0,2,-1000,1,0,0,-2,2,0,70.0,90.0,1500.0
13:30:17.140,GUIDED,-35.3632621,149.1652375,0,-0.00016623621922917664,0.001596006564795971,0.026725109666585922,0.00011410238221287727,0.00020316295558586717,0.002299963030964136,0,2,-1000,1,0,0,-2,2,0,70.0,90.0,1500.0
13:30:17.343,GUIDED,-35.3632621,149.1652375,0,-0.00016623621922917664,0.001596006564795971,0.026725109666585922,0.00011410238221287727,0.00020316295558586717,0.002299963030964136,0,2,-1000,1,0,0,-2,2,0,70.0,90.0,1500.0
13:30:17.547,GUIDED,-35.3632621,149.1652375,0,-0.00016623621922917664,0.001596006564795971,0.026725109666585922,0.00011410238221287727,0.00020316295558586717,0.002299963030964136,0,2,-1000,1,0,0,-2,2,0,70.0,90.0,1500.0
13:30:17.752,GUIDED,-35.3632621,149.1652375,0,-0.00016623621922917664,0.001596006564795971,0.026725109666585922,0.00011410238221287727,0.00020316295558586717,0.002299963030964136,0,2,-1000,1,0,0,-2,2,0,70.0,90.0,1500.0
13:30:17.957,GUIDED,-35.3632621,149.1652375,0,-0.00016623621922917664,0.001596006564795971,0.026725109666585922,0.00011410238221287727,0.00020316295558586717,0.002299963030964136,0,2,-1000,1,0,0,-2,2,0,70.0,90.0,1500.0
13:30:18.161,GUIDED,-35.3632622,149.1652375,0,-0.0003234994364902377,0.0014944399008527398,0.026386186480522156,0.00021839345572516322,0.0002750087878666818,0.00213532499037683,0,1,-1000,0,0,0,-2,2,0,70.0,90.0,1500.0
13:30:18.364,GUIDED,-35.3632622,149.1652375,0,-0.0005621074815280735,0.0013272699434310198,0.02596346102654934,0.00025553919840604067,0.00025708868633955717,0.002155689522624016,0,1,-1000,1,0,0,-1,1,0,70.0,90.0,1500.0
13:30:18.567,GUIDED,-35.3632622,149.1652375,8,-0.000527639698702842,0.001179295126348734,0.025594230741262436,0.00022868975065648556,0.00031928319367580116,0.0020442591048777103,0,1,-1000,0,0,0,-1,0,-1,70.0,90.0,1500.0
13:30:18.769,GUIDED,-35.3632622,149.1652375,10,-0.0005188314244151115,0.0011599004501476884,0.02546927146613598,0.00024251791182905436,0.00028363929595798254,0.0021365354768931866,0,1,-1000,0,0,0,-1,0,-1,70.0,90.0,1500.0
13:30:18.972,GUIDED,-35.3632622,149.1652375,10,-0.0005188314244151115,0.0011599004501476884,0.02546927146613598,0.00024251791182905436,0.00028363929595798254,0.0021365354768931866,0,1,-1000,0,0,0,-1,0,-1,70.0,90.0,1500.0
13:30:19.178,GUIDED,-35.3632622,149.1652375,10,-0.0005188314244151115,0.0011599004501476884,0.02546927146613598,0.00024251791182905436,0.00028363929595798254,0.0021365354768931866,0,1,-1000,0,0,0,-1,0,-1,70.0,90.0,1500.0
13:30:19.381,GUIDED,-35.3632622,149.1652375,10,-0.0005188314244151115,0.0011599004501476884,0.02546927146613598,0.00024251791182905436,0.00028363929595798254,0.0021365354768931866,0,1,-1000,0,0,0,-1,0,-1,70.0,90.0,1500.0
13:30:19.584,GUIDED,-35.3632622,149.1652375,10,-0.0005188314244151115,0.0011599004501476884,0.02546927146613598,0.00024251791182905436,0.00028363929595798254,0.0021365354768931866,0,1,-1000,0,0,0,-1,0,-1,70.0,90.0,1500.0
13:30:19.787,GUIDED,-35.3632622,149.1652375,10,-0.0005188314244151115,0.0011599004501476884,0.02546927146613598,0.00024251791182905436,0.00028363929595798254,0.0021365354768931866,0,1,-1000,0,0,0,-1,0,-1,70.0,90.0,1500.0
13:30:19.996,GUIDED,-35.3632622,149.1652375,10,-0.0005188314244151115,0.0011599004501476884,0.02546927146613598,0.00024251791182905436,0.00028363929595798254,0.0021365354768931866,0,1,-1000,0,0,0,-1,0,-1,70.0,90.0,1500.0
13:30:20.202,GUIDED,-35.3632622,149.1652375,10,-0.0005188314244151115,0.0011599004501476884,0.02546927146613598,0.00024251791182905436,0.00028363929595798254,0.0021365354768931866,0,1,-1000,0,0,0,-1,0,-1,70.0,90.0,1500.0
13:30:20.408,GUIDED,-35.3632622,149.1652375,10,-0.0005188314244151115,0.0011599004501476884,0.02546927146613598,0.00024251791182905436,0.00028363929595798254,0.0021365354768931866,0,1,-1000,0,0,0,-1,0,-1,70.0,90.0,1500.0
13:30:20.613,GUIDED,-35.3632622,149.1652375,10,-0.0005188314244151115,0.0011599004501476884,0.02546927146613598,0.00024251791182905436,0.00028363929595798254,0.0021365354768931866,0,1,-1000,0,0,0,-1,0,-1,70.0,90.0,1500.0
13:30:20.816,GUIDED,-35.3632622,149.1652375,10,-0.0005188314244151115,0.0011599004501476884,0.02546927146613598,0.00024251791182905436,0.00028363929595798254,0.0021365354768931866,0,1,-1000,0,0,0,-1,0,-1,70.0,90.0,1500.0
13:30:21.019,GUIDED,-35.3632622,149.1652375,10,-0.0005188314244151115,0.0011599004501476884,0.02546927146613598,0.00024251791182905436,0.00028363929595798254,0.0021365354768931866,0,1,-1000,0,0,0,-1,0,-1,70.0,90.0,1500.0
13:30:21.221,GUIDED,-35.3632622,149.1652375,10,-0.0005188314244151115,0.0011599004501476884,0.02546927146613598,0.00024251791182905436,0.00028363929595798254,0.0021365354768931866,0,1,-1000,0,0,0,-1,0,-1,70.0,90.0,1500.0
13:30:21.428,GUIDED,-35.3632622,149.1652375,13,-0.00019602564861997962,0.001526475534774363,0.024546638131141663,0.0002903781714849174,0.0003856153052765876,0.0019090967252850533,0,2,-1000,0,0,0,0,0,0,70.0,90.0,1500.0
13:30:21.642,GUIDED,-35.3632622,149.1652375,13,-0.00019602564861997962,0.001526475534774363,0.024546638131141663,0.0002903781714849174,0.0003856153052765876,0.0019090967252850533,0,1,-1000,0,0,0,0,0,0,70.0,90.0,1500.0
13:30:21.847,GUIDED,-35.3632622,149.1652375,13,-0.00019602564861997962,0.001526475534774363,0.024546638131141663,0.0002903781714849174,0.0003856153052765876,0.0019090967252850533,0,1,-1000,0,0,0,0,0,0,70.0,90.0,1500.0
13:30:22.053,GUIDED,-35.3632622,149.1652375,13,-0.00019602564861997962,0.001526475534774363,0.024546638131141663,0.0002903781714849174,0.0003856153052765876,0.0019090967252850533,0,1,-1000,0,0,0,0,0,0,70.0,90.0,1500.0
13:30:22.257,GUIDED,-35.3632622,149.1652375,13,-0.00019602564861997962,0.001526475534774363,0.024546638131141663,0.0002903781714849174,0.0003856153052765876,0.0019090967252850533,0,1,-1000,0,0,0,0,0,0,70.0,90.0,1500.0
13:30:22.460,GUIDED,-35.3632622,149.1652375,13,-0.00019602564861997962,0.001526475534774363,0.024546638131141663,0.0002903781714849174,0.0003856153052765876,0.0019090967252850533,0,1,-1000,0,0,0,0,0,0,70.0,90.0,1500.0
13:30:22.673,GUIDED,-35.3632622,149.1652375,13,-0.00019602564861997962,0.001526475534774363,0.024546638131141663,0.0002903781714849174,0.0003856153052765876,0.0019090967252850533,0,1,-1000,0,0,0,0,0,0,70.0,90.0,1500.0
13:30:22.877,GUIDED,-35.3632622,149.1652375,13,-0.00019602564861997962,0.001526475534774363,0.024546638131141663,0.0002903781714849174,0.0003856153052765876,0.0019090967252850533,0,1,-1000,0,0,0,0,0,0,70.0,90.0,1500.0
13:30:23.085,GUIDED,-35.3632622,149.1652375,13,-0.00019602564861997962,0.001526475534774363,0.024546638131141663,0.0002903781714849174,0.0003856153052765876,0.0019090967252850533,0,1,-1000,0,0,0,0,0,0,70.0,90.0,1500.0
13:30:23.288,GUIDED,-35.3632622,149.1652375,13,-0.00019602564861997962,0.001526475534774363,0.024546638131141663,0.0002903781714849174,0.0003856153052765876,0.0019090967252850533,0,1,-1000,0,0,0,0,0,0,70.0,90.0,1500.0
13:30:23.492,GUIDED,-35.3632622,149.1652375,9,0.0004729159118141979,0.001958324108272791,0.02376161329448223,0.00023358268663287163,0.00031615360057912767,0.0018186017405241728,0,1,-1000,0,0,0,0,1,0,70.0,90.0,1500.0
13:30:23.694,GUIDED,-35.3632622,149.1652375,9,0.0004729159118141979,0.001958324108272791,0.02376161329448223,0.00023358268663287163,0.00031615360057912767,0.0018186017405241728,0,1,-1000,0,0,0,0,1,0,70.0,90.0,1500.0
13:30:23.897,GUIDED,-35.3632622,149.1652375,9,0.0004729159118141979,0.001958324108272791,0.02376161329448223,0.00023358268663287163,0.00031615360057912767,0.0018186017405241728,0,1,-1000,0,0,0,0,1,0,70.0,90.0,1500.0
13:30:24.100,GUIDED,-35.3632622,149.1652375,9,0.0004729159118141979,0.001958324108272791,0.02376161329448223,0.00023358268663287163,0.00031615360057912767,0.0018186017405241728,0,1,-1000,0,0,0,0,1,0,70.0,90.0,1500.0
13:30:24.304,GUIDED,-35.3632622,149.1652375,9,0.0004729159118141979,0.001958324108272791,0.02376161329448223,0.00023358268663287163,0.00031615360057912767,0.0018186017405241728,0,1,-1000,0,0,0,0,1,0,70.0,90.0,1500.0
13:30:24.511,GUIDED,-35.3632622,149.1652375,9,0.0004729159118141979,0.001958324108272791,0.02376161329448223,0.00023358268663287163,0.00031615360057912767,0.0018186017405241728,0,1,-1000,0,0,0,0,1,0,70.0,90.0,1500.0
13:30:24.716,GUIDED,-35.3632622,149.1652375,9,0.0004729159118141979,0.001958324108272791,0.02376161329448223,0.00023358268663287163,0.00031615360057912767,0.0018186017405241728,0,1,-1000,0,0,0,0,1,0,70.0,90.0,1500.0
13:30:24.923,GUIDED,-35.3632622,149.1652375,9,0.0004729159118141979,0.001958324108272791,0.02376161329448223,0.00023358268663287163,0.00031615360057912767,0.0018186017405241728,0,1,-1000,0,0,0,0,1,0,70.0,90.0,1500.0
13:30:25.131,GUIDED,-35.3632622,149.1652375,9,0.0004729159118141979,0.001958324108272791,0.02376161329448223,0.00023358268663287163,0.00031615360057912767,0.0018186017405241728,0,1,-1000,0,0,0,0,1,0,70.0,90.0,1500.0
13:30:25.333,GUIDED,-35.3632622,149.1652375,74,0.0024802302941679955,-0.0015643604565411806,0.02325817011296749,0.004007340874522924,0.0017368107801303267,0.003424309194087982,0,0,-1139,4,2,2,0,0,-41,70.0,90.0,1500.0
13:30:25.538,GUIDED,-35.3632621,149.1652375,731,0.0026626710314303637,0.002137876581400633,0.023184603080153465,0.0066697858273983,0.002502675401046872,0.0004844048817176372,0,0,-1085,7,2,0,0,0,-124,70.0,90.0,1500.0
13:30:25.740,GUIDED,-35.3632621,149.1652375,731,0.0026626710314303637,0.002137876581400633,0.023184603080153465,0.0066697858273983,0.002502675401046872,0.0004844048817176372,0,0,-1085,7,2,0,0,0,-124,70.0,90.0,1500.0
13:30:25.943,GUIDED,-35.3632621,149.1652375,731,0.0026626710314303637,0.002137876581400633,0.023184603080153465,0.0066697858273983,0.002502675401046872,0.0004844048817176372,0,0,-1085,7,2,0,0,0,-124,70.0,90.0,1500.0
13:30:26.149,GUIDED,-35.3632621,149.1652375,731,0.0026626710314303637,0.002137876581400633,0.023184603080153465,0.0066697858273983,0.002502675401046872,0.0004844048817176372,0,0,-1085,7,2,0,0,0,-124,70.0,90.0,1500.0
13:30:26.353,GUIDED,-35.3632621,149.1652375,731,0.0026626710314303637,0.002137876581400633,0.023184603080153465,0.0066697858273983,0.002502675401046872,0.0004844048817176372,0,0,-1085,7,2,0,0,0,-124,70.0,90.0,1500.0
13:30:26.558,GUIDED,-35.3632621,149.1652375,731,0.0026626710314303637,0.002137876581400633,0.023184603080153465,0.0066697858273983,0.002502675401046872,0.0004844048817176372,0,0,-1085,7,2,0,0,0,-124,70.0,90.0,1500.0
13:30:26.761,GUIDED,-35.3632621,149.1652375,731,0.0026626710314303637,0.002137876581400633,0.023184603080153465,0.0066697858273983,0.002502675401046872,0.0004844048817176372,0,0,-1085,7,2,0,0,0,-124,70.0,90.0,1500.0
13:30:26.965,GUIDED,-35.3632621,149.1652375,731,0.0026626710314303637,0.002137876581400633,0.023184603080153465,0.0066697858273983,0.002502675401046872,0.0004844048817176372,0,0,-1085,7,2,0,0,0,-124,70.0,90.0,1500.0
13:30:27.169,GUIDED,-35.3632621,149.1652375,731,0.0026626710314303637,0.002137876581400633,0.023184603080153465,0.0066697858273983,0.002502675401046872,0.0004844048817176372,0,0,-1085,7,2,0,0,0,-124,70.0,90.0,1500.0
13:30:27.374,GUIDED,-35.3632621,149.1652375,731,0.0026626710314303637,0.002137876581400633,0.023184603080153465,0.0066697858273983,0.002502675401046872,0.0004844048817176372,0,0,-1085,7,2,0,0,0,-124,70.0,90.0,1500.0
13:30:27.580,GUIDED,-35.3632612,149.1652419,3579,0.020701555535197258,0.022327329963445663,-0.041636738926172256,-0.1795850247144699,0.04232994467020035,-0.08354033529758453,3,-9,-990,-80,93,-105,8,57,-143,70.0,90.0,1500.0
13:30:27.783,GUIDED,-35.3632609,149.1652447,4337,-0.018388351425528526,0.015292847529053688,-0.06649105250835419,-0.02406959980726242,-0.031074117869138718,-0.035603247582912445,7,-9,-1007,-23,-30,-36,1,47,-148,70.0,90.0,1500.0
13:30:27.989,GUIDED,-35.3632609,149.1652447,4337,-0.018388351425528526,0.015292847529053688,-0.06649105250835419,-0.02406959980726242,-0.031074117869138718,-0.035603247582912445,7,-9,-1007,-23,-30,-36,1,47,-148,70.0,90.0,1500.0
13:30:28.191,GUIDED,-35.3632609,149.1652447,4337,-0.018388351425528526,0.015292847529053688,-0.06649105250835419,-0.02406959980726242,-0.031074117869138718,-0.035603247582912445,7,-9,-1007,-23,-30,-36,1,47,-148,70.0,90.0,1500.0
13:30:28.399,GUIDED,-35.3632609,149.1652447,4337,-0.018388351425528526,0.015292847529053688,-0.06649105250835419,-0.02406959980726242,-0.031074117869138718,-0.035603247582912445,7,-9,-1007,-23,-30,-36,1,47,-148,70.0,90.0,1500.0
13:30:28.610,GUIDED,-35.3632609,149.1652447,4337,-0.018388351425528526,0.015292847529053688,-0.06649105250835419,-0.02406959980726242,-0.031074117869138718,-0.035603247582912445,7,-9,-1007,-23,-30,-36,1,47,-148,70.0,90.0,1500.0
13:30:30.923,GUIDED,-35.3632609,149.1652447,4337,-0.018388351425528526,0.015292847529053688,-0.06649105250835419,-0.02406959980726242,-0.031074117869138718,-0.035603247582912445,7,-9,-1007,-23,-30,-36,1,47,-148,70.0,90.0,1500.0
13:30:31.125,GUIDED,-35.3632609,149.1652447,4337,-0.018388351425528526,0.015292847529053688,-0.06649105250835419,-0.02406959980726242,-0.031074117869138718,-0.035603247582912445,7,-9,-1007,-23,-30,-36,1,47,-148,70.0,90.0,1500.0
13:30:31.329,GUIDED,-35.3632609,149.1652447,4337,-0.018388351425528526,0.015292847529053688,-0.06649105250835419,-0.02406959980726242,-0.031074117869138718,-0.035603247582912445,7,-9,-1007,-23,-30,-36,1,47,-148,70.0,90.0,1500.0
13:30:31.531,GUIDED,-35.3632609,149.1652447,4337,-0.018388351425528526,0.015292847529053688,-0.06649105250835419,-0.02406959980726242,-0.031074117869138718,-0.035603247582912445,7,-9,-1007,-23,-30,-36,1,47,-148,70.0,90.0,1500.0
13:30:31.733,GUIDED,-35.3632608,149.1652467,6486,-0.07793024927377701,-0.0033107418566942215,-0.10296862572431564,0.052640706300735474,-0.001132087898440659,-0.016260182484984398,-2,4,-1002,53,0,-17,-2,-36,-148,70.0,90.0,1500.0
13:30:31.935,GUIDED,-35.3632609,149.165244,7260,-0.04785224422812462,-0.0008431222522631288,-0.10978938639163971,0.0647997036576271,0.010813070461153984,-0.0061799995601177216,-6,11,-1001,65,11,-7,-5,-64,-148,70.0,90.0,1500.0
13:30:32.138,GUIDED,-35.3632609,149.165244,7260,-0.04785224422812462,-0.0008431222522631288,-0.10978938639163971,0.0647997036576271,0.010813070461153984,-0.0061799995601177216,-6,11,-1001,65,11,-7,-5,-64,-148,70.0,90.0,1500.0
13:30:32.340,GUIDED,-35.3632609,149.165244,7260,-0.04785224422812462,-0.0008431222522631288,-0.10978938639163971,0.0647997036576271,0.010813070461153984,-0.0061799995601177216,-6,11,-1001,65,11,-7,-5,-64,-148,70.0,90.0,1500.0
13:30:32.546,GUIDED,-35.3632609,149.165244,7260,-0.04785224422812462,-0.0008431222522631288,-0.10978938639163971,0.0647997036576271,0.010813070461153984,-0.0061799995601177216,-6,11,-1001,65,11,-7,-5,-64,-148,70.0,90.0,1500.0
13:30:32.749,GUIDED,-35.3632609,149.165244,7260,-0.04785224422812462,-0.0008431222522631288,-0.10978938639163971,0.0647997036576271,0.010813070461153984,-0.0061799995601177216,-6,11,-1001,65,11,-7,-5,-64,-148,70.0,90.0,1500.0
13:30:32.954,GUIDED,-35.3632609,149.165244,7260,-0.04785224422812462,-0.0008431222522631288,-0.10978938639163971,0.0647997036576271,0.010813070461153984,-0.0061799995601177216,-6,11,-1001,65,11,-7,-5,-64,-148,70.0,90.0,1500.0
13:30:33.157,GUIDED,-35.3632609,149.165244,7260,-0.04785224422812462,-0.0008431222522631288,-0.10978938639163971,0.0647997036576271,0.010813070461153984,-0.0061799995601177216,-6,11,-1001,65,11,-7,-5,-64,-148,70.0,90.0,1500.0
13:30:33.359,GUIDED,-35.3632609,149.165244,7260,-0.04785224422812462,-0.0008431222522631288,-0.10978938639163971,0.0647997036576271,0.010813070461153984,-0.0061799995601177216,-6,11,-1001,65,11,-7,-5,-64,-148,70.0,90.0,1500.0
13:30:33.564,GUIDED,-35.3632609,149.165244,7260,-0.04785224422812462,-0.0008431222522631288,-0.10978938639163971,0.0647997036576271,0.010813070461153984,-0.0061799995601177216,-6,11,-1001,65,11,-7,-5,-64,-148,70.0,90.0,1500.0
13:30:33.769,GUIDED,-35.3632621,149.1652351,9032,0.03201209008693695,0.015696773305535316,-0.110433429479599,0.07163070887327194,0.010893208906054497,0.003894301364198327,-5,14,-1005,72,11,3,-20,-58,-152,70.0,90.0,1500.0
13:30:33.976,GUIDED,-35.3632632,149.1652325,9820,0.06603273749351501,0.01794782094657421,-0.10723011195659637,0.06528599560260773,-0.0012896410189568996,0.006241098046302795,-1,11,-1002,65,0,5,-26,-29,-153,70.0,90.0,1500.0
13:30:34.183,GUIDED,-35.3632632,149.1652325,9820,0.06603273749351501,0.01794782094657421,-0.10723011195659637,0.06528599560260773,-0.0012896410189568996,0.006241098046302795,-1,11,-1002,65,0,5,-26,-29,-153,70.0,90.0,1500.0
13:30:34.386,GUIDED,-35.3632632,149.1652325,9820,0.06603273749351501,0.01794782094657421,-0.10723011195659637,0.06528599560260773,-0.0012896410189568996,0.006241098046302795,-1,11,-1002,65,0,5,-26,-29,-153,70.0,90.0,1500.0
13:30:34.589,GUIDED,-35.3632632,149.1652325,9820,0.06603273749351501,0.01794782094657421,-0.10723011195659637,0.06528599560260773,-0.0012896410189568996,0.006241098046302795,-1,11,-1002,65,0,5,-26,-29,-153,70.0,90.0,1500.0
13:30:34.795,GUIDED,-35.3632632,149.1652325,9820,0.06603273749351501,0.01794782094657421,-0.10723011195659637,0.06528599560260773,-0.0012896410189568996,0.006241098046302795,-1,11,-1002,65,0,5,-26,-29,-153,70.0,90.0,1500.0
13:30:34.998,GUIDED,-35.3632632,149.1652325,9820,0.06603273749351501,0.01794782094657421,-0.10723011195659637,0.06528599560260773,-0.0012896410189568996,0.006241098046302795,-1,11,-1002,65,0,5,-26,-29,-153,70.0,90.0,1500.0
13:30:35.203,GUIDED,-35.3632632,149.1652325,9820,0.06603273749351501,0.01794782094657421,-0.10723011195659637,0.06528599560260773,-0.0012896410189568996,0.006241098046302795,-1,11,-1002,65,0,5,-26,-29,-153,70.0,90.0,1500.0
13:30:35.407,GUIDED,-35.3632632,149.1652325,9820,0.06603273749351501,0.01794782094657421,-0.10723011195659637,0.06528599560260773,-0.0012896410189568996,0.006241098046302795,-1,11,-1002,65,0,5,-26,-29,-153,70.0,90.0,1500.0
13:30:35.610,GUIDED,-35.3632632,149.1652325,9820,0.06603273749351501,0.01794782094657421,-0.10723011195659637,0.06528599560260773,-0.0012896410189568996,0.006241098046302795,-1,11,-1002,65,0,5,-26,-29,-153,70.0,90.0,1500.0
13:30:35.817,GUIDED,-35.3632654,149.1652353,11842,0.049796976149082184,-0.08622846007347107,-0.02586725354194641,-0.12734092772006989,-0.03951163589954376,0.06392255425453186,4,-12,-991,-126,-38,63,12,65,-146,70.0,90.0,1500.0
13:30:36.021,GUIDED,-35.3632654,149.1652353,11842,0.049796976149082184,-0.08622846007347107,-0.02586725354194641,-0.12734092772006989,-0.03951163589954376,0.06392255425453186,4,-12,-991,-126,-38,63,12,65,-146,70.0,90.0,1500.0
13:30:36.227,GUIDED,-35.3632654,149.1652353,11842,0.049796976149082184,-0.08622846007347107,-0.02586725354194641,-0.12734092772006989,-0.03951163589954376,0.06392255425453186,4,-12,-991,-126,-38,63,12,65,-146,70.0,90.0,1500.0
13:30:36.433,GUIDED,-35.3632654,149.1652353,11842,0.049796976149082184,-0.08622846007347107,-0.02586725354194641,-0.12734092772006989,-0.03951163589954376,0.06392255425453186,4,-12,-991,-126,-38,63,12,65,-146,70.0,90.0,1500.0
13:30:36.639,GUIDED,-35.3632654,149.1652353,11842,0.049796976149082184,-0.08622846007347107,-0.02586725354194641,-0.12734092772006989,-0.03951163589954376,0.06392255425453186,4,-12,-991,-126,-38,63,12,65,-146,70.0,90.0,1500.0
13:30:36.844,GUIDED,-35.3632654,149.1652353,11842,0.049796976149082184,-0.08622846007347107,-0.02586725354194641,-0.12734092772006989,-0.03951163589954376,0.06392255425453186,4,-12,-991,-126,-38,63,12,65,-146,70.0,90.0,1500.0
13:30:37.052,GUIDED,-35.3632654,149.1652353,11842,0.049796976149082184,-0.08622846007347107,-0.02586725354194641,-0.12734092772006989,-0.03951163589954376,0.06392255425453186,4,-12,-991,-126,-38,63,12,65,-146,70.0,90.0,1500.0
13:30:37.255,GUIDED,-35.3632654,149.1652353,11842,0.049796976149082184,-0.08622846007347107,-0.02586725354194641,-0.12734092772006989,-0.03951163589954376,0.06392255425453186,4,-12,-991,-126,-38,63,12,65,-146,70.0,90.0,1500.0
13:30:37.458,GUIDED,-35.3632654,149.1652353,11842,0.049796976149082184,-0.08622846007347107,-0.02586725354194641,-0.12734092772006989,-0.03951163589954376,0.06392255425453186,4,-12,-991,-126,-38,63,12,65,-146,70.0,90.0,1500.0
13:30:37.661,GUIDED,-35.363262,149.1652408,13279,-0.070064976811409,-4.840043038711883e-05,-0.12234766036272049,-0.030894966796040535,0.07412323355674744,-0.1340484619140625,-5,-14,-1012,-30,74,-134,52,22,-151,70.0,90.0,1500.0
13:30:37.864,GUIDED,-35.3632591,149.1652402,14454,-0.056725453585386276,0.022254478186368942,-0.19349095225334167,0.043441686779260635,0.02116321213543415,-0.05660121887922287,-10,-1,-1001,44,21,-57,28,-31,-152,70.0,90.0,1500.0
13:30:38.069,GUIDED,-35.3632591,149.1652402,14454,-0.056725453585386276,0.022254478186368942,-0.19349095225334167,0.043441686779260635,0.02116321213543415,-0.05660121887922287,-10,-1,-1001,44,21,-57,28,-31,-152,70.0,90.0,1500.0
13:30:38.274,GUIDED,-35.3632591,149.1652402,14454,-0.056725453585386276,0.022254478186368942,-0.19349095225334167,0.043441686779260635,0.02116321213543415,-0.05660121887922287,-10,-1,-1001,44,21,-57,28,-31,-152,70.0,90.0,1500.0
13:30:38.477,GUIDED,-35.3632591,149.1652402,14454,-0.056725453585386276,0.022254478186368942,-0.19349095225334167,0.043441686779260635,0.02116321213543415,-0.05660121887922287,-10,-1,-1001,44,21,-57,28,-31,-152,70.0,90.0,1500.0
13:30:38.680,GUIDED,-35.3632591,149.1652402,14454,-0.056725453585386276,0.022254478186368942,-0.19349095225334167,0.043441686779260635,0.02116321213543415,-0.05660121887922287,-10,-1,-1001,44,21,-57,28,-31,-152,70.0,90.0,1500.0
13:30:38.882,GUIDED,-35.3632591,149.1652402,14454,-0.056725453585386276,0.022254478186368942,-0.19349095225334167,0.043441686779260635,0.02116321213543415,-0.05660121887922287,-10,-1,-1001,44,21,-57,28,-31,-152,70.0,90.0,1500.0
13:30:39.086,GUIDED,-35.3632591,149.1652402,14454,-0.056725453585386276,0.022254478186368942,-0.19349095225334167,0.043441686779260635,0.02116321213543415,-0.05660121887922287,-10,-1,-1001,44,21,-57,28,-31,-152,70.0,90.0,1500.0
13:30:39.288,GUIDED,-35.3632591,149.1652402,14454,-0.056725453585386276,0.022254478186368942,-0.19349095225334167,0.043441686779260635,0.02116321213543415,-0.05660121887922287,-10,-1,-1001,44,21,-57,28,-31,-152,70.0,90.0,1500.0
13:30:39.495,GUIDED,-35.3632591,149.1652402,14454,-0.056725453585386276,0.022254478186368942,-0.19349095225334167,0.043441686779260635,0.02116321213543415,-0.05660121887922287,-10,-1,-1001,44,21,-57,28,-31,-152,70.0,90.0,1500.0
13:30:39.698,GUIDED,-35.3632591,149.1652402,14454,-0.056725453585386276,0.022254478186368942,-0.19349095225334167,0.043441686779260635,0.02116321213543415,-0.05660121887922287,-10,-1,-1001,44,21,-57,28,-31,-152,70.0,90.0,1500.0
13:30:39.900,GUIDED,-35.3632601,149.1652315,17275,0.047581907361745834,0.04551560804247856,-0.22592541575431824,0.06496216356754303,-0.007537041325122118,-0.0007425969233736396,0,10,-1002,65,-7,-1,-43,-20,-153,70.0,90.0,1500.0
13:30:40.103,GUIDED,-35.3632611,149.1652311,17667,0.06337350606918335,0.042083948850631714,-0.22506612539291382,0.06257655471563339,-0.01751185581088066,0.0021935070399194956,4,8,-1001,63,-16,1,-48,-3,-153,70.0,90.0,1500.0
13:30:40.308,GUIDED,-35.3632611,149.1652311,17667,0.06337350606918335,0.042083948850631714,-0.22506612539291382,0.06257655471563339,-0.01751185581088066,0.0021935070399194956,4,8,-1001,63,-16,1,-48,-3,-153,70.0,90.0,1500.0
13:30:40.510,GUIDED,-35.3632611,149.1652311,17667,0.06337350606918335,0.042083948850631714,-0.22506612539291382,0.06257655471563339,-0.01751185581088066,0.0021935070399194956,4,8,-1001,63,-16,1,-48,-3,-153,70.0,90.0,1500.0
13:30:40.711,GUIDED,-35.3632611,149.1652311,17667,0.06337350606918335,0.042083948850631714,-0.22506612539291382,0.06257655471563339,-0.01751185581088066,0.0021935070399194956,4,8,-1001,63,-16,1,-48,-3,-153,70.0,90.0,1500.0
13:30:40.918,GUIDED,-35.3632611,149.1652311,17667,0.06337350606918335,0.042083948850631714,-0.22506612539291382,0.06257655471563339,-0.01751185581088066,0.0021935070399194956,4,8,-1001,63,-16,1,-48,-3,-153,70.0,90.0,1500.0
13:30:41.125,GUIDED,-35.3632611,149.1652311,17667,0.06337350606918335,0.042083948850631714,-0.22506612539291382,0.06257655471563339,-0.01751185581088066,0.0021935070399194956,4,8,-1001,63,-16,1,-48,-3,-153,70.0,90.0,1500.0
13:30:41.328,GUIDED,-35.3632611,149.1652311,17667,0.06337350606918335,0.042083948850631714,-0.22506612539291382,0.06257655471563339,-0.01751185581088066,0.0021935070399194956,4,8,-1001,63,-16,1,-48,-3,-153,70.0,90.0,1500.0
13:30:41.532,GUIDED,-35.3632611,149.1652311,17667,0.06337350606918335,0.042083948850631714,-0.22506612539291382,0.06257655471563339,-0.01751185581088066,0.0021935070399194956,4,8,-1001,63,-16,1,-48,-3,-153,70.0,90.0,1500.0
13:30:41.737,GUIDED,-35.3632611,149.1652311,17667,0.06337350606918335,0.042083948850631714,-0.22506612539291382,0.06257655471563339,-0.01751185581088066,0.0021935070399194956,4,8,-1001,63,-16,1,-48,-3,-153,70.0,90.0,1500.0
13:30:41.938,GUIDED,-35.3632657,149.1652376,19674,0.044609468430280685,-0.09403951466083527,-0.14264971017837524,-0.1516382098197937,-0.1738496869802475,0.15138302743434906,20,-6,-1001,-83,-182,154,-7,89,-147,70.0,90.0,1500.0
13:30:42.142,GUIDED,-35.3632622,149.1652444,21190,-0.10996180027723312,-0.027583815157413483,-0.2276354730129242,-0.09665744751691818,0.13051347434520721,-0.1849609911441803,0,-19,-1013,-137,124,-150,63,15,-150,70.0,90.0,1500.0
13:30:42.346,GUIDED,-35.3632622,149.1652444,21190,-0.10996180027723312,-0.027583815157413483,-0.2276354730129242,-0.09665744751691818,0.13051347434520721,-0.1849609911441803,-6,-16,-1012,-95,131,-185,63,15,-150,70.0,90.0,1500.0
13:30:42.551,GUIDED,-35.3632622,149.1652444,21190,-0.10996180027723312,-0.027583815157413483,-0.2276354730129242,-0.09665744751691818,0.13051347434520721,-0.1849609911441803,-6,-16,-1012,-95,131,-185,63,15,-150,70.0,90.0,1500.0
13:30:42.754,GUIDED,-35.3632622,149.1652444,21190,-0.10996180027723312,-0.027583815157413483,-0.2276354730129242,-0.09665744751691818,0.13051347434520721,-0.1849609911441803,-6,-16,-1012,-95,131,-185,63,15,-150,70.0,90.0,1500.0
13:30:42.957,GUIDED,-35.3632622,149.1652444,21190,-0.10996180027723312,-0.027583815157413483,-0.2276354730129242,-0.09665744751691818,0.13051347434520721,-0.1849609911441803,-6,-16,-1012,-95,131,-185,63,15,-150,70.0,90.0,1500.0
13:30:43.162,GUIDED,-35.3632622,149.1652444,21190,-0.10996180027723312,-0.027583815157413483,-0.2276354730129242,-0.09665744751691818,0.13051347434520721,-0.1849609911441803,-6,-16,-1012,-95,131,-185,63,15,-150,70.0,90.0,1500.0
13:30:43.365,GUIDED,-35.3632622,149.1652444,21190,-0.10996180027723312,-0.027583815157413483,-0.2276354730129242,-0.09665744751691818,0.13051347434520721,-0.1849609911441803,-6,-16,-1012,-95,131,-185,63,15,-150,70.0,90.0,1500.0
13:30:43.570,GUIDED,-35.3632622,149.1652444,21190,-0.10996180027723312,-0.027583815157413483,-0.2276354730129242,-0.09665744751691818,0.13051347434520721,-0.1849609911441803,-6,-16,-1012,-95,131,-185,63,15,-150,70.0,90.0,1500.0
13:30:43.774,GUIDED,-35.3632622,149.1652444,21190,-0.10996180027723312,-0.027583815157413483,-0.2276354730129242,-0.09665744751691818,0.13051347434520721,-0.1849609911441803,-6,-16,-1012,-95,131,-185,63,15,-150,70.0,90.0,1500.0
13:30:43.979,GUIDED,-35.3632583,149.1652406,22570,-0.10002420842647552,0.015171782113611698,-0.3398542106151581,0.05219057574868202,0.041730742901563644,-0.06330377608537674,-18,5,-1000,52,42,-63,23,-85,-148,70.0,90.0,1500.0
13:30:44.181,GUIDED,-35.3632589,149.1652285,24082,-0.032032325863838196,0.060169901698827744,-0.37710192799568176,0.08274492621421814,0.044646043330430984,-0.015517884865403175,-16,23,-1007,83,45,-16,-44,-117,-149,70.0,90.0,1500.0
13:30:44.385,GUIDED,-35.3632589,149.1652285,24082,-0.032032325863838196,0.060169901698827744,-0.37710192799568176,0.08274492621421814,0.044646043330430984,-0.015517884865403175,-16,23,-1007,83,45,-16,-44,-117,-149,70.0,90.0,1500.0
13:30:44.590,GUIDED,-35.3632589,149.1652285,24082,-0.032032325863838196,0.060169901698827744,-0.37710192799568176,0.08274492621421814,0.044646043330430984,-0.015517884865403175,-16,23,-1007,83,45,-16,-44,-117,-149,70.0,90.0,1500.0
13:30:44.796,GUIDED,-35.3632589,149.1652285,24082,-0.032032325863838196,0.060169901698827744,-0.37710192799568176,0.08274492621421814,0.044646043330430984,-0.015517884865403175,-16,23,-1007,83,45,-16,-44,-117,-149,70.0,90.0,1500.0
13:30:45.002,GUIDED,-35.3632589,149.1652285,24082,-0.032032325863838196,0.060169901698827744,-0.37710192799568176,0.08274492621421814,0.044646043330430984,-0.015517884865403175,-16,23,-1007,83,45,-16,-44,-117,-149,70.0,90.0,1500.0
13:30:45.205,GUIDED,-35.3632589,149.1652285,24082,-0.032032325863838196,0.060169901698827744,-0.37710192799568176,0.08274492621421814,0.044646043330430984,-0.015517884865403175,-16,23,-1007,83,45,-16,-44,-117,-149,70.0,90.0,1500.0
13:30:45.409,GUIDED,-35.3632589,149.1652285,24082,-0.032032325863838196,0.060169901698827744,-0.37710192799568176,0.08274492621421814,0.044646043330430984,-0.015517884865403175,-16,23,-1007,83,45,-16,-44,-117,-149,70.0,90.0,1500.0
13:30:45.615,GUIDED,-35.3632589,149.1652285,24082,-0.032032325863838196,0.060169901698827744,-0.37710192799568176,0.08274492621421814,0.044646043330430984,-0.015517884865403175,-16,23,-1007,83,45,-16,-44,-117,-149,70.0,90.0,1500.0
13:30:45.819,GUIDED,-35.3632589,149.1652285,24082,-0.032032325863838196,0.060169901698827744,-0.37710192799568176,0.08274492621421814,0.044646043330430984,-0.015517884865403175,-16,23,-1007,83,45,-16,-44,-117,-149,70.0,90.0,1500.0
13:30:46.021,GUIDED,-35.3632589,149.1652285,24082,-0.032032325863838196,0.060169901698827744,-0.37710192799568176,0.08274492621421814,0.044646043330430984,-0.015517884865403175,-16,23,-1007,83,45,-16,-44,-117,-149,70.0,90.0,1500.0
13:30:46.226,GUIDED,-35.3632707,149.1652166,26400,0.1011057123541832,0.07175711542367935,-0.3746574819087982,0.0856860876083374,-0.03943617269396782,0.011215956881642342,12,22,-1003,86,-38,10,-118,5,-151,70.0,90.0,1500.0
13:30:46.429,GUIDED,-35.3632758,149.1652185,27165,0.13952796161174774,0.04160976782441139,-0.37093642354011536,0.06965961307287216,-0.07448335736989975,0.01684626378118992,24,15,-1001,70,-73,16,-109,73,-147,70.0,90.0,1500.0
13:30:46.635,GUIDED,-35.3632758,149.1652185,27165,0.13952796161174774,0.04160976782441139,-0.37093642354011536,0.06965961307287216,-0.07448335736989975,0.01684626378118992,24,15,-1001,70,-73,16,-109,73,-147,70.0,90.0,1500.0
13:30:46.842,GUIDED,-35.3632758,149.1652185,27165,0.13952796161174774,0.04160976782441139,-0.37093642354011536,0.06965961307287216,-0.07448335736989975,0.01684626378118992,24,15,-1001,70,-73,16,-109,73,-147,70.0,90.0,1500.0
13:30:47.044,GUIDED,-35.3632758,149.1652185,27165,0.13952796161174774,0.04160976782441139,-0.37093642354011536,0.06965961307287216,-0.07448335736989975,0.01684626378118992,24,15,-1001,70,-73,16,-109,73,-147,70.0,90.0,1500.0
13:30:47.246,GUIDED,-35.3632758,149.1652185,27165,0.13952796161174774,0.04160976782441139,-0.37093642354011536,0.06965961307287216,-0.07448335736989975,0.01684626378118992,24,15,-1001,70,-73,16,-109,73,-147,70.0,90.0,1500.0
13:30:47.450,GUIDED,-35.3632758,149.1652185,27165,0.13952796161174774,0.04160976782441139,-0.37093642354011536,0.06965961307287216,-0.07448335736989975,0.01684626378118992,24,15,-1001,70,-73,16,-109,73,-147,70.0,90.0,1500.0
13:30:47.658,GUIDED,-35.3632758,149.1652185,27165,0.13952796161174774,0.04160976782441139,-0.37093642354011536,0.06965961307287216,-0.07448335736989975,0.01684626378118992,24,15,-1001,70,-73,16,-109,73,-147,70.0,90.0,1500.0
13:30:47.861,GUIDED,-35.3632758,149.1652185,27165,0.13952796161174774,0.04160976782441139,-0.37093642354011536,0.06965961307287216,-0.07448335736989975,0.01684626378118992,24,15,-1001,70,-73,16,-109,73,-147,70.0,90.0,1500.0
13:30:48.068,GUIDED,-35.3632758,149.1652185,27165,0.13952796161174774,0.04160976782441139,-0.37093642354011536,0.06965961307287216,-0.07448335736989975,0.01684626378118992,24,15,-1001,70,-73,16,-109,73,-147,70.0,90.0,1500.0
13:30:48.272,GUIDED,-35.363278,149.1652463,29505,-0.013365174643695354,-0.20964783430099487,-0.21855206787586212,-0.21279151737689972,0.12638534605503082,-0.03736324608325958,9,-43,-1018,-211,127,-37,135,161,-130,70.0,90.0,1500.0
13:30:48.479,GUIDED,-35.3632745,149.1652502,29838,-0.06231639161705971,-0.17558839917182922,-0.24841733276844025,-0.2112419605255127,0.14706292748451233,-0.15754029154777527,-4,-50,-1029,-210,147,-157,177,128,-130,70.0,90.0,1500.0
13:30:48.687,GUIDED,-35.3632745,149.1652502,29838,-0.06231639161705971,-0.17558839917182922,-0.24841733276844025,-0.2112419605255127,0.14706292748451233,-0.15754029154777527,-4,-50,-1029,-210,147,-157,177,128,-130,70.0,90.0,1500.0
13:30:48.893,GUIDED,-35.3632745,149.1652502,29838,-0.06231639161705971,-0.17558839917182922,-0.24841733276844025,-0.2112419605255127,0.14706292748451233,-0.15754029154777527,-4,-50,-1029,-210,147,-157,177,128,-130,70.0,90.0,1500.0
13:30:49.095,GUIDED,-35.3632745,149.1652502,29838,-0.06231639161705971,-0.17558839917182922,-0.24841733276844025,-0.2112419605255127,0.14706292748451233,-0.15754029154777527,-4,-50,-1029,-210,147,-157,177,128,-130,70.0,90.0,1500.0
13:30:49.300,GUIDED,-35.3632745,149.1652502,29838,-0.06231639161705971,-0.17558839917182922,-0.24841733276844025,-0.2112419605255127,0.14706292748451233,-0.15754029154777527,-4,-50,-1029,-210,147,-157,177,128,-130,70.0,90.0,1500.0
13:30:49.502,GUIDED,-35.3632745,149.1652502,29838,-0.06231639161705971,-0.17558839917182922,-0.24841733276844025,-0.2112419605255127,0.14706292748451233,-0.15754029154777527,-4,-50,-1029,-210,147,-157,177,128,-130,70.0,90.0,1500.0
13:30:49.707,GUIDED,-35.3632745,149.1652502,29838,-0.06231639161705971,-0.17558839917182922,-0.24841733276844025,-0.2112419605255127,0.14706292748451233,-0.15754029154777527,-4,-50,-1029,-210,147,-157,177,128,-130,70.0,90.0,1500.0
13:30:49.914,GUIDED,-35.3632745,149.1652502,29838,-0.06231639161705971,-0.17558839917182922,-0.24841733276844025,-0.2112419605255127,0.14706292748451233,-0.15754029154777527,-4,-50,-1029,-210,147,-157,177,128,-130,70.0,90.0,1500.0
13:30:50.121,GUIDED,-35.3632745,149.1652502,29838,-0.06231639161705971,-0.17558839917182922,-0.24841733276844025,-0.2112419605255127,0.14706292748451233,-0.15754029154777527,-4,-50,-1029,-210,147,-157,177,128,-130,70.0,90.0,1500.0
13:30:50.325,GUIDED,-35.3632581,149.1652547,31084,-0.1291763037443161,-0.03007771447300911,-0.41858211159706116,0.04177207872271538,0.2200976312160492,-0.06753044575452805,-28,-37,-1034,42,220,-68,205,-37,-143,70.0,90.0,1500.0
13:30:50.532,GUIDED,-35.3632437,149.1652422,33052,-0.07604918628931046,0.1391734629869461,-0.4486853778362274,0.05170951783657074,0.08235149085521698,-0.004960390739142895,-28,4,-1007,52,83,-5,27,-116,-158,70.0,90.0,1500.0
13:30:50.735,GUIDED,-35.3632436,149.1652391,33452,-0.0616689994931221,0.1574583351612091,-0.4512767493724823,0.06656152755022049,0.06540697067975998,-0.004971502814441919,-22,13,-1002,67,66,-5,-16,-111,-155,70.0,90.0,1500.0
13:30:50.936,GUIDED,-35.3632436,149.1652391,33452,-0.0616689994931221,0.1574583351612091,-0.4512767493724823,0.06656152755022049,0.06540697067975998,-0.004971502814441919,-22,13,-1002,67,66,-5,-16,-111,-155,70.0,90.0,1500.0
13:30:51.144,GUIDED,-35.3632436,149.1652391,33452,-0.0616689994931221,0.1574583351612091,-0.4512767493724823,0.06656152755022049,0.06540697067975998,-0.004971502814441919,-22,13,-1002,67,66,-5,-16,-111,-155,70.0,90.0,1500.0
13:30:51.348,GUIDED,-35.3632436,149.1652391,33452,-0.0616689994931221,0.1574583351612091,-0.4512767493724823,0.06656152755022049,0.06540697067975998,-0.004971502814441919,-22,13,-1002,67,66,-5,-16,-111,-155,70.0,90.0,1500.0
13:30:51.555,GUIDED,-35.3632436,149.1652391,33452,-0.0616689994931221,0.1574583351612091,-0.4512767493724823,0.06656152755022049,0.06540697067975998,-0.004971502814441919,-22,13,-1002,67,66,-5,-16,-111,-155,70.0,90.0,1500.0
13:30:51.761,GUIDED,-35.3632436,149.1652391,33452,-0.0616689994931221,0.1574583351612091,-0.4512767493724823,0.06656152755022049,0.06540697067975998,-0.004971502814441919,-22,13,-1002,67,66,-5,-16,-111,-155,70.0,90.0,1500.0
13:30:51.970,GUIDED,-35.3632436,149.1652391,33452,-0.0616689994931221,0.1574583351612091,-0.4512767493724823,0.06656152755022049,0.06540697067975998,-0.004971502814441919,-22,13,-1002,67,66,-5,-16,-111,-155,70.0,90.0,1500.0
13:30:52.172,GUIDED,-35.3632436,149.1652391,33452,-0.0616689994931221,0.1574583351612091,-0.4512767493724823,0.06656152755022049,0.06540697067975998,-0.004971502814441919,-22,13,-1002,67,66,-5,-16,-111,-155,70.0,90.0,1500.0
13:30:52.376,GUIDED,-35.3632509,149.1652313,34800,0.014375826343894005,0.1798407882452011,-0.4535840153694153,0.09872493892908096,-0.0196031853556633,0.00809064693748951,5,31,-995,99,-18,7,-161,-40,-137,70.0,90.0,1500.0
13:30:52.579,GUIDED,-35.3632689,149.1652333,36162,0.07315082848072052,0.042959246784448624,-0.3765975832939148,0.07896314561367035,-0.15179739892482758,0.09255687892436981,37,32,-1030,79,-150,92,-212,69,-138,70.0,90.0,1500.0
13:30:52.788,GUIDED,-35.3632689,149.1652333,36162,0.07315082848072052,0.042959246784448624,-0.3765975832939148,0.07896314561367035,-0.15179739892482758,0.09255687892436981,37,32,-1030,79,-150,92,-212,69,-138,70.0,90.0,1500.0
13:30:52.997,GUIDED,-35.3632689,149.1652333,36162,0.07315082848072052,0.042959246784448624,-0.3765975832939148,0.07896314561367035,-0.15179739892482758,0.09255687892436981,37,32,-1030,79,-150,92,-212,69,-138,70.0,90.0,1500.0
13:30:53.201,GUIDED,-35.3632689,149.1652333,36162,0.07315082848072052,0.042959246784448624,-0.3765975832939148,0.07896314561367035,-0.15179739892482758,0.09255687892436981,37,32,-1030,79,-150,92,-212,69,-138,70.0,90.0,1500.0
13:30:53.403,GUIDED,-35.3632689,149.1652333,36162,0.07315082848072052,0.042959246784448624,-0.3765975832939148,0.07896314561367035,-0.15179739892482758,0.09255687892436981,37,32,-1030,79,-150,92,-212,69,-138,70.0,90.0,1500.0
13:30:53.606,GUIDED,-35.3632689,149.1652333,36162,0.07315082848072052,0.042959246784448624,-0.3765975832939148,0.07896314561367035,-0.15179739892482758,0.09255687892436981,37,32,-1030,79,-150,92,-212,69,-138,70.0,90.0,1500.0
13:30:53.815,GUIDED,-35.3632689,149.1652333,36162,0.07315082848072052,0.042959246784448624,-0.3765975832939148,0.07896314561367035,-0.15179739892482758,0.09255687892436981,37,32,-1030,79,-150,92,-212,69,-138,70.0,90.0,1500.0
13:30:54.019,GUIDED,-35.3632689,149.1652333,36162,0.07315082848072052,0.042959246784448624,-0.3765975832939148,0.07896314561367035,-0.15179739892482758,0.09255687892436981,37,32,-1030,79,-150,92,-212,69,-138,70.0,90.0,1500.0
13:30:54.224,GUIDED,-35.3632689,149.1652333,36162,0.07315082848072052,0.042959246784448624,-0.3765975832939148,0.07896314561367035,-0.15179739892482758,0.09255687892436981,37,32,-1030,79,-150,92,-212,69,-138,70.0,90.0,1500.0
13:30:54.427,GUIDED,-35.3632689,149.1652333,36162,0.07315082848072052,0.042959246784448624,-0.3765975832939148,0.07896314561367035,-0.15179739892482758,0.09255687892436981,37,32,-1030,79,-150,92,-212,69,-138,70.0,90.0,1500.0
13:30:54.633,GUIDED,-35.3632846,149.1652569,38682,0.019637728109955788,-0.2555077373981476,-0.2080867737531662,-0.17962782084941864,-0.019612004980444908,0.03788257762789726,19,-24,-996,-178,-18,37,65,143,-143,70.0,90.0,1500.0
13:30:54.840,GUIDED,-35.3632826,149.1652606,39036,-0.028636405244469643,-0.23976239562034607,-0.21792727708816528,-0.22375333309173584,0.11653129756450653,-0.09210848063230515,3,-39,-997,-223,117,-92,124,120,-134,70.0,90.0,1500.0
13:30:55.042,GUIDED,-35.3632826,149.1652606,39036,-0.028636405244469643,-0.23976239562034607,-0.21792727708816528,-0.22375333309173584,0.11653129756450653,-0.09210848063230515,3,-39,-997,-223,117,-92,124,120,-134,70.0,90.0,1500.0
13:30:55.247,GUIDED,-35.3632826,149.1652606,39036,-0.028636405244469643,-0.23976239562034607,-0.21792727708816528,-0.22375333309173584,0.11653129756450653,-0.09210848063230515,3,-39,-997,-223,117,-92,124,120,-134,70.0,90.0,1500.0
13:30:55.453,GUIDED,-35.3632826,149.1652606,39036,-0.028636405244469643,-0.23976239562034607,-0.21792727708816528,-0.22375333309173584,0.11653129756450653,-0.09210848063230515,3,-39,-997,-223,117,-92,124,120,-134,70.0,90.0,1500.0
13:30:55.655,GUIDED,-35.3632826,149.1652606,39036,-0.028636405244469643,-0.23976239562034607,-0.21792727708816528,-0.22375333309173584,0.11653129756450653,-0.09210848063230515,3,-39,-997,-223,117,-92,124,120,-134,70.0,90.0,1500.0
13:30:55.858,GUIDED,-35.3632826,149.1652606,39036,-0.028636405244469643,-0.23976239562034607,-0.21792727708816528,-0.22375333309173584,0.11653129756450653,-0.09210848063230515,3,-39,-997,-223,117,-92,124,120,-134,70.0,90.0,1500.0
13:30:56.077,GUIDED,-35.3632826,149.1652606,39036,-0.028636405244469643,-0.23976239562034607,-0.21792727708816528,-0.22375333309173584,0.11653129756450653,-0.09210848063230515,3,-39,-997,-223,117,-92,124,120,-134,70.0,90.0,1500.0
13:30:56.281,GUIDED,-35.3632826,149.1652606,39036,-0.028636405244469643,-0.23976239562034607,-0.21792727708816528,-0.22375333309173584,0.11653129756450653,-0.09210848063230515,3,-39,-997,-223,117,-92,124,120,-134,70.0,90.0,1500.0
13:30:56.483,GUIDED,-35.3632826,149.1652606,39036,-0.028636405244469643,-0.23976239562034607,-0.21792727708816528,-0.22375333309173584,0.11653129756450653,-0.09210848063230515,3,-39,-997,-223,117,-92,124,120,-134,70.0,90.0,1500.0
13:30:56.685,GUIDED,-35.3632582,149.1652593,40872,-0.14017213881015778,0.0072129820473492146,-0.4537530839443207,0.08414927124977112,0.2287777215242386,0.017515134066343307,-54,-21,-1052,85,229,17,183,-140,-136,70.0,90.0,1500.0
13:30:56.889,GUIDED,-35.3632545,149.1652551,41230,-0.12514036893844604,0.05788402259349823,-0.45734935998916626,0.04354005679488182,0.17913396656513214,0.006597185507416725,-51,-12,-1048,44,179,6,147,-166,-145,70.0,90.0,1500.0
13:30:57.093,GUIDED,-35.3632545,149.1652551,41230,-0.12514036893844604,0.05788402259349823,-0.45734935998916626,0.04354005679488182,0.17913396656513214,0.006597185507416725,-51,-12,-1048,44,179,6,147,-166,-145,70.0,90.0,1500.0
13:30:57.294,GUIDED,-35.3632545,149.1652551,41230,-0.12514036893844604,0.05788402259349823,-0.45734935998916626,0.04354005679488182,0.17913396656513214,0.006597185507416725,-51,-12,-1048,44,179,6,147,-166,-145,70.0,90.0,1500.0
13:30:57.503,GUIDED,-35.3632545,149.1652551,41230,-0.12514036893844604,0.05788402259349823,-0.45734935998916626,0.04354005679488182,0.17913396656513214,0.006597185507416725,-51,-12,-1048,44,179,6,147,-166,-145,70.0,90.0,1500.0
13:30:57.708,GUIDED,-35.3632545,149.1652551,41230,-0.12514036893844604,0.05788402259349823,-0.45734935998916626,0.04354005679488182,0.17913396656513214,0.006597185507416725,-51,-12,-1048,44,179,6,147,-166,-145,70.0,90.0,1500.0
13:30:57.911,GUIDED,-35.3632545,149.1652551,41230,-0.12514036893844604,0.05788402259349823,-0.45734935998916626,0.04354005679488182,0.17913396656513214,0.006597185507416725,-51,-12,-1048,44,179,6,147,-166,-145,70.0,90.0,1500.0
13:30:58.114,GUIDED,-35.3632545,149.1652551,41230,-0.12514036893844604,0.05788402259349823,-0.45734935998916626,0.04354005679488182,0.17913396656513214,0.006597185507416725,-51,-12,-1048,44,179,6,147,-166,-145,70.0,90.0,1500.0
13:30:58.324,GUIDED,-35.3632545,149.1652551,41230,-0.12514036893844604,0.05788402259349823,-0.45734935998916626,0.04354005679488182,0.17913396656513214,0.006597185507416725,-51,-12,-1048,44,179,6,147,-166,-145,70.0,90.0,1500.0
13:30:58.525,GUIDED,-35.363249,149.1652411,42298,-0.09240932762622833,0.15661557018756866,-0.46844813227653503,0.06845203787088394,0.12345242500305176,-0.0010339240543544292,-51,-12,-1048,44,179,6,15,-187,-153,70.0,90.0,1500.0
13:30:58.731,GUIDED,-35.363253,149.1652275,43430,-0.003808374982327223,0.22364644706249237,-0.46034562587738037,0.021057074889540672,-0.062717966735363,0.09294325858354568,-17,39,-999,108,48,7,-140,-134,-140,70.0,90.0,1500.0
13:30:58.934,LAND,-35.3632724,149.1652196,44728,0.034435734152793884,0.11031615734100342,-0.3551594018936157,0.07791480422019958,-0.15483176708221436,0.1423226296901703,30,51,-1027,78,-153,142,-271,-16,-124,70.0,90.0,1500.0
13:30:59.138,LAND,-35.3632903,149.1652219,45765,0.12143561989068985,-0.004341314546763897,-0.28443682193756104,0.10713423043489456,-0.15175963938236237,0.08764684200286865,52,32,-1038,107,-150,87,-248,73,-147,70.0,90.0,1500.0
13:30:59.343,LAND,-35.3632903,149.1652219,45765,0.12143561989068985,-0.004341314546763897,-0.28443682193756104,0.10713423043489456,-0.15175963938236237,0.08764684200286865,52,32,-1038,107,-150,87,-248,73,-147,70.0,90.0,1500.0
13:30:59.545,LAND,-35.3632903,149.1652219,45765,0.12143561989068985,-0.004341314546763897,-0.28443682193756104,0.10713423043489456,-0.15175963938236237,0.08764684200286865,52,32,-1038,107,-150,87,-248,73,-147,70.0,90.0,1500.0
13:30:59.753,LAND,-35.3632903,149.1652219,45765,0.12143561989068985,-0.004341314546763897,-0.28443682193756104,0.10713423043489456,-0.15175963938236237,0.08764684200286865,52,32,-1038,107,-150,87,-248,73,-147,70.0,90.0,1500.0
13:30:59.957,LAND,-35.3632903,149.1652219,45765,0.12143561989068985,-0.004341314546763897,-0.28443682193756104,0.10713423043489456,-0.15175963938236237,0.08764684200286865,52,32,-1038,107,-150,87,-248,73,-147,70.0,90.0,1500.0
13:31:00.161,LAND,-35.3632903,149.1652219,45765,0.12143561989068985,-0.004341314546763897,-0.28443682193756104,0.10713423043489456,-0.15175963938236237,0.08764684200286865,52,32,-1038,107,-150,87,-248,73,-147,70.0,90.0,1500.0
13:31:00.369,LAND,-35.3632903,149.1652219,45765,0.12143561989068985,-0.004341314546763897,-0.28443682193756104,0.10713423043489456,-0.15175963938236237,0.08764684200286865,52,32,-1038,107,-150,87,-248,73,-147,70.0,90.0,1500.0
13:31:00.573,LAND,-35.3632903,149.1652219,45765,0.12143561989068985,-0.004341314546763897,-0.28443682193756104,0.10713423043489456,-0.15175963938236237,0.08764684200286865,52,32,-1038,107,-150,87,-248,73,-147,70.0,90.0,1500.0
13:31:00.778,LAND,-35.3632903,149.1652219,45765,0.12143561989068985,-0.004341314546763897,-0.28443682193756104,0.10713423043489456,-0.15175963938236237,0.08764684200286865,52,32,-1038,107,-150,87,-248,73,-147,70.0,90.0,1500.0
13:31:00.980,LAND,-35.3632903,149.1652219,45765,0.12143561989068985,-0.004341314546763897,-0.28443682193756104,0.10713423043489456,-0.15175963938236237,0.08764684200286865,52,32,-1038,107,-150,87,-248,73,-147,70.0,90.0,1500.0
13:31:01.183,LAND,-35.3633051,149.1652352,47229,-0.009111996740102768,-0.3515459895133972,-0.12058950960636139,-0.3960570991039276,-0.7362009286880493,0.1531020551919937,44,-13,-973,-395,-735,153,-59,151,-141,410.0,90.0,1500.0
13:31:01.385,LAND,-35.3632858,149.1652416,47900,-0.024935975670814514,-0.03802734240889549,-0.15256626904010773,0.3390725255012512,0.5544872283935547,-0.04023759439587593,-56,-33,-981,341,555,-39,305,-49,0,410.0,90.0,1500.0
13:31:01.589,LAND,-35.3632616,149.1652349,47358,0.057799458503723145,0.15744495391845703,-0.17484931647777557,1.3982809782028198,-0.08395460993051529,-0.02588731236755848,-19,43,-1050,1400,-83,-25,105,-20,73,410.0,90.0,1500.0
13:31:01.793,LAND,-35.3632579,149.1652354,45884,-0.022972242906689644,0.05810375139117241,-0.19958339631557465,-1.923774242401123,-0.07933341711759567,-0.011223373003304005,9,-44,-765,-1918,-78,-10,-10,16,189,410.0,90.0,1500.0
13:31:01.996,LAND,-35.3632612,149.165239,41280,-0.037861645221710205,-0.012734971940517426,-0.21970437467098236,-1.433517575263977,-0.01477128267288208,-0.013049622997641563,5,-11,-1024,-1668,-2,-14,-21,6,309,410.0,90.0,1500.0
13:31:02.204,LAND,-35.3632612,149.165239,41280,-0.037861645221710205,-0.012734971940517426,-0.21970437467098236,-1.433517575263977,-0.01477128267288208,-0.013049622997641563,4,-15,-1002,-1420,-13,-12,-21,6,309,170.0,90.0,1500.0
13:31:02.407,LAND,-35.3632612,149.165239,41280,-0.037861645221710205,-0.012734971940517426,-0.21970437467098236,-1.433517575263977,-0.01477128267288208,-0.013049622997641563,4,-15,-1002,-1420,-13,-12,-21,6,309,170.0,90.0,1500.0
13:31:02.613,LAND,-35.3632612,149.165239,41280,-0.037861645221710205,-0.012734971940517426,-0.21970437467098236,-1.433517575263977,-0.01477128267288208,-0.013049622997641563,4,-15,-1002,-1420,-13,-12,-21,6,309,170.0,90.0,1500.0
13:31:02.822,LAND,-35.3632612,149.165239,41280,-0.037861645221710205,-0.012734971940517426,-0.21970437467098236,-1.433517575263977,-0.01477128267288208,-0.013049622997641563,4,-15,-1002,-1420,-13,-12,-21,6,309,170.0,90.0,1500.0
13:31:05.237,LAND,-35.3632612,149.165239,41280,-0.037861645221710205,-0.012734971940517426,-0.21970437467098236,-1.433517575263977,-0.01477128267288208,-0.013049622997641563,4,-15,-1002,-1420,-13,-12,-21,6,309,170.0,90.0,1500.0
13:31:05.440,LAND,-35.3632612,149.165239,41280,-0.037861645221710205,-0.012734971940517426,-0.21970437467098236,-1.433517575263977,-0.01477128267288208,-0.013049622997641563,4,-15,-1002,-1420,-13,-12,-21,6,309,170.0,90.0,1500.0
13:31:05.647,LAND,-35.3632612,149.165239,41280,-0.037861645221710205,-0.012734971940517426,-0.21970437467098236,-1.433517575263977,-0.01477128267288208,-0.013049622997641563,4,-15,-1002,-1420,-13,-12,-21,6,309,170.0,90.0,1500.0
13:31:05.857,LAND,-35.3632612,149.165239,41280,-0.037861645221710205,-0.012734971940517426,-0.21970437467098236,-1.433517575263977,-0.01477128267288208,-0.013049622997641563,4,-15,-1002,-1420,-13,-12,-21,6,309,170.0,90.0,1500.0
13:31:06.064,LAND,-35.3632612,149.165239,41280,-0.037861645221710205,-0.012734971940517426,-0.21970437467098236,-1.433517575263977,-0.01477128267288208,-0.013049622997641563,4,-15,-1002,-1420,-13,-12,-21,6,309,170.0,90.0,1500.0
13:31:06.266,LAND,-35.3632612,149.165239,41280,-0.037861645221710205,-0.012734971940517426,-0.21970437467098236,-1.433517575263977,-0.01477128267288208,-0.013049622997641563,4,-15,-1002,-1420,-13,-12,-21,6,309,170.0,90.0,1500.0
13:31:06.474,LAND,-35.3632631,149.1652396,38710,0.01029850635677576,-0.013837709091603756,-0.23166489601135254,1.3058687448501587,-0.01879841275513172,-0.016470737755298615,1,52,-1112,1307,-18,-15,-5,-13,99,170.0,90.0,1500.0
13:31:06.676,LAND,-35.3632638,149.1652386,37666,-0.008308498188853264,-0.011110180988907814,-0.24499934911727905,0.17694160342216492,-0.0037821894511580467,-0.001791318180039525,-1,50,-935,192,-3,-1,7,-12,85,170.0,90.0,1500.0
13:31:06.880,LAND,-35.3632638,149.1652384,37443,-0.008212095126509666,-0.00953127071261406,-0.2478884905576706,0.24737149477005005,0.0046990360133349895,0.005107724107801914,-1,59,-923,264,5,5,8,-11,87,170.0,90.0,1500.0
13:31:07.083,LAND,-35.3632638,149.1652384,37443,-0.008212095126509666,-0.00953127071261406,-0.2478884905576706,0.24737149477005005,0.0046990360133349895,0.005107724107801914,-1,59,-923,264,5,5,8,-11,87,170.0,90.0,1500.0
13:31:07.293,LAND,-35.3632638,149.1652384,37443,-0.008212095126509666,-0.00953127071261406,-0.2478884905576706,0.24737149477005005,0.0046990360133349895,0.005107724107801914,-1,59,-923,264,5,5,8,-11,87,170.0,90.0,1500.0
13:31:07.496,LAND,-35.3632638,149.1652384,37443,-0.008212095126509666,-0.00953127071261406,-0.2478884905576706,0.24737149477005005,0.0046990360133349895,0.005107724107801914,-1,59,-923,264,5,5,8,-11,87,170.0,90.0,1500.0
13:31:07.700,LAND,-35.3632638,149.1652384,37443,-0.008212095126509666,-0.00953127071261406,-0.2478884905576706,0.24737149477005005,0.0046990360133349895,0.005107724107801914,-1,59,-923,264,5,5,8,-11,87,170.0,90.0,1500.0
13:31:07.903,LAND,-35.3632638,149.1652384,37443,-0.008212095126509666,-0.00953127071261406,-0.2478884905576706,0.24737149477005005,0.0046990360133349895,0.005107724107801914,-1,59,-923,264,5,5,8,-11,87,170.0,90.0,1500.0
13:31:08.107,LAND,-35.3632638,149.1652384,37443,-0.008212095126509666,-0.00953127071261406,-0.2478884905576706,0.24737149477005005,0.0046990360133349895,0.005107724107801914,-1,59,-923,264,5,5,8,-11,87,170.0,90.0,1500.0
13:31:08.315,LAND,-35.3632638,149.1652384,37443,-0.008212095126509666,-0.00953127071261406,-0.2478884905576706,0.24737149477005005,0.0046990360133349895,0.005107724107801914,-1,59,-923,264,5,5,8,-11,87,310.0,90.0,1500.0
13:31:08.520,LAND,-35.3632638,149.1652384,37443,-0.008212095126509666,-0.00953127071261406,-0.2478884905576706,0.24737149477005005,0.0046990360133349895,0.005107724107801914,-1,59,-923,264,5,5,8,-11,87,310.0,90.0,1500.0
13:31:08.725,LAND,-35.3632638,149.1652384,37443,-0.008212095126509666,-0.00953127071261406,-0.2478884905576706,0.24737149477005005,0.0046990360133349895,0.005107724107801914,-1,59,-923,264,5,5,8,-11,87,310.0,90.0,1500.0
13:31:08.931,LAND,-35.3632638,149.1652384,37443,-0.008212095126509666,-0.00953127071261406,-0.2478884905576706,0.24737149477005005,0.0046990360133349895,0.005107724107801914,-1,59,-923,264,5,5,8,-11,87,310.0,90.0,1500.0
13:31:09.135,LAND,-35.3632638,149.1652384,37443,-0.008212095126509666,-0.00953127071261406,-0.2478884905576706,0.24737149477005005,0.0046990360133349895,0.005107724107801914,-1,59,-923,264,5,5,8,-11,87,310.0,90.0,1500.0
13:31:09.340,LAND,-35.3632631,149.1652384,34666,0.02857843041419983,-0.002112946705892682,-0.2647455334663391,1.6736345291137695,-0.0038131943438202143,-0.01911805011332035,-1,23,-977,1662,-3,-18,8,-7,230,310.0,90.0,1500.0
13:31:09.544,LAND,-35.3632629,149.1652381,32343,-0.024139000102877617,-0.0006700278026983142,-0.271744042634964,-2.076361894607544,-0.005220490507781506,-0.0041924044489860535,0,-61,-1040,-2071,-5,-3,8,-3,217,160.0,90.0,1500.0
13:31:09.746,LAND,-35.3632629,149.1652381,32343,-0.024139000102877617,-0.0006700278026983142,-0.271744042634964,-2.076361894607544,-0.005220490507781506,-0.0041924044489860535,0,-61,-1040,-2071,-5,-3,8,-3,217,160.0,90.0,1500.0
13:31:09.952,LAND,-35.3632629,149.1652381,32343,-0.024139000102877617,-0.0006700278026983142,-0.271744042634964,-2.076361894607544,-0.005220490507781506,-0.0041924044489860535,0,-61,-1040,-2071,-5,-3,8,-3,217,160.0,90.0,1500.0
13:31:10.165,LAND,-35.3632629,149.1652381,32343,-0.024139000102877617,-0.0006700278026983142,-0.271744042634964,-2.076361894607544,-0.005220490507781506,-0.0041924044489860535,0,-61,-1040,-2071,-5,-3,8,-3,217,160.0,90.0,1500.0
13:31:10.368,LAND,-35.3632629,149.1652381,32343,-0.024139000102877617,-0.0006700278026983142,-0.271744042634964,-2.076361894607544,-0.005220490507781506,-0.0041924044489860535,0,-61,-1040,-2071,-5,-3,8,-3,217,160.0,90.0,1500.0
13:31:10.575,LAND,-35.3632629,149.1652381,32343,-0.024139000102877617,-0.0006700278026983142,-0.271744042634964,-2.076361894607544,-0.005220490507781506,-0.0041924044489860535,0,-61,-1040,-2071,-5,-3,8,-3,217,160.0,90.0,1500.0
13:31:10.781,LAND,-35.3632629,149.1652381,32343,-0.024139000102877617,-0.0006700278026983142,-0.271744042634964,-2.076361894607544,-0.005220490507781506,-0.0041924044489860535,0,-61,-1040,-2071,-5,-3,8,-3,217,160.0,90.0,1500.0
13:31:10.992,LAND,-35.3632629,149.1652381,32343,-0.024139000102877617,-0.0006700278026983142,-0.271744042634964,-2.076361894607544,-0.005220490507781506,-0.0041924044489860535,0,-61,-1040,-2071,-5,-3,8,-3,217,160.0,90.0,1500.0
13:31:11.201,LAND,-35.3632629,149.1652381,32343,-0.024139000102877617,-0.0006700278026983142,-0.271744042634964,-2.076361894607544,-0.005220490507781506,-0.0041924044489860535,0,-61,-1040,-2071,-5,-3,8,-3,217,160.0,90.0,1500.0
13:31:11.407,LAND,-35.3632628,149.165238,31039,-0.021300913766026497,-0.0022906791418790817,-0.27604469656944275,-1.0694520473480225,-0.004101191181689501,-0.0035926878917962313,0,-61,-1040,-2071,-5,-3,6,-3,86,160.0,90.0,1500.0
13:31:11.612,LAND,-35.3632627,149.1652378,30612,-0.00901890266686678,-0.00199968577362597,-0.2803296148777008,-1.1045100688934326,-0.010020473971962929,-0.0012964155757799745,-2,-37,-968,-1188,1,-7,5,-4,73,160.0,90.0,1500.0
13:31:11.815,LAND,-35.3632629,149.1652364,29483,-0.0033840243704617023,-0.0012648931005969644,-0.2865946888923645,-1.3500821590423584,-0.003057314082980156,-0.0031784898601472378,-2,-42,-984,-1374,4,-4,5,1,99,160.0,90.0,1500.0
13:31:12.019,LAND,-35.3632629,149.1652364,29483,-0.0033840243704617023,-0.0012648931005969644,-0.2865946888923645,-1.3500821590423584,-0.003057314082980156,-0.0031784898601472378,-2,-40,-985,-1347,-2,-2,5,1,99,330.0,90.0,1500.0
13:31:12.224,LAND,-35.3632629,149.1652364,29483,-0.0033840243704617023,-0.0012648931005969644,-0.2865946888923645,-1.3500821590423584,-0.003057314082980156,-0.0031784898601472378,-2,-40,-985,-1347,-2,-2,5,1,99,330.0,90.0,1500.0
13:31:12.429,LAND,-35.3632629,149.1652364,29483,-0.0033840243704617023,-0.0012648931005969644,-0.2865946888923645,-1.3500821590423584,-0.003057314082980156,-0.0031784898601472378,-2,-40,-985,-1347,-2,-2,5,1,99,330.0,90.0,1500.0
13:31:12.635,LAND,-35.3632629,149.1652364,29483,-0.0033840243704617023,-0.0012648931005969644,-0.2865946888923645,-1.3500821590423584,-0.003057314082980156,-0.0031784898601472378,-2,-40,-985,-1347,-2,-2,5,1,99,330.0,90.0,1500.0
13:31:12.839,LAND,-35.3632629,149.1652364,29483,-0.0033840243704617023,-0.0012648931005969644,-0.2865946888923645,-1.3500821590423584,-0.003057314082980156,-0.0031784898601472378,-2,-40,-985,-1347,-2,-2,5,1,99,330.0,90.0,1500.0
13:31:13.044,LAND,-35.3632629,149.1652364,29483,-0.0033840243704617023,-0.0012648931005969644,-0.2865946888923645,-1.3500821590423584,-0.003057314082980156,-0.0031784898601472378,-2,-40,-985,-1347,-2,-2,5,1,99,330.0,90.0,1500.0
13:31:13.247,LAND,-35.3632629,149.1652364,29483,-0.0033840243704617023,-0.0012648931005969644,-0.2865946888923645,-1.3500821590423584,-0.003057314082980156,-0.0031784898601472378,-2,-40,-985,-1347,-2,-2,5,1,99,330.0,90.0,1500.0
13:31:13.451,LAND,-35.3632629,149.1652364,29483,-0.0033840243704617023,-0.0012648931005969644,-0.2865946888923645,-1.3500821590423584,-0.003057314082980156,-0.0031784898601472378,-2,-40,-985,-1347,-2,-2,5,1,99,330.0,90.0,1500.0
