time_stamp,roll,pitch,yaw,rollspeed,pitchspeed,yawspeed,alt,lat,lon,relative_alt,vx,vy,vz,xacc,yacc,zacc,xgyro,ygyro,zgyro,MODE
10:30:38,-0.0007602241239510477,0.0011590741341933608,0.026176229119300842,0.00020755757577717304,0.00027473128284327686,0.0020863956306129694,583970.0,-35.363298,149.1652146,0.0,-1.0,1.0,0.0,0.0,1.0,-1000.0,1.0,0.0,1.0,STABILIZE
10:30:40,-0.0009602102509234101,0.0008847340359352529,0.025238276459276676,0.00027736174524761736,7.927068509161472e-05,0.0019673335482366383,583970.0,-35.363298,149.1652146,0.0,-1.0,0.5,-1.5,0.0,1.0,-1000.0,0.0,0.0,0.5,STABILIZE
10:30:42,-0.0005727584745424489,0.0008704077530031403,0.0246376134455204,0.0002423527572924892,0.00022180056354651848,0.0018259645827735465,583980.0,-35.363298,149.16521463333333,0.0,-1.0,0.3333333333333333,-1.3333333333333333,0.0,1.4,-1000.0,0.0,0.4,0.0,STABILIZE
10:30:44,-0.00037858683936065063,0.0009378987888339907,0.023737790528684855,0.0002290411212015897,0.00024889330961741507,0.0017904434935189784,583980.0,-35.363298,149.1652147,0.0,-1.0,1.0,-0.5,0.0,1.0,-1000.0,0.3333333333333333,0.0,0.3333333333333333,STABILIZE
10:30:49,-0.0003014929010532796,0.0009531188523396849,0.022489657253026964,0.0002934915479272604,0.00020296709844842554,0.001635919394902885,583976.6666666666,-35.363298,149.1652148,0.0,-1.0,0.3333333333333333,-1.0,0.0,0.25,-1002.0,0.25,0.0,0.5,STABILIZE
10:30:51,-0.0003733642612739156,0.0009467245739263793,0.02194592108329137,0.00030742655508220196,0.000191638032750537,0.0015748726048817236,583972.5,-35.363298,149.165214825,0.0,-1.0,1.25,0.0,0.0,1.3333333333333333,-1000.0,0.3333333333333333,0.0,0.6666666666666666,STABILIZE
10:30:57,-0.0007683516679597753,0.0009435061365365982,0.02060965501836368,0.00026895422654758604,0.0002516615786589682,0.0013796279838840877,583935.7142857143,-35.3632981,149.1652149,2.0,-1.0,1.7142857142857142,2.4285714285714284,0.0,1.1428571428571428,-1000.0,0.5714285714285714,0.42857142857142855,0.42857142857142855,AUTO
10:30:59,-0.0008378609532623418,0.0011973926198801824,0.020286550213183676,0.000282527063973248,0.00026370008708909154,0.00133458137445684,583921.4285714285,-35.3632981,149.1652149,0.14285714285714285,0.0,-0.2857142857142857,1.4285714285714286,0.0,1.4285714285714286,-1000.0,0.5714285714285714,0.14285714285714285,1.0,AUTO
10:31:02,0.0006715485505992547,0.0011918786112801172,0.02002690825611353,0.003592621287680231,-0.0012160932819824666,0.0010792956745717674,583930.0,-35.3632981,149.1652149,8.25,0.0,0.0,-6.5,0.0,1.0,-1035.75,4.0,-0.75,0.75,AUTO
10:31:03,0.014487153401465289,-0.0007538805761474318,0.01950103496866567,0.023799536749720573,-0.002640320944400238,0.00172308087764707,584944.2857142857,-35.363298,149.16521505714286,1019.1428571428571,1.2857142857142858,4.714285714285714,-119.42857142857143,0.0,-0.5714285714285714,-1061.142857142857,24.571428571428573,-1.8571428571428572,1.0,AUTO
10:31:05,0.06569370552897454,-0.005774236377328634,-0.01712024984881282,-0.01876045875251293,0.027322157099843026,-0.04947484191507101,587926.0,-35.36329656,149.16522234,4001.4,19.0,77.2,-148.0,3.2,-14.6,-997.4,-18.0,27.6,-49.4,AUTO
10:31:07,-0.03550758259370923,0.07359433844685555,-0.24107688963413237,-0.08823605924844742,-0.0181392565369606,-0.11696638762950898,590064.0,-35.363298,149.16524704,6139.0,-46.8,135.6,-140.0,13.8,-13.2,-1004.4,-86.8,-17.4,-116.6,AUTO
10:31:08,-0.07429904770106077,-0.0033514185051899403,-0.13569218665361404,0.06923348736017942,-0.025113173061981797,-0.015188971883617342,592700.0,-35.363305675,149.165254925,8775.25,-66.5,-14.75,-145.25,4.5,18.75,-1001.5,69.5,-24.0,-14.75,AUTO
10:31:09,0.047037784941494465,-0.01829904392361641,-0.13755006194114686,0.06296874769032001,-0.014147589926142245,0.022382505517452956,595448.0,-35.363314499999994,149.16523927999998,11521.4,-43.6,-36.8,-159.2,-1.0,17.6,-1004.4,63.4,-13.6,22.0,AUTO
10:31:10,0.04475090652704239,-0.10859093566735585,-0.11666867136955261,-0.08405209456880887,-0.11663843442996343,0.16775639355182648,597880.0,-35.36331473333333,149.16523413333334,13954.666666666666,55.333333333333336,19.333333333333332,-155.0,-2.3333333333333335,-10.333333333333334,-989.3333333333334,-82.33333333333333,-115.66666666666667,167.33333333333334,AUTO
10:31:11,-0.026624219492077827,-0.15051447600126266,-0.11783701553940773,-0.07939724251627922,0.06337281968444586,0.07020583562552929,598855.0,-35.3633083,149.16523215,14928.0,148.0,-18.5,-145.5,-18.0,-20.5,-993.5,-77.5,63.5,69.5,AUTO
10:31:12,-0.07390846312046051,-0.005868392065167427,-0.09924901090562344,0.0021073762327432632,0.13527202047407627,-0.043102459982037544,600080.0,-35.363291675,149.16522909999998,16154.5,183.5,-89.5,-141.25,-41.75,-17.25,-1023.0,3.25,135.25,-42.5,AUTO
10:31:13,-0.05247194878757,0.08640314638614655,-0.10490871220827103,0.04402080178260803,0.10897554829716682,-0.025160495191812515,600990.0,-35.36328185,149.1652241,17066.0,118.0,-118.5,-146.5,-39.0,-0.5,-1019.0,44.5,109.0,-24.5,AUTO
10:31:15,0.051060530182439834,0.16301380346218744,-0.1410456895828247,0.06801352060089509,-0.0254262771923095,0.014773297608674815,603228.3333333334,-35.36328253333333,149.16521158333333,19300.166666666668,-108.83333333333333,-46.666666666666664,-133.66666666666666,5.333333333333333,21.833333333333332,-996.6666666666666,68.16666666666667,-24.833333333333332,15.0,AUTO
10:31:17,0.0292907296679914,-0.10639649008711179,0.02074698106540988,-0.09402621227006118,-0.08856414817273617,0.0595668318370978,606711.6666666666,-35.36330631666667,149.16521889999999,22787.666666666668,-80.66666666666667,107.33333333333333,-159.66666666666666,35.5,-11.166666666666666,-1020.3333333333334,-92.33333333333333,-87.16666666666667,59.666666666666664,AUTO
10:31:19,-0.17891335785388945,-0.05040628770366311,-0.2048248827457428,-0.01101810708642006,0.11781219840049743,-0.13204269036650657,609580.0,-35.36330052,149.16522372,25654.6,102.2,-98.6,-154.0,-18.0,-10.4,-1008.4,-9.6,118.0,-130.8,AUTO
10:31:22,-0.0009543375732998053,0.13217642779151598,-0.3236553768316905,0.11216533432404201,0.04765513135741154,0.0037566328925701478,612520.0,-35.36330056666666,149.16518803333332,28594.5,-112.16666666666667,-170.83333333333334,-148.33333333333334,-16.666666666666668,41.333333333333336,-1013.5,112.33333333333333,48.166666666666664,4.666666666666667,AUTO
10:31:24,0.18532345443964005,-0.0186306059670945,-0.2894712636868159,0.012307077646255493,-0.17813733468453088,0.10938719597955544,614821.6666666666,-35.363328599999996,149.16519085000002,30894.333333333332,-151.66666666666666,171.5,-121.83333333333333,49.333333333333336,8.333333333333334,-1015.0,12.5,-177.0,110.5,AUTO
10:31:26,-0.10758585234483083,-0.0930469964320461,-0.24089128027359644,-0.02425408611694972,0.22606984277566275,-0.03858436970040202,617318.3333333334,-35.363304516666666,149.16523454999998,33392.0,209.83333333333334,88.33333333333333,-123.66666666666667,-17.833333333333332,-41.0,-1036.3333333333333,-23.666666666666668,226.33333333333334,-36.833333333333336,LOITER
10:31:28,0.02472232763345043,0.094122515215228,-0.09925324873377879,0.018457139531771343,-0.16406183045667908,0.22274252260103822,620608.3333333334,-35.36328511666667,149.16523314999998,36681.166666666664,-30.166666666666668,-22.666666666666668,-99.0,-6.333333333333333,9.833333333333334,-877.8333333333334,19.0,-163.5,224.16666666666666,LOITER
10:31:30,0.03997553916027149,-0.03346432151738554,0.03800851913789908,-1.2395378251870472,0.13141797700275978,0.0004446813836693764,619213.3333333334,-35.36328613333333,149.16523315,35287.166666666664,41.333333333333336,64.16666666666667,173.0,-4.333333333333333,-69.83333333333333,-1043.3333333333333,-1239.1666666666667,131.83333333333334,2.1666666666666665,LAND
10:31:32,0.0008979696528209994,0.000554884423763724,-0.0017493225999108593,0.09013531605402629,0.005024572465724002,-0.012082977686077356,617696.6666666666,-35.3632997,149.16525201666667,33772.5,5.166666666666667,63.0,-0.16666666666666666,-5.666666666666667,-6.833333333333333,-1025.3333333333333,91.66666666666667,5.333333333333333,-9.833333333333334,LAND
10:31:34,0.002829760507059594,0.00014528196212874414,-0.026751254064341385,-0.11109972997413327,0.0032859384858359895,-0.011599353902662793,617870.0,-35.36329431666666,149.1652556,33942.833333333336,25.166666666666668,18.833333333333332,3.8333333333333335,-5.666666666666667,-18.333333333333332,-962.8333333333334,-111.5,4.0,-9.666666666666666,LAND
10:31:36,0.019502673919002216,0.00013190713434596546,-0.04895514932771524,1.2291464979449909,0.0011795254152578611,-0.00476459925994277,616938.3333333334,-35.36328650000001,149.16526771666665,33010.666666666664,26.0,39.333333333333336,105.16666666666667,-6.166666666666667,50.5,-995.8333333333334,1228.6666666666667,2.3333333333333335,-2.6666666666666665,LAND
10:31:38,0.009323871568388617,0.0006939071148129491,-0.05953397912283739,1.0489304860432942,-0.002943759822907547,-0.006582538054014246,615190.0,-35.363277,149.16531393333332,31265.333333333332,25.166666666666668,136.16666666666666,79.83333333333333,-3.3333333333333335,86.33333333333333,-1005.3333333333334,1056.5,-1.6666666666666667,-4.166666666666667,LAND
10:31:40,-0.0032921233602489033,0.000889397883535518,-0.06931740169723828,-0.1358014034728209,-0.005443716635151456,-0.01368933659978211,613175.0,-35.363279416666664,149.1652722,29248.666666666668,-9.833333333333334,-3.3333333333333335,49.666666666666664,-1.0,15.5,-1028.3333333333333,-135.16666666666666,-4.5,-11.666666666666666,LAND
10:31:42,0.06297737701485555,-0.025933132725185715,-0.08406010270118713,0.6573199431101481,-0.051113135588821024,-0.005433081338802974,611823.3333333334,-35.36328953333333,149.16525076666667,27898.166666666668,-29.0,-24.5,84.5,2.8333333333333335,9.5,-923.6666666666666,653.6666666666666,-50.666666666666664,-3.8333333333333335,LOITER
10:31:44,0.1794315775235494,0.012060932038972775,-0.088303384060661,-0.12309883100291093,0.23582864770044884,0.039249119659264885,608878.3333333334,-35.36329558333333,149.16523286666668,24952.666666666668,77.0,104.16666666666667,185.83333333333334,18.333333333333332,-17.166666666666668,-1028.5,-109.33333333333333,235.33333333333334,40.5,LOITER
10:31:46,-0.10095915074149768,0.04017952767511209,-0.0289847186456124,0.3800128201643626,-0.0602268953807652,-0.014349747410354515,605423.3333333334,-35.363288266666665,149.16525928333334,21497.166666666668,-27.666666666666668,-10.5,177.66666666666666,17.0,-36.0,-989.0,376.8333333333333,-59.666666666666664,-12.5,AUTO
10:31:48,0.009129924602651348,-0.0014322590298737243,-0.03733640785018603,-0.15331073788305125,0.003252460931738218,0.0005995906152141591,604060.0,-35.36328888333333,149.16526116666668,20133.5,-1.3333333333333333,-21.5,15.5,6.666666666666667,-14.0,-995.3333333333334,-149.83333333333334,3.1666666666666665,2.3333333333333335,LAND
10:31:50,-0.004910417017526925,0.0017737597227096558,-0.04142373179395994,-0.3348245353748401,-0.0009905285260174423,-0.004127461540823181,603978.3333333334,-35.36328465,149.16525218333334,20053.666666666668,18.666666666666668,-60.5,8.333333333333334,-1.6666666666666667,-16.666666666666668,-1002.3333333333334,-330.8333333333333,-0.3333333333333333,-2.0,LAND
10:31:52,-0.007146128739501971,0.0011940607607054214,-0.04819266808529695,-0.5820144191384315,-0.0002408032160019502,0.00016538841494669518,603436.6666666666,-35.363280800000005,149.16524301666666,19510.166666666668,18.333333333333332,-64.5,24.5,-5.333333333333333,-19.0,-983.8333333333334,-578.6666666666666,0.16666666666666666,2.0,LAND
10:31:55,0.01246165530756116,0.0007215063184654961,-0.05265722734232744,0.9495361341784397,-6.428314372897148e-05,-0.0012031881293902795,602410.0,-35.36327754999999,149.1652452,18483.166666666668,16.0,-18.666666666666668,49.333333333333336,-8.333333333333334,45.5,-1047.0,952.1666666666666,0.3333333333333333,0.8333333333333334,LAND
10:31:57,0.000514403839285175,0.0008091763593256474,-0.05922023765742779,0.05141816784938177,0.0016270554430472355,0.007641587018345793,601288.3333333334,-35.363277800000006,149.16528585,17361.5,4.833333333333333,96.5,-2.3333333333333335,-11.5,25.666666666666668,-959.8333333333334,54.5,1.5,10.5,LAND
10:31:59,0.00019576747339063635,0.0005514543202783292,-0.05882026938100656,-0.08834594426055749,0.0012033529637847096,-0.0020878377060095468,600166.6666666666,-35.363269433333336,149.16530263333334,16241.333333333334,14.166666666666666,111.16666666666667,13.333333333333334,-14.833333333333334,25.333333333333332,-1045.8333333333333,-87.66666666666667,1.5,0.6666666666666666,LAND
10:32:01,-0.0022256450999217727,0.00018191438963791975,-0.05864238552749157,0.13091270998120308,-0.0043496529494101805,-0.014980143401771784,599471.6666666666,-35.363270533333335,149.16527543333333,15546.0,-11.833333333333334,-2.8333333333333335,16.833333333333332,-9.5,38.333333333333336,-992.1666666666666,134.0,-3.5,-12.0,LAND
10:32:03,0.004476116892571251,-0.00316323463145333,-0.06360157703359921,0.44708051284154254,-0.02347168435032169,-0.015455228586991629,599108.3333333334,-35.363278916666665,149.16524325,15182.333333333334,-32.666666666666664,-73.16666666666667,64.66666666666667,-2.8333333333333335,44.666666666666664,-956.6666666666666,454.5,-22.833333333333332,-13.166666666666666,LOITER
10:32:05,-0.0016769666690379381,-0.007750259561968657,-0.06693045670787494,-0.6752008895079294,0.0421195055047671,-0.0033003114707147083,597095.0,-35.36328355,149.16523428333332,13168.833333333334,10.666666666666666,-6.166666666666667,190.33333333333334,4.166666666666667,-16.166666666666668,-975.1666666666666,-666.3333333333334,41.833333333333336,-2.0,LOITER
10:32:07,-0.07926977674166362,0.01847746626784404,-0.07232322171330452,0.7784450898567835,-0.02005833585280925,-0.025692034512758255,593690.0,-35.36328183333334,149.16524258333334,9764.666666666666,-9.333333333333334,-79.16666666666667,174.16666666666666,-2.0,71.33333333333333,-1017.0,790.1666666666666,-19.333333333333332,-24.666666666666668,LOITER
10:32:09,0.054687030923863254,0.001145637395287243,-0.06887886673212051,0.30191511412461597,0.02526287268847227,0.006484414450824261,590138.3333333334,-35.363283016666664,149.1652348,6213.333333333333,-9.166666666666666,-74.33333333333333,180.66666666666666,1.8333333333333333,-2.8333333333333335,-1016.0,304.8333333333333,25.5,7.666666666666667,AUTO
10:32:11,-0.056591215233008065,0.24754089613755545,-0.07782448083162308,-0.20610305294394493,-0.02087316910425822,0.02375201729591936,587728.3333333334,-35.36326246666667,149.1652325166667,3801.3333333333335,-115.33333333333333,-2.0,66.16666666666667,51.166666666666664,0.5,-1023.5,-203.33333333333334,-20.333333333333332,24.666666666666668,AUTO
10:32:13,-0.034203383761147656,-0.27017124245564145,-0.5475099900116523,0.2713164910674095,-0.1323073444267114,-0.004441963198284308,587431.6666666666,-35.36330185,149.16524248333334,3505.3333333333335,-202.33333333333334,-82.66666666666667,-28.833333333333332,11.5,15.333333333333334,-1048.5,272.1666666666667,-132.66666666666666,-2.0,AUTO
10:32:15,-0.024526576822002728,-0.21337393671274185,-0.8104718029499054,-0.3611064925789833,0.06144818617030978,-0.15741981437895447,588215.0,-35.363269433333336,149.16525138333336,4288.0,335.3333333333333,11.0,-8.166666666666666,-71.5,-73.33333333333333,-1033.5,-359.1666666666667,60.5,-154.5,AUTO
10:32:17,-0.27626940856377286,0.26571209480365116,-0.9630046387513479,0.07173936938246091,0.33988039195537567,-0.033045267996688686,588613.3333333334,-35.363205066666666,149.16519844999996,4687.666666666667,-15.166666666666666,-279.1666666666667,-87.16666666666667,-143.4,14.6,-1139.8,45.0,337.8,-53.4,AUTO
10:32:19,0.16313166469335555,0.41289945840835574,-1.2226523637771607,0.5638834536075592,-0.12722533643245698,-0.3906561255455017,590436.0,-35.363262739999996,149.16512447999997,6511.4,-547.0,129.0,-90.4,-36.8,147.6,-1226.6,564.8,-126.8,-387.6,AUTO
10:32:21,0.23424560452500978,-0.040814449079334736,-1.9810724258422852,-0.49923180292050046,-0.070306363205115,0.06304033581788342,593475.0,-35.3632866,149.16518605,9550.166666666666,305.1666666666667,196.5,-124.66666666666667,84.83333333333333,-1.0,-1112.6666666666667,-496.5,-70.0,66.0,LOITER
10:32:23,-0.10610342118889093,-0.02077901588442425,-1.4606077075004578,0.17745188002785048,-0.048287928414841495,0.05662405180434386,596210.0,-35.36326248333333,149.165195,12284.5,-18.666666666666668,56.833333333333336,-125.0,15.833333333333334,6.333333333333333,-929.8333333333334,179.66666666666666,-48.166666666666664,59.5,LAND
10:32:25,-0.005992495181999402,0.005485133500769734,-1.4794716636339824,0.04810183960944414,-0.003693366568768397,-0.001048202548796932,596671.6666666666,-35.36328343333333,149.16513254999998,12746.166666666666,-55.166666666666664,16.5,-31.666666666666668,2.6666666666666665,18.333333333333332,-975.5,51.833333333333336,-2.6666666666666665,1.8333333333333333,AUTO
10:32:29,0.011018265597522258,-0.006301171192899346,-1.4835511684417724,0.05309032462537289,0.003482433967292309,-0.0014870374463498593,596646.0,-35.36329166,149.1651366,12721.2,-23.8,-10.8,-77.0,1.2,4.0,-1108.4,55.4,3.2,1.2,AUTO
10:32:30,0.022563600912690163,0.002316883037565276,-1.4867527186870575,0.04405442997813225,0.0034986388636752963,-0.001589767838595435,598232.5,-35.363291475000004,149.165136825,14307.25,5.0,-24.0,-156.0,-3.0,-1.25,-1008.75,46.25,3.25,1.25,AUTO
10:32:31,0.053670456632971764,0.005864631151780486,-1.486882209777832,0.03596651181578636,0.003378514898940921,-0.00011377711780369282,599180.0,-35.36328985,149.16513565,15255.5,36.5,-26.0,-152.0,-2.5,-6.5,-999.5,38.5,2.5,2.0,AUTO
10:32:32,-0.020069919681797426,-0.006429565837606788,-1.4778375426928203,-0.08853036351501942,-0.018630091411372025,0.028891090691710513,601025.0,-35.36328911666667,149.16514343333333,17099.833333333332,47.666666666666664,-24.833333333333332,-142.33333333333334,-3.1666666666666665,-15.5,-1001.1666666666666,-85.33333333333333,-18.333333333333332,31.166666666666668,AUTO
10:32:34,-0.056097960099577904,0.043558163195848466,-1.4860283136367798,0.04864957332611084,0.05565759837627411,-0.015769206173717975,603370.0,-35.36329164,149.16513261999998,19444.6,-64.2,-55.8,-137.2,-18.2,5.4,-1004.2,51.0,55.8,-12.4,AUTO
10:32:36,0.05385585241019726,0.09066504836082459,-1.4920698404312134,0.07307509034872055,-0.008354410529136658,0.00247172168456018,605790.0,-35.3633042,149.16512417999996,21865.2,-58.2,35.0,-137.2,2.4,16.4,-1001.8,75.2,-7.4,4.6,AUTO
10:32:37,0.10363469272851944,0.0022084482479840517,-1.4387431144714355,-0.04663728177547455,-0.1732078343629837,0.12273465842008591,607900.0,-35.3633098,149.1651371,23971.0,44.0,102.0,-136.0,29.0,-5.0,-1003.0,-43.0,-172.0,124.0,AUTO
10:32:38,0.018310165032744408,-0.08524833470582963,-1.3470011949539185,-0.12928201407194137,-0.06550189480185509,0.057716304622590545,609182.0,-35.3633046,149.16514569999998,25256.4,91.2,45.0,-144.6,18.0,-22.4,-1012.0,-125.6,-64.6,58.2,AUTO
10:32:39,-0.09986247370640437,-0.052418128897746406,-1.3456989924112956,-0.012978539181252321,0.07383547474940617,-0.06433124467730522,611393.3333333334,-35.363288866666664,149.16513806666669,27468.333333333332,49.666666666666664,-126.0,-149.0,-23.0,-25.333333333333332,-1007.0,-9.666666666666666,74.33333333333333,-65.33333333333333,AUTO
10:32:40,-0.09104815125465393,0.0022918909089639783,-1.3580155769983928,0.024147996678948402,0.09418923656145732,-0.028498551497856777,612523.3333333334,-35.363287066666665,149.16512346666664,28595.666666666668,-19.333333333333332,-166.66666666666666,-149.0,-36.0,-12.666666666666666,-1009.0,26.666666666666668,94.66666666666667,-30.0,AUTO
10:32:42,0.0002501527778804302,0.1582653671503067,-1.3438334465026855,0.07574612498283387,0.05161428758874535,0.0015051924623548985,615240.0,-35.363298699999994,149.1650999,31313.0,-118.6,-21.6,-155.4,-17.2,19.0,-1005.6,78.2,52.0,-2.2,AUTO
10:32:44,0.0029556925098101297,0.1050161129484574,-1.3393579721450806,-0.09875456057488918,-0.10710377960155408,-0.03083479730412364,617871.6666666666,-35.36327936666667,149.16512881666665,33948.5,-18.0,222.33333333333334,-131.66666666666666,39.5,21.833333333333332,-1009.1666666666666,-95.33333333333333,-105.83333333333333,-35.166666666666664,AUTO
10:32:46,-0.07546492852270603,-0.09451804806788762,-1.3528559406598408,0.026452099516366918,-0.03606707540651163,-0.019725870185842116,620656.6666666666,-35.36328141666667,149.16516813333334,36732.666666666664,-55.333333333333336,77.0,-151.33333333333334,10.666666666666666,20.0,-1003.1666666666666,29.333333333333332,-34.5,-25.0,LOITER
10:32:48,-0.018906607991084456,-0.05833695145944754,-1.565901279449463,0.02393924444913864,0.09249129643042882,-0.18922666646540165,623185.0,-35.36330365,149.16515113333332,39262.333333333336,-104.5,-143.83333333333334,-48.333333333333336,-32.5,-2.6666666666666665,-853.8333333333334,27.5,93.5,-194.66666666666666,LOITER
10:32:50,0.22142438093821207,0.1310353670269251,-1.6050421198209126,1.1445570588111877,0.060475332041581474,0.02257890944990019,621101.6666666666,-35.363332500000006,149.16512566666668,37175.833333333336,-0.3333333333333333,-82.33333333333333,216.0,11.5,6.333333333333333,-1033.1666666666667,1149.3333333333333,61.5,16.666666666666668,AUTO
10:32:52,-0.08018483519554138,0.016353100165724756,-1.5825665712356567,0.03176677227020264,-0.03658772697672248,0.0021885255351662635,617944.0,-35.36331316,149.16512663999998,34017.8,0.4,9.0,51.4,24.833333333333332,-17.5,-1059.1666666666667,-121.16666666666667,-40.166666666666664,-0.5,LAND
10:32:54,-0.0024583948931346336,0.0011278190637919276,-1.574739118417104,-0.21193363020817438,-0.0007397535567482313,0.006362961682801445,617686.6666666666,-35.36329366666667,149.1651219833333,33760.833333333336,37.833333333333336,-40.333333333333336,-8.333333333333334,1.3333333333333333,-23.166666666666668,-997.6666666666666,-209.66666666666666,0.5,0.6666666666666666,LAND
10:32:56,-0.010559425107203424,0.0026383002987131476,-1.5657033771276474,-0.7518318789079785,-0.0029930277669336647,0.0064103384502232075,617587.5,-35.3632908875,149.16511567499998,33662.625,21.375,-46.5,42.125,-8.0,-30.375,-953.25,-749.125,-1.625,1.125,LAND
10:32:58,0.019421728514134883,0.001096083631273359,-1.5589833498001098,0.6101064354181289,0.00027608589734882114,0.00754104983061552,615726.0,-35.36327394,149.16511968,31799.4,42.6,-36.4,85.8,-12.4,-5.8,-1043.8,606.2,1.6,2.0,LAND
10:32:59,0.005105937831103802,0.0008351582800969481,-1.5562710762023926,-0.50042325258255,-0.0014469705056399107,0.00606735423207283,614880.0,-35.3632559,149.1651118,30951.0,111.0,-46.0,58.0,-13.0,-41.0,-1073.0,-504.0,0.0,0.0,LAND
10:33:02,0.008062467710780246,0.0013872938579879701,-1.5517961127417428,0.553840024130685,0.0005797585472464561,0.0006418449338525534,613684.2857142857,-35.36322257142857,149.1650907714286,29758.428571428572,170.42857142857142,-60.285714285714285,65.28571428571429,-16.142857142857142,25.0,-1003.1428571428571,556.4285714285714,1.8571428571428572,-4.285714285714286,LAND
10:33:04,-0.05988508654991165,0.006442004625569098,-1.5488408356904984,0.9552318006753922,-0.010161142243305221,-0.038643234118353575,612005.0,-35.363195475,149.1650793625,28080.875,170.5,-40.0,126.625,-23.375,59.0,-931.25,957.75,-9.0,-43.5,LAND
10:33:06,-0.03772204779088497,0.007415791135281324,-1.5455559492111206,-0.6922971718013287,-0.0004068945534527302,0.03156294971704483,609292.0,-35.36316531999999,149.1650805,25365.4,110.8,24.6,141.2,-41.4,0.0,-1093.6,-699.2,0.6,26.0,LAND
10:33:09,0.0010055200130279576,0.00017858476530818734,-1.54115971497127,0.0873863332505737,-0.00044403962757704515,0.00029335836214678627,608011.4285714285,-35.363129085714284,149.1650959,24085.0,229.42857142857142,77.85714285714286,30.428571428571427,-31.125,56.875,-1011.0,198.75,-0.25,-6.0,LAND
10:33:10,-0.014818131551146507,-0.001237171550747007,-1.535583233833313,-0.24656039327383042,0.0025440571596845986,-0.010431657359004021,607634.0,-35.3631162,149.16511006000002,23709.0,239.0,91.4,66.0,-28.8,52.0,-961.8,-241.0,3.2,-15.4,LAND
10:33:12,0.023077354145546753,-0.0029124318001170955,-1.5356193383534749,1.5495723088582356,0.0035682375698039928,-0.007607470965012908,606190.0,-35.363200733333336,149.1651141,22263.333333333332,24.333333333333332,84.0,154.66666666666666,-26.666666666666668,126.66666666666667,-960.6666666666666,1557.3333333333333,4.0,-12.333333333333334,LAND
10:33:13,-0.0027480546850711107,-0.0030664682388305666,-1.5340857982635498,0.2673078514635563,0.00983944593463093,-0.018685600720345974,603768.0,-35.3633992,149.16517331999998,19845.2,-2.0,70.4,170.0,-19.2,80.4,-1003.0,283.2,10.6,-23.6,LAND
10:33:15,-0.0037892236141487956,-0.002725304647659262,-1.5312491456667583,-1.3504281044006348,-0.0003062852968772252,0.012690059995899597,600925.0,-35.363413683333334,149.16517678333332,17001.5,-46.666666666666664,20.0,171.16666666666666,-11.5,-57.0,-987.6666666666666,-1346.0,1.1666666666666667,7.166666666666667,LAND
10:33:17,0.0018240888457512483,-0.002043969521764666,-1.5280109643936157,0.09464784463246663,0.005221967546579738,-0.01518673519603908,597396.6666666666,-35.36341675,149.16516356666668,13470.166666666666,-26.5,-49.833333333333336,154.83333333333334,-4.5,12.5,-1037.0,105.83333333333333,7.0,-20.166666666666668,LAND
10:33:19,-0.0054905611323192716,-0.00022621919561061077,-1.5286645690600078,-0.5063759038845698,0.00039159361040219665,0.005946336158861716,594573.3333333334,-35.363405766666666,149.16514603333331,10647.5,8.5,-90.33333333333333,52.333333333333336,-1.5,-37.666666666666664,-1050.6666666666667,-500.6666666666667,2.1666666666666665,0.8333333333333334,LAND
10:33:21,-0.03188187706594666,0.03235843922448112,-1.525872250398,-0.20386054118474325,0.05086157717353975,-0.009800333335685233,593743.3333333334,-35.3633958,149.16512878333333,9817.666666666666,17.5,-95.5,32.333333333333336,-1.1666666666666667,-41.833333333333336,-973.1666666666666,-204.0,52.333333333333336,-14.0,LOITER
10:33:23,0.036802295595407486,0.0014225523530816038,-1.51087087392807,-0.44029234846433,-0.05677149072289467,0.037165699837108455,591950.0,-35.363416,149.16512745000003,8025.333333333333,-94.16666666666667,-20.5,129.83333333333334,-8.5,-46.166666666666664,-950.6666666666666,-444.3333333333333,-55.0,32.666666666666664,LOITER
10:33:25,-0.0025029490158582726,-0.0015786961691143613,-1.50457497437795,0.27912164727846783,0.006565099640283734,0.00048552872613072395,588588.3333333334,-35.363484383333336,149.16512866666665,4661.833333333333,-3.5,-71.83333333333333,158.5,3.3333333333333335,24.333333333333332,-1037.3333333333333,290.3333333333333,8.166666666666666,-3.8333333333333335,LAND
10:33:27,-0.001043916621711105,0.0001376391522474781,-1.5030649304389954,0.20495287080605826,0.0005843750550411642,0.0022924814838916063,586575.0,-35.36347415,149.16510820000002,2649.1666666666665,-8.333333333333334,-114.0,18.333333333333332,0.5,-19.666666666666668,-1066.1666666666667,209.83333333333334,2.1666666666666665,-2.0,LAND
10:33:29,0.0010864887056717027,0.0010606041323626414,-1.5005672574043274,-0.28470558176438016,-0.0016887630141961079,-0.005980120971798897,586448.3333333334,-35.36345325,149.1650818,2523.5,40.166666666666664,-138.83333333333334,9.5,-3.6666666666666665,-51.166666666666664,-951.8333333333334,-284.0,0.0,-10.166666666666666,LAND
10:33:31,0.0030308297621862343,0.0018545898492448032,-1.5010001460711162,-0.02528971681992213,-0.000837880012113601,0.0024538699459905424,585895.0,-35.363433333333326,149.16505268333333,1969.8333333333333,47.333333333333336,-150.16666666666666,38.5,-7.5,-37.666666666666664,-997.0,-24.333333333333332,0.8333333333333334,-1.8333333333333333,LAND
10:33:34,-0.008309336379170418,0.002413600333966315,-1.5018961429595947,-0.8718526661396027,-0.005392628372646868,0.009202233515679836,585380.0,-35.36343265,149.1650311,1456.0,0.0,-133.5,49.5,-15.5,-68.5,-1003.0,-871.5,-3.5,4.5,LAND
10:33:35,-0.0037187511722246804,0.0022156535803029933,-1.5005897283554077,0.014016677935918173,-0.0014207098089779417,-0.0043525306197504205,585180.0,-35.36343166666666,149.1650239,1256.0,-2.3333333333333335,-126.66666666666667,45.666666666666664,-18.666666666666668,-5.666666666666667,-1003.3333333333334,21.0,0.0,-8.0,LAND
10:33:37,0.04038850904908031,0.05042520514689386,-1.4963676929473877,-0.7902977168560028,0.06716294190846384,-0.002864789334125817,584477.5,-35.3634293,149.1649901,550.0,-19.75,-83.75,59.5,-20.25,-36.25,-959.5,-785.75,67.75,-7.0,LOITER
10:33:38,0.030832062009721994,0.02340330881997943,-1.4604901373386383,0.0011545726156327873,0.0019906782545149326,0.007416693842969835,584242.5,-35.363414925,149.1649425,316.0,-80.75,17.25,-87.75,-1.0,-0.25,-1000.0,3.0,3.0,3.0,LOITER
10:33:39,0.03945457562804222,0.021526210010051727,-1.482643485069275,0.0015498785069212317,0.0019245203584432602,0.007115717511624098,584515.0,-35.3634148,149.16494225,589.0,-16.0,16.0,-77.0,-1.0,0.0,-1000.0,3.0,3.0,3.0,LOITER
10:33:41,0.0366410156711936,0.023450734559446573,-1.4768277406692505,0.0011777806503232569,0.0018290926527697593,0.007031512097455561,584787.5,-35.363420225,149.1649528,862.75,32.25,31.25,-51.75,-1.0,0.0,-1000.0,3.0,3.0,3.0,AUTO
10:33:42,0.1741822101175785,0.004702526779146865,-1.5213395833969117,0.28757501230575144,-0.07570111355744302,-0.04421520894393325,584914.0,-35.3634145,149.1649438,988.2,98.4,-8.8,-55.6,2.8,-10.2,-1070.2,289.6,-73.8,-47.0,AUTO
10:33:43,0.38453659415245056,-0.03644154965877533,-1.6009663343429565,-0.009373839944601059,-0.057256847620010376,-0.059398848563432693,585240.0,-35.363408,149.1649362,1318.0,274.0,-56.0,-92.0,19.0,-39.0,-1031.0,-6.0,-55.0,-62.0,AUTO
10:33:44,0.15232649693886438,0.0006344393671800693,-1.8655866384506226,-0.4338817795117696,0.0007416357596715292,-0.23396486540635428,585600.0,-35.363382933333334,149.16491143333334,1674.3333333333333,430.6666666666667,-232.0,-69.0,45.0,-97.5,-1060.5,-405.5,30.0,-250.0,AUTO
10:33:45,-0.17166261623303095,0.012854488120259097,-2.0358983675638833,-0.3947215477625529,0.10273583978414536,0.027135978142420452,586243.3333333334,-35.3633546,149.16488103333333,2320.3333333333335,353.0,-296.6666666666667,-163.33333333333334,43.75,-85.5,-1156.25,-412.75,66.5,-29.75,AUTO
10:33:47,-0.3665033519268036,0.14274014830589293,-2.0503097057342528,0.027557793259620666,-0.02972649158909917,0.048094982444308695,589050.0,-35.36334256,149.16487006,5124.8,-121.0,144.4,-87.4,-1.0,39.666666666666664,-943.3333333333334,24.333333333333332,-20.5,42.833333333333336,AUTO
10:33:49,-0.10518550798296929,0.08884707652032375,-1.8913638830184936,0.16396782398223878,-0.1349197506904602,0.21603997945785522,589330.0,-35.36338215999999,149.16495809999998,5403.4,-249.0,523.8,-60.6,29.0,137.4,-1093.2,167.0,-133.2,219.2,AUTO
10:33:50,0.030156940035521985,-0.135631063580513,-1.6174195289611817,0.042719610035419464,-0.159833125770092,0.15618766667321324,590676.0,-35.363404360000004,149.16502397999997,6750.8,-112.0,390.8,-181.8,51.2,98.0,-1088.2,46.2,-157.8,159.8,AUTO
10:33:53,0.029347276386733238,-0.13989518575656873,-1.6021040311226478,0.016722652201469127,0.10077242126079419,-0.006815658201678441,594711.5384615385,-35.363430353846155,149.16503359230768,10786.461538461539,-52.92307692307692,-154.84615384615384,-132.3846153846154,-40.61538461538461,-0.46153846153846156,-1005.0,20.76923076923077,102.3076923076923,-1.8461538461538463,AUTO
10:33:55,0.0012462290469557047,0.1376729408899943,-1.5383442640304565,-0.10308140516281128,-0.03501770055542389,0.17483565708001456,598453.3333333334,-35.3634434,149.16498833333333,14529.0,-21.333333333333332,-59.0,-163.0,-32.333333333333336,-11.0,-995.6666666666666,-98.0,-33.333333333333336,179.66666666666666,AUTO
10:33:56,-0.02008962573017925,0.03990471828728914,-1.3751820623874664,0.032471878454089165,-0.15820223838090897,0.1319741364568472,599885.0,-35.36344245,149.16499085,15956.75,-40.25,26.25,-147.5,-15.75,4.5,-988.25,37.25,-156.0,136.5,AUTO
10:33:58,0.08589385946591695,-0.07336628530174494,-1.326095700263977,0.02712792872140805,0.0569521472013245,-0.02266250690445304,602796.6666666666,-35.36343708333333,149.16497395,18869.5,78.5,-116.5,-137.33333333333334,-27.285714285714285,-17.285714285714285,-999.8571428571429,36.57142857142857,46.42857142857143,-13.142857142857142,AUTO
10:34:00,0.062417841516435146,0.06556617934256792,-1.348353534936905,-0.025088075548410416,0.03884765785187483,-0.010270087979733944,605812.5,-35.363413125,149.16494017499997,21889.0,165.0,-96.0,-148.25,-13.75,-42.75,-1007.0,-19.5,41.25,-4.75,AUTO
10:34:01,0.007915473589673639,0.04334146976470947,-1.312582302093506,-0.03361808210611343,-0.036260255798697474,0.03836494088172913,608114.0,-35.36339152000001,149.16492732,24189.4,139.4,-36.4,-149.6,2.6,-37.0,-1000.2,-28.2,-32.8,43.0,LOITER
10:34:03,-0.0335762087876598,0.016889128523568313,-1.3216667572657268,-0.1089278724975884,0.043689142912626266,-0.1949543630083402,610203.3333333334,-35.363376466666665,149.16492033333336,26278.666666666668,95.33333333333333,-47.333333333333336,-141.66666666666666,4.666666666666667,-28.0,-953.3333333333334,-104.0,47.0,-190.0,LOITER
10:34:04,-0.23103210628032683,0.0805445708334446,-1.4773436069488526,0.261180754750967,0.0179376482963562,-0.027854227088391782,610900.0,-35.363368679999994,149.16492066,26975.2,-10.4,-17.2,8.0,2.0,27.6,-833.6,269.2,21.2,-22.6,LOITER
10:34:05,0.10618598914394776,-0.10491866618394852,-1.4836450417836506,-1.0524919827779133,-0.05656425282359123,-0.01829467574134469,609280.0,-35.363386633333334,149.16493373333336,25357.0,-131.66666666666666,-9.0,199.0,-15.666666666666666,-73.0,-959.0,-1057.6666666666667,-53.0,-13.0,LOITER
10:34:06,0.06366088427603245,0.013184353010728955,-1.418634057044983,0.1219126507639885,0.0571939111687243,-0.014546611346304417,606560.0,-35.36338105,149.16492455,22634.25,11.25,-68.75,189.25,-6.5,-62.75,-1050.0,115.0,59.75,-9.5,AUTO
10:34:08,0.09982634335756302,0.05369287729263306,-1.2588987350463867,0.5662147402763367,0.03353504836559296,0.03354567289352417,605060.0,-35.3633614,149.1648983,21131.0,21.0,-34.0,107.0,8.0,-3.0,-1079.0,565.0,36.0,38.0,AUTO
10:34:10,-0.09110123594291508,0.027753278069819014,-1.241158366203308,-0.060507407411932945,-0.04782338750859102,-0.01761957087243597,604320.0,-35.36335365,149.16489931666663,20394.166666666668,-29.5,-4.833333333333333,7.333333333333333,1.5,-8.166666666666666,-1050.5,-57.833333333333336,-44.166666666666664,-12.5,AUTO
10:34:12,-0.03144704271107912,-0.03483774016300837,-1.2475839058558147,-0.024124905467033386,0.08798368865003188,-0.004125042663266261,605166.6666666666,-35.36335775,149.16490209999998,21243.0,-8.166666666666666,-35.166666666666664,-61.0,-15.666666666666666,2.5,-1055.3333333333333,-20.833333333333332,90.5,0.6666666666666666,AUTO
10:34:14,0.06269708337883155,0.08787511428818107,-1.257305641969045,0.051428970492755376,-0.07399801424859713,0.02531948049242298,607203.3333333334,-35.36336381666667,149.16489891666666,23278.166666666668,-21.0,75.66666666666667,-126.0,2.8333333333333335,16.0,-1006.3333333333334,55.333333333333336,-71.16666666666667,29.833333333333332,LOITER
10:34:16,0.01603294691691796,-0.12079340654114883,-1.2436764240264893,-0.12643866116801897,0.17970488717158636,-0.08664455637335777,610295.0,-35.36335943333333,149.16489391666664,26371.666666666668,118.16666666666667,-90.66666666666667,-57.833333333333336,-2.5,-23.833333333333332,-873.3333333333334,-121.66666666666667,183.0,-81.33333333333333,LOITER
10:34:18,0.0025136076534787812,0.1552679780870676,-1.2831812103589375,-0.14835159480571747,-0.14162553939968348,-0.01095888918886582,608511.6666666666,-35.36335435,149.1648912,24586.0,9.333333333333334,81.0,192.5,28.166666666666668,-27.166666666666668,-987.5,-150.0,-138.33333333333334,-5.833333333333333,LAND
10:34:20,-0.0034965119945506253,-0.02108646122117837,-1.284090479214986,-0.21797425051530203,0.02340619219467044,0.0033478787324080863,605683.3333333334,-35.363367466666666,149.16493835,21758.5,21.833333333333332,89.0,71.0,14.166666666666666,12.666666666666666,-1055.8333333333333,-207.83333333333334,25.666666666666668,8.333333333333334,LAND
10:34:22,-0.002448610515178492,-0.002667247405042872,-1.2845730582873027,-0.0270157332221667,0.009308548799405495,0.0004066377878189087,605135.0,-35.36337591666666,149.16496368333335,21208.5,22.0,19.833333333333332,6.5,1.0,0.16666666666666666,-1012.3333333333334,-20.833333333333332,12.333333333333334,5.166666666666667,LAND
10:34:24,-0.002196829615665289,0.0003501122385690299,-1.2853986819585164,0.0014163403927038114,-6.909796502441168e-05,0.001191440736874938,604933.3333333334,-35.36336993333333,149.16496073333334,21008.166666666668,30.0,-13.833333333333334,38.5,-0.3333333333333333,2.1666666666666665,-948.5,8.333333333333334,2.8333333333333335,5.833333333333333,LAND
10:34:26,0.00013469000502179065,0.0006964323171890404,-1.2849972049395244,-0.724330353240172,-0.0054645641551663475,0.01314118147517244,603213.3333333334,-35.363369466666676,149.16495233333333,19289.333333333332,0.0,-42.333333333333336,174.16666666666666,0.5,-50.0,-961.6666666666666,-720.8333333333334,-1.6666666666666667,17.833333333333332,LAND
10:34:28,-0.0012362383082897093,0.0002858814526310501,-1.284805715084076,0.027500182390213013,-0.004415296639005343,0.013515190997471413,600010.0,-35.36336535,149.16494659999998,16086.166666666666,5.5,-45.666666666666664,160.33333333333334,1.6666666666666667,29.166666666666668,-1016.1666666666666,42.0,-1.1666666666666667,18.166666666666668,LAND
10:34:30,0.00664137804415077,-0.0004439866255173304,-1.28551584482193,-0.3186307811799149,-0.003700362634845078,-0.009597900711620847,597008.3333333334,-35.36336685,149.1649355,13083.666666666666,-13.166666666666666,-68.0,99.0,2.0,-65.33333333333333,-1029.6666666666667,-321.0,-0.6666666666666666,-4.333333333333333,LAND
10:34:32,-0.01167754347746571,-0.0005286148589220829,-1.285823126633962,-0.4911510795354843,-0.00026267914411922294,0.003947132422278325,594970.0,-35.36339651666667,149.1649051166667,11047.0,-99.5,-123.83333333333333,76.66666666666667,3.3333333333333335,-27.166666666666668,-1029.3333333333333,-480.6666666666667,2.3333333333333335,8.666666666666666,LAND
10:34:34,-0.08669820623132789,0.02623630439241727,-1.2877237200737,-0.33722723710040253,0.016769013134762645,0.005971839341024558,593926.6666666666,-35.3633802,149.16489561666666,10003.833333333334,-25.666666666666668,-97.0,28.0,0.8333333333333334,-38.166666666666664,-969.0,-334.0,19.166666666666668,10.666666666666666,LOITER
10:34:36,0.1596831331650416,-0.036213210163017116,-1.2925571004549663,1.2251610184709232,-0.053410020346442856,-0.020595309557393193,591620.0,-35.36339,149.16488478333332,7695.166666666667,-120.66666666666667,-85.66666666666667,189.83333333333334,-3.0,28.0,-1113.1666666666667,1233.0,-50.833333333333336,-15.333333333333334,LAND
10:34:38,-0.024460846402992804,-0.000233226346608717,-1.2889373898506165,-0.07789086519430082,0.025805932469666004,0.0394110115400205,590671.6666666666,-35.363331683333335,149.16491003333334,6745.0,260.5,-70.33333333333333,-33.333333333333336,1.8333333333333333,-70.66666666666667,-994.8333333333334,-75.33333333333333,28.333333333333332,44.333333333333336,LAND
10:34:40,-0.01303556835046038,0.005903867461408178,-1.2866903344790142,-0.04819760471582413,-0.0036866089406733713,0.012511834657440582,591371.6666666666,-35.363294366666665,149.16489026666667,7447.166666666667,136.66666666666666,-126.0,13.5,-14.666666666666666,-41.0,-982.3333333333334,-46.5,-0.5,17.833333333333332,LAND
10:34:43,0.005740861315280199,0.000638353027170524,-1.2836679935455322,0.667155098170042,-0.0011041285935789347,-0.0015033043455332518,591202.0,-35.36327874,149.16485267999997,7278.8,68.8,-146.0,62.6,-18.0,16.8,-979.2,671.0,1.8,4.0,LAND
10:34:44,0.009845803491771221,0.0017253408441320062,-1.2862879037857056,0.07887807488441467,-0.0085051991045475,0.007021578960120678,590990.0,-35.3632757,149.1648363,7066.0,42.0,-149.0,67.0,-17.0,-40.0,-990.0,74.0,-5.0,13.0,LAND
10:34:46,0.0023840118665248156,0.0020399581408128142,-1.285160392522812,0.32550352811813354,-0.004074857744853944,0.0023609447525814176,590067.5,-35.363277275,149.1648327,6143.5,0.75,-70.5,33.75,-17.8,2.0,-1036.4,113.6,-2.6,12.2,LOITER
10:34:48,0.03418603104849657,0.02661224640905857,-1.283004919687907,-1.3436614274978638,-0.014218099415302277,0.00575918626661102,588510.0,-35.36328003333333,149.16482756666667,4584.0,13.333333333333334,-15.333333333333334,176.66666666666666,-7.333333333333333,-100.33333333333333,-970.6666666666666,-1350.6666666666667,-11.666666666666666,12.333333333333334,LOITER
10:34:50,-0.05100149323698133,0.0355604593642056,-1.2825064659118652,-1.0513377338647842,0.002162650926038623,0.0377036880236119,585327.5,-35.363275875,149.16482549999998,1400.5,33.75,13.0,179.75,0.8,2.2,-1013.8,-525.4,1.6,35.2,LAND
10:34:52,-0.0029633337864652274,0.016137108951807023,-1.2651792287826538,0.0016499199438840151,0.001289319386705756,-0.0024404367431998253,583430.0,-35.36327136,149.1648254,0.0,-24.2,29.2,38.8,0.0,0.0,-1000.0,4.0,4.0,4.0,LAND
10:34:54,0.0031987848536421857,0.012567360264559587,-1.2717773914337158,0.0017415078667302926,0.0010027666576206684,-0.0024395668879151344,583343.3333333334,-35.3632673,149.16481986666668,0.0,1.3333333333333333,4.666666666666667,24.0,0.0,0.0,-1000.0,4.0,4.0,4.0,LAND
10:34:56,0.005210507583493988,0.012692421519507965,-1.2763153115908306,0.0016612901041905086,0.0009730515303090215,-0.002477720845490694,583336.6666666666,-35.36326736666666,149.16481965,0.0,6.0,2.8333333333333335,17.0,0.16666666666666666,0.0,-1000.0,4.0,3.8333333333333335,4.0,LAND
10:34:58,0.006023222231306136,0.012541619595140219,-1.2830642461776733,0.001487388217356056,0.0008566633914597332,-0.0025326955365017056,583540.0,-35.363261675,149.164811575,0.0,7.0,5.5,11.5,0.0,-0.25,-1000.0,4.0,3.75,4.0,LAND
10:34:59,0.0056757868733257055,0.012416981160640717,-1.2870374917984009,0.0013499725027941167,0.0008289665565825999,-0.0025930680567398667,583575.0,-35.3632267,149.1647649,0.0,7.0,4.0,7.0,0.0,-0.25,-1000.0,4.0,3.75,3.75,LAND
10:35:00,0.005473883356899023,0.012456643860787153,-1.2890489101409912,0.0013424521312117577,0.0007356290007010102,-0.002569469390437007,583630.0,-35.3632266,149.1647649,0.0,7.0,3.5,5.5,0.0,0.0,-1000.0,3.5,3.5,4.0,LAND
10:35:01,0.005227777020384868,0.01256152739127477,-1.29188068707784,0.0011986487079411745,0.0006942617862174908,-0.0026245289482176304,583700.0,-35.36322666666667,149.1647649,0.0,6.0,3.0,3.6666666666666665,0.0,0.0,-1000.0,3.6666666666666665,3.6666666666666665,4.0,LAND
10:35:02,0.0051033903534213705,0.012661296253403028,-1.2937075694402058,0.0012058474433918793,0.0007296476978808641,-0.002535369868079821,583733.3333333334,-35.3632267,149.16476486666667,0.0,5.666666666666667,3.0,3.0,0.0,0.0,-1000.0,4.0,3.6666666666666665,3.6666666666666665,LAND
10:35:04,0.004796136248235901,0.012793530865261952,-1.2974674105644226,0.0010687536171947916,0.0006382730789482594,-0.002575451120113333,583795.0,-35.3632268,149.16476480000003,0.0,5.333333333333333,3.3333333333333335,1.3333333333333333,0.0,-0.5,-999.8333333333334,3.8333333333333335,3.6666666666666665,3.6666666666666665,LAND
