time_stamp,MODE,lat,lon,relative_alt,roll,pitch,yaw,rollspeed,pitchspeed,yawspeed,xacc,yacc,zacc,xgyro,ygyro,zgyro,vx,vy,vz,RTL_ALT
10:17:11.410,STABILIZE,-35.3632621,149.1652374,0,1.0527510312385857e-05,0.0015701603842899203,0.027010753750801086,0.0002884973946493119,0.00023003396927379072,0.002288215095177293,0,1,-1000,0,0,1,-2,0,0,143866.0
10:17:11.611,STABILIZE,-35.3632621,149.1652374,0,1.0527510312385857e-05,0.0015701603842899203,0.027010753750801086,0.0002884973946493119,0.00023003396927379072,0.002288215095177293,0,1,-1000,0,0,1,-2,0,0,143866.0
10:17:11.813,STABILIZE,-35.3632622,149.1652374,2,-2.2386788259609602e-05,0.0014808995183557272,0.026721166446805,0.00033589359372854233,0.00037575577152892947,0.002359079197049141,0,1,-1000,0,0,1,-2,1,0,143866.0
10:17:12.014,STABILIZE,-35.3632622,149.1652374,2,-2.2386788259609602e-05,0.0014808995183557272,0.026721166446805,0.00033589359372854233,0.00037575577152892947,0.002359079197049141,0,1,-1000,0,0,1,-2,1,0,143866.0
10:17:12.215,STABILIZE,-35.3632622,149.1652374,3,-4.9433896492701024e-05,0.0014279758324846625,0.026585325598716736,0.00030651752604171634,0.00019222573610022664,0.0022799952421337366,0,1,-1000,0,0,0,-2,1,0,143866.0
10:17:12.417,STABILIZE,-35.3632622,149.1652374,3,-8.066342707024887e-05,0.0013791017699986696,0.02645261399447918,0.0002211685641668737,0.0001640514237806201,0.0021843307185918093,0,1,-1000,0,0,0,-2,1,0,143866.0
10:17:12.619,STABILIZE,-35.3632622,149.1652374,3,-8.066342707024887e-05,0.0013791017699986696,0.02645261399447918,0.0002211685641668737,0.0001640514237806201,0.0021843307185918093,0,1,-1000,0,0,0,-2,1,0,143866.0
10:17:12.821,STABILIZE,-35.3632622,149.1652374,3,-8.066342707024887e-05,0.0013791017699986696,0.02645261399447918,0.0002211685641668737,0.0001640514237806201,0.0021843307185918093,0,1,-1000,0,0,0,-2,1,0,143866.0
10:17:13.023,STABILIZE,-35.3632622,149.1652374,3,-8.066342707024887e-05,0.0013791017699986696,0.02645261399447918,0.0002211685641668737,0.0001640514237806201,0.0021843307185918093,0,1,-1000,0,0,0,-2,1,0,143866.0
10:17:13.225,STABILIZE,-35.3632622,149.1652374,3,-8.066342707024887e-05,0.0013791017699986696,0.02645261399447918,0.0002211685641668737,0.0001640514237806201,0.0021843307185918093,0,1,-1000,0,0,0,-2,1,0,143866.0
10:17:13.427,STABILIZE,-35.3632622,149.1652375,3,-0.0002662607585079968,0.0011659442679956555,0.025902148336172104,0.000191812141565606,0.00032486411510035396,0.002011203207075596,0,1,-1000,0,0,1,-1,1,0,143866.0
10:17:13.629,STABILIZE,-35.3632622,149.1652375,2,-0.00031909046811051667,0.0011166627518832684,0.02577224187552929,0.0002890547621063888,0.0002840127272065729,0.0020506330765783787,0,1,-1000,0,0,1,-1,1,0,143866.0
10:17:13.830,STABILIZE,-35.3632622,149.1652375,2,-0.0003660905931610614,0.0010760972509160638,0.025653043761849403,0.0003082997282035649,0.0001570634776726365,0.002125289523974061,0,1,-1000,0,0,0,-1,1,0,143866.0
10:17:14.032,STABILIZE,-35.3632622,149.1652375,2,-0.0003660905931610614,0.0010760972509160638,0.025653043761849403,0.0003082997282035649,0.0001570634776726365,0.002125289523974061,0,1,-1000,0,0,0,-1,1,0,143866.0
10:17:14.233,STABILIZE,-35.3632622,149.1652375,2,-0.0003660905931610614,0.0010760972509160638,0.025653043761849403,0.0003082997282035649,0.0001570634776726365,0.002125289523974061,0,1,-1000,0,1,0,-1,1,0,143866.0
10:17:14.436,STABILIZE,-35.3632622,149.1652375,2,-0.0004515068721957505,0.0010151223978027701,0.02543502300977707,0.00039176037535071373,0.00025409122463315725,0.0020883609540760517,0,1,-1000,0,0,0,-1,1,0,143866.0
10:17:14.637,STABILIZE,-35.3632622,149.1652375,2,-0.0004515068721957505,0.0010151223978027701,0.02543502300977707,0.00039176037535071373,0.00025409122463315725,0.0020883609540760517,0,1,-1000,0,0,0,-1,1,0,143866.0
10:17:14.840,STABILIZE,-35.3632622,149.1652375,2,-0.0004515068721957505,0.0010151223978027701,0.02543502300977707,0.00039176037535071373,0.00025409122463315725,0.0020883609540760517,0,1,-1000,0,0,0,-1,1,0,143866.0
10:17:15.042,STABILIZE,-35.3632622,149.1652375,2,-0.0004515068721957505,0.0010151223978027701,0.02543502300977707,0.00039176037535071373,0.00025409122463315725,0.0020883609540760517,0,1,-1000,0,0,0,-1,1,0,143866.0
10:17:15.244,STABILIZE,-35.3632621,149.1652375,1,-0.00040343040018342435,0.00095361442072317,0.02509067766368389,0.00019116693874821067,0.00034055457217618823,0.002031211508437991,0,1,-1000,0,0,0,-1,1,0,143866.0
10:17:15.445,STABILIZE,-35.3632621,149.1652375,1,-0.00040343040018342435,0.00095361442072317,0.02509067766368389,0.00019116693874821067,0.00034055457217618823,0.002031211508437991,0,1,-1000,0,0,0,-1,1,0,143866.0
10:17:15.647,STABILIZE,-35.3632621,149.1652375,0,-0.0004709007334895432,0.0009311931789852679,0.024893349036574364,0.00016544322716072202,0.00028036802541464567,0.002042466774582863,0,1,-1000,0,0,0,-1,1,0,143866.0
10:17:15.848,STABILIZE,-35.3632621,149.1652375,0,-0.0004709007334895432,0.0009311931789852679,0.024893349036574364,0.00016544322716072202,0.00028036802541464567,0.002042466774582863,0,1,-1000,0,0,0,-1,1,0,143866.0
10:17:16.050,STABILIZE,-35.3632621,149.1652375,0,-0.0004709007334895432,0.0009311931789852679,0.024893349036574364,0.00016544322716072202,0.00028036802541464567,0.002042466774582863,0,1,-1000,0,0,0,-1,1,0,143866.0
10:17:16.251,STABILIZE,-35.3632621,149.1652375,0,-0.0004709007334895432,0.0009311931789852679,0.024893349036574364,0.00016544322716072202,0.00028036802541464567,0.002042466774582863,0,1,-1000,0,0,0,-1,1,0,143866.0
10:17:16.453,STABILIZE,-35.3632621,149.1652375,0,-0.0005569692002609372,0.0009215545142069459,0.02458314597606659,0.00015428505139425397,0.00019052979769185185,0.001830972614698112,0,1,-1000,0,0,0,-1,1,0,143866.0
10:17:16.655,STABILIZE,-35.3632621,149.1652375,0,-0.0005569692002609372,0.0009215545142069459,0.02458314597606659,0.00015428505139425397,0.00019052979769185185,0.001830972614698112,0,1,-1000,0,0,0,-1,1,0,143866.0
10:17:16.857,STABILIZE,-35.3632621,149.1652375,0,-0.0005569692002609372,0.0009215545142069459,0.02458314597606659,0.00015428505139425397,0.00019052979769185185,0.001830972614698112,0,1,-1000,0,0,0,-1,1,0,143866.0
10:17:17.062,STABILIZE,-35.3632621,149.1652375,0,-0.0005569692002609372,0.0009215545142069459,0.02458314597606659,0.00015428505139425397,0.00019052979769185185,0.001830972614698112,0,1,-1000,0,0,0,-1,1,0,143866.0
10:17:17.281,STABILIZE,-35.3632621,149.1652375,0,-0.0006572912679985166,0.0009194408194161952,0.024290017783641815,0.00017837941413745284,0.0002510654740035534,0.0018254576716572046,0,1,-1000,0,0,1,-1,1,0,143866.0
10:17:17.483,STABILIZE,-35.3632621,149.1652375,0,-0.0006572912679985166,0.0009194408194161952,0.024290017783641815,0.00017837941413745284,0.0002510654740035534,0.0018254576716572046,0,1,-1000,0,0,1,-1,1,0,143866.0
10:17:17.685,STABILIZE,-35.3632621,149.1652375,0,-0.0006572912679985166,0.0009194408194161952,0.024290017783641815,0.00017837941413745284,0.0002510654740035534,0.0018254576716572046,0,1,-1000,0,0,0,-1,1,0,143866.0
10:17:17.886,STABILIZE,-35.3632621,149.1652375,0,-0.0006572912679985166,0.0009194408194161952,0.024290017783641815,0.00017837941413745284,0.0002510654740035534,0.0018254576716572046,0,1,-1000,0,0,0,-1,1,0,143866.0
10:17:18.089,STABILIZE,-35.3632621,149.1652375,0,-0.0006572912679985166,0.0009194408194161952,0.024290017783641815,0.00017837941413745284,0.0002510654740035534,0.0018254576716572046,0,1,-1000,0,0,0,-1,1,0,143866.0
10:17:18.290,STABILIZE,-35.3632621,149.1652375,0,-0.0006572912679985166,0.0009194408194161952,0.024290017783641815,0.00017837941413745284,0.0002510654740035534,0.0018254576716572046,0,1,-1000,0,0,0,-1,1,0,143866.0
10:17:18.491,STABILIZE,-35.3632621,149.1652375,0,-0.0006206446560099721,0.0009572566486895084,0.02385241724550724,1.5052268281579018e-05,0.0003681614180095494,0.001756978454068303,0,1,-1000,0,0,0,-1,1,0,143866.0
10:17:18.692,STABILIZE,-35.3632621,149.1652375,0,-0.0006206446560099721,0.0009572566486895084,0.02385241724550724,1.5052268281579018e-05,0.0003681614180095494,0.001756978454068303,0,1,-1000,0,0,0,-1,1,0,143866.0
10:17:18.894,STABILIZE,-35.3632621,149.1652375,0,-0.0006206446560099721,0.0009572566486895084,0.02385241724550724,1.5052268281579018e-05,0.0003681614180095494,0.001756978454068303,0,1,-1000,0,0,0,-1,1,0,143866.0
10:17:19.095,STABILIZE,-35.3632621,149.1652375,0,-0.0007010331028141081,0.0009706449345685542,0.023604493588209152,0.0001893652370199561,0.00023947283625602722,0.0017546908929944038,0,1,-1000,0,0,0,-1,1,0,143866.0
10:17:19.296,STABILIZE,-35.3632621,149.1652375,0,-0.0007010331028141081,0.0009706449345685542,0.023604493588209152,0.0001893652370199561,0.00023947283625602722,0.0017546908929944038,0,1,-1000,0,0,0,-1,1,0,143866.0
10:17:19.497,STABILIZE,-35.3632621,149.1652375,0,-0.0007010331028141081,0.0009706449345685542,0.023604493588209152,0.0001893652370199561,0.00023947283625602722,0.0017546908929944038,0,2,-1000,0,0,1,-1,1,0,143866.0
10:17:19.699,STABILIZE,-35.3632621,149.1652375,0,-0.0007010331028141081,0.0009706449345685542,0.023604493588209152,0.0001893652370199561,0.00023947283625602722,0.0017546908929944038,0,2,-1000,0,0,1,-1,1,0,143866.0
10:17:19.900,STABILIZE,-35.3632621,149.1652375,0,-0.0007010331028141081,0.0009706449345685542,0.023604493588209152,0.0001893652370199561,0.00023947283625602722,0.0017546908929944038,0,2,-1000,0,0,1,-1,1,0,143866.0
10:17:20.101,STABILIZE,-35.3632622,149.1652375,0,-0.0007944331737235188,0.0009919708827510476,0.023286236450076103,0.00011031335452571511,0.0002875726204365492,0.0017245803028345108,0,2,-1000,0,0,1,-1,1,0,143866.0
10:17:20.302,STABILIZE,-35.3632622,149.1652375,0,-0.0007944331737235188,0.0009919708827510476,0.023286236450076103,0.00011031335452571511,0.0002875726204365492,0.0017245803028345108,0,2,-1000,0,0,1,-1,1,0,143866.0
10:17:20.504,STABILIZE,-35.3632622,149.1652375,0,-0.0007944331737235188,0.0009919708827510476,0.023286236450076103,0.00011031335452571511,0.0002875726204365492,0.0017245803028345108,0,2,-1000,0,0,1,-1,1,0,143866.0
10:17:20.705,STABILIZE,-35.3632622,149.1652375,0,-0.0007944331737235188,0.0009919708827510476,0.023286236450076103,0.00011031335452571511,0.0002875726204365492,0.0017245803028345108,0,2,-1000,0,0,1,-1,1,0,143866.0
10:17:20.906,STABILIZE,-35.3632622,149.1652375,0,-0.0007944331737235188,0.0009919708827510476,0.023286236450076103,0.00011031335452571511,0.0002875726204365492,0.0017245803028345108,0,2,-1000,0,0,1,-1,1,0,143866.0
10:17:21.108,STABILIZE,-35.3632622,149.1652375,0,-0.0008809109567664564,0.0009932401590049267,0.022994691506028175,0.0003066168865188956,0.0002000606618821621,0.0017158802365884185,0,1,-1000,0,1,0,-1,1,0,143866.0
10:17:21.309,STABILIZE,-35.3632622,149.1652375,0,-0.0008809109567664564,0.0009932401590049267,0.022994691506028175,0.0003066168865188956,0.0002000606618821621,0.0017158802365884185,0,1,-1000,0,1,0,-1,1,0,143866.0
10:17:21.510,STABILIZE,-35.3632622,149.1652375,0,-0.0008809109567664564,0.0009932401590049267,0.022994691506028175,0.0003066168865188956,0.0002000606618821621,0.0017158802365884185,0,1,-1000,1,0,0,-1,1,0,143866.0
10:17:21.711,STABILIZE,-35.3632622,149.1652375,0,-0.0007603584672324359,0.0010018005268648267,0.022851984947919846,0.00019457098096609116,0.00027678790502250195,0.0015914535615593195,0,2,-1000,0,0,0,-1,1,0,143866.0
10:17:21.912,STABILIZE,-35.3632622,149.1652375,0,-0.0007603584672324359,0.0010018005268648267,0.022851984947919846,0.00019457098096609116,0.00027678790502250195,0.0015914535615593195,0,2,-1000,0,0,0,-1,1,0,143866.0
10:17:22.114,STABILIZE,-35.3632622,149.1652375,0,-0.0007603584672324359,0.0010018005268648267,0.022851984947919846,0.00019457098096609116,0.00027678790502250195,0.0015914535615593195,0,2,-1000,0,0,0,-1,1,0,143866.0
10:17:22.317,STABILIZE,-35.3632622,149.1652375,0,-0.0007926891557872295,0.0009900121949613094,0.022640205919742584,0.00033143151085823774,0.0002570071374066174,0.0016537157353013754,0,1,-1000,0,0,0,-1,1,0,143866.0
10:17:22.518,STABILIZE,-35.3632622,149.1652375,0,-0.0007926891557872295,0.0009900121949613094,0.022640205919742584,0.00033143151085823774,0.0002570071374066174,0.0016537157353013754,0,1,-1000,0,0,0,-1,1,0,143866.0
10:17:22.719,STABILIZE,-35.3632622,149.1652375,0,-0.0007926891557872295,0.0009900121949613094,0.022640205919742584,0.00033143151085823774,0.0002570071374066174,0.0016537157353013754,0,1,-1000,0,0,0,-1,1,0,143866.0
10:17:22.920,STABILIZE,-35.3632622,149.1652375,0,-0.0007926891557872295,0.0009900121949613094,0.022640205919742584,0.00033143151085823774,0.0002570071374066174,0.0016537157353013754,0,1,-1000,0,0,0,-1,1,0,143866.0
10:17:23.121,STABILIZE,-35.3632622,149.1652375,0,-0.0008204203913919628,0.0009759343229234219,0.02242547832429409,0.0002425860147923231,0.00023746496299281716,0.0015309890732169151,0,1,-1000,1,0,1,-1,1,0,143866.0
10:17:23.323,STABILIZE,-35.3632622,149.1652375,0,-0.0008239932358264923,0.000978724448941648,0.02236023172736168,0.0002944025327451527,0.00025887612719088793,0.0015250432770699263,0,1,-1000,0,0,1,-1,1,0,143866.0
10:17:23.524,STABILIZE,-35.3632622,149.1652375,0,-0.0008239932358264923,0.000978724448941648,0.02236023172736168,0.0002944025327451527,0.00025887612719088793,0.0015250432770699263,0,1,-1000,0,0,1,-1,1,0,143866.0
10:17:23.726,STABILIZE,-35.3632622,149.1652375,0,-0.0008384461398236454,0.0009858862031251192,0.022291507571935654,0.0003661102382466197,0.0002925219596363604,0.0016411832766607404,0,1,-1000,0,0,1,-1,1,0,143866.0
10:17:23.927,STABILIZE,-35.3632622,149.1652375,0,-0.0008492615888826549,0.000982749625109136,0.022224843502044678,0.0002801900845952332,0.00029760965844616294,0.0016297496622428298,0,2,-1000,0,1,0,-1,1,0,143866.0
10:17:24.129,STABILIZE,-35.3632622,149.1652375,0,-0.0008492615888826549,0.000982749625109136,0.022224843502044678,0.0002801900845952332,0.00029760965844616294,0.0016297496622428298,0,2,-1000,0,1,0,-1,1,0,143866.0
10:17:24.331,STABILIZE,-35.3632622,149.1652375,0,-0.0008492615888826549,0.000982749625109136,0.022224843502044678,0.0002801900845952332,0.00029760965844616294,0.0016297496622428298,0,2,-1000,0,1,0,-1,1,0,143866.0
10:17:24.532,STABILIZE,-35.3632622,149.1652375,0,-0.0008492615888826549,0.000982749625109136,0.022224843502044678,0.0002801900845952332,0.00029760965844616294,0.0016297496622428298,0,2,-1000,0,1,0,-1,1,0,143866.0
10:17:24.734,STABILIZE,-35.3632622,149.1652375,0,-0.0008492615888826549,0.000982749625109136,0.022224843502044678,0.0002801900845952332,0.00029760965844616294,0.0016297496622428298,0,2,-1000,0,1,0,-1,1,0,143866.0
10:17:24.935,STABILIZE,-35.3632622,149.1652375,0,-0.0008492615888826549,0.000982749625109136,0.022224843502044678,0.0002801900845952332,0.00029760965844616294,0.0016297496622428298,0,2,-1000,0,1,0,-1,1,0,143866.0
10:17:25.137,STABILIZE,-35.3632622,149.1652375,0,-0.0005823077517561615,0.0009704753174446523,0.021944336593151093,0.0003371196216903627,0.00010180415119975805,0.0016055008163675666,0,1,-1000,0,0,1,-1,2,1,143866.0
10:17:25.338,STABILIZE,-35.3632622,149.1652375,0,-0.0005823077517561615,0.0009704753174446523,0.021944336593151093,0.0003371196216903627,0.00010180415119975805,0.0016055008163675666,0,1,-1000,1,0,0,-1,2,1,143866.0
10:17:25.539,STABILIZE,-35.3632622,149.1652375,0,-0.0005823077517561615,0.0009704753174446523,0.021944336593151093,0.0003371196216903627,0.00010180415119975805,0.0016055008163675666,0,1,-1000,1,0,0,-1,2,1,143866.0
10:17:25.740,STABILIZE,-35.3632622,149.1652375,0,-0.0006639613420702517,0.0009586588712409139,0.02181323990225792,0.00030533067183569074,0.00024923490127548575,0.0014891494065523148,0,2,-1000,0,0,1,-1,2,1,143866.0
10:17:25.942,STABILIZE,-35.3632622,149.1652375,0,-0.0006639613420702517,0.0009586588712409139,0.02181323990225792,0.00030533067183569074,0.00024923490127548575,0.0014891494065523148,0,2,-1000,0,0,1,-1,2,1,143866.0
10:17:26.144,STABILIZE,-35.3632622,149.1652375,0,-0.0007466480601578951,0.0009637424373067915,0.02169201523065567,0.0003681389498524368,0.0003340225084684789,0.001522699254564941,0,1,-1000,1,0,1,-1,2,1,143866.0
10:17:26.345,STABILIZE,-35.3632622,149.1652375,0,-0.0007466480601578951,0.0009637424373067915,0.02169201523065567,0.0003681389498524368,0.0003340225084684789,0.001522699254564941,0,2,-1000,0,0,1,-1,2,1,143866.0
10:17:26.547,STABILIZE,-35.3632622,149.1652375,0,-0.0007466480601578951,0.0009637424373067915,0.02169201523065567,0.0003681389498524368,0.0003340225084684789,0.001522699254564941,0,2,-1000,0,0,1,-1,2,1,143866.0
10:17:26.749,AUTO,-35.3632622,149.1652375,0,-0.0007466480601578951,0.0009637424373067915,0.02169201523065567,0.0003681389498524368,0.0003340225084684789,0.001522699254564941,0,2,-1000,0,0,1,-1,2,1,143866.0
10:17:26.951,AUTO,-35.3632622,149.1652375,0,-0.0007466480601578951,0.0009637424373067915,0.02169201523065567,0.0003681389498524368,0.0003340225084684789,0.001522699254564941,0,2,-1000,0,0,1,-1,2,1,39220.0
10:17:27.152,AUTO,-35.3632622,149.1652375,1,-0.0008839864749461412,0.0009690502192825079,0.021484145894646645,0.00027308869175612926,0.00032499548979103565,0.0014242840697988868,0,2,-1000,1,1,1,-1,1,1,39220.0
10:17:27.354,AUTO,-35.3632622,149.1652375,1,-0.0009061170858331025,0.0009808940812945366,0.02145075425505638,0.0002784967073239386,0.00029202125733718276,0.0015295870834961534,0,1,-1000,0,0,1,-1,1,1,39220.0
10:17:27.556,AUTO,-35.3632622,149.1652375,1,-0.0009061170858331025,0.0009808940812945366,0.02145075425505638,0.0002784967073239386,0.00029202125733718276,0.0015295870834961534,0,1,-1000,0,0,1,-1,1,1,39220.0
10:17:27.757,AUTO,-35.3632621,149.1652375,0,-0.000908985617570579,0.0010032569989562035,0.021387171000242233,0.00020498601952567697,0.0003283945843577385,0.0014101185370236635,0,1,-1000,1,0,0,0,0,1,39220.0
10:17:27.959,AUTO,-35.3632621,149.1652375,0,-0.0009012586669996381,0.0010411178227514029,0.021332845091819763,0.00024894002126529813,0.0002462589764036238,0.00149992061778903,0,2,-1000,0,1,0,0,0,1,39220.0
10:17:28.160,AUTO,-35.3632621,149.1652375,0,-0.0008737332536838949,0.0010844628559425473,0.021283959969878197,0.00021926680346950889,0.0001607225858606398,0.0013622553087770939,0,2,-1000,0,1,1,0,0,0,39220.0
10:17:28.363,AUTO,-35.3632621,149.1652375,0,-0.0008350095013156533,0.0011391524458304048,0.021227408200502396,0.00020089163444936275,0.00018432631622999907,0.0013744579628109932,0,1,-1000,1,0,0,0,0,0,39220.0
10:17:28.567,AUTO,-35.3632621,149.1652375,0,-0.0008350095013156533,0.0011391524458304048,0.021227408200502396,0.00020089163444936275,0.00018432631622999907,0.0013744579628109932,0,1,-1000,1,0,0,0,0,0,39220.0
10:17:28.775,AUTO,-35.3632621,149.1652375,0,-0.0008350095013156533,0.0011391524458304048,0.021227408200502396,0.00020089163444936275,0.00018432631622999907,0.0013744579628109932,0,1,-1000,1,0,0,0,0,0,39220.0
10:17:28.982,AUTO,-35.3632621,149.1652375,0,-0.0008350095013156533,0.0011391524458304048,0.021227408200502396,0.00020089163444936275,0.00018432631622999907,0.0013744579628109932,0,1,-1000,1,0,0,0,0,0,39220.0
10:17:29.184,AUTO,-35.3632621,149.1652375,0,-0.0006678463541902602,0.0013317572884261608,0.02105950005352497,0.000458647555205971,0.00033477548277005553,0.0012847932521253824,0,1,-1000,1,0,0,0,0,0,39220.0
10:17:29.386,AUTO,-35.3632621,149.1652375,0,-0.0006120706675574183,0.001397090614773333,0.021000167354941368,0.00031806103652343154,0.0002736856113187969,0.001381079899147153,0,1,-1000,0,0,1,0,0,0,39220.0
10:17:29.587,AUTO,-35.3632621,149.1652374,0,-0.0005606625927612185,0.0014718916499987245,0.02093539573252201,0.0002513850340619683,0.00032411847496405244,0.0013468668330460787,0,1,-1000,1,0,0,0,0,0,39220.0
10:17:29.788,AUTO,-35.3632621,149.1652374,0,-0.0005606625927612185,0.0014718916499987245,0.02093539573252201,0.0002513850340619683,0.00032411847496405244,0.0013468668330460787,0,1,-1000,1,0,0,0,0,0,54176.0
10:17:29.989,AUTO,-35.3632621,149.1652374,0,-0.000501104979775846,0.001546485349535942,0.02089347131550312,0.0003038380527868867,0.00032074045157060027,0.001415134291164577,0,1,-1000,0,0,1,0,0,0,54176.0
10:17:30.191,AUTO,-35.3632621,149.1652374,0,-0.0004377986188046634,0.001621355302631855,0.020827176049351692,0.0003342453856021166,0.0002687503583729267,0.001410387340001762,0,1,-1000,1,0,1,0,0,0,54176.0
10:17:30.392,AUTO,-35.3632621,149.1652374,1,-0.0003671641170512885,0.001702062669210136,0.020758938044309616,0.00037912413245067,0.0003157861647196114,0.0013960239011794329,0,1,-1000,1,0,0,0,0,0,54176.0
10:17:30.594,AUTO,-35.3632621,149.1652374,1,-0.0003671641170512885,0.001702062669210136,0.020758938044309616,0.00037912413245067,0.0003157861647196114,0.0013960239011794329,0,1,-1000,1,0,0,0,0,0,54176.0
10:17:30.796,AUTO,-35.3632621,149.1652374,1,-0.0003671641170512885,0.001702062669210136,0.020758938044309616,0.00037912413245067,0.0003157861647196114,0.0013960239011794329,0,1,-1000,1,0,0,0,0,0,54176.0
10:17:30.997,AUTO,-35.3632621,149.1652374,1,-0.0003671641170512885,0.001702062669210136,0.020758938044309616,0.00037912413245067,0.0003157861647196114,0.0013960239011794329,0,1,-1000,1,0,0,0,0,0,54176.0
10:17:31.199,AUTO,-35.3632621,149.1652375,189,0.003251320216804743,8.905653521651402e-05,0.020765701308846474,0.004443061538040638,0.004467254504561424,0.0014845930272713304,0,0,-1130,5,4,1,0,0,-70,54176.0
10:17:31.400,AUTO,-35.3632621,149.1652375,402,0.001802682876586914,0.0010594110935926437,0.020545048639178276,-0.010296126827597618,0.0029373462311923504,0.00032318633748218417,0,0,-1109,-9,3,0,0,1,-98,54176.0
10:17:31.602,AUTO,-35.3632621,149.1652375,680,0.0011320362100377679,0.0016464554937556386,0.02047734707593918,-0.0003514750278554857,-0.0001080584479495883,0.0014804205857217312,0,0,-1089,0,0,1,0,0,-122,54176.0
10:17:31.803,AUTO,-35.3632621,149.1652375,680,0.0011320362100377679,0.0016464554937556386,0.02047734707593918,-0.0003514750278554857,-0.0001080584479495883,0.0014804205857217312,0,0,-1089,0,0,1,0,0,-122,54176.0
10:17:32.005,AUTO,-35.3632621,149.1652375,1014,0.00941135548055172,0.0009186905808746815,0.019986843690276146,0.046772897243499756,-0.005931524094194174,0.0007436634041368961,0,0,-1043,47,-5,0,0,1,-138,54176.0
10:17:32.207,AUTO,-35.363262,149.1652375,1380,0.02127370610833168,-0.000786753196734935,0.01987726427614689,0.047152865678071976,-0.0070563387125730515,0.0018058560090139508,0,0,-1018,47,-6,1,0,4,-144,54176.0
10:17:32.408,AUTO,-35.363262,149.1652377,1758,0.03274478018283844,-0.0027029754128307104,0.01996423862874508,0.0455193966627121,-0.008081121370196342,0.002539205364882946,0,-1,-1008,46,-7,2,1,10,-147,54176.0
10:17:32.610,AUTO,-35.363262,149.1652377,1758,0.03274478018283844,-0.0027029754128307104,0.01996423862874508,0.0455193966627121,-0.008081121370196342,0.002539205364882946,0,-1,-1008,46,-7,2,1,10,-147,54176.0
10:17:32.812,AUTO,-35.363262,149.1652377,1758,0.03274478018283844,-0.0027029754128307104,0.01996423862874508,0.0455193966627121,-0.008081121370196342,0.002539205364882946,0,-1,-1008,46,-7,2,1,10,-147,179448.0
10:17:33.013,AUTO,-35.363262,149.1652377,1758,0.03274478018283844,-0.0027029754128307104,0.01996423862874508,0.0455193966627121,-0.008081121370196342,0.002539205364882946,0,-1,-1008,46,-7,2,1,10,-147,179448.0
10:17:33.215,AUTO,-35.3632616,149.1652396,2914,0.06200515106320381,-0.009643064811825752,-0.006470398046076298,0.004905776120722294,0.008109469898045063,-0.028960570693016052,1,-8,-994,5,8,-29,8,41,-148,179448.0
10:17:33.416,AUTO,-35.3632614,149.1652409,3295,0.04464934021234512,0.010273154824972153,-0.027740055695176125,-0.13038697838783264,0.1080029234290123,-0.10770836472511292,2,-10,-990,-129,108,-107,10,52,-145,179448.0
10:17:33.618,AUTO,-35.3632611,149.1652424,3679,7.39033057470806e-05,0.023859722539782524,-0.04904577136039734,-0.1740155816078186,0.005540873389691114,-0.07690151035785675,5,-14,-1000,-173,6,-77,7,54,-144,179448.0
10:17:33.822,AUTO,-35.363261,149.1652437,4057,-0.025449927896261215,0.02210007607936859,-0.06467104703187943,-0.05583144351840019,-0.010972948744893074,-0.06244954839348793,5,-12,-1011,-55,-10,-62,3,47,-147,179448.0
10:17:34.025,AUTO,-35.363261,149.1652437,4057,-0.025449927896261215,0.02210007607936859,-0.06467104703187943,-0.05583144351840019,-0.010972948744893074,-0.06244954839348793,5,-12,-1011,-55,-10,-62,3,47,-147,179448.0
10:17:34.227,AUTO,-35.3632609,149.1652449,4440,-0.034309107810258865,0.0178140327334404,-0.07704421132802963,-0.023396847769618034,-0.014915349893271923,-0.04686586186289787,4,-8,-1006,-22,-14,-46,0,37,-149,179448.0
10:17:34.429,AUTO,-35.3632609,149.1652458,4825,-0.04465508460998535,0.01187583152204752,-0.08542252331972122,-0.0560348741710186,-0.029175275936722755,-0.02419774979352951,3,-6,-1001,-55,-28,-24,-3,25,-149,179448.0
10:17:34.631,AUTO,-35.3632609,149.1652458,4825,-0.04465508460998535,0.01187583152204752,-0.08542252331972122,-0.0560348741710186,-0.029175275936722755,-0.02419774979352951,3,-6,-1001,-55,-28,-24,-3,25,-149,179448.0
10:17:34.833,AUTO,-35.3632609,149.1652458,4825,-0.04465508460998535,0.01187583152204752,-0.08542252331972122,-0.0560348741710186,-0.029175275936722755,-0.02419774979352951,3,-6,-1001,-55,-28,-24,-3,25,-149,179448.0
10:17:35.035,AUTO,-35.3632609,149.1652458,4825,-0.04465508460998535,0.01187583152204752,-0.08542252331972122,-0.0560348741710186,-0.029175275936722755,-0.02419774979352951,3,-6,-1001,-55,-28,-24,-3,25,-149,179448.0
10:17:35.237,AUTO,-35.3632611,149.165246,5970,-0.06965243816375732,-0.009543287567794323,-0.08760672807693481,0.0473095066845417,-0.002479946706444025,-0.0053757126443088055,0,2,-1002,48,-1,-5,-2,-25,-149,179448.0
10:17:35.439,AUTO,-35.3632611,149.165245,6354,-0.056303299963474274,-0.009833406656980515,-0.08950389176607132,0.05731043592095375,0.0007500326028093696,-0.0023232633247971535,-3,6,-1001,57,1,-2,-2,-40,-149,179448.0
10:17:35.641,AUTO,-35.3632612,149.1652438,6739,-0.04168783500790596,-0.008795197121798992,-0.09077847003936768,0.060260117053985596,0.006431982386857271,-0.00027547613717615604,-5,9,-1001,60,7,0,-2,-50,-149,179448.0
10:17:35.843,AUTO,-35.3632612,149.1652423,7122,-0.0260479599237442,-0.006509145721793175,-0.0913129448890686,0.06499788910150528,0.011064162477850914,0.001201361184939742,-6,9,-1002,65,11,0,-1,-57,-149,80909.0
10:17:36.046,AUTO,-35.3632612,149.1652423,7122,-0.0260479599237442,-0.006509145721793175,-0.0913129448890686,0.06499788910150528,0.011064162477850914,0.001201361184939742,-6,9,-1002,65,11,0,-1,-57,-149,80909.0
10:17:36.248,AUTO,-35.3632613,149.1652406,7509,-0.009915231727063656,-0.0033603699412196875,-0.0913412794470787,0.06621599942445755,0.01366068422794342,0.0023381279315799475,-6,9,-1003,66,14,2,-2,-59,-150,80909.0
10:17:36.450,AUTO,-35.3632614,149.1652389,7905,0.006968105211853981,0.0003029503277502954,-0.09102316200733185,0.06710115820169449,0.014769009314477444,0.0029846294783055782,-8,15,-1004,67,15,2,-3,-57,-151,80909.0
10:17:36.652,AUTO,-35.3632614,149.1652389,7905,0.006968105211853981,0.0003029503277502954,-0.09102316200733185,0.06710115820169449,0.014769009314477444,0.0029846294783055782,-8,15,-1004,67,15,2,-3,-57,-151,80909.0
10:17:36.854,AUTO,-35.3632614,149.1652389,7905,0.006968105211853981,0.0003029503277502954,-0.09102316200733185,0.06710115820169449,0.014769009314477444,0.0029846294783055782,-8,15,-1004,67,15,2,-3,-57,-151,80909.0
10:17:37.057,AUTO,-35.3632614,149.1652389,7905,0.006968105211853981,0.0003029503277502954,-0.09102316200733185,0.06710115820169449,0.014769009314477444,0.0029846294783055782,-8,15,-1004,67,15,2,-3,-57,-151,80909.0
10:17:37.260,AUTO,-35.3632617,149.165235,9081,0.055007822811603546,0.008566106669604778,-0.08807019144296646,0.06032455340027809,0.005560989025980234,0.00442985026165843,-4,8,-1002,60,6,4,-7,-28,-153,80909.0
10:17:37.462,AUTO,-35.3632619,149.1652344,9475,0.06884841620922089,0.008689825423061848,-0.08610743284225464,0.03449644520878792,-0.010858876630663872,0.020685020834207535,-2,6,-997,35,-10,20,-8,-12,-153,80909.0
10:17:37.665,AUTO,-35.3632621,149.1652342,9865,0.06111811101436615,0.003050968050956726,-0.08159089833498001,-0.0719485953450203,-0.02162325195968151,0.017971884459257126,0,2,-992,-71,-21,17,-8,4,-151,80909.0
10:17:37.868,AUTO,-35.3632623,149.1652344,10250,0.03902039676904678,-0.0011491269106045365,-0.079181969165802,-0.09440190345048904,-0.01337429042905569,0.005600679200142622,2,-1,-996,-93,-12,5,-6,15,-149,80909.0
10:17:38.070,AUTO,-35.3632624,149.1652347,10634,0.017441339790821075,-0.0030585555359721184,-0.07992290705442429,-0.07685675472021103,-0.004279805347323418,-0.00486175250262022,2,-2,-1000,-76,-3,-5,-4,20,-149,80909.0
10:17:38.272,AUTO,-35.3632624,149.1652347,10634,0.017441339790821075,-0.0030585555359721184,-0.07992290705442429,-0.07685675472021103,-0.004279805347323418,-0.00486175250262022,2,-2,-1000,-76,-3,-5,-4,20,-149,80909.0
10:17:38.475,AUTO,-35.3632624,149.1652352,11017,0.0017119315452873707,-0.004078627564013004,-0.08297110348939896,-0.05192030221223831,-0.0020975908264517784,-0.015705812722444534,3,-3,-1002,-51,-1,-15,-2,20,-149,80909.0
10:17:38.683,AUTO,-35.3632624,149.1652352,11017,0.0017119315452873707,-0.004078627564013004,-0.08297110348939896,-0.05192030221223831,-0.0020975908264517784,-0.015705812722444534,3,-3,-1002,-51,-1,-15,-2,20,-149,80909.0
10:17:38.886,AUTO,-35.3632624,149.1652352,11017,0.0017119315452873707,-0.004078627564013004,-0.08297110348939896,-0.05192030221223831,-0.0020975908264517784,-0.015705812722444534,3,-3,-1002,-51,-1,-15,-2,20,-149,161339.0
10:17:39.087,AUTO,-35.3632624,149.1652363,12175,-0.014658047817647457,-0.0035995030775666237,-0.10093501955270767,-0.0008519506664015353,0.003898929338902235,-0.026860898360610008,0,-2,-1001,0,4,-27,2,8,-151,161339.0
10:17:39.289,AUTO,-35.3632624,149.1652363,12175,-0.014658047817647457,-0.0035995030775666237,-0.10093501955270767,-0.0008519506664015353,0.003898929338902235,-0.026860898360610008,0,-2,-1001,0,4,-27,2,8,-151,161339.0
10:17:39.490,AUTO,-35.3632624,149.1652365,12568,-0.01339169591665268,-0.002720422809943557,-0.1079515889286995,0.010234114713966846,0.0037908589001744986,-0.025820540264248848,0,-1,-1001,11,4,-25,3,3,-152,161339.0
10:17:39.692,AUTO,-35.3632623,149.1652365,12957,-0.010495774447917938,-0.001567080500535667,-0.11485625803470612,0.014864434488117695,0.005412235856056213,-0.02492845058441162,-1,0,-1000,15,6,-25,4,0,-152,161339.0
10:17:39.894,AUTO,-35.3632622,149.1652364,13346,-0.006515184883028269,-9.545650391373783e-05,-0.12150503695011139,0.016698865219950676,0.005930265877395868,-0.023157013580203056,-1,0,-1000,17,6,-23,4,-3,-152,161339.0
10:17:40.096,AUTO,-35.3632621,149.1652363,13736,-0.002466249978169799,0.0016967009287327528,-0.1279384195804596,0.01716487482190132,0.007435602135956287,-0.022740477696061134,-2,0,-1000,17,8,-22,4,-5,-152,161339.0
10:17:40.297,AUTO,-35.3632621,149.1652363,13736,-0.002466249978169799,0.0016967009287327528,-0.1279384195804596,0.01716487482190132,0.007435602135956287,-0.022740477696061134,-2,0,-1000,17,8,-22,4,-5,-152,161339.0
10:17:40.499,AUTO,-35.3632619,149.1652362,14127,0.001540484605357051,0.00345713272690773,-0.13380829989910126,0.014453445561230183,0.005487530957907438,-0.02062120847404003,-2,0,-1000,15,6,-20,3,-5,-152,161339.0
10:17:40.702,AUTO,-35.3632619,149.1652362,14127,0.001540484605357051,0.00345713272690773,-0.13380829989910126,0.014453445561230183,0.005487530957907438,-0.02062120847404003,-2,0,-1000,15,6,-20,3,-5,-152,161339.0
10:17:40.904,AUTO,-35.3632619,149.1652362,14127,0.001540484605357051,0.00345713272690773,-0.13380829989910126,0.014453445561230183,0.005487530957907438,-0.02062120847404003,-2,0,-1000,15,6,-20,3,-5,-152,161339.0
10:17:41.105,AUTO,-35.3632617,149.1652356,15292,0.008528570644557476,0.0063833072781562805,-0.14777784049510956,0.0052388072945177555,0.0017969405744224787,-0.014050165191292763,-1,0,-1000,6,2,-14,0,-2,-152,161339.0
10:17:41.307,AUTO,-35.3632617,149.1652356,15292,0.008528570644557476,0.0063833072781562805,-0.14777784049510956,0.0052388072945177555,0.0017969405744224787,-0.014050165191292763,-1,0,-1000,6,2,-14,0,-2,-152,161339.0
10:17:41.508,AUTO,-35.3632617,149.1652355,15683,0.009265320375561714,0.006650996394455433,-0.15146149694919586,0.0034147948026657104,0.002909883391112089,-0.014806164428591728,-1,0,-1000,4,3,-15,0,-1,-152,161339.0
10:17:41.710,AUTO,-35.3632616,149.1652355,16072,0.009163669310510159,0.006691648159176111,-0.15474575757980347,-0.012641804292798042,-0.0009067958453670144,-0.010316387750208378,0,0,-998,-11,0,-10,-1,0,-152,161339.0
10:17:41.911,AUTO,-35.3632616,149.1652354,16460,-0.0038834053557366133,0.006192176137119532,-0.15795257687568665,-0.07503365725278854,-0.0015321560204029083,-0.014580114744603634,0,0,-996,-74,-1,-14,-1,0,-151,123446.0
10:17:42.113,AUTO,-35.3632616,149.1652353,16845,-0.02600913867354393,0.005819560959935188,-0.1615692675113678,-0.09361670166254044,-0.0010116914054378867,-0.014878867194056511,0,0,-997,-92,0,-15,-3,-3,-150,123446.0
10:17:42.315,AUTO,-35.3632616,149.1652353,16845,-0.02600913867354393,0.005819560959935188,-0.1615692675113678,-0.09361670166254044,-0.0010116914054378867,-0.014878867194056511,0,0,-997,-92,0,-15,-3,-3,-150,123446.0
10:17:42.517,AUTO,-35.3632616,149.165235,17232,-0.048745036125183105,0.007886093109846115,-0.16047535836696625,-0.0607796385884285,0.03966417908668518,0.07447593659162521,-1,2,-986,-60,40,74,-5,-13,-149,123446.0
10:17:42.719,AUTO,-35.3632616,149.165235,17232,-0.048745036125183105,0.007886093109846115,-0.16047535836696625,-0.0607796385884285,0.03966417908668518,0.07447593659162521,-1,2,-986,-60,40,74,-5,-13,-149,123446.0
10:17:42.920,AUTO,-35.3632616,149.165235,17232,-0.048745036125183105,0.007886093109846115,-0.16047535836696625,-0.0607796385884285,0.03966417908668518,0.07447593659162521,-1,2,-986,-60,40,74,-5,-13,-149,123446.0
10:17:43.122,AUTO,-35.3632626,149.1652325,18295,-0.0032011624425649643,0.018315965309739113,0.048292599618434906,0.1540476232767105,-0.16073551774024963,0.1458805948495865,0,8,-953,154,-159,145,-29,-38,-124,123446.0
10:17:43.324,AUTO,-35.3632632,149.1652314,18600,0.031756509095430374,-0.015761563554406166,0.0657343715429306,0.12024233490228653,-0.10544134676456451,0.013116774149239063,0,11,-956,120,-104,12,-28,-33,-113,123446.0
10:17:43.527,AUTO,-35.3632632,149.1652314,18600,0.031756509095430374,-0.015761563554406166,0.0657343715429306,0.12024233490228653,-0.10544134676456451,0.013116774149239063,0,11,-956,120,-104,12,-28,-33,-113,123446.0
10:17:43.729,AUTO,-35.3632637,149.1652306,18878,0.05477868393063545,-0.032609276473522186,0.06117306649684906,0.0678618773818016,-0.041081104427576065,-0.03776893764734268,1,8,-960,68,-40,-37,-22,-20,-103,123446.0
10:17:43.931,AUTO,-35.3632641,149.1652302,19129,0.06543677300214767,-0.0361553356051445,0.051460254937410355,0.018785053864121437,-0.00044319225708022714,-0.04193972423672676,1,4,-963,19,0,-42,-14,-5,-93,123446.0
10:17:44.133,AUTO,-35.3632643,149.1652301,19354,0.06487471610307693,-0.033315353095531464,0.04363314434885979,-0.01737380400300026,0.017349915578961372,-0.0257729385048151,1,0,-967,-16,18,-26,-5,10,-84,123446.0
10:17:44.335,AUTO,-35.3632643,149.1652305,19558,0.05736600235104561,-0.027224522083997726,0.03929105028510094,-0.041843898594379425,0.029076138511300087,-0.011833894066512585,1,-4,-971,-41,29,-11,1,23,-75,123446.0
10:17:44.537,AUTO,-35.3632643,149.1652305,19558,0.05736600235104561,-0.027224522083997726,0.03929105028510094,-0.041843898594379425,0.029076138511300087,-0.011833894066512585,1,-4,-971,-41,29,-11,1,23,-75,123446.0
10:17:44.739,AUTO,-35.3632643,149.1652305,19558,0.05736600235104561,-0.027224522083997726,0.03929105028510094,-0.041843898594379425,0.029076138511300087,-0.011833894066512585,1,-4,-971,-41,29,-11,1,23,-75,123446.0
10:17:44.943,AUTO,-35.3632643,149.1652305,19558,0.05736600235104561,-0.027224522083997726,0.03929105028510094,-0.041843898594379425,0.029076138511300087,-0.011833894066512585,1,-4,-971,-41,29,-11,1,23,-75,201966.0
10:17:45.145,AUTO,-35.3632637,149.1652332,20060,0.021726101636886597,-0.0034902477636933327,0.03698914870619774,-0.04981579631567001,0.03030090034008026,0.002447898034006357,0,-9,-977,-48,31,2,14,43,-56,201966.0
10:17:45.347,AUTO,-35.3632633,149.1652343,20198,0.010945005342364311,0.003266638843342662,0.03672641143202782,-0.03130415827035904,0.026791023090481758,0.003908904734998941,1,-10,-977,-30,27,3,16,44,-51,201966.0
10:17:45.549,AUTO,-35.3632633,149.1652343,20198,0.010945005342364311,0.003266638843342662,0.03672641143202782,-0.03130415827035904,0.026791023090481758,0.003908904734998941,1,-10,-977,-30,27,3,16,44,-51,201966.0
10:17:45.751,AUTO,-35.3632629,149.1652354,20319,0.0019750846549868584,0.008554666303098202,0.036463383585214615,-0.035466521978378296,0.017940297722816467,0.0022926724050194025,2,-11,-978,-34,18,1,15,42,-45,201966.0
10:17:45.952,AUTO,-35.3632625,149.1652365,20425,-0.004889370407909155,0.011872075498104095,0.03603723272681236,-0.03251708671450615,0.009795990772545338,0.0014282003976404667,1,-9,-977,-31,10,1,14,38,-39,201966.0
10:17:46.154,AUTO,-35.3632622,149.1652374,20516,-0.008933219127357006,0.013941030018031597,0.03541292995214462,0.0041388459503650665,0.006458037067204714,-0.0006201298674568534,1,-7,-977,5,7,0,12,33,-33,201966.0
10:17:46.357,AUTO,-35.3632619,149.1652383,20593,-0.012210702523589134,0.014591247774660587,0.03483985364437103,-0.02083132602274418,0.00027060043066740036,-0.0031927996315062046,0,-9,-975,-19,1,-3,9,28,-27,201966.0
10:17:46.559,AUTO,-35.3632619,149.1652383,20593,-0.012210702523589134,0.014591247774660587,0.03483985364437103,-0.02083132602274418,0.00027060043066740036,-0.0031927996315062046,0,-9,-975,-19,1,-3,9,28,-27,201966.0
10:17:46.763,AUTO,-35.3632619,149.1652383,20593,-0.012210702523589134,0.014591247774660587,0.03483985364437103,-0.02083132602274418,0.00027060043066740036,-0.0031927996315062046,0,-9,-975,-19,1,-3,9,28,-27,201966.0
10:17:46.965,AUTO,-35.3632619,149.1652383,20593,-0.012210702523589134,0.014591247774660587,0.03483985364437103,-0.02083132602274418,0.00027060043066740036,-0.0031927996315062046,0,-9,-975,-19,1,-3,9,28,-27,201966.0
10:17:47.167,AUTO,-35.3632614,149.1652398,20720,-0.013588818721473217,0.011864559724926949,0.033226173371076584,-0.06976555287837982,-0.005296575836837292,-0.0019420483149588108,0,-9,-965,-68,-4,-2,2,12,-6,201966.0
10:17:47.369,AUTO,-35.3632613,149.1652401,20721,-0.04190307483077049,0.020331688225269318,0.03217265382409096,-0.3967019319534302,0.058158885687589645,-0.004394650924950838,0,-4,-920,-395,59,-4,0,7,5,201966.0
10:17:47.572,AUTO,-35.3632613,149.1652401,20685,-0.03718588128685951,0.021960824728012085,0.03105410560965538,0.5769219398498535,-0.02938252128660679,-0.00720569584518671,0,40,-974,578,-28,-7,-4,-2,16,201966.0
10:17:47.774,AUTO,-35.3632613,149.1652401,20685,-0.03718588128685951,0.021960824728012085,0.03105410560965538,0.5769219398498535,-0.02938252128660679,-0.00720569584518671,0,40,-974,578,-28,-7,-4,-2,16,201966.0
10:17:47.977,AUTO,-35.3632614,149.1652399,20630,0.0025806650519371033,0.015252393670380116,0.03087552636861801,0.9058554768562317,-0.022631507366895676,-0.0025110854767262936,0,25,-997,906,-21,-2,-7,-9,22,233848.0
10:17:48.179,AUTO,-35.3632614,149.1652397,20575,0.028928203508257866,0.012260164134204388,0.030746793374419212,0.12265884131193161,-0.008270995691418648,-0.0066719138994812965,1,-13,-1025,122,-7,-6,-10,-7,17,233848.0
10:17:48.381,AUTO,-35.3632616,149.1652396,20534,0.039165839552879333,0.010898818261921406,0.03024950996041298,-0.6593410968780518,-0.0035220622085034847,-0.007163109257817268,2,-32,-1019,-659,-2,-7,-12,1,11,233848.0
10:17:48.586,AUTO,-35.3632616,149.1652396,20534,0.039165839552879333,0.010898818261921406,0.03024950996041298,-0.6593410968780518,-0.0035220622085034847,-0.007163109257817268,2,-32,-1019,-659,-2,-7,-12,1,11,233848.0
10:17:48.787,AUTO,-35.3632616,149.1652396,20534,0.039165839552879333,0.010898818261921406,0.03024950996041298,-0.6593410968780518,-0.0035220622085034847,-0.007163109257817268,2,-32,-1019,-659,-2,-7,-12,1,11,233848.0
10:17:48.989,AUTO,-35.3632616,149.1652396,20534,0.039165839552879333,0.010898818261921406,0.03024950996041298,-0.6593410968780518,-0.0035220622085034847,-0.007163109257817268,2,-32,-1019,-659,-2,-7,-12,1,11,233848.0
10:17:49.191,AUTO,-35.3632626,149.165241,20483,0.10175816714763641,0.014317279681563377,0.041780248284339905,0.5448250770568848,0.026867086067795753,0.16578088700771332,8,5,-1029,545,27,165,-18,50,-1,233848.0
10:17:49.393,AUTO,-35.363263,149.1652424,20486,0.1096111312508583,0.0054508172906935215,0.15996959805488586,-0.21531404554843903,-0.01347299199551344,0.7447401881217957,12,-35,-1002,-215,-12,744,-20,71,-4,233848.0
10:17:49.595,AUTO,-35.3632635,149.1652444,20495,0.11129090934991837,-0.025884883478283882,0.43759292364120483,-0.30136969685554504,-0.02737800031900406,1.4081577062606812,10,-25,-1011,-299,-26,1408,-22,94,-6,233848.0
10:17:49.796,AUTO,-35.3632635,149.1652444,20495,0.11129090934991837,-0.025884883478283882,0.43759292364120483,-0.30136969685554504,-0.02737800031900406,1.4081577062606812,10,-25,-1011,-299,-26,1408,-22,94,-6,233848.0
10:17:49.998,AUTO,-35.363264,149.1652469,20510,0.11182990670204163,-0.07458370178937912,0.8472678661346436,0.42145025730133057,0.010928726755082607,1.7418345212936401,0,1,-1011,423,11,1741,-26,119,-8,233848.0
10:17:50.200,AUTO,-35.3632646,149.1652501,20530,0.08420515060424805,-0.12226700782775879,1.27690851688385,0.15725503861904144,-0.029072236269712448,1.6969143152236938,-11,-36,-1005,157,-28,1696,-28,144,-9,233848.0
10:17:50.402,AUTO,-35.3632653,149.1652541,20551,0.028878429904580116,-0.1549568474292755,1.6605589389801025,-0.3903798460960388,-0.052921853959560394,1.3141266107559204,-26,-41,-1009,-389,-52,1313,-33,172,-9,233848.0
10:17:50.604,AUTO,-35.3632653,149.1652541,20551,0.028878429904580116,-0.1549568474292755,1.6605589389801025,-0.3903798460960388,-0.052921853959560394,1.3141266107559204,-26,-41,-1009,-389,-52,1313,-33,172,-9,233848.0
10:17:50.806,AUTO,-35.3632653,149.1652541,20551,0.028878429904580116,-0.1549568474292755,1.6605589389801025,-0.3903798460960388,-0.052921853959560394,1.3141266107559204,-26,-41,-1009,-389,-52,1313,-33,172,-9,233848.0
10:17:51.008,AUTO,-35.3632653,149.1652541,20551,0.028878429904580116,-0.1549568474292755,1.6605589389801025,-0.3903798460960388,-0.052921853959560394,1.3141266107559204,-26,-41,-1009,-389,-52,1313,-33,172,-9,128211.0
10:17:51.210,AUTO,-35.3632681,149.1652703,20631,-0.003926669247448444,-0.19480757415294647,1.9505178928375244,-0.2435758113861084,-0.052243638783693314,-0.1668626368045807,-51,-39,-1010,-242,-50,-166,-51,259,-12,128211.0
10:17:51.412,AUTO,-35.3632694,149.1652775,20664,0.0060016256757080555,-0.198745995759964,1.8970943689346313,-0.03817576915025711,0.007697862572968006,-0.21801544725894928,-56,-23,-1014,-36,8,-218,-59,290,-13,128211.0
10:17:51.613,AUTO,-35.3632708,149.1652854,20703,0.020795246586203575,-0.18682637810707092,1.8523175716400146,0.16438011825084686,0.07203943282365799,-0.14329206943511963,-68,-28,-1019,165,72,-143,-65,319,-16,128211.0
10:17:51.815,AUTO,-35.3632708,149.1652854,20703,0.020795246586203575,-0.18682637810707092,1.8523175716400146,0.16438011825084686,0.07203943282365799,-0.14329206943511963,-68,-28,-1019,165,72,-143,-65,319,-16,128211.0
10:17:52.017,AUTO,-35.3632723,149.1652941,20751,0.025870271027088165,-0.16860871016979218,1.8302825689315796,-0.09373143315315247,0.06755614280700684,-0.0559142529964447,-71,-46,-1017,-92,68,-55,-69,342,-20,128211.0
10:17:52.219,AUTO,-35.363274,149.1653034,20809,0.031434547156095505,-0.15461458265781403,1.8240771293640137,0.01644030399620533,0.03983249515295029,-0.014028326608240604,-78,-36,-1012,18,40,-14,-73,361,-24,128211.0
10:17:52.421,AUTO,-35.3632757,149.1653132,20873,0.034998759627342224,-0.14449328184127808,1.8251152038574219,0.04330012574791908,0.029470890760421753,0.003657552180811763,-75,-46,-1005,44,30,3,-76,376,-26,128211.0
10:17:52.623,AUTO,-35.3632757,149.1653132,20873,0.034998759627342224,-0.14449328184127808,1.8251152038574219,0.04330012574791908,0.029470890760421753,0.003657552180811763,-75,-46,-1005,44,30,3,-76,376,-26,128211.0
10:17:52.826,AUTO,-35.3632757,149.1653132,20873,0.034998759627342224,-0.14449328184127808,1.8251152038574219,0.04330012574791908,0.029470890760421753,0.003657552180811763,-75,-46,-1005,44,30,3,-76,376,-26,128211.0
10:17:53.029,AUTO,-35.3632757,149.1653132,20873,0.034998759627342224,-0.14449328184127808,1.8251152038574219,0.04330012574791908,0.029470890760421753,0.003657552180811763,-75,-46,-1005,44,30,3,-76,376,-26,128211.0
10:17:53.232,AUTO,-35.3632814,149.1653451,21089,0.043259672820568085,-0.11679675430059433,1.8291258811950684,0.03468145802617073,0.019267268478870392,-0.001656418782658875,-85,-50,-999,36,20,-1,-85,406,-30,128211.0
10:17:53.434,AUTO,-35.3632834,149.1653562,21166,0.04643605276942253,-0.11326630413532257,1.8281924724578857,0.005785093177109957,0.0038320247549563646,-0.006063464097678661,-79,-46,-990,7,4,-6,-87,410,-30,128211.0
10:17:53.636,AUTO,-35.3632855,149.1653676,21241,0.04709721729159355,-0.10634370893239975,1.8274263143539429,0.004302083048969507,0.03456844389438629,-0.005330896470695734,-91,-48,-1000,6,35,-5,-89,415,-30,128211.0
10:17:53.838,AUTO,-35.3632876,149.1653791,21316,0.047975268214941025,-0.0973830372095108,1.8267016410827637,0.012590332888066769,0.027125047519803047,-0.0024254480376839638,-86,-49,-998,14,28,-2,-91,419,-30,128211.0
10:17:54.040,AUTO,-35.3632876,149.1653791,21316,0.047975268214941025,-0.0973830372095108,1.8267016410827637,0.012590332888066769,0.027125047519803047,-0.0024254480376839638,-86,-49,-998,14,28,-2,-91,419,-30,163622.0
10:17:54.243,AUTO,-35.3632897,149.1653907,21392,0.04864673316478729,-0.09161073714494705,1.8261644840240479,0.0003809998743236065,0.006929247174412012,-0.001687923795543611,-85,-48,-990,1,8,-1,-92,419,-30,163622.0
10:17:54.445,AUTO,-35.3632919,149.1654023,21467,0.04940040037035942,-0.08764016628265381,1.825495719909668,-0.0028776144608855247,0.02442384511232376,0.003059434937313199,-71,-50,-988,-1,25,3,-92,420,-29,163622.0
10:17:54.647,AUTO,-35.3632919,149.1654023,21467,0.04940040037035942,-0.08764016628265381,1.825495719909668,-0.0028776144608855247,0.02442384511232376,0.003059434937313199,-71,-50,-988,-1,25,3,-92,420,-29,163622.0
10:17:54.853,AUTO,-35.3632919,149.1654023,21467,0.04940040037035942,-0.08764016628265381,1.825495719909668,-0.0028776144608855247,0.02442384511232376,0.003059434937313199,-71,-50,-988,-1,25,3,-92,420,-29,163622.0
10:17:55.056,AUTO,-35.3632919,149.1654023,21467,0.04940040037035942,-0.08764016628265381,1.825495719909668,-0.0028776144608855247,0.02442384511232376,0.003059434937313199,-71,-50,-988,-1,25,3,-92,420,-29,163622.0
10:17:55.260,AUTO,-35.3632984,149.1654368,21681,0.0479222908616066,-0.0735074132680893,1.8242584466934204,-0.044438183307647705,-0.02065671607851982,0.0013799428706988692,-86,-53,-989,-43,-19,1,-93,412,-27,163622.0
10:17:55.462,AUTO,-35.3633005,149.1654482,21748,0.04958032816648483,-0.07990764081478119,1.823136329650879,-0.01145541574805975,-0.015692630782723427,0.005836217664182186,-83,-51,-986,-9,-14,5,-92,410,-26,163622.0
10:17:55.664,AUTO,-35.3633027,149.1654596,21811,0.04790737107396126,-0.07391869276762009,1.8227664232254028,0.0287843756377697,0.04478275775909424,0.00028099678456783295,-87,-56,-998,30,45,0,-92,408,-25,163622.0
10:17:55.866,AUTO,-35.363305,149.1654711,21877,0.044609881937503815,-0.05825769901275635,1.822878360748291,-0.024979591369628906,0.06591339409351349,0.0020750134717673063,-82,-51,-1001,-23,66,2,-92,404,-26,163622.0
10:17:56.069,AUTO,-35.363305,149.1654711,21877,0.044609881937503815,-0.05825769901275635,1.822878360748291,-0.024979591369628906,0.06591339409351349,0.0020750134717673063,-82,-51,-1001,-23,66,2,-92,404,-26,163622.0
10:17:56.271,AUTO,-35.3633071,149.1654823,21944,0.04370192438364029,-0.04369858279824257,1.8227589130401611,0.005246563348919153,0.05233180522918701,-0.0009767893934622407,-84,-52,-1000,6,53,0,-90,396,-27,163622.0
10:17:56.473,AUTO,-35.3633092,149.1654932,22013,0.04565412551164627,-0.03101443685591221,1.822377324104309,0.009633403271436691,0.04698022082448006,-0.0025608886498957872,-81,-50,-996,10,47,-2,-87,386,-27,163622.0
10:17:56.679,AUTO,-35.3633092,149.1654932,22013,0.04565412551164627,-0.03101443685591221,1.822377324104309,0.009633403271436691,0.04698022082448006,-0.0025608886498957872,-81,-50,-996,10,47,-2,-87,386,-27,163622.0
10:17:56.891,AUTO,-35.3633092,149.1654932,22013,0.04565412551164627,-0.03101443685591221,1.822377324104309,0.009633403271436691,0.04698022082448006,-0.0025608886498957872,-81,-50,-996,10,47,-2,-87,386,-27,58995.0
10:17:57.093,AUTO,-35.3633151,149.1655236,22209,0.04225330427289009,0.0008637028513476253,1.8213508129119873,0.035706572234630585,0.05198737978935242,-0.005689682904630899,-73,-42,-992,37,53,-5,-78,343,-23,58995.0
10:17:57.295,AUTO,-35.3633151,149.1655236,22209,0.04225330427289009,0.0008637028513476253,1.8213508129119873,0.035706572234630585,0.05198737978935242,-0.005689682904630899,-73,-42,-992,37,53,-5,-78,343,-23,58995.0
10:17:57.497,AUTO,-35.3633169,149.1655329,22267,0.04054606333374977,0.01239052414894104,1.8211466073989868,0.0028286264277994633,0.03695955127477646,-0.00018998936866410077,-70,-43,-992,4,38,0,-74,324,-22,58995.0
10:17:57.699,AUTO,-35.3633186,149.1655416,22320,0.03560175374150276,0.022914504632353783,1.821297287940979,-0.1261024922132492,0.04986535385251045,0.006889856420457363,-63,-52,-993,-124,50,7,-69,305,-19,58995.0
10:17:57.901,AUTO,-35.3633202,149.1655498,22368,0.036779243499040604,0.03672230243682861,1.8210220336914062,0.12456219643354416,0.05130188167095184,0.00035930733429268,-62,-30,-995,126,52,0,-65,283,-18,58995.0
10:17:58.103,AUTO,-35.3633217,149.1655574,22412,0.034803371876478195,0.051043905317783356,1.8209137916564941,0.0086420439183712,0.056068938225507736,0.0031319812405854464,-56,-48,-994,9,57,3,-59,259,-15,58995.0
10:17:58.305,AUTO,-35.3633217,149.1655574,22412,0.034803371876478195,0.051043905317783356,1.8209137916564941,0.0086420439183712,0.056068938225507736,0.0031319812405854464,-56,-48,-994,9,57,3,-59,259,-15,58995.0
10:17:58.507,AUTO,-35.3633231,149.1655642,22449,0.020620672032237053,0.06418099254369736,1.8205598592758179,-0.511871874332428,0.062233246862888336,-0.005451385397464037,-48,-48,-985,-510,63,-5,-54,234,-12,58995.0
10:17:58.709,AUTO,-35.3633231,149.1655642,22449,0.020620672032237053,0.06418099254369736,1.8205598592758179,-0.511871874332428,0.062233246862888336,-0.005451385397464037,-48,-48,-985,-510,63,-5,-54,234,-12,58995.0
10:17:58.911,AUTO,-35.3633231,149.1655642,22449,0.020620672032237053,0.06418099254369736,1.8205598592758179,-0.511871874332428,0.062233246862888336,-0.005451385397464037,-48,-48,-985,-510,63,-5,-54,234,-12,58995.0
10:17:59.113,AUTO,-35.3633263,149.1655804,22509,0.018913235515356064,0.09058859944343567,1.8187203407287598,-0.5124603509902954,-0.009313252754509449,0.019268177449703217,-31,-58,-987,-512,-8,19,-34,146,-3,58995.0
10:17:59.315,AUTO,-35.3633263,149.1655804,22509,0.018913235515356064,0.09058859944343567,1.8187203407287598,-0.5124603509902954,-0.009313252754509449,0.019268177449703217,-31,-58,-987,-512,-8,19,-34,146,-3,58995.0
10:17:59.516,AUTO,-35.3633271,149.1655841,22515,0.006929837632924318,0.0827454924583435,1.8181509971618652,-0.6617886424064636,-0.04295319691300392,0.003405715571716428,-24,-45,-1014,-660,-41,3,-28,119,-1,58995.0
10:17:59.718,AUTO,-35.3633278,149.1655871,22521,0.005880086682736874,0.06824997812509537,1.817584753036499,0.04378921911120415,-0.053708143532276154,-0.011260452680289745,-20,6,-1006,46,-52,-11,-24,96,-2,58995.0
10:17:59.920,AUTO,-35.3633284,149.1655896,22525,0.012072006240487099,0.05661620572209358,1.8172882795333862,0.5959769487380981,-0.03919260576367378,-0.0001329521182924509,-16,10,-1004,597,-38,0,-19,77,-1,17471.0
10:18:00.122,AUTO,-35.3633289,149.1655915,22529,0.003319364506751299,0.048074979335069656,1.8169821500778198,-0.07327226549386978,-0.031908199191093445,0.006316515617072582,-11,-30,-1000,-73,-30,6,-15,62,-1,17471.0
10:18:00.324,AUTO,-35.3633289,149.1655915,22529,0.003319364506751299,0.048074979335069656,1.8169821500778198,-0.07327226549386978,-0.031908199191093445,0.006316515617072582,-11,-30,-1000,-73,-30,6,-15,62,-1,17471.0
10:18:00.526,AUTO,-35.3633294,149.1655931,22530,-0.009710399433970451,0.04236418381333351,1.816529393196106,-0.5797878503799438,-0.012525252997875214,0.005760184954851866,-9,-39,-996,-579,-11,5,-10,49,0,17471.0
10:18:00.728,AUTO,-35.3633294,149.1655931,22530,-0.009710399433970451,0.04236418381333351,1.816529393196106,-0.5797878503799438,-0.012525252997875214,0.005760184954851866,-9,-39,-996,-579,-11,5,-10,49,0,17471.0
10:18:00.930,AUTO,-35.3633294,149.1655931,22530,-0.009710399433970451,0.04236418381333351,1.816529393196106,-0.5797878503799438,-0.012525252997875214,0.005760184954851866,-9,-39,-996,-579,-11,5,-10,49,0,17471.0
10:18:01.132,AUTO,-35.3633305,149.165596,22534,-0.008873242884874344,0.032122496515512466,1.8153663873672485,0.3414345383644104,-0.00755922170355916,0.004284841939806938,-3,-4,-1000,342,-6,4,0,20,0,17471.0
10:18:01.334,AUTO,-35.3633309,149.1655965,22535,-0.019769206643104553,0.02911233715713024,1.8155237436294556,-0.47192269563674927,-0.01215075422078371,0.004731153603643179,-1,-33,-996,-471,-10,5,4,14,0,17471.0
10:18:01.536,AUTO,-35.3633309,149.1655965,22535,-0.019769206643104553,0.02911233715713024,1.8155237436294556,-0.47192269563674927,-0.01215075422078371,0.004731153603643179,-1,-33,-996,-471,-10,5,4,14,0,17471.0
10:18:01.738,AUTO,-35.363331,149.1655969,22536,-0.029169296845793724,0.025516975671052933,1.8154321908950806,-0.5155967473983765,-0.014641853980720043,-0.0022212800104171038,-1,-18,-998,-513,-13,-1,7,8,1,17471.0
10:18:01.940,AUTO,-35.3633311,149.1655971,22535,-0.020764751359820366,0.020462902262806892,1.8154847621917725,0.3728119134902954,-0.021104300394654274,-0.0029760729521512985,0,26,-1011,374,-19,-2,9,3,0,17471.0
10:18:02.142,AUTO,-35.3633313,149.1655972,22535,-0.014362892135977745,0.015062391757965088,1.815456748008728,0.5742685198783875,-0.022674236446619034,-0.0028139634523540735,0,25,-990,575,-21,-2,13,0,1,17471.0
10:18:02.346,AUTO,-35.3633314,149.1655972,22534,-0.021038997918367386,0.007885243743658066,1.815529465675354,-0.2997928857803345,-0.02956319786608219,0.00045180716551840305,0,-28,-995,-299,-28,0,16,-1,0,17471.0
10:18:02.548,AUTO,-35.3633314,149.1655972,22534,-0.021038997918367386,0.007885243743658066,1.815529465675354,-0.2997928857803345,-0.02956319786608219,0.00045180716551840305,0,-28,-995,-299,-28,0,16,-1,0,17471.0
10:18:02.750,AUTO,-35.3633314,149.1655972,22534,-0.021038997918367386,0.007885243743658066,1.815529465675354,-0.2997928857803345,-0.02956319786608219,0.00045180716551840305,0,-28,-995,-299,-28,0,16,-1,0,17471.0
10:18:02.952,AUTO,-35.3633314,149.1655972,22534,-0.021038997918367386,0.007885243743658066,1.815529465675354,-0.2997928857803345,-0.02956319786608219,0.00045180716551840305,0,-28,-995,-299,-28,0,16,-1,0,28435.0
10:18:03.154,AUTO,-35.3633314,149.1655974,22534,-0.011551142670214176,-0.002783182542771101,1.8151133060455322,0.6512989401817322,0.005657777655869722,-0.0052996110171079636,-3,30,-983,652,6,-4,17,1,0,28435.0
10:18:03.357,AUTO,-35.3633313,149.1655976,22533,-0.009530909359455109,-0.009577731601893902,1.815098524093628,-0.0117852333933115,-0.040942125022411346,0.004159761592745781,-2,-15,-1000,-12,-39,4,18,3,0,28435.0
10:18:03.560,AUTO,-35.3633313,149.1655976,22533,-0.009530909359455109,-0.009577731601893902,1.815098524093628,-0.0117852333933115,-0.040942125022411346,0.004159761592745781,-2,-15,-1000,-12,-39,4,18,3,0,28435.0
10:18:03.762,RTL,-35.3633313,149.1655978,22533,-0.015387028455734253,-0.021083250641822815,1.8152743577957153,-0.5769938826560974,-0.031145231798291206,-0.007107570767402649,-3,-29,-1001,-576,-30,-7,16,6,0,28435.0
10:18:03.965,RTL,-35.3633313,149.1655982,22531,-0.011568844318389893,-0.012244570069015026,1.81480073928833,-0.12775713205337524,0.0888521671295166,0.0022223382256925106,-3,13,-999,-125,90,2,12,10,1,28435.0
10:18:04.168,RTL,-35.3633313,149.1655986,22529,-0.0004502720548771322,0.006094030570238829,1.8133496046066284,0.5571256875991821,0.042438164353370667,-0.007150933146476746,-4,25,-1016,558,43,-7,11,10,0,28435.0
10:18:04.370,RTL,-35.3633312,149.165599,22534,-0.0015750427264720201,0.010487058199942112,1.8125821352005005,-0.022411473095417023,0.01276949793100357,-0.00017268436204176396,-4,-15,-1017,-22,13,0,12,7,-3,28435.0
10:18:04.572,RTL,-35.3633312,149.165599,22534,-0.0015750427264720201,0.010487058199942112,1.8125821352005005,-0.022411473095417023,0.01276949793100357,-0.00017268436204176396,-4,-15,-1017,-22,13,0,12,7,-3,28435.0
10:18:04.786,RTL,-35.3633312,149.165599,22534,-0.0015750427264720201,0.010487058199942112,1.8125821352005005,-0.022411473095417023,0.01276949793100357,-0.00017268436204176396,-4,-15,-1017,-22,13,0,12,7,-3,28435.0
10:18:04.988,RTL,-35.3633312,149.165599,22534,-0.0015750427264720201,0.010487058199942112,1.8125821352005005,-0.022411473095417023,0.01276949793100357,-0.00017268436204176396,-4,-15,-1017,-22,13,0,12,7,-3,28435.0
10:18:05.189,RTL,-35.3633308,149.1655999,22624,0.006800409406423569,0.009833003394305706,1.810523271560669,0.5051145553588867,0.001215570024214685,0.0027128506917506456,-3,22,-1038,506,2,3,10,-1,-23,28435.0
10:18:05.391,RTL,-35.3633306,149.1656002,22694,0.004614281468093395,0.009416923858225346,1.8106199502944946,-0.13370662927627563,0.0009977101581171155,0.002987639047205448,-2,-12,-1041,-133,2,3,8,-3,-33,28435.0
10:18:05.593,RTL,-35.3633304,149.1656003,22792,-0.0018693282036110759,0.007770557887852192,1.8107072114944458,-0.2911894619464874,-0.007649019360542297,-0.0007259427802637219,-2,-4,-1045,-290,-6,0,6,-6,-44,28435.0
10:18:05.795,RTL,-35.3633304,149.1656003,22792,-0.0018693282036110759,0.007770557887852192,1.8107072114944458,-0.2911894619464874,-0.007649019360542297,-0.0007259427802637219,-2,-4,-1045,-290,-6,0,6,-6,-44,28435.0
10:18:05.997,RTL,-35.3633302,149.1656004,22919,0.005474910140037537,0.0062805176712572575,1.8101469278335571,0.187020406126976,-0.010732267051935196,0.0006109069217927754,-1,17,-1049,188,-9,0,4,-7,-56,282590.0
10:18:06.199,RTL,-35.36333,149.1656004,23076,0.008630042895674706,0.00544885965064168,1.809669852256775,0.052140213549137115,-0.0008452224428765476,0.0016916763270273805,-1,-1,-1045,52,0,1,3,-9,-68,282590.0
10:18:06.401,RTL,-35.3633297,149.1656006,23261,0.006658474449068308,0.0055561792105436325,1.8093091249465942,-0.09915019571781158,0.002036048099398613,0.0029451160226017237,-1,-1,-1043,-98,3,3,1,-10,-78,282590.0
10:18:06.602,RTL,-35.3633297,149.1656006,23261,0.006658474449068308,0.0055561792105436325,1.8093091249465942,-0.09915019571781158,0.002036048099398613,0.0029451160226017237,-1,-1,-1043,-98,3,3,1,-10,-78,282590.0
10:18:06.804,RTL,-35.3633297,149.1656006,23261,0.006658474449068308,0.0055561792105436325,1.8093091249465942,-0.09915019571781158,0.002036048099398613,0.0029451160226017237,-1,-1,-1043,-98,3,3,1,-10,-78,282590.0
10:18:07.006,RTL,-35.3633297,149.1656006,23261,0.006658474449068308,0.0055561792105436325,1.8093091249465942,-0.09915019571781158,0.002036048099398613,0.0029451160226017237,-1,-1,-1043,-98,3,3,1,-10,-78,282590.0
10:18:07.208,RTL,-35.3633292,149.1656006,23981,0.008763040415942669,0.0027869106270372868,1.8081861734390259,-0.004758999217301607,0.0038215238600969315,0.0019501359201967716,0,1,-1043,-3,5,2,-4,-12,-110,282590.0
10:18:07.410,RTL,-35.363329,149.1656005,24275,0.009226012974977493,0.0028186228591948748,1.808007836341858,0.0077294837683439255,0.002624399494379759,0.004324451554566622,0,2,-1044,8,4,4,-5,-12,-121,282590.0
10:18:07.611,RTL,-35.3633289,149.1656005,24601,0.009448830038309097,0.00239500030875206,1.807810664176941,-0.002819892019033432,-0.0031318007968366146,0.003589915344491601,0,1,-1043,-1,-1,4,-7,-13,-132,282590.0
10:18:07.813,RTL,-35.3633289,149.1656005,24601,0.009448830038309097,0.00239500030875206,1.807810664176941,-0.002819892019033432,-0.0031318007968366146,0.003589915344491601,0,1,-1043,-1,-1,4,-7,-13,-132,282590.0
10:18:08.015,RTL,-35.3633288,149.1656004,24950,0.01148316077888012,0.0014366962714120746,1.8075507879257202,0.03089906834065914,-0.006388859823346138,0.003274430986493826,0,1,-1032,32,-4,3,-9,-13,-141,282590.0
