time_stamp,RTL_ALT,MODE,roll,pitch,yaw,rollspeed,pitchspeed,yawspeed,lat,lon,relative_alt,vx,vy,vz,xacc,yacc,zacc,xgyro,ygyro,zgyro
09:08:54,1500.0,STABILIZE,-0.00012803773279301822,0.0013624683488160372,0.029400743544101715,0.00021399790421128273,0.00018219536286778748,0.00260290433652699,-35.3632621,149.1652374,0.0,0.0,0.0,-2.5,0.0,1.0,-1000.0,0.0,0.5,0.0
09:08:58,1500.0,STABILIZE,-0.0006908754585310817,0.0012440969003364444,0.026817919686436653,8.372328011319041e-05,0.0002703215868677944,0.0021513618994504213,-35.3632622,149.1652375,0.0,-1.0,2.0,1.0,0.0,1.0,-1000.0,0.0,0.0,0.0
09:09:06,1500.0,STABILIZE,-0.0007385349017567933,0.0009359790128655732,0.02407410368323326,0.00022881152108311653,0.000252788420766592,0.00173067522700876,-35.36326215,149.1652375,0.0,-1.0,1.0,0.0,0.0,2.0,-1000.0,0.0,1.0,0.0
09:09:08,1500.0,STABILIZE,-0.0004634360084310174,0.0009636473841965199,0.023368922993540764,0.00023266678908839822,0.00022266223095357418,0.0016019390895962715,-35.3632622,149.1652375,0.0,-1.0,1.0,-2.0,0.0,1.5,-1000.0,0.5,0.5,0.0
09:09:10,1500.0,AUTO,-0.00016555437468923628,0.0011335128219798207,0.022635681554675102,0.0027533925604075193,0.00021511688828468323,0.0015362820122390985,-35.3632621,149.1652375,2.0,0.0,1.0,0.0,0.0,28.0,-960.0,3.0,0.0,1.0
09:09:11,120533.0,AUTO,-1.955221591742884e-05,0.001296937552979216,0.02239556470885873,0.00031843327451497316,0.0002712912391871214,0.0014729929680470377,-35.3632621,149.1652375,0.0,0.0,0.5,0.0,0.0,1.0,-1000.0,0.75,0.25,0.5
09:09:12,120533.0,AUTO,0.00024407001183135435,0.0015771195176057518,0.022009044885635376,0.00035154985380358994,0.0002838664804585278,0.001474937831517309,-35.3632621,149.1652375,0.0,0.0,0.0,0.0,0.0,1.5,-1000.0,0.5,0.5,0.5
09:09:14,120533.0,AUTO,0.015011272043921053,2.5054323486983776e-05,0.02147097047418356,0.02363584900740534,-0.002321425126865506,0.0017861764645203948,-35.36326205,149.16523755,1011.0,0.5,4.0,-127.0,0.0,-0.5,-1056.5,24.0,-1.5,0.5
09:09:16,120533.0,AUTO,-0.003567495383322239,0.012216214556246996,-0.05527045205235481,-0.10353294480592012,0.022362870164215565,-0.060181607492268085,-35.3632611,149.1652435,3994.0,5.5,43.5,-146.5,4.5,-10.5,-998.0,-102.0,23.0,-60.5
09:09:17,3951.0,AUTO,-0.06511588208377361,0.0017284332134295255,-0.09129760600626469,-0.022896005539223552,-0.0007912890578154474,-0.029375231359153986,-35.363260749999995,149.165246225,5521.25,0.25,-5.25,-148.0,0.5,-1.5,-1001.0,-22.5,0.0,-29.5
09:09:18,3951.0,AUTO,-0.030183123657479882,0.004131484020035714,-0.10916460677981377,0.06386197172105312,0.007869123248383403,-0.007166018011048436,-35.36326105,149.16524245,7053.5,-7.5,-54.0,-148.5,-4.5,9.0,-1001.5,64.0,8.5,-6.5
09:09:20,3951.0,AUTO,0.05262457486242056,-0.025924629531800747,-0.07185601443052292,-0.04825232457369566,-0.014509833650663495,0.033262504264712334,-35.3632638,149.16523454999998,10164.5,-9.5,13.5,-149.5,2.5,1.0,-996.0,-48.0,-13.5,32.0
09:09:22,3951.0,AUTO,-0.015536845428869128,0.017230634577572346,-0.14815796166658401,0.03217084798961878,0.02249725302681327,-0.05107956938445568,-35.3632608,149.165237,13246.0,18.0,-9.5,-151.5,-4.0,-1.5,-1001.5,32.5,22.5,-51.0
09:09:23,61187.0,AUTO,0.014618751942180097,0.022479294799268246,-0.17460525408387184,0.017297617392614484,-0.008444909763056785,-0.0023325991351157427,-35.36326,149.1652355,14814.5,-4.0,-8.75,-152.0,-1.5,2.0,-999.0,17.5,-7.5,-3.0
09:09:24,61187.0,AUTO,0.013433863874524832,0.009250967763364315,-0.16984406858682632,-0.00978662446141243,-0.012646014802157879,0.0029083783738315105,-35.363260600000004,149.16523510000002,16374.5,-12.5,6.0,-151.0,1.5,0.5,-999.5,-8.5,-11.5,2.5
09:09:26,61187.0,AUTO,-0.038544490933418274,0.024709075572900474,-0.10926680825650692,-0.019665203988552094,-0.01057697756914422,0.1884481916204095,-35.3632623,149.16523554999998,19453.5,-14.5,-14.0,-142.5,0.5,3.5,-974.5,-19.0,-9.5,188.0
09:09:28,61187.0,AUTO,0.05149632692337036,-0.027625964023172855,0.03837591037154198,-0.024482973152771592,0.02596127614378929,-0.014890427119098604,-35.363264799999996,149.16523165,21650.0,5.0,18.5,-70.0,0.0,-4.0,-970.5,-23.5,26.0,-15.0
09:09:29,15835.0,AUTO,0.012061449640896171,0.0032421757059637457,0.03372628893703222,-0.03838764224201441,0.024180185282602906,0.0030212028068490326,-35.363263525,149.16523485000002,22241.75,18.75,39.25,-45.0,0.5,-10.25,-977.75,-37.25,24.5,2.25
09:09:30,15835.0,AUTO,-0.009358734358102083,0.014439101330935955,0.030976103618741035,-0.015333314426243305,0.0019503243966028094,-0.0015853189979679883,-35.36326195,149.16523834999998,22576.5,11.0,25.5,-21.5,0.0,-6.5,-974.0,-14.0,2.5,-1.5
09:09:32,15835.0,AUTO,0.05398969165980816,-0.026390094310045242,0.023399089463055134,0.34236057102680206,-0.03346211463212967,-0.002368764951825142,-35.3632612,149.16523995,22465.5,7.5,13.5,10.5,-0.5,13.5,-1023.5,344.0,-32.0,-2.5
09:09:34,15835.0,AUTO,0.07558882422745228,-0.13117817789316177,0.7046765685081482,0.06843629479408264,-0.03074531350284815,0.4390294700860977,-35.3632532,149.16525775,22347.5,90.0,168.0,2.5,-25.5,-25.0,-1004.0,70.0,-29.5,438.5
09:09:35,3640.0,AUTO,0.04003055253997445,-0.1816948987543583,1.1007045060396194,0.09885211288928986,-0.013289787457324564,0.24915268691256642,-35.3632428,149.16528145,22275.0,144.5,271.25,5.75,-60.0,-24.25,-1001.5,99.5,-12.5,248.75
09:09:36,3640.0,AUTO,0.045389072969555855,-0.2018873617053032,1.1454497575759888,0.044805897399783134,-0.037824682891368866,-0.0349532722029835,-35.3632274,149.16531700000002,22177.5,194.5,371.5,9.5,-87.5,-46.0,-996.5,45.5,-36.0,-35.0
09:09:38,3640.0,AUTO,0.06948333233594894,-0.18725039064884186,1.1261427402496338,0.016666584415361285,-0.005265780724585056,-0.0006920266896486282,-35.363183899999996,149.16541935,21937.5,281.0,545.0,7.0,-128.0,-68.5,-992.0,17.5,-4.5,-1.0
09:09:40,3640.0,AUTO,0.07586568221449852,-0.1406720131635666,1.122441053390503,-0.007165278773754835,0.02973990235477686,0.005423794616945088,-35.3631302,149.1655486,21726.5,312.5,608.5,10.0,-125.5,-79.5,-977.0,-6.0,30.5,5.0
09:09:41,109056.0,AUTO,0.07743481732904911,-0.13212882913649082,1.1204136610031128,0.018973045283928514,-0.0279825022444129,-0.0053997147479094565,-35.363102125,149.165616,21601.0,311.75,606.25,15.0,-132.5,-75.75,-978.75,19.25,-26.75,-5.0
09:09:42,109056.0,AUTO,0.08395252004265785,-0.1393633633852005,1.1181047558784485,-0.018720721593126655,-0.01051340252161026,-0.003586577106034383,-35.363073799999995,149.16568310000002,21418.0,312.5,609.0,17.5,-139.0,-85.0,-993.0,-17.0,-9.5,-4.0
09:09:44,109056.0,AUTO,0.08743276447057724,-0.05947018973529339,1.116675317287445,-0.0642079021781683,0.06366055645048618,-0.0107613371219486,-35.36301785,149.16581585,21154.5,290.5,575.0,7.5,-132.5,-83.5,-998.0,-62.5,64.0,-10.5
09:09:46,109056.0,AUTO,0.06334062293171883,0.031324167270213366,1.1171332001686096,-0.33413010090589523,0.04506749752908945,0.01922380644828081,-35.362972299999996,149.1659265,20916.5,204.5,410.5,16.0,-88.5,-79.0,-994.0,-333.5,45.5,18.0
09:09:47,35306.0,AUTO,0.048016260378062725,0.05177414324134588,1.1159569323062897,0.27610789611935616,0.009549383772537112,-0.012415517587214708,-35.362956325,149.165966425,20770.0,150.75,303.25,12.0,-68.0,-32.0,-1011.0,277.5,10.25,-12.5
09:09:48,35306.0,AUTO,0.027729916386306286,0.07168764621019363,1.1150993704795837,-0.03187215328216553,0.02889200858771801,0.007642315234988928,-35.36294545,149.16599445,20682.5,104.0,202.5,7.0,-44.0,-39.0,-1008.5,-31.0,29.5,7.5
09:09:50,35306.0,AUTO,-0.001518123084679246,0.05105171911418438,1.1128365397453308,-0.06777751445770264,-0.01999530103057623,-0.002665197986061685,-35.36293545,149.1660205,20610.0,29.5,35.5,1.0,-10.5,-7.0,-1010.0,-66.5,-18.5,-2.5
09:09:52,35306.0,AUTO,-0.006138244294561446,0.005483186338096857,1.1120558381080627,-0.2386668175458908,-0.00931145716458559,-0.0058271888410672545,-35.3629336,149.16602269999998,20624.0,3.0,-13.0,0.0,0.0,-9.0,-1005.5,-237.5,-8.5,-5.0
09:09:53,35426.0,RTL,-0.0027736902702599764,0.002744009660091251,1.1104784309864044,0.03139613755047321,0.004125440260395408,-0.0016775613912614062,-35.362933424999994,149.16602235,20631.75,4.0,-11.25,0.25,-0.75,4.75,-1003.75,32.25,5.0,-1.25
09:09:54,35426.0,RTL,0.005354571971111,0.003889514831826091,1.107923686504364,-0.20092347264289856,-0.0001969171571545303,-0.00017929647583514452,-35.36293285,149.16602195000002,20702.0,1.5,-10.0,-15.0,-2.0,-13.0,-1026.5,-201.0,1.0,0.0
09:09:56,35426.0,RTL,0.009696311317384243,0.004140073666349053,1.1045164465904236,-0.010609337128698826,0.0037871801760047674,0.003912397543899715,-35.3629318,149.16602135,21870.5,-9.0,-4.0,-102.0,0.0,1.5,-1045.5,-9.0,4.5,3.5
09:09:58,35426.0,RTL,0.04556920565664768,0.0017316275043413043,1.0914905667304993,-0.049294400960206985,0.057438415475189686,-0.06163401866797358,-35.3629331,149.16602225000003,24708.5,-37.0,20.0,-146.5,2.0,-6.5,-995.5,-48.0,59.0,-61.5
09:09:59,12891.0,RTL,-0.0427594754146412,0.015417825197800994,1.032898336648941,-0.09426099961274303,-0.01837841048836708,-0.04773094318807125,-35.36293625,149.166025,26305.5,-38.25,18.0,-147.0,4.0,-8.25,-1006.5,-92.75,-16.75,-46.5
09:10:00,12891.0,RTL,-0.049473974853754044,-0.0018900389550253749,1.0058313608169556,0.03652368485927582,-0.002963633683975786,-0.01624675653874874,-35.362936649999995,149.166025,27848.0,14.0,-13.0,-150.0,-0.5,3.5,-1001.0,37.5,-1.5,-15.0
09:10:02,12891.0,RTL,0.024207319132983685,-0.004235094878822565,1.0045639276504517,-0.010048699274193496,-0.003968680510297418,0.007063004071824253,-35.36293165,149.1660202,30960.0,10.5,-11.5,-151.0,-2.0,5.0,-998.5,-9.0,-2.5,8.0
09:10:04,12891.0,RTL,0.0033770784502848983,-0.00029811428976245224,0.9806795418262482,-0.0027320124208927155,0.00325904437340796,-0.02091939188539982,-35.362930950000006,149.1660195,34069.0,-2.0,3.5,-151.0,0.0,-0.5,-1000.5,-0.5,4.5,-20.0
09:10:05,165526.0,RTL,0.0028789209318347275,0.0026137020031455904,0.9585879296064377,0.0006944258930161595,0.0026117770466953516,-0.021786138880997896,-35.362931,149.16601985,35631.0,-2.5,3.75,-152.0,0.0,-0.5,-999.75,1.75,3.75,-20.75
09:10:06,165526.0,RTL,0.0030497994739562273,0.004083717707544565,0.9360120594501495,-0.0010750138317234814,2.7732166927307844e-05,-0.020864933729171753,-35.36293105,149.1660202,37190.0,-4.5,2.5,-152.0,0.0,-0.5,-999.5,0.5,1.5,-19.5
09:10:08,165526.0,RTL,-6.041277083568275e-05,0.001632316445466131,0.8933576047420502,-0.0008180823060683906,-0.002201113384217024,-0.020825909450650215,-35.36293175,149.16602054999998,40306.5,-5.5,0.5,-152.0,0.0,0.0,-1000.0,0.0,0.0,-19.5
09:10:10,165526.0,RTL,0.0005912917840760201,0.0010752439266070724,0.8489293158054352,0.0015045049949549139,0.0005426571005955338,-0.020860501565039158,-35.3629323,149.1660207,43425.5,-3.0,0.0,-152.0,0.0,0.0,-1000.0,2.5,2.0,-19.5
09:10:11,123372.0,RTL,0.0013584263360826299,0.001582299533765763,0.8285546749830246,0.002291482567670755,0.0024001241545192897,-0.013520488690119237,-35.36293245,149.1660207,44987.5,-2.25,0.0,-152.25,0.0,0.0,-999.5,3.25,3.75,-12.25
09:10:12,123372.0,RTL,0.0036488327896222472,0.0036863210843876004,0.8326051831245422,0.00078591238707304,0.0014178642304614186,0.01980431005358696,-35.3629326,149.1660207,46542.0,-4.5,0.0,-152.0,0.5,0.0,-1000.0,2.0,2.5,20.0
09:10:14,123372.0,RTL,-0.0009981578623410314,0.0007502642692998052,0.8827473819255829,-0.0012487074709497392,-0.0018282576347701252,0.02599209640175104,-35.3629333,149.16602085,49646.5,-4.0,0.0,-152.0,0.0,0.0,-999.5,0.0,0.0,26.5
09:10:16,123372.0,RTL,0.0005655492568621412,0.00046978515456430614,0.9243424832820892,0.0015505743795074522,-0.0010936689213849604,0.016520054079592228,-35.3629334,149.1660209,52756.5,0.0,0.0,-152.0,0.0,0.0,-1000.0,2.5,0.5,17.0
09:10:17,7295.0,RTL,0.0007029491243883967,0.0004362571125966497,0.9399157017469406,-0.0002880419488064945,0.0003572893620003015,0.01522484072484076,-35.362933350000006,149.1660209,54305.5,0.0,0.0,-152.0,0.0,0.0,-1000.0,1.0,1.5,16.0
09:10:18,7295.0,RTL,0.0010734985989984125,0.000760074588470161,0.9537527561187744,0.0009313970804214478,4.7649373300373554e-05,0.014771782327443361,-35.36293325,149.1660209,55857.0,0.0,0.0,-152.0,0.0,0.0,-1000.0,1.5,1.5,15.0
09:10:20,7295.0,RTL,0.001756482117343694,0.0017671924433670938,0.975408524274826,-0.0020804296364076436,-0.0016862996853888035,0.009238676866516471,-35.36293295,149.1660209,58963.5,-1.0,0.0,-152.0,0.0,0.0,-1000.0,-0.5,0.0,10.0
09:10:22,7295.0,RTL,0.0009704482217784971,0.001352199469693005,0.9918174147605896,-0.0022868490195833147,-0.0005072255153208971,0.00713850324973464,-35.3629329,149.166021,62077.0,-1.5,0.0,-152.0,0.0,0.0,-1000.0,-1.0,1.0,8.0
09:10:23,11275.0,RTL,0.0009161136840702966,0.001356481428956613,0.9988364577293396,0.0003987856034655124,-0.00035042804665863514,0.008547075791284442,-35.3629329,149.166021,63630.5,-1.0,0.0,-152.0,0.0,0.0,-1000.0,1.5,0.75,9.5
09:10:24,11275.0,RTL,0.000939475285122171,0.001328119426034391,1.005121648311615,-0.0008120712591335177,-0.0006760591641068459,0.00649866578169167,-35.36293285,149.166021,65183.5,-1.0,0.0,-152.0,0.0,0.0,-1000.0,0.5,0.5,7.0
09:10:26,11275.0,RTL,0.001485738786868751,0.0015148127567954361,1.0164536237716675,-0.00033968681236729026,0.0003331947373226285,0.0032694906694814563,-35.3629328,149.166021,68288.0,-1.5,0.0,-152.0,0.0,0.0,-1000.0,1.5,1.5,4.0
09:10:28,11275.0,RTL,0.0011650376254692674,0.0015446179895661771,1.0262596011161804,0.0012384384754113853,0.00036099698627367616,0.004458566894754767,-35.3629328,149.166021,71394.0,-2.0,0.0,-152.0,0.0,0.0,-1000.0,2.5,2.0,5.5
09:10:29,43582.0,RTL,0.0012254026951268315,0.0013653276837430894,1.0308335721492767,0.001017127651721239,-9.915567352436483e-05,0.0052904573967680335,-35.3629328,149.166021,72949.25,-2.0,0.0,-152.0,0.0,0.0,-1000.0,2.25,1.25,6.25
09:10:30,43582.0,RTL,0.0011652333196252584,0.0010222253622487187,1.0337272882461548,-0.0012842635624110699,-0.0008747882675379515,0.003341775154694915,-35.3629328,149.166021,73921.0,-2.0,0.0,-152.0,0.0,0.0,-1000.0,0.0,1.0,4.0
09:10:32,43582.0,RTL,0.001064062040920059,0.0015329142721990745,1.0429173707962036,0.0008916706234837571,0.0011490931501612067,0.003332175857697924,-35.3629328,149.166021,77388.66666666667,-2.0,0.0,-152.0,0.0,0.0,-1000.3333333333334,2.0,2.3333333333333335,4.333333333333333
09:10:34,43582.0,RTL,0.0010291000362485647,0.0013660730910487473,1.0490236282348633,0.0016951923025771976,1.6950478311628103e-05,0.004337311256676912,-35.3629328,149.1660211,80323.0,-2.0,0.0,-152.0,0.0,0.0,-1000.0,3.5,1.5,5.5
09:10:35,198240.0,RTL,0.0011510236945468932,0.0013480496709235013,1.05243119597435,0.0005004524427931756,0.00031774729723110795,0.0031045874929986894,-35.3629328,149.1660211,82035.75,-2.0,0.0,-152.0,0.0,0.0,-1000.0,2.0,2.0,4.0
09:10:36,198240.0,RTL,0.001076426648069173,0.0011264162021689117,1.0544607043266296,-0.00040307018207386136,-0.0003443043678998947,0.0049325593281537294,-35.3629328,149.1660211,83202.5,-2.0,0.0,-152.0,0.0,0.0,-999.5,1.0,1.0,6.0
09:10:38,198240.0,RTL,0.001210666261613369,0.0015331180184148252,1.0596079230308533,0.0010500327334739268,0.0005676787113770843,0.0035667646443471313,-35.3629328,149.1660211,86307.0,-2.0,0.0,-152.0,0.0,0.0,-1000.0,2.5,2.5,4.5
09:10:40,198240.0,RTL,0.0010368031216785312,0.0011440442176535726,1.0640760660171509,-0.00026988121680915356,0.0001466881949454546,0.0011322970385663211,-35.3629328,149.1660211,89412.5,-2.0,0.0,-152.0,0.0,0.0,-1000.5,1.0,1.5,2.0
09:10:41,102176.0,RTL,0.000840115433675237,0.0014169917558319867,1.0665692389011383,0.0010914742015302181,0.0009688920981716365,0.0026281659957021475,-35.3629328,149.1660211,91355.5,-1.0,0.0,-152.0,0.0,0.0,-1000.0,2.75,2.25,3.75
09:10:42,102176.0,RTL,0.0007820111932232976,0.0015704380930401385,1.0680731534957886,-0.0005714735598303378,-0.0006000722642056644,0.002431220607832074,-35.3629328,149.1660211,92523.0,-1.0,0.0,-152.0,0.0,0.0,-1000.0,1.0,1.0,3.5
09:10:44,102176.0,RTL,0.0013437477173283696,0.0015639311168342829,1.0714343190193176,0.0001663261209614575,0.001611575367860496,0.0024612441775389016,-35.3629328,149.1660211,95629.5,-1.0,0.0,-152.0,0.0,0.0,-1000.0,1.5,3.0,3.5
09:10:46,102176.0,RTL,0.0010561785893514752,0.0014568421756848693,1.0743153095245361,0.0020607145270332694,0.0003410701174288988,0.0031201967503875494,-35.3629328,149.1660211,98745.0,-2.0,0.0,-152.0,0.0,0.0,-999.5,3.5,2.0,4.5
09:10:47,124040.0,RTL,0.001051747109158896,0.0015694921603426337,1.076234757900238,0.0006555253639817238,-0.00029176109819673,0.003200976032530889,-35.3629328,149.1660211,100678.25,-2.0,-0.25,-152.0,0.0,0.0,-999.75,2.5,1.5,4.0
09:10:48,124040.0,RTL,0.0010756379342637956,0.001415881677530706,1.0775477290153503,0.0022667929297313094,0.0008095729863271117,0.001410712895449251,-35.3629328,149.1660211,101843.5,-2.0,0.0,-152.0,0.0,0.0,-1000.5,4.0,2.5,2.5
09:10:50,124040.0,RTL,0.0010529730643611401,0.0012358324020169675,1.0797993540763855,-0.00015260442160069942,-0.001574347261339426,0.0012182678910903633,-35.3629328,149.1660211,104958.5,-2.0,0.0,-152.0,0.0,0.0,-999.5,2.0,0.0,2.5
09:10:52,124040.0,RTL,0.0010711753275245428,0.0014110004412941635,1.0816987752914429,-1.1135765817016363e-05,0.0008790723513811827,0.0011813649325631559,-35.3629328,149.1660211,108067.5,-2.0,0.0,-152.0,0.0,0.0,-999.5,1.5,2.5,2.5
09:10:53,68783.0,RTL,0.0011526179150678217,0.0014538344403263181,1.0826808512210846,6.878733984194696e-05,0.0005328178813215345,0.0006602906505577266,-35.3629328,149.1660211,110006.0,-2.0,0.0,-152.0,0.0,0.0,-999.5,1.75,2.25,2.0
09:10:54,68783.0,RTL,0.0009555142023600638,0.001848304644227028,1.0831784009933472,0.0013888991670683026,0.00027432700153440237,0.0027210882981307805,-35.3629328,149.1660211,111173.5,-2.0,0.0,-152.0,0.0,0.0,-1000.0,2.5,2.0,4.0
09:10:56,68783.0,RTL,0.0007802337349858135,0.0012516664573922753,1.0847889184951782,-0.00039935309905558825,-2.4536799173802137e-05,-0.0005813191528432071,-35.3629328,149.1660211,114278.0,-1.0,0.0,-152.0,0.0,0.0,-1000.0,1.5,1.5,0.5
09:10:58,68783.0,RTL,0.001147771894466132,0.0014503456186503172,1.0859928727149963,-0.00011989293852820992,0.0005212906980887055,0.002007923147175461,-35.3629328,149.1660211,117385.0,-1.0,-1.0,-152.0,0.0,0.0,-999.5,1.5,2.5,3.0
09:10:59,91684.0,RTL,0.001369683479424566,0.0014687252405565232,1.086889386177063,0.000554298865608871,0.0008674554410390556,0.001876518945209682,-35.3629328,149.1660211,119329.25,-1.5,0.0,-152.0,0.0,0.0,-999.75,2.5,2.75,3.0
09:11:00,91684.0,RTL,0.0013580595259554684,0.001551289577037096,1.0874066352844238,-0.0014133777003735304,-9.603227954357862e-05,-0.00043061800533905625,-35.3629328,149.1660211,120496.0,-2.0,0.0,-152.0,0.0,0.0,-999.5,0.5,1.5,0.5
09:11:02,91684.0,RTL,0.001010618609143421,0.0014553203363902867,1.0879432559013367,0.0018647097749635577,0.001842988538555801,0.001702228153590113,-35.3629328,149.1660211,123603.0,-2.0,0.0,-152.0,0.0,0.0,-999.5,4.0,4.0,3.5
09:11:04,91684.0,RTL,0.0008254407730419189,0.001554284361191094,1.08952134847641,0.0017900080420076847,-0.0005419665831141174,0.0007784669869579375,-35.3629328,149.1660211,126716.5,-2.0,-1.0,-152.0,0.0,0.0,-1000.5,4.0,1.5,2.0
09:11:05,83622.0,RTL,0.00090751975949388,0.0013618501543533057,1.0900654792785645,-0.0018949664081446826,-0.0001164563000202179,0.0005837054923176765,-35.3629328,149.1660211,128651.25,-2.0,0.0,-152.0,0.0,0.0,-999.75,0.5,2.0,1.75
09:11:06,83622.0,RTL,0.00041703053284436464,0.001268812280613929,1.0902438759803772,0.00040605152025818825,-0.0009767153533175588,0.0004557188367471099,-35.3629328,149.1660211,129823.5,-1.5,0.0,-152.0,0.0,0.0,-1000.5,2.5,0.5,2.0
09:11:08,83622.0,RTL,0.0009803668654058129,0.0012322288239374757,1.090796947479248,0.001411441364325583,-0.0005291810957714915,0.002709884662181139,-35.3629328,149.1660211,132922.5,-1.0,0.0,-152.0,0.0,0.0,-1000.0,3.0,1.0,4.5
09:11:10,83622.0,RTL,0.0010002651251852512,0.0016495641903020442,1.0913927555084229,-0.000631001079455018,0.0007950701983645558,5.9009063988924026e-05,-35.3629328,149.1660211,136037.5,-1.0,0.0,-152.0,0.0,0.0,-1000.0,1.0,2.5,1.5
09:11:11,18211.0,RTL,0.001393081882270053,0.001240400451933965,1.0913909077644348,0.0019784378819167614,-5.295177106745541e-05,0.0007407513912767172,-35.3629328,149.1660211,137981.0,-1.25,0.0,-152.0,0.0,0.0,-1000.0,4.0,2.0,2.5
09:11:12,18211.0,RTL,0.0016565209371037781,0.0012297738576307893,1.0915756225585938,0.0002269973629154265,8.198537398129702e-05,0.0006907942006364465,-35.3629328,149.1660211,139148.0,-2.0,0.0,-152.0,0.0,0.0,-1000.0,2.0,2.0,2.5
09:11:14,18211.0,RTL,0.001268914609681815,0.0016258031246252358,1.0920848846435547,0.00036925228778272867,0.00018345494754612446,0.0006528052035719156,-35.3629328,149.1660211,142253.0,-2.0,0.0,-152.0,0.0,0.0,-1000.0,2.5,2.0,2.5
09:11:16,18211.0,RTL,0.0009789345203898847,0.0016313657979480922,1.0922861099243164,0.0011086041922681034,0.0005783888045698404,0.0017019459046423435,-35.3629328,149.1660211,145359.0,-2.0,-1.0,-152.0,0.0,0.0,-999.5,3.0,2.5,3.0
09:11:17,5862.0,RTL,0.0011550650233402848,0.0014150275383144617,1.092629611492157,0.0009035830153152347,0.0006165466329548508,0.0011230726377107203,-35.3629328,149.1660211,147301.75,-2.0,-0.25,-152.0,0.0,0.0,-1000.0,3.0,3.0,2.5
09:11:18,5862.0,RTL,0.0010973026510328054,0.0014788692933507264,1.0926755666732788,-0.0004336623242124915,-0.0009070861851796508,0.000917980563826859,-35.3629328,149.1660211,148467.5,-2.0,0.0,-152.0,0.0,0.0,-1000.0,2.0,1.5,2.5
09:11:20,5862.0,RTL,0.0005453825287986547,0.0014743614592589438,1.0938456058502197,0.003148037474602461,0.0012522359611466527,0.0017955267103388906,-35.3629328,149.1660211,151732.0,-1.0,-1.0,-152.0,0.0,0.0,-1000.5,5.5,3.0,3.5
09:11:22,5862.0,RTL,0.00098050496308133,0.001358953770250082,1.0937946438789368,0.0003680814988911152,0.0006211575819179416,0.0029159504920244217,-35.3629328,149.1660211,154839.5,-1.0,0.0,-152.0,0.0,0.0,-999.5,2.5,3.0,4.5
09:11:23,37363.0,RTL,0.0009886125626508147,0.0013762472663074732,1.0938085317611694,0.0008880457608029246,0.0005955312808509916,0.0015145262004807591,-35.3629328,149.1660211,156782.5,-1.0,0.0,-152.0,0.0,0.0,-999.75,2.75,2.75,3.25
09:11:24,37363.0,RTL,0.0010252160718664527,0.0014267273945733905,1.094056785106659,0.00111756706610322,0.0007283233571797609,0.0001245983294211328,-35.3629328,149.1660211,157950.0,-1.0,0.0,-152.0,0.0,0.0,-999.5,3.5,2.5,1.5
09:11:26,37363.0,RTL,0.0014850270235911012,0.001637953333556652,1.0941012501716614,0.0004910980933345854,0.0001537791104055941,0.00036500580608844757,-35.3629328,149.1660211,161052.5,-2.0,0.0,-152.0,0.0,0.0,-1000.0,2.5,2.0,2.5
09:11:28,37363.0,RTL,0.0010399461025372148,0.0015721992240287364,1.0939200520515442,0.001153456512838602,0.0017700445605441928,0.0006337910890579224,-35.3629328,149.1660211,164160.5,-2.0,0.0,-152.0,0.0,0.0,-1000.0,3.5,4.0,2.5
09:11:29,170715.0,RTL,0.0010027591342804953,0.0013673950743395835,1.094274252653122,0.0006978813617024571,-8.83677857927978e-05,0.0010660257539711893,-35.3629328,149.1660211,166105.5,-2.0,0.0,-152.0,0.0,0.0,-1000.25,2.75,2.0,2.75
09:11:30,170715.0,RTL,0.001111813762690872,0.001680663786828518,1.0941388607025146,0.000644280924461782,0.001650873338803649,-0.00035252899397164583,-35.3629328,149.1660211,167271.0,-2.0,0.0,-152.0,0.0,0.0,-1000.0,3.0,4.0,1.0
09:11:32,170715.0,RTL,0.0008029263408388942,0.0014873374020680785,1.0940920114517212,0.000496657332405448,0.0006461772136390209,0.0003990740515291691,-35.3629328,149.1660211,170378.5,-1.0,0.0,-152.0,0.0,0.0,-1000.5,2.5,3.0,2.5
09:11:34,170715.0,RTL,0.0009821753483265638,0.0013589851441793144,1.0942696928977966,0.0010954845929518342,0.0006356599624268711,0.0030237125465646386,-35.3629328,149.1660211,173493.0,-1.0,0.0,-152.0,0.0,0.0,-1000.0,3.0,3.0,4.5
09:11:35,31375.0,RTL,0.0009024531027534977,0.0014483068662229925,1.0942079722881317,0.0003018490388058126,0.0001264697639271617,0.0018322014948353171,-35.3629328,149.1660211,175427.75,-1.0,0.0,-152.0,0.0,0.0,-1000.0,2.5,2.25,3.75
09:11:36,31375.0,RTL,0.000812153477454558,0.001599905896000564,1.094896674156189,-0.00019321299623697996,-0.000673075788654387,-9.51089896261692e-05,-35.3629328,149.1660211,176599.0,-1.0,-1.0,-152.0,0.0,0.0,-1000.0,2.0,1.5,2.0
09:11:38,31375.0,RTL,0.001298598013818264,0.0015548173687420785,1.0949302315711975,0.0015418942784890532,0.00044756033457815647,0.0018112752586603165,-35.3629328,149.1660211,179707.5,-1.5,0.0,-152.0,0.0,0.0,-999.5,4.0,3.0,3.5
09:11:40,31375.0,RTL,0.0011468535521999002,0.0014927255106158555,1.0950610637664795,0.0007689413614571095,0.0010349176591262221,-0.00028344307793304324,-35.3629328,149.1660211,182814.5,-2.0,0.0,-152.0,0.0,0.0,-999.5,3.0,3.5,1.5
09:11:41,40129.0,RTL,0.001042295727529563,0.0015655339229851961,1.0949114263057709,-0.0002233956183772534,0.000385053688660264,9.15168784558773e-05,-35.3629328,149.1660211,184758.5,-2.0,0.0,-152.0,0.0,0.0,-999.75,2.25,2.5,2.0
09:11:42,40129.0,RTL,0.0009886628540698439,0.0013641667901538312,1.0950085520744324,0.0013285853783600032,9.763159323483706e-05,0.0013014012947678566,-35.3629328,149.1660211,185924.5,-2.0,0.0,-152.0,0.0,0.0,-1000.0,3.5,2.5,3.0
09:11:44,40129.0,RTL,0.0007219496183097363,0.0013519234489649534,1.0946484804153442,0.0010790323140099645,-0.00011548365000635386,0.00017074577044695616,-35.3629328,149.1660211,189031.0,-1.0,-1.0,-152.0,0.0,0.0,-1000.0,3.5,2.0,2.0
09:11:46,40129.0,RTL,0.0010641569970175624,0.0014115237281657755,1.094677448272705,0.0021016206592321396,0.0016139463987201452,0.00034505565417930484,-35.3629328,149.1660211,192134.5,-1.0,0.0,-152.0,0.0,0.0,-999.5,5.0,4.0,2.5
09:11:47,43538.0,RTL,0.0009939473384292796,0.0014056507789064199,1.094982236623764,-0.00023544876603409648,-0.00032566109439358115,-0.00016442482592538,-35.3629328,149.1660211,194076.5,-1.0,0.0,-152.0,0.0,0.0,-1000.0,2.25,2.25,1.75
09:11:48,43538.0,RTL,0.0008808912243694067,0.0015672933659516275,1.094534993171692,0.0008004907285794616,0.0014197700656950474,0.0015343916602432728,-35.3629328,149.1660211,195241.5,-1.0,-0.5,-152.0,0.0,0.0,-999.5,3.5,4.0,3.0
09:11:50,43538.0,RTL,0.0011768604163080454,0.0014768443652428687,1.0945762395858765,0.0022669784957543015,0.00011362822260707617,0.000977300456725061,-35.3629328,149.1660211,198352.0,-1.0,0.0,-152.0,0.0,0.0,-1000.0,5.0,2.5,3.0
09:11:52,43538.0,RTL,0.0009790498588699847,0.0017361441277898848,1.0952905416488647,-0.0011577489785850048,0.0011313064023852348,0.0045826551504433155,-35.3629328,149.1660211,201459.0,-2.0,-0.5,-152.0,0.0,0.0,-999.0,1.5,3.5,6.5
09:11:53,326.0,RTL,0.0011078822426497936,0.0013740772556047887,1.0954064428806305,-6.73087197355926e-05,-7.314578397199512e-05,0.000575754267629236,-35.3629328,149.1660211,203404.75,-2.0,-0.5,-152.0,0.0,0.0,-999.75,2.75,2.25,2.75
09:11:54,326.0,RTL,0.0009185068774968386,0.00140448659658432,1.0955206751823425,0.0012009538477286696,0.0017198906280100346,-0.00023354438599199057,-35.3629328,149.1660211,204574.5,-2.0,0.0,-152.0,0.0,0.0,-1000.0,4.0,4.5,1.5
09:11:56,326.0,RTL,0.000751428451621905,0.001027745776809752,1.095380187034607,0.00032100151292979717,-0.001409619697369635,0.00021092238603159785,-35.3629328,149.1660211,207677.0,-1.0,0.0,-152.0,0.0,0.0,-1000.0,2.5,1.0,2.5
09:11:58,326.0,RTL,0.0009328503801953048,0.0013737294357270002,1.095175325870514,0.0018039611168205738,0.0001989939482882619,0.0019097565673291683,-35.3629328,149.1660211,210789.5,-1.0,0.0,-152.0,0.0,0.0,-1000.0,4.0,3.0,4.0
09:11:59,82132.0,RTL,0.0010441969789098948,0.0013655040529556572,1.0950634181499481,-0.0001279531861655414,0.00014484947314485908,0.0009515528217889369,-35.3629328,149.1660211,212732.0,-1.0,0.0,-152.0,0.0,0.0,-999.75,2.5,2.75,3.0
09:12:00,82132.0,RTL,0.0010532101150602102,0.0012873272062279284,1.0951722264289856,-0.00015495647676289082,8.926831651479006e-05,0.0009095838759094477,-35.3629328,149.1660211,213898.0,-1.0,0.0,-152.0,0.0,0.0,-999.5,2.5,2.5,3.5
09:12:02,82132.0,RTL,0.0009914776601362973,0.0013193644699640572,1.0950117707252502,-0.0008371464209631085,0.00029064284171909094,0.00022329192142933607,-35.3629328,149.1660211,217008.0,-1.0,-1.0,-152.0,0.0,0.0,-1000.0,2.0,3.0,2.5
09:12:04,82132.0,RTL,0.001076126005500555,0.001583897799719125,1.0948172807693481,0.0014654353726655245,0.0014240143354982138,0.0013782730093225837,-35.3629328,149.1660211,220111.0,-1.0,0.0,-152.0,0.0,0.0,-1000.0,4.0,4.0,4.0
09:12:05,113851.0,RTL,0.0013285189925227314,0.0015557612932752818,1.0949132144451141,-0.00021962181199342012,-0.00018330279272049665,0.0007037450559437275,-35.3629328,149.1660211,222053.25,-2.0,-1.0,-152.0,0.0,0.0,-1000.0,2.75,2.5,2.75
09:12:06,113851.0,RTL,0.0011555373203009367,0.00139719364233315,1.0949457883834839,-0.00012694182805716991,0.00046999019104987383,0.0008947363821789622,-35.3629328,149.1660211,223218.0,-2.0,0.0,-152.0,0.0,0.0,-999.5,2.5,3.0,3.0
09:12:08,113851.0,RTL,0.0008975962118711323,0.0016787204076536,1.094981849193573,0.0005505711305886507,0.00013400637544691563,0.0030721501680091023,-35.3629328,149.1660211,226328.5,-2.0,-1.0,-152.0,0.0,0.0,-999.5,3.5,3.0,5.0
09:12:10,113851.0,RTL,0.0007734563259873539,0.0012267609708942473,1.0954207181930542,0.0004134330665692687,-0.0006342481356114149,0.0017482464900240302,-35.3629328,149.1660211,229435.5,-1.0,0.0,-152.0,0.0,0.0,-1000.0,3.5,2.0,4.0
09:12:11,155112.0,RTL,0.0009312193578807637,0.0013614546041935682,1.0953020453453064,-8.510047337040305e-05,0.00026045122649520636,0.00046807932085357606,-35.3629328,149.1660211,231382.25,-1.0,0.0,-152.0,0.0,0.0,-1000.0,3.0,3.25,2.75
09:12:12,155112.0,RTL,0.0010302630835212767,0.0014609881327487528,1.0955320596694946,0.0005505426088348031,-0.0011246997164562345,0.0012258121278136969,-35.3629328,149.1660211,232549.5,-1.0,0.0,-152.0,0.0,0.0,-1000.0,3.0,1.5,3.5
09:12:14,155112.0,RTL,0.0008713130082469434,0.031641618348658085,1.095223844051361,-0.0009447603952139616,0.049902407452464104,-0.0005169677897356451,-35.36293285,149.166021,235651.0,-5.5,-8.5,-151.0,0.5,0.0,-999.0,2.0,52.5,2.0
09:12:16,155112.0,RTL,-0.010226662270724773,0.10580934211611748,1.0956011414527893,-0.0029128609457984567,0.037366198375821114,0.001888578524813056,-35.36293775,149.16601,238646.0,-59.0,-107.0,-139.5,22.0,11.5,-992.0,0.5,40.5,4.5
09:12:17,56908.0,RTL,-0.009369823150336742,0.1967073418200016,1.4406828582286835,0.018236736766994,-0.056056803092360497,0.38831566274166107,-35.3629466,149.16598662500002,240080.25,-93.75,-246.25,-70.25,52.25,14.5,-934.0,21.5,-52.5,391.0
09:12:18,56908.0,RTL,0.07154762744903564,0.12124591693282127,1.6134896874427795,0.03900701738893986,-0.02327780012274161,0.10244641825556755,-35.36295385,149.16596355000001,240444.0,-130.0,-308.5,-19.5,74.5,8.0,-938.5,42.0,-20.0,105.0
09:12:20,56908.0,RTL,0.05816970765590668,0.22108741849660873,1.6451182961463928,0.03862413763999939,-0.010558340698480606,-0.01918354583904147,-35.36299095,149.16588305,240072.5,-272.0,-451.0,21.5,124.5,-5.0,-1026.5,42.0,-6.5,-15.5
09:12:22,39376.0,RTL,0.0057616636622697115,0.1903229057788849,1.5585452914237976,-0.025432677939534187,-0.009583699749782681,-0.0357833094894886,-35.3630433,149.1657664,239954.0,-306.0,-590.0,-5.0,146.0,5.5,-989.5,-21.5,-6.0,-32.0
09:12:24,21844.0,RTL,-0.02418222278356552,0.157785102725029,1.483878493309021,0.011772590999801954,0.03416625161965688,-0.03484579796592394,-35.3630976,149.16563499999998,240064.66666666666,-308.0,-610.0,-1.3333333333333333,154.33333333333334,18.0,-974.0,15.333333333333334,37.333333333333336,-31.333333333333332
09:12:26,21844.0,RTL,-0.03395045300324758,0.13529779016971588,1.4260671536127727,-0.0009324848651885986,-0.04497763762871424,-0.02412768950064977,-35.363152899999996,149.16550016666667,240037.0,-312.0,-613.0,-3.3333333333333335,158.33333333333334,31.666666666666668,-999.3333333333334,3.0,-41.0,-20.666666666666668
09:12:27,109949.0,RTL,-0.06425011654694875,0.07351537669698398,1.399657924969991,-0.08305799961090088,-0.047836050391197205,-0.026968709814051788,-35.36318673333333,149.16541930000002,240107.66666666666,-284.6666666666667,-559.0,-4.333333333333333,150.0,33.666666666666664,-989.3333333333334,-79.33333333333333,-43.666666666666664,-24.0
09:12:28,109949.0,RTL,-0.061858770747979484,0.03877710923552513,1.3889069159825642,0.4427848532795906,-0.033440910279750824,0.007810059313972791,-35.3632049,149.16537536666667,240119.66666666666,-254.0,-504.0,0.3333333333333333,124.0,58.666666666666664,-992.3333333333334,446.3333333333333,-29.333333333333332,11.0
09:12:30,109949.0,RTL,-0.04572510967652003,-0.03626679008205732,1.3589851061503093,0.3126005331675212,-0.0171574034417669,-0.029221417071918648,-35.3632409,149.16528570000003,240062.66666666666,-150.33333333333334,-301.6666666666667,3.6666666666666665,77.0,27.0,-1011.6666666666666,315.3333333333333,-13.333333333333334,-26.0
09:12:32,109949.0,RTL,-0.020723535679280758,-0.06012451524535815,1.3346980412801106,-0.01955630878607432,0.031353896483778954,-0.023100279892484348,-35.36325816666667,149.1652413,240011.66666666666,-58.666666666666664,-104.33333333333333,0.6666666666666666,27.0,-9.333333333333334,-1009.0,-16.666666666666668,34.666666666666664,-19.333333333333332
09:12:33,211543.0,RTL,-0.017993069253861904,-0.03219404382010301,1.3227506081263225,0.3622904662042856,0.022428348660469055,-0.004899189341813326,-35.36326246666666,149.1652332333333,240002.66666666666,-21.0,-31.666666666666668,-0.6666666666666666,9.666666666666666,20.333333333333332,-1004.0,366.3333333333333,26.0,-1.6666666666666667
09:12:34,211543.0,RTL,-0.0250996220856905,-0.016935772262513638,1.315628449122111,-0.3864956796169281,0.023602470755577087,-0.006920606906836231,-35.3632639,149.1652323666667,240007.66666666666,-4.0,-9.0,-1.0,2.6666666666666665,-19.0,-1000.0,-382.6666666666667,27.0,-3.6666666666666665
09:12:36,211543.0,RTL,-0.012135322205722332,-0.00019784935284405947,1.3015352090199788,0.2941919267177582,-0.014580746026088795,0.0006263890924553076,-35.3632652,149.16523379999998,240019.0,13.333333333333334,-7.333333333333333,-1.0,-0.3333333333333333,11.333333333333334,-1004.3333333333334,297.0,-10.333333333333334,3.6666666666666665
09:12:38,211543.0,RTL,-0.0006237458243655661,-0.0005284402092608312,1.2912166515986125,-0.41240980724493664,0.006061560163895289,-0.006618328082064788,-35.36326373333333,149.16523506666667,240028.33333333334,14.333333333333334,0.3333333333333333,0.0,-3.3333333333333335,-29.333333333333332,-1001.0,-410.0,9.666666666666666,-2.3333333333333335
09:12:39,22563.0,RTL,0.0033773736795410514,0.004863733736177285,1.2847685813903809,0.38768231372038525,0.005582870605091254,-0.001211613416671753,-35.3632631,149.16523629999998,240031.33333333334,7.0,0.3333333333333333,0.0,-0.6666666666666666,14.0,-1000.6666666666666,389.6666666666667,9.333333333333334,2.0
09:12:40,22563.0,RTL,-0.010268263208369413,0.0048538946236173315,1.2816105286280315,-0.3206759840250015,-0.0023409718026717505,-0.0040531692405541735,-35.3632631,149.1652369,240035.0,6.0,-0.6666666666666666,0.0,0.3333333333333333,-11.0,-997.3333333333334,-317.6666666666667,2.0,-0.3333333333333333
09:12:42,22563.0,RTL,0.008078197560583552,0.004106548614799976,1.2731993198394775,0.8368829290072123,0.00029705301858484745,-0.015298065341388186,-35.36326350000001,149.16523783333332,239192.33333333334,11.0,-5.0,99.66666666666667,1.0,-9.666666666666666,-960.6666666666666,837.0,4.333333333333333,-11.666666666666666
09:12:44,22563.0,RTL,-0.037793368101119995,0.005252921332915624,1.2647500435511272,0.7990854382514954,0.0004119098496933778,-0.0015202454912165801,-35.363265399999996,149.16523906666666,236965.0,20.666666666666668,-10.0,101.0,0.3333333333333333,65.66666666666667,-1010.0,803.0,4.333333333333333,2.0
09:12:45,28167.0,RTL,-0.038712129617730774,0.0012036146266230692,1.2606407006581624,-0.6304264863332113,-0.004764847302188476,-0.0024728331870088973,-35.36326543333333,149.1652392,235666.33333333334,32.333333333333336,-16.0,97.66666666666667,-4.666666666666667,15.0,-1003.3333333333334,-626.0,0.0,1.0
09:12:46,28167.0,RTL,-0.02233414848645528,-0.0017244181362912059,1.2595112721125286,-0.4918654461701711,-0.0005112735865016779,-0.001801786245778203,-35.3632644,149.16523876666665,234895.33333333334,28.333333333333332,-15.666666666666666,96.33333333333333,-5.0,22.0,-994.6666666666666,-487.3333333333333,3.6666666666666665,1.6666666666666667
09:12:48,28167.0,RTL,-0.007979876672228178,-0.000354636344127357,1.252992828687032,-1.3127879699071248,-0.0033326858344177404,0.0013491311110556126,-35.363261466666664,149.16523766666668,232838.33333333334,1.6666666666666667,-5.0,98.66666666666667,-3.0,-27.333333333333332,-973.6666666666666,-1309.6666666666667,1.3333333333333333,4.333333333333333
09:12:50,82226.5,RTL,0.00305963889695704,-0.0010712018120102584,1.2480693260828655,-1.3668256600697835,-0.0050233226890365286,0.003120249602943659,-35.363260133333334,149.16523703333334,230807.0,-13.333333333333334,0.0,95.66666666666667,-2.0,-49.0,-1004.3333333333334,-1364.3333333333333,-0.3333333333333333,6.0
09:12:52,136286.0,RTL,0.007209290439883868,0.0015587766150323052,1.2441083192825317,-1.3992380301157634,0.002790276426821947,-0.006185774769013126,-35.3632591,149.1652366666667,228777.66666666666,-27.333333333333332,5.333333333333333,96.33333333333333,0.0,-66.66666666666667,-996.0,-1397.0,7.333333333333333,-2.6666666666666665
09:12:54,136286.0,RTL,-0.008320261704890678,0.0032218019478023052,1.2414395411809285,-1.0522855917612712,0.002871930288771788,-0.0024046121009935937,-35.36325993333333,149.16523700000002,226735.66666666666,-27.333333333333332,5.666666666666667,99.0,0.3333333333333333,-25.0,-1019.0,-1047.3333333333333,7.333333333333333,0.6666666666666666
09:12:55,110637.0,RTL,-0.010999770524601141,0.0026463737400869527,1.2375759681065877,-1.4140956004460652,-0.0017986147043605645,-0.005261886632069945,-35.36326086666667,149.1652374,225459.33333333334,-17.333333333333332,1.3333333333333333,99.66666666666667,0.0,-66.66666666666667,-1000.3333333333334,-1411.0,2.3333333333333335,-1.6666666666666667
09:12:56,110637.0,RTL,-0.010536167149742445,0.0024515203355501094,1.237099250157674,-1.3274242480595906,-0.004693323125441869,-0.001498413427422444,-35.363261066666674,149.1652375,224697.33333333334,-14.0,0.3333333333333333,95.66666666666667,0.3333333333333333,-60.0,-1013.3333333333334,-1324.0,0.6666666666666666,1.6666666666666667
09:12:58,110637.0,RTL,-0.0064437390537932515,0.0019780418757970133,1.2345271110534668,-1.298429807027181,-0.005014369419465463,0.003943894679347674,-35.36326163333334,149.16523763333336,222652.66666666666,-5.666666666666667,-1.0,99.66666666666667,0.6666666666666666,-73.0,-992.6666666666666,-1296.0,0.0,7.333333333333333
09:13:00,110637.0,RTL,-0.006915657834421533,0.0030704702561100325,1.2320830424626668,0.3228253722190857,0.0036950730718672276,0.003846265453224381,-35.3632636,149.16523850000002,220610.66666666666,7.333333333333333,-5.333333333333333,98.66666666666667,0.3333333333333333,-27.333333333333332,-979.6666666666666,323.0,8.333333333333334,7.0
09:13:01,17195.0,RTL,0.0012668882360837113,0.0016405467176809907,1.2302590211232503,0.44056999683380127,-0.0014173613550762336,-0.003916772392888864,-35.3632641,149.16523866666668,219338.33333333334,16.333333333333332,-9.0,99.66666666666667,0.0,-30.666666666666668,-971.6666666666666,440.6666666666667,3.0,-0.3333333333333333
09:13:02,17195.0,RTL,0.006406129493067662,-0.0005708098178729415,1.2286099990208943,1.0701904892921448,-0.00101972712824742,-0.0006558776367455721,-35.363264166666674,149.16523863333333,218561.33333333334,18.0,-9.666666666666666,96.0,0.0,19.333333333333332,-1021.6666666666666,1071.0,3.6666666666666665,2.3333333333333335
09:13:04,17195.0,RTL,0.018694535829126835,-0.00401055106582741,1.2267425457636516,0.17466881374518076,-0.00035527216581006843,-0.002076420389736692,-35.36326273333333,149.1652377,216513.0,12.0,-5.333333333333333,97.66666666666667,-1.0,-30.0,-1008.3333333333334,174.0,4.666666666666667,1.3333333333333333
09:13:06,17195.0,RTL,-0.0011820460980137189,0.00026978283616093296,1.2244758208592732,-0.6030314962069193,-0.001661402095730106,-0.011592010812213024,-35.363262166666665,149.16523753333334,214481.0,0.0,0.0,98.0,0.6666666666666666,-57.333333333333336,-999.6666666666666,-603.0,3.3333333333333335,-8.0
09:13:07,10063.0,RTL,0.019666745016972225,-0.0004724165822456901,1.2248703638712566,0.5582381884256998,0.006449616669366757,0.0020939198633035025,-35.3632621,149.1652375,213194.0,0.6666666666666666,-0.6666666666666666,94.66666666666667,0.6666666666666666,-10.333333333333334,-998.0,558.3333333333334,11.333333333333334,5.333333333333333
09:13:08,10063.0,RTL,0.013213540116945902,0.0017494163281905155,1.2257071733474731,0.7989697257677714,0.0015553914320965607,-0.0006407327018678188,-35.3632622,149.16523763333336,212433.0,0.3333333333333333,0.0,95.66666666666667,0.3333333333333333,6.0,-1020.3333333333334,799.3333333333334,6.666666666666667,3.0
09:13:10,10063.0,RTL,-0.001529646571725607,0.000721224641893059,1.2226744095484416,0.5593333144982656,-0.0020480097737163305,-3.6218203604221344e-05,-35.3632637,149.1652384,210408.0,11.333333333333334,-6.0,98.33333333333333,1.0,-16.333333333333332,-974.3333333333334,558.6666666666666,2.6666666666666665,3.3333333333333335
09:13:12,83376.5,RTL,0.02132406954964002,-0.0025674813271810613,1.2211727698644002,0.4539504845937093,-0.0013688118197023869,-0.002464975773667296,-35.36326276666667,149.1652379,208388.0,10.0,-6.0,99.66666666666667,-1.3333333333333333,-11.333333333333334,-1011.3333333333334,453.6666666666667,4.0,1.0
09:13:14,156690.0,RTL,0.0453110026816527,-0.003265232080593705,1.2204855680465698,1.4353924989700317,-0.0027508622345825038,-0.0005228289713462194,-35.363260266666664,149.16523673333333,206358.66666666666,-11.0,1.6666666666666667,99.33333333333333,-1.3333333333333333,54.666666666666664,-1006.3333333333334,1437.3333333333333,2.3333333333333335,2.6666666666666665
09:13:16,156690.0,RTL,0.018077378471692402,0.0015456016020228465,1.220559557278951,1.1014239589373271,-0.00038751913234591484,-0.0011224393577625353,-35.36325983333333,149.1652366333333,204320.66666666666,-25.333333333333332,8.333333333333334,99.66666666666667,0.0,65.66666666666667,-1015.6666666666666,1106.0,4.666666666666667,2.3333333333333335
09:13:17,11768.0,RTL,0.007617255750422676,0.001969068660400808,1.2200520435969036,1.0054676532745361,0.004673538108666738,-0.0007799178517113129,-35.363260499999996,149.16523706666666,203048.0,-21.666666666666668,5.666666666666667,100.33333333333333,0.0,69.66666666666667,-1000.0,1010.3333333333334,9.666666666666666,2.6666666666666665
09:13:18,11768.0,RTL,-0.006235578611570721,0.001686329604126513,1.2189120848973591,-0.15706446766853333,-0.0017718585828940074,0.0019117107925315697,-35.3632607,149.1652372,202275.0,-18.0,3.6666666666666665,102.33333333333333,0.0,33.333333333333336,-1001.3333333333334,-151.33333333333334,3.6666666666666665,5.333333333333333
09:13:20,11768.0,RTL,-0.011608772600690523,0.00041243423280927044,1.2184960047403972,-0.1547983636458715,0.002286197617650032,0.0022012044209986925,-35.36326123333333,149.1652373,200225.66666666666,-13.333333333333334,2.3333333333333335,101.33333333333333,-0.3333333333333333,33.0,-953.3333333333334,-148.66666666666666,7.0,5.333333333333333
09:13:22,11768.0,RTL,-0.012903556848565737,-0.00253420389102151,1.2173035144805908,-1.0213452974955242,-0.006971587737401326,0.0034907745818297067,-35.3632613,149.16523713333333,198171.33333333334,-9.666666666666666,2.0,99.66666666666667,-1.0,-16.666666666666668,-1034.3333333333333,-1016.0,-1.3333333333333333,6.666666666666667
09:13:23,157229.0,RTL,-0.0013088504783809185,-0.003041844582185149,1.2186456521352131,-1.1786017020543416,-0.0070280687262614565,0.0037099417919913926,-35.36326069999999,149.16523666666663,196894.33333333334,-10.666666666666666,4.0,99.33333333333333,0.3333333333333333,-24.666666666666668,-992.0,-1173.0,-1.6666666666666667,7.333333333333333
09:13:24,157229.0,RTL,-0.011756621660121406,-0.0005225211983391395,1.2173632383346558,-1.267894983291626,0.0012066935499509175,0.003785727002347509,-35.363260733333334,149.1652366666667,196137.0,-15.0,7.0,98.66666666666667,1.3333333333333333,-30.0,-996.0,-1262.3333333333333,6.0,7.0
09:13:26,157229.0,RTL,-0.032261144990722336,0.0008181670176175734,1.2172515392303467,-0.545381118853887,0.00042504708593090373,0.0031975727373113236,-35.363262600000006,149.16523756666666,194103.0,-3.3333333333333335,2.6666666666666665,101.33333333333333,0.6666666666666666,10.666666666666666,-1006.6666666666666,-538.6666666666666,5.333333333333333,6.666666666666667
09:13:28,139835.0,RTL,-0.025768771767616272,-0.000727221699586759,1.2168128490447998,-0.7754523158073425,6.410712376236916e-05,0.0012586499409129222,-35.36326343333334,149.16523793333332,192060.66666666666,9.0,-2.0,100.33333333333333,0.0,0.3333333333333333,-1032.3333333333333,-769.3333333333334,5.0,4.666666666666667
09:13:30,122441.0,RTL,-0.03280255136390527,-0.0024239825240025916,1.2166819175084431,-0.6771558523178101,-0.0032996569449702897,-0.0014915581947813432,-35.36326366666666,149.165238,190038.0,13.333333333333334,-4.0,100.66666666666667,-1.0,10.0,-993.6666666666666,-671.0,2.0,1.6666666666666667
09:13:32,122441.0,RTL,-0.0273694700251023,-0.0012661831181806822,1.2157493432362874,-0.5404005746046702,7.120271523793538e-06,0.013475444633513689,-35.363263366666665,149.16523783333332,188010.66666666666,10.0,-1.3333333333333333,104.66666666666667,0.3333333333333333,11.0,-987.0,-534.3333333333334,4.666666666666667,17.0
09:13:33,87624.0,RTL,-0.036095635344584785,0.0010153145024863381,1.216111461321513,-0.35685068865617114,0.002955202478915453,0.004628161123643319,-35.36326413333333,149.16523826666665,186725.0,14.333333333333334,-3.3333333333333335,103.66666666666667,1.3333333333333333,22.666666666666668,-985.0,-351.0,8.0,8.0
09:13:34,87624.0,RTL,-0.04223420967658361,0.0014447747186447184,1.215708573659261,-0.03329113901903232,0.003900545804450909,0.002188403236990174,-35.36326473333333,149.16523859999998,185959.66666666666,20.666666666666668,-6.0,101.33333333333333,0.6666666666666666,31.0,-982.6666666666666,-28.0,8.666666666666666,5.666666666666667
09:13:36,87624.0,RTL,-0.04183347895741463,-0.0009203492857826253,1.2149118582407634,0.19283290207386017,0.004579378912846248,-0.0033511066188414893,-35.36326593333333,149.1652392,183918.0,35.333333333333336,-13.0,103.66666666666667,-0.6666666666666666,53.666666666666664,-980.6666666666666,197.0,9.333333333333334,0.3333333333333333
09:13:38,87624.0,RTL,-0.036828733359773956,-0.0032795576844364405,1.215501030286153,-0.07415042320887248,-0.005281044713531931,0.004546094918623567,-35.363265633333334,149.1652389333333,181877.66666666666,35.666666666666664,-13.0,101.33333333333333,-2.0,38.333333333333336,-1015.6666666666666,-70.0,-0.3333333333333333,8.0
09:13:39,4040.0,RTL,-0.02618674375116825,-0.0062263292881349725,1.2153547207514446,-0.27132942030827206,-0.004626978033532699,0.000677438530450066,-35.36326476666667,149.16523836666667,180597.33333333334,30.666666666666668,-10.333333333333334,100.0,-3.6666666666666665,32.0,-980.3333333333334,-267.3333333333333,0.6666666666666666,4.0
09:13:40,4040.0,RTL,-0.013345453422516584,-0.007667343442638715,1.2153943379720051,-0.4073580900828044,-0.00189896859228611,0.006569734929750363,-35.36326366666666,149.1652378,179830.66666666666,24.333333333333332,-7.333333333333333,102.66666666666667,-4.666666666666667,28.0,-976.6666666666666,-403.6666666666667,2.6666666666666665,9.666666666666666
09:13:42,4040.0,RTL,0.022043433661262195,-0.007563277613371611,1.21534264087677,-0.179786063109835,0.00046750724626084167,0.00019102559114495912,-35.36325993333333,149.1652361,177785.66666666666,-9.666666666666666,5.666666666666667,103.0,-5.0,46.333333333333336,-985.3333333333334,-176.0,5.333333333333333,3.6666666666666665
09:13:44,8510.5,RTL,0.042528642962376274,-0.003917416014398138,1.2158896923065186,0.9671728014945984,0.003577776253223419,0.003375051155065497,-35.3632574,149.16523503333332,175659.33333333334,-41.666666666666664,18.333333333333332,101.0,-1.3333333333333333,71.66666666666667,-1004.6666666666666,971.0,8.0,6.666666666666667
09:13:46,12981.0,RTL,0.035758589704831444,0.00021151381952222437,1.215410550435384,1.3655109008153279,0.004199697403237224,-0.0025130252664287886,-35.363257866666665,149.16523546666667,173622.66666666666,-48.333333333333336,20.333333333333332,102.0,0.6666666666666666,70.66666666666667,-988.3333333333334,1369.3333333333333,9.0,1.6666666666666667
09:13:48,12981.0,RTL,0.02610431673626105,-0.0001270269143181698,1.2155990203221638,1.2752689520517986,0.0025041510040561357,0.0049591561158498125,-35.36325923333334,149.16523613333334,171576.0,-35.666666666666664,13.333333333333334,101.0,-0.3333333333333333,69.66666666666667,-1027.6666666666667,1280.0,7.0,8.666666666666666
09:13:49,15130.0,RTL,0.009949466524024805,-0.000991044663048039,1.215377688407898,0.43389518558979034,0.00432853043700258,-0.0017842926705876987,-35.363259633333335,149.16523623333333,170308.33333333334,-32.0,12.333333333333334,103.33333333333333,0.0,52.666666666666664,-1015.3333333333334,440.0,9.0,2.0
09:13:50,15130.0,RTL,0.014005303072432676,-0.00027849643568818766,1.215955416361491,0.8709314465522766,0.0013029458932578564,-0.0010130061612774928,-35.36326,149.16523643333332,169545.0,-27.666666666666668,11.0,100.33333333333333,0.6666666666666666,57.333333333333336,-1017.0,877.0,5.666666666666667,2.6666666666666665
09:13:52,15130.0,RTL,-0.006135756712562094,0.001235319961172839,1.2155603965123494,0.571372906366984,0.0037693046033382416,0.005430140222112338,-35.36326163333333,149.16523713333333,167492.66666666666,-13.333333333333334,6.0,102.66666666666667,1.6666666666666667,54.333333333333336,-1007.3333333333334,577.6666666666666,8.333333333333334,9.0
09:13:54,15130.0,RTL,-0.03307695686817169,0.0002950006940712531,1.2158110936482747,-0.025803185999393463,-0.003923622115204732,0.0017479659679035346,-35.3632641,149.1652382,165438.33333333334,8.0,-1.6666666666666667,99.33333333333333,1.0,35.0,-1014.6666666666666,-19.0,1.0,5.333333333333333
09:13:55,125391.0,RTL,-0.024279724185665447,-0.005628031368056933,1.2144110997517903,-0.3697260171175003,-0.004758355673402548,0.004511559226860602,-35.36326413333333,149.16523806666666,164160.0,16.333333333333332,-5.333333333333333,99.0,-3.3333333333333335,25.0,-1031.6666666666667,-363.0,0.3333333333333333,8.333333333333334
09:13:56,125391.0,RTL,-0.009593747866650423,-0.007387016899883747,1.2153107325236003,-0.1282062754034996,-0.005686858436092734,0.0009445399045944214,-35.36326326666667,149.16523759999998,163394.0,12.666666666666666,-3.6666666666666665,101.66666666666667,-4.333333333333333,41.333333333333336,-952.3333333333334,-121.0,-0.6666666666666666,4.666666666666667
09:13:58,125391.0,RTL,0.015105939780672392,-0.005658620813240607,1.2154515186945598,-1.336939851442973,-0.001914416750272115,0.0011950106515238683,-35.36325996666667,149.1652361333333,161334.66666666666,-10.0,6.333333333333333,98.66666666666667,-2.6666666666666665,-39.666666666666664,-1021.3333333333334,-1331.3333333333333,3.3333333333333335,5.0
09:14:00,91390.0,RTL,0.004659413748110334,0.0003215665298436458,1.2157998085021973,-1.4030928214391072,0.004912932092944781,-0.00025496988867719966,-35.3632594,149.16523616666666,159297.0,-27.0,12.333333333333334,97.66666666666667,1.3333333333333333,-64.33333333333333,-1031.6666666666667,-1398.3333333333333,9.333333333333334,3.6666666666666665
09:14:02,57389.0,RTL,-0.013562047543625036,0.0006191264740967503,1.2159597873687744,-1.2312442461649578,0.00031969354798396427,-0.0058530746803929406,-35.3632606,149.1652367,157258.0,-20.666666666666668,8.666666666666666,98.66666666666667,1.0,-37.333333333333336,-990.6666666666666,-1224.6666666666667,4.666666666666667,-1.6666666666666667
09:14:04,57389.0,RTL,-0.028595725695292156,0.0014389123922834794,1.216086784998576,-1.4046038786570232,-0.004158899808923404,-0.0012434893287718296,-35.36326233333333,149.16523756666666,155217.66666666666,-5.666666666666667,2.6666666666666665,100.66666666666667,1.6666666666666667,-55.0,-1006.3333333333334,-1398.6666666666667,0.6666666666666666,2.0
09:14:05,9147.0,RTL,-0.026081356530388195,0.0002666532165373307,1.2159463167190552,-1.2669609387715657,-0.0030439370311796665,0.0010377344054480393,-35.363263499999995,149.16523806666666,153941.33333333334,7.0,-2.0,96.33333333333333,1.0,-77.0,-990.0,-1262.6666666666667,1.6666666666666667,4.333333333333333
09:14:06,9147.0,RTL,-0.02867641920844714,-0.0009466231858823448,1.2147198120752971,-1.3410298426946003,-0.008151887139926354,-0.0019089783697078626,-35.363263933333336,149.16523826666668,153183.66666666666,12.666666666666666,-4.333333333333333,99.33333333333333,1.3333333333333333,-76.66666666666667,-990.3333333333334,-1337.0,-2.6666666666666665,1.3333333333333333
09:14:08,9147.0,RTL,-0.013875656140347322,-0.0017650451433534424,1.2152361075083415,-1.1654839913050334,-0.000495043583214283,-0.00020749618609746298,-35.36326373333333,149.16523813333333,151153.0,17.333333333333332,-6.0,100.0,0.3333333333333333,-75.33333333333333,-973.0,-1162.0,4.333333333333333,3.6666666666666665
09:14:10,9147.0,RTL,-0.0299253116051356,-0.00014434939172739783,1.2154749234517415,-1.302692969640096,-0.0005597795049349467,-0.007225734957804282,-35.36326423333333,149.16523830000003,149111.66666666666,19.333333333333332,-5.0,99.33333333333333,1.6666666666666667,-83.0,-978.6666666666666,-1299.3333333333333,3.6666666666666665,-3.3333333333333335
09:14:11,22263.0,RTL,-0.038884794960419335,0.0004567807967153688,1.2162322203318279,-0.7983323882023493,-0.0037215609724322953,-0.005771513717869918,-35.363265633333334,149.1652389333333,147839.33333333334,29.666666666666668,-9.0,103.0,1.6666666666666667,-71.33333333333333,-983.0,-795.6666666666666,1.0,-1.6666666666666667
09:14:12,22263.0,RTL,-0.03247246084113916,0.00027530053436445695,1.2162303527196248,-0.3062954644362132,0.00034517507689694565,-0.006916527791569631,-35.363266333333335,149.16523923333332,147073.66666666666,37.666666666666664,-12.333333333333334,99.33333333333333,1.0,-53.0,-994.6666666666666,-304.6666666666667,4.333333333333333,-3.0
09:14:14,22263.0,RTL,-0.0575571209192276,-0.0012883867505782594,1.2160203456878662,-1.3215183019638062,-0.002756754867732525,-0.004548401533005138,-35.363267666666665,149.1652399,145042.0,51.666666666666664,-19.0,101.33333333333333,-0.6666666666666666,-73.66666666666667,-986.6666666666666,-1320.3333333333333,2.0,-0.6666666666666666
09:14:16,29800.0,RTL,-0.010370861428479353,-0.007515713882942994,1.2152421474456787,-0.9873847166697184,-0.004819887535025676,0.0023687209468334913,-35.3632653,149.16523863333336,142981.33333333334,44.666666666666664,-16.333333333333332,98.66666666666667,-4.333333333333333,-65.66666666666667,-999.3333333333334,-987.3333333333334,0.3333333333333333,5.666666666666667
09:14:18,29800.0,RTL,0.02385163741807143,-0.008021653940280279,1.215449055035909,-1.2611099084218342,-0.0018477571817735832,0.00471849328217407,-35.36326073333333,149.16523650000002,140950.33333333334,5.333333333333333,0.0,98.66666666666667,-4.333333333333333,-68.0,-978.6666666666666,-1260.0,2.6666666666666665,8.333333333333334
09:14:20,29800.0,RTL,0.011062923508385817,-0.0016025776858441532,1.21694815158844,-1.3352396885553997,-0.00027390592731535435,-0.0035429433143387237,-35.36325903333333,149.16523593333332,138932.0,-25.333333333333332,12.666666666666666,101.66666666666667,1.3333333333333333,-68.66666666666667,-1004.6666666666666,-1333.6666666666667,4.333333333333333,0.3333333333333333
09:14:21,46821.0,RTL,0.0006995562774439653,0.0008263871422968805,1.2161987622578938,-1.0848475297292073,-0.0018700578560431798,-0.008021648197124401,-35.363260133333334,149.1652365,137657.66666666666,-22.666666666666668,11.333333333333334,100.66666666666667,3.0,-76.0,-981.0,-1083.6666666666667,3.0,-4.0
09:14:22,46821.0,RTL,-0.025105177735288937,0.0022305840781579414,1.217218001683553,-1.507227102915446,-0.00043242843821644783,-0.008670492252955833,-35.363261300000005,149.16523706666666,136890.33333333334,-16.333333333333332,8.333333333333334,103.0,3.3333333333333335,-71.33333333333333,-1008.0,-1505.0,3.6666666666666665,-5.0
09:14:24,46821.0,RTL,-0.027141608918706577,-0.001909124858987828,1.216007113456726,-1.4423542022705078,-0.006782442641754945,-0.0026357748235265412,-35.36326346666667,149.165238,134838.0,7.666666666666667,-2.3333333333333335,101.0,0.0,-68.0,-992.3333333333334,-1441.0,-1.6666666666666667,1.0
09:14:26,46821.0,RTL,-0.010228652817507585,-0.0014155044918879867,1.217067797978719,-1.0084691047668457,-0.0003471028370161851,5.082421315213045e-05,-35.3632633,149.1652378,132788.66666666666,10.666666666666666,-2.0,100.33333333333333,0.6666666666666666,-76.33333333333333,-972.6666666666666,-1008.0,4.333333333333333,3.3333333333333335
09:14:27,17344.0,RTL,-0.02559143863618374,-0.003592259716242552,1.2163008848826091,-1.3490135669708252,-0.007054537069052458,0.0015730483767886956,-35.3632636,149.1652378,131504.33333333334,13.333333333333334,-2.6666666666666665,98.66666666666667,-0.3333333333333333,-72.33333333333333,-995.0,-1347.6666666666667,-2.0,4.666666666666667
09:14:28,17344.0,RTL,-0.017168970157702763,-0.00444609244974951,1.216023604075114,-1.3494934638341267,0.0008969124561796585,-0.00021931303975482783,-35.36326336666667,149.1652377,130730.33333333333,14.0,-2.6666666666666665,99.66666666666667,-2.0,-67.33333333333333,-1019.0,-1348.0,5.0,3.3333333333333335
09:14:30,17344.0,RTL,0.003922751910674076,-0.00499161829551061,1.2167729139328003,-1.2607715129852295,0.0006603379733860493,-0.004851415830974777,-35.36326173333334,149.16523693333332,128674.33333333333,2.6666666666666665,1.0,97.33333333333333,-0.3333333333333333,-69.33333333333333,-995.6666666666666,-1259.6666666666667,5.333333333333333,-1.0
09:14:32,172604.0,RTL,0.00012560929947843155,0.0005824036876826236,1.216260274251302,-0.6182135045528412,-0.0004186665949722131,-0.008758283297841748,-35.363262,149.16523726666665,126636.0,-2.0,3.6666666666666665,101.0,1.6666666666666667,-67.0,-955.0,-618.0,4.0,-5.0
09:14:34,172604.0,RTL,-0.005297651902462046,-0.0005227886722423136,1.2164458831151326,-0.3542994757493337,0.0006270448987682661,0.002127364045009017,-35.36326326666667,149.1652379,124606.0,8.666666666666666,-2.3333333333333335,99.0,0.0,-56.666666666666664,-964.3333333333334,-354.3333333333333,4.666666666666667,5.666666666666667
09:14:36,172604.0,RTL,-0.004523907943318288,0.0005535180486428241,1.216792146364848,1.066107491652171,0.0020211486456294856,-0.000576893954227368,-35.36326423333333,149.16523830000003,122558.33333333333,16.0,-3.6666666666666665,100.0,3.3333333333333335,22.666666666666668,-1006.6666666666666,1066.0,6.0,2.6666666666666665
09:14:37,185151.0,RTL,-0.038066305220127106,0.0018605324439704418,1.217367172241211,-0.8797055780887604,0.002335760509595275,-0.008115083444863558,-35.3632659,149.16523905000003,121330.5,31.0,-9.5,100.5,4.5,-84.5,-949.0,-880.0,6.5,-4.0
09:14:39,185151.0,RTL,-0.03719253093004227,-0.00439430377446115,1.2160908579826355,-0.1761217713356018,-0.0023095370270311832,0.010351612931117415,-35.363267449999995,149.16523965,119303.0,51.5,-18.5,96.0,-1.5,-45.0,-976.0,-177.5,2.0,13.5
09:14:41,185151.0,RTL,-0.0038133980706334114,-0.009978570975363255,1.216154932975769,-1.1904006004333496,-0.00047953601460903883,0.00566491496283561,-35.36326435,149.1652379,117255.5,36.0,-11.0,101.0,-5.0,-66.0,-979.0,-1192.0,3.5,8.5
09:14:42,15988.0,RTL,0.015833072597160935,-0.009392793523147702,1.217170238494873,-0.8729643225669861,-0.0008049462921917439,0.002900190302170813,-35.363262625000004,149.16523715,116484.25,21.0,-5.0,100.0,-6.25,-60.25,-990.25,-875.0,3.25,6.0
09:14:43,15988.0,RTL,0.03940296918153763,-0.008458927273750305,1.2167931199073792,-0.6028871536254883,-0.004348172573372722,-0.0017573990626260638,-35.3632599,149.165236,115215.5,-4.5,5.0,99.5,-4.0,-53.5,-1033.5,-605.0,0.0,1.5
09:14:45,15988.0,RTL,0.012273623142391443,0.001548774540424347,1.2171034812927246,-1.0075293183326721,-0.002509670448489487,-0.0035072537139058113,-35.3632591,149.16523595,113196.0,-30.0,16.0,102.0,4.5,-80.5,-983.5,-1009.0,1.5,0.0
09:14:47,15988.0,RTL,-0.029956246726214886,0.005000134231522679,1.2186384201049805,-1.1214960813522339,0.002548384014517069,-0.008174639195203781,-35.36326315,149.16523784999998,111164.5,-3.0,4.5,102.0,7.0,-82.5,-959.5,-1123.0,6.5,-4.5
