time_stamp,MODE,lat,lon,relative_alt,roll,pitch,yaw,rollspeed,pitchspeed,yawspeed,xacc,yacc,zacc,xgyro,ygyro,zgyro,vx,vy,vz,RTL_ALT
09:08:54.880,STABILIZE,-35.3632621,149.1652374,0,-0.00012803773279301822,0.0013624683488160372,0.029400743544101715,0.00021399790421128273,0.00018219536286778748,0.00260290433652699,0,1,-1000,0,1,0,0,0,-3,1500.0
09:08:55.081,STABILIZE,-35.3632621,149.1652374,0,-0.00012803773279301822,0.0013624683488160372,0.029400743544101715,0.00021399790421128273,0.00018219536286778748,0.00260290433652699,0,1,-1000,0,0,0,0,0,-2,1500.0
09:08:55.282,STABILIZE,-35.3632621,149.1652374,0,-4.7357825678773224e-05,0.0014798560878261924,0.029061665758490562,0.00025325187016278505,0.0002269783290103078,0.0024795178323984146,0,1,-1000,0,0,0,0,0,-2,1500.0
09:08:55.482,STABILIZE,-35.3632621,149.1652374,0,-4.7357825678773224e-05,0.0014798560878261924,0.029061665758490562,0.00025325187016278505,0.0002269783290103078,0.0024795178323984146,0,1,-1000,0,0,0,0,0,-2,1500.0
09:08:55.683,STABILIZE,-35.3632621,149.1652374,0,-4.7357825678773224e-05,0.0014798560878261924,0.029061665758490562,0.00025325187016278505,0.0002269783290103078,0.0024795178323984146,0,1,-1000,0,0,0,0,0,-2,1500.0
09:08:55.884,STABILIZE,-35.3632621,149.1652374,0,-4.7357825678773224e-05,0.0014798560878261924,0.029061665758490562,0.00025325187016278505,0.0002269783290103078,0.0024795178323984146,0,1,-1000,0,0,0,-1,1,-2,1500.0
09:08:56.085,STABILIZE,-35.3632621,149.1652374,0,1.1009254194505047e-05,0.001615125685930252,0.028532570227980614,0.00018347945297136903,0.00029470797744579613,0.002394787035882473,0,1,-1000,0,0,0,-1,1,-1,1500.0
09:08:56.286,STABILIZE,-35.3632621,149.1652374,0,1.1009254194505047e-05,0.001615125685930252,0.028532570227980614,0.00018347945297136903,0.00029470797744579613,0.002394787035882473,0,1,-1000,0,0,0,-1,1,-1,1500.0
09:08:56.488,STABILIZE,-35.3632621,149.1652374,0,1.1009254194505047e-05,0.001615125685930252,0.028532570227980614,0.00018347945297136903,0.00029470797744579613,0.002394787035882473,0,1,-1000,0,0,0,-1,1,-1,1500.0
09:08:56.689,STABILIZE,-35.3632621,149.1652374,0,1.1009254194505047e-05,0.001615125685930252,0.028532570227980614,0.00018347945297136903,0.00029470797744579613,0.002394787035882473,0,1,-1000,0,0,0,-1,1,-1,1500.0
09:08:56.891,STABILIZE,-35.3632621,149.1652374,0,-4.257340697222389e-05,0.0016156217316165566,0.028015559539198875,0.00027249925187788904,0.0003147782408632338,0.002169809304177761,0,1,-1000,0,0,0,-1,1,-1,1500.0
09:08:57.092,STABILIZE,-35.3632621,149.1652375,0,-4.257340697222389e-05,0.0016156217316165566,0.028015559539198875,0.00027249925187788904,0.0003147782408632338,0.002169809304177761,0,8,-990,0,0,1,-2,3,1,1500.0
09:08:57.293,STABILIZE,-35.3632621,149.1652375,0,-4.257340697222389e-05,0.0016156217316165566,0.028015559539198875,0.00027249925187788904,0.0003147782408632338,0.002169809304177761,0,1,-1000,0,0,0,-2,3,1,1500.0
09:08:57.495,STABILIZE,-35.3632621,149.1652375,0,-4.257340697222389e-05,0.0016156217316165566,0.028015559539198875,0.00027249925187788904,0.0003147782408632338,0.002169809304177761,0,1,-1000,0,0,0,-2,3,1,1500.0
09:08:57.696,STABILIZE,-35.3632621,149.1652375,0,-4.257340697222389e-05,0.0016156217316165566,0.028015559539198875,0.00027249925187788904,0.0003147782408632338,0.002169809304177761,0,1,-1000,0,0,0,-2,3,1,1500.0
09:08:57.897,STABILIZE,-35.3632621,149.1652375,0,-4.257340697222389e-05,0.0016156217316165566,0.028015559539198875,0.00027249925187788904,0.0003147782408632338,0.002169809304177761,0,1,-1000,0,0,0,-2,3,1,1500.0
09:08:58.098,STABILIZE,-35.3632621,149.1652375,0,-4.257340697222389e-05,0.0016156217316165566,0.028015559539198875,0.00027249925187788904,0.0003147782408632338,0.002169809304177761,0,1,-1000,0,0,0,-2,3,1,1500.0
09:08:58.299,STABILIZE,-35.3632621,149.1652375,0,-4.257340697222389e-05,0.0016156217316165566,0.028015559539198875,0.00027249925187788904,0.0003147782408632338,0.002169809304177761,0,1,-1000,0,0,0,-2,3,1,1500.0
09:08:58.513,STABILIZE,-35.3632621,149.1652375,0,-4.257340697222389e-05,0.0016156217316165566,0.028015559539198875,0.00027249925187788904,0.0003147782408632338,0.002169809304177761,0,1,-1000,0,0,0,-2,3,1,1500.0
09:08:58.718,STABILIZE,-35.3632622,149.1652375,0,-0.0006908754585310817,0.0012440969003364444,0.026817919686436653,8.372328011319041e-05,0.0002703215868677944,0.0021513618994504213,0,1,-1000,0,0,0,-1,2,1,1500.0
09:08:58.920,STABILIZE,-35.3632622,149.1652375,0,-0.0006908754585310817,0.0012440969003364444,0.026817919686436653,8.372328011319041e-05,0.0002703215868677944,0.0021513618994504213,0,1,-1000,0,0,0,-1,2,1,1500.0
09:08:59.121,STABILIZE,-35.3632622,149.1652375,0,-0.0006908754585310817,0.0012440969003364444,0.026817919686436653,8.372328011319041e-05,0.0002703215868677944,0.0021513618994504213,0,1,-1000,0,0,0,-1,2,1,1500.0
09:08:59.322,STABILIZE,-35.3632622,149.1652375,0,-0.000863900757394731,0.0011597301345318556,0.026601657271385193,0.00031492544803768396,0.00021336317877285182,0.0021977582946419716,0,1,-1000,0,1,0,-1,1,1,1500.0
09:08:59.524,STABILIZE,-35.3632622,149.1652375,0,-0.000863900757394731,0.0011597301345318556,0.026601657271385193,0.00031492544803768396,0.00021336317877285182,0.0021977582946419716,0,1,-1000,0,1,0,-1,1,1,1500.0
09:08:59.725,STABILIZE,-35.3632622,149.1652375,0,-0.0010032294085249305,0.001075559644959867,0.02638031169772148,0.00019362353486940265,0.0002825859119184315,0.0021657380275428295,0,1,-1000,0,0,0,-1,1,1,1500.0
09:08:59.927,STABILIZE,-35.3632622,149.1652375,0,-0.0010032294085249305,0.001075559644959867,0.02638031169772148,0.00019362353486940265,0.0002825859119184315,0.0021657380275428295,0,1,-1000,0,0,0,-1,1,1,1500.0
09:09:00.128,STABILIZE,-35.3632622,149.1652375,0,-0.0010032294085249305,0.001075559644959867,0.02638031169772148,0.00019362353486940265,0.0002825859119184315,0.0021657380275428295,0,1,-1000,0,0,0,-1,1,1,1500.0
09:09:00.330,STABILIZE,-35.3632622,149.1652375,0,-0.0010032294085249305,0.001075559644959867,0.02638031169772148,0.00019362353486940265,0.0002825859119184315,0.0021657380275428295,0,1,-1000,0,0,0,-1,1,1,1500.0
09:09:00.531,STABILIZE,-35.3632622,149.1652375,0,-0.0010032294085249305,0.001075559644959867,0.02638031169772148,0.00019362353486940265,0.0002825859119184315,0.0021657380275428295,0,1,-1000,0,0,0,-1,1,1,1500.0
09:09:00.733,STABILIZE,-35.3632622,149.1652375,0,-0.0010032294085249305,0.001075559644959867,0.02638031169772148,0.00019362353486940265,0.0002825859119184315,0.0021657380275428295,0,1,-1000,0,0,0,-1,1,1,1500.0
09:09:00.934,STABILIZE,-35.3632622,149.1652375,0,-0.0010032294085249305,0.001075559644959867,0.02638031169772148,0.00019362353486940265,0.0002825859119184315,0.0021657380275428295,0,1,-1000,0,0,0,-1,1,1,1500.0
09:09:01.135,STABILIZE,-35.3632622,149.1652375,0,-0.0010032294085249305,0.001075559644959867,0.02638031169772148,0.00019362353486940265,0.0002825859119184315,0.0021657380275428295,0,1,-1000,0,0,0,-1,1,1,1500.0
09:09:01.337,STABILIZE,-35.3632622,149.1652375,0,-0.0010032294085249305,0.001075559644959867,0.02638031169772148,0.00019362353486940265,0.0002825859119184315,0.0021657380275428295,0,1,-1000,0,0,0,-1,1,1,1500.0
09:09:01.538,STABILIZE,-35.3632621,149.1652375,0,-0.0011822357773780823,0.000950713932979852,0.02576460875570774,0.00021282443776726723,0.00018368818564340472,0.001953995320945978,0,1,-1000,0,0,0,-1,0,0,1500.0
09:09:01.739,STABILIZE,-35.3632621,149.1652375,0,-0.0011822357773780823,0.000950713932979852,0.02576460875570774,0.00021282443776726723,0.00018368818564340472,0.001953995320945978,0,1,-1000,0,0,0,-1,0,0,1500.0
09:09:01.941,STABILIZE,-35.3632621,149.1652375,0,-0.0011822357773780823,0.000950713932979852,0.02576460875570774,0.00021282443776726723,0.00018368818564340472,0.001953995320945978,0,1,-1000,0,0,0,-1,0,0,1500.0
09:09:02.143,STABILIZE,-35.3632621,149.1652375,0,-0.0011759124463424087,0.0009362531127408147,0.025615999475121498,0.00020835595205426216,0.00035163084976375103,0.001976880943402648,0,1,-1000,0,0,0,-1,0,0,1500.0
09:09:02.344,STABILIZE,-35.3632621,149.1652375,0,-0.0011759124463424087,0.0009362531127408147,0.025615999475121498,0.00020835595205426216,0.00035163084976375103,0.001976880943402648,0,1,-1000,0,0,0,-1,0,0,1500.0
09:09:02.545,STABILIZE,-35.3632621,149.1652375,0,-0.0011759124463424087,0.0009362531127408147,0.025615999475121498,0.00020835595205426216,0.00035163084976375103,0.001976880943402648,0,1,-1000,0,0,0,-1,0,0,1500.0
09:09:02.747,STABILIZE,-35.3632621,149.1652375,0,-0.0011759374756366014,0.0009261099621653557,0.02538624405860901,8.822930976748466e-05,0.00020246830536052585,0.001842666883021593,0,1,-1000,0,0,0,-1,0,0,1500.0
09:09:02.949,STABILIZE,-35.3632621,149.1652375,0,-0.0011759374756366014,0.0009261099621653557,0.02538624405860901,8.822930976748466e-05,0.00020246830536052585,0.001842666883021593,0,1,-1000,0,0,0,-1,0,0,1500.0
09:09:03.150,STABILIZE,-35.3632621,149.1652375,0,-0.0011759374756366014,0.0009261099621653557,0.02538624405860901,8.822930976748466e-05,0.00020246830536052585,0.001842666883021593,0,1,-1000,0,0,0,-1,0,0,1500.0
09:09:03.351,STABILIZE,-35.3632621,149.1652375,0,-0.0011759374756366014,0.0009261099621653557,0.02538624405860901,8.822930976748466e-05,0.00020246830536052585,0.001842666883021593,0,1,-1000,0,0,0,-1,0,0,1500.0
09:09:03.552,STABILIZE,-35.3632621,149.1652375,0,-0.0011545864399522543,0.0009238313068635762,0.02515014074742794,0.00028798269340768456,0.00022712559439241886,0.001970788463950157,0,1,-1000,0,0,0,-1,0,0,1500.0
09:09:03.754,STABILIZE,-35.3632621,149.1652375,0,-0.0011545864399522543,0.0009238313068635762,0.02515014074742794,0.00028798269340768456,0.00022712559439241886,0.001970788463950157,0,1,-1000,0,0,0,-1,0,0,1500.0
09:09:03.956,STABILIZE,-35.3632621,149.1652375,0,-0.0009705880656838417,0.000927773944567889,0.024995533749461174,0.00012630154378712177,0.00022211275063455105,0.0018324095290154219,0,2,-999,0,0,0,-1,0,-1,1500.0
09:09:04.158,STABILIZE,-35.3632621,149.1652375,0,-0.0009705880656838417,0.000927773944567889,0.024995533749461174,0.00012630154378712177,0.00022211275063455105,0.0018324095290154219,0,2,-999,0,0,0,-1,0,-1,1500.0
09:09:04.359,STABILIZE,-35.3632621,149.1652375,0,-0.0009705880656838417,0.000927773944567889,0.024995533749461174,0.00012630154378712177,0.00022211275063455105,0.0018324095290154219,0,2,-999,0,0,0,-1,0,-1,1500.0
09:09:04.561,STABILIZE,-35.3632621,149.1652375,0,-0.0009705880656838417,0.000927773944567889,0.024995533749461174,0.00012630154378712177,0.00022211275063455105,0.0018324095290154219,0,2,-999,0,0,0,-1,0,-1,1500.0
09:09:04.762,STABILIZE,-35.3632621,149.1652375,0,-0.0009705880656838417,0.000927773944567889,0.024995533749461174,0.00012630154378712177,0.00022211275063455105,0.0018324095290154219,0,2,-999,0,0,0,-1,0,-1,1500.0
09:09:04.963,STABILIZE,-35.3632621,149.1652375,0,-0.0009705880656838417,0.000927773944567889,0.024995533749461174,0.00012630154378712177,0.00022211275063455105,0.0018324095290154219,0,2,-999,0,0,0,-1,0,-1,1500.0
09:09:05.165,STABILIZE,-35.3632621,149.1652375,0,-0.0009705880656838417,0.000927773944567889,0.024995533749461174,0.00012630154378712177,0.00022211275063455105,0.0018324095290154219,0,2,-999,0,0,0,-1,0,-1,1500.0
09:09:05.366,STABILIZE,-35.3632621,149.1652375,0,-0.0007844307110644877,0.0009234562749043107,0.024586036801338196,0.0003699304652400315,0.0002939615515060723,0.001752843614667654,0,1,-1000,0,0,0,-1,0,-1,1500.0
09:09:05.568,STABILIZE,-35.3632621,149.1652375,0,-0.0007726141484454274,0.000927237153518945,0.0245097316801548,0.00024385156575590372,0.00027946970658376813,0.001766591565683484,0,1,-1000,0,0,0,-1,0,0,1500.0
09:09:05.770,STABILIZE,-35.3632621,149.1652375,0,-0.0007726141484454274,0.000927237153518945,0.0245097316801548,0.00024385156575590372,0.00027946970658376813,0.001766591565683484,0,1,-1000,0,0,0,-1,0,0,1500.0
09:09:05.971,STABILIZE,-35.3632621,149.1652375,0,-0.0007469336851499975,0.0009367777383886278,0.02434137649834156,0.00029904203256592155,0.00022049760445952415,0.0017206048360094428,0,1,-1000,0,0,0,-1,1,0,1500.0
09:09:06.172,STABILIZE,-35.3632621,149.1652375,0,-0.0007469336851499975,0.0009367777383886278,0.02434137649834156,0.00029904203256592155,0.00022049760445952415,0.0017206048360094428,0,1,-1000,0,0,0,-1,1,0,1500.0
09:09:06.374,STABILIZE,-35.3632621,149.1652375,0,-0.0007469336851499975,0.0009367777383886278,0.02434137649834156,0.00029904203256592155,0.00022049760445952415,0.0017206048360094428,0,1,-1000,0,0,0,-1,1,0,1500.0
09:09:06.575,STABILIZE,-35.3632621,149.1652375,0,-0.0007469336851499975,0.0009367777383886278,0.02434137649834156,0.00029904203256592155,0.00022049760445952415,0.0017206048360094428,0,1,-1000,0,0,0,-1,1,0,1500.0
09:09:06.776,STABILIZE,-35.3632621,149.1652375,0,-0.0007385349017567933,0.0009359790128655732,0.02407410368323326,0.00022881152108311653,0.000252788420766592,0.00173067522700876,0,2,-1000,0,1,0,-1,1,0,1500.0
09:09:06.978,STABILIZE,-35.3632622,149.1652375,0,-0.0007385349017567933,0.0009359790128655732,0.02407410368323326,0.00022881152108311653,0.000252788420766592,0.00173067522700876,0,2,-1000,0,1,0,-1,1,0,1500.0
09:09:07.179,STABILIZE,-35.3632622,149.1652375,0,-0.0007385349017567933,0.0009359790128655732,0.02407410368323326,0.00022881152108311653,0.000252788420766592,0.00173067522700876,0,2,-1000,0,1,0,-1,1,0,1500.0
09:09:07.380,STABILIZE,-35.3632622,149.1652375,0,-0.0007534143514931202,0.0009579447796568274,0.02388509176671505,0.0002380420919507742,0.00017186044715344906,0.0016543925739824772,0,1,-1000,0,0,0,-1,1,0,1500.0
09:09:07.582,STABILIZE,-35.3632622,149.1652375,0,-0.0005991228390485048,0.0009569199755787849,0.023809196427464485,0.0001881900243461132,0.00025593111058697104,0.0017299344763159752,0,1,-1000,0,0,0,-1,1,0,1500.0
09:09:07.783,STABILIZE,-35.3632621,149.1652375,0,-0.0006008116761222482,0.0009530712268315256,0.02371186390519142,0.00017414928879588842,0.00026835856260731816,0.0017361459322273731,0,1,-1000,0,0,0,-1,0,-2,1500.0
09:09:07.984,STABILIZE,-35.3632621,149.1652375,0,-0.0006008116761222482,0.0009530712268315256,0.02371186390519142,0.00017414928879588842,0.00026835856260731816,0.0017361459322273731,0,2,-1000,0,0,0,-1,0,-2,1500.0
09:09:08.186,STABILIZE,-35.3632621,149.1652375,0,-0.0006008116761222482,0.0009530712268315256,0.02371186390519142,0.00017414928879588842,0.00026835856260731816,0.0017361459322273731,0,2,-1000,0,0,0,-1,0,-2,1500.0
09:09:08.388,STABILIZE,-35.3632621,149.1652375,0,-0.0006008116761222482,0.0009530712268315256,0.02371186390519142,0.00017414928879588842,0.00026835856260731816,0.0017361459322273731,0,2,-1000,0,0,0,-1,0,-2,1500.0
09:09:08.589,STABILIZE,-35.3632621,149.1652375,0,-0.0006008116761222482,0.0009530712268315256,0.02371186390519142,0.00017414928879588842,0.00026835856260731816,0.0017361459322273731,0,2,-1000,0,0,0,-1,0,-2,1500.0
09:09:08.791,STABILIZE,-35.3632622,149.1652375,0,-0.0004634360084310174,0.0009636473841965199,0.023368922993540764,0.00023266678908839822,0.00022266223095357418,0.0016019390895962715,0,1,-1000,1,1,0,-1,1,-2,1500.0
09:09:08.992,STABILIZE,-35.3632622,149.1652375,0,-0.0004634360084310174,0.0009636473841965199,0.023368922993540764,0.00023266678908839822,0.00022266223095357418,0.0016019390895962715,0,2,-1000,0,0,0,-1,1,-2,1500.0
09:09:09.193,STABILIZE,-35.3632622,149.1652375,0,-0.0004634360084310174,0.0009636473841965199,0.023368922993540764,0.00023266678908839822,0.00022266223095357418,0.0016019390895962715,0,2,-1000,0,0,0,-1,1,-2,1500.0
09:09:09.395,AUTO,-35.3632622,149.1652375,0,-0.0004410654946696013,0.0009762792615219951,0.023207439109683037,0.00032797391759231687,0.00034624175168573856,0.001721447566524148,0,1,-1000,0,0,0,-1,1,-1,1500.0
09:09:09.602,AUTO,-35.3632622,149.1652375,0,-0.00043119597830809653,0.0009707785793580115,0.023127324879169464,0.0003473804099485278,0.00032534124329686165,0.001536896568723023,0,1,-1000,0,0,0,-1,1,-1,1500.0
09:09:09.823,AUTO,-35.3632622,149.1652375,0,-0.0004311422526370734,0.0009778732201084495,0.023027487099170685,0.0002558960113674402,0.00029848009580746293,0.0014612829545512795,0,2,-1000,1,0,0,-1,1,-1,1500.0
09:09:10.124,AUTO,-35.3632621,149.1652375,1,-0.00043087024823762476,0.0009914974216371775,0.02295258641242981,0.0003241135273128748,0.0003583640791475773,0.001589505234733224,0,2,-1000,1,1,0,-1,1,-1,1500.0
09:09:10.344,AUTO,-35.3632621,149.1652375,1,-0.00043087024823762476,0.0009914974216371775,0.02295258641242981,0.0003241135273128748,0.0003583640791475773,0.001589505234733224,0,2,-1000,1,1,0,-1,1,-1,1500.0
09:09:10.620,AUTO,-35.3632621,149.1652375,1,-0.00043087024823762476,0.0009914974216371775,0.02295258641242981,0.0003241135273128748,0.0003583640791475773,0.001589505234733224,0,2,-1000,1,1,0,-1,1,-1,1500.0
09:09:10.822,AUTO,-35.3632621,149.1652375,2,-0.00016555437468923628,0.0011335128219798207,0.022635681554675102,0.0027533925604075193,0.00021511688828468323,0.0015362820122390985,0,28,-960,3,0,1,0,1,0,1500.0
09:09:11.025,AUTO,-35.3632621,149.1652375,2,-0.00016555437468923628,0.0011335128219798207,0.022635681554675102,0.0027533925604075193,0.00021511688828468323,0.0015362820122390985,0,28,-960,3,0,1,0,1,0,1500.0
09:09:11.227,AUTO,-35.3632621,149.1652375,0,-0.0001123975234804675,0.0011997881811112165,0.022534428164362907,0.0003999783657491207,0.0003047172795049846,0.0014274630229920149,0,1,-1000,1,0,1,0,1,0,1500.0
09:09:11.429,AUTO,-35.3632621,149.1652375,0,-5.2906532800989226e-05,0.0012663062661886215,0.022443220019340515,0.0002747278194874525,0.00025628041476011276,0.0013850315008312464,0,1,-1000,1,0,0,0,1,0,120533.0
09:09:11.630,AUTO,-35.3632621,149.1652375,0,1.0655371625034604e-05,0.0013300077989697456,0.022349143400788307,0.0002553685335442424,0.0003154296427965164,0.0014925706200301647,0,1,-1000,1,1,1,0,0,0,120533.0
09:09:11.831,AUTO,-35.3632621,149.1652375,0,7.643982098670676e-05,0.0013916479656472802,0.022255467250943184,0.00034365837927907705,0.00020873761968687177,0.001586906728334725,0,1,-1000,0,0,0,0,0,0,120533.0
09:09:12.033,AUTO,-35.3632621,149.1652375,0,7.643982098670676e-05,0.0013916479656472802,0.022255467250943184,0.00034365837927907705,0.00020873761968687177,0.001586906728334725,0,1,-1000,0,0,0,0,0,0,120533.0
09:09:12.235,AUTO,-35.3632621,149.1652375,0,0.00013526486873161048,0.0014666339848190546,0.022156018763780594,0.00033183046616613865,0.00023352704010903835,0.0014865435659885406,0,2,-1000,0,1,0,0,0,0,120533.0
09:09:12.436,AUTO,-35.3632621,149.1652375,0,0.00013526486873161048,0.0014666339848190546,0.022156018763780594,0.00033183046616613865,0.00023352704010903835,0.0014865435659885406,0,2,-1000,0,1,0,0,0,0,120533.0
09:09:12.638,AUTO,-35.3632621,149.1652375,0,0.00013526486873161048,0.0014666339848190546,0.022156018763780594,0.00033183046616613865,0.00023352704010903835,0.0014865435659885406,0,2,-1000,0,1,0,0,0,0,120533.0
09:09:12.840,AUTO,-35.3632621,149.1652375,0,0.0003528751549310982,0.001687605050392449,0.021862071007490158,0.00037126924144104123,0.00033420592080801725,0.0014633320970460773,0,1,-1000,1,0,1,0,0,0,120533.0
09:09:13.042,AUTO,-35.3632621,149.1652375,0,0.0003528751549310982,0.001687605050392449,0.021862071007490158,0.00037126924144104123,0.00033420592080801725,0.0014633320970460773,0,1,-1000,1,0,1,0,0,0,120533.0
09:09:13.243,AUTO,-35.3632621,149.1652375,0,0.0004360144375823438,0.0017611627699807286,0.021770106628537178,0.00044050050200894475,0.0002704697544686496,0.0014712745323777199,0,1,-1000,1,0,0,0,0,0,120533.0
09:09:13.445,AUTO,-35.3632621,149.1652375,2,0.0034646985586732626,0.00010460606426931918,0.02183321677148342,0.02067224122583866,-0.007927386090159416,0.0023619714193046093,0,0,-1139,21,-7,1,0,0,-16,120533.0
09:09:13.647,AUTO,-35.3632621,149.1652375,88,0.004952412564307451,-0.00046237854985520244,0.021789131686091423,0.010172268375754356,0.0032062199898064137,0.001685623312368989,0,0,-1140,10,4,1,0,0,-51,120533.0
09:09:13.849,AUTO,-35.3632621,149.1652375,257,0.003417312866076827,0.0005948473117314279,0.02176690846681595,-0.02068266272544861,0.004212650470435619,0.002198857255280018,0,-1,-1122,-20,5,1,0,1,-83,120533.0
09:09:14.052,AUTO,-35.3632621,149.1652375,257,0.003417312866076827,0.0005948473117314279,0.02176690846681595,-0.02068266272544861,0.004212650470435619,0.002198857255280018,0,-1,-1122,-20,5,1,0,1,-83,120533.0
09:09:14.254,AUTO,-35.3632621,149.1652375,500,0.0025988288689404726,0.0014819834614172578,0.02185075916349888,0.0013286687899380922,0.003059295006096363,0.0014162680599838495,0,0,-1101,2,3,0,0,1,-109,120533.0
09:09:14.456,AUTO,-35.3632621,149.1652375,500,0.0025988288689404726,0.0014819834614172578,0.02185075916349888,0.0013286687899380922,0.003059295006096363,0.0014162680599838495,0,0,-1101,2,3,0,0,1,-109,120533.0
09:09:14.658,AUTO,-35.3632621,149.1652375,500,0.0025988288689404726,0.0014819834614172578,0.02185075916349888,0.0013286687899380922,0.003059295006096363,0.0014162680599838495,0,0,-1101,2,3,0,0,1,-109,120533.0
09:09:14.860,AUTO,-35.363262,149.1652376,1522,0.027423715218901634,-0.0014318748144432902,0.02109118178486824,0.04594302922487259,-0.007702145259827375,0.00215608486905694,0,-1,-1012,46,-6,1,1,7,-145,120533.0
09:09:15.063,AUTO,-35.363262,149.1652379,1901,0.03866250067949295,-0.0035232824739068747,0.021166378632187843,0.04395506903529167,-0.008399544283747673,0.0028124528471380472,0,-1,-1005,44,-7,2,2,14,-147,120533.0
09:09:15.265,AUTO,-35.363262,149.1652379,1901,0.03866250067949295,-0.0035232824739068747,0.021166378632187843,0.04395506903529167,-0.008399544283747673,0.0028124528471380472,0,-1,-1005,44,-7,2,2,14,-147,120533.0
09:09:15.473,AUTO,-35.3632619,149.1652384,2284,0.049242377281188965,-0.005908967461436987,0.021329430863261223,0.04140563681721687,-0.00965240690857172,0.0035185343585908413,1,-3,-1001,42,-9,3,3,24,-148,120533.0
09:09:15.749,AUTO,-35.3632618,149.1652392,2667,0.05903197079896927,-0.008616632781922817,-0.006900206673890352,0.03773251548409462,-0.01213364489376545,0.003748394548892975,1,-5,-999,38,-11,3,6,35,-147,120533.0
09:09:16.081,AUTO,-35.3632613,149.1652416,3426,0.02690550871193409,0.0194377563893795,-0.039669230580329895,-0.1814805269241333,0.06203802302479744,-0.0897875726222992,5,-13,-993,-180,62,-90,9,54,-144,120533.0
09:09:16.350,AUTO,-35.3632613,149.1652416,3426,0.02690550871193409,0.0194377563893795,-0.039669230580329895,-0.1814805269241333,0.06203802302479744,-0.0897875726222992,5,-13,-993,-180,62,-90,9,54,-144,120533.0
09:09:16.641,AUTO,-35.3632613,149.1652416,3426,0.02690550871193409,0.0194377563893795,-0.039669230580329895,-0.1814805269241333,0.06203802302479744,-0.0897875726222992,5,-13,-993,-180,62,-90,9,54,-144,120533.0
09:09:16.846,AUTO,-35.3632609,149.1652454,4562,-0.03404049947857857,0.0049946727231144905,-0.07087167352437973,-0.025585362687706947,-0.01731228269636631,-0.030575642362236977,4,-8,-1003,-24,-16,-31,2,33,-149,120533.0
09:09:17.049,AUTO,-35.3632609,149.1652454,4562,-0.03404049947857857,0.0049946727231144905,-0.07087167352437973,-0.025585362687706947,-0.01731228269636631,-0.030575642362236977,4,-8,-1003,-24,-16,-31,2,33,-149,120533.0
09:09:17.253,AUTO,-35.3632608,149.1652462,4947,-0.04623261094093323,0.0022992363665252924,-0.07859931886196136,-0.06410089880228043,-0.0030286323744803667,-0.03433888778090477,3,-7,-999,-63,-2,-35,2,20,-148,120533.0
09:09:17.456,AUTO,-35.3632607,149.1652465,5330,-0.06705445796251297,0.0020299835596233606,-0.08770228922367096,-0.09405013173818588,0.00318140909075737,-0.03640013560652733,1,-3,-998,-93,3,-36,1,5,-148,3951.0
09:09:17.658,AUTO,-35.3632607,149.1652464,5712,-0.07900803536176682,0.001831224886700511,-0.09639984369277954,0.014196761883795261,-0.0015335159841924906,-0.02777094393968582,0,0,-1005,14,0,-28,0,-14,-148,3951.0
09:09:17.860,AUTO,-35.3632608,149.1652458,6096,-0.06816842406988144,0.000753288040868938,-0.10248897224664688,0.05237024649977684,-0.0017844169633463025,-0.018990958109498024,-2,4,-1002,52,-1,-19,-2,-32,-148,3951.0
09:09:18.062,AUTO,-35.3632608,149.1652448,6478,-0.054253458976745605,0.0008201369782909751,-0.10670818388462067,0.058370862156152725,0.003609257284551859,-0.01269895676523447,-3,6,-1000,59,4,-12,-4,-46,-148,3951.0
09:09:18.264,AUTO,-35.3632608,149.1652448,6478,-0.054253458976745605,0.0008201369782909751,-0.10670818388462067,0.058370862156152725,0.003609257284551859,-0.01269895676523447,-3,6,-1000,59,4,-12,-4,-46,-148,3951.0
09:09:18.466,AUTO,-35.3632608,149.1652448,6478,-0.054253458976745605,0.0008201369782909751,-0.10670818388462067,0.058370862156152725,0.003609257284551859,-0.01269895676523447,-3,6,-1000,59,4,-12,-4,-46,-148,3951.0
09:09:18.669,AUTO,-35.3632608,149.1652448,6478,-0.054253458976745605,0.0008201369782909751,-0.10670818388462067,0.058370862156152725,0.003609257284551859,-0.01269895676523447,-3,6,-1000,59,4,-12,-4,-46,-148,3951.0
09:09:18.871,AUTO,-35.3632613,149.1652401,7629,-0.006112788338214159,0.007442831061780453,-0.11162102967500687,0.06935308128595352,0.012128989212214947,-0.001633079256862402,-6,12,-1003,69,13,-1,-11,-62,-149,3951.0
09:09:19.072,AUTO,-35.3632616,149.1652384,8015,0.010893899947404861,0.010208375751972198,-0.11141777038574219,0.06915806233882904,0.010895504616200924,0.001008926541544497,-5,13,-1004,69,11,0,-15,-58,-150,3951.0
09:09:19.274,AUTO,-35.3632616,149.1652384,8015,0.010893899947404861,0.010208375751972198,-0.11141777038574219,0.06915806233882904,0.010895504616200924,0.001008926541544497,-5,13,-1004,69,11,0,-15,-58,-150,3951.0
09:09:19.476,AUTO,-35.3632619,149.1652368,8409,0.028170453384518623,0.012554393149912357,-0.11061431467533112,0.06766761839389801,0.007528610527515411,0.003231645096093416,-6,15,-1004,68,8,2,-17,-50,-151,3951.0
09:09:19.678,AUTO,-35.3632624,149.1652355,8801,0.04489528760313988,0.01389695517718792,-0.10927755385637283,0.06624658405780792,0.0033188797533512115,0.004219371359795332,-4,13,-1004,67,4,3,-20,-39,-152,3951.0
09:09:19.880,AUTO,-35.3632628,149.1652346,9194,0.060956504195928574,0.013892821036279202,-0.10765514522790909,0.06336650997400284,-0.002146523678675294,0.0050312550738453865,0,8,-1002,64,-1,4,-22,-24,-152,3951.0
09:09:20.082,AUTO,-35.3632633,149.165234,9587,0.0749129131436348,0.011500844731926918,-0.10463885962963104,0.030240992084145546,-0.027806146070361137,0.03133794292807579,2,6,-997,30,-27,30,-23,-6,-152,3951.0
09:09:20.284,AUTO,-35.3632633,149.165234,9587,0.0749129131436348,0.011500844731926918,-0.10463885962963104,0.030240992084145546,-0.027806146070361137,0.03133794292807579,2,6,-997,30,-27,30,-23,-6,-152,3951.0
09:09:20.486,AUTO,-35.3632633,149.165234,9587,0.0749129131436348,0.011500844731926918,-0.10463885962963104,0.030240992084145546,-0.027806146070361137,0.03133794292807579,2,6,-997,30,-27,30,-23,-6,-152,3951.0
09:09:20.688,AUTO,-35.3632633,149.165234,9587,0.0749129131436348,0.011500844731926918,-0.10463885962963104,0.030240992084145546,-0.027806146070361137,0.03133794292807579,2,6,-997,30,-27,30,-23,-6,-152,3951.0
09:09:20.890,AUTO,-35.3632643,149.1652351,10742,0.03033623658120632,-0.06335010379552841,-0.039073169231414795,-0.12674564123153687,-0.0012135212309658527,0.03518706560134888,3,-4,-995,-126,0,34,4,33,-147,3951.0
09:09:21.092,AUTO,-35.3632641,149.1652359,11121,0.0001010356136248447,-0.04865705221891403,-0.043774574995040894,-0.10674188286066055,0.08892469853162766,-0.0498240664601326,2,-8,-1002,-106,89,-50,19,33,-147,3951.0
09:09:21.293,AUTO,-35.3632641,149.1652359,11121,0.0001010356136248447,-0.04865705221891403,-0.043774574995040894,-0.10674188286066055,0.08892469853162766,-0.0498240664601326,2,-8,-1002,-106,89,-50,19,33,-147,3951.0
09:09:21.559,AUTO,-35.3632629,149.1652372,11883,-0.03010268323123455,-0.009188010357320309,-0.08601920306682587,-0.025228558108210564,0.05884639918804169,-0.08677440136671066,-2,-8,-1006,-24,59,-87,32,17,-149,3951.0
09:09:21.813,AUTO,-35.3632622,149.1652375,12270,-0.032389868050813675,0.002231068443506956,-0.10842772573232651,0.005332249216735363,0.04076060652732849,-0.08255111426115036,-2,-8,-1006,-24,59,-87,31,6,-150,3951.0
09:09:22.065,AUTO,-35.3632615,149.1652375,12658,-0.029095103964209557,0.01054265908896923,-0.1287488490343094,0.021569522097706795,0.031714875251054764,-0.07082461565732956,-4,-4,-1003,22,32,-71,27,-3,-151,3951.0
09:09:22.340,AUTO,-35.3632615,149.1652375,12658,-0.029095103964209557,0.01054265908896923,-0.1287488490343094,0.021569522097706795,0.031714875251054764,-0.07082461565732956,-4,-4,-1003,22,32,-71,27,-3,-151,3951.0
09:09:22.579,AUTO,-35.3632615,149.1652375,12658,-0.029095103964209557,0.01054265908896923,-0.1287488490343094,0.021569522097706795,0.031714875251054764,-0.07082461565732956,-4,-4,-1003,22,32,-71,27,-3,-151,3951.0
09:09:22.833,AUTO,-35.3632601,149.1652365,13834,-0.0019785868935287,0.02391861006617546,-0.16756707429885864,0.04277217388153076,0.013279630802571774,-0.0313345231115818,-4,1,-1000,43,13,-31,9,-16,-152,3951.0
09:09:23.037,AUTO,-35.3632601,149.1652365,13834,-0.0019785868935287,0.02391861006617546,-0.16756707429885864,0.04277217388153076,0.013279630802571774,-0.0313345231115818,-4,1,-1000,43,13,-31,9,-16,-152,3951.0
09:09:23.240,AUTO,-35.36326,149.165236,14226,0.007292758207768202,0.025600828230381012,-0.1735571026802063,0.03555276244878769,0.00046748085878789425,-0.015508787706494331,-3,2,-1000,35,1,-16,3,-15,-152,3951.0
09:09:23.443,AUTO,-35.3632599,149.1652356,14617,0.014061905443668365,0.024576719850301743,-0.1759108304977417,0.020953429862856865,-0.007279210723936558,-0.00524339871481061,-3,2,-999,21,-6,-5,-2,-11,-152,61187.0
09:09:23.645,AUTO,-35.36326,149.1652353,15009,0.017978226765990257,0.021612020209431648,-0.17539748549461365,0.013953783549368382,-0.012224581092596054,0.003168588038533926,0,2,-999,14,-11,2,-7,-7,-152,61187.0
09:09:23.847,AUTO,-35.3632601,149.1652351,15406,0.019142117351293564,0.01812761090695858,-0.17355559766292572,-0.0012695062905550003,-0.014743328094482422,0.008253201842308044,0,2,-998,0,-14,7,-10,-2,-152,61187.0
09:09:24.049,AUTO,-35.3632601,149.1652351,15406,0.019142117351293564,0.01812761090695858,-0.17355559766292572,-0.0012695062905550003,-0.014743328094482422,0.008253201842308044,0,2,-998,0,-14,7,-10,-2,-152,61187.0
09:09:24.251,AUTO,-35.3632602,149.165235,15795,0.017841987311840057,0.014230080880224705,-0.17119121551513672,-0.008422440849244595,-0.015955334529280663,0.009023566730320454,0,1,-999,-7,-15,8,-12,2,-151,61187.0
09:09:24.454,AUTO,-35.3632602,149.165235,15795,0.017841987311840057,0.014230080880224705,-0.17119121551513672,-0.008422440849244595,-0.015955334529280663,0.009023566730320454,0,1,-999,-7,-15,8,-12,2,-151,61187.0
09:09:24.657,AUTO,-35.3632602,149.165235,15795,0.017841987311840057,0.014230080880224705,-0.17119121551513672,-0.008422440849244595,-0.015955334529280663,0.009023566730320454,0,1,-999,-7,-15,8,-12,2,-151,61187.0
09:09:24.858,AUTO,-35.363261,149.1652352,16954,0.009025740437209606,0.004271854646503925,-0.16849692165851593,-0.011150808073580265,-0.009336695075035095,-0.0032068099826574326,3,0,-1000,-10,-8,-3,-13,10,-151,61187.0
09:09:25.060,AUTO,-35.3632613,149.1652354,17342,0.005987261421978474,0.001873485860414803,-0.16976302862167358,-0.010496832430362701,-0.00810123048722744,-0.008329886011779308,3,0,-1000,-9,-7,-8,-12,10,-151,61187.0
09:09:25.262,AUTO,-35.3632613,149.1652354,17342,0.005987261421978474,0.001873485860414803,-0.16976302862167358,-0.010496832430362701,-0.00810123048722744,-0.008329886011779308,3,0,-1000,-9,-7,-8,-12,10,-151,61187.0
09:09:25.463,AUTO,-35.3632615,149.1652356,17732,0.0035287050995975733,0.00016240094555541873,-0.17248837649822235,-0.007539048790931702,-0.00477623613551259,-0.016010707244277,2,0,-1000,-6,-3,-16,-11,10,-152,61187.0
09:09:25.665,AUTO,-35.3632617,149.1652358,18120,0.001795697258785367,-0.0011382685042917728,-0.17611433565616608,-0.00497415428981185,-0.004187866114079952,-0.017849911004304886,2,0,-1000,-4,-3,-18,-9,9,-152,61187.0
09:09:25.867,AUTO,-35.3632618,149.165236,18509,-0.0016406906070187688,-0.0020647153723984957,-0.1806069165468216,-0.044210392981767654,-0.0028641929384320974,-0.020006215199828148,2,0,-996,-43,-2,-20,-8,8,-151,61187.0
09:09:26.069,AUTO,-35.363262,149.1652361,18896,-0.02307474985718727,-0.0025376605335623026,-0.186166450381279,-0.11186010390520096,-0.0010406490182504058,-0.02519535832107067,1,0,-994,-111,0,-25,-7,4,-150,61187.0
09:09:26.270,AUTO,-35.363262,149.1652361,18896,-0.02307474985718727,-0.0025376605335623026,-0.186166450381279,-0.11186010390520096,-0.0010406490182504058,-0.02519535832107067,1,0,-994,-111,0,-25,-7,4,-150,61187.0
09:09:26.473,AUTO,-35.363262,149.1652361,18896,-0.02307474985718727,-0.0025376605335623026,-0.186166450381279,-0.11186010390520096,-0.0010406490182504058,-0.02519535832107067,1,0,-994,-111,0,-25,-7,4,-150,61187.0
09:09:26.675,AUTO,-35.363262,149.1652361,18896,-0.02307474985718727,-0.0025376605335623026,-0.186166450381279,-0.11186010390520096,-0.0010406490182504058,-0.02519535832107067,1,0,-994,-111,0,-25,-7,4,-150,61187.0
09:09:26.877,AUTO,-35.3632626,149.165235,20011,-0.05401423200964928,0.05195581167936325,-0.03236716613173485,0.07252969592809677,-0.020113306120038033,0.40209174156188965,0,7,-955,73,-19,401,-22,-32,-135,61187.0
09:09:27.078,AUTO,-35.3632632,149.1652339,20343,-0.018712658435106277,0.02297530137002468,0.040202315896749496,0.15704964101314545,-0.17698410153388977,0.18447718024253845,0,8,-951,157,-176,183,-31,-39,-123,61187.0
09:09:27.280,AUTO,-35.3632632,149.1652339,20343,-0.018712658435106277,0.02297530137002468,0.040202315896749496,0.15704964101314545,-0.17698410153388977,0.18447718024253845,0,8,-951,157,-176,183,-31,-39,-123,61187.0
09:09:27.493,AUTO,-35.3632638,149.1652328,20644,0.01884402334690094,-0.015978578478097916,0.06434639543294907,0.1352541595697403,-0.12589047849178314,0.03027527593076229,2,12,-954,136,-125,29,-30,-37,-112,61187.0
09:09:27.757,AUTO,-35.3632644,149.1652319,20917,0.046138230711221695,-0.03633560240268707,0.06156701222062111,0.08588811755180359,-0.049623023718595505,-0.03621875122189522,1,10,-958,86,-49,-36,-24,-27,-101,61187.0
09:09:28.002,AUTO,-35.3632648,149.1652312,21163,0.06090376526117325,-0.04186733067035675,0.050874825567007065,0.03601342439651489,-0.005687938071787357,-0.043231528252363205,0,6,-962,37,-4,-43,-14,-12,-90,61187.0
09:09:28.242,AUTO,-35.363265,149.165231,21382,0.06427638977766037,-0.039349693804979324,0.042191918939352036,-0.004958142060786486,0.016845017671585083,-0.028949353843927383,0,1,-966,-4,17,-29,-5,2,-81,61187.0
09:09:28.527,AUTO,-35.363265,149.165231,21382,0.06427638977766037,-0.039349693804979324,0.042191918939352036,-0.004958142060786486,0.016845017671585083,-0.028949353843927383,0,1,-966,-4,17,-29,-5,2,-81,61187.0
09:09:28.773,AUTO,-35.363265,149.165231,21382,0.06427638977766037,-0.039349693804979324,0.042191918939352036,-0.004958142060786486,0.016845017671585083,-0.028949353843927383,0,1,-966,-4,17,-29,-5,2,-81,61187.0
09:09:28.976,AUTO,-35.3632646,149.1652323,21918,0.03871626406908035,-0.015902234241366386,0.03455990180373192,-0.0440078042447567,0.0350775346159935,-0.000831500394269824,0,-9,-975,-43,35,-1,15,35,-59,61187.0
09:09:29.180,AUTO,-35.3632642,149.1652333,22061,0.026728512719273567,-0.0068668704479932785,0.03421046957373619,-0.053388651460409164,0.03370404243469238,0.0022844658233225346,0,-10,-977,-52,34,1,18,39,-53,61187.0
09:09:29.384,AUTO,-35.3632638,149.1652343,22191,0.015225901268422604,0.0009621792705729604,0.03402618318796158,-0.04401892051100731,0.02743614837527275,0.003168658586218953,1,-11,-978,-43,28,3,20,41,-48,15835.0
09:09:29.586,AUTO,-35.3632633,149.1652354,22306,0.006721096113324165,0.007110261823982,0.03365395963191986,-0.027093417942523956,0.0208438728004694,0.0037609138526022434,0,-10,-978,-26,21,3,19,40,-42,15835.0
09:09:29.788,AUTO,-35.3632633,149.1652354,22306,0.006721096113324165,0.007110261823982,0.03365395963191986,-0.027093417942523956,0.0208438728004694,0.0037609138526022434,0,-10,-978,-26,21,3,19,40,-42,15835.0
09:09:29.990,AUTO,-35.3632628,149.1652364,22409,-0.0004297115374356508,0.0117631321772933,0.03301454335451126,-0.029049579054117203,0.014736677519977093,0.0028707729652523994,1,-10,-978,-28,15,2,18,37,-37,15835.0
09:09:30.192,AUTO,-35.3632624,149.1652373,22495,-0.006092876195907593,0.014341955073177814,0.03231627866625786,-0.01894908770918846,0.006203549914062023,0.0002648552181199193,0,-8,-977,-18,6,0,15,33,-31,15835.0
09:09:30.394,AUTO,-35.3632624,149.1652373,22495,-0.006092876195907593,0.014341955073177814,0.03231627866625786,-0.01894908770918846,0.006203549914062023,0.0002648552181199193,0,-8,-977,-18,6,0,15,33,-31,15835.0
09:09:30.596,AUTO,-35.3632624,149.1652373,22495,-0.006092876195907593,0.014341955073177814,0.03231627866625786,-0.01894908770918846,0.006203549914062023,0.0002648552181199193,0,-8,-977,-18,6,0,15,33,-31,15835.0
09:09:30.797,AUTO,-35.3632624,149.1652373,22495,-0.006092876195907593,0.014341955073177814,0.03231627866625786,-0.01894908770918846,0.006203549914062023,0.0002648552181199193,0,-8,-977,-18,6,0,15,33,-31,15835.0
09:09:30.999,AUTO,-35.3632615,149.1652394,22658,-0.012624592520296574,0.014536247588694096,0.029635928571224213,-0.011717541143298149,-0.0023029011208564043,-0.003435493214055896,0,-5,-971,-10,-1,-3,7,18,-12,15835.0
09:09:31.201,AUTO,-35.3632614,149.1652398,22676,-0.011258495971560478,0.013122070580720901,0.028848806396126747,0.06394590437412262,-0.007922681048512459,-0.002375457901507616,0,-1,-965,65,-6,-2,4,13,-4,15835.0
09:09:31.402,AUTO,-35.3632613,149.1652401,22665,-0.04838263615965843,0.026715818792581558,0.02694442868232727,-0.4135080575942993,0.02222651056945324,-0.004260544665157795,1,-20,-938,-413,23,-4,0,5,11,15835.0
09:09:31.604,AUTO,-35.3632613,149.1652401,22622,-0.040727317333221436,0.017300618812441826,0.026350179687142372,-0.10465748608112335,-0.06767553836107254,-0.01482371799647808,0,13,-961,-102,-66,-15,-3,-3,20,15835.0
09:09:31.806,AUTO,-35.3632613,149.1652401,22622,-0.040727317333221436,0.017300618812441826,0.026350179687142372,-0.10465748608112335,-0.06767553836107254,-0.01482371799647808,0,13,-961,-102,-66,-15,-3,-3,20,15835.0
09:09:32.009,AUTO,-35.3632614,149.1652398,22564,0.0015585522633045912,-0.0004930282011628151,0.026004811748862267,0.8046621680259705,-0.06640519946813583,-0.007930607534945011,0,43,-1009,806,-65,-8,-5,-8,21,15835.0
09:09:32.211,AUTO,-35.3632614,149.1652397,22511,0.03459348902106285,-0.014602232724428177,0.025390317663550377,0.7903696298599243,-0.046947214752435684,0.0005133673548698425,0,27,-1029,791,-45,0,-2,-4,16,15835.0
09:09:32.412,AUTO,-35.3632614,149.1652397,22511,0.03459348902106285,-0.014602232724428177,0.025390317663550377,0.7903696298599243,-0.046947214752435684,0.0005133673548698425,0,27,-1029,791,-45,0,-2,-4,16,15835.0
09:09:32.623,AUTO,-35.3632614,149.1652397,22511,0.03459348902106285,-0.014602232724428177,0.025390317663550377,0.7903696298599243,-0.046947214752435684,0.0005133673548698425,0,27,-1029,791,-45,0,-2,-4,16,15835.0
09:09:32.826,AUTO,-35.363261,149.1652402,22420,0.07338589429855347,-0.03817795589566231,0.02140786126255989,-0.10564848780632019,-0.019977014511823654,-0.005250897258520126,-1,0,-1018,-103,-19,-5,17,31,5,15835.0
09:09:33.029,AUTO,-35.363261,149.1652402,22420,0.07338589429855347,-0.03817795589566231,0.02140786126255989,-0.10564848780632019,-0.019977014511823654,-0.005250897258520126,-1,0,-1018,-103,-19,-5,17,31,5,15835.0
09:09:33.230,AUTO,-35.3632605,149.1652413,22405,0.09291429817676544,-0.04398845136165619,0.05215252563357353,0.5829663872718811,0.009032560512423515,0.31259220838546753,0,20,-1016,584,9,312,27,49,2,15835.0
09:09:33.516,AUTO,-35.3632598,149.1652428,22394,0.09745031595230103,-0.056629519909620285,0.16416500508785248,0.19032485783100128,-0.008975441567599773,0.5176461935043335,0,-25,-1005,190,-8,517,37,67,1,15835.0
09:09:33.781,AUTO,-35.3632588,149.1652449,22387,0.09215369075536728,-0.07314305007457733,0.2960323095321655,-0.48904192447662354,-0.019002538174390793,0.5360381007194519,-3,-55,-994,-489,-17,535,48,87,0,15835.0
09:09:33.988,AUTO,-35.3632577,149.1652475,22378,0.08668813109397888,-0.0893639624118805,0.42315414547920227,-0.34497031569480896,-0.02762872539460659,0.4841926097869873,-7,-34,-1006,-343,-26,483,59,109,1,15835.0
09:09:34.196,AUTO,-35.3632562,149.1652509,22369,0.08977536857128143,-0.10482527315616608,0.5410436987876892,0.44543442130088806,-0.009318916127085686,0.4506985545158386,-16,-6,-1004,447,-8,450,71,132,1,15835.0
09:09:34.454,AUTO,-35.3632562,149.1652509,22369,0.08977536857128143,-0.10482527315616608,0.5410436987876892,0.44543442130088806,-0.009318916127085686,0.4506985545158386,-16,-6,-1004,447,-8,450,71,132,1,15835.0
09:09:34.667,AUTO,-35.3632562,149.1652509,22369,0.08977536857128143,-0.10482527315616608,0.5410436987876892,0.44543442130088806,-0.009318916127085686,0.4506985545158386,-16,-6,-1004,447,-8,450,71,132,1,15835.0
09:09:34.870,AUTO,-35.3632502,149.1652646,22326,0.06140227988362312,-0.15753108263015747,0.8683094382286072,-0.3085618317127228,-0.05217171087861061,0.4273603856563568,-35,-44,-1004,-307,-51,427,109,204,4,15835.0
09:09:35.072,AUTO,-35.3632475,149.1652706,22307,0.056719984859228134,-0.1745721995830536,0.9778445363044739,0.35440486669540405,-0.02704768441617489,0.4218961000442505,-42,-11,-1000,355,-26,421,124,231,5,15835.0
09:09:35.274,AUTO,-35.3632475,149.1652706,22307,0.056719984859228134,-0.1745721995830536,0.9778445363044739,0.35440486669540405,-0.02704768441617489,0.4218961000442505,-42,-11,-1000,355,-26,421,124,231,5,15835.0
09:09:35.477,AUTO,-35.3632446,149.1652773,22286,0.042660947889089584,-0.18244250118732452,1.0877434015274048,0.16131092607975006,0.004271458834409714,0.43264907598495483,-54,-26,-1002,161,5,432,138,259,6,3640.0
09:09:35.679,AUTO,-35.3632413,149.1652849,22264,0.02747485600411892,-0.18335400521755219,1.1616973876953125,-0.29340019822120667,0.003675095271319151,0.16870415210723877,-65,-41,-1003,-292,4,168,152,285,6,3640.0
09:09:35.881,AUTO,-35.3632378,149.165293,22243,0.033266421407461166,-0.18641088902950287,1.1755326986312866,0.17309285700321198,-0.034058019518852234,-0.026638580486178398,-79,-19,-1001,174,-33,-26,164,310,6,3640.0
09:09:36.083,AUTO,-35.363234,149.1653018,22220,0.03837834671139717,-0.19503119587898254,1.162161111831665,0.05356399342417717,-0.036801375448703766,-0.06617887318134308,-80,-41,-998,54,-35,-66,176,334,8,3640.0
09:09:36.285,AUTO,-35.363234,149.1653018,22220,0.03837834671139717,-0.19503119587898254,1.162161111831665,0.05356399342417717,-0.036801375448703766,-0.06617887318134308,-80,-41,-998,54,-35,-66,176,334,8,3640.0
09:09:36.487,AUTO,-35.363234,149.1653018,22220,0.03837834671139717,-0.19503119587898254,1.162161111831665,0.05356399342417717,-0.036801375448703766,-0.06617887318134308,-80,-41,-998,54,-35,-66,176,334,8,3640.0
09:09:36.689,AUTO,-35.363234,149.1653018,22220,0.03837834671139717,-0.19503119587898254,1.162161111831665,0.05356399342417717,-0.036801375448703766,-0.06617887318134308,-80,-41,-998,54,-35,-66,176,334,8,3640.0
09:09:36.891,AUTO,-35.3632208,149.1653322,22135,0.05239979922771454,-0.20874352753162384,1.1287384033203125,0.0360478013753891,-0.038847990334033966,-0.0037276712246239185,-95,-51,-995,37,-37,-4,213,409,11,3640.0
09:09:37.093,AUTO,-35.3632159,149.1653437,22102,0.05420764908194542,-0.2177148461341858,1.127261757850647,-0.02703065052628517,-0.03155650198459625,-0.0014319594483822584,-98,-50,-995,-26,-30,-1,226,434,13,3640.0
09:09:37.295,AUTO,-35.3632159,149.1653437,22102,0.05420764908194542,-0.2177148461341858,1.127261757850647,-0.02703065052628517,-0.03155650198459625,-0.0014319594483822584,-98,-50,-995,-26,-30,-1,226,434,13,3640.0
09:09:37.497,AUTO,-35.3632106,149.1653559,22065,0.06297329068183899,-0.22171445190906525,1.1260569095611572,0.05536065995693207,-0.00447396095842123,-0.002104208804666996,-100,-57,-997,56,-3,-2,240,459,13,3640.0
09:09:37.698,AUTO,-35.3632051,149.1653689,22028,0.06663814187049866,-0.21282631158828735,1.125929594039917,0.022986404597759247,0.05337906256318092,0.0003488395013846457,-110,-52,-1006,23,54,0,251,485,12,3640.0
09:09:37.900,AUTO,-35.3631993,149.1653826,21997,0.06447688490152359,-0.2016003578901291,1.1267366409301758,-0.028401292860507965,0.029326070100069046,0.005085780750960112,-118,-65,-1006,-27,30,4,262,507,10,3640.0
09:09:38.102,AUTO,-35.3631934,149.1653967,21971,0.0662895143032074,-0.19809593260288239,1.1267973184585571,0.007500437553972006,0.00648270919919014,-0.0036130317021161318,-128,-62,-996,8,7,-3,270,524,8,3640.0
09:09:38.304,AUTO,-35.3631934,149.1653967,21971,0.0662895143032074,-0.19809593260288239,1.1267973184585571,0.007500437553972006,0.00648270919919014,-0.0036130317021161318,-128,-62,-996,8,7,-3,270,524,8,3640.0
09:09:38.507,AUTO,-35.3631934,149.1653967,21971,0.0662895143032074,-0.19809593260288239,1.1267973184585571,0.007500437553972006,0.00648270919919014,-0.0036130317021161318,-128,-62,-996,8,7,-3,270,524,8,3640.0
09:09:38.709,AUTO,-35.3631934,149.1653967,21971,0.0662895143032074,-0.19809593260288239,1.1267973184585571,0.007500437553972006,0.00648270919919014,-0.0036130317021161318,-128,-62,-996,8,7,-3,270,524,8,3640.0
09:09:38.911,AUTO,-35.3631744,149.165442,21904,0.07267715036869049,-0.17640484869480133,1.1254881620407104,0.025832731276750565,-0.017014270648360252,0.0022289783228188753,-128,-75,-988,27,-16,1,292,566,6,3640.0
09:09:39.113,AUTO,-35.3631679,149.1654577,21881,0.07593410462141037,-0.1800215244293213,1.1241281032562256,-0.0016963009256869555,0.0014293118147179484,-0.0016141874948516488,-135,-94,-989,0,2,-1,297,576,9,3640.0
09:09:39.316,AUTO,-35.3631613,149.1654736,21852,0.07486360520124435,-0.1762881577014923,1.1239793300628662,-0.028721798211336136,0.0190004613250494,0.0002509715559426695,-135,-75,-990,-27,19,0,302,587,10,3640.0
09:09:39.598,AUTO,-35.3631545,149.16549,21823,0.0779765248298645,-0.16645735502243042,1.1229392290115356,0.048760268837213516,0.03217877820134163,-0.01148028764873743,-137,-75,-992,49,33,-11,306,595,10,3640.0
09:09:39.951,AUTO,-35.3631476,149.1655065,21795,0.07718732208013535,-0.157615065574646,1.1226848363876343,-0.009377822279930115,0.04083595424890518,-0.0008250223472714424,-134,-79,-994,-8,41,0,310,602,10,3640.0
09:09:40.223,AUTO,-35.3631407,149.1655232,21767,0.07539459317922592,-0.15283186733722687,1.1222660541534424,-0.019483089447021484,0.02821453846991062,0.008581099100410938,-117,-92,-979,-18,29,8,312,607,10,3640.0
09:09:40.497,AUTO,-35.3631407,149.1655232,21767,0.07539459317922592,-0.15283186733722687,1.1222660541534424,-0.019483089447021484,0.02821453846991062,0.008581099100410938,-117,-92,-979,-18,29,8,312,607,10,3640.0
09:09:40.741,AUTO,-35.3631407,149.1655232,21767,0.07539459317922592,-0.15283186733722687,1.1222660541534424,-0.019483089447021484,0.02821453846991062,0.008581099100410938,-117,-92,-979,-18,29,8,312,607,10,3640.0
09:09:40.943,AUTO,-35.3631197,149.165574,21686,0.07633677124977112,-0.1285121589899063,1.1226160526275635,0.005152531899511814,0.0312652662396431,0.0022664901334792376,-134,-67,-975,6,32,2,313,610,10,3640.0
09:09:41.146,AUTO,-35.3631127,149.1655908,21658,0.07590404152870178,-0.12470202893018723,1.121680736541748,0.009927699342370033,-0.027681827545166016,-0.007319923955947161,-123,-83,-976,10,-26,-7,312,608,11,3640.0
09:09:41.352,AUTO,-35.3631057,149.1656075,21625,0.07874070852994919,-0.13070301711559296,1.1201415061950684,0.008482180535793304,-0.04692615941166878,-0.008643776178359985,-139,-73,-972,9,-46,-8,312,605,14,109056.0
09:09:41.554,AUTO,-35.3631057,149.1656075,21625,0.07874070852994919,-0.13070301711559296,1.1201415061950684,0.008482180535793304,-0.04692615941166878,-0.008643776178359985,-139,-73,-972,9,-46,-8,312,605,14,109056.0
09:09:41.757,AUTO,-35.3630986,149.1656245,21584,0.076374351978302,-0.13505518436431885,1.1198800802230835,0.012446950189769268,-0.019419420510530472,-0.0016275213565677404,-131,-73,-979,13,-18,-1,311,606,17,109056.0
09:09:41.959,AUTO,-35.3630915,149.1656412,21537,0.07872016727924347,-0.13805508613586426,1.1199523210525513,0.04503535106778145,-0.01790260151028633,-0.0040076375007629395,-137,-74,-988,45,-17,-4,312,606,18,109056.0
09:09:42.161,AUTO,-35.3630845,149.1656579,21490,0.08254240453243256,-0.1434326469898224,1.119184136390686,-0.006999264936894178,-0.03581155464053154,-0.007808716967701912,-145,-81,-987,-5,-34,-8,312,606,19,109056.0
09:09:42.364,AUTO,-35.3630845,149.1656579,21490,0.08254240453243256,-0.1434326469898224,1.119184136390686,-0.006999264936894178,-0.03581155464053154,-0.007808716967701912,-145,-81,-987,-5,-34,-8,312,606,19,109056.0
09:09:42.566,AUTO,-35.3630845,149.1656579,21490,0.08254240453243256,-0.1434326469898224,1.119184136390686,-0.006999264936894178,-0.03581155464053154,-0.007808716967701912,-145,-81,-987,-5,-34,-8,312,606,19,109056.0
09:09:42.768,AUTO,-35.3630845,149.1656579,21490,0.08254240453243256,-0.1434326469898224,1.119184136390686,-0.006999264936894178,-0.03581155464053154,-0.007808716967701912,-145,-81,-987,-5,-34,-8,312,606,19,109056.0
09:09:42.970,AUTO,-35.3630631,149.1657083,21346,0.08536263555288315,-0.1352940797805786,1.117025375366211,-0.03044217824935913,0.01478474959731102,0.0006355627556331456,-133,-89,-999,-29,15,0,313,612,16,109056.0
09:09:43.172,AUTO,-35.363056,149.1657252,21305,0.08558869361877441,-0.13449959456920624,1.1168230772018433,-0.003285309998318553,-0.0003016598057001829,0.0007935374742373824,-144,-87,-993,-2,0,0,312,612,15,109056.0
09:09:43.374,AUTO,-35.3630489,149.1657419,21264,0.08544018119573593,-0.13266003131866455,1.1170096397399902,-0.007883405312895775,0.05460533872246742,-0.0018320196541026235,-136,-81,-989,-6,55,-2,312,612,16,109056.0
09:09:43.576,AUTO,-35.3630418,149.1657588,21228,0.08569375425577164,-0.1144728809595108,1.1174601316452026,0.01431330293416977,0.10073520243167877,-0.008838455192744732,-124,-96,-1003,15,101,-9,311,610,12,109056.0
09:09:43.779,AUTO,-35.3630418,149.1657588,21228,0.08569375425577164,-0.1144728809595108,1.1174601316452026,0.01431330293416977,0.10073520243167877,-0.008838455192744732,-124,-96,-1003,15,101,-9,311,610,12,109056.0
09:09:43.981,AUTO,-35.3630347,149.1657755,21202,0.08874601125717163,-0.09250152856111526,1.1167610883712769,-0.0021077687852084637,0.0414116196334362,0.004557061940431595,-124,-100,-1002,-1,42,4,308,604,8,109056.0
09:09:44.183,AUTO,-35.3630278,149.165792,21183,0.09154785424470901,-0.0752270519733429,1.1163830757141113,-0.04255562648177147,0.0730624571442604,-0.005389680620282888,-139,-88,-1004,-41,73,-5,303,596,6,109056.0
09:09:44.385,AUTO,-35.3630278,149.165792,21183,0.09154785424470901,-0.0752270519733429,1.1163830757141113,-0.04255562648177147,0.0730624571442604,-0.005389680620282888,-139,-88,-1004,-41,73,-5,303,596,6,109056.0
09:09:44.589,AUTO,-35.3630278,149.165792,21183,0.09154785424470901,-0.0752270519733429,1.1163830757141113,-0.04255562648177147,0.0730624571442604,-0.005389680620282888,-139,-88,-1004,-41,73,-5,303,596,6,109056.0
09:09:44.791,AUTO,-35.3630278,149.165792,21183,0.09154785424470901,-0.0752270519733429,1.1163830757141113,-0.04255562648177147,0.0730624571442604,-0.005389680620282888,-139,-88,-1004,-41,73,-5,303,596,6,109056.0
09:09:44.993,AUTO,-35.3630079,149.1658397,21126,0.08331767469644547,-0.04371332749724388,1.1169675588607788,-0.08586017787456512,0.05425865575671196,-0.01613299362361431,-126,-79,-992,-84,55,-16,278,554,9,109056.0
09:09:45.194,AUTO,-35.3630017,149.1658547,21103,0.08282843977212906,-0.03255642578005791,1.1164804697036743,0.07406185567378998,0.0456935353577137,-0.01656568981707096,-108,-82,-984,75,46,-17,270,536,10,109056.0
09:09:45.401,AUTO,-35.3629957,149.1658693,21077,0.08357934653759003,-0.019730666652321815,1.1165974140167236,0.028177855536341667,0.04326540231704712,0.00043222197564318776,-120,-85,-993,28,44,0,260,517,11,109056.0
09:09:45.737,AUTO,-35.3629899,149.1658832,21048,0.07518479973077774,-0.01134309358894825,1.1166644096374512,-0.252327024936676,0.04659612104296684,0.009010684676468372,-116,-83,-994,-251,47,8,248,496,12,109056.0
09:09:46.000,AUTO,-35.3629845,149.1658966,21016,0.07753024995326996,0.0020272093825042248,1.116457223892212,0.3451012969017029,0.05968292057514191,-0.023959629237651825,-105,-49,-999,347,60,-24,237,474,13,109056.0
09:09:46.268,AUTO,-35.3629792,149.1659095,20980,0.07775567471981049,0.015345473773777485,1.1170834302902222,0.24814851582050323,0.05947760492563248,0.0131034255027771,-97,-74,-985,248,60,12,225,451,16,109056.0
09:09:46.483,AUTO,-35.3629792,149.1659095,20980,0.07775567471981049,0.015345473773777485,1.1170834302902222,0.24814851582050323,0.05947760492563248,0.0131034255027771,-97,-74,-985,248,60,12,225,451,16,109056.0
09:09:46.686,AUTO,-35.3629792,149.1659095,20980,0.07775567471981049,0.015345473773777485,1.1170834302902222,0.24814851582050323,0.05947760492563248,0.0131034255027771,-97,-74,-985,248,60,12,225,451,16,109056.0
09:09:46.889,AUTO,-35.3629654,149.1659435,20853,0.04892557114362717,0.047302860766649246,1.117182970046997,-0.9164087176322937,0.030657390132546425,0.025344187393784523,-80,-84,-1003,-915,31,24,184,370,16,109056.0
09:09:47.091,AUTO,-35.3629615,149.1659534,20815,0.041374001652002335,0.052685871720314026,1.116193175315857,-0.33020317554473877,0.006048078648746014,-0.01828603819012642,-83,-45,-1014,-327,6,-18,169,343,14,109056.0
09:09:47.293,AUTO,-35.3629615,149.1659534,20815,0.041374001652002335,0.052685871720314026,1.116193175315857,-0.33020317554473877,0.006048078648746014,-0.01828603819012642,-83,-45,-1014,-327,6,-18,169,343,14,35306.0
09:09:47.495,AUTO,-35.3629578,149.1659626,20783,0.04975396394729614,0.05036814883351326,1.115726351737976,0.5266261696815491,-0.010669678449630737,-0.041203904896974564,-71,-4,-1016,529,-9,-41,156,315,12,35306.0
09:09:47.698,AUTO,-35.3629545,149.165971,20754,0.053389888256788254,0.04954696074128151,1.1155104637145996,0.7965816259384155,0.014456899836659431,-0.014152774587273598,-65,-20,-1008,797,15,-14,144,290,12,35306.0
09:09:47.900,AUTO,-35.3629515,149.1659787,20728,0.04754718765616417,0.054495591670274734,1.116397738456726,0.11142696440219879,0.02836223505437374,0.023980647325515747,-53,-59,-1006,111,29,23,134,265,10,35306.0
09:09:48.102,AUTO,-35.3629487,149.1659858,20706,0.031072156503796577,0.062055572867393494,1.116155982017517,-0.746640682220459,0.024764414876699448,0.02546769753098488,-52,-78,-1001,-746,25,25,122,240,9,35306.0
09:09:48.305,AUTO,-35.3629487,149.1659858,20706,0.031072156503796577,0.062055572867393494,1.116155982017517,-0.746640682220459,0.024764414876699448,0.02546769753098488,-52,-78,-1001,-746,25,25,122,240,9,35306.0
09:09:48.507,AUTO,-35.3629487,149.1659858,20706,0.031072156503796577,0.062055572867393494,1.116155982017517,-0.746640682220459,0.024764414876699448,0.02546769753098488,-52,-78,-1001,-746,25,25,122,240,9,35306.0
09:09:48.709,AUTO,-35.3629487,149.1659858,20706,0.031072156503796577,0.062055572867393494,1.116155982017517,-0.746640682220459,0.024764414876699448,0.02546769753098488,-52,-78,-1001,-746,25,25,122,240,9,35306.0
09:09:48.912,AUTO,-35.3629422,149.1660031,20659,0.024387676268815994,0.08131971955299377,1.1140427589416504,0.6828963756561279,0.03301960229873657,-0.010183067061007023,-36,0,-1016,684,34,-10,86,165,5,35306.0
09:09:49.113,AUTO,-35.3629406,149.1660076,20651,0.017900491133332253,0.08664003014564514,1.1135139465332031,-0.08793064206838608,0.006143316626548767,0.01324667688459158,-29,-45,-999,-88,7,13,75,138,4,35306.0
09:09:49.316,AUTO,-35.3629406,149.1660076,20651,0.017900491133332253,0.08664003014564514,1.1135139465332031,-0.08793064206838608,0.006143316626548767,0.01324667688459158,-29,-45,-999,-88,7,13,75,138,4,35306.0
09:09:49.521,AUTO,-35.3629392,149.1660113,20641,0.007682593539357185,0.08282878249883652,1.1133794784545898,-0.679046630859375,-0.03549749404191971,0.018278317525982857,-25,-56,-1002,-679,-34,18,64,113,6,35306.0
09:09:49.724,AUTO,-35.362938,149.1660143,20627,0.00267152301967144,0.07375356554985046,1.1135179996490479,-0.7736929059028625,-0.03301909565925598,0.009229792281985283,-20,-45,-1020,-773,-31,9,53,92,6,35306.0
09:09:49.926,AUTO,-35.3629371,149.1660168,20618,-0.006701140198856592,0.06471031904220581,1.1133918762207031,-0.3382943272590637,-0.030655594542622566,-0.0018855284433811903,-18,-11,-1002,-336,-29,-2,44,73,3,35306.0
09:09:50.128,AUTO,-35.3629363,149.1660188,20612,0.004074885044246912,0.05900445207953453,1.113028645515442,0.48786455392837524,-0.02222498133778572,-0.005533240269869566,-15,19,-1014,489,-21,-5,38,55,2,35306.0
09:09:50.331,AUTO,-35.3629363,149.1660188,20612,0.004074885044246912,0.05900445207953453,1.113028645515442,0.48786455392837524,-0.02222498133778572,-0.005533240269869566,-15,19,-1014,489,-21,-5,38,55,2,35306.0
09:09:50.538,AUTO,-35.3629363,149.1660188,20612,0.004074885044246912,0.05900445207953453,1.113028645515442,0.48786455392837524,-0.02222498133778572,-0.005533240269869566,-15,19,-1014,489,-21,-5,38,55,2,35306.0
09:09:50.740,AUTO,-35.3629363,149.1660188,20612,0.004074885044246912,0.05900445207953453,1.113028645515442,0.48786455392837524,-0.02222498133778572,-0.005533240269869566,-15,19,-1014,489,-21,-5,38,55,2,35306.0
09:09:50.942,AUTO,-35.3629346,149.1660222,20608,-0.007111131213605404,0.04309898614883423,1.1126444339752197,-0.6234195828437805,-0.017765620723366737,0.0002028442977461964,-6,-33,-1006,-622,-16,0,21,16,0,35306.0
09:09:51.145,AUTO,-35.3629343,149.1660227,20610,-0.007519017904996872,0.03846600279211998,1.112720012664795,-0.14562900364398956,-0.021277843043208122,-0.0010938659543171525,-5,10,-1001,-143,-20,-1,15,7,0,35306.0
09:09:51.398,AUTO,-35.362934,149.166023,20613,0.005708562210202217,0.032811250537633896,1.1128966808319092,0.6096861958503723,-0.024903589859604836,-0.0035035675391554832,-4,31,-997,611,-23,-3,11,0,0,35306.0
09:09:51.663,AUTO,-35.3629338,149.1660231,20615,0.007598423399031162,0.026901358738541603,1.1126071214675903,0.4077856242656708,-0.02071218006312847,-0.00500552449375391,-1,4,-1001,407,-19,-4,8,-6,0,35306.0
09:09:51.978,AUTO,-35.3629337,149.166023,20617,-0.004099616780877113,0.021395539864897728,1.1122825145721436,-0.5153874754905701,-0.02199418656527996,-0.0018045067554339767,-1,-26,-1000,-515,-21,-1,6,-10,0,35306.0
09:09:52.342,AUTO,-35.3629336,149.1660229,20621,-0.00934056006371975,0.01501660980284214,1.1124968528747559,-0.25930121541023254,-0.027431439608335495,-0.0037955145817250013,0,4,-1000,-257,-26,-3,3,-13,0,35306.0
09:09:52.545,AUTO,-35.3629336,149.1660229,20621,-0.00934056006371975,0.01501660980284214,1.1124968528747559,-0.25930121541023254,-0.027431439608335495,-0.0037955145817250013,0,4,-1000,-257,-26,-3,3,-13,0,35306.0
09:09:52.755,AUTO,-35.3629336,149.1660229,20621,-0.00934056006371975,0.01501660980284214,1.1124968528747559,-0.25930121541023254,-0.027431439608335495,-0.0037955145817250013,0,4,-1000,-257,-26,-3,3,-13,0,35306.0
09:09:52.959,AUTO,-35.3629336,149.1660225,20627,-0.002935928525403142,-0.004050237126648426,1.1116148233413696,-0.21803241968154907,0.008808525279164314,-0.007858863100409508,0,-22,-1011,-218,9,-7,3,-13,0,35306.0
09:09:53.162,AUTO,-35.3629336,149.1660225,20630,-0.015053209848701954,0.0020303891506046057,1.1113293170928955,-0.6197975277900696,0.024227673187851906,-0.002045180182904005,0,-22,-993,-619,25,-2,4,-12,1,35306.0
09:09:53.372,RTL,-35.3629335,149.1660224,20631,-0.009219778701663017,0.0019952538423240185,1.1108325719833374,-0.0830356702208519,-0.024982944130897522,-0.002319766441360116,0,11,-994,-81,-23,-2,4,-11,0,35426.0
09:09:53.573,RTL,-35.3629335,149.1660224,20631,-0.009219778701663017,0.0019952538423240185,1.1108325719833374,-0.0830356702208519,-0.024982944130897522,-0.002319766441360116,0,11,-994,-81,-23,-2,4,-11,0,35426.0
09:09:53.775,RTL,-35.3629334,149.1660223,20632,0.0071164462715387344,0.003116349224001169,1.1098294258117676,0.6861205101013184,0.012619170360267162,-0.0005957906250841916,-2,29,-1013,687,13,0,4,-11,0,35426.0
09:09:53.977,RTL,-35.3629332,149.1660222,20634,0.006061781197786331,0.003834046423435211,1.1099224090576172,0.14229723811149597,0.0046378616243600845,-0.0017495083156973124,-1,1,-1015,142,5,-1,4,-11,0,35426.0
09:09:54.180,RTL,-35.3629331,149.1660221,20645,-0.002130611101165414,0.0042197383008897305,1.1088614463806152,-0.5233473777770996,-0.0011939362157136202,-0.002791841048747301,-2,-26,-1018,-523,0,-2,3,-11,-4,35426.0
09:09:54.382,RTL,-35.3629331,149.1660221,20645,-0.002130611101165414,0.0042197383008897305,1.1088614463806152,-0.5233473777770996,-0.0011939362157136202,-0.002791841048747301,-2,-26,-1018,-523,0,-2,3,-11,-4,35426.0
